{"data": {"bikes": [{"fusion_lon": 0.0, "bike_id": "15c652a45380f3b5c8f4433537b61f60", "name": "15c652a45380f3b5c8f4433537b61f60", "type": "electric_scooter", "lon": -77.0504665, "rental_uris": {"android": "https://dc.lft.to/lastmile_qr_scan", "ios": "https://dc.lft.to/lastmile_qr_scan"}, "lat": 38.900614, "is_reserved": 0, "is_disabled": 0, "fusion_lat": 0.0}, {"fusion_lon": 0.0, "bike_id": "31c329832ec67d3f8cc8ba568de577c9", "name": "31c329832ec67d3f8cc8ba568de577c9", "type": "electric_scooter", "lon": -77.02651933333334, "rental_uris": {"android": "https://dc.lft.to/lastmile_qr_scan", "ios": "https://dc.lft.to/lastmile_qr_scan"}, "lat": 38.892247, "is_reserved": 0, "is_disabled": 0, "fusion_lat": 0.0}, {"fusion_lon": 0.0, "bike_id": "7144aaea3e7f29c708c26b984e0cb978", "name": "7144aaea3e7f29c708c26b984e0cb978", "type": "electric_bike", "lon": -76.92886666666666, "rental_uris": {"android": "https://dc.lft.to/lastmile_qr_scan", "ios": "https://dc.lft.to/lastmile_qr_scan"}, "lat": 38.9784775, "is_reserved": 0, "is_disabled": 0, "fusion_lat": 0.0}, {"fusion_lon": 0.0, "bike_id": "8403308272f696e8b2dba0d618159e2d", "name": "8403308272f696e8b2dba0d618159e2d", "type": "electric_scooter", "lon": -77.01757683333334, "rental_uris": {"android": "https://dc.lft.to/lastmile_qr_scan", "ios": "https://dc.lft.to/lastmile_qr_scan"}, "lat": 38.87687833333333, "is_reserved": 0, "is_disabled": 0, "fusion_lat": 0.0}, {"fusion_lon": 0.0, "bike_id": "6267840dcf94d4dc16520b2255f514b7", "name": "6267840dcf94d4dc16520b2255f514b7", "type": "electric_scooter", "lon": -77.03634483333333, "rental_uris": {"android": "https://dc.lft.to/lastmile_qr_scan", "ios": "https://dc.lft.to/lastmile_qr_scan"}, "lat": 38.9305305, "is_reserved": 0, "is_disabled": 0, "fusion_lat": 0.0}, {"fusion_lon": 0.0, "bike_id": "c1452f4af98d9c8603aa297938fe891a", "name": "c1452f4af98d9c8603aa297938fe891a", "type": "electric_scooter", "lon": -76.97803533333334, "rental_uris": {"android": "https://dc.lft.to/lastmile_qr_scan", "ios": "https://dc.lft.to/lastmile_qr_scan"}, "lat": 38.903140666666665, "is_reserved": 0, "is_disabled": 0, "fusion_lat": 0.0}, {"fusion_lon": 0.0, "bike_id": "777b3d141b51f521054dc0d7c7b8b07d", "name": "777b3d141b51f521054dc0d7c7b8b07d", "type": "electric_scooter", "lon": -76.99632533333333, "rental_uris": {"android": "https://dc.lft.to/lastmile_qr_scan", "ios": "https://dc.lft.to/lastmile_qr_scan"}, "lat": 38.846261, "is_reserved": 0, "is_disabled": 0, "fusion_lat": 0.0}, {"fusion_lon": 0.0, "bike_id": "aa5aa8396b03583b6578d9ba9442503a", "name": "aa5aa8396b03583b6578d9ba9442503a", "type": "electric_scooter", "lon": -77.01781916666667, "rental_uris": {"android": "https://dc.lft.to/lastmile_qr_scan", "ios": "https://dc.lft.to/lastmile_qr_scan"}, "lat": 38.92104066666667, "is_reserved": 0, "is_disabled": 0, "fusion_lat": 0.0}, {"fusion_lon": 0.0, "bike_id": "e6be27042fd0b3ab39c593912307b363", "name": "e6be27042fd0b3ab39c593912307b363", "type": "electric_scooter", "lon": -77.06126866666666, "rental_uris": {"android": "https://dc.lft.to/lastmile_qr_scan", "ios": "https://dc.lft.to/lastmile_qr_scan"}, "lat": 38.90536733333333, "is_reserved": 0, "is_disabled": 0, "fusion_lat": 0.0}, {"fusion_lon": 0.0, "bike_id": "9553ba633de2c765f26b9de04beb5955", "name": "9553ba633de2c765f26b9de04beb5955", "type": "electric_scooter", "lon": -77.0119775, "rental_uris": {"android": "https://dc.lft.to/lastmile_qr_scan", "ios": "https://dc.lft.to/lastmile_qr_scan"}, "lat": 38.895404666666664, "is_reserved": 0, "is_disabled": 0, "fusion_lat": 0.0}, {"fusion_lon": 0.0, "bike_id": "daf7c18397f819ee35a20f9b0b926024", "name": "daf7c18397f819ee35a20f9b0b926024", "type": "electric_scooter", "lon": -77.03155383333333, "rental_uris": {"android": "https://dc.lft.to/lastmile_qr_scan", "ios": "https://dc.lft.to/lastmile_qr_scan"}, "lat": 38.92815733333333, "is_reserved": 0, "is_disabled": 0, "fusion_lat": 0.0}, {"fusion_lon": 0.0, "bike_id": "263050e112be3d5a288c9254241d1de9", "name": "263050e112be3d5a288c9254241d1de9", "type": "electric_scooter", "lon": -77.03197483333334, "rental_uris": {"android": "https://dc.lft.to/lastmile_qr_scan", "ios": "https://dc.lft.to/lastmile_qr_scan"}, "lat": 38.908868, "is_reserved": 0, "is_disabled": 0, "fusion_lat": 0.0}, {"fusion_lon": 0.0, "bike_id": "477b9ae917c7a888b1902ba46047a148", "name": "477b9ae917c7a888b1902ba46047a148", "type": "electric_bike", "lon": -76.987532, "rental_uris": {"android": "https://dc.lft.to/lastmile_qr_scan", "ios": "https://dc.lft.to/lastmile_qr_scan"}, "lat": 38.9882825, "is_reserved": 0, "is_disabled": 0, "fusion_lat": 0.0}, {"fusion_lon": 0.0, "bike_id": "a490d9297e7faaa75ade039958525656", "name": "a490d9297e7faaa75ade039958525656", "type": "electric_scooter", "lon": -77.02948, "rental_uris": {"android": "https://dc.lft.to/lastmile_qr_scan", "ios": "https://dc.lft.to/lastmile_qr_scan"}, "lat": 38.9026665, "is_reserved": 0, "is_disabled": 0, "fusion_lat": 0.0}, {"fusion_lon": 0.0, "bike_id": "8d8f75790cca1510e917e575fc7a3677", "name": "8d8f75790cca1510e917e575fc7a3677", "type": "electric_scooter", "lon": -76.9335355, "rental_uris": {"android": "https://dc.lft.to/lastmile_qr_scan", "ios": "https://dc.lft.to/lastmile_qr_scan"}, "lat": 38.8879675, "is_reserved": 0, "is_disabled": 0, "fusion_lat": 0.0}, {"fusion_lon": 0.0, "bike_id": "4e6b4e51875d9c5a445c5a21c5e7e50d", "name": "4e6b4e51875d9c5a445c5a21c5e7e50d", "type": "electric_scooter", "lon": -77.00598283333333, "rental_uris": {"android": "https://dc.lft.to/lastmile_qr_scan", "ios": "https://dc.lft.to/lastmile_qr_scan"}, "lat": 38.87484766666667, "is_reserved": 0, "is_disabled": 0, "fusion_lat": 0.0}, {"fusion_lon": 0.0, "bike_id": "86bc3491b10c369c8856924221c76121", "name": "86bc3491b10c369c8856924221c76121", "type": "electric_scooter", "lon": -77.03753683333333, "rental_uris": {"android": "https://dc.lft.to/lastmile_qr_scan", "ios": "https://dc.lft.to/lastmile_qr_scan"}, "lat": 38.91259016666667, "is_reserved": 0, "is_disabled": 0, "fusion_lat": 0.0}, {"fusion_lon": 0.0, "bike_id": "b8b0c3f75127aa2aae8e2d38a60d60c3", "name": "b8b0c3f75127aa2aae8e2d38a60d60c3", "type": "electric_scooter", "lon": -77.05002616666667, "rental_uris": {"android": "https://dc.lft.to/lastmile_qr_scan", "ios": "https://dc.lft.to/lastmile_qr_scan"}, "lat": 38.892356166666666, "is_reserved": 0, "is_disabled": 0, "fusion_lat": 0.0}, {"fusion_lon": 0.0, "bike_id": "8194a30586ac57aab84ed464e97a1df2", "name": "8194a30586ac57aab84ed464e97a1df2", "type": "electric_scooter", "lon": -77.01097633333333, "rental_uris": {"android": "https://dc.lft.to/lastmile_qr_scan", "ios": "https://dc.lft.to/lastmile_qr_scan"}, "lat": 38.903595, "is_reserved": 0, "is_disabled": 0, "fusion_lat": 0.0}, {"fusion_lon": 0.0, "bike_id": "713fa5a17ed04bf1f7cff5fd34919a7a", "name": "713fa5a17ed04bf1f7cff5fd34919a7a", "type": "electric_scooter", "lon": -77.0291385, "rental_uris": {"android": "https://dc.lft.to/lastmile_qr_scan", "ios": "https://dc.lft.to/lastmile_qr_scan"}, "lat": 38.94438983333333, "is_reserved": 0, "is_disabled": 0, "fusion_lat": 0.0}, {"fusion_lon": 0.0, "bike_id": "38b48211cbbf928e2bea722070c66271", "name": "38b48211cbbf928e2bea722070c66271", "type": "electric_scooter", "lon": -77.03191466666667, "rental_uris": {"android": "https://dc.lft.to/lastmile_qr_scan", "ios": "https://dc.lft.to/lastmile_qr_scan"}, "lat": 38.9161315, "is_reserved": 0, "is_disabled": 0, "fusion_lat": 0.0}, {"fusion_lon": 0.0, "bike_id": "1e431d94fddd9f43e0f4b27157a69edf", "name": "1e431d94fddd9f43e0f4b27157a69edf", "type": "electric_scooter", "lon": -76.99960166666666, "rental_uris": {"android": "https://dc.lft.to/lastmile_qr_scan", "ios": "https://dc.lft.to/lastmile_qr_scan"}, "lat": 38.84285366666667, "is_reserved": 0, "is_disabled": 0, "fusion_lat": 0.0}, {"fusion_lon": 0.0, "bike_id": "39f21ca8e9cfc82ab17e5dcf8929cd0e", "name": "39f21ca8e9cfc82ab17e5dcf8929cd0e", "type": "electric_scooter", "lon": -77.01977933333333, "rental_uris": {"android": "https://dc.lft.to/lastmile_qr_scan", "ios": "https://dc.lft.to/lastmile_qr_scan"}, "lat": 38.887251666666664, "is_reserved": 0, "is_disabled": 0, "fusion_lat": 0.0}, {"fusion_lon": 0.0, "bike_id": "272fc92ef0acc032d25d4fef36a4ccf3", "name": "272fc92ef0acc032d25d4fef36a4ccf3", "type": "electric_scooter", "lon": -77.00885016666666, "rental_uris": {"android": "https://dc.lft.to/lastmile_qr_scan", "ios": "https://dc.lft.to/lastmile_qr_scan"}, "lat": 38.88269483333333, "is_reserved": 0, "is_disabled": 0, "fusion_lat": 0.0}, {"fusion_lon": 0.0, "bike_id": "91eef3c75d7780da7f4f6a78c8276769", "name": "91eef3c75d7780da7f4f6a78c8276769", "type": "electric_scooter", "lon": -77.00712166666666, "rental_uris": {"android": "https://dc.lft.to/lastmile_qr_scan", "ios": "https://dc.lft.to/lastmile_qr_scan"}, "lat": 38.884979, "is_reserved": 0, "is_disabled": 0, "fusion_lat": 0.0}, {"fusion_lon": 0.0, "bike_id": "31a1b35c68986d31733b1f892c48396a", "name": "31a1b35c68986d31733b1f892c48396a", "type": "electric_scooter", "lon": -77.00666783333334, "rental_uris": {"android": "https://dc.lft.to/lastmile_qr_scan", "ios": "https://dc.lft.to/lastmile_qr_scan"}, "lat": 38.8770635, "is_reserved": 0, "is_disabled": 0, "fusion_lat": 0.0}, {"fusion_lon": 0.0, "bike_id": "a83afae082899e638cd3bf5f039c96c0", "name": "a83afae082899e638cd3bf5f039c96c0", "type": "electric_scooter", "lon": -77.03448866666666, "rental_uris": {"android": "https://dc.lft.to/lastmile_qr_scan", "ios": "https://dc.lft.to/lastmile_qr_scan"}, "lat": 38.93427166666667, "is_reserved": 0, "is_disabled": 0, "fusion_lat": 0.0}, {"fusion_lon": 0.0, "bike_id": "e32e0b94e6c581ed5c1ddff6bf0e959f", "name": "e32e0b94e6c581ed5c1ddff6bf0e959f", "type": "electric_scooter", "lon": -77.004966, "rental_uris": {"android": "https://dc.lft.to/lastmile_qr_scan", "ios": "https://dc.lft.to/lastmile_qr_scan"}, "lat": 38.895757, "is_reserved": 0, "is_disabled": 0, "fusion_lat": 0.0}, {"fusion_lon": 0.0, "bike_id": "96024fb589d8514988955da3e008c3e8", "name": "96024fb589d8514988955da3e008c3e8", "type": "electric_scooter", "lon": -77.0334425, "rental_uris": {"android": "https://dc.lft.to/lastmile_qr_scan", "ios": "https://dc.lft.to/lastmile_qr_scan"}, "lat": 38.92873083333333, "is_reserved": 0, "is_disabled": 0, "fusion_lat": 0.0}, {"fusion_lon": 0.0, "bike_id": "875005f26830a7da8777c79f8077ce1f", "name": "875005f26830a7da8777c79f8077ce1f", "type": "electric_scooter", "lon": -77.02133283333333, "rental_uris": {"android": "https://dc.lft.to/lastmile_qr_scan", "ios": "https://dc.lft.to/lastmile_qr_scan"}, "lat": 38.896352666666665, "is_reserved": 0, "is_disabled": 0, "fusion_lat": 0.0}, {"fusion_lon": 0.0, "bike_id": "16aecb4b8ef18dbbb2f66f312c14c701", "name": "16aecb4b8ef18dbbb2f66f312c14c701", "type": "electric_scooter", "lon": -77.02832483333333, "rental_uris": {"android": "https://dc.lft.to/lastmile_qr_scan", "ios": "https://dc.lft.to/lastmile_qr_scan"}, "lat": 38.887301, "is_reserved": 0, "is_disabled": 0, "fusion_lat": 0.0}, {"fusion_lon": 0.0, "bike_id": "666d27f3b0ea5bfdc1434ba127af290a", "name": "666d27f3b0ea5bfdc1434ba127af290a", "type": "electric_scooter", "lon": -77.03487016666666, "rental_uris": {"android": "https://dc.lft.to/lastmile_qr_scan", "ios": "https://dc.lft.to/lastmile_qr_scan"}, "lat": 38.921541166666664, "is_reserved": 0, "is_disabled": 0, "fusion_lat": 0.0}, {"fusion_lon": 0.0, "bike_id": "b716810709baeb2e28a5894fb04ccda7", "name": "b716810709baeb2e28a5894fb04ccda7", "type": "electric_scooter", "lon": -77.01779216666667, "rental_uris": {"android": "https://dc.lft.to/lastmile_qr_scan", "ios": "https://dc.lft.to/lastmile_qr_scan"}, "lat": 38.902645, "is_reserved": 0, "is_disabled": 0, "fusion_lat": 0.0}, {"fusion_lon": 0.0, "bike_id": "2442367cd589506aee214e11e753b036", "name": "2442367cd589506aee214e11e753b036", "type": "electric_scooter", "lon": -76.99790366666667, "rental_uris": {"android": "https://dc.lft.to/lastmile_qr_scan", "ios": "https://dc.lft.to/lastmile_qr_scan"}, "lat": 38.94830283333334, "is_reserved": 0, "is_disabled": 0, "fusion_lat": 0.0}, {"fusion_lon": 0.0, "bike_id": "8775e63d2051a33866b202740ba270b9", "name": "8775e63d2051a33866b202740ba270b9", "type": "electric_scooter", "lon": -77.04659833333334, "rental_uris": {"android": "https://dc.lft.to/lastmile_qr_scan", "ios": "https://dc.lft.to/lastmile_qr_scan"}, "lat": 38.90741166666667, "is_reserved": 0, "is_disabled": 0, "fusion_lat": 0.0}, {"fusion_lon": 0.0, "bike_id": "b709f3266acc3a71a0f0aca1e46050d0", "name": "b709f3266acc3a71a0f0aca1e46050d0", "type": "electric_scooter", "lon": -77.0613415, "rental_uris": {"android": "https://dc.lft.to/lastmile_qr_scan", "ios": "https://dc.lft.to/lastmile_qr_scan"}, "lat": 38.94378483333333, "is_reserved": 0, "is_disabled": 0, "fusion_lat": 0.0}, {"fusion_lon": 0.0, "bike_id": "f31802e8c661d85407626408884de22d", "name": "f31802e8c661d85407626408884de22d", "type": "electric_scooter", "lon": -77.00646316666666, "rental_uris": {"android": "https://dc.lft.to/lastmile_qr_scan", "ios": "https://dc.lft.to/lastmile_qr_scan"}, "lat": 38.91182833333333, "is_reserved": 0, "is_disabled": 0, "fusion_lat": 0.0}, {"fusion_lon": 0.0, "bike_id": "9d440dc0f6d894a737502759f26680ef", "name": "9d440dc0f6d894a737502759f26680ef", "type": "electric_scooter", "lon": -77.007355, "rental_uris": {"android": "https://dc.lft.to/lastmile_qr_scan", "ios": "https://dc.lft.to/lastmile_qr_scan"}, "lat": 38.876331666666665, "is_reserved": 0, "is_disabled": 0, "fusion_lat": 0.0}, {"fusion_lon": 0.0, "bike_id": "a520c69c7930ea125ac162404a4e6c84", "name": "a520c69c7930ea125ac162404a4e6c84", "type": "electric_scooter", "lon": -77.0129725, "rental_uris": {"android": "https://dc.lft.to/lastmile_qr_scan", "ios": "https://dc.lft.to/lastmile_qr_scan"}, "lat": 38.88643833333333, "is_reserved": 0, "is_disabled": 0, "fusion_lat": 0.0}, {"fusion_lon": 0.0, "bike_id": "7abdd5eaae9111f454d897c82cd8addc", "name": "7abdd5eaae9111f454d897c82cd8addc", "type": "electric_scooter", "lon": -77.03188466666667, "rental_uris": {"android": "https://dc.lft.to/lastmile_qr_scan", "ios": "https://dc.lft.to/lastmile_qr_scan"}, "lat": 38.91924566666667, "is_reserved": 0, "is_disabled": 0, "fusion_lat": 0.0}, {"fusion_lon": 0.0, "bike_id": "7fd8d4ef12b062ca6ee16a3bc7b50b69", "name": "7fd8d4ef12b062ca6ee16a3bc7b50b69", "type": "electric_scooter", "lon": -77.03159666666667, "rental_uris": {"android": "https://dc.lft.to/lastmile_qr_scan", "ios": "https://dc.lft.to/lastmile_qr_scan"}, "lat": 38.9271905, "is_reserved": 0, "is_disabled": 0, "fusion_lat": 0.0}, {"fusion_lon": 0.0, "bike_id": "3b83fc913de64432faf0ed5cfbc6520f", "name": "3b83fc913de64432faf0ed5cfbc6520f", "type": "electric_scooter", "lon": -77.0258585, "rental_uris": {"android": "https://dc.lft.to/lastmile_qr_scan", "ios": "https://dc.lft.to/lastmile_qr_scan"}, "lat": 38.942128333333336, "is_reserved": 0, "is_disabled": 0, "fusion_lat": 0.0}, {"fusion_lon": 0.0, "bike_id": "ff35e14086961213620a0b4a752d1249", "name": "ff35e14086961213620a0b4a752d1249", "type": "electric_scooter", "lon": -77.03857866666667, "rental_uris": {"android": "https://dc.lft.to/lastmile_qr_scan", "ios": "https://dc.lft.to/lastmile_qr_scan"}, "lat": 38.91808983333333, "is_reserved": 0, "is_disabled": 0, "fusion_lat": 0.0}, {"fusion_lon": 0.0, "bike_id": "5ee8b537d65f7d98b2822e2fefadad4f", "name": "5ee8b537d65f7d98b2822e2fefadad4f", "type": "electric_scooter", "lon": -77.0418975, "rental_uris": {"android": "https://dc.lft.to/lastmile_qr_scan", "ios": "https://dc.lft.to/lastmile_qr_scan"}, "lat": 38.923407, "is_reserved": 0, "is_disabled": 0, "fusion_lat": 0.0}, {"fusion_lon": 0.0, "bike_id": "4479300a7c9ff488c257dba049300b1f", "name": "4479300a7c9ff488c257dba049300b1f", "type": "electric_bike", "lon": -76.98201216666666, "rental_uris": {"android": "https://dc.lft.to/lastmile_qr_scan", "ios": "https://dc.lft.to/lastmile_qr_scan"}, "lat": 38.98496733333333, "is_reserved": 0, "is_disabled": 0, "fusion_lat": 0.0}, {"fusion_lon": 0.0, "bike_id": "52154be7a9e788cf6cd58c9def9f7209", "name": "52154be7a9e788cf6cd58c9def9f7209", "type": "electric_scooter", "lon": -77.04861866666667, "rental_uris": {"android": "https://dc.lft.to/lastmile_qr_scan", "ios": "https://dc.lft.to/lastmile_qr_scan"}, "lat": 38.89223783333333, "is_reserved": 0, "is_disabled": 0, "fusion_lat": 0.0}, {"fusion_lon": 0.0, "bike_id": "661ffc403d2056010069878c382fb376", "name": "661ffc403d2056010069878c382fb376", "type": "electric_scooter", "lon": -76.99997933333333, "rental_uris": {"android": "https://dc.lft.to/lastmile_qr_scan", "ios": "https://dc.lft.to/lastmile_qr_scan"}, "lat": 38.908002333333336, "is_reserved": 0, "is_disabled": 0, "fusion_lat": 0.0}, {"fusion_lon": 0.0, "bike_id": "857c59bf9e78a6586d81199b845d9990", "name": "857c59bf9e78a6586d81199b845d9990", "type": "electric_scooter", "lon": -77.0334415, "rental_uris": {"android": "https://dc.lft.to/lastmile_qr_scan", "ios": "https://dc.lft.to/lastmile_qr_scan"}, "lat": 38.91719533333333, "is_reserved": 0, "is_disabled": 0, "fusion_lat": 0.0}, {"fusion_lon": 0.0, "bike_id": "0da7802cc0b594f69e9f7351d1e0dd61", "name": "0da7802cc0b594f69e9f7351d1e0dd61", "type": "electric_scooter", "lon": -77.0258985, "rental_uris": {"android": "https://dc.lft.to/lastmile_qr_scan", "ios": "https://dc.lft.to/lastmile_qr_scan"}, "lat": 38.8808485, "is_reserved": 0, "is_disabled": 0, "fusion_lat": 0.0}, {"fusion_lon": 0.0, "bike_id": "1f877d9880a359eb56da3168156d685d", "name": "1f877d9880a359eb56da3168156d685d", "type": "electric_scooter", "lon": -76.98698883333333, "rental_uris": {"android": "https://dc.lft.to/lastmile_qr_scan", "ios": "https://dc.lft.to/lastmile_qr_scan"}, "lat": 38.907057333333334, "is_reserved": 0, "is_disabled": 0, "fusion_lat": 0.0}, {"fusion_lon": 0.0, "bike_id": "5f45022b4e32fe22423778328d6fc794", "name": "5f45022b4e32fe22423778328d6fc794", "type": "electric_scooter", "lon": -76.98210633333333, "rental_uris": {"android": "https://dc.lft.to/lastmile_qr_scan", "ios": "https://dc.lft.to/lastmile_qr_scan"}, "lat": 38.899362833333335, "is_reserved": 0, "is_disabled": 0, "fusion_lat": 0.0}, {"fusion_lon": 0.0, "bike_id": "6c6e13161f2c516214ffbeffbb649dfb", "name": "6c6e13161f2c516214ffbeffbb649dfb", "type": "electric_scooter", "lon": -77.05016483333333, "rental_uris": {"android": "https://dc.lft.to/lastmile_qr_scan", "ios": "https://dc.lft.to/lastmile_qr_scan"}, "lat": 38.89704583333334, "is_reserved": 0, "is_disabled": 0, "fusion_lat": 0.0}, {"fusion_lon": 0.0, "bike_id": "892c3edccfa2fbfe72f91e5faffaf322", "name": "892c3edccfa2fbfe72f91e5faffaf322", "type": "electric_scooter", "lon": -77.0089595, "rental_uris": {"android": "https://dc.lft.to/lastmile_qr_scan", "ios": "https://dc.lft.to/lastmile_qr_scan"}, "lat": 38.91293566666667, "is_reserved": 0, "is_disabled": 0, "fusion_lat": 0.0}, {"fusion_lon": 0.0, "bike_id": "ebd6d82a858dfcc475c67f90a4656918", "name": "ebd6d82a858dfcc475c67f90a4656918", "type": "electric_scooter", "lon": -77.02171583333333, "rental_uris": {"android": "https://dc.lft.to/lastmile_qr_scan", "ios": "https://dc.lft.to/lastmile_qr_scan"}, "lat": 38.900049, "is_reserved": 0, "is_disabled": 0, "fusion_lat": 0.0}, {"fusion_lon": 0.0, "bike_id": "b0d16a706b63fa75e4ac1a2076269f6d", "name": "b0d16a706b63fa75e4ac1a2076269f6d", "type": "electric_scooter", "lon": -77.04799433333334, "rental_uris": {"android": "https://dc.lft.to/lastmile_qr_scan", "ios": "https://dc.lft.to/lastmile_qr_scan"}, "lat": 38.90720566666667, "is_reserved": 0, "is_disabled": 0, "fusion_lat": 0.0}, {"fusion_lon": 0.0, "bike_id": "8529e946c4fcb452eb6fe1cc999e4e5f", "name": "8529e946c4fcb452eb6fe1cc999e4e5f", "type": "electric_scooter", "lon": -77.02025316666666, "rental_uris": {"android": "https://dc.lft.to/lastmile_qr_scan", "ios": "https://dc.lft.to/lastmile_qr_scan"}, "lat": 38.8833725, "is_reserved": 0, "is_disabled": 0, "fusion_lat": 0.0}, {"fusion_lon": 0.0, "bike_id": "7bff833d230efa108e2478e335f1c5dc", "name": "7bff833d230efa108e2478e335f1c5dc", "type": "electric_scooter", "lon": -76.96712833333333, "rental_uris": {"android": "https://dc.lft.to/lastmile_qr_scan", "ios": "https://dc.lft.to/lastmile_qr_scan"}, "lat": 38.84796983333333, "is_reserved": 0, "is_disabled": 0, "fusion_lat": 0.0}, {"fusion_lon": 0.0, "bike_id": "99bdab09863fc348127f6ca54213f70c", "name": "99bdab09863fc348127f6ca54213f70c", "type": "electric_scooter", "lon": -77.032013, "rental_uris": {"android": "https://dc.lft.to/lastmile_qr_scan", "ios": "https://dc.lft.to/lastmile_qr_scan"}, "lat": 38.913937, "is_reserved": 0, "is_disabled": 0, "fusion_lat": 0.0}, {"fusion_lon": 0.0, "bike_id": "a5694c7c82f83415778a6bb3b0fd49e6", "name": "a5694c7c82f83415778a6bb3b0fd49e6", "type": "electric_bike", "lon": -77.09165466666667, "rental_uris": {"android": "https://dc.lft.to/lastmile_qr_scan", "ios": "https://dc.lft.to/lastmile_qr_scan"}, "lat": 38.96760733333333, "is_reserved": 0, "is_disabled": 0, "fusion_lat": 0.0}, {"fusion_lon": 0.0, "bike_id": "c2f738116a82a6c2055647b270e2a5d9", "name": "c2f738116a82a6c2055647b270e2a5d9", "type": "electric_scooter", "lon": -77.046582, "rental_uris": {"android": "https://dc.lft.to/lastmile_qr_scan", "ios": "https://dc.lft.to/lastmile_qr_scan"}, "lat": 38.89303533333333, "is_reserved": 0, "is_disabled": 0, "fusion_lat": 0.0}, {"fusion_lon": 0.0, "bike_id": "d7fd73b53e8d0da8284070c2694450c4", "name": "d7fd73b53e8d0da8284070c2694450c4", "type": "electric_scooter", "lon": -77.02073633333333, "rental_uris": {"android": "https://dc.lft.to/lastmile_qr_scan", "ios": "https://dc.lft.to/lastmile_qr_scan"}, "lat": 38.949023833333335, "is_reserved": 0, "is_disabled": 0, "fusion_lat": 0.0}, {"fusion_lon": 0.0, "bike_id": "0995d22f3d5405bbba37d1dff725cbc9", "name": "0995d22f3d5405bbba37d1dff725cbc9", "type": "electric_scooter", "lon": -76.99486683333333, "rental_uris": {"android": "https://dc.lft.to/lastmile_qr_scan", "ios": "https://dc.lft.to/lastmile_qr_scan"}, "lat": 38.862200333333334, "is_reserved": 0, "is_disabled": 0, "fusion_lat": 0.0}, {"fusion_lon": 0.0, "bike_id": "ae0eac26b7ca146b2d05b2fcc9d720b4", "name": "ae0eac26b7ca146b2d05b2fcc9d720b4", "type": "electric_scooter", "lon": -77.00517633333334, "rental_uris": {"android": "https://dc.lft.to/lastmile_qr_scan", "ios": "https://dc.lft.to/lastmile_qr_scan"}, "lat": 38.87470716666667, "is_reserved": 0, "is_disabled": 0, "fusion_lat": 0.0}, {"fusion_lon": 0.0, "bike_id": "e2c0bca8d28d1981d017a0caa7e7f570", "name": "e2c0bca8d28d1981d017a0caa7e7f570", "type": "electric_scooter", "lon": -77.04316966666667, "rental_uris": {"android": "https://dc.lft.to/lastmile_qr_scan", "ios": "https://dc.lft.to/lastmile_qr_scan"}, "lat": 38.907067166666664, "is_reserved": 0, "is_disabled": 0, "fusion_lat": 0.0}, {"fusion_lon": 0.0, "bike_id": "fc4667f7f29fdd5d9ee52026eb6eabe4", "name": "fc4667f7f29fdd5d9ee52026eb6eabe4", "type": "electric_scooter", "lon": -77.02644783333334, "rental_uris": {"android": "https://dc.lft.to/lastmile_qr_scan", "ios": "https://dc.lft.to/lastmile_qr_scan"}, "lat": 38.90212116666667, "is_reserved": 0, "is_disabled": 0, "fusion_lat": 0.0}, {"fusion_lon": 0.0, "bike_id": "8f0e101a10923fb1fb40917a021fbb8e", "name": "8f0e101a10923fb1fb40917a021fbb8e", "type": "electric_scooter", "lon": -77.017578, "rental_uris": {"android": "https://dc.lft.to/lastmile_qr_scan", "ios": "https://dc.lft.to/lastmile_qr_scan"}, "lat": 38.876886, "is_reserved": 0, "is_disabled": 0, "fusion_lat": 0.0}, {"fusion_lon": 0.0, "bike_id": "f1106f4d6a513c11998d6f0e74eb9bc8", "name": "f1106f4d6a513c11998d6f0e74eb9bc8", "type": "electric_scooter", "lon": -76.98679966666667, "rental_uris": {"android": "https://dc.lft.to/lastmile_qr_scan", "ios": "https://dc.lft.to/lastmile_qr_scan"}, "lat": 38.85817133333333, "is_reserved": 0, "is_disabled": 0, "fusion_lat": 0.0}, {"fusion_lon": 0.0, "bike_id": "4625a6c936f6f2e58d7dce155e8d11b0", "name": "4625a6c936f6f2e58d7dce155e8d11b0", "type": "electric_scooter", "lon": -77.0363025, "rental_uris": {"android": "https://dc.lft.to/lastmile_qr_scan", "ios": "https://dc.lft.to/lastmile_qr_scan"}, "lat": 38.95606266666667, "is_reserved": 0, "is_disabled": 0, "fusion_lat": 0.0}, {"fusion_lon": 0.0, "bike_id": "02ec437850bc753831ca5924da5a68ea", "name": "02ec437850bc753831ca5924da5a68ea", "type": "electric_scooter", "lon": -77.04649, "rental_uris": {"android": "https://dc.lft.to/lastmile_qr_scan", "ios": "https://dc.lft.to/lastmile_qr_scan"}, "lat": 38.91485383333333, "is_reserved": 0, "is_disabled": 0, "fusion_lat": 0.0}, {"fusion_lon": 0.0, "bike_id": "600a74884920de7fa931ac29f9ee11cf", "name": "600a74884920de7fa931ac29f9ee11cf", "type": "electric_bike", "lon": -77.03391833333333, "rental_uris": {"android": "https://dc.lft.to/lastmile_qr_scan", "ios": "https://dc.lft.to/lastmile_qr_scan"}, "lat": 38.960304666666666, "is_reserved": 0, "is_disabled": 0, "fusion_lat": 0.0}, {"fusion_lon": 0.0, "bike_id": "d4f312079a8fe91bc075189b7d3b175a", "name": "d4f312079a8fe91bc075189b7d3b175a", "type": "electric_scooter", "lon": -76.9969495, "rental_uris": {"android": "https://dc.lft.to/lastmile_qr_scan", "ios": "https://dc.lft.to/lastmile_qr_scan"}, "lat": 38.83870683333333, "is_reserved": 0, "is_disabled": 0, "fusion_lat": 0.0}, {"fusion_lon": 0.0, "bike_id": "33b95626aa674b436161ea6bd40b5904", "name": "33b95626aa674b436161ea6bd40b5904", "type": "electric_bike", "lon": -76.97137433333333, "rental_uris": {"android": "https://dc.lft.to/lastmile_qr_scan", "ios": "https://dc.lft.to/lastmile_qr_scan"}, "lat": 38.92353933333333, "is_reserved": 0, "is_disabled": 0, "fusion_lat": 0.0}, {"fusion_lon": 0.0, "bike_id": "e1e6648099c24545d37bf6e519ec3d7f", "name": "e1e6648099c24545d37bf6e519ec3d7f", "type": "electric_scooter", "lon": -77.0056305, "rental_uris": {"android": "https://dc.lft.to/lastmile_qr_scan", "ios": "https://dc.lft.to/lastmile_qr_scan"}, "lat": 38.905469, "is_reserved": 0, "is_disabled": 0, "fusion_lat": 0.0}, {"fusion_lon": 0.0, "bike_id": "05c91b502795df1702141a0c2af2054e", "name": "05c91b502795df1702141a0c2af2054e", "type": "electric_scooter", "lon": -77.03219716666666, "rental_uris": {"android": "https://dc.lft.to/lastmile_qr_scan", "ios": "https://dc.lft.to/lastmile_qr_scan"}, "lat": 38.928654333333334, "is_reserved": 0, "is_disabled": 0, "fusion_lat": 0.0}, {"fusion_lon": 0.0, "bike_id": "1c76fad4a011d97e0cd5494f60c1e7d7", "name": "1c76fad4a011d97e0cd5494f60c1e7d7", "type": "electric_scooter", "lon": -76.99631066666667, "rental_uris": {"android": "https://dc.lft.to/lastmile_qr_scan", "ios": "https://dc.lft.to/lastmile_qr_scan"}, "lat": 38.84623466666667, "is_reserved": 0, "is_disabled": 0, "fusion_lat": 0.0}, {"fusion_lon": 0.0, "bike_id": "b2fb944bb3dae84f9cd10e7ec3249124", "name": "b2fb944bb3dae84f9cd10e7ec3249124", "type": "electric_scooter", "lon": -77.0297555, "rental_uris": {"android": "https://dc.lft.to/lastmile_qr_scan", "ios": "https://dc.lft.to/lastmile_qr_scan"}, "lat": 38.896193833333335, "is_reserved": 0, "is_disabled": 0, "fusion_lat": 0.0}, {"fusion_lon": 0.0, "bike_id": "c13f4420d090adc6c3f50233815b0b8d", "name": "c13f4420d090adc6c3f50233815b0b8d", "type": "electric_scooter", "lon": -77.04226083333333, "rental_uris": {"android": "https://dc.lft.to/lastmile_qr_scan", "ios": "https://dc.lft.to/lastmile_qr_scan"}, "lat": 38.916349833333335, "is_reserved": 0, "is_disabled": 0, "fusion_lat": 0.0}, {"fusion_lon": 0.0, "bike_id": "cff58594abb86d11c213a9636d4f7f00", "name": "cff58594abb86d11c213a9636d4f7f00", "type": "electric_scooter", "lon": -77.005722, "rental_uris": {"android": "https://dc.lft.to/lastmile_qr_scan", "ios": "https://dc.lft.to/lastmile_qr_scan"}, "lat": 38.87531966666667, "is_reserved": 0, "is_disabled": 0, "fusion_lat": 0.0}, {"fusion_lon": 0.0, "bike_id": "eb54519919e3f69a390a7478864a8ccd", "name": "eb54519919e3f69a390a7478864a8ccd", "type": "electric_scooter", "lon": -77.03426683333333, "rental_uris": {"android": "https://dc.lft.to/lastmile_qr_scan", "ios": "https://dc.lft.to/lastmile_qr_scan"}, "lat": 38.927343666666665, "is_reserved": 0, "is_disabled": 0, "fusion_lat": 0.0}, {"fusion_lon": 0.0, "bike_id": "1c6947e6547e353f01870cb447a73b56", "name": "1c6947e6547e353f01870cb447a73b56", "type": "electric_scooter", "lon": -77.04484083333334, "rental_uris": {"android": "https://dc.lft.to/lastmile_qr_scan", "ios": "https://dc.lft.to/lastmile_qr_scan"}, "lat": 38.91242833333333, "is_reserved": 0, "is_disabled": 0, "fusion_lat": 0.0}, {"fusion_lon": 0.0, "bike_id": "5526ccdb3db6b4129914a3a0c80d37d6", "name": "5526ccdb3db6b4129914a3a0c80d37d6", "type": "electric_scooter", "lon": -77.02225366666667, "rental_uris": {"android": "https://dc.lft.to/lastmile_qr_scan", "ios": "https://dc.lft.to/lastmile_qr_scan"}, "lat": 38.93552183333333, "is_reserved": 0, "is_disabled": 0, "fusion_lat": 0.0}, {"fusion_lon": 0.0, "bike_id": "4fd3310b5f566b943762d28e4adfa000", "name": "4fd3310b5f566b943762d28e4adfa000", "type": "electric_scooter", "lon": -77.03352183333334, "rental_uris": {"android": "https://dc.lft.to/lastmile_qr_scan", "ios": "https://dc.lft.to/lastmile_qr_scan"}, "lat": 38.91798166666667, "is_reserved": 0, "is_disabled": 0, "fusion_lat": 0.0}, {"fusion_lon": 0.0, "bike_id": "c963543a49267edb1ad97850497e2b35", "name": "c963543a49267edb1ad97850497e2b35", "type": "electric_bike", "lon": -77.124046, "rental_uris": {"android": "https://dc.lft.to/lastmile_qr_scan", "ios": "https://dc.lft.to/lastmile_qr_scan"}, "lat": 38.89334266666667, "is_reserved": 0, "is_disabled": 0, "fusion_lat": 0.0}, {"fusion_lon": 0.0, "bike_id": "a57ec4ebdf1c794abe2353f1a8825ad3", "name": "a57ec4ebdf1c794abe2353f1a8825ad3", "type": "electric_scooter", "lon": -77.03722616666667, "rental_uris": {"android": "https://dc.lft.to/lastmile_qr_scan", "ios": "https://dc.lft.to/lastmile_qr_scan"}, "lat": 38.917132, "is_reserved": 0, "is_disabled": 0, "fusion_lat": 0.0}, {"fusion_lon": 0.0, "bike_id": "3179f7a57eb00c934b8bb4cb6b2df3bc", "name": "3179f7a57eb00c934b8bb4cb6b2df3bc", "type": "electric_scooter", "lon": -76.93052933333334, "rental_uris": {"android": "https://dc.lft.to/lastmile_qr_scan", "ios": "https://dc.lft.to/lastmile_qr_scan"}, "lat": 38.897944833333334, "is_reserved": 0, "is_disabled": 0, "fusion_lat": 0.0}, {"fusion_lon": 0.0, "bike_id": "ee02b79b8f15e40aec0e1153c6b7ed55", "name": "ee02b79b8f15e40aec0e1153c6b7ed55", "type": "electric_scooter", "lon": -77.0330745, "rental_uris": {"android": "https://dc.lft.to/lastmile_qr_scan", "ios": "https://dc.lft.to/lastmile_qr_scan"}, "lat": 38.92855483333334, "is_reserved": 0, "is_disabled": 0, "fusion_lat": 0.0}, {"fusion_lon": 0.0, "bike_id": "1e80ea18aff372c9d4ea50962dd62d0c", "name": "1e80ea18aff372c9d4ea50962dd62d0c", "type": "electric_scooter", "lon": -77.01769033333333, "rental_uris": {"android": "https://dc.lft.to/lastmile_qr_scan", "ios": "https://dc.lft.to/lastmile_qr_scan"}, "lat": 38.885921333333336, "is_reserved": 0, "is_disabled": 0, "fusion_lat": 0.0}, {"fusion_lon": 0.0, "bike_id": "cabcf0b5b4be806fb8c86773c684d261", "name": "cabcf0b5b4be806fb8c86773c684d261", "type": "electric_bike", "lon": -77.04979216666666, "rental_uris": {"android": "https://dc.lft.to/lastmile_qr_scan", "ios": "https://dc.lft.to/lastmile_qr_scan"}, "lat": 38.9924515, "is_reserved": 0, "is_disabled": 0, "fusion_lat": 0.0}, {"fusion_lon": 0.0, "bike_id": "eee19ce1c41461d046c036a6da94deb2", "name": "eee19ce1c41461d046c036a6da94deb2", "type": "electric_scooter", "lon": -77.04681466666666, "rental_uris": {"android": "https://dc.lft.to/lastmile_qr_scan", "ios": "https://dc.lft.to/lastmile_qr_scan"}, "lat": 38.915730833333335, "is_reserved": 0, "is_disabled": 0, "fusion_lat": 0.0}, {"fusion_lon": 0.0, "bike_id": "357efe35f4eb520c0cea8356136b1d74", "name": "357efe35f4eb520c0cea8356136b1d74", "type": "electric_scooter", "lon": -77.02350333333334, "rental_uris": {"android": "https://dc.lft.to/lastmile_qr_scan", "ios": "https://dc.lft.to/lastmile_qr_scan"}, "lat": 38.94296516666667, "is_reserved": 0, "is_disabled": 0, "fusion_lat": 0.0}, {"fusion_lon": 0.0, "bike_id": "d9d193ce2696a5eedef5a72b3adc426c", "name": "d9d193ce2696a5eedef5a72b3adc426c", "type": "electric_scooter", "lon": -77.03701083333333, "rental_uris": {"android": "https://dc.lft.to/lastmile_qr_scan", "ios": "https://dc.lft.to/lastmile_qr_scan"}, "lat": 38.92777016666667, "is_reserved": 0, "is_disabled": 0, "fusion_lat": 0.0}, {"fusion_lon": 0.0, "bike_id": "4a40f40af1b02bb6d3cc3025d12d85a4", "name": "4a40f40af1b02bb6d3cc3025d12d85a4", "type": "electric_bike", "lon": -77.1954685, "rental_uris": {"android": "https://dc.lft.to/lastmile_qr_scan", "ios": "https://dc.lft.to/lastmile_qr_scan"}, "lat": 39.115075, "is_reserved": 0, "is_disabled": 0, "fusion_lat": 0.0}, {"fusion_lon": 0.0, "bike_id": "bb8cd138b04b02daa80d1e33e7e08f5d", "name": "bb8cd138b04b02daa80d1e33e7e08f5d", "type": "electric_bike", "lon": -76.97823583333333, "rental_uris": {"android": "https://dc.lft.to/lastmile_qr_scan", "ios": "https://dc.lft.to/lastmile_qr_scan"}, "lat": 38.871982333333335, "is_reserved": 0, "is_disabled": 0, "fusion_lat": 0.0}, {"fusion_lon": 0.0, "bike_id": "7aaf8f7564ad187fcb0a6b8d2398000c", "name": "7aaf8f7564ad187fcb0a6b8d2398000c", "type": "electric_bike", "lon": -77.003151, "rental_uris": {"android": "https://dc.lft.to/lastmile_qr_scan", "ios": "https://dc.lft.to/lastmile_qr_scan"}, "lat": 38.911850333333334, "is_reserved": 0, "is_disabled": 0, "fusion_lat": 0.0}, {"fusion_lon": 0.0, "bike_id": "b58919c26e74dea893fbde726c804186", "name": "b58919c26e74dea893fbde726c804186", "type": "electric_scooter", "lon": -77.03199183333334, "rental_uris": {"android": "https://dc.lft.to/lastmile_qr_scan", "ios": "https://dc.lft.to/lastmile_qr_scan"}, "lat": 38.911395166666665, "is_reserved": 0, "is_disabled": 0, "fusion_lat": 0.0}, {"fusion_lon": 0.0, "bike_id": "979175173010b7f82af0ce3733c78037", "name": "979175173010b7f82af0ce3733c78037", "type": "electric_scooter", "lon": -77.019696, "rental_uris": {"android": "https://dc.lft.to/lastmile_qr_scan", "ios": "https://dc.lft.to/lastmile_qr_scan"}, "lat": 38.878443, "is_reserved": 0, "is_disabled": 0, "fusion_lat": 0.0}, {"fusion_lon": 0.0, "bike_id": "d85f5f9a9889bcdeecb7c52c3468be08", "name": "d85f5f9a9889bcdeecb7c52c3468be08", "type": "electric_scooter", "lon": -77.03310166666667, "rental_uris": {"android": "https://dc.lft.to/lastmile_qr_scan", "ios": "https://dc.lft.to/lastmile_qr_scan"}, "lat": 38.9037505, "is_reserved": 0, "is_disabled": 0, "fusion_lat": 0.0}, {"fusion_lon": 0.0, "bike_id": "6b245305eec41db06e37de9a25bbbdba", "name": "6b245305eec41db06e37de9a25bbbdba", "type": "electric_scooter", "lon": -77.044767, "rental_uris": {"android": "https://dc.lft.to/lastmile_qr_scan", "ios": "https://dc.lft.to/lastmile_qr_scan"}, "lat": 38.90855416666667, "is_reserved": 0, "is_disabled": 0, "fusion_lat": 0.0}, {"fusion_lon": 0.0, "bike_id": "6a329e9f21e273038e7a8ce43f106d34", "name": "6a329e9f21e273038e7a8ce43f106d34", "type": "electric_scooter", "lon": -77.03924716666667, "rental_uris": {"android": "https://dc.lft.to/lastmile_qr_scan", "ios": "https://dc.lft.to/lastmile_qr_scan"}, "lat": 38.91177483333333, "is_reserved": 0, "is_disabled": 0, "fusion_lat": 0.0}, {"fusion_lon": 0.0, "bike_id": "8e9d742879ff3fabf9ad6c849425f547", "name": "8e9d742879ff3fabf9ad6c849425f547", "type": "electric_scooter", "lon": -77.018957, "rental_uris": {"android": "https://dc.lft.to/lastmile_qr_scan", "ios": "https://dc.lft.to/lastmile_qr_scan"}, "lat": 38.912229833333335, "is_reserved": 0, "is_disabled": 0, "fusion_lat": 0.0}, {"fusion_lon": 0.0, "bike_id": "0f1b72fa5afe1457e161159b8ebc218f", "name": "0f1b72fa5afe1457e161159b8ebc218f", "type": "electric_bike", "lon": -77.09561766666667, "rental_uris": {"android": "https://dc.lft.to/lastmile_qr_scan", "ios": "https://dc.lft.to/lastmile_qr_scan"}, "lat": 38.916952, "is_reserved": 0, "is_disabled": 0, "fusion_lat": 0.0}, {"fusion_lon": 0.0, "bike_id": "ab260772985b622c5a5bbae7ea2425cb", "name": "ab260772985b622c5a5bbae7ea2425cb", "type": "electric_scooter", "lon": -77.05557133333333, "rental_uris": {"android": "https://dc.lft.to/lastmile_qr_scan", "ios": "https://dc.lft.to/lastmile_qr_scan"}, "lat": 38.909397, "is_reserved": 0, "is_disabled": 0, "fusion_lat": 0.0}, {"fusion_lon": 0.0, "bike_id": "93293ebbfef36cfb5ce4b946ee364493", "name": "93293ebbfef36cfb5ce4b946ee364493", "type": "electric_scooter", "lon": -77.031887, "rental_uris": {"android": "https://dc.lft.to/lastmile_qr_scan", "ios": "https://dc.lft.to/lastmile_qr_scan"}, "lat": 38.89964, "is_reserved": 0, "is_disabled": 0, "fusion_lat": 0.0}, {"fusion_lon": 0.0, "bike_id": "da176c87e004c8f673e632cdd6d554c8", "name": "da176c87e004c8f673e632cdd6d554c8", "type": "electric_scooter", "lon": -76.9899615, "rental_uris": {"android": "https://dc.lft.to/lastmile_qr_scan", "ios": "https://dc.lft.to/lastmile_qr_scan"}, "lat": 38.864332833333336, "is_reserved": 0, "is_disabled": 0, "fusion_lat": 0.0}, {"fusion_lon": 0.0, "bike_id": "34086e581c50de2c962b6f99ca92345b", "name": "34086e581c50de2c962b6f99ca92345b", "type": "electric_scooter", "lon": -77.02384966666666, "rental_uris": {"android": "https://dc.lft.to/lastmile_qr_scan", "ios": "https://dc.lft.to/lastmile_qr_scan"}, "lat": 38.887271166666665, "is_reserved": 0, "is_disabled": 0, "fusion_lat": 0.0}, {"fusion_lon": 0.0, "bike_id": "03355e7a3e161406f0b0d35a527261cb", "name": "03355e7a3e161406f0b0d35a527261cb", "type": "electric_scooter", "lon": -76.946319, "rental_uris": {"android": "https://dc.lft.to/lastmile_qr_scan", "ios": "https://dc.lft.to/lastmile_qr_scan"}, "lat": 38.898480166666666, "is_reserved": 0, "is_disabled": 0, "fusion_lat": 0.0}, {"fusion_lon": 0.0, "bike_id": "8acf0bf6c37354a5f685dd91557bf778", "name": "8acf0bf6c37354a5f685dd91557bf778", "type": "electric_scooter", "lon": -77.03830266666667, "rental_uris": {"android": "https://dc.lft.to/lastmile_qr_scan", "ios": "https://dc.lft.to/lastmile_qr_scan"}, "lat": 38.911118333333334, "is_reserved": 0, "is_disabled": 0, "fusion_lat": 0.0}, {"fusion_lon": 0.0, "bike_id": "9b150272e79d1e7fcb29ff7c73d27e12", "name": "9b150272e79d1e7fcb29ff7c73d27e12", "type": "electric_scooter", "lon": -77.03737983333333, "rental_uris": {"android": "https://dc.lft.to/lastmile_qr_scan", "ios": "https://dc.lft.to/lastmile_qr_scan"}, "lat": 38.928536, "is_reserved": 0, "is_disabled": 0, "fusion_lat": 0.0}, {"fusion_lon": 0.0, "bike_id": "2c9d6035fa4e9bb4e9342e2e89cdafff", "name": "2c9d6035fa4e9bb4e9342e2e89cdafff", "type": "electric_scooter", "lon": -77.02698783333334, "rental_uris": {"android": "https://dc.lft.to/lastmile_qr_scan", "ios": "https://dc.lft.to/lastmile_qr_scan"}, "lat": 38.936375166666664, "is_reserved": 0, "is_disabled": 0, "fusion_lat": 0.0}, {"fusion_lon": 0.0, "bike_id": "e63a690ed9837f970370380008df3bce", "name": "e63a690ed9837f970370380008df3bce", "type": "electric_scooter", "lon": -77.04418583333333, "rental_uris": {"android": "https://dc.lft.to/lastmile_qr_scan", "ios": "https://dc.lft.to/lastmile_qr_scan"}, "lat": 38.894078666666665, "is_reserved": 0, "is_disabled": 0, "fusion_lat": 0.0}, {"fusion_lon": 0.0, "bike_id": "e131b6aa80e4ca2ac190d4988cf16a08", "name": "e131b6aa80e4ca2ac190d4988cf16a08", "type": "electric_scooter", "lon": -76.993124, "rental_uris": {"android": "https://dc.lft.to/lastmile_qr_scan", "ios": "https://dc.lft.to/lastmile_qr_scan"}, "lat": 38.92410683333333, "is_reserved": 0, "is_disabled": 0, "fusion_lat": 0.0}, {"fusion_lon": 0.0, "bike_id": "1a310d09b6b30289a6a8f07d4c61fbb1", "name": "1a310d09b6b30289a6a8f07d4c61fbb1", "type": "electric_scooter", "lon": -77.02586966666667, "rental_uris": {"android": "https://dc.lft.to/lastmile_qr_scan", "ios": "https://dc.lft.to/lastmile_qr_scan"}, "lat": 38.94211966666667, "is_reserved": 0, "is_disabled": 0, "fusion_lat": 0.0}, {"fusion_lon": 0.0, "bike_id": "eb010f16bd7ca3f1cdd78112a42fe7d1", "name": "eb010f16bd7ca3f1cdd78112a42fe7d1", "type": "electric_scooter", "lon": -77.0241305, "rental_uris": {"android": "https://dc.lft.to/lastmile_qr_scan", "ios": "https://dc.lft.to/lastmile_qr_scan"}, "lat": 38.9125825, "is_reserved": 0, "is_disabled": 0, "fusion_lat": 0.0}, {"fusion_lon": 0.0, "bike_id": "e364b388e35eea4886af3f8c253ac91c", "name": "e364b388e35eea4886af3f8c253ac91c", "type": "electric_scooter", "lon": -77.0500605, "rental_uris": {"android": "https://dc.lft.to/lastmile_qr_scan", "ios": "https://dc.lft.to/lastmile_qr_scan"}, "lat": 38.89372316666667, "is_reserved": 0, "is_disabled": 0, "fusion_lat": 0.0}, {"fusion_lon": 0.0, "bike_id": "b2ded00710f90ab8b66726cca615c6f9", "name": "b2ded00710f90ab8b66726cca615c6f9", "type": "electric_bike", "lon": -76.9543845, "rental_uris": {"android": "https://dc.lft.to/lastmile_qr_scan", "ios": "https://dc.lft.to/lastmile_qr_scan"}, "lat": 38.890421833333335, "is_reserved": 0, "is_disabled": 0, "fusion_lat": 0.0}, {"fusion_lon": 0.0, "bike_id": "77e1ab2a3d176e6c4ebf194d080b4902", "name": "77e1ab2a3d176e6c4ebf194d080b4902", "type": "electric_scooter", "lon": -77.03672333333333, "rental_uris": {"android": "https://dc.lft.to/lastmile_qr_scan", "ios": "https://dc.lft.to/lastmile_qr_scan"}, "lat": 38.9361015, "is_reserved": 0, "is_disabled": 0, "fusion_lat": 0.0}, {"fusion_lon": 0.0, "bike_id": "3779c9d321a38df457e7469b1f1fc595", "name": "3779c9d321a38df457e7469b1f1fc595", "type": "electric_scooter", "lon": -77.02961983333333, "rental_uris": {"android": "https://dc.lft.to/lastmile_qr_scan", "ios": "https://dc.lft.to/lastmile_qr_scan"}, "lat": 38.92071683333333, "is_reserved": 0, "is_disabled": 0, "fusion_lat": 0.0}, {"fusion_lon": 0.0, "bike_id": "cc192a0a7ea4748862f498758b9b1baa", "name": "cc192a0a7ea4748862f498758b9b1baa", "type": "electric_scooter", "lon": -77.04158983333333, "rental_uris": {"android": "https://dc.lft.to/lastmile_qr_scan", "ios": "https://dc.lft.to/lastmile_qr_scan"}, "lat": 38.917510666666665, "is_reserved": 0, "is_disabled": 0, "fusion_lat": 0.0}, {"fusion_lon": 0.0, "bike_id": "211cdb2ed12da101c3fd3ad24a2d4fe5", "name": "211cdb2ed12da101c3fd3ad24a2d4fe5", "type": "electric_scooter", "lon": -77.058517, "rental_uris": {"android": "https://dc.lft.to/lastmile_qr_scan", "ios": "https://dc.lft.to/lastmile_qr_scan"}, "lat": 38.93702066666667, "is_reserved": 0, "is_disabled": 0, "fusion_lat": 0.0}, {"fusion_lon": 0.0, "bike_id": "8f2752cd7cafad916d4b3ea2ca3ba54e", "name": "8f2752cd7cafad916d4b3ea2ca3ba54e", "type": "electric_scooter", "lon": -77.0510855, "rental_uris": {"android": "https://dc.lft.to/lastmile_qr_scan", "ios": "https://dc.lft.to/lastmile_qr_scan"}, "lat": 38.92367766666667, "is_reserved": 0, "is_disabled": 0, "fusion_lat": 0.0}, {"fusion_lon": 0.0, "bike_id": "630181c2bf10a40053694706620b1933", "name": "630181c2bf10a40053694706620b1933", "type": "electric_scooter", "lon": -77.04837583333334, "rental_uris": {"android": "https://dc.lft.to/lastmile_qr_scan", "ios": "https://dc.lft.to/lastmile_qr_scan"}, "lat": 38.916214333333336, "is_reserved": 0, "is_disabled": 0, "fusion_lat": 0.0}, {"fusion_lon": 0.0, "bike_id": "d49f6c7d817359b45826d7da7d139591", "name": "d49f6c7d817359b45826d7da7d139591", "type": "electric_scooter", "lon": -76.99596633333333, "rental_uris": {"android": "https://dc.lft.to/lastmile_qr_scan", "ios": "https://dc.lft.to/lastmile_qr_scan"}, "lat": 38.88734783333334, "is_reserved": 0, "is_disabled": 0, "fusion_lat": 0.0}, {"fusion_lon": 0.0, "bike_id": "cda868f7c2ee76591b0ec6a926b1eb16", "name": "cda868f7c2ee76591b0ec6a926b1eb16", "type": "electric_bike", "lon": -77.077981, "rental_uris": {"android": "https://dc.lft.to/lastmile_qr_scan", "ios": "https://dc.lft.to/lastmile_qr_scan"}, "lat": 38.84515416666667, "is_reserved": 0, "is_disabled": 0, "fusion_lat": 0.0}, {"fusion_lon": 0.0, "bike_id": "e62763078d8d285399f7cafb7aff010f", "name": "e62763078d8d285399f7cafb7aff010f", "type": "electric_scooter", "lon": -76.99488533333333, "rental_uris": {"android": "https://dc.lft.to/lastmile_qr_scan", "ios": "https://dc.lft.to/lastmile_qr_scan"}, "lat": 38.925808333333336, "is_reserved": 0, "is_disabled": 0, "fusion_lat": 0.0}, {"fusion_lon": 0.0, "bike_id": "dceac291bf940eeb3366330a492cebad", "name": "dceac291bf940eeb3366330a492cebad", "type": "electric_scooter", "lon": -77.00065566666666, "rental_uris": {"android": "https://dc.lft.to/lastmile_qr_scan", "ios": "https://dc.lft.to/lastmile_qr_scan"}, "lat": 38.89293883333333, "is_reserved": 0, "is_disabled": 0, "fusion_lat": 0.0}, {"fusion_lon": 0.0, "bike_id": "25d311405636b72379c005be70db6734", "name": "25d311405636b72379c005be70db6734", "type": "electric_scooter", "lon": -77.03393616666666, "rental_uris": {"android": "https://dc.lft.to/lastmile_qr_scan", "ios": "https://dc.lft.to/lastmile_qr_scan"}, "lat": 38.920517333333336, "is_reserved": 0, "is_disabled": 0, "fusion_lat": 0.0}, {"fusion_lon": 0.0, "bike_id": "c7a018f7519c1dad6eedd643f87fa5a7", "name": "c7a018f7519c1dad6eedd643f87fa5a7", "type": "electric_scooter", "lon": -77.07292083333333, "rental_uris": {"android": "https://dc.lft.to/lastmile_qr_scan", "ios": "https://dc.lft.to/lastmile_qr_scan"}, "lat": 38.931842, "is_reserved": 0, "is_disabled": 0, "fusion_lat": 0.0}, {"fusion_lon": 0.0, "bike_id": "717ed094cb07c80ea93fefb24015749a", "name": "717ed094cb07c80ea93fefb24015749a", "type": "electric_scooter", "lon": -77.04069466666667, "rental_uris": {"android": "https://dc.lft.to/lastmile_qr_scan", "ios": "https://dc.lft.to/lastmile_qr_scan"}, "lat": 38.9050165, "is_reserved": 0, "is_disabled": 0, "fusion_lat": 0.0}, {"fusion_lon": 0.0, "bike_id": "fbe34e284c5f26404b4619ee4ba1120b", "name": "fbe34e284c5f26404b4619ee4ba1120b", "type": "electric_scooter", "lon": -77.03566166666667, "rental_uris": {"android": "https://dc.lft.to/lastmile_qr_scan", "ios": "https://dc.lft.to/lastmile_qr_scan"}, "lat": 38.90963816666667, "is_reserved": 0, "is_disabled": 0, "fusion_lat": 0.0}, {"fusion_lon": 0.0, "bike_id": "d2203879a83f90e04bd79fa4ad93e13e", "name": "d2203879a83f90e04bd79fa4ad93e13e", "type": "electric_scooter", "lon": -77.02824066666666, "rental_uris": {"android": "https://dc.lft.to/lastmile_qr_scan", "ios": "https://dc.lft.to/lastmile_qr_scan"}, "lat": 38.93215333333333, "is_reserved": 0, "is_disabled": 0, "fusion_lat": 0.0}, {"fusion_lon": 0.0, "bike_id": "2250667455fb0621f96d7b0ce5447d63", "name": "2250667455fb0621f96d7b0ce5447d63", "type": "electric_scooter", "lon": -77.041531, "rental_uris": {"android": "https://dc.lft.to/lastmile_qr_scan", "ios": "https://dc.lft.to/lastmile_qr_scan"}, "lat": 38.91916366666667, "is_reserved": 0, "is_disabled": 0, "fusion_lat": 0.0}, {"fusion_lon": 0.0, "bike_id": "af1b7c61037521b73078a714a3e86852", "name": "af1b7c61037521b73078a714a3e86852", "type": "electric_scooter", "lon": -77.0448695, "rental_uris": {"android": "https://dc.lft.to/lastmile_qr_scan", "ios": "https://dc.lft.to/lastmile_qr_scan"}, "lat": 38.897454, "is_reserved": 0, "is_disabled": 0, "fusion_lat": 0.0}, {"fusion_lon": 0.0, "bike_id": "760432b5340e01e3dc66ba83d4e7a9ce", "name": "760432b5340e01e3dc66ba83d4e7a9ce", "type": "electric_scooter", "lon": -77.02961133333334, "rental_uris": {"android": "https://dc.lft.to/lastmile_qr_scan", "ios": "https://dc.lft.to/lastmile_qr_scan"}, "lat": 38.921429333333336, "is_reserved": 0, "is_disabled": 0, "fusion_lat": 0.0}, {"fusion_lon": 0.0, "bike_id": "e424c502f4caa38622e6e24bb1e40ed3", "name": "e424c502f4caa38622e6e24bb1e40ed3", "type": "electric_scooter", "lon": -77.02493766666667, "rental_uris": {"android": "https://dc.lft.to/lastmile_qr_scan", "ios": "https://dc.lft.to/lastmile_qr_scan"}, "lat": 38.941834, "is_reserved": 0, "is_disabled": 0, "fusion_lat": 0.0}, {"fusion_lon": 0.0, "bike_id": "380b7a73488a997df83140c8556e6257", "name": "380b7a73488a997df83140c8556e6257", "type": "electric_scooter", "lon": -77.01259983333334, "rental_uris": {"android": "https://dc.lft.to/lastmile_qr_scan", "ios": "https://dc.lft.to/lastmile_qr_scan"}, "lat": 38.8748005, "is_reserved": 0, "is_disabled": 0, "fusion_lat": 0.0}, {"fusion_lon": 0.0, "bike_id": "7fcec364589d6b89e8c295cf183e1b26", "name": "7fcec364589d6b89e8c295cf183e1b26", "type": "electric_scooter", "lon": -77.01526, "rental_uris": {"android": "https://dc.lft.to/lastmile_qr_scan", "ios": "https://dc.lft.to/lastmile_qr_scan"}, "lat": 38.884867166666666, "is_reserved": 0, "is_disabled": 0, "fusion_lat": 0.0}, {"fusion_lon": 0.0, "bike_id": "6abc85ff200b444d835f9f0775b1a8a6", "name": "6abc85ff200b444d835f9f0775b1a8a6", "type": "electric_scooter", "lon": -77.06353033333333, "rental_uris": {"android": "https://dc.lft.to/lastmile_qr_scan", "ios": "https://dc.lft.to/lastmile_qr_scan"}, "lat": 38.94453716666666, "is_reserved": 0, "is_disabled": 0, "fusion_lat": 0.0}, {"fusion_lon": 0.0, "bike_id": "5103ae0af49dd5f995e0013c40c1a0ab", "name": "5103ae0af49dd5f995e0013c40c1a0ab", "type": "electric_scooter", "lon": -77.0073535, "rental_uris": {"android": "https://dc.lft.to/lastmile_qr_scan", "ios": "https://dc.lft.to/lastmile_qr_scan"}, "lat": 38.900771, "is_reserved": 0, "is_disabled": 0, "fusion_lat": 0.0}, {"fusion_lon": 0.0, "bike_id": "f10e669a3d6fbd84f990a60863e9fa1e", "name": "f10e669a3d6fbd84f990a60863e9fa1e", "type": "electric_scooter", "lon": -76.98672866666666, "rental_uris": {"android": "https://dc.lft.to/lastmile_qr_scan", "ios": "https://dc.lft.to/lastmile_qr_scan"}, "lat": 38.85568933333333, "is_reserved": 0, "is_disabled": 0, "fusion_lat": 0.0}, {"fusion_lon": 0.0, "bike_id": "e16e8a39ae9f13c5d9f6e072f4ec4b9f", "name": "e16e8a39ae9f13c5d9f6e072f4ec4b9f", "type": "electric_scooter", "lon": -77.04615633333333, "rental_uris": {"android": "https://dc.lft.to/lastmile_qr_scan", "ios": "https://dc.lft.to/lastmile_qr_scan"}, "lat": 38.89962833333333, "is_reserved": 0, "is_disabled": 0, "fusion_lat": 0.0}, {"fusion_lon": 0.0, "bike_id": "f7553c75dfa7625693224278fe271b75", "name": "f7553c75dfa7625693224278fe271b75", "type": "electric_scooter", "lon": -77.02199316666666, "rental_uris": {"android": "https://dc.lft.to/lastmile_qr_scan", "ios": "https://dc.lft.to/lastmile_qr_scan"}, "lat": 38.9051875, "is_reserved": 0, "is_disabled": 0, "fusion_lat": 0.0}, {"fusion_lon": 0.0, "bike_id": "d4b4bd3c4ec1c58e87b56eee38143de7", "name": "d4b4bd3c4ec1c58e87b56eee38143de7", "type": "electric_scooter", "lon": -77.0048095, "rental_uris": {"android": "https://dc.lft.to/lastmile_qr_scan", "ios": "https://dc.lft.to/lastmile_qr_scan"}, "lat": 38.925947, "is_reserved": 0, "is_disabled": 0, "fusion_lat": 0.0}, {"fusion_lon": 0.0, "bike_id": "84001049ec974e768be4919055458671", "name": "84001049ec974e768be4919055458671", "type": "electric_scooter", "lon": -77.02469533333333, "rental_uris": {"android": "https://dc.lft.to/lastmile_qr_scan", "ios": "https://dc.lft.to/lastmile_qr_scan"}, "lat": 38.937686666666664, "is_reserved": 0, "is_disabled": 0, "fusion_lat": 0.0}, {"fusion_lon": 0.0, "bike_id": "53a1f1e81ea5dacaefe8a35fdb534494", "name": "53a1f1e81ea5dacaefe8a35fdb534494", "type": "electric_bike", "lon": -77.162251, "rental_uris": {"android": "https://dc.lft.to/lastmile_qr_scan", "ios": "https://dc.lft.to/lastmile_qr_scan"}, "lat": 38.88657583333333, "is_reserved": 0, "is_disabled": 0, "fusion_lat": 0.0}, {"fusion_lon": 0.0, "bike_id": "35661c900a6181e0dfba37a74576413a", "name": "35661c900a6181e0dfba37a74576413a", "type": "electric_scooter", "lon": -77.041797, "rental_uris": {"android": "https://dc.lft.to/lastmile_qr_scan", "ios": "https://dc.lft.to/lastmile_qr_scan"}, "lat": 38.9079655, "is_reserved": 0, "is_disabled": 0, "fusion_lat": 0.0}, {"fusion_lon": 0.0, "bike_id": "ebb39584a8e473501fcb9bff35f9da15", "name": "ebb39584a8e473501fcb9bff35f9da15", "type": "electric_scooter", "lon": -77.027222, "rental_uris": {"android": "https://dc.lft.to/lastmile_qr_scan", "ios": "https://dc.lft.to/lastmile_qr_scan"}, "lat": 38.924831, "is_reserved": 0, "is_disabled": 0, "fusion_lat": 0.0}, {"fusion_lon": 0.0, "bike_id": "bc274f75fc6d8b30eb3372c91849e974", "name": "bc274f75fc6d8b30eb3372c91849e974", "type": "electric_scooter", "lon": -76.941181, "rental_uris": {"android": "https://dc.lft.to/lastmile_qr_scan", "ios": "https://dc.lft.to/lastmile_qr_scan"}, "lat": 38.90795883333333, "is_reserved": 0, "is_disabled": 0, "fusion_lat": 0.0}, {"fusion_lon": 0.0, "bike_id": "3e15694083ff8b65ae319f775a2cb10d", "name": "3e15694083ff8b65ae319f775a2cb10d", "type": "electric_scooter", "lon": -77.03350433333334, "rental_uris": {"android": "https://dc.lft.to/lastmile_qr_scan", "ios": "https://dc.lft.to/lastmile_qr_scan"}, "lat": 38.892426666666665, "is_reserved": 0, "is_disabled": 0, "fusion_lat": 0.0}, {"fusion_lon": 0.0, "bike_id": "72a7fed3b4afde8f14117545d8239083", "name": "72a7fed3b4afde8f14117545d8239083", "type": "electric_bike", "lon": -77.10127366666667, "rental_uris": {"android": "https://dc.lft.to/lastmile_qr_scan", "ios": "https://dc.lft.to/lastmile_qr_scan"}, "lat": 38.85213066666667, "is_reserved": 0, "is_disabled": 0, "fusion_lat": 0.0}, {"fusion_lon": 0.0, "bike_id": "f105d6ab054244b07cf6a84fad898279", "name": "f105d6ab054244b07cf6a84fad898279", "type": "electric_scooter", "lon": -77.05489366666667, "rental_uris": {"android": "https://dc.lft.to/lastmile_qr_scan", "ios": "https://dc.lft.to/lastmile_qr_scan"}, "lat": 38.9233175, "is_reserved": 0, "is_disabled": 0, "fusion_lat": 0.0}, {"fusion_lon": 0.0, "bike_id": "3762eaa4a46468830213394d6de71aa9", "name": "3762eaa4a46468830213394d6de71aa9", "type": "electric_scooter", "lon": -77.03439316666666, "rental_uris": {"android": "https://dc.lft.to/lastmile_qr_scan", "ios": "https://dc.lft.to/lastmile_qr_scan"}, "lat": 38.910175333333335, "is_reserved": 0, "is_disabled": 0, "fusion_lat": 0.0}, {"fusion_lon": 0.0, "bike_id": "ca36cd0c40365be9ae3c8d50bd3eff4e", "name": "ca36cd0c40365be9ae3c8d50bd3eff4e", "type": "electric_scooter", "lon": -77.02820583333333, "rental_uris": {"android": "https://dc.lft.to/lastmile_qr_scan", "ios": "https://dc.lft.to/lastmile_qr_scan"}, "lat": 38.89956166666666, "is_reserved": 0, "is_disabled": 0, "fusion_lat": 0.0}, {"fusion_lon": 0.0, "bike_id": "ddeb521c8f0fc7c48952c978667bfdf3", "name": "ddeb521c8f0fc7c48952c978667bfdf3", "type": "electric_scooter", "lon": -77.03799983333333, "rental_uris": {"android": "https://dc.lft.to/lastmile_qr_scan", "ios": "https://dc.lft.to/lastmile_qr_scan"}, "lat": 38.9103835, "is_reserved": 0, "is_disabled": 0, "fusion_lat": 0.0}, {"fusion_lon": 0.0, "bike_id": "09ea3a93c379b84cee0c40ea1e87fa74", "name": "09ea3a93c379b84cee0c40ea1e87fa74", "type": "electric_scooter", "lon": -77.03472483333333, "rental_uris": {"android": "https://dc.lft.to/lastmile_qr_scan", "ios": "https://dc.lft.to/lastmile_qr_scan"}, "lat": 38.9063615, "is_reserved": 0, "is_disabled": 0, "fusion_lat": 0.0}, {"fusion_lon": 0.0, "bike_id": "4817fa19ea1c58eb13b094b7f52b01b5", "name": "4817fa19ea1c58eb13b094b7f52b01b5", "type": "electric_scooter", "lon": -77.0334175, "rental_uris": {"android": "https://dc.lft.to/lastmile_qr_scan", "ios": "https://dc.lft.to/lastmile_qr_scan"}, "lat": 38.900248166666664, "is_reserved": 0, "is_disabled": 0, "fusion_lat": 0.0}, {"fusion_lon": 0.0, "bike_id": "cdb3dffb7de9d0ccdf78fffee90469d5", "name": "cdb3dffb7de9d0ccdf78fffee90469d5", "type": "electric_scooter", "lon": -77.01233233333333, "rental_uris": {"android": "https://dc.lft.to/lastmile_qr_scan", "ios": "https://dc.lft.to/lastmile_qr_scan"}, "lat": 38.89613516666667, "is_reserved": 0, "is_disabled": 0, "fusion_lat": 0.0}, {"fusion_lon": 0.0, "bike_id": "1303765143334c3f98c8858a3dcca742", "name": "1303765143334c3f98c8858a3dcca742", "type": "electric_scooter", "lon": -77.01093266666666, "rental_uris": {"android": "https://dc.lft.to/lastmile_qr_scan", "ios": "https://dc.lft.to/lastmile_qr_scan"}, "lat": 38.90561533333333, "is_reserved": 0, "is_disabled": 0, "fusion_lat": 0.0}, {"fusion_lon": 0.0, "bike_id": "ec9a9b433738a9c7c5b06190254157a7", "name": "ec9a9b433738a9c7c5b06190254157a7", "type": "electric_scooter", "lon": -77.04392033333333, "rental_uris": {"android": "https://dc.lft.to/lastmile_qr_scan", "ios": "https://dc.lft.to/lastmile_qr_scan"}, "lat": 38.921163, "is_reserved": 0, "is_disabled": 0, "fusion_lat": 0.0}, {"fusion_lon": 0.0, "bike_id": "0ad0b5df77b3f3fdc56d1e37645dfc0f", "name": "0ad0b5df77b3f3fdc56d1e37645dfc0f", "type": "electric_scooter", "lon": -76.9916485, "rental_uris": {"android": "https://dc.lft.to/lastmile_qr_scan", "ios": "https://dc.lft.to/lastmile_qr_scan"}, "lat": 38.879196666666665, "is_reserved": 0, "is_disabled": 0, "fusion_lat": 0.0}, {"fusion_lon": 0.0, "bike_id": "9e7928fd6a32f3d279bdce9371e5e26a", "name": "9e7928fd6a32f3d279bdce9371e5e26a", "type": "electric_scooter", "lon": -77.04149433333333, "rental_uris": {"android": "https://dc.lft.to/lastmile_qr_scan", "ios": "https://dc.lft.to/lastmile_qr_scan"}, "lat": 38.91707666666667, "is_reserved": 0, "is_disabled": 0, "fusion_lat": 0.0}, {"fusion_lon": 0.0, "bike_id": "ece25ffdfc4ffb82989c616aee04ac4e", "name": "ece25ffdfc4ffb82989c616aee04ac4e", "type": "electric_scooter", "lon": -77.04757266666667, "rental_uris": {"android": "https://dc.lft.to/lastmile_qr_scan", "ios": "https://dc.lft.to/lastmile_qr_scan"}, "lat": 38.90211466666667, "is_reserved": 0, "is_disabled": 0, "fusion_lat": 0.0}, {"fusion_lon": 0.0, "bike_id": "c1ed471b9a23dac4ab82c7529303fe20", "name": "c1ed471b9a23dac4ab82c7529303fe20", "type": "electric_scooter", "lon": -77.078658, "rental_uris": {"android": "https://dc.lft.to/lastmile_qr_scan", "ios": "https://dc.lft.to/lastmile_qr_scan"}, "lat": 38.924671333333336, "is_reserved": 0, "is_disabled": 0, "fusion_lat": 0.0}, {"fusion_lon": 0.0, "bike_id": "339c78ba774d0af055a84e573c9f2fbd", "name": "339c78ba774d0af055a84e573c9f2fbd", "type": "electric_bike", "lon": -76.93532633333334, "rental_uris": {"android": "https://dc.lft.to/lastmile_qr_scan", "ios": "https://dc.lft.to/lastmile_qr_scan"}, "lat": 38.955566166666664, "is_reserved": 0, "is_disabled": 0, "fusion_lat": 0.0}, {"fusion_lon": 0.0, "bike_id": "5aa25498b302f9f7b73b82ed3701fc0b", "name": "5aa25498b302f9f7b73b82ed3701fc0b", "type": "electric_scooter", "lon": -77.0321825, "rental_uris": {"android": "https://dc.lft.to/lastmile_qr_scan", "ios": "https://dc.lft.to/lastmile_qr_scan"}, "lat": 38.89224516666667, "is_reserved": 0, "is_disabled": 0, "fusion_lat": 0.0}, {"fusion_lon": 0.0, "bike_id": "6e7c20849f01593e85fb53b0773a1ceb", "name": "6e7c20849f01593e85fb53b0773a1ceb", "type": "electric_bike", "lon": -77.12259116666667, "rental_uris": {"android": "https://dc.lft.to/lastmile_qr_scan", "ios": "https://dc.lft.to/lastmile_qr_scan"}, "lat": 38.88773416666667, "is_reserved": 0, "is_disabled": 0, "fusion_lat": 0.0}, {"fusion_lon": 0.0, "bike_id": "f539bb4a52f9f1add688ccbd9ac4ea4c", "name": "f539bb4a52f9f1add688ccbd9ac4ea4c", "type": "electric_scooter", "lon": -77.04010966666667, "rental_uris": {"android": "https://dc.lft.to/lastmile_qr_scan", "ios": "https://dc.lft.to/lastmile_qr_scan"}, "lat": 38.915676166666664, "is_reserved": 0, "is_disabled": 0, "fusion_lat": 0.0}, {"fusion_lon": 0.0, "bike_id": "b7e524d1289d8609be18a85ddc7c3305", "name": "b7e524d1289d8609be18a85ddc7c3305", "type": "electric_bike", "lon": -77.07683783333333, "rental_uris": {"android": "https://dc.lft.to/lastmile_qr_scan", "ios": "https://dc.lft.to/lastmile_qr_scan"}, "lat": 38.831921333333334, "is_reserved": 0, "is_disabled": 0, "fusion_lat": 0.0}, {"fusion_lon": 0.0, "bike_id": "fd27795b8616258590875b2fc4dae1c1", "name": "fd27795b8616258590875b2fc4dae1c1", "type": "electric_scooter", "lon": -77.04034766666666, "rental_uris": {"android": "https://dc.lft.to/lastmile_qr_scan", "ios": "https://dc.lft.to/lastmile_qr_scan"}, "lat": 38.917745, "is_reserved": 0, "is_disabled": 0, "fusion_lat": 0.0}, {"fusion_lon": 0.0, "bike_id": "c41c1495632d59dd4fec81686549ef2b", "name": "c41c1495632d59dd4fec81686549ef2b", "type": "electric_scooter", "lon": -77.0220345, "rental_uris": {"android": "https://dc.lft.to/lastmile_qr_scan", "ios": "https://dc.lft.to/lastmile_qr_scan"}, "lat": 38.8994225, "is_reserved": 0, "is_disabled": 0, "fusion_lat": 0.0}, {"fusion_lon": 0.0, "bike_id": "64ae1c2175c64dafbf73e999e578cb74", "name": "64ae1c2175c64dafbf73e999e578cb74", "type": "electric_scooter", "lon": -77.03659133333333, "rental_uris": {"android": "https://dc.lft.to/lastmile_qr_scan", "ios": "https://dc.lft.to/lastmile_qr_scan"}, "lat": 38.9550225, "is_reserved": 0, "is_disabled": 0, "fusion_lat": 0.0}, {"fusion_lon": 0.0, "bike_id": "e3a597b43a074b8110279010ec891edc", "name": "e3a597b43a074b8110279010ec891edc", "type": "electric_scooter", "lon": -77.0407705, "rental_uris": {"android": "https://dc.lft.to/lastmile_qr_scan", "ios": "https://dc.lft.to/lastmile_qr_scan"}, "lat": 38.89610666666667, "is_reserved": 0, "is_disabled": 0, "fusion_lat": 0.0}, {"fusion_lon": 0.0, "bike_id": "fb6fe9edc1fc392171a130e30e42a144", "name": "fb6fe9edc1fc392171a130e30e42a144", "type": "electric_scooter", "lon": -77.00316766666667, "rental_uris": {"android": "https://dc.lft.to/lastmile_qr_scan", "ios": "https://dc.lft.to/lastmile_qr_scan"}, "lat": 38.84035216666667, "is_reserved": 0, "is_disabled": 0, "fusion_lat": 0.0}, {"fusion_lon": 0.0, "bike_id": "6b5e80e41166343004395fa6d31768ff", "name": "6b5e80e41166343004395fa6d31768ff", "type": "electric_scooter", "lon": -77.0410545, "rental_uris": {"android": "https://dc.lft.to/lastmile_qr_scan", "ios": "https://dc.lft.to/lastmile_qr_scan"}, "lat": 38.900255333333334, "is_reserved": 0, "is_disabled": 0, "fusion_lat": 0.0}, {"fusion_lon": 0.0, "bike_id": "009fd067d7bef325bde4cfbdeb4244c1", "name": "009fd067d7bef325bde4cfbdeb4244c1", "type": "electric_scooter", "lon": -76.948987, "rental_uris": {"android": "https://dc.lft.to/lastmile_qr_scan", "ios": "https://dc.lft.to/lastmile_qr_scan"}, "lat": 38.89526216666667, "is_reserved": 0, "is_disabled": 0, "fusion_lat": 0.0}, {"fusion_lon": 0.0, "bike_id": "e607b7533c476610dc10ba0eae2d4b21", "name": "e607b7533c476610dc10ba0eae2d4b21", "type": "electric_scooter", "lon": -77.05404883333334, "rental_uris": {"android": "https://dc.lft.to/lastmile_qr_scan", "ios": "https://dc.lft.to/lastmile_qr_scan"}, "lat": 38.95056866666667, "is_reserved": 0, "is_disabled": 0, "fusion_lat": 0.0}, {"fusion_lon": 0.0, "bike_id": "ca01d75a20f097150843230bb046f087", "name": "ca01d75a20f097150843230bb046f087", "type": "electric_scooter", "lon": -76.94786866666666, "rental_uris": {"android": "https://dc.lft.to/lastmile_qr_scan", "ios": "https://dc.lft.to/lastmile_qr_scan"}, "lat": 38.8846015, "is_reserved": 0, "is_disabled": 0, "fusion_lat": 0.0}, {"fusion_lon": 0.0, "bike_id": "7b4e87fee7176f89f771119e39694592", "name": "7b4e87fee7176f89f771119e39694592", "type": "electric_scooter", "lon": -76.97387816666667, "rental_uris": {"android": "https://dc.lft.to/lastmile_qr_scan", "ios": "https://dc.lft.to/lastmile_qr_scan"}, "lat": 38.88368333333333, "is_reserved": 0, "is_disabled": 0, "fusion_lat": 0.0}, {"fusion_lon": 0.0, "bike_id": "6bec4fdfe4990e6866be12a7cad497a3", "name": "6bec4fdfe4990e6866be12a7cad497a3", "type": "electric_scooter", "lon": -77.04387783333334, "rental_uris": {"android": "https://dc.lft.to/lastmile_qr_scan", "ios": "https://dc.lft.to/lastmile_qr_scan"}, "lat": 38.905745833333334, "is_reserved": 0, "is_disabled": 0, "fusion_lat": 0.0}, {"fusion_lon": 0.0, "bike_id": "d459a30f45a4afa2dfc97eaafe4a073d", "name": "d459a30f45a4afa2dfc97eaafe4a073d", "type": "electric_scooter", "lon": -77.017773, "rental_uris": {"android": "https://dc.lft.to/lastmile_qr_scan", "ios": "https://dc.lft.to/lastmile_qr_scan"}, "lat": 38.92108483333333, "is_reserved": 0, "is_disabled": 0, "fusion_lat": 0.0}, {"fusion_lon": 0.0, "bike_id": "925900a29b39b84f9f3e4928de24b6fe", "name": "925900a29b39b84f9f3e4928de24b6fe", "type": "electric_scooter", "lon": -76.99845166666667, "rental_uris": {"android": "https://dc.lft.to/lastmile_qr_scan", "ios": "https://dc.lft.to/lastmile_qr_scan"}, "lat": 38.9003335, "is_reserved": 0, "is_disabled": 0, "fusion_lat": 0.0}, {"fusion_lon": 0.0, "bike_id": "4dda0f8ec2a178666cbd1b2ce503d22e", "name": "4dda0f8ec2a178666cbd1b2ce503d22e", "type": "electric_scooter", "lon": -77.02722083333333, "rental_uris": {"android": "https://dc.lft.to/lastmile_qr_scan", "ios": "https://dc.lft.to/lastmile_qr_scan"}, "lat": 38.9038435, "is_reserved": 0, "is_disabled": 0, "fusion_lat": 0.0}, {"fusion_lon": 0.0, "bike_id": "64cb881f3a86d310cde8498d562adec6", "name": "64cb881f3a86d310cde8498d562adec6", "type": "electric_scooter", "lon": -77.01979316666667, "rental_uris": {"android": "https://dc.lft.to/lastmile_qr_scan", "ios": "https://dc.lft.to/lastmile_qr_scan"}, "lat": 38.893870666666665, "is_reserved": 0, "is_disabled": 0, "fusion_lat": 0.0}, {"fusion_lon": 0.0, "bike_id": "0477e220f613dc2e67ae5129bff36950", "name": "0477e220f613dc2e67ae5129bff36950", "type": "electric_scooter", "lon": -77.04240566666667, "rental_uris": {"android": "https://dc.lft.to/lastmile_qr_scan", "ios": "https://dc.lft.to/lastmile_qr_scan"}, "lat": 38.9193385, "is_reserved": 0, "is_disabled": 0, "fusion_lat": 0.0}, {"fusion_lon": 0.0, "bike_id": "5a9612bfca312218cffc6f67ef475085", "name": "5a9612bfca312218cffc6f67ef475085", "type": "electric_scooter", "lon": -77.04296133333334, "rental_uris": {"android": "https://dc.lft.to/lastmile_qr_scan", "ios": "https://dc.lft.to/lastmile_qr_scan"}, "lat": 38.91344266666667, "is_reserved": 0, "is_disabled": 0, "fusion_lat": 0.0}, {"fusion_lon": 0.0, "bike_id": "9c874536e9777a822e11b40dc8b9ea24", "name": "9c874536e9777a822e11b40dc8b9ea24", "type": "electric_scooter", "lon": -77.02721866666667, "rental_uris": {"android": "https://dc.lft.to/lastmile_qr_scan", "ios": "https://dc.lft.to/lastmile_qr_scan"}, "lat": 38.92482, "is_reserved": 0, "is_disabled": 0, "fusion_lat": 0.0}, {"fusion_lon": 0.0, "bike_id": "462cc45780334c79486a2b3952f8e86f", "name": "462cc45780334c79486a2b3952f8e86f", "type": "electric_scooter", "lon": -77.01602883333334, "rental_uris": {"android": "https://dc.lft.to/lastmile_qr_scan", "ios": "https://dc.lft.to/lastmile_qr_scan"}, "lat": 38.88745883333333, "is_reserved": 0, "is_disabled": 0, "fusion_lat": 0.0}, {"fusion_lon": 0.0, "bike_id": "20af0854de7fa3c2a680d67cec0163c3", "name": "20af0854de7fa3c2a680d67cec0163c3", "type": "electric_scooter", "lon": -76.996468, "rental_uris": {"android": "https://dc.lft.to/lastmile_qr_scan", "ios": "https://dc.lft.to/lastmile_qr_scan"}, "lat": 38.887205333333334, "is_reserved": 0, "is_disabled": 0, "fusion_lat": 0.0}, {"fusion_lon": 0.0, "bike_id": "7bc1a4fca046c69d3bc3e1be0cee49d8", "name": "7bc1a4fca046c69d3bc3e1be0cee49d8", "type": "electric_scooter", "lon": -77.04038733333333, "rental_uris": {"android": "https://dc.lft.to/lastmile_qr_scan", "ios": "https://dc.lft.to/lastmile_qr_scan"}, "lat": 38.905926666666666, "is_reserved": 0, "is_disabled": 0, "fusion_lat": 0.0}, {"fusion_lon": 0.0, "bike_id": "c07912e9543491a99ad381458d83b06c", "name": "c07912e9543491a99ad381458d83b06c", "type": "electric_scooter", "lon": -77.03364066666667, "rental_uris": {"android": "https://dc.lft.to/lastmile_qr_scan", "ios": "https://dc.lft.to/lastmile_qr_scan"}, "lat": 38.90273716666667, "is_reserved": 0, "is_disabled": 0, "fusion_lat": 0.0}, {"fusion_lon": 0.0, "bike_id": "d9ef52eb794e3e907ed6cc9bd1a2e268", "name": "d9ef52eb794e3e907ed6cc9bd1a2e268", "type": "electric_scooter", "lon": -77.0583815, "rental_uris": {"android": "https://dc.lft.to/lastmile_qr_scan", "ios": "https://dc.lft.to/lastmile_qr_scan"}, "lat": 38.93425583333333, "is_reserved": 0, "is_disabled": 0, "fusion_lat": 0.0}, {"fusion_lon": 0.0, "bike_id": "664069cac55b2a95420677cef74f83ce", "name": "664069cac55b2a95420677cef74f83ce", "type": "electric_scooter", "lon": -77.04673566666666, "rental_uris": {"android": "https://dc.lft.to/lastmile_qr_scan", "ios": "https://dc.lft.to/lastmile_qr_scan"}, "lat": 38.907241166666665, "is_reserved": 0, "is_disabled": 0, "fusion_lat": 0.0}, {"fusion_lon": 0.0, "bike_id": "f8200ffc95b63d8834712c13b7db8b31", "name": "f8200ffc95b63d8834712c13b7db8b31", "type": "electric_scooter", "lon": -77.0329625, "rental_uris": {"android": "https://dc.lft.to/lastmile_qr_scan", "ios": "https://dc.lft.to/lastmile_qr_scan"}, "lat": 38.904601666666665, "is_reserved": 0, "is_disabled": 0, "fusion_lat": 0.0}, {"fusion_lon": 0.0, "bike_id": "5c0d1de022996727b4be79a6ca9d6038", "name": "5c0d1de022996727b4be79a6ca9d6038", "type": "electric_scooter", "lon": -77.00200883333333, "rental_uris": {"android": "https://dc.lft.to/lastmile_qr_scan", "ios": "https://dc.lft.to/lastmile_qr_scan"}, "lat": 38.90243983333333, "is_reserved": 0, "is_disabled": 0, "fusion_lat": 0.0}, {"fusion_lon": 0.0, "bike_id": "9fa243408ec604ed91dfa111a7c4a690", "name": "9fa243408ec604ed91dfa111a7c4a690", "type": "electric_scooter", "lon": -77.01734183333333, "rental_uris": {"android": "https://dc.lft.to/lastmile_qr_scan", "ios": "https://dc.lft.to/lastmile_qr_scan"}, "lat": 38.87482266666667, "is_reserved": 0, "is_disabled": 0, "fusion_lat": 0.0}, {"fusion_lon": 0.0, "bike_id": "6c0560439c85a878bcf5ac44c644d658", "name": "6c0560439c85a878bcf5ac44c644d658", "type": "electric_scooter", "lon": -76.93187183333333, "rental_uris": {"android": "https://dc.lft.to/lastmile_qr_scan", "ios": "https://dc.lft.to/lastmile_qr_scan"}, "lat": 38.898766, "is_reserved": 0, "is_disabled": 0, "fusion_lat": 0.0}, {"fusion_lon": 0.0, "bike_id": "3c224fd51c86aca82dfbc04a2dac5761", "name": "3c224fd51c86aca82dfbc04a2dac5761", "type": "electric_scooter", "lon": -77.01116683333333, "rental_uris": {"android": "https://dc.lft.to/lastmile_qr_scan", "ios": "https://dc.lft.to/lastmile_qr_scan"}, "lat": 38.89507533333333, "is_reserved": 0, "is_disabled": 0, "fusion_lat": 0.0}, {"fusion_lon": 0.0, "bike_id": "ae2e434bf947be71321d6cf639b1cc18", "name": "ae2e434bf947be71321d6cf639b1cc18", "type": "electric_scooter", "lon": -77.03121066666667, "rental_uris": {"android": "https://dc.lft.to/lastmile_qr_scan", "ios": "https://dc.lft.to/lastmile_qr_scan"}, "lat": 38.95932616666666, "is_reserved": 0, "is_disabled": 0, "fusion_lat": 0.0}, {"fusion_lon": 0.0, "bike_id": "899bf26870ba0f572c5f49237d13e079", "name": "899bf26870ba0f572c5f49237d13e079", "type": "electric_scooter", "lon": -77.03183633333333, "rental_uris": {"android": "https://dc.lft.to/lastmile_qr_scan", "ios": "https://dc.lft.to/lastmile_qr_scan"}, "lat": 38.919237333333335, "is_reserved": 0, "is_disabled": 0, "fusion_lat": 0.0}, {"fusion_lon": 0.0, "bike_id": "33a708e2e0622854ba69ea17408a2f36", "name": "33a708e2e0622854ba69ea17408a2f36", "type": "electric_scooter", "lon": -77.00726933333333, "rental_uris": {"android": "https://dc.lft.to/lastmile_qr_scan", "ios": "https://dc.lft.to/lastmile_qr_scan"}, "lat": 38.87658716666667, "is_reserved": 0, "is_disabled": 0, "fusion_lat": 0.0}, {"fusion_lon": 0.0, "bike_id": "0cd9f52226c22504b5a0bf0c7928d6a9", "name": "0cd9f52226c22504b5a0bf0c7928d6a9", "type": "electric_bike", "lon": -77.0982785, "rental_uris": {"android": "https://dc.lft.to/lastmile_qr_scan", "ios": "https://dc.lft.to/lastmile_qr_scan"}, "lat": 38.857919833333334, "is_reserved": 0, "is_disabled": 0, "fusion_lat": 0.0}, {"fusion_lon": 0.0, "bike_id": "69a4be55d61fec95c1e4c54db42d3df8", "name": "69a4be55d61fec95c1e4c54db42d3df8", "type": "electric_scooter", "lon": -77.02169366666666, "rental_uris": {"android": "https://dc.lft.to/lastmile_qr_scan", "ios": "https://dc.lft.to/lastmile_qr_scan"}, "lat": 38.942950333333336, "is_reserved": 0, "is_disabled": 0, "fusion_lat": 0.0}, {"fusion_lon": 0.0, "bike_id": "a831966e06097c30eb6e78e32d265ba6", "name": "a831966e06097c30eb6e78e32d265ba6", "type": "electric_scooter", "lon": -77.05437366666666, "rental_uris": {"android": "https://dc.lft.to/lastmile_qr_scan", "ios": "https://dc.lft.to/lastmile_qr_scan"}, "lat": 38.89606, "is_reserved": 0, "is_disabled": 0, "fusion_lat": 0.0}, {"fusion_lon": 0.0, "bike_id": "825065f7a8db4f495c5006404754d186", "name": "825065f7a8db4f495c5006404754d186", "type": "electric_scooter", "lon": -76.99074216666666, "rental_uris": {"android": "https://dc.lft.to/lastmile_qr_scan", "ios": "https://dc.lft.to/lastmile_qr_scan"}, "lat": 38.904276333333335, "is_reserved": 0, "is_disabled": 0, "fusion_lat": 0.0}, {"fusion_lon": 0.0, "bike_id": "1dd9be8bba086ac32509846926d8508a", "name": "1dd9be8bba086ac32509846926d8508a", "type": "electric_bike", "lon": -77.02493233333334, "rental_uris": {"android": "https://dc.lft.to/lastmile_qr_scan", "ios": "https://dc.lft.to/lastmile_qr_scan"}, "lat": 38.97412083333333, "is_reserved": 0, "is_disabled": 0, "fusion_lat": 0.0}, {"fusion_lon": 0.0, "bike_id": "f5e9d773068f21fa53c62532f3a76a3f", "name": "f5e9d773068f21fa53c62532f3a76a3f", "type": "electric_scooter", "lon": -76.93525333333334, "rental_uris": {"android": "https://dc.lft.to/lastmile_qr_scan", "ios": "https://dc.lft.to/lastmile_qr_scan"}, "lat": 38.878979666666666, "is_reserved": 0, "is_disabled": 0, "fusion_lat": 0.0}, {"fusion_lon": 0.0, "bike_id": "e0e7f0b4062ec764b3b045a52e1ed8b6", "name": "e0e7f0b4062ec764b3b045a52e1ed8b6", "type": "electric_scooter", "lon": -77.033698, "rental_uris": {"android": "https://dc.lft.to/lastmile_qr_scan", "ios": "https://dc.lft.to/lastmile_qr_scan"}, "lat": 38.911776833333334, "is_reserved": 0, "is_disabled": 0, "fusion_lat": 0.0}, {"fusion_lon": 0.0, "bike_id": "f8a5c7949f673d3bea910faf9ed6af05", "name": "f8a5c7949f673d3bea910faf9ed6af05", "type": "electric_scooter", "lon": -76.93351366666667, "rental_uris": {"android": "https://dc.lft.to/lastmile_qr_scan", "ios": "https://dc.lft.to/lastmile_qr_scan"}, "lat": 38.9019735, "is_reserved": 0, "is_disabled": 0, "fusion_lat": 0.0}, {"fusion_lon": 0.0, "bike_id": "937d6ed71a14a5776c4a52d3af8e0e38", "name": "937d6ed71a14a5776c4a52d3af8e0e38", "type": "electric_scooter", "lon": -77.006926, "rental_uris": {"android": "https://dc.lft.to/lastmile_qr_scan", "ios": "https://dc.lft.to/lastmile_qr_scan"}, "lat": 38.90525066666667, "is_reserved": 0, "is_disabled": 0, "fusion_lat": 0.0}, {"fusion_lon": 0.0, "bike_id": "577da50c76ebda4ac6760fc25a48ee01", "name": "577da50c76ebda4ac6760fc25a48ee01", "type": "electric_scooter", "lon": -77.01007983333334, "rental_uris": {"android": "https://dc.lft.to/lastmile_qr_scan", "ios": "https://dc.lft.to/lastmile_qr_scan"}, "lat": 38.87968333333333, "is_reserved": 0, "is_disabled": 0, "fusion_lat": 0.0}, {"fusion_lon": 0.0, "bike_id": "2e60a7abf92e507c142e4d2cc575c246", "name": "2e60a7abf92e507c142e4d2cc575c246", "type": "electric_bike", "lon": -76.94473666666667, "rental_uris": {"android": "https://dc.lft.to/lastmile_qr_scan", "ios": "https://dc.lft.to/lastmile_qr_scan"}, "lat": 38.9456175, "is_reserved": 0, "is_disabled": 0, "fusion_lat": 0.0}, {"fusion_lon": 0.0, "bike_id": "ba08858f64a38c424e92e633f40bee21", "name": "ba08858f64a38c424e92e633f40bee21", "type": "electric_scooter", "lon": -77.03013883333334, "rental_uris": {"android": "https://dc.lft.to/lastmile_qr_scan", "ios": "https://dc.lft.to/lastmile_qr_scan"}, "lat": 38.89731333333334, "is_reserved": 0, "is_disabled": 0, "fusion_lat": 0.0}, {"fusion_lon": 0.0, "bike_id": "1ba00f44edd9cd0b94337d1282866a63", "name": "1ba00f44edd9cd0b94337d1282866a63", "type": "electric_scooter", "lon": -77.07245433333334, "rental_uris": {"android": "https://dc.lft.to/lastmile_qr_scan", "ios": "https://dc.lft.to/lastmile_qr_scan"}, "lat": 38.939581833333335, "is_reserved": 0, "is_disabled": 0, "fusion_lat": 0.0}, {"fusion_lon": 0.0, "bike_id": "2dbe06cd6a3f9f3248fb18dbaac705df", "name": "2dbe06cd6a3f9f3248fb18dbaac705df", "type": "electric_scooter", "lon": -77.02931833333334, "rental_uris": {"android": "https://dc.lft.to/lastmile_qr_scan", "ios": "https://dc.lft.to/lastmile_qr_scan"}, "lat": 38.898240333333334, "is_reserved": 0, "is_disabled": 0, "fusion_lat": 0.0}, {"fusion_lon": 0.0, "bike_id": "cd6c25366a6b4ba447de865b6bdb1099", "name": "cd6c25366a6b4ba447de865b6bdb1099", "type": "electric_bike", "lon": -77.0790365, "rental_uris": {"android": "https://dc.lft.to/lastmile_qr_scan", "ios": "https://dc.lft.to/lastmile_qr_scan"}, "lat": 38.839356, "is_reserved": 0, "is_disabled": 0, "fusion_lat": 0.0}, {"fusion_lon": 0.0, "bike_id": "e2f4f79b7d7380cdfeea2f28f225fad6", "name": "e2f4f79b7d7380cdfeea2f28f225fad6", "type": "electric_bike", "lon": -77.0617275, "rental_uris": {"android": "https://dc.lft.to/lastmile_qr_scan", "ios": "https://dc.lft.to/lastmile_qr_scan"}, "lat": 38.812751166666665, "is_reserved": 0, "is_disabled": 0, "fusion_lat": 0.0}, {"fusion_lon": 0.0, "bike_id": "42456fc79f4583294d51ecc06d8d2320", "name": "42456fc79f4583294d51ecc06d8d2320", "type": "electric_scooter", "lon": -77.03401433333333, "rental_uris": {"android": "https://dc.lft.to/lastmile_qr_scan", "ios": "https://dc.lft.to/lastmile_qr_scan"}, "lat": 38.919679, "is_reserved": 0, "is_disabled": 0, "fusion_lat": 0.0}, {"fusion_lon": 0.0, "bike_id": "67a08a0a9e3b57861e25ecf779f03df3", "name": "67a08a0a9e3b57861e25ecf779f03df3", "type": "electric_scooter", "lon": -76.9946305, "rental_uris": {"android": "https://dc.lft.to/lastmile_qr_scan", "ios": "https://dc.lft.to/lastmile_qr_scan"}, "lat": 38.84038483333333, "is_reserved": 0, "is_disabled": 0, "fusion_lat": 0.0}, {"fusion_lon": 0.0, "bike_id": "735f1c69af07aa22b532f6565e16aa94", "name": "735f1c69af07aa22b532f6565e16aa94", "type": "electric_scooter", "lon": -77.04700083333333, "rental_uris": {"android": "https://dc.lft.to/lastmile_qr_scan", "ios": "https://dc.lft.to/lastmile_qr_scan"}, "lat": 38.897452, "is_reserved": 0, "is_disabled": 0, "fusion_lat": 0.0}, {"fusion_lon": 0.0, "bike_id": "a49f74610dd08fc1874bf38d1d0ff30d", "name": "a49f74610dd08fc1874bf38d1d0ff30d", "type": "electric_scooter", "lon": -77.0239, "rental_uris": {"android": "https://dc.lft.to/lastmile_qr_scan", "ios": "https://dc.lft.to/lastmile_qr_scan"}, "lat": 38.95735533333333, "is_reserved": 0, "is_disabled": 0, "fusion_lat": 0.0}, {"fusion_lon": 0.0, "bike_id": "5afb430d88503da723bd86f21bcd617b", "name": "5afb430d88503da723bd86f21bcd617b", "type": "electric_scooter", "lon": -77.0233495, "rental_uris": {"android": "https://dc.lft.to/lastmile_qr_scan", "ios": "https://dc.lft.to/lastmile_qr_scan"}, "lat": 38.90852983333333, "is_reserved": 0, "is_disabled": 0, "fusion_lat": 0.0}, {"fusion_lon": 0.0, "bike_id": "3e639406dde7bca7c6eb108ab40922c1", "name": "3e639406dde7bca7c6eb108ab40922c1", "type": "electric_scooter", "lon": -76.99028916666667, "rental_uris": {"android": "https://dc.lft.to/lastmile_qr_scan", "ios": "https://dc.lft.to/lastmile_qr_scan"}, "lat": 38.8985355, "is_reserved": 0, "is_disabled": 0, "fusion_lat": 0.0}, {"fusion_lon": 0.0, "bike_id": "12dbd363456cc45a63c0f8e0a69ce037", "name": "12dbd363456cc45a63c0f8e0a69ce037", "type": "electric_scooter", "lon": -77.01608783333333, "rental_uris": {"android": "https://dc.lft.to/lastmile_qr_scan", "ios": "https://dc.lft.to/lastmile_qr_scan"}, "lat": 38.903114, "is_reserved": 0, "is_disabled": 0, "fusion_lat": 0.0}, {"fusion_lon": 0.0, "bike_id": "be7b5466e12370bce4a7851edc55328d", "name": "be7b5466e12370bce4a7851edc55328d", "type": "electric_scooter", "lon": -77.03905116666667, "rental_uris": {"android": "https://dc.lft.to/lastmile_qr_scan", "ios": "https://dc.lft.to/lastmile_qr_scan"}, "lat": 38.92504016666667, "is_reserved": 0, "is_disabled": 0, "fusion_lat": 0.0}, {"fusion_lon": 0.0, "bike_id": "80cd118f5f8792b994ab28e7db79edc1", "name": "80cd118f5f8792b994ab28e7db79edc1", "type": "electric_bike", "lon": -76.98825583333333, "rental_uris": {"android": "https://dc.lft.to/lastmile_qr_scan", "ios": "https://dc.lft.to/lastmile_qr_scan"}, "lat": 38.98564666666667, "is_reserved": 0, "is_disabled": 0, "fusion_lat": 0.0}, {"fusion_lon": 0.0, "bike_id": "69bdb0e48ad728b772b57f49237d7acb", "name": "69bdb0e48ad728b772b57f49237d7acb", "type": "electric_scooter", "lon": -77.0401225, "rental_uris": {"android": "https://dc.lft.to/lastmile_qr_scan", "ios": "https://dc.lft.to/lastmile_qr_scan"}, "lat": 38.91801316666667, "is_reserved": 0, "is_disabled": 0, "fusion_lat": 0.0}, {"fusion_lon": 0.0, "bike_id": "31a697f68f22fc437013b5626ee28700", "name": "31a697f68f22fc437013b5626ee28700", "type": "electric_scooter", "lon": -77.02696616666667, "rental_uris": {"android": "https://dc.lft.to/lastmile_qr_scan", "ios": "https://dc.lft.to/lastmile_qr_scan"}, "lat": 38.912786, "is_reserved": 0, "is_disabled": 0, "fusion_lat": 0.0}, {"fusion_lon": 0.0, "bike_id": "f97c39b81f84572ab5f4e521ddffe7c6", "name": "f97c39b81f84572ab5f4e521ddffe7c6", "type": "electric_scooter", "lon": -76.94112933333334, "rental_uris": {"android": "https://dc.lft.to/lastmile_qr_scan", "ios": "https://dc.lft.to/lastmile_qr_scan"}, "lat": 38.88455, "is_reserved": 0, "is_disabled": 0, "fusion_lat": 0.0}, {"fusion_lon": 0.0, "bike_id": "0ea1137cda6ce6be201fc632b6384628", "name": "0ea1137cda6ce6be201fc632b6384628", "type": "electric_scooter", "lon": -77.026622, "rental_uris": {"android": "https://dc.lft.to/lastmile_qr_scan", "ios": "https://dc.lft.to/lastmile_qr_scan"}, "lat": 38.97941183333333, "is_reserved": 0, "is_disabled": 0, "fusion_lat": 0.0}, {"fusion_lon": 0.0, "bike_id": "2091509708c3523b8ea30532d0162278", "name": "2091509708c3523b8ea30532d0162278", "type": "electric_scooter", "lon": -77.02354033333333, "rental_uris": {"android": "https://dc.lft.to/lastmile_qr_scan", "ios": "https://dc.lft.to/lastmile_qr_scan"}, "lat": 38.92506183333333, "is_reserved": 0, "is_disabled": 0, "fusion_lat": 0.0}, {"fusion_lon": 0.0, "bike_id": "d53865cb76ee117611b481d0bdc09146", "name": "d53865cb76ee117611b481d0bdc09146", "type": "electric_scooter", "lon": -77.04080416666666, "rental_uris": {"android": "https://dc.lft.to/lastmile_qr_scan", "ios": "https://dc.lft.to/lastmile_qr_scan"}, "lat": 38.91967983333333, "is_reserved": 0, "is_disabled": 0, "fusion_lat": 0.0}, {"fusion_lon": 0.0, "bike_id": "a66372059d227eff8d2d3d1b779a542c", "name": "a66372059d227eff8d2d3d1b779a542c", "type": "electric_scooter", "lon": -77.00624866666666, "rental_uris": {"android": "https://dc.lft.to/lastmile_qr_scan", "ios": "https://dc.lft.to/lastmile_qr_scan"}, "lat": 38.8719625, "is_reserved": 0, "is_disabled": 0, "fusion_lat": 0.0}, {"fusion_lon": 0.0, "bike_id": "075e826e442f3e41283188265d2f2485", "name": "075e826e442f3e41283188265d2f2485", "type": "electric_scooter", "lon": -77.03210816666666, "rental_uris": {"android": "https://dc.lft.to/lastmile_qr_scan", "ios": "https://dc.lft.to/lastmile_qr_scan"}, "lat": 38.92584083333333, "is_reserved": 0, "is_disabled": 0, "fusion_lat": 0.0}, {"fusion_lon": 0.0, "bike_id": "b30ed547e8f1ea395e964f0f5f029ba9", "name": "b30ed547e8f1ea395e964f0f5f029ba9", "type": "electric_scooter", "lon": -76.9820975, "rental_uris": {"android": "https://dc.lft.to/lastmile_qr_scan", "ios": "https://dc.lft.to/lastmile_qr_scan"}, "lat": 38.886456, "is_reserved": 0, "is_disabled": 0, "fusion_lat": 0.0}, {"fusion_lon": 0.0, "bike_id": "db606bdc344693836252b099e2508672", "name": "db606bdc344693836252b099e2508672", "type": "electric_bike", "lon": -77.12504983333334, "rental_uris": {"android": "https://dc.lft.to/lastmile_qr_scan", "ios": "https://dc.lft.to/lastmile_qr_scan"}, "lat": 39.024211, "is_reserved": 0, "is_disabled": 0, "fusion_lat": 0.0}, {"fusion_lon": 0.0, "bike_id": "c5fca349ef7fcafea07c5048a1b84438", "name": "c5fca349ef7fcafea07c5048a1b84438", "type": "electric_scooter", "lon": -77.0215515, "rental_uris": {"android": "https://dc.lft.to/lastmile_qr_scan", "ios": "https://dc.lft.to/lastmile_qr_scan"}, "lat": 38.9260735, "is_reserved": 0, "is_disabled": 0, "fusion_lat": 0.0}, {"fusion_lon": 0.0, "bike_id": "341d7bf099e9a5618652dd89a221acd3", "name": "341d7bf099e9a5618652dd89a221acd3", "type": "electric_bike", "lon": -76.9956825, "rental_uris": {"android": "https://dc.lft.to/lastmile_qr_scan", "ios": "https://dc.lft.to/lastmile_qr_scan"}, "lat": 39.0078665, "is_reserved": 0, "is_disabled": 0, "fusion_lat": 0.0}, {"fusion_lon": 0.0, "bike_id": "b8a883c37d7d210e08530bf174191420", "name": "b8a883c37d7d210e08530bf174191420", "type": "electric_scooter", "lon": -77.0169785, "rental_uris": {"android": "https://dc.lft.to/lastmile_qr_scan", "ios": "https://dc.lft.to/lastmile_qr_scan"}, "lat": 38.90507216666666, "is_reserved": 0, "is_disabled": 0, "fusion_lat": 0.0}, {"fusion_lon": 0.0, "bike_id": "5341523debbff847ce8c14449cb51ba1", "name": "5341523debbff847ce8c14449cb51ba1", "type": "electric_scooter", "lon": -76.9871125, "rental_uris": {"android": "https://dc.lft.to/lastmile_qr_scan", "ios": "https://dc.lft.to/lastmile_qr_scan"}, "lat": 38.8669885, "is_reserved": 0, "is_disabled": 0, "fusion_lat": 0.0}, {"fusion_lon": 0.0, "bike_id": "4013287ba64c98669f73155d61b73e17", "name": "4013287ba64c98669f73155d61b73e17", "type": "electric_scooter", "lon": -77.05521516666667, "rental_uris": {"android": "https://dc.lft.to/lastmile_qr_scan", "ios": "https://dc.lft.to/lastmile_qr_scan"}, "lat": 38.89730083333333, "is_reserved": 0, "is_disabled": 0, "fusion_lat": 0.0}, {"fusion_lon": 0.0, "bike_id": "fa9b645549bf883ba705f2bab51b441c", "name": "fa9b645549bf883ba705f2bab51b441c", "type": "electric_scooter", "lon": -77.025607, "rental_uris": {"android": "https://dc.lft.to/lastmile_qr_scan", "ios": "https://dc.lft.to/lastmile_qr_scan"}, "lat": 38.901787, "is_reserved": 0, "is_disabled": 0, "fusion_lat": 0.0}, {"fusion_lon": 0.0, "bike_id": "ea5f6a5eb4ebd7b67b5c6f974ebfe302", "name": "ea5f6a5eb4ebd7b67b5c6f974ebfe302", "type": "electric_bike", "lon": -77.0956615, "rental_uris": {"android": "https://dc.lft.to/lastmile_qr_scan", "ios": "https://dc.lft.to/lastmile_qr_scan"}, "lat": 38.91703866666667, "is_reserved": 0, "is_disabled": 0, "fusion_lat": 0.0}, {"fusion_lon": 0.0, "bike_id": "8fdc3bafabe5f7232ab41031c570ac13", "name": "8fdc3bafabe5f7232ab41031c570ac13", "type": "electric_scooter", "lon": -77.0267775, "rental_uris": {"android": "https://dc.lft.to/lastmile_qr_scan", "ios": "https://dc.lft.to/lastmile_qr_scan"}, "lat": 38.89593516666667, "is_reserved": 0, "is_disabled": 0, "fusion_lat": 0.0}, {"fusion_lon": 0.0, "bike_id": "9a520f5988bebd3b5884bea56379cece", "name": "9a520f5988bebd3b5884bea56379cece", "type": "electric_scooter", "lon": -77.046488, "rental_uris": {"android": "https://dc.lft.to/lastmile_qr_scan", "ios": "https://dc.lft.to/lastmile_qr_scan"}, "lat": 38.910294, "is_reserved": 0, "is_disabled": 0, "fusion_lat": 0.0}, {"fusion_lon": 0.0, "bike_id": "5e65df30f0a79c2160123ac0df2b210f", "name": "5e65df30f0a79c2160123ac0df2b210f", "type": "electric_bike", "lon": -77.03934283333334, "rental_uris": {"android": "https://dc.lft.to/lastmile_qr_scan", "ios": "https://dc.lft.to/lastmile_qr_scan"}, "lat": 38.923246666666664, "is_reserved": 0, "is_disabled": 0, "fusion_lat": 0.0}, {"fusion_lon": 0.0, "bike_id": "70e1637adb7ec5338f8aa77f8e91d4da", "name": "70e1637adb7ec5338f8aa77f8e91d4da", "type": "electric_scooter", "lon": -77.01373016666666, "rental_uris": {"android": "https://dc.lft.to/lastmile_qr_scan", "ios": "https://dc.lft.to/lastmile_qr_scan"}, "lat": 38.8922095, "is_reserved": 0, "is_disabled": 0, "fusion_lat": 0.0}, {"fusion_lon": 0.0, "bike_id": "f9178abba398445c28ffbabf593bfdff", "name": "f9178abba398445c28ffbabf593bfdff", "type": "electric_scooter", "lon": -77.04226, "rental_uris": {"android": "https://dc.lft.to/lastmile_qr_scan", "ios": "https://dc.lft.to/lastmile_qr_scan"}, "lat": 38.920979833333334, "is_reserved": 0, "is_disabled": 0, "fusion_lat": 0.0}, {"fusion_lon": 0.0, "bike_id": "cc70592e26cf87e9c1160b5f36f46b8e", "name": "cc70592e26cf87e9c1160b5f36f46b8e", "type": "electric_scooter", "lon": -77.01498883333333, "rental_uris": {"android": "https://dc.lft.to/lastmile_qr_scan", "ios": "https://dc.lft.to/lastmile_qr_scan"}, "lat": 38.901436833333335, "is_reserved": 0, "is_disabled": 0, "fusion_lat": 0.0}, {"fusion_lon": 0.0, "bike_id": "2e7bba307f427da438b98243062177f5", "name": "2e7bba307f427da438b98243062177f5", "type": "electric_scooter", "lon": -77.01370083333333, "rental_uris": {"android": "https://dc.lft.to/lastmile_qr_scan", "ios": "https://dc.lft.to/lastmile_qr_scan"}, "lat": 38.886410166666664, "is_reserved": 0, "is_disabled": 0, "fusion_lat": 0.0}, {"fusion_lon": 0.0, "bike_id": "4bc95ae90e71e6698637dded258a63f8", "name": "4bc95ae90e71e6698637dded258a63f8", "type": "electric_scooter", "lon": -77.06682516666666, "rental_uris": {"android": "https://dc.lft.to/lastmile_qr_scan", "ios": "https://dc.lft.to/lastmile_qr_scan"}, "lat": 38.949770666666666, "is_reserved": 0, "is_disabled": 0, "fusion_lat": 0.0}, {"fusion_lon": 0.0, "bike_id": "1cbea02cd22afb5f19520b34a93f8e50", "name": "1cbea02cd22afb5f19520b34a93f8e50", "type": "electric_scooter", "lon": -77.038478, "rental_uris": {"android": "https://dc.lft.to/lastmile_qr_scan", "ios": "https://dc.lft.to/lastmile_qr_scan"}, "lat": 38.91619933333333, "is_reserved": 0, "is_disabled": 0, "fusion_lat": 0.0}, {"fusion_lon": 0.0, "bike_id": "394a0889c6f3ee501f9eaf76cd39da63", "name": "394a0889c6f3ee501f9eaf76cd39da63", "type": "electric_scooter", "lon": -77.04431083333333, "rental_uris": {"android": "https://dc.lft.to/lastmile_qr_scan", "ios": "https://dc.lft.to/lastmile_qr_scan"}, "lat": 38.912566, "is_reserved": 0, "is_disabled": 0, "fusion_lat": 0.0}, {"fusion_lon": 0.0, "bike_id": "cd99f872d91af5f6cc1b92496d5620af", "name": "cd99f872d91af5f6cc1b92496d5620af", "type": "electric_scooter", "lon": -77.0135175, "rental_uris": {"android": "https://dc.lft.to/lastmile_qr_scan", "ios": "https://dc.lft.to/lastmile_qr_scan"}, "lat": 38.928863666666665, "is_reserved": 0, "is_disabled": 0, "fusion_lat": 0.0}, {"fusion_lon": 0.0, "bike_id": "60148a70445903b6be3fa21d03d29230", "name": "60148a70445903b6be3fa21d03d29230", "type": "electric_bike", "lon": -76.90540516666667, "rental_uris": {"android": "https://dc.lft.to/lastmile_qr_scan", "ios": "https://dc.lft.to/lastmile_qr_scan"}, "lat": 38.89735983333333, "is_reserved": 0, "is_disabled": 0, "fusion_lat": 0.0}, {"fusion_lon": 0.0, "bike_id": "6d246f4a2aceea22d913b809f4bfa001", "name": "6d246f4a2aceea22d913b809f4bfa001", "type": "electric_scooter", "lon": -77.0178085, "rental_uris": {"android": "https://dc.lft.to/lastmile_qr_scan", "ios": "https://dc.lft.to/lastmile_qr_scan"}, "lat": 38.9039605, "is_reserved": 0, "is_disabled": 0, "fusion_lat": 0.0}, {"fusion_lon": 0.0, "bike_id": "4abfdcd11bda1c865dc7d0f73fa634b0", "name": "4abfdcd11bda1c865dc7d0f73fa634b0", "type": "electric_scooter", "lon": -77.06018983333334, "rental_uris": {"android": "https://dc.lft.to/lastmile_qr_scan", "ios": "https://dc.lft.to/lastmile_qr_scan"}, "lat": 38.90266166666667, "is_reserved": 0, "is_disabled": 0, "fusion_lat": 0.0}, {"fusion_lon": 0.0, "bike_id": "bb662d44dc5d5627be4c1a3ea1ef70be", "name": "bb662d44dc5d5627be4c1a3ea1ef70be", "type": "electric_scooter", "lon": -77.03853766666667, "rental_uris": {"android": "https://dc.lft.to/lastmile_qr_scan", "ios": "https://dc.lft.to/lastmile_qr_scan"}, "lat": 38.90982016666667, "is_reserved": 0, "is_disabled": 0, "fusion_lat": 0.0}, {"fusion_lon": 0.0, "bike_id": "22b3d68ec027386265fa7c6244dc7329", "name": "22b3d68ec027386265fa7c6244dc7329", "type": "electric_scooter", "lon": -77.04248216666667, "rental_uris": {"android": "https://dc.lft.to/lastmile_qr_scan", "ios": "https://dc.lft.to/lastmile_qr_scan"}, "lat": 38.91415683333334, "is_reserved": 0, "is_disabled": 0, "fusion_lat": 0.0}, {"fusion_lon": 0.0, "bike_id": "a3b4a794530de333027b9f63891d3ba1", "name": "a3b4a794530de333027b9f63891d3ba1", "type": "electric_scooter", "lon": -77.000792, "rental_uris": {"android": "https://dc.lft.to/lastmile_qr_scan", "ios": "https://dc.lft.to/lastmile_qr_scan"}, "lat": 38.901422333333336, "is_reserved": 0, "is_disabled": 0, "fusion_lat": 0.0}, {"fusion_lon": 0.0, "bike_id": "f3206ae4a5389e438a614b44111cd6c7", "name": "f3206ae4a5389e438a614b44111cd6c7", "type": "electric_scooter", "lon": -76.98657933333334, "rental_uris": {"android": "https://dc.lft.to/lastmile_qr_scan", "ios": "https://dc.lft.to/lastmile_qr_scan"}, "lat": 38.901445333333335, "is_reserved": 0, "is_disabled": 0, "fusion_lat": 0.0}, {"fusion_lon": 0.0, "bike_id": "413cb81671d3705100dc9263f4519444", "name": "413cb81671d3705100dc9263f4519444", "type": "electric_scooter", "lon": -76.97907633333334, "rental_uris": {"android": "https://dc.lft.to/lastmile_qr_scan", "ios": "https://dc.lft.to/lastmile_qr_scan"}, "lat": 38.89434933333333, "is_reserved": 0, "is_disabled": 0, "fusion_lat": 0.0}, {"fusion_lon": 0.0, "bike_id": "e6f14d34f04dba9dcd630e7b7148f5fc", "name": "e6f14d34f04dba9dcd630e7b7148f5fc", "type": "electric_scooter", "lon": -77.05060433333334, "rental_uris": {"android": "https://dc.lft.to/lastmile_qr_scan", "ios": "https://dc.lft.to/lastmile_qr_scan"}, "lat": 38.90083766666667, "is_reserved": 0, "is_disabled": 0, "fusion_lat": 0.0}, {"fusion_lon": 0.0, "bike_id": "a4dc06652ee963871dec2bfec8564a87", "name": "a4dc06652ee963871dec2bfec8564a87", "type": "electric_bike", "lon": -77.10681933333333, "rental_uris": {"android": "https://dc.lft.to/lastmile_qr_scan", "ios": "https://dc.lft.to/lastmile_qr_scan"}, "lat": 38.9358655, "is_reserved": 0, "is_disabled": 0, "fusion_lat": 0.0}, {"fusion_lon": 0.0, "bike_id": "6e700a8eaee86c0e8eebc892884b6704", "name": "6e700a8eaee86c0e8eebc892884b6704", "type": "electric_scooter", "lon": -77.02950516666667, "rental_uris": {"android": "https://dc.lft.to/lastmile_qr_scan", "ios": "https://dc.lft.to/lastmile_qr_scan"}, "lat": 38.89607816666667, "is_reserved": 0, "is_disabled": 0, "fusion_lat": 0.0}, {"fusion_lon": 0.0, "bike_id": "974faa86870686fb8e2d9065cd17c4f7", "name": "974faa86870686fb8e2d9065cd17c4f7", "type": "electric_bike", "lon": -76.987502, "rental_uris": {"android": "https://dc.lft.to/lastmile_qr_scan", "ios": "https://dc.lft.to/lastmile_qr_scan"}, "lat": 38.857865833333335, "is_reserved": 0, "is_disabled": 0, "fusion_lat": 0.0}, {"fusion_lon": 0.0, "bike_id": "eec9de1de13182ac8b878730be064479", "name": "eec9de1de13182ac8b878730be064479", "type": "electric_scooter", "lon": -77.018785, "rental_uris": {"android": "https://dc.lft.to/lastmile_qr_scan", "ios": "https://dc.lft.to/lastmile_qr_scan"}, "lat": 38.91420216666667, "is_reserved": 0, "is_disabled": 0, "fusion_lat": 0.0}, {"fusion_lon": 0.0, "bike_id": "ecffc1d059c5eee8e7c30d290b92c05e", "name": "ecffc1d059c5eee8e7c30d290b92c05e", "type": "electric_scooter", "lon": -77.01397083333333, "rental_uris": {"android": "https://dc.lft.to/lastmile_qr_scan", "ios": "https://dc.lft.to/lastmile_qr_scan"}, "lat": 38.88036066666667, "is_reserved": 0, "is_disabled": 0, "fusion_lat": 0.0}, {"fusion_lon": 0.0, "bike_id": "abd9bbeb434a834207d8d43bfb7d1a79", "name": "abd9bbeb434a834207d8d43bfb7d1a79", "type": "electric_scooter", "lon": -77.0150175, "rental_uris": {"android": "https://dc.lft.to/lastmile_qr_scan", "ios": "https://dc.lft.to/lastmile_qr_scan"}, "lat": 38.956419833333335, "is_reserved": 0, "is_disabled": 0, "fusion_lat": 0.0}, {"fusion_lon": 0.0, "bike_id": "8ce4109113b2ed4aaa73b1196a2bc5c6", "name": "8ce4109113b2ed4aaa73b1196a2bc5c6", "type": "electric_scooter", "lon": -77.04173633333333, "rental_uris": {"android": "https://dc.lft.to/lastmile_qr_scan", "ios": "https://dc.lft.to/lastmile_qr_scan"}, "lat": 38.91915016666667, "is_reserved": 0, "is_disabled": 0, "fusion_lat": 0.0}, {"fusion_lon": 0.0, "bike_id": "c290e654df90228937a01c7152d2d703", "name": "c290e654df90228937a01c7152d2d703", "type": "electric_scooter", "lon": -77.0310005, "rental_uris": {"android": "https://dc.lft.to/lastmile_qr_scan", "ios": "https://dc.lft.to/lastmile_qr_scan"}, "lat": 38.925757, "is_reserved": 0, "is_disabled": 0, "fusion_lat": 0.0}, {"fusion_lon": 0.0, "bike_id": "2656a4d859d4c7a76a9ba5a2f9614f6e", "name": "2656a4d859d4c7a76a9ba5a2f9614f6e", "type": "electric_scooter", "lon": -77.024587, "rental_uris": {"android": "https://dc.lft.to/lastmile_qr_scan", "ios": "https://dc.lft.to/lastmile_qr_scan"}, "lat": 38.9371855, "is_reserved": 0, "is_disabled": 0, "fusion_lat": 0.0}, {"fusion_lon": 0.0, "bike_id": "6c3af7500bec50402811b605ae8146e7", "name": "6c3af7500bec50402811b605ae8146e7", "type": "electric_scooter", "lon": -77.02325216666667, "rental_uris": {"android": "https://dc.lft.to/lastmile_qr_scan", "ios": "https://dc.lft.to/lastmile_qr_scan"}, "lat": 38.90850733333333, "is_reserved": 0, "is_disabled": 0, "fusion_lat": 0.0}, {"fusion_lon": 0.0, "bike_id": "c22c7c38f3b98d53076e1c11a4ac4054", "name": "c22c7c38f3b98d53076e1c11a4ac4054", "type": "electric_scooter", "lon": -77.00208533333333, "rental_uris": {"android": "https://dc.lft.to/lastmile_qr_scan", "ios": "https://dc.lft.to/lastmile_qr_scan"}, "lat": 38.894997333333336, "is_reserved": 0, "is_disabled": 0, "fusion_lat": 0.0}, {"fusion_lon": 0.0, "bike_id": "5235d399d082f60dd71ee528a244204f", "name": "5235d399d082f60dd71ee528a244204f", "type": "electric_scooter", "lon": -77.00489966666666, "rental_uris": {"android": "https://dc.lft.to/lastmile_qr_scan", "ios": "https://dc.lft.to/lastmile_qr_scan"}, "lat": 38.875369666666664, "is_reserved": 0, "is_disabled": 0, "fusion_lat": 0.0}, {"fusion_lon": 0.0, "bike_id": "9ed1335400b28a07c96562cfb60ce628", "name": "9ed1335400b28a07c96562cfb60ce628", "type": "electric_scooter", "lon": -77.0317415, "rental_uris": {"android": "https://dc.lft.to/lastmile_qr_scan", "ios": "https://dc.lft.to/lastmile_qr_scan"}, "lat": 38.91551666666667, "is_reserved": 0, "is_disabled": 0, "fusion_lat": 0.0}, {"fusion_lon": 0.0, "bike_id": "28b5c17bae446706df22db67d808fed7", "name": "28b5c17bae446706df22db67d808fed7", "type": "electric_scooter", "lon": -77.03878783333333, "rental_uris": {"android": "https://dc.lft.to/lastmile_qr_scan", "ios": "https://dc.lft.to/lastmile_qr_scan"}, "lat": 38.93436783333333, "is_reserved": 0, "is_disabled": 0, "fusion_lat": 0.0}, {"fusion_lon": 0.0, "bike_id": "38d83bf91acb26c31345f74925ace118", "name": "38d83bf91acb26c31345f74925ace118", "type": "electric_scooter", "lon": -76.99574316666667, "rental_uris": {"android": "https://dc.lft.to/lastmile_qr_scan", "ios": "https://dc.lft.to/lastmile_qr_scan"}, "lat": 38.92074683333333, "is_reserved": 0, "is_disabled": 0, "fusion_lat": 0.0}, {"fusion_lon": 0.0, "bike_id": "d3b20bc0d1d5b7ef5061cd311f3b4129", "name": "d3b20bc0d1d5b7ef5061cd311f3b4129", "type": "electric_scooter", "lon": -77.0278145, "rental_uris": {"android": "https://dc.lft.to/lastmile_qr_scan", "ios": "https://dc.lft.to/lastmile_qr_scan"}, "lat": 38.892225833333335, "is_reserved": 0, "is_disabled": 0, "fusion_lat": 0.0}, {"fusion_lon": 0.0, "bike_id": "24f2a862ee37fe541c918feeb21c5c06", "name": "24f2a862ee37fe541c918feeb21c5c06", "type": "electric_scooter", "lon": -77.03219383333334, "rental_uris": {"android": "https://dc.lft.to/lastmile_qr_scan", "ios": "https://dc.lft.to/lastmile_qr_scan"}, "lat": 38.912659833333336, "is_reserved": 0, "is_disabled": 0, "fusion_lat": 0.0}, {"fusion_lon": 0.0, "bike_id": "716bb4f8dd39ee7504574e5206f4383a", "name": "716bb4f8dd39ee7504574e5206f4383a", "type": "electric_scooter", "lon": -77.06364766666667, "rental_uris": {"android": "https://dc.lft.to/lastmile_qr_scan", "ios": "https://dc.lft.to/lastmile_qr_scan"}, "lat": 38.944143833333335, "is_reserved": 0, "is_disabled": 0, "fusion_lat": 0.0}, {"fusion_lon": 0.0, "bike_id": "ea345d64fa39c3c58ad41baecde7566c", "name": "ea345d64fa39c3c58ad41baecde7566c", "type": "electric_scooter", "lon": -77.03685516666667, "rental_uris": {"android": "https://dc.lft.to/lastmile_qr_scan", "ios": "https://dc.lft.to/lastmile_qr_scan"}, "lat": 38.92264616666667, "is_reserved": 0, "is_disabled": 0, "fusion_lat": 0.0}, {"fusion_lon": 0.0, "bike_id": "18118df4a05b98b9a801e5123a46c545", "name": "18118df4a05b98b9a801e5123a46c545", "type": "electric_bike", "lon": -77.051088, "rental_uris": {"android": "https://dc.lft.to/lastmile_qr_scan", "ios": "https://dc.lft.to/lastmile_qr_scan"}, "lat": 38.94563616666667, "is_reserved": 0, "is_disabled": 0, "fusion_lat": 0.0}, {"fusion_lon": 0.0, "bike_id": "32899795313afbea87f5e74c7bcc64b8", "name": "32899795313afbea87f5e74c7bcc64b8", "type": "electric_bike", "lon": -77.10719133333333, "rental_uris": {"android": "https://dc.lft.to/lastmile_qr_scan", "ios": "https://dc.lft.to/lastmile_qr_scan"}, "lat": 38.855383, "is_reserved": 0, "is_disabled": 0, "fusion_lat": 0.0},