{"data": {"bikes": [{"is_disabled": 0, "is_reserved": 0, "fusion_lat": 0.0, "lat": 38.9223235, "fusion_lon": 0.0, "rental_uris": {"ios": "https://dc.lft.to/lastmile_qr_scan", "android": "https://dc.lft.to/lastmile_qr_scan"}, "lon": -77.03879966666666, "bike_id": "b1262794a2df5a6d61e3109db36411aa", "type": "electric_scooter", "name": "b1262794a2df5a6d61e3109db36411aa"}, {"is_disabled": 0, "is_reserved": 0, "fusion_lat": 0.0, "lat": 38.933310666666664, "fusion_lon": 0.0, "rental_uris": {"ios": "https://dc.lft.to/lastmile_qr_scan", "android": "https://dc.lft.to/lastmile_qr_scan"}, "lon": -77.03988633333333, "bike_id": "725da6552433a437e86db954464e4407", "type": "electric_bike", "name": "725da6552433a437e86db954464e4407"}, {"is_disabled": 0, "is_reserved": 0, "fusion_lat": 0.0, "lat": 38.805271, "fusion_lon": 0.0, "rental_uris": {"ios": "https://dc.lft.to/lastmile_qr_scan", "android": "https://dc.lft.to/lastmile_qr_scan"}, "lon": -77.04337016666666, "bike_id": "86260032f727c256c61ab03dc8d4fc95", "type": "electric_bike", "name": "86260032f727c256c61ab03dc8d4fc95"}, {"is_disabled": 0, "is_reserved": 0, "fusion_lat": 0.0, "lat": 38.89749066666667, "fusion_lon": 0.0, "rental_uris": {"ios": "https://dc.lft.to/lastmile_qr_scan", "android": "https://dc.lft.to/lastmile_qr_scan"}, "lon": -77.01759033333333, "bike_id": "0f522fb3e571f80856012ce1f49b48dd", "type": "electric_scooter", "name": "0f522fb3e571f80856012ce1f49b48dd"}, {"is_disabled": 0, "is_reserved": 0, "fusion_lat": 0.0, "lat": 38.914736833333336, "fusion_lon": 0.0, "rental_uris": {"ios": "https://dc.lft.to/lastmile_qr_scan", "android": "https://dc.lft.to/lastmile_qr_scan"}, "lon": -77.03180533333334, "bike_id": "10bb316602acbb0301da6621e3dd0c90", "type": "electric_scooter", "name": "10bb316602acbb0301da6621e3dd0c90"}, {"is_disabled": 0, "is_reserved": 0, "fusion_lat": 0.0, "lat": 38.864946, "fusion_lon": 0.0, "rental_uris": {"ios": "https://dc.lft.to/lastmile_qr_scan", "android": "https://dc.lft.to/lastmile_qr_scan"}, "lon": -76.96987116666666, "bike_id": "8a461e799b51bf490b95cd22d5443da1", "type": "electric_bike", "name": "8a461e799b51bf490b95cd22d5443da1"}, {"is_disabled": 0, "is_reserved": 0, "fusion_lat": 0.0, "lat": 38.92900366666667, "fusion_lon": 0.0, "rental_uris": {"ios": "https://dc.lft.to/lastmile_qr_scan", "android": "https://dc.lft.to/lastmile_qr_scan"}, "lon": -77.054576, "bike_id": "bfe4db96e0d4411cc3b8b2e0b555ac14", "type": "electric_scooter", "name": "bfe4db96e0d4411cc3b8b2e0b555ac14"}, {"is_disabled": 0, "is_reserved": 0, "fusion_lat": 0.0, "lat": 38.87893416666667, "fusion_lon": 0.0, "rental_uris": {"ios": "https://dc.lft.to/lastmile_qr_scan", "android": "https://dc.lft.to/lastmile_qr_scan"}, "lon": -76.93529983333333, "bike_id": "411ceb8bd904f98dcb2d29cb0b1aa971", "type": "electric_scooter", "name": "411ceb8bd904f98dcb2d29cb0b1aa971"}, {"is_disabled": 0, "is_reserved": 0, "fusion_lat": 0.0, "lat": 38.929758666666665, "fusion_lon": 0.0, "rental_uris": {"ios": "https://dc.lft.to/lastmile_qr_scan", "android": "https://dc.lft.to/lastmile_qr_scan"}, "lon": -77.03937666666667, "bike_id": "4e15b54eba8c3dcda5f06866ede1fe04", "type": "electric_scooter", "name": "4e15b54eba8c3dcda5f06866ede1fe04"}, {"is_disabled": 0, "is_reserved": 0, "fusion_lat": 0.0, "lat": 38.936722333333336, "fusion_lon": 0.0, "rental_uris": {"ios": "https://dc.lft.to/lastmile_qr_scan", "android": "https://dc.lft.to/lastmile_qr_scan"}, "lon": -77.03588866666666, "bike_id": "08ea3a4ef518636d41824c50c0fe949f", "type": "electric_scooter", "name": "08ea3a4ef518636d41824c50c0fe949f"}, {"is_disabled": 0, "is_reserved": 0, "fusion_lat": 0.0, "lat": 38.89509833333334, "fusion_lon": 0.0, "rental_uris": {"ios": "https://dc.lft.to/lastmile_qr_scan", "android": "https://dc.lft.to/lastmile_qr_scan"}, "lon": -77.02278866666667, "bike_id": "a0c51ad2f9596434ffb16e825744ed64", "type": "electric_scooter", "name": "a0c51ad2f9596434ffb16e825744ed64"}, {"is_disabled": 0, "is_reserved": 0, "fusion_lat": 0.0, "lat": 38.90705716666667, "fusion_lon": 0.0, "rental_uris": {"ios": "https://dc.lft.to/lastmile_qr_scan", "android": "https://dc.lft.to/lastmile_qr_scan"}, "lon": -76.9983285, "bike_id": "c7504cd9e384a6d4cbacf3ab11b4715a", "type": "electric_scooter", "name": "c7504cd9e384a6d4cbacf3ab11b4715a"}, {"is_disabled": 0, "is_reserved": 0, "fusion_lat": 0.0, "lat": 38.922405833333336, "fusion_lon": 0.0, "rental_uris": {"ios": "https://dc.lft.to/lastmile_qr_scan", "android": "https://dc.lft.to/lastmile_qr_scan"}, "lon": -77.03663133333333, "bike_id": "9a37fc3084d04f4dc550a60d6e82ad84", "type": "electric_scooter", "name": "9a37fc3084d04f4dc550a60d6e82ad84"}, {"is_disabled": 0, "is_reserved": 0, "fusion_lat": 0.0, "lat": 38.916878, "fusion_lon": 0.0, "rental_uris": {"ios": "https://dc.lft.to/lastmile_qr_scan", "android": "https://dc.lft.to/lastmile_qr_scan"}, "lon": -77.0235335, "bike_id": "02e5abecac9adf552984c49901321dc2", "type": "electric_scooter", "name": "02e5abecac9adf552984c49901321dc2"}, {"is_disabled": 0, "is_reserved": 0, "fusion_lat": 0.0, "lat": 38.92383933333333, "fusion_lon": 0.0, "rental_uris": {"ios": "https://dc.lft.to/lastmile_qr_scan", "android": "https://dc.lft.to/lastmile_qr_scan"}, "lon": -77.0401915, "bike_id": "4a5e68010ed64632470c9683b2f8e82e", "type": "electric_scooter", "name": "4a5e68010ed64632470c9683b2f8e82e"}, {"is_disabled": 0, "is_reserved": 0, "fusion_lat": 0.0, "lat": 38.938544, "fusion_lon": 0.0, "rental_uris": {"ios": "https://dc.lft.to/lastmile_qr_scan", "android": "https://dc.lft.to/lastmile_qr_scan"}, "lon": -76.99435066666666, "bike_id": "c650e695777edd4dd20dccd43a080005", "type": "electric_scooter", "name": "c650e695777edd4dd20dccd43a080005"}, {"is_disabled": 0, "is_reserved": 0, "fusion_lat": 0.0, "lat": 38.902451666666664, "fusion_lon": 0.0, "rental_uris": {"ios": "https://dc.lft.to/lastmile_qr_scan", "android": "https://dc.lft.to/lastmile_qr_scan"}, "lon": -77.01437833333334, "bike_id": "dc9fafef5eecec49f8c707198f055309", "type": "electric_scooter", "name": "dc9fafef5eecec49f8c707198f055309"}, {"is_disabled": 0, "is_reserved": 0, "fusion_lat": 0.0, "lat": 38.87655483333333, "fusion_lon": 0.0, "rental_uris": {"ios": "https://dc.lft.to/lastmile_qr_scan", "android": "https://dc.lft.to/lastmile_qr_scan"}, "lon": -77.002057, "bike_id": "5cfaec5091734a9c3a2e3731b962dfe1", "type": "electric_scooter", "name": "5cfaec5091734a9c3a2e3731b962dfe1"}, {"is_disabled": 0, "is_reserved": 0, "fusion_lat": 0.0, "lat": 38.935607166666664, "fusion_lon": 0.0, "rental_uris": {"ios": "https://dc.lft.to/lastmile_qr_scan", "android": "https://dc.lft.to/lastmile_qr_scan"}, "lon": -77.07704133333333, "bike_id": "3eecede835c4ca448c77b0b618da5bbd", "type": "electric_scooter", "name": "3eecede835c4ca448c77b0b618da5bbd"}, {"is_disabled": 0, "is_reserved": 0, "fusion_lat": 0.0, "lat": 38.9045215, "fusion_lon": 0.0, "rental_uris": {"ios": "https://dc.lft.to/lastmile_qr_scan", "android": "https://dc.lft.to/lastmile_qr_scan"}, "lon": -77.0484795, "bike_id": "8fcc8a33d0622d533af2fac35129abeb", "type": "electric_scooter", "name": "8fcc8a33d0622d533af2fac35129abeb"}, {"is_disabled": 0, "is_reserved": 0, "fusion_lat": 0.0, "lat": 38.92876716666667, "fusion_lon": 0.0, "rental_uris": {"ios": "https://dc.lft.to/lastmile_qr_scan", "android": "https://dc.lft.to/lastmile_qr_scan"}, "lon": -77.0341255, "bike_id": "5ad567c247012dfd5cf79ecccb7d42cb", "type": "electric_scooter", "name": "5ad567c247012dfd5cf79ecccb7d42cb"}, {"is_disabled": 0, "is_reserved": 0, "fusion_lat": 0.0, "lat": 38.94978616666667, "fusion_lon": 0.0, "rental_uris": {"ios": "https://dc.lft.to/lastmile_qr_scan", "android": "https://dc.lft.to/lastmile_qr_scan"}, "lon": -77.02446683333334, "bike_id": "49a1b1cdc2c936b259cc030e2b5ad4f4", "type": "electric_scooter", "name": "49a1b1cdc2c936b259cc030e2b5ad4f4"}, {"is_disabled": 0, "is_reserved": 0, "fusion_lat": 0.0, "lat": 38.91182633333333, "fusion_lon": 0.0, "rental_uris": {"ios": "https://dc.lft.to/lastmile_qr_scan", "android": "https://dc.lft.to/lastmile_qr_scan"}, "lon": -77.001786, "bike_id": "fbe31584c001fb1ef27121f1b8eb004f", "type": "electric_scooter", "name": "fbe31584c001fb1ef27121f1b8eb004f"}, {"is_disabled": 0, "is_reserved": 0, "fusion_lat": 0.0, "lat": 38.881348833333334, "fusion_lon": 0.0, "rental_uris": {"ios": "https://dc.lft.to/lastmile_qr_scan", "android": "https://dc.lft.to/lastmile_qr_scan"}, "lon": -77.0227315, "bike_id": "267a634d41d24107b1379d86cb8aa3b4", "type": "electric_scooter", "name": "267a634d41d24107b1379d86cb8aa3b4"}, {"is_disabled": 0, "is_reserved": 0, "fusion_lat": 0.0, "lat": 38.88452366666667, "fusion_lon": 0.0, "rental_uris": {"ios": "https://dc.lft.to/lastmile_qr_scan", "android": "https://dc.lft.to/lastmile_qr_scan"}, "lon": -76.950953, "bike_id": "c4f4ce5e98cd39ae8ba5ae586b2648eb", "type": "electric_scooter", "name": "c4f4ce5e98cd39ae8ba5ae586b2648eb"}, {"is_disabled": 0, "is_reserved": 0, "fusion_lat": 0.0, "lat": 38.89870483333333, "fusion_lon": 0.0, "rental_uris": {"ios": "https://dc.lft.to/lastmile_qr_scan", "android": "https://dc.lft.to/lastmile_qr_scan"}, "lon": -77.02871133333333, "bike_id": "4c8126eece9bcb38aaa341962b15d606", "type": "electric_scooter", "name": "4c8126eece9bcb38aaa341962b15d606"}, {"is_disabled": 0, "is_reserved": 0, "fusion_lat": 0.0, "lat": 38.94923566666667, "fusion_lon": 0.0, "rental_uris": {"ios": "https://dc.lft.to/lastmile_qr_scan", "android": "https://dc.lft.to/lastmile_qr_scan"}, "lon": -77.008006, "bike_id": "6b56bde7d558cd5cbf543c6dba9a6434", "type": "electric_bike", "name": "6b56bde7d558cd5cbf543c6dba9a6434"}, {"is_disabled": 0, "is_reserved": 0, "fusion_lat": 0.0, "lat": 38.81331983333333, "fusion_lon": 0.0, "rental_uris": {"ios": "https://dc.lft.to/lastmile_qr_scan", "android": "https://dc.lft.to/lastmile_qr_scan"}, "lon": -77.0508935, "bike_id": "c054536af8860792763b4133557f75fe", "type": "electric_bike", "name": "c054536af8860792763b4133557f75fe"}, {"is_disabled": 0, "is_reserved": 0, "fusion_lat": 0.0, "lat": 38.92901233333333, "fusion_lon": 0.0, "rental_uris": {"ios": "https://dc.lft.to/lastmile_qr_scan", "android": "https://dc.lft.to/lastmile_qr_scan"}, "lon": -77.03756733333333, "bike_id": "20e5a5bdd7c1d2e6dc51d8d25f3ca265", "type": "electric_scooter", "name": "20e5a5bdd7c1d2e6dc51d8d25f3ca265"}, {"is_disabled": 0, "is_reserved": 0, "fusion_lat": 0.0, "lat": 38.929881, "fusion_lon": 0.0, "rental_uris": {"ios": "https://dc.lft.to/lastmile_qr_scan", "android": "https://dc.lft.to/lastmile_qr_scan"}, "lon": -77.03472133333334, "bike_id": "a9140554746ab3fd26529b408a5b0de9", "type": "electric_scooter", "name": "a9140554746ab3fd26529b408a5b0de9"}, {"is_disabled": 0, "is_reserved": 0, "fusion_lat": 0.0, "lat": 38.917852333333336, "fusion_lon": 0.0, "rental_uris": {"ios": "https://dc.lft.to/lastmile_qr_scan", "android": "https://dc.lft.to/lastmile_qr_scan"}, "lon": -77.02301616666666, "bike_id": "90b0b6574f83d922a94dd93cd3a60424", "type": "electric_scooter", "name": "90b0b6574f83d922a94dd93cd3a60424"}, {"is_disabled": 0, "is_reserved": 0, "fusion_lat": 0.0, "lat": 38.92151916666667, "fusion_lon": 0.0, "rental_uris": {"ios": "https://dc.lft.to/lastmile_qr_scan", "android": "https://dc.lft.to/lastmile_qr_scan"}, "lon": -77.03381266666666, "bike_id": "fcc0ef69968cdafba7fa8155c512a992", "type": "electric_scooter", "name": "fcc0ef69968cdafba7fa8155c512a992"}, {"is_disabled": 0, "is_reserved": 0, "fusion_lat": 0.0, "lat": 38.929311, "fusion_lon": 0.0, "rental_uris": {"ios": "https://dc.lft.to/lastmile_qr_scan", "android": "https://dc.lft.to/lastmile_qr_scan"}, "lon": -77.03272366666667, "bike_id": "eb539aeba01b0f8632d27be2bef4fbb7", "type": "electric_scooter", "name": "eb539aeba01b0f8632d27be2bef4fbb7"}, {"is_disabled": 0, "is_reserved": 0, "fusion_lat": 0.0, "lat": 38.89249816666667, "fusion_lon": 0.0, "rental_uris": {"ios": "https://dc.lft.to/lastmile_qr_scan", "android": "https://dc.lft.to/lastmile_qr_scan"}, "lon": -77.04658283333333, "bike_id": "af8adaa2ac39f29239e21c1ee592e6aa", "type": "electric_scooter", "name": "af8adaa2ac39f29239e21c1ee592e6aa"}, {"is_disabled": 0, "is_reserved": 0, "fusion_lat": 0.0, "lat": 38.8951505, "fusion_lon": 0.0, "rental_uris": {"ios": "https://dc.lft.to/lastmile_qr_scan", "android": "https://dc.lft.to/lastmile_qr_scan"}, "lon": -77.02290166666667, "bike_id": "92cb86bafd8ff5a0dc8f94399100c48a", "type": "electric_scooter", "name": "92cb86bafd8ff5a0dc8f94399100c48a"}, {"is_disabled": 0, "is_reserved": 0, "fusion_lat": 0.0, "lat": 38.897499833333335, "fusion_lon": 0.0, "rental_uris": {"ios": "https://dc.lft.to/lastmile_qr_scan", "android": "https://dc.lft.to/lastmile_qr_scan"}, "lon": -77.00347583333334, "bike_id": "d2cc83afe0752ff073dbc0b8d4ea8a99", "type": "electric_scooter", "name": "d2cc83afe0752ff073dbc0b8d4ea8a99"}, {"is_disabled": 0, "is_reserved": 0, "fusion_lat": 0.0, "lat": 38.93785116666667, "fusion_lon": 0.0, "rental_uris": {"ios": "https://dc.lft.to/lastmile_qr_scan", "android": "https://dc.lft.to/lastmile_qr_scan"}, "lon": -77.02324, "bike_id": "63d7ddb1409c6011bfddc94760706fa9", "type": "electric_scooter", "name": "63d7ddb1409c6011bfddc94760706fa9"}, {"is_disabled": 0, "is_reserved": 0, "fusion_lat": 0.0, "lat": 38.846007, "fusion_lon": 0.0, "rental_uris": {"ios": "https://dc.lft.to/lastmile_qr_scan", "android": "https://dc.lft.to/lastmile_qr_scan"}, "lon": -76.974095, "bike_id": "1b7297a89734a131121feedc9217723a", "type": "electric_scooter", "name": "1b7297a89734a131121feedc9217723a"}, {"is_disabled": 0, "is_reserved": 0, "fusion_lat": 0.0, "lat": 38.8783765, "fusion_lon": 0.0, "rental_uris": {"ios": "https://dc.lft.to/lastmile_qr_scan", "android": "https://dc.lft.to/lastmile_qr_scan"}, "lon": -76.98603966666667, "bike_id": "0a122053d7167aaff65f99cbd9f764a8", "type": "electric_scooter", "name": "0a122053d7167aaff65f99cbd9f764a8"}, {"is_disabled": 0, "is_reserved": 0, "fusion_lat": 0.0, "lat": 38.917705833333336, "fusion_lon": 0.0, "rental_uris": {"ios": "https://dc.lft.to/lastmile_qr_scan", "android": "https://dc.lft.to/lastmile_qr_scan"}, "lon": -77.02364016666667, "bike_id": "d9e9a83db72de7d237b763069bef0eb1", "type": "electric_scooter", "name": "d9e9a83db72de7d237b763069bef0eb1"}, {"is_disabled": 0, "is_reserved": 0, "fusion_lat": 0.0, "lat": 38.898161, "fusion_lon": 0.0, "rental_uris": {"ios": "https://dc.lft.to/lastmile_qr_scan", "android": "https://dc.lft.to/lastmile_qr_scan"}, "lon": -77.0021105, "bike_id": "45c0fc7cf8870a6957624f517c9cd67f", "type": "electric_scooter", "name": "45c0fc7cf8870a6957624f517c9cd67f"}, {"is_disabled": 0, "is_reserved": 0, "fusion_lat": 0.0, "lat": 38.8925035, "fusion_lon": 0.0, "rental_uris": {"ios": "https://dc.lft.to/lastmile_qr_scan", "android": "https://dc.lft.to/lastmile_qr_scan"}, "lon": -77.03957633333333, "bike_id": "1451bcaee9c980b337576a3480b51d29", "type": "electric_scooter", "name": "1451bcaee9c980b337576a3480b51d29"}, {"is_disabled": 0, "is_reserved": 0, "fusion_lat": 0.0, "lat": 38.92442066666667, "fusion_lon": 0.0, "rental_uris": {"ios": "https://dc.lft.to/lastmile_qr_scan", "android": "https://dc.lft.to/lastmile_qr_scan"}, "lon": -77.03408433333334, "bike_id": "f5efc201cd6e0ef67a33d651fba9404c", "type": "electric_scooter", "name": "f5efc201cd6e0ef67a33d651fba9404c"}, {"is_disabled": 0, "is_reserved": 0, "fusion_lat": 0.0, "lat": 38.942006, "fusion_lon": 0.0, "rental_uris": {"ios": "https://dc.lft.to/lastmile_qr_scan", "android": "https://dc.lft.to/lastmile_qr_scan"}, "lon": -77.02562316666666, "bike_id": "443bc2d0f124d73c6d6f1f200b0929bb", "type": "electric_scooter", "name": "443bc2d0f124d73c6d6f1f200b0929bb"}, {"is_disabled": 0, "is_reserved": 0, "fusion_lat": 0.0, "lat": 38.92069983333333, "fusion_lon": 0.0, "rental_uris": {"ios": "https://dc.lft.to/lastmile_qr_scan", "android": "https://dc.lft.to/lastmile_qr_scan"}, "lon": -77.02566516666667, "bike_id": "3ff8d142963b34d06b46497daebc02c2", "type": "electric_scooter", "name": "3ff8d142963b34d06b46497daebc02c2"}, {"is_disabled": 0, "is_reserved": 0, "fusion_lat": 0.0, "lat": 38.924670666666664, "fusion_lon": 0.0, "rental_uris": {"ios": "https://dc.lft.to/lastmile_qr_scan", "android": "https://dc.lft.to/lastmile_qr_scan"}, "lon": -77.05230633333333, "bike_id": "ae631095fd68fb264ec8e2d6a2ac9646", "type": "electric_scooter", "name": "ae631095fd68fb264ec8e2d6a2ac9646"}, {"is_disabled": 0, "is_reserved": 0, "fusion_lat": 0.0, "lat": 38.90650433333333, "fusion_lon": 0.0, "rental_uris": {"ios": "https://dc.lft.to/lastmile_qr_scan", "android": "https://dc.lft.to/lastmile_qr_scan"}, "lon": -76.9794085, "bike_id": "4d154dd1da1d138223a734fa3516b576", "type": "electric_scooter", "name": "4d154dd1da1d138223a734fa3516b576"}, {"is_disabled": 0, "is_reserved": 0, "fusion_lat": 0.0, "lat": 38.9417785, "fusion_lon": 0.0, "rental_uris": {"ios": "https://dc.lft.to/lastmile_qr_scan", "android": "https://dc.lft.to/lastmile_qr_scan"}, "lon": -77.0253845, "bike_id": "7c71048b655971b18cbaece54f1025a1", "type": "electric_scooter", "name": "7c71048b655971b18cbaece54f1025a1"}, {"is_disabled": 0, "is_reserved": 0, "fusion_lat": 0.0, "lat": 38.914236, "fusion_lon": 0.0, "rental_uris": {"ios": "https://dc.lft.to/lastmile_qr_scan", "android": "https://dc.lft.to/lastmile_qr_scan"}, "lon": -77.02117483333333, "bike_id": "71ce253c213d347c789c5b426af4488d", "type": "electric_scooter", "name": "71ce253c213d347c789c5b426af4488d"}, {"is_disabled": 0, "is_reserved": 0, "fusion_lat": 0.0, "lat": 38.91230183333333, "fusion_lon": 0.0, "rental_uris": {"ios": "https://dc.lft.to/lastmile_qr_scan", "android": "https://dc.lft.to/lastmile_qr_scan"}, "lon": -77.06395416666666, "bike_id": "eb9be04a427c9149a09f61bd8fe35154", "type": "electric_scooter", "name": "eb9be04a427c9149a09f61bd8fe35154"}, {"is_disabled": 0, "is_reserved": 0, "fusion_lat": 0.0, "lat": 38.90878683333333, "fusion_lon": 0.0, "rental_uris": {"ios": "https://dc.lft.to/lastmile_qr_scan", "android": "https://dc.lft.to/lastmile_qr_scan"}, "lon": -77.07432366666667, "bike_id": "3d360d263af48a98e110e87039c3f47e", "type": "electric_scooter", "name": "3d360d263af48a98e110e87039c3f47e"}, {"is_disabled": 0, "is_reserved": 0, "fusion_lat": 0.0, "lat": 38.88950766666667, "fusion_lon": 0.0, "rental_uris": {"ios": "https://dc.lft.to/lastmile_qr_scan", "android": "https://dc.lft.to/lastmile_qr_scan"}, "lon": -77.07588783333334, "bike_id": "f63fb7b15185d37efade9b071eea2c0f", "type": "electric_bike", "name": "f63fb7b15185d37efade9b071eea2c0f"}, {"is_disabled": 0, "is_reserved": 0, "fusion_lat": 0.0, "lat": 38.89745883333333, "fusion_lon": 0.0, "rental_uris": {"ios": "https://dc.lft.to/lastmile_qr_scan", "android": "https://dc.lft.to/lastmile_qr_scan"}, "lon": -77.03346466666666, "bike_id": "b4432ef4a1a5dcca2ad02d8b2352f83b", "type": "electric_scooter", "name": "b4432ef4a1a5dcca2ad02d8b2352f83b"}, {"is_disabled": 0, "is_reserved": 0, "fusion_lat": 0.0, "lat": 38.96484, "fusion_lon": 0.0, "rental_uris": {"ios": "https://dc.lft.to/lastmile_qr_scan", "android": "https://dc.lft.to/lastmile_qr_scan"}, "lon": -77.03168816666667, "bike_id": "5dabde0fa35c07a99e167b3b960cb520", "type": "electric_bike", "name": "5dabde0fa35c07a99e167b3b960cb520"}, {"is_disabled": 0, "is_reserved": 0, "fusion_lat": 0.0, "lat": 38.928963, "fusion_lon": 0.0, "rental_uris": {"ios": "https://dc.lft.to/lastmile_qr_scan", "android": "https://dc.lft.to/lastmile_qr_scan"}, "lon": -77.032333, "bike_id": "e666653dc5a9ffae1176d0a3e314e6a6", "type": "electric_scooter", "name": "e666653dc5a9ffae1176d0a3e314e6a6"}, {"is_disabled": 0, "is_reserved": 0, "fusion_lat": 0.0, "lat": 38.95583966666667, "fusion_lon": 0.0, "rental_uris": {"ios": "https://dc.lft.to/lastmile_qr_scan", "android": "https://dc.lft.to/lastmile_qr_scan"}, "lon": -77.02806733333334, "bike_id": "00ca75c5e81d4312ed0c9691396da8fd", "type": "electric_scooter", "name": "00ca75c5e81d4312ed0c9691396da8fd"}, {"is_disabled": 0, "is_reserved": 0, "fusion_lat": 0.0, "lat": 38.9563705, "fusion_lon": 0.0, "rental_uris": {"ios": "https://dc.lft.to/lastmile_qr_scan", "android": "https://dc.lft.to/lastmile_qr_scan"}, "lon": -77.03631483333334, "bike_id": "6f9cc86fc8d6db185f5b0e645ea4861d", "type": "electric_scooter", "name": "6f9cc86fc8d6db185f5b0e645ea4861d"}, {"is_disabled": 0, "is_reserved": 0, "fusion_lat": 0.0, "lat": 38.92660016666667, "fusion_lon": 0.0, "rental_uris": {"ios": "https://dc.lft.to/lastmile_qr_scan", "android": "https://dc.lft.to/lastmile_qr_scan"}, "lon": -76.99296616666666, "bike_id": "ce1ba70d2282d4cd9b6c882f2595af00", "type": "electric_scooter", "name": "ce1ba70d2282d4cd9b6c882f2595af00"}, {"is_disabled": 0, "is_reserved": 0, "fusion_lat": 0.0, "lat": 38.893314333333336, "fusion_lon": 0.0, "rental_uris": {"ios": "https://dc.lft.to/lastmile_qr_scan", "android": "https://dc.lft.to/lastmile_qr_scan"}, "lon": -76.92889716666667, "bike_id": "3998990bad43640e791a3bde4f826e90", "type": "electric_scooter", "name": "3998990bad43640e791a3bde4f826e90"}, {"is_disabled": 0, "is_reserved": 0, "fusion_lat": 0.0, "lat": 38.93370483333333, "fusion_lon": 0.0, "rental_uris": {"ios": "https://dc.lft.to/lastmile_qr_scan", "android": "https://dc.lft.to/lastmile_qr_scan"}, "lon": -77.03878, "bike_id": "ca3fceb9a29535038650d8b7727b949d", "type": "electric_scooter", "name": "ca3fceb9a29535038650d8b7727b949d"}, {"is_disabled": 0, "is_reserved": 0, "fusion_lat": 0.0, "lat": 38.9299885, "fusion_lon": 0.0, "rental_uris": {"ios": "https://dc.lft.to/lastmile_qr_scan", "android": "https://dc.lft.to/lastmile_qr_scan"}, "lon": -77.0380185, "bike_id": "b856cbef69d06628ed9d862ffc5ee924", "type": "electric_scooter", "name": "b856cbef69d06628ed9d862ffc5ee924"}, {"is_disabled": 0, "is_reserved": 0, "fusion_lat": 0.0, "lat": 38.9141575, "fusion_lon": 0.0, "rental_uris": {"ios": "https://dc.lft.to/lastmile_qr_scan", "android": "https://dc.lft.to/lastmile_qr_scan"}, "lon": -77.03302, "bike_id": "7081aa59f586504a1bef625918f680ac", "type": "electric_scooter", "name": "7081aa59f586504a1bef625918f680ac"}, {"is_disabled": 0, "is_reserved": 0, "fusion_lat": 0.0, "lat": 38.90928683333333, "fusion_lon": 0.0, "rental_uris": {"ios": "https://dc.lft.to/lastmile_qr_scan", "android": "https://dc.lft.to/lastmile_qr_scan"}, "lon": -77.04564516666667, "bike_id": "71a12ae5a66005797d709e33f013563a", "type": "electric_scooter", "name": "71a12ae5a66005797d709e33f013563a"}, {"is_disabled": 0, "is_reserved": 0, "fusion_lat": 0.0, "lat": 38.8920845, "fusion_lon": 0.0, "rental_uris": {"ios": "https://dc.lft.to/lastmile_qr_scan", "android": "https://dc.lft.to/lastmile_qr_scan"}, "lon": -76.92922333333334, "bike_id": "767a85edacc1614d1dd93761a487eb10", "type": "electric_scooter", "name": "767a85edacc1614d1dd93761a487eb10"}, {"is_disabled": 0, "is_reserved": 0, "fusion_lat": 0.0, "lat": 38.89396416666666, "fusion_lon": 0.0, "rental_uris": {"ios": "https://dc.lft.to/lastmile_qr_scan", "android": "https://dc.lft.to/lastmile_qr_scan"}, "lon": -77.023711, "bike_id": "f23f4c353366257af610daf585a5e880", "type": "electric_scooter", "name": "f23f4c353366257af610daf585a5e880"}, {"is_disabled": 0, "is_reserved": 0, "fusion_lat": 0.0, "lat": 38.89937483333333, "fusion_lon": 0.0, "rental_uris": {"ios": "https://dc.lft.to/lastmile_qr_scan", "android": "https://dc.lft.to/lastmile_qr_scan"}, "lon": -77.00158066666667, "bike_id": "238c0a94f026718f3549a346a7f3b083", "type": "electric_bike", "name": "238c0a94f026718f3549a346a7f3b083"}, {"is_disabled": 0, "is_reserved": 0, "fusion_lat": 0.0, "lat": 38.9166705, "fusion_lon": 0.0, "rental_uris": {"ios": "https://dc.lft.to/lastmile_qr_scan", "android": "https://dc.lft.to/lastmile_qr_scan"}, "lon": -77.000505, "bike_id": "dd9b799bc018698a409be1ca6274b032", "type": "electric_scooter", "name": "dd9b799bc018698a409be1ca6274b032"}, {"is_disabled": 0, "is_reserved": 0, "fusion_lat": 0.0, "lat": 38.92234166666667, "fusion_lon": 0.0, "rental_uris": {"ios": "https://dc.lft.to/lastmile_qr_scan", "android": "https://dc.lft.to/lastmile_qr_scan"}, "lon": -77.02294683333334, "bike_id": "ae2231032b454df33b7d1a0c32be9fa6", "type": "electric_scooter", "name": "ae2231032b454df33b7d1a0c32be9fa6"}, {"is_disabled": 0, "is_reserved": 0, "fusion_lat": 0.0, "lat": 38.876996166666665, "fusion_lon": 0.0, "rental_uris": {"ios": "https://dc.lft.to/lastmile_qr_scan", "android": "https://dc.lft.to/lastmile_qr_scan"}, "lon": -76.9962525, "bike_id": "2dc125d7fb0626c4f0d69e3b0e55c625", "type": "electric_scooter", "name": "2dc125d7fb0626c4f0d69e3b0e55c625"}, {"is_disabled": 0, "is_reserved": 0, "fusion_lat": 0.0, "lat": 38.922438166666666, "fusion_lon": 0.0, "rental_uris": {"ios": "https://dc.lft.to/lastmile_qr_scan", "android": "https://dc.lft.to/lastmile_qr_scan"}, "lon": -77.03660683333334, "bike_id": "447c3ea00ac67af4c1b3ac927b24c385", "type": "electric_scooter", "name": "447c3ea00ac67af4c1b3ac927b24c385"}, {"is_disabled": 0, "is_reserved": 0, "fusion_lat": 0.0, "lat": 38.93866883333333, "fusion_lon": 0.0, "rental_uris": {"ios": "https://dc.lft.to/lastmile_qr_scan", "android": "https://dc.lft.to/lastmile_qr_scan"}, "lon": -77.03044183333333, "bike_id": "9c42b2aedb03fd2a3ab4d8a27fcf9370", "type": "electric_scooter", "name": "9c42b2aedb03fd2a3ab4d8a27fcf9370"}, {"is_disabled": 0, "is_reserved": 0, "fusion_lat": 0.0, "lat": 38.947176, "fusion_lon": 0.0, "rental_uris": {"ios": "https://dc.lft.to/lastmile_qr_scan", "android": "https://dc.lft.to/lastmile_qr_scan"}, "lon": -77.02618916666667, "bike_id": "ae0237b3d6660efb266546dc67e7077d", "type": "electric_scooter", "name": "ae0237b3d6660efb266546dc67e7077d"}, {"is_disabled": 0, "is_reserved": 0, "fusion_lat": 0.0, "lat": 38.87448933333334, "fusion_lon": 0.0, "rental_uris": {"ios": "https://dc.lft.to/lastmile_qr_scan", "android": "https://dc.lft.to/lastmile_qr_scan"}, "lon": -77.0028785, "bike_id": "6d5cd32f9da06e0880b50c4402abf6b3", "type": "electric_scooter", "name": "6d5cd32f9da06e0880b50c4402abf6b3"}, {"is_disabled": 0, "is_reserved": 0, "fusion_lat": 0.0, "lat": 38.844739833333335, "fusion_lon": 0.0, "rental_uris": {"ios": "https://dc.lft.to/lastmile_qr_scan", "android": "https://dc.lft.to/lastmile_qr_scan"}, "lon": -76.99584583333333, "bike_id": "d9bc97dd1d28f16a4ce1ba3b5e16fca9", "type": "electric_bike", "name": "d9bc97dd1d28f16a4ce1ba3b5e16fca9"}, {"is_disabled": 0, "is_reserved": 0, "fusion_lat": 0.0, "lat": 38.91832733333333, "fusion_lon": 0.0, "rental_uris": {"ios": "https://dc.lft.to/lastmile_qr_scan", "android": "https://dc.lft.to/lastmile_qr_scan"}, "lon": -77.0229835, "bike_id": "45b7340a61dbcb986dbead25475cefd7", "type": "electric_scooter", "name": "45b7340a61dbcb986dbead25475cefd7"}, {"is_disabled": 0, "is_reserved": 0, "fusion_lat": 0.0, "lat": 38.9055025, "fusion_lon": 0.0, "rental_uris": {"ios": "https://dc.lft.to/lastmile_qr_scan", "android": "https://dc.lft.to/lastmile_qr_scan"}, "lon": -77.02597816666666, "bike_id": "026da657dab065374cf12655417835de", "type": "electric_scooter", "name": "026da657dab065374cf12655417835de"}, {"is_disabled": 0, "is_reserved": 0, "fusion_lat": 0.0, "lat": 38.900740166666665, "fusion_lon": 0.0, "rental_uris": {"ios": "https://dc.lft.to/lastmile_qr_scan", "android": "https://dc.lft.to/lastmile_qr_scan"}, "lon": -77.04996466666667, "bike_id": "b3dc7d9d95ad64c0e9b3fabe4803381f", "type": "electric_scooter", "name": "b3dc7d9d95ad64c0e9b3fabe4803381f"}, {"is_disabled": 0, "is_reserved": 0, "fusion_lat": 0.0, "lat": 38.933960166666665, "fusion_lon": 0.0, "rental_uris": {"ios": "https://dc.lft.to/lastmile_qr_scan", "android": "https://dc.lft.to/lastmile_qr_scan"}, "lon": -77.026185, "bike_id": "40b33ca7a0076d1f98a40e54bed78189", "type": "electric_scooter", "name": "40b33ca7a0076d1f98a40e54bed78189"}, {"is_disabled": 0, "is_reserved": 0, "fusion_lat": 0.0, "lat": 38.89668066666667, "fusion_lon": 0.0, "rental_uris": {"ios": "https://dc.lft.to/lastmile_qr_scan", "android": "https://dc.lft.to/lastmile_qr_scan"}, "lon": -76.94909633333333, "bike_id": "ee4393e1ebe8d2d6ce871a6e8e8c119d", "type": "electric_scooter", "name": "ee4393e1ebe8d2d6ce871a6e8e8c119d"}, {"is_disabled": 0, "is_reserved": 0, "fusion_lat": 0.0, "lat": 38.903777833333336, "fusion_lon": 0.0, "rental_uris": {"ios": "https://dc.lft.to/lastmile_qr_scan", "android": "https://dc.lft.to/lastmile_qr_scan"}, "lon": -77.0166395, "bike_id": "8c709eae353390ab0d722504e9cf6272", "type": "electric_scooter", "name": "8c709eae353390ab0d722504e9cf6272"}, {"is_disabled": 0, "is_reserved": 0, "fusion_lat": 0.0, "lat": 38.911739, "fusion_lon": 0.0, "rental_uris": {"ios": "https://dc.lft.to/lastmile_qr_scan", "android": "https://dc.lft.to/lastmile_qr_scan"}, "lon": -77.00451083333333, "bike_id": "bd060d800aba6032f855fe8adc1df34e", "type": "electric_scooter", "name": "bd060d800aba6032f855fe8adc1df34e"}, {"is_disabled": 0, "is_reserved": 0, "fusion_lat": 0.0, "lat": 38.90367033333333, "fusion_lon": 0.0, "rental_uris": {"ios": "https://dc.lft.to/lastmile_qr_scan", "android": "https://dc.lft.to/lastmile_qr_scan"}, "lon": -77.0034615, "bike_id": "20d7c64557c94c20caaa7ec8835a9c33", "type": "electric_scooter", "name": "20d7c64557c94c20caaa7ec8835a9c33"}, {"is_disabled": 0, "is_reserved": 0, "fusion_lat": 0.0, "lat": 38.917967166666664, "fusion_lon": 0.0, "rental_uris": {"ios": "https://dc.lft.to/lastmile_qr_scan", "android": "https://dc.lft.to/lastmile_qr_scan"}, "lon": -77.03438616666666, "bike_id": "5db8ae8fed7e70c64406df22c3f68392", "type": "electric_scooter", "name": "5db8ae8fed7e70c64406df22c3f68392"}, {"is_disabled": 0, "is_reserved": 0, "fusion_lat": 0.0, "lat": 38.93399616666667, "fusion_lon": 0.0, "rental_uris": {"ios": "https://dc.lft.to/lastmile_qr_scan", "android": "https://dc.lft.to/lastmile_qr_scan"}, "lon": -77.03516983333333, "bike_id": "f7da1bf14f7488306a7fa1156f4e5911", "type": "electric_scooter", "name": "f7da1bf14f7488306a7fa1156f4e5911"}, {"is_disabled": 0, "is_reserved": 0, "fusion_lat": 0.0, "lat": 38.91576033333333, "fusion_lon": 0.0, "rental_uris": {"ios": "https://dc.lft.to/lastmile_qr_scan", "android": "https://dc.lft.to/lastmile_qr_scan"}, "lon": -77.03639533333333, "bike_id": "0a593a3b65240abad0d2d5e7d7c5af0b", "type": "electric_scooter", "name": "0a593a3b65240abad0d2d5e7d7c5af0b"}, {"is_disabled": 0, "is_reserved": 0, "fusion_lat": 0.0, "lat": 38.90748583333333, "fusion_lon": 0.0, "rental_uris": {"ios": "https://dc.lft.to/lastmile_qr_scan", "android": "https://dc.lft.to/lastmile_qr_scan"}, "lon": -77.0002305, "bike_id": "23d833927131232739b3a4f424c789b9", "type": "electric_scooter", "name": "23d833927131232739b3a4f424c789b9"}, {"is_disabled": 0, "is_reserved": 0, "fusion_lat": 0.0, "lat": 39.04234983333333, "fusion_lon": 0.0, "rental_uris": {"ios": "https://dc.lft.to/lastmile_qr_scan", "android": "https://dc.lft.to/lastmile_qr_scan"}, "lon": -76.99731183333333, "bike_id": "60ed9821612821ae7a008a5b86a8fbc7", "type": "electric_bike", "name": "60ed9821612821ae7a008a5b86a8fbc7"}, {"is_disabled": 0, "is_reserved": 0, "fusion_lat": 0.0, "lat": 38.912752, "fusion_lon": 0.0, "rental_uris": {"ios": "https://dc.lft.to/lastmile_qr_scan", "android": "https://dc.lft.to/lastmile_qr_scan"}, "lon": -77.04669016666666, "bike_id": "e7ccf7fcc2a31e68093d1617272d650c", "type": "electric_scooter", "name": "e7ccf7fcc2a31e68093d1617272d650c"}, {"is_disabled": 0, "is_reserved": 0, "fusion_lat": 0.0, "lat": 38.99851566666667, "fusion_lon": 0.0, "rental_uris": {"ios": "https://dc.lft.to/lastmile_qr_scan", "android": "https://dc.lft.to/lastmile_qr_scan"}, "lon": -77.00245666666666, "bike_id": "8c59ecaed24a06f3e0859919535a44c1", "type": "electric_bike", "name": "8c59ecaed24a06f3e0859919535a44c1"}, {"is_disabled": 0, "is_reserved": 0, "fusion_lat": 0.0, "lat": 38.894707333333336, "fusion_lon": 0.0, "rental_uris": {"ios": "https://dc.lft.to/lastmile_qr_scan", "android": "https://dc.lft.to/lastmile_qr_scan"}, "lon": -77.00266716666667, "bike_id": "fbb3d7150a1b6a34b9ee4e04d61b47c1", "type": "electric_scooter", "name": "fbb3d7150a1b6a34b9ee4e04d61b47c1"}, {"is_disabled": 0, "is_reserved": 0, "fusion_lat": 0.0, "lat": 38.87567033333333, "fusion_lon": 0.0, "rental_uris": {"ios": "https://dc.lft.to/lastmile_qr_scan", "android": "https://dc.lft.to/lastmile_qr_scan"}, "lon": -77.0470545, "bike_id": "fd37eae125079b164f9b8bdf80cdcbef", "type": "electric_bike", "name": "fd37eae125079b164f9b8bdf80cdcbef"}, {"is_disabled": 0, "is_reserved": 0, "fusion_lat": 0.0, "lat": 38.908918666666665, "fusion_lon": 0.0, "rental_uris": {"ios": "https://dc.lft.to/lastmile_qr_scan", "android": "https://dc.lft.to/lastmile_qr_scan"}, "lon": -77.04666983333334, "bike_id": "b7ac850cbd3f77c4314e7c847a2f3b57", "type": "electric_scooter", "name": "b7ac850cbd3f77c4314e7c847a2f3b57"}, {"is_disabled": 0, "is_reserved": 0, "fusion_lat": 0.0, "lat": 38.925639833333335, "fusion_lon": 0.0, "rental_uris": {"ios": "https://dc.lft.to/lastmile_qr_scan", "android": "https://dc.lft.to/lastmile_qr_scan"}, "lon": -77.03782283333334, "bike_id": "b983f51efb604902250a0e8533f24a05", "type": "electric_scooter", "name": "b983f51efb604902250a0e8533f24a05"}, {"is_disabled": 0, "is_reserved": 0, "fusion_lat": 0.0, "lat": 38.91559566666667, "fusion_lon": 0.0, "rental_uris": {"ios": "https://dc.lft.to/lastmile_qr_scan", "android": "https://dc.lft.to/lastmile_qr_scan"}, "lon": -77.05101566666667, "bike_id": "365957c6289fa0e4b49811a59e6dfae3", "type": "electric_scooter", "name": "365957c6289fa0e4b49811a59e6dfae3"}, {"is_disabled": 0, "is_reserved": 0, "fusion_lat": 0.0, "lat": 38.91608266666667, "fusion_lon": 0.0, "rental_uris": {"ios": "https://dc.lft.to/lastmile_qr_scan", "android": "https://dc.lft.to/lastmile_qr_scan"}, "lon": -77.0434895, "bike_id": "3045507644029d64390b66755ec7b887", "type": "electric_scooter", "name": "3045507644029d64390b66755ec7b887"}, {"is_disabled": 0, "is_reserved": 0, "fusion_lat": 0.0, "lat": 38.84674416666667, "fusion_lon": 0.0, "rental_uris": {"ios": "https://dc.lft.to/lastmile_qr_scan", "android": "https://dc.lft.to/lastmile_qr_scan"}, "lon": -77.1393505, "bike_id": "82b73212d060aa6a469fc052bdd781f5", "type": "electric_bike", "name": "82b73212d060aa6a469fc052bdd781f5"}, {"is_disabled": 0, "is_reserved": 0, "fusion_lat": 0.0, "lat": 38.917090333333334, "fusion_lon": 0.0, "rental_uris": {"ios": "https://dc.lft.to/lastmile_qr_scan", "android": "https://dc.lft.to/lastmile_qr_scan"}, "lon": -77.0386735, "bike_id": "3f81e24f818cef6c16fb41bffa0ea70c", "type": "electric_scooter", "name": "3f81e24f818cef6c16fb41bffa0ea70c"}, {"is_disabled": 0, "is_reserved": 0, "fusion_lat": 0.0, "lat": 38.87951233333333, "fusion_lon": 0.0, "rental_uris": {"ios": "https://dc.lft.to/lastmile_qr_scan", "android": "https://dc.lft.to/lastmile_qr_scan"}, "lon": -77.005024, "bike_id": "719a908f3c73d2e4b45f588d8b4be66b", "type": "electric_scooter", "name": "719a908f3c73d2e4b45f588d8b4be66b"}, {"is_disabled": 0, "is_reserved": 0, "fusion_lat": 0.0, "lat": 38.9192465, "fusion_lon": 0.0, "rental_uris": {"ios": "https://dc.lft.to/lastmile_qr_scan", "android": "https://dc.lft.to/lastmile_qr_scan"}, "lon": -77.00972333333333, "bike_id": "6ec446db05cd5020816266cd638f45b1", "type": "electric_scooter", "name": "6ec446db05cd5020816266cd638f45b1"}, {"is_disabled": 0, "is_reserved": 0, "fusion_lat": 0.0, "lat": 38.93061183333333, "fusion_lon": 0.0, "rental_uris": {"ios": "https://dc.lft.to/lastmile_qr_scan", "android": "https://dc.lft.to/lastmile_qr_scan"}, "lon": -77.042159, "bike_id": "238145de06a65840665256f2548bdb3c", "type": "electric_scooter", "name": "238145de06a65840665256f2548bdb3c"}, {"is_disabled": 0, "is_reserved": 0, "fusion_lat": 0.0, "lat": 38.924871, "fusion_lon": 0.0, "rental_uris": {"ios": "https://dc.lft.to/lastmile_qr_scan", "android": "https://dc.lft.to/lastmile_qr_scan"}, "lon": -77.0284375, "bike_id": "dff930699554ff79dccf080bc5ebd554", "type": "electric_scooter", "name": "dff930699554ff79dccf080bc5ebd554"}, {"is_disabled": 0, "is_reserved": 0, "fusion_lat": 0.0, "lat": 38.897390333333334, "fusion_lon": 0.0, "rental_uris": {"ios": "https://dc.lft.to/lastmile_qr_scan", "android": "https://dc.lft.to/lastmile_qr_scan"}, "lon": -77.04800366666667, "bike_id": "757727bbe4dc3a6df96cfbe1e3bc7478", "type": "electric_scooter", "name": "757727bbe4dc3a6df96cfbe1e3bc7478"}, {"is_disabled": 0, "is_reserved": 0, "fusion_lat": 0.0, "lat": 38.932475333333336, "fusion_lon": 0.0, "rental_uris": {"ios": "https://dc.lft.to/lastmile_qr_scan", "android": "https://dc.lft.to/lastmile_qr_scan"}, "lon": -77.03409733333334, "bike_id": "ba90f25fbde75d4fa678492affad366e", "type": "electric_scooter", "name": "ba90f25fbde75d4fa678492affad366e"}, {"is_disabled": 0, "is_reserved": 0, "fusion_lat": 0.0, "lat": 38.917687666666666, "fusion_lon": 0.0, "rental_uris": {"ios": "https://dc.lft.to/lastmile_qr_scan", "android": "https://dc.lft.to/lastmile_qr_scan"}, "lon": -77.03584366666666, "bike_id": "718147ef598ef146b5294eea5ebf1a2c", "type": "electric_scooter", "name": "718147ef598ef146b5294eea5ebf1a2c"}, {"is_disabled": 0, "is_reserved": 0, "fusion_lat": 0.0, "lat": 38.950992666666664, "fusion_lon": 0.0, "rental_uris": {"ios": "https://dc.lft.to/lastmile_qr_scan", "android": "https://dc.lft.to/lastmile_qr_scan"}, "lon": -77.01908566666667, "bike_id": "5ca0dcf576d6cc3e67a219b5def144f9", "type": "electric_scooter", "name": "5ca0dcf576d6cc3e67a219b5def144f9"}, {"is_disabled": 0, "is_reserved": 0, "fusion_lat": 0.0, "lat": 38.9054275, "fusion_lon": 0.0, "rental_uris": {"ios": "https://dc.lft.to/lastmile_qr_scan", "android": "https://dc.lft.to/lastmile_qr_scan"}, "lon": -77.056943, "bike_id": "2e9e52b2a8311b3702e858277951253f", "type": "electric_scooter", "name": "2e9e52b2a8311b3702e858277951253f"}, {"is_disabled": 0, "is_reserved": 0, "fusion_lat": 0.0, "lat": 38.91354033333333, "fusion_lon": 0.0, "rental_uris": {"ios": "https://dc.lft.to/lastmile_qr_scan", "android": "https://dc.lft.to/lastmile_qr_scan"}, "lon": -77.0441255, "bike_id": "a83ea8feeb772447a822119ad111de77", "type": "electric_scooter", "name": "a83ea8feeb772447a822119ad111de77"}, {"is_disabled": 0, "is_reserved": 0, "fusion_lat": 0.0, "lat": 38.94039083333333, "fusion_lon": 0.0, "rental_uris": {"ios": "https://dc.lft.to/lastmile_qr_scan", "android": "https://dc.lft.to/lastmile_qr_scan"}, "lon": -77.02521883333333, "bike_id": "b0d2cdcc4f66b1200fdb109d5c34c478", "type": "electric_scooter", "name": "b0d2cdcc4f66b1200fdb109d5c34c478"}, {"is_disabled": 0, "is_reserved": 0, "fusion_lat": 0.0, "lat": 38.9238185, "fusion_lon": 0.0, "rental_uris": {"ios": "https://dc.lft.to/lastmile_qr_scan", "android": "https://dc.lft.to/lastmile_qr_scan"}, "lon": -77.02031783333334, "bike_id": "a80bb0a30bc1ac4c5a1eea36f02a32a1", "type": "electric_scooter", "name": "a80bb0a30bc1ac4c5a1eea36f02a32a1"}, {"is_disabled": 0, "is_reserved": 0, "fusion_lat": 0.0, "lat": 38.9071955, "fusion_lon": 0.0, "rental_uris": {"ios": "https://dc.lft.to/lastmile_qr_scan", "android": "https://dc.lft.to/lastmile_qr_scan"}, "lon": -77.04805083333333, "bike_id": "90b223c9f7bd4f43ff1ec69a056e5261", "type": "electric_scooter", "name": "90b223c9f7bd4f43ff1ec69a056e5261"}, {"is_disabled": 0, "is_reserved": 0, "fusion_lat": 0.0, "lat": 38.90663033333333, "fusion_lon": 0.0, "rental_uris": {"ios": "https://dc.lft.to/lastmile_qr_scan", "android": "https://dc.lft.to/lastmile_qr_scan"}, "lon": -76.985965, "bike_id": "26f5fbf33860d987d09b0505ec1db356", "type": "electric_scooter", "name": "26f5fbf33860d987d09b0505ec1db356"}, {"is_disabled": 0, "is_reserved": 0, "fusion_lat": 0.0, "lat": 38.88543766666667, "fusion_lon": 0.0, "rental_uris": {"ios": "https://dc.lft.to/lastmile_qr_scan", "android": "https://dc.lft.to/lastmile_qr_scan"}, "lon": -76.9237225, "bike_id": "0c2d0d25f311cd8a5f614f2ddba0166a", "type": "electric_scooter", "name": "0c2d0d25f311cd8a5f614f2ddba0166a"}, {"is_disabled": 0, "is_reserved": 0, "fusion_lat": 0.0, "lat": 38.913397333333336, "fusion_lon": 0.0, "rental_uris": {"ios": "https://dc.lft.to/lastmile_qr_scan", "android": "https://dc.lft.to/lastmile_qr_scan"}, "lon": -77.01626333333333, "bike_id": "8891c060d536d81090ea56a941fd3722", "type": "electric_scooter", "name": "8891c060d536d81090ea56a941fd3722"}, {"is_disabled": 0, "is_reserved": 0, "fusion_lat": 0.0, "lat": 38.885337166666666, "fusion_lon": 0.0, "rental_uris": {"ios": "https://dc.lft.to/lastmile_qr_scan", "android": "https://dc.lft.to/lastmile_qr_scan"}, "lon": -76.9805725, "bike_id": "dc84f168c4e656796cad6a2e2ceef9ee", "type": "electric_scooter", "name": "dc84f168c4e656796cad6a2e2ceef9ee"}, {"is_disabled": 0, "is_reserved": 0, "fusion_lat": 0.0, "lat": 38.89434583333333, "fusion_lon": 0.0, "rental_uris": {"ios": "https://dc.lft.to/lastmile_qr_scan", "android": "https://dc.lft.to/lastmile_qr_scan"}, "lon": -77.01085883333333, "bike_id": "29637c9a08254d9e54da34a6c4a6082f", "type": "electric_scooter", "name": "29637c9a08254d9e54da34a6c4a6082f"}, {"is_disabled": 0, "is_reserved": 0, "fusion_lat": 0.0, "lat": 38.956864833333334, "fusion_lon": 0.0, "rental_uris": {"ios": "https://dc.lft.to/lastmile_qr_scan", "android": "https://dc.lft.to/lastmile_qr_scan"}, "lon": -77.02232216666667, "bike_id": "37fedc2aca306a887de862b900e9c497", "type": "electric_scooter", "name": "37fedc2aca306a887de862b900e9c497"}, {"is_disabled": 0, "is_reserved": 0, "fusion_lat": 0.0, "lat": 38.957524, "fusion_lon": 0.0, "rental_uris": {"ios": "https://dc.lft.to/lastmile_qr_scan", "android": "https://dc.lft.to/lastmile_qr_scan"}, "lon": -77.02209683333334, "bike_id": "c33696ec3f82cccf0087ed4cba7fb659", "type": "electric_scooter", "name": "c33696ec3f82cccf0087ed4cba7fb659"}, {"is_disabled": 0, "is_reserved": 0, "fusion_lat": 0.0, "lat": 38.922118833333336, "fusion_lon": 0.0, "rental_uris": {"ios": "https://dc.lft.to/lastmile_qr_scan", "android": "https://dc.lft.to/lastmile_qr_scan"}, "lon": -77.08195166666667, "bike_id": "06fdfc526b53f7ff438d478c1832b7ee", "type": "electric_bike", "name": "06fdfc526b53f7ff438d478c1832b7ee"}, {"is_disabled": 0, "is_reserved": 0, "fusion_lat": 0.0, "lat": 38.896214, "fusion_lon": 0.0, "rental_uris": {"ios": "https://dc.lft.to/lastmile_qr_scan", "android": "https://dc.lft.to/lastmile_qr_scan"}, "lon": -76.90754833333334, "bike_id": "7e6783111d37b74306ca29f97df6737a", "type": "electric_bike", "name": "7e6783111d37b74306ca29f97df6737a"}, {"is_disabled": 0, "is_reserved": 0, "fusion_lat": 0.0, "lat": 38.87497783333333, "fusion_lon": 0.0, "rental_uris": {"ios": "https://dc.lft.to/lastmile_qr_scan", "android": "https://dc.lft.to/lastmile_qr_scan"}, "lon": -77.00075833333334, "bike_id": "aebf395ac07a20bbb7e28e7795b0f837", "type": "electric_scooter", "name": "aebf395ac07a20bbb7e28e7795b0f837"}, {"is_disabled": 0, "is_reserved": 0, "fusion_lat": 0.0, "lat": 38.9230065, "fusion_lon": 0.0, "rental_uris": {"ios": "https://dc.lft.to/lastmile_qr_scan", "android": "https://dc.lft.to/lastmile_qr_scan"}, "lon": -77.0298055, "bike_id": "cac7c00227401f75cbd7b94c9a704bc9", "type": "electric_scooter", "name": "cac7c00227401f75cbd7b94c9a704bc9"}, {"is_disabled": 0, "is_reserved": 0, "fusion_lat": 0.0, "lat": 38.92706666666667, "fusion_lon": 0.0, "rental_uris": {"ios": "https://dc.lft.to/lastmile_qr_scan", "android": "https://dc.lft.to/lastmile_qr_scan"}, "lon": -76.96081116666667, "bike_id": "b0340ea34af29d41755a63d802da01eb", "type": "electric_scooter", "name": "b0340ea34af29d41755a63d802da01eb"}, {"is_disabled": 0, "is_reserved": 0, "fusion_lat": 0.0, "lat": 38.925712, "fusion_lon": 0.0, "rental_uris": {"ios": "https://dc.lft.to/lastmile_qr_scan", "android": "https://dc.lft.to/lastmile_qr_scan"}, "lon": -76.99498883333334, "bike_id": "72f94b92007efc57183886f0ea575b66", "type": "electric_scooter", "name": "72f94b92007efc57183886f0ea575b66"}, {"is_disabled": 0, "is_reserved": 0, "fusion_lat": 0.0, "lat": 38.87265766666667, "fusion_lon": 0.0, "rental_uris": {"ios": "https://dc.lft.to/lastmile_qr_scan", "android": "https://dc.lft.to/lastmile_qr_scan"}, "lon": -77.01688433333334, "bike_id": "40c0e20aa3551803df7addeae2e0f2ae", "type": "electric_scooter", "name": "40c0e20aa3551803df7addeae2e0f2ae"}, {"is_disabled": 0, "is_reserved": 0, "fusion_lat": 0.0, "lat": 38.939424, "fusion_lon": 0.0, "rental_uris": {"ios": "https://dc.lft.to/lastmile_qr_scan", "android": "https://dc.lft.to/lastmile_qr_scan"}, "lon": -77.0217845, "bike_id": "6799066e92267e7a2d678677a6430913", "type": "electric_scooter", "name": "6799066e92267e7a2d678677a6430913"}, {"is_disabled": 0, "is_reserved": 0, "fusion_lat": 0.0, "lat": 38.919044, "fusion_lon": 0.0, "rental_uris": {"ios": "https://dc.lft.to/lastmile_qr_scan", "android": "https://dc.lft.to/lastmile_qr_scan"}, "lon": -77.00043766666667, "bike_id": "151d0fb5ed3f7bf6569b29972878d477", "type": "electric_scooter", "name": "151d0fb5ed3f7bf6569b29972878d477"}, {"is_disabled": 0, "is_reserved": 0, "fusion_lat": 0.0, "lat": 38.875257, "fusion_lon": 0.0, "rental_uris": {"ios": "https://dc.lft.to/lastmile_qr_scan", "android": "https://dc.lft.to/lastmile_qr_scan"}, "lon": -77.01227583333333, "bike_id": "c211393fef6d30a070694680d2b4a5fd", "type": "electric_scooter", "name": "c211393fef6d30a070694680d2b4a5fd"}, {"is_disabled": 0, "is_reserved": 0, "fusion_lat": 0.0, "lat": 38.91186583333333, "fusion_lon": 0.0, "rental_uris": {"ios": "https://dc.lft.to/lastmile_qr_scan", "android": "https://dc.lft.to/lastmile_qr_scan"}, "lon": -77.040325, "bike_id": "d55c14fc9123e5d97526232a0b58e34b", "type": "electric_scooter", "name": "d55c14fc9123e5d97526232a0b58e34b"}, {"is_disabled": 0, "is_reserved": 0, "fusion_lat": 0.0, "lat": 38.9250335, "fusion_lon": 0.0, "rental_uris": {"ios": "https://dc.lft.to/lastmile_qr_scan", "android": "https://dc.lft.to/lastmile_qr_scan"}, "lon": -77.04330516666667, "bike_id": "6f9d39cb36189b53a965de3427eafcc6", "type": "electric_scooter", "name": "6f9d39cb36189b53a965de3427eafcc6"}, {"is_disabled": 0, "is_reserved": 0, "fusion_lat": 0.0, "lat": 38.90818183333333, "fusion_lon": 0.0, "rental_uris": {"ios": "https://dc.lft.to/lastmile_qr_scan", "android": "https://dc.lft.to/lastmile_qr_scan"}, "lon": -77.04502083333334, "bike_id": "209c873b22ce211e063d2eeb8402dc4f", "type": "electric_scooter", "name": "209c873b22ce211e063d2eeb8402dc4f"}, {"is_disabled": 0, "is_reserved": 0, "fusion_lat": 0.0, "lat": 38.883607, "fusion_lon": 0.0, "rental_uris": {"ios": "https://dc.lft.to/lastmile_qr_scan", "android": "https://dc.lft.to/lastmile_qr_scan"}, "lon": -76.92793983333334, "bike_id": "c110725d316dcc3d676d55f6af151aa4", "type": "electric_scooter", "name": "c110725d316dcc3d676d55f6af151aa4"}, {"is_disabled": 0, "is_reserved": 0, "fusion_lat": 0.0, "lat": 38.901743833333335, "fusion_lon": 0.0, "rental_uris": {"ios": "https://dc.lft.to/lastmile_qr_scan", "android": "https://dc.lft.to/lastmile_qr_scan"}, "lon": -77.02513683333333, "bike_id": "a91a7b3a15980c543a615568d33b8970", "type": "electric_scooter", "name": "a91a7b3a15980c543a615568d33b8970"}, {"is_disabled": 0, "is_reserved": 0, "fusion_lat": 0.0, "lat": 38.902649333333336, "fusion_lon": 0.0, "rental_uris": {"ios": "https://dc.lft.to/lastmile_qr_scan", "android": "https://dc.lft.to/lastmile_qr_scan"}, "lon": -76.92846066666667, "bike_id": "53d316b75082843ce91a7864a3580633", "type": "electric_scooter", "name": "53d316b75082843ce91a7864a3580633"}, {"is_disabled": 0, "is_reserved": 0, "fusion_lat": 0.0, "lat": 38.92865916666667, "fusion_lon": 0.0, "rental_uris": {"ios": "https://dc.lft.to/lastmile_qr_scan", "android": "https://dc.lft.to/lastmile_qr_scan"}, "lon": -77.07888666666666, "bike_id": "401271612eb5552c565b8380173196f5", "type": "electric_scooter", "name": "401271612eb5552c565b8380173196f5"}, {"is_disabled": 0, "is_reserved": 0, "fusion_lat": 0.0, "lat": 38.892465333333334, "fusion_lon": 0.0, "rental_uris": {"ios": "https://dc.lft.to/lastmile_qr_scan", "android": "https://dc.lft.to/lastmile_qr_scan"}, "lon": -77.03957183333333, "bike_id": "d47b1d50e691cfaa8c665d0ecc7fe701", "type": "electric_scooter", "name": "d47b1d50e691cfaa8c665d0ecc7fe701"}, {"is_disabled": 0, "is_reserved": 0, "fusion_lat": 0.0, "lat": 38.863648, "fusion_lon": 0.0, "rental_uris": {"ios": "https://dc.lft.to/lastmile_qr_scan", "android": "https://dc.lft.to/lastmile_qr_scan"}, "lon": -76.97016966666666, "bike_id": "1c762ec606d6f7c133288aa87ebf18ff", "type": "electric_bike", "name": "1c762ec606d6f7c133288aa87ebf18ff"}, {"is_disabled": 0, "is_reserved": 0, "fusion_lat": 0.0, "lat": 38.87647333333334, "fusion_lon": 0.0, "rental_uris": {"ios": "https://dc.lft.to/lastmile_qr_scan", "android": "https://dc.lft.to/lastmile_qr_scan"}, "lon": -77.0089455, "bike_id": "0e7bed8b534e482ce807bd99ac2279b1", "type": "electric_scooter", "name": "0e7bed8b534e482ce807bd99ac2279b1"}, {"is_disabled": 0, "is_reserved": 0, "fusion_lat": 0.0, "lat": 38.9062495, "fusion_lon": 0.0, "rental_uris": {"ios": "https://dc.lft.to/lastmile_qr_scan", "android": "https://dc.lft.to/lastmile_qr_scan"}, "lon": -77.0295975, "bike_id": "f5c8fe736a7432570182d49aea34a642", "type": "electric_scooter", "name": "f5c8fe736a7432570182d49aea34a642"}, {"is_disabled": 0, "is_reserved": 0, "fusion_lat": 0.0, "lat": 38.92073233333333, "fusion_lon": 0.0, "rental_uris": {"ios": "https://dc.lft.to/lastmile_qr_scan", "android": "https://dc.lft.to/lastmile_qr_scan"}, "lon": -77.02430583333333, "bike_id": "bc8872341facb4ff641a00253a6e9599", "type": "electric_scooter", "name": "bc8872341facb4ff641a00253a6e9599"}, {"is_disabled": 0, "is_reserved": 0, "fusion_lat": 0.0, "lat": 38.95356116666667, "fusion_lon": 0.0, "rental_uris": {"ios": "https://dc.lft.to/lastmile_qr_scan", "android": "https://dc.lft.to/lastmile_qr_scan"}, "lon": -76.980899, "bike_id": "e84dbe2703b29f47046918956d46e8c5", "type": "electric_bike", "name": "e84dbe2703b29f47046918956d46e8c5"}, {"is_disabled": 0, "is_reserved": 0, "fusion_lat": 0.0, "lat": 38.92854533333333, "fusion_lon": 0.0, "rental_uris": {"ios": "https://dc.lft.to/lastmile_qr_scan", "android": "https://dc.lft.to/lastmile_qr_scan"}, "lon": -77.03735683333333, "bike_id": "85e4c3b3de718ddeec32605753f53ac5", "type": "electric_scooter", "name": "85e4c3b3de718ddeec32605753f53ac5"}, {"is_disabled": 0, "is_reserved": 0, "fusion_lat": 0.0, "lat": 38.93662116666667, "fusion_lon": 0.0, "rental_uris": {"ios": "https://dc.lft.to/lastmile_qr_scan", "android": "https://dc.lft.to/lastmile_qr_scan"}, "lon": -77.066087, "bike_id": "3d49f451b4ef94092e8fcf954d145ce1", "type": "electric_scooter", "name": "3d49f451b4ef94092e8fcf954d145ce1"}, {"is_disabled": 0, "is_reserved": 0, "fusion_lat": 0.0, "lat": 38.89500616666667, "fusion_lon": 0.0, "rental_uris": {"ios": "https://dc.lft.to/lastmile_qr_scan", "android": "https://dc.lft.to/lastmile_qr_scan"}, "lon": -77.02269633333333, "bike_id": "70efa81d0631e29c4adca843e38b9190", "type": "electric_scooter", "name": "70efa81d0631e29c4adca843e38b9190"}, {"is_disabled": 0, "is_reserved": 0, "fusion_lat": 0.0, "lat": 38.91696916666667, "fusion_lon": 0.0, "rental_uris": {"ios": "https://dc.lft.to/lastmile_qr_scan", "android": "https://dc.lft.to/lastmile_qr_scan"}, "lon": -77.02863816666667, "bike_id": "34d067e003fe49135f2a58f387271302", "type": "electric_scooter", "name": "34d067e003fe49135f2a58f387271302"}, {"is_disabled": 0, "is_reserved": 0, "fusion_lat": 0.0, "lat": 38.9289375, "fusion_lon": 0.0, "rental_uris": {"ios": "https://dc.lft.to/lastmile_qr_scan", "android": "https://dc.lft.to/lastmile_qr_scan"}, "lon": -77.01943683333333, "bike_id": "2f509caeeedc856c4c375aa28eabe127", "type": "electric_scooter", "name": "2f509caeeedc856c4c375aa28eabe127"}, {"is_disabled": 0, "is_reserved": 0, "fusion_lat": 0.0, "lat": 38.900585, "fusion_lon": 0.0, "rental_uris": {"ios": "https://dc.lft.to/lastmile_qr_scan", "android": "https://dc.lft.to/lastmile_qr_scan"}, "lon": -77.01783166666667, "bike_id": "0d3650934d3a7afc294433ea4532e29f", "type": "electric_scooter", "name": "0d3650934d3a7afc294433ea4532e29f"}, {"is_disabled": 0, "is_reserved": 0, "fusion_lat": 0.0, "lat": 38.91840416666667, "fusion_lon": 0.0, "rental_uris": {"ios": "https://dc.lft.to/lastmile_qr_scan", "android": "https://dc.lft.to/lastmile_qr_scan"}, "lon": -77.02308066666667, "bike_id": "61afbbd066285eab4b24310435d534ac", "type": "electric_scooter", "name": "61afbbd066285eab4b24310435d534ac"}, {"is_disabled": 0, "is_reserved": 0, "fusion_lat": 0.0, "lat": 38.899003, "fusion_lon": 0.0, "rental_uris": {"ios": "https://dc.lft.to/lastmile_qr_scan", "android": "https://dc.lft.to/lastmile_qr_scan"}, "lon": -77.01976566666667, "bike_id": "1906efd99c575ba8cc72d7be288482d9", "type": "electric_scooter", "name": "1906efd99c575ba8cc72d7be288482d9"}, {"is_disabled": 0, "is_reserved": 0, "fusion_lat": 0.0, "lat": 38.90962733333333, "fusion_lon": 0.0, "rental_uris": {"ios": "https://dc.lft.to/lastmile_qr_scan", "android": "https://dc.lft.to/lastmile_qr_scan"}, "lon": -77.02574, "bike_id": "fcb9b750b7f789508d59e34ee04dbf76", "type": "electric_scooter", "name": "fcb9b750b7f789508d59e34ee04dbf76"}, {"is_disabled": 0, "is_reserved": 0, "fusion_lat": 0.0, "lat": 38.887103333333336, "fusion_lon": 0.0, "rental_uris": {"ios": "https://dc.lft.to/lastmile_qr_scan", "android": "https://dc.lft.to/lastmile_qr_scan"}, "lon": -76.98342183333334, "bike_id": "4e749232d94c11eb2e2751b1adead0cd", "type": "electric_scooter", "name": "4e749232d94c11eb2e2751b1adead0cd"}, {"is_disabled": 0, "is_reserved": 0, "fusion_lat": 0.0, "lat": 38.84620683333333, "fusion_lon": 0.0, "rental_uris": {"ios": "https://dc.lft.to/lastmile_qr_scan", "android": "https://dc.lft.to/lastmile_qr_scan"}, "lon": -76.978382, "bike_id": "daea55955410ddcb5c8f63d8b06c5733", "type": "electric_bike", "name": "daea55955410ddcb5c8f63d8b06c5733"}, {"is_disabled": 0, "is_reserved": 0, "fusion_lat": 0.0, "lat": 38.88024816666667, "fusion_lon": 0.0, "rental_uris": {"ios": "https://dc.lft.to/lastmile_qr_scan", "android": "https://dc.lft.to/lastmile_qr_scan"}, "lon": -76.94324516666667, "bike_id": "94c43fadffa48cb215e97b85093402b4", "type": "electric_scooter", "name": "94c43fadffa48cb215e97b85093402b4"}, {"is_disabled": 0, "is_reserved": 0, "fusion_lat": 0.0, "lat": 38.90642616666667, "fusion_lon": 0.0, "rental_uris": {"ios": "https://dc.lft.to/lastmile_qr_scan", "android": "https://dc.lft.to/lastmile_qr_scan"}, "lon": -77.070393, "bike_id": "279bda47da7dcb470aabc1872605af7e", "type": "electric_scooter", "name": "279bda47da7dcb470aabc1872605af7e"}, {"is_disabled": 0, "is_reserved": 0, "fusion_lat": 0.0, "lat": 38.846526833333336, "fusion_lon": 0.0, "rental_uris": {"ios": "https://dc.lft.to/lastmile_qr_scan", "android": "https://dc.lft.to/lastmile_qr_scan"}, "lon": -77.00372066666667, "bike_id": "29fa7750cbb9932960a2beaee609c703", "type": "electric_scooter", "name": "29fa7750cbb9932960a2beaee609c703"}, {"is_disabled": 0, "is_reserved": 0, "fusion_lat": 0.0, "lat": 38.90027766666667, "fusion_lon": 0.0, "rental_uris": {"ios": "https://dc.lft.to/lastmile_qr_scan", "android": "https://dc.lft.to/lastmile_qr_scan"}, "lon": -77.00383983333333, "bike_id": "113d051c3f3e2bdfa38cc8ee2ff1c449", "type": "electric_scooter", "name": "113d051c3f3e2bdfa38cc8ee2ff1c449"}, {"is_disabled": 0, "is_reserved": 0, "fusion_lat": 0.0, "lat": 38.87292633333333, "fusion_lon": 0.0, "rental_uris": {"ios": "https://dc.lft.to/lastmile_qr_scan", "android": "https://dc.lft.to/lastmile_qr_scan"}, "lon": -77.0098505, "bike_id": "4308ce5b3085858d88fe48f0d8af133e", "type": "electric_scooter", "name": "4308ce5b3085858d88fe48f0d8af133e"}, {"is_disabled": 0, "is_reserved": 0, "fusion_lat": 0.0, "lat": 38.926745833333335, "fusion_lon": 0.0, "rental_uris": {"ios": "https://dc.lft.to/lastmile_qr_scan", "android": "https://dc.lft.to/lastmile_qr_scan"}, "lon": -77.03025033333333, "bike_id": "cf1b3f47fef8b2a277ad30f223b9c941", "type": "electric_scooter", "name": "cf1b3f47fef8b2a277ad30f223b9c941"}, {"is_disabled": 0, "is_reserved": 0, "fusion_lat": 0.0, "lat": 38.93528366666666, "fusion_lon": 0.0, "rental_uris": {"ios": "https://dc.lft.to/lastmile_qr_scan", "android": "https://dc.lft.to/lastmile_qr_scan"}, "lon": -77.028367, "bike_id": "2772b40f8ae16178004ee3f589b99463", "type": "electric_scooter", "name": "2772b40f8ae16178004ee3f589b99463"}, {"is_disabled": 0, "is_reserved": 0, "fusion_lat": 0.0, "lat": 38.9189965, "fusion_lon": 0.0, "rental_uris": {"ios": "https://dc.lft.to/lastmile_qr_scan", "android": "https://dc.lft.to/lastmile_qr_scan"}, "lon": -77.02314016666666, "bike_id": "1db3d6180068509dd82b4536a0811b52", "type": "electric_scooter", "name": "1db3d6180068509dd82b4536a0811b52"}, {"is_disabled": 0, "is_reserved": 0, "fusion_lat": 0.0, "lat": 38.9142135, "fusion_lon": 0.0, "rental_uris": {"ios": "https://dc.lft.to/lastmile_qr_scan", "android": "https://dc.lft.to/lastmile_qr_scan"}, "lon": -77.043834, "bike_id": "18534e93659a28f03b5824a242bc0a6f", "type": "electric_scooter", "name": "18534e93659a28f03b5824a242bc0a6f"}, {"is_disabled": 0, "is_reserved": 0, "fusion_lat": 0.0, "lat": 38.9265435, "fusion_lon": 0.0, "rental_uris": {"ios": "https://dc.lft.to/lastmile_qr_scan", "android": "https://dc.lft.to/lastmile_qr_scan"}, "lon": -77.02444866666667, "bike_id": "1832509fa293b48fa7d06faab42a9a5b", "type": "electric_scooter", "name": "1832509fa293b48fa7d06faab42a9a5b"}, {"is_disabled": 0, "is_reserved": 0, "fusion_lat": 0.0, "lat": 38.93122066666667, "fusion_lon": 0.0, "rental_uris": {"ios": "https://dc.lft.to/lastmile_qr_scan", "android": "https://dc.lft.to/lastmile_qr_scan"}, "lon": -77.02071016666666, "bike_id": "94c648ed3eff7605cda0963ddc2609d2", "type": "electric_scooter", "name": "94c648ed3eff7605cda0963ddc2609d2"}, {"is_disabled": 0, "is_reserved": 0, "fusion_lat": 0.0, "lat": 38.923497833333336, "fusion_lon": 0.0, "rental_uris": {"ios": "https://dc.lft.to/lastmile_qr_scan", "android": "https://dc.lft.to/lastmile_qr_scan"}, "lon": -77.0439095, "bike_id": "a1dd6c35164dfc7f0f7fed63684d5cf3", "type": "electric_scooter", "name": "a1dd6c35164dfc7f0f7fed63684d5cf3"}, {"is_disabled": 0, "is_reserved": 0, "fusion_lat": 0.0, "lat": 38.9265485, "fusion_lon": 0.0, "rental_uris": {"ios": "https://dc.lft.to/lastmile_qr_scan", "android": "https://dc.lft.to/lastmile_qr_scan"}, "lon": -77.02425533333333, "bike_id": "b36072741c24df3e81c5d46bdae35c83", "type": "electric_scooter", "name": "b36072741c24df3e81c5d46bdae35c83"}, {"is_disabled": 0, "is_reserved": 0, "fusion_lat": 0.0, "lat": 38.91101716666667, "fusion_lon": 0.0, "rental_uris": {"ios": "https://dc.lft.to/lastmile_qr_scan", "android": "https://dc.lft.to/lastmile_qr_scan"}, "lon": -77.00377033333334, "bike_id": "e4d6013cb2847d20d896aeabeda9d772", "type": "electric_scooter", "name": "e4d6013cb2847d20d896aeabeda9d772"}, {"is_disabled": 0, "is_reserved": 0, "fusion_lat": 0.0, "lat": 38.92065683333333, "fusion_lon": 0.0, "rental_uris": {"ios": "https://dc.lft.to/lastmile_qr_scan", "android": "https://dc.lft.to/lastmile_qr_scan"}, "lon": -77.023526, "bike_id": "af8aa1636a677f965dbf606eae666348", "type": "electric_scooter", "name": "af8aa1636a677f965dbf606eae666348"}, {"is_disabled": 0, "is_reserved": 0, "fusion_lat": 0.0, "lat": 38.9235525, "fusion_lon": 0.0, "rental_uris": {"ios": "https://dc.lft.to/lastmile_qr_scan", "android": "https://dc.lft.to/lastmile_qr_scan"}, "lon": -77.0730755, "bike_id": "77de57f27cd2274a38fe68912d8d4975", "type": "electric_scooter", "name": "77de57f27cd2274a38fe68912d8d4975"}, {"is_disabled": 0, "is_reserved": 0, "fusion_lat": 0.0, "lat": 38.93609633333333, "fusion_lon": 0.0, "rental_uris": {"ios": "https://dc.lft.to/lastmile_qr_scan", "android": "https://dc.lft.to/lastmile_qr_scan"}, "lon": -77.0558585, "bike_id": "eef7759013127b1fc920aed8b5a332f9", "type": "electric_scooter", "name": "eef7759013127b1fc920aed8b5a332f9"}, {"is_disabled": 0, "is_reserved": 0, "fusion_lat": 0.0, "lat": 38.93701383333333, "fusion_lon": 0.0, "rental_uris": {"ios": "https://dc.lft.to/lastmile_qr_scan", "android": "https://dc.lft.to/lastmile_qr_scan"}, "lon": -77.0559825, "bike_id": "8c4742c99bf77dfb06ef2f751b3458af", "type": "electric_scooter", "name": "8c4742c99bf77dfb06ef2f751b3458af"}, {"is_disabled": 0, "is_reserved": 0, "fusion_lat": 0.0, "lat": 38.89515183333334, "fusion_lon": 0.0, "rental_uris": {"ios": "https://dc.lft.to/lastmile_qr_scan", "android": "https://dc.lft.to/lastmile_qr_scan"}, "lon": -77.022607, "bike_id": "e09200ea4b40c0bc091648ba04fe9116", "type": "electric_scooter", "name": "e09200ea4b40c0bc091648ba04fe9116"}, {"is_disabled": 0, "is_reserved": 0, "fusion_lat": 0.0, "lat": 38.91411883333333, "fusion_lon": 0.0, "rental_uris": {"ios": "https://dc.lft.to/lastmile_qr_scan", "android": "https://dc.lft.to/lastmile_qr_scan"}, "lon": -77.02427166666666, "bike_id": "fbcea2aa25eb9eb522eaaf9ba0e3b24b", "type": "electric_scooter", "name": "fbcea2aa25eb9eb522eaaf9ba0e3b24b"}, {"is_disabled": 0, "is_reserved": 0, "fusion_lat": 0.0, "lat": 38.852439833333335, "fusion_lon": 0.0, "rental_uris": {"ios": "https://dc.lft.to/lastmile_qr_scan", "android": "https://dc.lft.to/lastmile_qr_scan"}, "lon": -77.11409933333333, "bike_id": "51a3dfe38274f83ca30b4d9fa78daea8", "type": "electric_bike", "name": "51a3dfe38274f83ca30b4d9fa78daea8"}, {"is_disabled": 0, "is_reserved": 0, "fusion_lat": 0.0, "lat": 38.91542233333333, "fusion_lon": 0.0, "rental_uris": {"ios": "https://dc.lft.to/lastmile_qr_scan", "android": "https://dc.lft.to/lastmile_qr_scan"}, "lon": -77.03848933333333, "bike_id": "a34104aa8d02e1efa5e3b359cd2b8ade", "type": "electric_scooter", "name": "a34104aa8d02e1efa5e3b359cd2b8ade"}, {"is_disabled": 0, "is_reserved": 0, "fusion_lat": 0.0, "lat": 38.910442, "fusion_lon": 0.0, "rental_uris": {"ios": "https://dc.lft.to/lastmile_qr_scan", "android": "https://dc.lft.to/lastmile_qr_scan"}, "lon": -76.998023, "bike_id": "46a436b3b9c94d1ed63f4b51a092e20d", "type": "electric_scooter", "name": "46a436b3b9c94d1ed63f4b51a092e20d"}, {"is_disabled": 0, "is_reserved": 0, "fusion_lat": 0.0, "lat": 38.92317666666667, "fusion_lon": 0.0, "rental_uris": {"ios": "https://dc.lft.to/lastmile_qr_scan", "android": "https://dc.lft.to/lastmile_qr_scan"}, "lon": -77.02900683333333, "bike_id": "a64471c54e773df90b5d0c6a502f7476", "type": "electric_scooter", "name": "a64471c54e773df90b5d0c6a502f7476"}, {"is_disabled": 0, "is_reserved": 0, "fusion_lat": 0.0, "lat": 38.952193, "fusion_lon": 0.0, "rental_uris": {"ios": "https://dc.lft.to/lastmile_qr_scan", "android": "https://dc.lft.to/lastmile_qr_scan"}, "lon": -77.08869033333333, "bike_id": "84aeaf55e206bb64c2db650d4238545b", "type": "electric_scooter", "name": "84aeaf55e206bb64c2db650d4238545b"}, {"is_disabled": 0, "is_reserved": 0, "fusion_lat": 0.0, "lat": 38.925737166666664, "fusion_lon": 0.0, "rental_uris": {"ios": "https://dc.lft.to/lastmile_qr_scan", "android": "https://dc.lft.to/lastmile_qr_scan"}, "lon": -77.03137133333334, "bike_id": "66b2d08e190ed4479e2f0a4074c52d88", "type": "electric_scooter", "name": "66b2d08e190ed4479e2f0a4074c52d88"}, {"is_disabled": 0, "is_reserved": 0, "fusion_lat": 0.0, "lat": 38.94330083333333, "fusion_lon": 0.0, "rental_uris": {"ios": "https://dc.lft.to/lastmile_qr_scan", "android": "https://dc.lft.to/lastmile_qr_scan"}, "lon": -77.01551983333333, "bike_id": "6e2cb3d53618826c47a02a0dc2439076", "type": "electric_scooter", "name": "6e2cb3d53618826c47a02a0dc2439076"}, {"is_disabled": 0, "is_reserved": 0, "fusion_lat": 0.0, "lat": 38.88303283333333, "fusion_lon": 0.0, "rental_uris": {"ios": "https://dc.lft.to/lastmile_qr_scan", "android": "https://dc.lft.to/lastmile_qr_scan"}, "lon": -76.93490833333334, "bike_id": "77d32981b076a9fd4b51f516ad9feb95", "type": "electric_scooter", "name": "77d32981b076a9fd4b51f516ad9feb95"}, {"is_disabled": 0, "is_reserved": 0, "fusion_lat": 0.0, "lat": 38.892318833333334, "fusion_lon": 0.0, "rental_uris": {"ios": "https://dc.lft.to/lastmile_qr_scan", "android": "https://dc.lft.to/lastmile_qr_scan"}, "lon": -77.03237416666667, "bike_id": "f1672d3df9e796948ca5dac8ee0f1870", "type": "electric_scooter", "name": "f1672d3df9e796948ca5dac8ee0f1870"}, {"is_disabled": 0, "is_reserved": 0, "fusion_lat": 0.0, "lat": 38.8427585, "fusion_lon": 0.0, "rental_uris": {"ios": "https://dc.lft.to/lastmile_qr_scan", "android": "https://dc.lft.to/lastmile_qr_scan"}, "lon": -76.98838583333334, "bike_id": "68780409b3aa13128701c3c3ff33c4bf", "type": "electric_scooter", "name": "68780409b3aa13128701c3c3ff33c4bf"}, {"is_disabled": 0, "is_reserved": 0, "fusion_lat": 0.0, "lat": 38.919996166666664, "fusion_lon": 0.0, "rental_uris": {"ios": "https://dc.lft.to/lastmile_qr_scan", "android": "https://dc.lft.to/lastmile_qr_scan"}, "lon": -77.03219816666666, "bike_id": "f06856b10a846d57ba33fcc47e34fceb", "type": "electric_scooter", "name": "f06856b10a846d57ba33fcc47e34fceb"}, {"is_disabled": 0, "is_reserved": 0, "fusion_lat": 0.0, "lat": 38.90688, "fusion_lon": 0.0, "rental_uris": {"ios": "https://dc.lft.to/lastmile_qr_scan", "android": "https://dc.lft.to/lastmile_qr_scan"}, "lon": -77.062905, "bike_id": "6f61f853f9bd89ab2b5e59fe19add658", "type": "electric_scooter", "name": "6f61f853f9bd89ab2b5e59fe19add658"}, {"is_disabled": 0, "is_reserved": 0, "fusion_lat": 0.0, "lat": 38.896754333333334, "fusion_lon": 0.0, "rental_uris": {"ios": "https://dc.lft.to/lastmile_qr_scan", "android": "https://dc.lft.to/lastmile_qr_scan"}, "lon": -77.04895283333333, "bike_id": "be45a4630cec968cdd2a7831a1dab62b", "type": "electric_scooter", "name": "be45a4630cec968cdd2a7831a1dab62b"}, {"is_disabled": 0, "is_reserved": 0, "fusion_lat": 0.0, "lat": 38.906561833333335, "fusion_lon": 0.0, "rental_uris": {"ios": "https://dc.lft.to/lastmile_qr_scan", "android": "https://dc.lft.to/lastmile_qr_scan"}, "lon": -77.04546, "bike_id": "62190eb96f9e0ce784f84dd8eac9ccd8", "type": "electric_scooter", "name": "62190eb96f9e0ce784f84dd8eac9ccd8"}, {"is_disabled": 0, "is_reserved": 0, "fusion_lat": 0.0, "lat": 38.90143466666667, "fusion_lon": 0.0, "rental_uris": {"ios": "https://dc.lft.to/lastmile_qr_scan", "android": "https://dc.lft.to/lastmile_qr_scan"}, "lon": -76.92984366666667, "bike_id": "88738d3645efd3550478f690d96f3185", "type": "electric_scooter", "name": "88738d3645efd3550478f690d96f3185"}, {"is_disabled": 0, "is_reserved": 0, "fusion_lat": 0.0, "lat": 39.00650233333333, "fusion_lon": 0.0, "rental_uris": {"ios": "https://dc.lft.to/lastmile_qr_scan", "android": "https://dc.lft.to/lastmile_qr_scan"}, "lon": -76.90020433333333, "bike_id": "6907d75f4fe12e1358a9afaa89ef2a84", "type": "electric_bike", "name": "6907d75f4fe12e1358a9afaa89ef2a84"}, {"is_disabled": 0, "is_reserved": 0, "fusion_lat": 0.0, "lat": 38.9245975, "fusion_lon": 0.0, "rental_uris": {"ios": "https://dc.lft.to/lastmile_qr_scan", "android": "https://dc.lft.to/lastmile_qr_scan"}, "lon": -77.057611, "bike_id": "fadd554bbc48cf8ff5b19199c13daedc", "type": "electric_scooter", "name": "fadd554bbc48cf8ff5b19199c13daedc"}, {"is_disabled": 0, "is_reserved": 0, "fusion_lat": 0.0, "lat": 38.838659666666665, "fusion_lon": 0.0, "rental_uris": {"ios": "https://dc.lft.to/lastmile_qr_scan", "android": "https://dc.lft.to/lastmile_qr_scan"}, "lon": -76.99701466666667, "bike_id": "303463a161ff25bfda70bf1ec9eceafe", "type": "electric_bike", "name": "303463a161ff25bfda70bf1ec9eceafe"}, {"is_disabled": 0, "is_reserved": 0, "fusion_lat": 0.0, "lat": 38.911916, "fusion_lon": 0.0, "rental_uris": {"ios": "https://dc.lft.to/lastmile_qr_scan", "android": "https://dc.lft.to/lastmile_qr_scan"}, "lon": -77.01076266666666, "bike_id": "21c20efe797a42d5662f75ab17858729", "type": "electric_scooter", "name": "21c20efe797a42d5662f75ab17858729"}, {"is_disabled": 0, "is_reserved": 0, "fusion_lat": 0.0, "lat": 38.90526966666667, "fusion_lon": 0.0, "rental_uris": {"ios": "https://dc.lft.to/lastmile_qr_scan", "android": "https://dc.lft.to/lastmile_qr_scan"}, "lon": -77.04839633333333, "bike_id": "2c467326e7a1f184a656b7a155af6785", "type": "electric_scooter", "name": "2c467326e7a1f184a656b7a155af6785"}, {"is_disabled": 0, "is_reserved": 0, "fusion_lat": 0.0, "lat": 38.928587, "fusion_lon": 0.0, "rental_uris": {"ios": "https://dc.lft.to/lastmile_qr_scan", "android": "https://dc.lft.to/lastmile_qr_scan"}, "lon": -77.0304895, "bike_id": "bb2643b3a5dba16ac87c52215b1a19c4", "type": "electric_scooter", "name": "bb2643b3a5dba16ac87c52215b1a19c4"}, {"is_disabled": 0, "is_reserved": 0, "fusion_lat": 0.0, "lat": 38.887290666666665, "fusion_lon": 0.0, "rental_uris": {"ios": "https://dc.lft.to/lastmile_qr_scan", "android": "https://dc.lft.to/lastmile_qr_scan"}, "lon": -77.03227083333333, "bike_id": "20377539c3ea278a655cefa9c1b5f81b", "type": "electric_scooter", "name": "20377539c3ea278a655cefa9c1b5f81b"}, {"is_disabled": 0, "is_reserved": 0, "fusion_lat": 0.0, "lat": 38.920749, "fusion_lon": 0.0, "rental_uris": {"ios": "https://dc.lft.to/lastmile_qr_scan", "android": "https://dc.lft.to/lastmile_qr_scan"}, "lon": -77.0242855, "bike_id": "29b7621b7d8e42fca6989d5e7099def7", "type": "electric_scooter", "name": "29b7621b7d8e42fca6989d5e7099def7"}, {"is_disabled": 0, "is_reserved": 0, "fusion_lat": 0.0, "lat": 38.89800266666666, "fusion_lon": 0.0, "rental_uris": {"ios": "https://dc.lft.to/lastmile_qr_scan", "android": "https://dc.lft.to/lastmile_qr_scan"}, "lon": -76.97165333333334, "bike_id": "e0139cf43ad0a72139fa83ad0d92b303", "type": "electric_scooter", "name": "e0139cf43ad0a72139fa83ad0d92b303"}, {"is_disabled": 0, "is_reserved": 0, "fusion_lat": 0.0, "lat": 38.90218933333333, "fusion_lon": 0.0, "rental_uris": {"ios": "https://dc.lft.to/lastmile_qr_scan", "android": "https://dc.lft.to/lastmile_qr_scan"}, "lon": -76.93178216666666, "bike_id": "58ffba409cf6fe7f46fc75186c797d60", "type": "electric_bike", "name": "58ffba409cf6fe7f46fc75186c797d60"}, {"is_disabled": 0, "is_reserved": 0, "fusion_lat": 0.0, "lat": 38.96532066666666, "fusion_lon": 0.0, "rental_uris": {"ios": "https://dc.lft.to/lastmile_qr_scan", "android": "https://dc.lft.to/lastmile_qr_scan"}, "lon": -77.03414366666667, "bike_id": "1f91b777d2f87c2be6cf36c4008a0053", "type": "electric_bike", "name": "1f91b777d2f87c2be6cf36c4008a0053"}, {"is_disabled": 0, "is_reserved": 0, "fusion_lat": 0.0, "lat": 38.8717435, "fusion_lon": 0.0, "rental_uris": {"ios": "https://dc.lft.to/lastmile_qr_scan", "android": "https://dc.lft.to/lastmile_qr_scan"}, "lon": -77.23390566666667, "bike_id": "a3cf9f39d712102f9d75393d26fed8ac", "type": "electric_bike", "name": "a3cf9f39d712102f9d75393d26fed8ac"}, {"is_disabled": 0, "is_reserved": 0, "fusion_lat": 0.0, "lat": 38.8967725, "fusion_lon": 0.0, "rental_uris": {"ios": "https://dc.lft.to/lastmile_qr_scan", "android": "https://dc.lft.to/lastmile_qr_scan"}, "lon": -77.04889483333334, "bike_id": "f5c383154e84be224ddfb9b4ff1ff6c4", "type": "electric_scooter", "name": "f5c383154e84be224ddfb9b4ff1ff6c4"}, {"is_disabled": 0, "is_reserved": 0, "fusion_lat": 0.0, "lat": 38.866645166666665, "fusion_lon": 0.0, "rental_uris": {"ios": "https://dc.lft.to/lastmile_qr_scan", "android": "https://dc.lft.to/lastmile_qr_scan"}, "lon": -77.01042566666666, "bike_id": "24d694fa20c1d7f3389b4499d7f8076c", "type": "electric_scooter", "name": "24d694fa20c1d7f3389b4499d7f8076c"}, {"is_disabled": 0, "is_reserved": 0, "fusion_lat": 0.0, "lat": 38.885274333333335, "fusion_lon": 0.0, "rental_uris": {"ios": "https://dc.lft.to/lastmile_qr_scan", "android": "https://dc.lft.to/lastmile_qr_scan"}, "lon": -76.99797283333334, "bike_id": "2d486504e6f9b7839cd667fc40213be9", "type": "electric_scooter", "name": "2d486504e6f9b7839cd667fc40213be9"}, {"is_disabled": 0, "is_reserved": 0, "fusion_lat": 0.0, "lat": 38.90024716666667, "fusion_lon": 0.0, "rental_uris": {"ios": "https://dc.lft.to/lastmile_qr_scan", "android": "https://dc.lft.to/lastmile_qr_scan"}, "lon": -77.03376283333333, "bike_id": "4196d2b5c65d1b80072668f35b9a1bff", "type": "electric_scooter", "name": "4196d2b5c65d1b80072668f35b9a1bff"}, {"is_disabled": 0, "is_reserved": 0, "fusion_lat": 0.0, "lat": 38.91916916666667, "fusion_lon": 0.0, "rental_uris": {"ios": "https://dc.lft.to/lastmile_qr_scan", "android": "https://dc.lft.to/lastmile_qr_scan"}, "lon": -77.03311533333333, "bike_id": "c9bb9cfc2cd37124f5a3f79f9b5dd177", "type": "electric_scooter", "name": "c9bb9cfc2cd37124f5a3f79f9b5dd177"}, {"is_disabled": 0, "is_reserved": 0, "fusion_lat": 0.0, "lat": 38.93518516666666, "fusion_lon": 0.0, "rental_uris": {"ios": "https://dc.lft.to/lastmile_qr_scan", "android": "https://dc.lft.to/lastmile_qr_scan"}, "lon": -77.02528016666666, "bike_id": "89c37a076bf48c1051f43be7acaf9cb3", "type": "electric_scooter", "name": "89c37a076bf48c1051f43be7acaf9cb3"}, {"is_disabled": 0, "is_reserved": 0, "fusion_lat": 0.0, "lat": 38.900179, "fusion_lon": 0.0, "rental_uris": {"ios": "https://dc.lft.to/lastmile_qr_scan", "android": "https://dc.lft.to/lastmile_qr_scan"}, "lon": -77.01139283333333, "bike_id": "b25e2701e91c5e845849112d23d8ce3f", "type": "electric_scooter", "name": "b25e2701e91c5e845849112d23d8ce3f"}, {"is_disabled": 0, "is_reserved": 0, "fusion_lat": 0.0, "lat": 38.8073965, "fusion_lon": 0.0, "rental_uris": {"ios": "https://dc.lft.to/lastmile_qr_scan", "android": "https://dc.lft.to/lastmile_qr_scan"}, "lon": -77.09686433333333, "bike_id": "d86d35a62ea295e800f50f66e789a230", "type": "electric_bike", "name": "d86d35a62ea295e800f50f66e789a230"}, {"is_disabled": 0, "is_reserved": 0, "fusion_lat": 0.0, "lat": 38.9072125, "fusion_lon": 0.0, "rental_uris": {"ios": "https://dc.lft.to/lastmile_qr_scan", "android": "https://dc.lft.to/lastmile_qr_scan"}, "lon": -77.02540183333333, "bike_id": "d551c482f382647ba844f45fe9fabc26", "type": "electric_scooter", "name": "d551c482f382647ba844f45fe9fabc26"}, {"is_disabled": 0, "is_reserved": 0, "fusion_lat": 0.0, "lat": 38.90196266666667, "fusion_lon": 0.0, "rental_uris": {"ios": "https://dc.lft.to/lastmile_qr_scan", "android": "https://dc.lft.to/lastmile_qr_scan"}, "lon": -77.0486395, "bike_id": "e2c16d44549f55ca5e0e8b0231fe7d34", "type": "electric_scooter", "name": "e2c16d44549f55ca5e0e8b0231fe7d34"}, {"is_disabled": 0, "is_reserved": 0, "fusion_lat": 0.0, "lat": 39.000016, "fusion_lon": 0.0, "rental_uris": {"ios": "https://dc.lft.to/lastmile_qr_scan", "android": "https://dc.lft.to/lastmile_qr_scan"}, "lon": -76.91802633333333, "bike_id": "47cf972462938c337272c63346349bc3", "type": "electric_bike", "name": "47cf972462938c337272c63346349bc3"}, {"is_disabled": 0, "is_reserved": 0, "fusion_lat": 0.0, "lat": 38.93711, "fusion_lon": 0.0, "rental_uris": {"ios": "https://dc.lft.to/lastmile_qr_scan", "android": "https://dc.lft.to/lastmile_qr_scan"}, "lon": -77.05600266666667, "bike_id": "5d1786a4c2e0e2901d03b66cc70e2a33", "type": "electric_scooter", "name": "5d1786a4c2e0e2901d03b66cc70e2a33"}, {"is_disabled": 0, "is_reserved": 0, "fusion_lat": 0.0, "lat": 38.893662666666664, "fusion_lon": 0.0, "rental_uris": {"ios": "https://dc.lft.to/lastmile_qr_scan", "android": "https://dc.lft.to/lastmile_qr_scan"}, "lon": -76.94109766666666, "bike_id": "72ef15066748adf9dbb1fedcfab1fc59", "type": "electric_scooter", "name": "72ef15066748adf9dbb1fedcfab1fc59"}, {"is_disabled": 0, "is_reserved": 0, "fusion_lat": 0.0, "lat": 38.931034, "fusion_lon": 0.0, "rental_uris": {"ios": "https://dc.lft.to/lastmile_qr_scan", "android": "https://dc.lft.to/lastmile_qr_scan"}, "lon": -77.02667166666667, "bike_id": "99c30b8eb39147952d8d04ce3cd680c4", "type": "electric_scooter", "name": "99c30b8eb39147952d8d04ce3cd680c4"}, {"is_disabled": 0, "is_reserved": 0, "fusion_lat": 0.0, "lat": 38.95149966666666, "fusion_lon": 0.0, "rental_uris": {"ios": "https://dc.lft.to/lastmile_qr_scan", "android": "https://dc.lft.to/lastmile_qr_scan"}, "lon": -77.01866683333333, "bike_id": "07a6c9e7d20b8b8257e2939d4e69de87", "type": "electric_scooter", "name": "07a6c9e7d20b8b8257e2939d4e69de87"}, {"is_disabled": 0, "is_reserved": 0, "fusion_lat": 0.0, "lat": 38.89901183333333, "fusion_lon": 0.0, "rental_uris": {"ios": "https://dc.lft.to/lastmile_qr_scan", "android": "https://dc.lft.to/lastmile_qr_scan"}, "lon": -77.04991966666667, "bike_id": "43d3973bd1369dbf0866fcf7fa7246a9", "type": "electric_scooter", "name": "43d3973bd1369dbf0866fcf7fa7246a9"}, {"is_disabled": 0, "is_reserved": 0, "fusion_lat": 0.0, "lat": 38.92365016666667, "fusion_lon": 0.0, "rental_uris": {"ios": "https://dc.lft.to/lastmile_qr_scan", "android": "https://dc.lft.to/lastmile_qr_scan"}, "lon": -77.05242333333334, "bike_id": "42aee49d38d2294c4791c16604653177", "type": "electric_scooter", "name": "42aee49d38d2294c4791c16604653177"}, {"is_disabled": 0, "is_reserved": 0, "fusion_lat": 0.0, "lat": 38.827645, "fusion_lon": 0.0, "rental_uris": {"ios": "https://dc.lft.to/lastmile_qr_scan", "android": "https://dc.lft.to/lastmile_qr_scan"}, "lon": -77.06006466666666, "bike_id": "7991b03e8ac7046c86be967497696175", "type": "electric_bike", "name": "7991b03e8ac7046c86be967497696175"}, {"is_disabled": 0, "is_reserved": 0, "fusion_lat": 0.0, "lat": 38.930858, "fusion_lon": 0.0, "rental_uris": {"ios": "https://dc.lft.to/lastmile_qr_scan", "android": "https://dc.lft.to/lastmile_qr_scan"}, "lon": -77.02001883333334, "bike_id": "e69a62ce965c269a08cefa478fa9f95f", "type": "electric_scooter", "name": "e69a62ce965c269a08cefa478fa9f95f"}, {"is_disabled": 0, "is_reserved": 0, "fusion_lat": 0.0, "lat": 38.918265, "fusion_lon": 0.0, "rental_uris": {"ios": "https://dc.lft.to/lastmile_qr_scan", "android": "https://dc.lft.to/lastmile_qr_scan"}, "lon": -77.0120575, "bike_id": "81930ef913876d97f590fb375c0d38fb", "type": "electric_scooter", "name": "81930ef913876d97f590fb375c0d38fb"}, {"is_disabled": 0, "is_reserved": 0, "fusion_lat": 0.0, "lat": 38.93349416666667, "fusion_lon": 0.0, "rental_uris": {"ios": "https://dc.lft.to/lastmile_qr_scan", "android": "https://dc.lft.to/lastmile_qr_scan"}, "lon": -77.06051566666666, "bike_id": "3c2e0e26101cca80e46a48683220a378", "type": "electric_scooter", "name": "3c2e0e26101cca80e46a48683220a378"}, {"is_disabled": 0, "is_reserved": 0, "fusion_lat": 0.0, "lat": 38.95631483333333, "fusion_lon": 0.0, "rental_uris": {"ios": "https://dc.lft.to/lastmile_qr_scan", "android": "https://dc.lft.to/lastmile_qr_scan"}, "lon": -77.02210183333334, "bike_id": "8e59810daf4ca1dd7fd03e7bde43b232", "type": "electric_scooter", "name": "8e59810daf4ca1dd7fd03e7bde43b232"}, {"is_disabled": 0, "is_reserved": 0, "fusion_lat": 0.0, "lat": 38.92074216666666, "fusion_lon": 0.0, "rental_uris": {"ios": "https://dc.lft.to/lastmile_qr_scan", "android": "https://dc.lft.to/lastmile_qr_scan"}, "lon": -77.0242995, "bike_id": "41c0fec179fc4ba37d750b6cfc269e8f", "type": "electric_scooter", "name": "41c0fec179fc4ba37d750b6cfc269e8f"}, {"is_disabled": 0, "is_reserved": 0, "fusion_lat": 0.0, "lat": 38.91806183333333, "fusion_lon": 0.0, "rental_uris": {"ios": "https://dc.lft.to/lastmile_qr_scan", "android": "https://dc.lft.to/lastmile_qr_scan"}, "lon": -77.02490733333333, "bike_id": "1521e4aadb6be9d599ca505716f10406", "type": "electric_scooter", "name": "1521e4aadb6be9d599ca505716f10406"}, {"is_disabled": 0, "is_reserved": 0, "fusion_lat": 0.0, "lat": 38.926499666666665, "fusion_lon": 0.0, "rental_uris": {"ios": "https://dc.lft.to/lastmile_qr_scan", "android": "https://dc.lft.to/lastmile_qr_scan"}, "lon": -77.052108, "bike_id": "d80beabf8092f809a367dc331f4092cc", "type": "electric_scooter", "name": "d80beabf8092f809a367dc331f4092cc"}, {"is_disabled": 0, "is_reserved": 0, "fusion_lat": 0.0, "lat": 38.90510916666667, "fusion_lon": 0.0, "rental_uris": {"ios": "https://dc.lft.to/lastmile_qr_scan", "android": "https://dc.lft.to/lastmile_qr_scan"}, "lon": -76.95197433333334, "bike_id": "b753cd9e9b1b51d7eaae4007a92a1961", "type": "electric_scooter", "name": "b753cd9e9b1b51d7eaae4007a92a1961"}, {"is_disabled": 0, "is_reserved": 0, "fusion_lat": 0.0, "lat": 38.86008916666667, "fusion_lon": 0.0, "rental_uris": {"ios": "https://dc.lft.to/lastmile_qr_scan", "android": "https://dc.lft.to/lastmile_qr_scan"}, "lon": -77.0652885, "bike_id": "a88b32d4650cbf13b1ed4d96dbc9e102", "type": "electric_bike", "name": "a88b32d4650cbf13b1ed4d96dbc9e102"}, {"is_disabled": 0, "is_reserved": 0, "fusion_lat": 0.0, "lat": 38.874651, "fusion_lon": 0.0, "rental_uris": {"ios": "https://dc.lft.to/lastmile_qr_scan", "android": "https://dc.lft.to/lastmile_qr_scan"}, "lon": -77.00942333333333, "bike_id": "f96e13afd8c2f6bef5b74bdcc0c3c86b", "type": "electric_scooter", "name": "f96e13afd8c2f6bef5b74bdcc0c3c86b"}, {"is_disabled": 0, "is_reserved": 0, "fusion_lat": 0.0, "lat": 38.885441, "fusion_lon": 0.0, "rental_uris": {"ios": "https://dc.lft.to/lastmile_qr_scan", "android": "https://dc.lft.to/lastmile_qr_scan"}, "lon": -76.959741, "bike_id": "80c8a4f3f286a366304dfcd898ef2d96", "type": "electric_scooter", "name": "80c8a4f3f286a366304dfcd898ef2d96"}, {"is_disabled": 0, "is_reserved": 0, "fusion_lat": 0.0, "lat": 38.88298866666667, "fusion_lon": 0.0, "rental_uris": {"ios": "https://dc.lft.to/lastmile_qr_scan", "android": "https://dc.lft.to/lastmile_qr_scan"}, "lon": -77.008885, "bike_id": "cea9e244890ea4ced7bf65d12b4acaf4", "type": "electric_scooter", "name": "cea9e244890ea4ced7bf65d12b4acaf4"}, {"is_disabled": 0, "is_reserved": 0, "fusion_lat": 0.0, "lat": 38.896699, "fusion_lon": 0.0, "rental_uris": {"ios": "https://dc.lft.to/lastmile_qr_scan", "android": "https://dc.lft.to/lastmile_qr_scan"}, "lon": -76.93208183333333, "bike_id": "1323704b15a2cfaf708237e8ae709007", "type": "electric_scooter", "name": "1323704b15a2cfaf708237e8ae709007"}, {"is_disabled": 0, "is_reserved": 0, "fusion_lat": 0.0, "lat": 38.93675133333333, "fusion_lon": 0.0, "rental_uris": {"ios": "https://dc.lft.to/lastmile_qr_scan", "android": "https://dc.lft.to/lastmile_qr_scan"}, "lon": -77.022822, "bike_id": "3f60c776a2b686f7069f8a307d7feaf1", "type": "electric_scooter", "name": "3f60c776a2b686f7069f8a307d7feaf1"}, {"is_disabled": 0, "is_reserved": 0, "fusion_lat": 0.0, "lat": 38.91612333333333, "fusion_lon": 0.0, "rental_uris": {"ios": "https://dc.lft.to/lastmile_qr_scan", "android": "https://dc.lft.to/lastmile_qr_scan"}, "lon": -77.02290416666666, "bike_id": "791e9a3d6d502f1c6419d27d339a5d60", "type": "electric_scooter", "name": "791e9a3d6d502f1c6419d27d339a5d60"}, {"is_disabled": 0, "is_reserved": 0, "fusion_lat": 0.0, "lat": 38.935269, "fusion_lon": 0.0, "rental_uris": {"ios": "https://dc.lft.to/lastmile_qr_scan", "android": "https://dc.lft.to/lastmile_qr_scan"}, "lon": -77.0235005, "bike_id": "f341d8743b66381c0f5f71db65675719", "type": "electric_scooter", "name": "f341d8743b66381c0f5f71db65675719"}, {"is_disabled": 0, "is_reserved": 0, "fusion_lat": 0.0, "lat": 38.836080833333334, "fusion_lon": 0.0, "rental_uris": {"ios": "https://dc.lft.to/lastmile_qr_scan", "android": "https://dc.lft.to/lastmile_qr_scan"}, "lon": -77.0037675, "bike_id": "b4a952bda44d64bf158ccefb0e94ad3f", "type": "electric_bike", "name": "b4a952bda44d64bf158ccefb0e94ad3f"}, {"is_disabled": 0, "is_reserved": 0, "fusion_lat": 0.0, "lat": 38.904184, "fusion_lon": 0.0, "rental_uris": {"ios": "https://dc.lft.to/lastmile_qr_scan", "android": "https://dc.lft.to/lastmile_qr_scan"}, "lon": -77.05122033333333, "bike_id": "88522207212a6bf997063fb270529004", "type": "electric_scooter", "name": "88522207212a6bf997063fb270529004"}, {"is_disabled": 0, "is_reserved": 0, "fusion_lat": 0.0, "lat": 38.9231755, "fusion_lon": 0.0, "rental_uris": {"ios": "https://dc.lft.to/lastmile_qr_scan", "android": "https://dc.lft.to/lastmile_qr_scan"}, "lon": -77.02799583333334, "bike_id": "afecd108f74bdebd8e6362a322d5839b", "type": "electric_scooter", "name": "afecd108f74bdebd8e6362a322d5839b"}, {"is_disabled": 0, "is_reserved": 0, "fusion_lat": 0.0, "lat": 38.925014166666664, "fusion_lon": 0.0, "rental_uris": {"ios": "https://dc.lft.to/lastmile_qr_scan", "android": "https://dc.lft.to/lastmile_qr_scan"}, "lon": -77.0425875, "bike_id": "c29f03aed997b1217cd46068f5290d46", "type": "electric_bike", "name": "c29f03aed997b1217cd46068f5290d46"}, {"is_disabled": 0, "is_reserved": 0, "fusion_lat": 0.0, "lat": 38.8584255, "fusion_lon": 0.0, "rental_uris": {"ios": "https://dc.lft.to/lastmile_qr_scan", "android": "https://dc.lft.to/lastmile_qr_scan"}, "lon": -76.98828116666667, "bike_id": "10ca4f68404a41cf3723402d4ff32b53", "type": "electric_scooter", "name": "10ca4f68404a41cf3723402d4ff32b53"}, {"is_disabled": 0, "is_reserved": 0, "fusion_lat": 0.0, "lat": 38.918382666666666, "fusion_lon": 0.0, "rental_uris": {"ios": "https://dc.lft.to/lastmile_qr_scan", "android": "https://dc.lft.to/lastmile_qr_scan"}, "lon": -77.04008366666666, "bike_id": "e3358edf8576aaf7a9b88659ef90fe1f", "type": "electric_scooter", "name": "e3358edf8576aaf7a9b88659ef90fe1f"}, {"is_disabled": 0, "is_reserved": 0, "fusion_lat": 0.0, "lat": 38.85788983333333, "fusion_lon": 0.0, "rental_uris": {"ios": "https://dc.lft.to/lastmile_qr_scan", "android": "https://dc.lft.to/lastmile_qr_scan"}, "lon": -76.9875455, "bike_id": "f43d068dacf809fa5c21766520fd9458", "type": "electric_bike", "name": "f43d068dacf809fa5c21766520fd9458"}, {"is_disabled": 0, "is_reserved": 0, "fusion_lat": 0.0, "lat": 38.92409833333333, "fusion_lon": 0.0, "rental_uris": {"ios": "https://dc.lft.to/lastmile_qr_scan", "android": "https://dc.lft.to/lastmile_qr_scan"}, "lon": -77.0201705, "bike_id": "e205625d7e17fd3cda9c6d87e45bb33c", "type": "electric_scooter", "name": "e205625d7e17fd3cda9c6d87e45bb33c"}, {"is_disabled": 0, "is_reserved": 0, "fusion_lat": 0.0, "lat": 38.923951833333334, "fusion_lon": 0.0, "rental_uris": {"ios": "https://dc.lft.to/lastmile_qr_scan", "android": "https://dc.lft.to/lastmile_qr_scan"}, "lon": -77.03642416666666, "bike_id": "759221913f70a6d016101145a935a7f4", "type": "electric_scooter", "name": "759221913f70a6d016101145a935a7f4"}, {"is_disabled": 0, "is_reserved": 0, "fusion_lat": 0.0, "lat": 38.832991166666666, "fusion_lon": 0.0, "rental_uris": {"ios": "https://dc.lft.to/lastmile_qr_scan", "android": "https://dc.lft.to/lastmile_qr_scan"}, "lon": -77.08408783333333, "bike_id": "39abeae2d83410dfed0a7431bfd9441f", "type": "electric_bike", "name": "39abeae2d83410dfed0a7431bfd9441f"}, {"is_disabled": 0, "is_reserved": 0, "fusion_lat": 0.0, "lat": 38.942288166666664, "fusion_lon": 0.0, "rental_uris": {"ios": "https://dc.lft.to/lastmile_qr_scan", "android": "https://dc.lft.to/lastmile_qr_scan"}, "lon": -77.01438, "bike_id": "e3872775da5c8b88f382502f96d4eaaf", "type": "electric_scooter", "name": "e3872775da5c8b88f382502f96d4eaaf"}, {"is_disabled": 0, "is_reserved": 0, "fusion_lat": 0.0, "lat": 38.93643083333333, "fusion_lon": 0.0, "rental_uris": {"ios": "https://dc.lft.to/lastmile_qr_scan", "android": "https://dc.lft.to/lastmile_qr_scan"}, "lon": -77.03665883333333, "bike_id": "2283685a366b664c5fb61bec383de32e", "type": "electric_scooter", "name": "2283685a366b664c5fb61bec383de32e"}, {"is_disabled": 0, "is_reserved": 0, "fusion_lat": 0.0, "lat": 38.89850966666667, "fusion_lon": 0.0, "rental_uris": {"ios": "https://dc.lft.to/lastmile_qr_scan", "android": "https://dc.lft.to/lastmile_qr_scan"}, "lon": -76.92750366666667, "bike_id": "1669f9c58693acac7d4856a09d33751c", "type": "electric_scooter", "name": "1669f9c58693acac7d4856a09d33751c"}, {"is_disabled": 0, "is_reserved": 0, "fusion_lat": 0.0, "lat": 38.93115916666667, "fusion_lon": 0.0, "rental_uris": {"ios": "https://dc.lft.to/lastmile_qr_scan", "android": "https://dc.lft.to/lastmile_qr_scan"}, "lon": -77.021302, "bike_id": "0b21fb105125c3b7b082caf84f10cece", "type": "electric_scooter", "name": "0b21fb105125c3b7b082caf84f10cece"}, {"is_disabled": 0, "is_reserved": 0, "fusion_lat": 0.0, "lat": 38.890565, "fusion_lon": 0.0, "rental_uris": {"ios": "https://dc.lft.to/lastmile_qr_scan", "android": "https://dc.lft.to/lastmile_qr_scan"}, "lon": -77.026644, "bike_id": "3dce3fa15a56e88a135b9f21144d3bd9", "type": "electric_bike", "name": "3dce3fa15a56e88a135b9f21144d3bd9"}, {"is_disabled": 0, "is_reserved": 0, "fusion_lat": 0.0, "lat": 38.91880883333333, "fusion_lon": 0.0, "rental_uris": {"ios": "https://dc.lft.to/lastmile_qr_scan", "android": "https://dc.lft.to/lastmile_qr_scan"}, "lon": -77.03662966666667, "bike_id": "b8b3fcbe88ada7739b40eca35244a738", "type": "electric_scooter", "name": "b8b3fcbe88ada7739b40eca35244a738"}, {"is_disabled": 0, "is_reserved": 0, "fusion_lat": 0.0, "lat": 38.90719283333333, "fusion_lon": 0.0, "rental_uris": {"ios": "https://dc.lft.to/lastmile_qr_scan", "android": "https://dc.lft.to/lastmile_qr_scan"}, "lon": -77.04642966666667, "bike_id": "58386a2973af50127249433aec941c55", "type": "electric_scooter", "name": "58386a2973af50127249433aec941c55"}, {"is_disabled": 0, "is_reserved": 0, "fusion_lat": 0.0, "lat": 38.904418, "fusion_lon": 0.0, "rental_uris": {"ios": "https://dc.lft.to/lastmile_qr_scan", "android": "https://dc.lft.to/lastmile_qr_scan"}, "lon": -77.02844466666667, "bike_id": "0ea4d77afaafcd7992e2acaea64de4ff", "type": "electric_scooter", "name": "0ea4d77afaafcd7992e2acaea64de4ff"}, {"is_disabled": 0, "is_reserved": 0, "fusion_lat": 0.0, "lat": 38.90437383333333, "fusion_lon": 0.0, "rental_uris": {"ios": "https://dc.lft.to/lastmile_qr_scan", "android": "https://dc.lft.to/lastmile_qr_scan"}, "lon": -76.97223166666667, "bike_id": "a3b5b9c1a6c2dce929a195641dee1bc7", "type": "electric_bike", "name": "a3b5b9c1a6c2dce929a195641dee1bc7"}, {"is_disabled": 0, "is_reserved": 0, "fusion_lat": 0.0, "lat": 38.934649, "fusion_lon": 0.0, "rental_uris": {"ios": "https://dc.lft.to/lastmile_qr_scan", "android": "https://dc.lft.to/lastmile_qr_scan"}, "lon": -77.02396783333333, "bike_id": "0f179fdfb8c83f9442356a0cb1bcb7c3", "type": "electric_scooter", "name": "0f179fdfb8c83f9442356a0cb1bcb7c3"}, {"is_disabled": 0, "is_reserved": 0, "fusion_lat": 0.0, "lat": 38.908710166666665, "fusion_lon": 0.0, "rental_uris": {"ios": "https://dc.lft.to/lastmile_qr_scan", "android": "https://dc.lft.to/lastmile_qr_scan"}, "lon": -77.03517116666667, "bike_id": "9bf2089cc9eb43bbbaaa8ef723be2fea", "type": "electric_scooter", "name": "9bf2089cc9eb43bbbaaa8ef723be2fea"}, {"is_disabled": 0, "is_reserved": 0, "fusion_lat": 0.0, "lat": 38.92155733333333, "fusion_lon": 0.0, "rental_uris": {"ios": "https://dc.lft.to/lastmile_qr_scan", "android": "https://dc.lft.to/lastmile_qr_scan"}, "lon": -77.0365605, "bike_id": "61cd1f5de701022072f0a38452fef1b0", "type": "electric_scooter", "name": "61cd1f5de701022072f0a38452fef1b0"}, {"is_disabled": 0, "is_reserved": 0, "fusion_lat": 0.0, "lat": 38.90804583333333, "fusion_lon": 0.0, "rental_uris": {"ios": "https://dc.lft.to/lastmile_qr_scan", "android": "https://dc.lft.to/lastmile_qr_scan"}, "lon": -77.03842466666667, "bike_id": "85047c57bcc3a5b388d7356e609b602e", "type": "electric_scooter", "name": "85047c57bcc3a5b388d7356e609b602e"}, {"is_disabled": 0, "is_reserved": 0, "fusion_lat": 0.0, "lat": 38.9066445, "fusion_lon": 0.0, "rental_uris": {"ios": "https://dc.lft.to/lastmile_qr_scan", "android": "https://dc.lft.to/lastmile_qr_scan"}, "lon": -77.02967366666667, "bike_id": "6256e77d4ad9c44d6e9db8e9daf90ead", "type": "electric_scooter", "name": "6256e77d4ad9c44d6e9db8e9daf90ead"}, {"is_disabled": 0, "is_reserved": 0, "fusion_lat": 0.0, "lat": 38.901870833333334, "fusion_lon": 0.0, "rental_uris": {"ios": "https://dc.lft.to/lastmile_qr_scan", "android": "https://dc.lft.to/lastmile_qr_scan"}, "lon": -77.00210666666666, "bike_id": "5b047d72f71c03c07288655a499bf4fc", "type": "electric_scooter", "name": "5b047d72f71c03c07288655a499bf4fc"}, {"is_disabled": 0, "is_reserved": 0, "fusion_lat": 0.0, "lat": 38.923607833333335, "fusion_lon": 0.0, "rental_uris": {"ios": "https://dc.lft.to/lastmile_qr_scan", "android": "https://dc.lft.to/lastmile_qr_scan"}, "lon": -77.052835, "bike_id": "f60ea62b1c57b89d2f3f24662e6dbe46", "type": "electric_scooter", "name": "f60ea62b1c57b89d2f3f24662e6dbe46"}, {"is_disabled": 0, "is_reserved": 0, "fusion_lat": 0.0, "lat": 38.84093466666667, "fusion_lon": 0.0, "rental_uris": {"ios": "https://dc.lft.to/lastmile_qr_scan", "android": "https://dc.lft.to/lastmile_qr_scan"}, "lon": -76.98713583333333, "bike_id": "fd601f7f55a0b5911c7b72637fcbb3ac", "type": "electric_bike", "name": "fd601f7f55a0b5911c7b72637fcbb3ac"}, {"is_disabled": 0, "is_reserved": 0, "fusion_lat": 0.0, "lat": 38.893408666666666, "fusion_lon": 0.0, "rental_uris": {"ios": "https://dc.lft.to/lastmile_qr_scan", "android": "https://dc.lft.to/lastmile_qr_scan"}, "lon": -76.99376366666667, "bike_id": "268edf4646aa7db2834f6b73c210e016", "type": "electric_scooter", "name": "268edf4646aa7db2834f6b73c210e016"}, {"is_disabled": 0, "is_reserved": 0, "fusion_lat": 0.0, "lat": 38.892772666666666, "fusion_lon": 0.0, "rental_uris": {"ios": "https://dc.lft.to/lastmile_qr_scan", "android": "https://dc.lft.to/lastmile_qr_scan"}, "lon": -77.04505066666667, "bike_id": "e55b6bf56aa2f3ec7d448b6240d0a074", "type": "electric_scooter", "name": "e55b6bf56aa2f3ec7d448b6240d0a074"}, {"is_disabled": 0, "is_reserved": 0, "fusion_lat": 0.0, "lat": 38.910429666666666, "fusion_lon": 0.0, "rental_uris": {"ios": "https://dc.lft.to/lastmile_qr_scan", "android": "https://dc.lft.to/lastmile_qr_scan"}, "lon": -76.99804583333334, "bike_id": "69833b1cf9f8e09a03f2486b31d53f79", "type": "electric_scooter", "name": "69833b1cf9f8e09a03f2486b31d53f79"}, {"is_disabled": 0, "is_reserved": 0, "fusion_lat": 0.0, "lat": 38.91833666666667, "fusion_lon": 0.0, "rental_uris": {"ios": "https://dc.lft.to/lastmile_qr_scan", "android": "https://dc.lft.to/lastmile_qr_scan"}, "lon": -77.05317966666667, "bike_id": "5c9073c544b41a7c4e3febeb2a9ec42a", "type": "electric_scooter", "name": "5c9073c544b41a7c4e3febeb2a9ec42a"}, {"is_disabled": 0, "is_reserved": 0, "fusion_lat": 0.0, "lat": 38.924216333333334, "fusion_lon": 0.0, "rental_uris": {"ios": "https://dc.lft.to/lastmile_qr_scan", "android": "https://dc.lft.to/lastmile_qr_scan"}, "lon": -77.057533, "bike_id": "089690cd0eed765b410d4bbe57f262b9", "type": "electric_scooter", "name": "089690cd0eed765b410d4bbe57f262b9"}, {"is_disabled": 0, "is_reserved": 0, "fusion_lat": 0.0, "lat": 38.90572866666667, "fusion_lon": 0.0, "rental_uris": {"ios": "https://dc.lft.to/lastmile_qr_scan", "android": "https://dc.lft.to/lastmile_qr_scan"}, "lon": -77.00431516666667, "bike_id": "380c68d3ea7b2a2a4c1ae9f70033677d", "type": "electric_scooter", "name": "380c68d3ea7b2a2a4c1ae9f70033677d"}, {"is_disabled": 0, "is_reserved": 0, "fusion_lat": 0.0, "lat": 38.92211733333333, "fusion_lon": 0.0, "rental_uris": {"ios": "https://dc.lft.to/lastmile_qr_scan", "android": "https://dc.lft.to/lastmile_qr_scan"}, "lon": -77.03775383333333, "bike_id": "d613b6fd39e5aedf6697bc5ddae3dcea", "type": "electric_scooter", "name": "d613b6fd39e5aedf6697bc5ddae3dcea"}, {"is_disabled": 0, "is_reserved": 0, "fusion_lat": 0.0, "lat": 38.9248745, "fusion_lon": 0.0, "rental_uris": {"ios": "https://dc.lft.to/lastmile_qr_scan", "android": "https://dc.lft.to/lastmile_qr_scan"}, "lon": -77.026606, "bike_id": "9bf628c26e77783f7906fcfd27c56b93", "type": "electric_scooter", "name": "9bf628c26e77783f7906fcfd27c56b93"}, {"is_disabled": 0, "is_reserved": 0, "fusion_lat": 0.0, "lat": 38.935321, "fusion_lon": 0.0, "rental_uris": {"ios": "https://dc.lft.to/lastmile_qr_scan", "android": "https://dc.lft.to/lastmile_qr_scan"}, "lon": -77.02358516666666, "bike_id": "83e741e1225365f9a491cfeeb7ca7b85", "type": "electric_scooter", "name": "83e741e1225365f9a491cfeeb7ca7b85"}, {"is_disabled": 0, "is_reserved": 0, "fusion_lat": 0.0, "lat": 38.928205, "fusion_lon": 0.0, "rental_uris": {"ios": "https://dc.lft.to/lastmile_qr_scan", "android": "https://dc.lft.to/lastmile_qr_scan"}, "lon": -77.043568, "bike_id": "39cba3bead3be310be12417bccd5878a", "type": "electric_scooter", "name": "39cba3bead3be310be12417bccd5878a"}, {"is_disabled": 0, "is_reserved": 0, "fusion_lat": 0.0, "lat": 38.90079333333333, "fusion_lon": 0.0, "rental_uris": {"ios": "https://dc.lft.to/lastmile_qr_scan", "android": "https://dc.lft.to/lastmile_qr_scan"}, "lon": -77.01876283333333, "bike_id": "8f958ebcff483c635602e59b33b3281f", "type": "electric_scooter", "name": "8f958ebcff483c635602e59b33b3281f"}, {"is_disabled": 0, "is_reserved": 0, "fusion_lat": 0.0, "lat": 38.9285035, "fusion_lon": 0.0, "rental_uris": {"ios": "https://dc.lft.to/lastmile_qr_scan", "android": "https://dc.lft.to/lastmile_qr_scan"}, "lon": -77.03599533333333, "bike_id": "c8c8470b682766619242e3122ef7a482", "type": "electric_scooter", "name": "c8c8470b682766619242e3122ef7a482"}, {"is_disabled": 0, "is_reserved": 0, "fusion_lat": 0.0, "lat": 38.941466166666665, "fusion_lon": 0.0, "rental_uris": {"ios": "https://dc.lft.to/lastmile_qr_scan", "android": "https://dc.lft.to/lastmile_qr_scan"}, "lon": -77.02318433333333, "bike_id": "1d0e553e20dce45602fa30a7ef53ab7b", "type": "electric_scooter", "name": "1d0e553e20dce45602fa30a7ef53ab7b"}, {"is_disabled": 0, "is_reserved": 0, "fusion_lat": 0.0, "lat": 38.859029666666665, "fusion_lon": 0.0, "rental_uris": {"ios": "https://dc.lft.to/lastmile_qr_scan", "android": "https://dc.lft.to/lastmile_qr_scan"}, "lon": -77.095618, "bike_id": "a238b19f12afec0e0e8a37f32d67d640", "type": "electric_bike", "name": "a238b19f12afec0e0e8a37f32d67d640"}, {"is_disabled": 0, "is_reserved": 0, "fusion_lat": 0.0, "lat": 38.95703916666667, "fusion_lon": 0.0, "rental_uris": {"ios": "https://dc.lft.to/lastmile_qr_scan", "android": "https://dc.lft.to/lastmile_qr_scan"}, "lon": -77.359715, "bike_id": "81b14e23ad312e173e5c0cb5ba3667ba", "type": "electric_bike", "name": "81b14e23ad312e173e5c0cb5ba3667ba"}, {"is_disabled": 0, "is_reserved": 0, "fusion_lat": 0.0, "lat": 38.921035833333335, "fusion_lon": 0.0, "rental_uris": {"ios": "https://dc.lft.to/lastmile_qr_scan", "android": "https://dc.lft.to/lastmile_qr_scan"}, "lon": -77.03940166666666, "bike_id": "ea7583ef84758a6ca7b2bce2a5a3917c", "type": "electric_scooter", "name": "ea7583ef84758a6ca7b2bce2a5a3917c"}, {"is_disabled": 0, "is_reserved": 0, "fusion_lat": 0.0, "lat": 38.90036416666667, "fusion_lon": 0.0, "rental_uris": {"ios": "https://dc.lft.to/lastmile_qr_scan", "android": "https://dc.lft.to/lastmile_qr_scan"}, "lon": -77.0062885, "bike_id": "4b3ceeed8a94461df1f9b858ddaff2f2", "type": "electric_scooter", "name": "4b3ceeed8a94461df1f9b858ddaff2f2"}, {"is_disabled": 0, "is_reserved": 0, "fusion_lat": 0.0, "lat": 39.084403333333334, "fusion_lon": 0.0, "rental_uris": {"ios": "https://dc.lft.to/lastmile_qr_scan", "android": "https://dc.lft.to/lastmile_qr_scan"}, "lon": -76.9514145, "bike_id": "cb140d08636e12445c3cb05b7bcdc5f9", "type": "electric_bike", "name": "cb140d08636e12445c3cb05b7bcdc5f9"}, {"is_disabled": 0, "is_reserved": 0, "fusion_lat": 0.0, "lat": 38.927240833333336, "fusion_lon": 0.0, "rental_uris": {"ios": "https://dc.lft.to/lastmile_qr_scan", "android": "https://dc.lft.to/lastmile_qr_scan"}, "lon": -77.023087, "bike_id": "85f734f61052acac76f9016993355ee5", "type": "electric_scooter", "name": "85f734f61052acac76f9016993355ee5"}, {"is_disabled": 0, "is_reserved": 0, "fusion_lat": 0.0, "lat": 38.9374105, "fusion_lon": 0.0, "rental_uris": {"ios": "https://dc.lft.to/lastmile_qr_scan", "android": "https://dc.lft.to/lastmile_qr_scan"}, "lon": -77.07362, "bike_id": "9a728961725d138d17590dde5a178b30", "type": "electric_scooter", "name": "9a728961725d138d17590dde5a178b30"}, {"is_disabled": 0, "is_reserved": 0, "fusion_lat": 0.0, "lat": 38.908447333333335, "fusion_lon": 0.0, "rental_uris": {"ios": "https://dc.lft.to/lastmile_qr_scan", "android": "https://dc.lft.to/lastmile_qr_scan"}, "lon": -77.00089516666667, "bike_id": "28d21d2473acc855a9fcb49d0b976a80", "type": "electric_scooter", "name": "28d21d2473acc855a9fcb49d0b976a80"}, {"is_disabled": 0, "is_reserved": 0, "fusion_lat": 0.0, "lat": 38.884480833333335, "fusion_lon": 0.0, "rental_uris": {"ios": "https://dc.lft.to/lastmile_qr_scan", "android": "https://dc.lft.to/lastmile_qr_scan"}, "lon": -77.00899533333333, "bike_id": "b423db25a384b2e248e3379d66f09120", "type": "electric_scooter", "name": "b423db25a384b2e248e3379d66f09120"}, {"is_disabled": 0, "is_reserved": 0, "fusion_lat": 0.0, "lat": 38.88384116666667, "fusion_lon": 0.0, "rental_uris": {"ios": "https://dc.lft.to/lastmile_qr_scan", "android": "https://dc.lft.to/lastmile_qr_scan"}, "lon": -76.9304395, "bike_id": "73f53c53ff14db6c6fda41f2a2ee9857", "type": "electric_scooter", "name": "73f53c53ff14db6c6fda41f2a2ee9857"},