{"data": {"bikes": [{"name": "ab3d7c54295b70a4fd164d9695763ea1", "fusion_lat": 0.0, "type": "electric_bike", "lat": 38.964962166666666, "is_reserved": 0, "is_disabled": 0, "fusion_lon": 0.0, "bike_id": "ab3d7c54295b70a4fd164d9695763ea1", "lon": -77.02826633333333, "rental_uris": {"ios": "https://dc.lft.to/lastmile_qr_scan", "android": "https://dc.lft.to/lastmile_qr_scan"}}, {"name": "9fb7f1907e3a94d000b3233a45090068", "fusion_lat": 0.0, "type": "electric_scooter", "lat": 38.897464666666664, "is_reserved": 0, "is_disabled": 0, "fusion_lon": 0.0, "bike_id": "9fb7f1907e3a94d000b3233a45090068", "lon": -77.04735566666666, "rental_uris": {"ios": "https://dc.lft.to/lastmile_qr_scan", "android": "https://dc.lft.to/lastmile_qr_scan"}}, {"name": "0404c1e511bcb29fec4a97247822dadf", "fusion_lat": 0.0, "type": "electric_scooter", "lat": 38.889882666666665, "is_reserved": 0, "is_disabled": 0, "fusion_lon": 0.0, "bike_id": "0404c1e511bcb29fec4a97247822dadf", "lon": -77.001179, "rental_uris": {"ios": "https://dc.lft.to/lastmile_qr_scan", "android": "https://dc.lft.to/lastmile_qr_scan"}}, {"name": "9c75d8102a872e7390cdb5bc80d58485", "fusion_lat": 0.0, "type": "electric_scooter", "lat": 38.87749733333333, "is_reserved": 0, "is_disabled": 0, "fusion_lon": 0.0, "bike_id": "9c75d8102a872e7390cdb5bc80d58485", "lon": -76.97241183333334, "rental_uris": {"ios": "https://dc.lft.to/lastmile_qr_scan", "android": "https://dc.lft.to/lastmile_qr_scan"}}, {"name": "b5bf4b5882c62eaf3867eb1efa1703c5", "fusion_lat": 0.0, "type": "electric_scooter", "lat": 38.94833, "is_reserved": 0, "is_disabled": 0, "fusion_lon": 0.0, "bike_id": "b5bf4b5882c62eaf3867eb1efa1703c5", "lon": -77.0255045, "rental_uris": {"ios": "https://dc.lft.to/lastmile_qr_scan", "android": "https://dc.lft.to/lastmile_qr_scan"}}, {"name": "8b5f56a6705adec96d346746a5b6f5fa", "fusion_lat": 0.0, "type": "electric_scooter", "lat": 38.918657833333334, "is_reserved": 0, "is_disabled": 0, "fusion_lon": 0.0, "bike_id": "8b5f56a6705adec96d346746a5b6f5fa", "lon": -77.073405, "rental_uris": {"ios": "https://dc.lft.to/lastmile_qr_scan", "android": "https://dc.lft.to/lastmile_qr_scan"}}, {"name": "dd0a83936c05c6bd05a80a2e5ecdf41e", "fusion_lat": 0.0, "type": "electric_bike", "lat": 38.906969833333335, "is_reserved": 0, "is_disabled": 0, "fusion_lon": 0.0, "bike_id": "dd0a83936c05c6bd05a80a2e5ecdf41e", "lon": -77.0637255, "rental_uris": {"ios": "https://dc.lft.to/lastmile_qr_scan", "android": "https://dc.lft.to/lastmile_qr_scan"}}, {"name": "fae9edfad2cc49281bfefdb5aca1ee72", "fusion_lat": 0.0, "type": "electric_scooter", "lat": 38.91556033333333, "is_reserved": 0, "is_disabled": 0, "fusion_lon": 0.0, "bike_id": "fae9edfad2cc49281bfefdb5aca1ee72", "lon": -77.03237283333333, "rental_uris": {"ios": "https://dc.lft.to/lastmile_qr_scan", "android": "https://dc.lft.to/lastmile_qr_scan"}}, {"name": "c8de38f909bffff8900f9a95c84c0061", "fusion_lat": 0.0, "type": "electric_scooter", "lat": 38.926669, "is_reserved": 0, "is_disabled": 0, "fusion_lon": 0.0, "bike_id": "c8de38f909bffff8900f9a95c84c0061", "lon": -77.033275, "rental_uris": {"ios": "https://dc.lft.to/lastmile_qr_scan", "android": "https://dc.lft.to/lastmile_qr_scan"}}, {"name": "175175b105c4426de0070d6f802a71de", "fusion_lat": 0.0, "type": "electric_scooter", "lat": 38.88767816666667, "is_reserved": 0, "is_disabled": 0, "fusion_lon": 0.0, "bike_id": "175175b105c4426de0070d6f802a71de", "lon": -76.98024233333334, "rental_uris": {"ios": "https://dc.lft.to/lastmile_qr_scan", "android": "https://dc.lft.to/lastmile_qr_scan"}}, {"name": "ef0bd686b17ddd9cef502e36cb7086c6", "fusion_lat": 0.0, "type": "electric_scooter", "lat": 38.90970333333333, "is_reserved": 0, "is_disabled": 0, "fusion_lon": 0.0, "bike_id": "ef0bd686b17ddd9cef502e36cb7086c6", "lon": -77.03845183333334, "rental_uris": {"ios": "https://dc.lft.to/lastmile_qr_scan", "android": "https://dc.lft.to/lastmile_qr_scan"}}, {"name": "5a039374c9b324281a4ef9d295a6a31c", "fusion_lat": 0.0, "type": "electric_bike", "lat": 38.870744333333334, "is_reserved": 0, "is_disabled": 0, "fusion_lon": 0.0, "bike_id": "5a039374c9b324281a4ef9d295a6a31c", "lon": -77.1105865, "rental_uris": {"ios": "https://dc.lft.to/lastmile_qr_scan", "android": "https://dc.lft.to/lastmile_qr_scan"}}, {"name": "4369987e8112601818dfd5a266305301", "fusion_lat": 0.0, "type": "electric_scooter", "lat": 38.9176625, "is_reserved": 0, "is_disabled": 0, "fusion_lon": 0.0, "bike_id": "4369987e8112601818dfd5a266305301", "lon": -77.017538, "rental_uris": {"ios": "https://dc.lft.to/lastmile_qr_scan", "android": "https://dc.lft.to/lastmile_qr_scan"}}, {"name": "4ae5e6e6c0ab3b77c67128aba5b82fc4", "fusion_lat": 0.0, "type": "electric_scooter", "lat": 38.897463, "is_reserved": 0, "is_disabled": 0, "fusion_lon": 0.0, "bike_id": "4ae5e6e6c0ab3b77c67128aba5b82fc4", "lon": -76.99610166666666, "rental_uris": {"ios": "https://dc.lft.to/lastmile_qr_scan", "android": "https://dc.lft.to/lastmile_qr_scan"}}, {"name": "3acd0308e760b87b9b07fb6529ddf008", "fusion_lat": 0.0, "type": "electric_scooter", "lat": 38.9206435, "is_reserved": 0, "is_disabled": 0, "fusion_lon": 0.0, "bike_id": "3acd0308e760b87b9b07fb6529ddf008", "lon": -77.03214133333333, "rental_uris": {"ios": "https://dc.lft.to/lastmile_qr_scan", "android": "https://dc.lft.to/lastmile_qr_scan"}}, {"name": "e67033cfd271824dc82d25a50d2ffb06", "fusion_lat": 0.0, "type": "electric_scooter", "lat": 38.8766965, "is_reserved": 0, "is_disabled": 0, "fusion_lon": 0.0, "bike_id": "e67033cfd271824dc82d25a50d2ffb06", "lon": -77.00410483333333, "rental_uris": {"ios": "https://dc.lft.to/lastmile_qr_scan", "android": "https://dc.lft.to/lastmile_qr_scan"}}, {"name": "3dfb0071a05d5b68bf00b226ec9de2e7", "fusion_lat": 0.0, "type": "electric_scooter", "lat": 38.912622666666664, "is_reserved": 0, "is_disabled": 0, "fusion_lon": 0.0, "bike_id": "3dfb0071a05d5b68bf00b226ec9de2e7", "lon": -77.03635916666667, "rental_uris": {"ios": "https://dc.lft.to/lastmile_qr_scan", "android": "https://dc.lft.to/lastmile_qr_scan"}}, {"name": "15e829262398219235cd207c0519486b", "fusion_lat": 0.0, "type": "electric_scooter", "lat": 38.9246005, "is_reserved": 0, "is_disabled": 0, "fusion_lon": 0.0, "bike_id": "15e829262398219235cd207c0519486b", "lon": -77.0523355, "rental_uris": {"ios": "https://dc.lft.to/lastmile_qr_scan", "android": "https://dc.lft.to/lastmile_qr_scan"}}, {"name": "0dc8c49eb925563c3f9fa057f2e3a185", "fusion_lat": 0.0, "type": "electric_scooter", "lat": 38.92465466666667, "is_reserved": 0, "is_disabled": 0, "fusion_lon": 0.0, "bike_id": "0dc8c49eb925563c3f9fa057f2e3a185", "lon": -77.02712533333333, "rental_uris": {"ios": "https://dc.lft.to/lastmile_qr_scan", "android": "https://dc.lft.to/lastmile_qr_scan"}}, {"name": "ffb3fc4fbbf4e2586a697dd09bffc2dd", "fusion_lat": 0.0, "type": "electric_scooter", "lat": 38.9155075, "is_reserved": 0, "is_disabled": 0, "fusion_lon": 0.0, "bike_id": "ffb3fc4fbbf4e2586a697dd09bffc2dd", "lon": -77.03835933333333, "rental_uris": {"ios": "https://dc.lft.to/lastmile_qr_scan", "android": "https://dc.lft.to/lastmile_qr_scan"}}, {"name": "a7c3ace5374fc5d083c7d67e75578f05", "fusion_lat": 0.0, "type": "electric_scooter", "lat": 38.8922095, "is_reserved": 0, "is_disabled": 0, "fusion_lon": 0.0, "bike_id": "a7c3ace5374fc5d083c7d67e75578f05", "lon": -77.03984266666667, "rental_uris": {"ios": "https://dc.lft.to/lastmile_qr_scan", "android": "https://dc.lft.to/lastmile_qr_scan"}}, {"name": "b72afd7b53c1212fbfa9cec31fc65644", "fusion_lat": 0.0, "type": "electric_scooter", "lat": 38.900438, "is_reserved": 0, "is_disabled": 0, "fusion_lon": 0.0, "bike_id": "b72afd7b53c1212fbfa9cec31fc65644", "lon": -76.98840533333333, "rental_uris": {"ios": "https://dc.lft.to/lastmile_qr_scan", "android": "https://dc.lft.to/lastmile_qr_scan"}}, {"name": "8dfa21736694afdec46e79e203362ff8", "fusion_lat": 0.0, "type": "electric_bike", "lat": 38.899006666666665, "is_reserved": 0, "is_disabled": 0, "fusion_lon": 0.0, "bike_id": "8dfa21736694afdec46e79e203362ff8", "lon": -76.9896145, "rental_uris": {"ios": "https://dc.lft.to/lastmile_qr_scan", "android": "https://dc.lft.to/lastmile_qr_scan"}}, {"name": "2b3a3ea5d10adcbfc8c0bf20aecd5ad0", "fusion_lat": 0.0, "type": "electric_scooter", "lat": 38.90726466666667, "is_reserved": 0, "is_disabled": 0, "fusion_lon": 0.0, "bike_id": "2b3a3ea5d10adcbfc8c0bf20aecd5ad0", "lon": -77.0320445, "rental_uris": {"ios": "https://dc.lft.to/lastmile_qr_scan", "android": "https://dc.lft.to/lastmile_qr_scan"}}, {"name": "1c1b5dbcc9754bf763af5e911c6e8304", "fusion_lat": 0.0, "type": "electric_scooter", "lat": 38.931277, "is_reserved": 0, "is_disabled": 0, "fusion_lon": 0.0, "bike_id": "1c1b5dbcc9754bf763af5e911c6e8304", "lon": -77.02201383333333, "rental_uris": {"ios": "https://dc.lft.to/lastmile_qr_scan", "android": "https://dc.lft.to/lastmile_qr_scan"}}, {"name": "f53dfa38498fe5717e1ca14c10edfa37", "fusion_lat": 0.0, "type": "electric_bike", "lat": 38.882745, "is_reserved": 0, "is_disabled": 0, "fusion_lon": 0.0, "bike_id": "f53dfa38498fe5717e1ca14c10edfa37", "lon": -76.93245633333333, "rental_uris": {"ios": "https://dc.lft.to/lastmile_qr_scan", "android": "https://dc.lft.to/lastmile_qr_scan"}}, {"name": "858e04e0c1b025f2522e105f7b65dc48", "fusion_lat": 0.0, "type": "electric_scooter", "lat": 38.9094135, "is_reserved": 0, "is_disabled": 0, "fusion_lon": 0.0, "bike_id": "858e04e0c1b025f2522e105f7b65dc48", "lon": -77.02765933333333, "rental_uris": {"ios": "https://dc.lft.to/lastmile_qr_scan", "android": "https://dc.lft.to/lastmile_qr_scan"}}, {"name": "3e0eb9ac99ae6dc2216204625a443a7b", "fusion_lat": 0.0, "type": "electric_bike", "lat": 39.03863533333333, "is_reserved": 0, "is_disabled": 0, "fusion_lon": 0.0, "bike_id": "3e0eb9ac99ae6dc2216204625a443a7b", "lon": -76.990314, "rental_uris": {"ios": "https://dc.lft.to/lastmile_qr_scan", "android": "https://dc.lft.to/lastmile_qr_scan"}}, {"name": "a900065d025bcec4374e1890f243decf", "fusion_lat": 0.0, "type": "electric_scooter", "lat": 38.903502, "is_reserved": 0, "is_disabled": 0, "fusion_lon": 0.0, "bike_id": "a900065d025bcec4374e1890f243decf", "lon": -77.05341016666667, "rental_uris": {"ios": "https://dc.lft.to/lastmile_qr_scan", "android": "https://dc.lft.to/lastmile_qr_scan"}}, {"name": "7d9f57a58bd95b55e2e0e983bf4c61b1", "fusion_lat": 0.0, "type": "electric_scooter", "lat": 38.91593916666667, "is_reserved": 0, "is_disabled": 0, "fusion_lon": 0.0, "bike_id": "7d9f57a58bd95b55e2e0e983bf4c61b1", "lon": -77.03208766666667, "rental_uris": {"ios": "https://dc.lft.to/lastmile_qr_scan", "android": "https://dc.lft.to/lastmile_qr_scan"}}, {"name": "200892d79276c3efdc6e925bf85ba20d", "fusion_lat": 0.0, "type": "electric_scooter", "lat": 38.904287, "is_reserved": 0, "is_disabled": 0, "fusion_lon": 0.0, "bike_id": "200892d79276c3efdc6e925bf85ba20d", "lon": -77.03420383333334, "rental_uris": {"ios": "https://dc.lft.to/lastmile_qr_scan", "android": "https://dc.lft.to/lastmile_qr_scan"}}, {"name": "a9c4ed455ab3396d295eb06321ecfcbe", "fusion_lat": 0.0, "type": "electric_scooter", "lat": 38.90270666666667, "is_reserved": 0, "is_disabled": 0, "fusion_lon": 0.0, "bike_id": "a9c4ed455ab3396d295eb06321ecfcbe", "lon": -77.03002733333334, "rental_uris": {"ios": "https://dc.lft.to/lastmile_qr_scan", "android": "https://dc.lft.to/lastmile_qr_scan"}}, {"name": "078d39c9151e050345d57a59fdb44c54", "fusion_lat": 0.0, "type": "electric_scooter", "lat": 38.9003405, "is_reserved": 0, "is_disabled": 0, "fusion_lon": 0.0, "bike_id": "078d39c9151e050345d57a59fdb44c54", "lon": -77.011841, "rental_uris": {"ios": "https://dc.lft.to/lastmile_qr_scan", "android": "https://dc.lft.to/lastmile_qr_scan"}}, {"name": "1773506d0e1d0f055bdfcd086cef2429", "fusion_lat": 0.0, "type": "electric_scooter", "lat": 38.922324833333334, "is_reserved": 0, "is_disabled": 0, "fusion_lon": 0.0, "bike_id": "1773506d0e1d0f055bdfcd086cef2429", "lon": -77.02987016666667, "rental_uris": {"ios": "https://dc.lft.to/lastmile_qr_scan", "android": "https://dc.lft.to/lastmile_qr_scan"}}, {"name": "dde672f6db47b0a2aa2e031892ce8701", "fusion_lat": 0.0, "type": "electric_scooter", "lat": 38.92006966666667, "is_reserved": 0, "is_disabled": 0, "fusion_lon": 0.0, "bike_id": "dde672f6db47b0a2aa2e031892ce8701", "lon": -77.03183816666666, "rental_uris": {"ios": "https://dc.lft.to/lastmile_qr_scan", "android": "https://dc.lft.to/lastmile_qr_scan"}}, {"name": "0e5aa0a975288132f00d919f9f855f5b", "fusion_lat": 0.0, "type": "electric_scooter", "lat": 38.865360833333334, "is_reserved": 0, "is_disabled": 0, "fusion_lon": 0.0, "bike_id": "0e5aa0a975288132f00d919f9f855f5b", "lon": -76.98709466666666, "rental_uris": {"ios": "https://dc.lft.to/lastmile_qr_scan", "android": "https://dc.lft.to/lastmile_qr_scan"}}, {"name": "fdf30f7d46ed6b5278def5b857e628a4", "fusion_lat": 0.0, "type": "electric_scooter", "lat": 38.900271333333336, "is_reserved": 0, "is_disabled": 0, "fusion_lon": 0.0, "bike_id": "fdf30f7d46ed6b5278def5b857e628a4", "lon": -76.99859783333333, "rental_uris": {"ios": "https://dc.lft.to/lastmile_qr_scan", "android": "https://dc.lft.to/lastmile_qr_scan"}}, {"name": "67b56d11de5771d23460191550e206dc", "fusion_lat": 0.0, "type": "electric_scooter", "lat": 38.92887233333333, "is_reserved": 0, "is_disabled": 0, "fusion_lon": 0.0, "bike_id": "67b56d11de5771d23460191550e206dc", "lon": -77.00531416666666, "rental_uris": {"ios": "https://dc.lft.to/lastmile_qr_scan", "android": "https://dc.lft.to/lastmile_qr_scan"}}, {"name": "ecd107411fc972aa2d38838b5b517cf8", "fusion_lat": 0.0, "type": "electric_scooter", "lat": 38.91816433333334, "is_reserved": 0, "is_disabled": 0, "fusion_lon": 0.0, "bike_id": "ecd107411fc972aa2d38838b5b517cf8", "lon": -77.0356805, "rental_uris": {"ios": "https://dc.lft.to/lastmile_qr_scan", "android": "https://dc.lft.to/lastmile_qr_scan"}}, {"name": "08648b6a90fd10a7a76e6c4bac5efc78", "fusion_lat": 0.0, "type": "electric_scooter", "lat": 38.919165, "is_reserved": 0, "is_disabled": 0, "fusion_lon": 0.0, "bike_id": "08648b6a90fd10a7a76e6c4bac5efc78", "lon": -77.02492833333334, "rental_uris": {"ios": "https://dc.lft.to/lastmile_qr_scan", "android": "https://dc.lft.to/lastmile_qr_scan"}}, {"name": "c5d3705b5e7bf5720c625903eefe43a0", "fusion_lat": 0.0, "type": "electric_scooter", "lat": 38.911948, "is_reserved": 0, "is_disabled": 0, "fusion_lon": 0.0, "bike_id": "c5d3705b5e7bf5720c625903eefe43a0", "lon": -77.03443016666667, "rental_uris": {"ios": "https://dc.lft.to/lastmile_qr_scan", "android": "https://dc.lft.to/lastmile_qr_scan"}}, {"name": "10578f8598968ea94474f3b93acf65ab", "fusion_lat": 0.0, "type": "electric_scooter", "lat": 38.914093333333334, "is_reserved": 0, "is_disabled": 0, "fusion_lon": 0.0, "bike_id": "10578f8598968ea94474f3b93acf65ab", "lon": -77.02127983333334, "rental_uris": {"ios": "https://dc.lft.to/lastmile_qr_scan", "android": "https://dc.lft.to/lastmile_qr_scan"}}, {"name": "b6ade40dcb8438216c31dc428036eed8", "fusion_lat": 0.0, "type": "electric_scooter", "lat": 38.9154065, "is_reserved": 0, "is_disabled": 0, "fusion_lon": 0.0, "bike_id": "b6ade40dcb8438216c31dc428036eed8", "lon": -77.03855466666667, "rental_uris": {"ios": "https://dc.lft.to/lastmile_qr_scan", "android": "https://dc.lft.to/lastmile_qr_scan"}}, {"name": "a83953b97fb8ac2ad433c7b1f4e16534", "fusion_lat": 0.0, "type": "electric_scooter", "lat": 38.8749565, "is_reserved": 0, "is_disabled": 0, "fusion_lon": 0.0, "bike_id": "a83953b97fb8ac2ad433c7b1f4e16534", "lon": -77.00173216666667, "rental_uris": {"ios": "https://dc.lft.to/lastmile_qr_scan", "android": "https://dc.lft.to/lastmile_qr_scan"}}, {"name": "b153987d8646f284b3def0536afc1806", "fusion_lat": 0.0, "type": "electric_scooter", "lat": 38.912202, "is_reserved": 0, "is_disabled": 0, "fusion_lon": 0.0, "bike_id": "b153987d8646f284b3def0536afc1806", "lon": -77.044908, "rental_uris": {"ios": "https://dc.lft.to/lastmile_qr_scan", "android": "https://dc.lft.to/lastmile_qr_scan"}}, {"name": "3e379b77a1e47527d9603bbb15ca24b9", "fusion_lat": 0.0, "type": "electric_scooter", "lat": 38.922422833333336, "is_reserved": 0, "is_disabled": 0, "fusion_lon": 0.0, "bike_id": "3e379b77a1e47527d9603bbb15ca24b9", "lon": -77.03667516666667, "rental_uris": {"ios": "https://dc.lft.to/lastmile_qr_scan", "android": "https://dc.lft.to/lastmile_qr_scan"}}, {"name": "13c61636971059a08e771664c87de9e2", "fusion_lat": 0.0, "type": "electric_scooter", "lat": 38.89613116666666, "is_reserved": 0, "is_disabled": 0, "fusion_lon": 0.0, "bike_id": "13c61636971059a08e771664c87de9e2", "lon": -77.04687683333333, "rental_uris": {"ios": "https://dc.lft.to/lastmile_qr_scan", "android": "https://dc.lft.to/lastmile_qr_scan"}}, {"name": "896740216131da6b6cd5eb63fd63abe5", "fusion_lat": 0.0, "type": "electric_scooter", "lat": 38.9030585, "is_reserved": 0, "is_disabled": 0, "fusion_lon": 0.0, "bike_id": "896740216131da6b6cd5eb63fd63abe5", "lon": -77.04150033333333, "rental_uris": {"ios": "https://dc.lft.to/lastmile_qr_scan", "android": "https://dc.lft.to/lastmile_qr_scan"}}, {"name": "65bac5e6e365d53a87b4149debe8c20a", "fusion_lat": 0.0, "type": "electric_scooter", "lat": 38.930611999999996, "is_reserved": 0, "is_disabled": 0, "fusion_lon": 0.0, "bike_id": "65bac5e6e365d53a87b4149debe8c20a", "lon": -77.03959266666666, "rental_uris": {"ios": "https://dc.lft.to/lastmile_qr_scan", "android": "https://dc.lft.to/lastmile_qr_scan"}}, {"name": "34c7ee9aa3ce877ee21490d19f85271e", "fusion_lat": 0.0, "type": "electric_scooter", "lat": 38.91338416666667, "is_reserved": 0, "is_disabled": 0, "fusion_lon": 0.0, "bike_id": "34c7ee9aa3ce877ee21490d19f85271e", "lon": -77.03124916666667, "rental_uris": {"ios": "https://dc.lft.to/lastmile_qr_scan", "android": "https://dc.lft.to/lastmile_qr_scan"}}, {"name": "727f611331b1a42ce3c78abdafd8f909", "fusion_lat": 0.0, "type": "electric_scooter", "lat": 38.89971666666667, "is_reserved": 0, "is_disabled": 0, "fusion_lon": 0.0, "bike_id": "727f611331b1a42ce3c78abdafd8f909", "lon": -77.03131566666667, "rental_uris": {"ios": "https://dc.lft.to/lastmile_qr_scan", "android": "https://dc.lft.to/lastmile_qr_scan"}}, {"name": "064e4ec9d5f8a2c23f58dde7e08adde3", "fusion_lat": 0.0, "type": "electric_scooter", "lat": 38.923385, "is_reserved": 0, "is_disabled": 0, "fusion_lon": 0.0, "bike_id": "064e4ec9d5f8a2c23f58dde7e08adde3", "lon": -77.03663233333333, "rental_uris": {"ios": "https://dc.lft.to/lastmile_qr_scan", "android": "https://dc.lft.to/lastmile_qr_scan"}}, {"name": "45d6c27afcb905076ad841c50a8fc634", "fusion_lat": 0.0, "type": "electric_scooter", "lat": 38.90080733333333, "is_reserved": 0, "is_disabled": 0, "fusion_lon": 0.0, "bike_id": "45d6c27afcb905076ad841c50a8fc634", "lon": -77.05202866666667, "rental_uris": {"ios": "https://dc.lft.to/lastmile_qr_scan", "android": "https://dc.lft.to/lastmile_qr_scan"}}, {"name": "91550da01ac7d8c9b050f099a037bcd1", "fusion_lat": 0.0, "type": "electric_scooter", "lat": 38.93205283333333, "is_reserved": 0, "is_disabled": 0, "fusion_lon": 0.0, "bike_id": "91550da01ac7d8c9b050f099a037bcd1", "lon": -77.0273555, "rental_uris": {"ios": "https://dc.lft.to/lastmile_qr_scan", "android": "https://dc.lft.to/lastmile_qr_scan"}}, {"name": "1e29e230c2287bd89993aefa3bf9af44", "fusion_lat": 0.0, "type": "electric_bike", "lat": 38.96832166666667, "is_reserved": 0, "is_disabled": 0, "fusion_lon": 0.0, "bike_id": "1e29e230c2287bd89993aefa3bf9af44", "lon": -77.0333, "rental_uris": {"ios": "https://dc.lft.to/lastmile_qr_scan", "android": "https://dc.lft.to/lastmile_qr_scan"}}, {"name": "4897c3dffb70f276b0e69570458ba47a", "fusion_lat": 0.0, "type": "electric_scooter", "lat": 38.9176795, "is_reserved": 0, "is_disabled": 0, "fusion_lon": 0.0, "bike_id": "4897c3dffb70f276b0e69570458ba47a", "lon": -77.02949833333334, "rental_uris": {"ios": "https://dc.lft.to/lastmile_qr_scan", "android": "https://dc.lft.to/lastmile_qr_scan"}}, {"name": "41e224db1d6f8347e8545a007caf884f", "fusion_lat": 0.0, "type": "electric_scooter", "lat": 38.895548833333336, "is_reserved": 0, "is_disabled": 0, "fusion_lon": 0.0, "bike_id": "41e224db1d6f8347e8545a007caf884f", "lon": -77.01093383333334, "rental_uris": {"ios": "https://dc.lft.to/lastmile_qr_scan", "android": "https://dc.lft.to/lastmile_qr_scan"}}, {"name": "9893b18354533eef91ccff5fd846c465", "fusion_lat": 0.0, "type": "electric_scooter", "lat": 38.89909266666667, "is_reserved": 0, "is_disabled": 0, "fusion_lon": 0.0, "bike_id": "9893b18354533eef91ccff5fd846c465", "lon": -77.03915833333333, "rental_uris": {"ios": "https://dc.lft.to/lastmile_qr_scan", "android": "https://dc.lft.to/lastmile_qr_scan"}}, {"name": "feeed946faeca6dc032d65f7372e5c2a", "fusion_lat": 0.0, "type": "electric_scooter", "lat": 38.899115333333334, "is_reserved": 0, "is_disabled": 0, "fusion_lon": 0.0, "bike_id": "feeed946faeca6dc032d65f7372e5c2a", "lon": -77.070943, "rental_uris": {"ios": "https://dc.lft.to/lastmile_qr_scan", "android": "https://dc.lft.to/lastmile_qr_scan"}}, {"name": "4110876d85a8864b6bb2ad11c4b426d3", "fusion_lat": 0.0, "type": "electric_scooter", "lat": 38.9325045, "is_reserved": 0, "is_disabled": 0, "fusion_lon": 0.0, "bike_id": "4110876d85a8864b6bb2ad11c4b426d3", "lon": -77.03280533333333, "rental_uris": {"ios": "https://dc.lft.to/lastmile_qr_scan", "android": "https://dc.lft.to/lastmile_qr_scan"}}, {"name": "9afdd51893faf1cd634b144026b477a5", "fusion_lat": 0.0, "type": "electric_scooter", "lat": 38.90617733333333, "is_reserved": 0, "is_disabled": 0, "fusion_lon": 0.0, "bike_id": "9afdd51893faf1cd634b144026b477a5", "lon": -77.05151216666667, "rental_uris": {"ios": "https://dc.lft.to/lastmile_qr_scan", "android": "https://dc.lft.to/lastmile_qr_scan"}}, {"name": "557be3a49dc969412c16efdb166baa50", "fusion_lat": 0.0, "type": "electric_scooter", "lat": 38.907354166666664, "is_reserved": 0, "is_disabled": 0, "fusion_lon": 0.0, "bike_id": "557be3a49dc969412c16efdb166baa50", "lon": -77.0345095, "rental_uris": {"ios": "https://dc.lft.to/lastmile_qr_scan", "android": "https://dc.lft.to/lastmile_qr_scan"}}, {"name": "ebfc13c553ddabae4d867506d817c394", "fusion_lat": 0.0, "type": "electric_scooter", "lat": 38.904532333333336, "is_reserved": 0, "is_disabled": 0, "fusion_lon": 0.0, "bike_id": "ebfc13c553ddabae4d867506d817c394", "lon": -76.98532583333333, "rental_uris": {"ios": "https://dc.lft.to/lastmile_qr_scan", "android": "https://dc.lft.to/lastmile_qr_scan"}}, {"name": "3d35667625261dfcf8447941a7ac40d9", "fusion_lat": 0.0, "type": "electric_scooter", "lat": 38.94174116666667, "is_reserved": 0, "is_disabled": 0, "fusion_lon": 0.0, "bike_id": "3d35667625261dfcf8447941a7ac40d9", "lon": -77.02510733333334, "rental_uris": {"ios": "https://dc.lft.to/lastmile_qr_scan", "android": "https://dc.lft.to/lastmile_qr_scan"}}, {"name": "008280718ec62cea27aa70d250ef3776", "fusion_lat": 0.0, "type": "electric_scooter", "lat": 38.89721183333333, "is_reserved": 0, "is_disabled": 0, "fusion_lon": 0.0, "bike_id": "008280718ec62cea27aa70d250ef3776", "lon": -77.00214933333334, "rental_uris": {"ios": "https://dc.lft.to/lastmile_qr_scan", "android": "https://dc.lft.to/lastmile_qr_scan"}}, {"name": "6cf5b5988942bc7e511229a2166e13cd", "fusion_lat": 0.0, "type": "electric_scooter", "lat": 38.9218075, "is_reserved": 0, "is_disabled": 0, "fusion_lon": 0.0, "bike_id": "6cf5b5988942bc7e511229a2166e13cd", "lon": -77.02415316666666, "rental_uris": {"ios": "https://dc.lft.to/lastmile_qr_scan", "android": "https://dc.lft.to/lastmile_qr_scan"}}, {"name": "10bdfa51d51c611448b0a4cd8214f224", "fusion_lat": 0.0, "type": "electric_scooter", "lat": 38.87661666666666, "is_reserved": 0, "is_disabled": 0, "fusion_lon": 0.0, "bike_id": "10bdfa51d51c611448b0a4cd8214f224", "lon": -77.00720316666667, "rental_uris": {"ios": "https://dc.lft.to/lastmile_qr_scan", "android": "https://dc.lft.to/lastmile_qr_scan"}}, {"name": "a39a5262cb6610cc2d4aec68e9b90b37", "fusion_lat": 0.0, "type": "electric_bike", "lat": 38.854919333333335, "is_reserved": 0, "is_disabled": 0, "fusion_lon": 0.0, "bike_id": "a39a5262cb6610cc2d4aec68e9b90b37", "lon": -77.1152895, "rental_uris": {"ios": "https://dc.lft.to/lastmile_qr_scan", "android": "https://dc.lft.to/lastmile_qr_scan"}}, {"name": "74e020a9510be723a04aba0dd00a6351", "fusion_lat": 0.0, "type": "electric_scooter", "lat": 38.90831216666667, "is_reserved": 0, "is_disabled": 0, "fusion_lon": 0.0, "bike_id": "74e020a9510be723a04aba0dd00a6351", "lon": -77.04342516666667, "rental_uris": {"ios": "https://dc.lft.to/lastmile_qr_scan", "android": "https://dc.lft.to/lastmile_qr_scan"}}, {"name": "83b08c820b2da593bdbaf510cff0a773", "fusion_lat": 0.0, "type": "electric_scooter", "lat": 38.908508499999996, "is_reserved": 0, "is_disabled": 0, "fusion_lon": 0.0, "bike_id": "83b08c820b2da593bdbaf510cff0a773", "lon": -77.02095816666667, "rental_uris": {"ios": "https://dc.lft.to/lastmile_qr_scan", "android": "https://dc.lft.to/lastmile_qr_scan"}}, {"name": "ad2b7fade2197e39818c0cd09223bc6b", "fusion_lat": 0.0, "type": "electric_bike", "lat": 38.915421333333335, "is_reserved": 0, "is_disabled": 0, "fusion_lon": 0.0, "bike_id": "ad2b7fade2197e39818c0cd09223bc6b", "lon": -77.0675985, "rental_uris": {"ios": "https://dc.lft.to/lastmile_qr_scan", "android": "https://dc.lft.to/lastmile_qr_scan"}}, {"name": "9b49ea4fba5973094e698d80932fd5e8", "fusion_lat": 0.0, "type": "electric_scooter", "lat": 38.926300833333336, "is_reserved": 0, "is_disabled": 0, "fusion_lon": 0.0, "bike_id": "9b49ea4fba5973094e698d80932fd5e8", "lon": -77.0378925, "rental_uris": {"ios": "https://dc.lft.to/lastmile_qr_scan", "android": "https://dc.lft.to/lastmile_qr_scan"}}, {"name": "67205d053ac9204eea77166803a5d3ec", "fusion_lat": 0.0, "type": "electric_scooter", "lat": 38.919199166666665, "is_reserved": 0, "is_disabled": 0, "fusion_lon": 0.0, "bike_id": "67205d053ac9204eea77166803a5d3ec", "lon": -77.034232, "rental_uris": {"ios": "https://dc.lft.to/lastmile_qr_scan", "android": "https://dc.lft.to/lastmile_qr_scan"}}, {"name": "6b92d624b9098d7e69220cf65a2d4533", "fusion_lat": 0.0, "type": "electric_scooter", "lat": 38.892416, "is_reserved": 0, "is_disabled": 0, "fusion_lon": 0.0, "bike_id": "6b92d624b9098d7e69220cf65a2d4533", "lon": -77.01518883333334, "rental_uris": {"ios": "https://dc.lft.to/lastmile_qr_scan", "android": "https://dc.lft.to/lastmile_qr_scan"}}, {"name": "2a1e8b24223738ddd552c53e41de7ed0", "fusion_lat": 0.0, "type": "electric_scooter", "lat": 38.89962716666667, "is_reserved": 0, "is_disabled": 0, "fusion_lon": 0.0, "bike_id": "2a1e8b24223738ddd552c53e41de7ed0", "lon": -77.01608483333334, "rental_uris": {"ios": "https://dc.lft.to/lastmile_qr_scan", "android": "https://dc.lft.to/lastmile_qr_scan"}}, {"name": "340c7636cdf048f03f9d6d53d68aa311", "fusion_lat": 0.0, "type": "electric_bike", "lat": 38.86376683333334, "is_reserved": 0, "is_disabled": 0, "fusion_lon": 0.0, "bike_id": "340c7636cdf048f03f9d6d53d68aa311", "lon": -77.12899733333333, "rental_uris": {"ios": "https://dc.lft.to/lastmile_qr_scan", "android": "https://dc.lft.to/lastmile_qr_scan"}}, {"name": "084d1854bae60d400b22a950c2260488", "fusion_lat": 0.0, "type": "electric_scooter", "lat": 38.91872816666667, "is_reserved": 0, "is_disabled": 0, "fusion_lon": 0.0, "bike_id": "084d1854bae60d400b22a950c2260488", "lon": -77.044871, "rental_uris": {"ios": "https://dc.lft.to/lastmile_qr_scan", "android": "https://dc.lft.to/lastmile_qr_scan"}}, {"name": "8c09eb9fd8093beac0222ea459028626", "fusion_lat": 0.0, "type": "electric_scooter", "lat": 38.91247416666667, "is_reserved": 0, "is_disabled": 0, "fusion_lon": 0.0, "bike_id": "8c09eb9fd8093beac0222ea459028626", "lon": -77.032122, "rental_uris": {"ios": "https://dc.lft.to/lastmile_qr_scan", "android": "https://dc.lft.to/lastmile_qr_scan"}}, {"name": "ccd5d273414692b32376f4d084961d28", "fusion_lat": 0.0, "type": "electric_bike", "lat": 38.970868, "is_reserved": 0, "is_disabled": 0, "fusion_lon": 0.0, "bike_id": "ccd5d273414692b32376f4d084961d28", "lon": -77.06965883333334, "rental_uris": {"ios": "https://dc.lft.to/lastmile_qr_scan", "android": "https://dc.lft.to/lastmile_qr_scan"}}, {"name": "6f33621e5bc2e21a2354833f35dcfe6f", "fusion_lat": 0.0, "type": "electric_scooter", "lat": 38.92026883333333, "is_reserved": 0, "is_disabled": 0, "fusion_lon": 0.0, "bike_id": "6f33621e5bc2e21a2354833f35dcfe6f", "lon": -77.031279, "rental_uris": {"ios": "https://dc.lft.to/lastmile_qr_scan", "android": "https://dc.lft.to/lastmile_qr_scan"}}, {"name": "118c8bcd7fdcb0349277fe1fdee8d756", "fusion_lat": 0.0, "type": "electric_scooter", "lat": 38.91684866666667, "is_reserved": 0, "is_disabled": 0, "fusion_lon": 0.0, "bike_id": "118c8bcd7fdcb0349277fe1fdee8d756", "lon": -77.03760683333333, "rental_uris": {"ios": "https://dc.lft.to/lastmile_qr_scan", "android": "https://dc.lft.to/lastmile_qr_scan"}}, {"name": "d6b58b7d5b454f2255f1245f1686d45e", "fusion_lat": 0.0, "type": "electric_scooter", "lat": 38.91069133333333, "is_reserved": 0, "is_disabled": 0, "fusion_lon": 0.0, "bike_id": "d6b58b7d5b454f2255f1245f1686d45e", "lon": -77.00856816666666, "rental_uris": {"ios": "https://dc.lft.to/lastmile_qr_scan", "android": "https://dc.lft.to/lastmile_qr_scan"}}, {"name": "98352c70a0e0c97e96a2343f1887d4ba", "fusion_lat": 0.0, "type": "electric_scooter", "lat": 38.88825033333333, "is_reserved": 0, "is_disabled": 0, "fusion_lon": 0.0, "bike_id": "98352c70a0e0c97e96a2343f1887d4ba", "lon": -77.049408, "rental_uris": {"ios": "https://dc.lft.to/lastmile_qr_scan", "android": "https://dc.lft.to/lastmile_qr_scan"}}, {"name": "5404325e27bd78d3b370078a78771406", "fusion_lat": 0.0, "type": "electric_scooter", "lat": 38.927462, "is_reserved": 0, "is_disabled": 0, "fusion_lon": 0.0, "bike_id": "5404325e27bd78d3b370078a78771406", "lon": -77.03475383333334, "rental_uris": {"ios": "https://dc.lft.to/lastmile_qr_scan", "android": "https://dc.lft.to/lastmile_qr_scan"}}, {"name": "7b399fcd8a082c81b2d75659685f2e57", "fusion_lat": 0.0, "type": "electric_scooter", "lat": 38.92052833333333, "is_reserved": 0, "is_disabled": 0, "fusion_lon": 0.0, "bike_id": "7b399fcd8a082c81b2d75659685f2e57", "lon": -76.99886283333333, "rental_uris": {"ios": "https://dc.lft.to/lastmile_qr_scan", "android": "https://dc.lft.to/lastmile_qr_scan"}}, {"name": "e587061626fa40f36dc46ed96e82430b", "fusion_lat": 0.0, "type": "electric_scooter", "lat": 38.866610333333334, "is_reserved": 0, "is_disabled": 0, "fusion_lon": 0.0, "bike_id": "e587061626fa40f36dc46ed96e82430b", "lon": -76.9888705, "rental_uris": {"ios": "https://dc.lft.to/lastmile_qr_scan", "android": "https://dc.lft.to/lastmile_qr_scan"}}, {"name": "ad5118e914578b9f2204de9b9f8579e4", "fusion_lat": 0.0, "type": "electric_scooter", "lat": 38.9224135, "is_reserved": 0, "is_disabled": 0, "fusion_lon": 0.0, "bike_id": "ad5118e914578b9f2204de9b9f8579e4", "lon": -77.03665216666667, "rental_uris": {"ios": "https://dc.lft.to/lastmile_qr_scan", "android": "https://dc.lft.to/lastmile_qr_scan"}}, {"name": "8b888f9c609507780d93d5a1499e7e9d", "fusion_lat": 0.0, "type": "electric_scooter", "lat": 38.905768333333334, "is_reserved": 0, "is_disabled": 0, "fusion_lon": 0.0, "bike_id": "8b888f9c609507780d93d5a1499e7e9d", "lon": -77.02209083333334, "rental_uris": {"ios": "https://dc.lft.to/lastmile_qr_scan", "android": "https://dc.lft.to/lastmile_qr_scan"}}, {"name": "f19fa0c6d5ce0f53706391e99b6eeab0", "fusion_lat": 0.0, "type": "electric_bike", "lat": 38.95555133333333, "is_reserved": 0, "is_disabled": 0, "fusion_lon": 0.0, "bike_id": "f19fa0c6d5ce0f53706391e99b6eeab0", "lon": -77.07085366666666, "rental_uris": {"ios": "https://dc.lft.to/lastmile_qr_scan", "android": "https://dc.lft.to/lastmile_qr_scan"}}, {"name": "48827b30b955b1bbe38a9740858f6292", "fusion_lat": 0.0, "type": "electric_scooter", "lat": 38.88615716666666, "is_reserved": 0, "is_disabled": 0, "fusion_lon": 0.0, "bike_id": "48827b30b955b1bbe38a9740858f6292", "lon": -77.02000383333333, "rental_uris": {"ios": "https://dc.lft.to/lastmile_qr_scan", "android": "https://dc.lft.to/lastmile_qr_scan"}}, {"name": "537519cdc0a79f6f6a0b2cb3714f2728", "fusion_lat": 0.0, "type": "electric_scooter", "lat": 38.902062, "is_reserved": 0, "is_disabled": 0, "fusion_lon": 0.0, "bike_id": "537519cdc0a79f6f6a0b2cb3714f2728", "lon": -77.01541033333334, "rental_uris": {"ios": "https://dc.lft.to/lastmile_qr_scan", "android": "https://dc.lft.to/lastmile_qr_scan"}}, {"name": "ffe9a63b43d2512621929cc38bab4e3f", "fusion_lat": 0.0, "type": "electric_bike", "lat": 38.942712, "is_reserved": 0, "is_disabled": 0, "fusion_lon": 0.0, "bike_id": "ffe9a63b43d2512621929cc38bab4e3f", "lon": -76.98077033333334, "rental_uris": {"ios": "https://dc.lft.to/lastmile_qr_scan", "android": "https://dc.lft.to/lastmile_qr_scan"}}, {"name": "dc6d6756d333f31f55d6b16967b94cdc", "fusion_lat": 0.0, "type": "electric_scooter", "lat": 38.942260833333336, "is_reserved": 0, "is_disabled": 0, "fusion_lon": 0.0, "bike_id": "dc6d6756d333f31f55d6b16967b94cdc", "lon": -77.02161566666666, "rental_uris": {"ios": "https://dc.lft.to/lastmile_qr_scan", "android": "https://dc.lft.to/lastmile_qr_scan"}}, {"name": "3550e72a9b36b4de127aa42c159eaf6a", "fusion_lat": 0.0, "type": "electric_scooter", "lat": 38.92177916666667, "is_reserved": 0, "is_disabled": 0, "fusion_lon": 0.0, "bike_id": "3550e72a9b36b4de127aa42c159eaf6a", "lon": -77.026612, "rental_uris": {"ios": "https://dc.lft.to/lastmile_qr_scan", "android": "https://dc.lft.to/lastmile_qr_scan"}}, {"name": "215e2cab7577100746b765e2cd59b659", "fusion_lat": 0.0, "type": "electric_bike", "lat": 38.87476783333334, "is_reserved": 0, "is_disabled": 0, "fusion_lon": 0.0, "bike_id": "215e2cab7577100746b765e2cd59b659", "lon": -76.9652265, "rental_uris": {"ios": "https://dc.lft.to/lastmile_qr_scan", "android": "https://dc.lft.to/lastmile_qr_scan"}}, {"name": "a9759e8d52acc8ebb359c0f0d6c09d08", "fusion_lat": 0.0, "type": "electric_scooter", "lat": 38.892201166666666, "is_reserved": 0, "is_disabled": 0, "fusion_lon": 0.0, "bike_id": "a9759e8d52acc8ebb359c0f0d6c09d08", "lon": -77.02231666666667, "rental_uris": {"ios": "https://dc.lft.to/lastmile_qr_scan", "android": "https://dc.lft.to/lastmile_qr_scan"}}, {"name": "7e7c77583e200e413104647b734275bb", "fusion_lat": 0.0, "type": "electric_scooter", "lat": 38.91782633333333, "is_reserved": 0, "is_disabled": 0, "fusion_lon": 0.0, "bike_id": "7e7c77583e200e413104647b734275bb", "lon": -77.023374, "rental_uris": {"ios": "https://dc.lft.to/lastmile_qr_scan", "android": "https://dc.lft.to/lastmile_qr_scan"}}, {"name": "3347145dfa58028fcfbc43be129a629d", "fusion_lat": 0.0, "type": "electric_scooter", "lat": 38.88349866666667, "is_reserved": 0, "is_disabled": 0, "fusion_lon": 0.0, "bike_id": "3347145dfa58028fcfbc43be129a629d", "lon": -77.026262, "rental_uris": {"ios": "https://dc.lft.to/lastmile_qr_scan", "android": "https://dc.lft.to/lastmile_qr_scan"}}, {"name": "a46c3d202959786f76c5b0d279a8b049", "fusion_lat": 0.0, "type": "electric_scooter", "lat": 38.875744833333336, "is_reserved": 0, "is_disabled": 0, "fusion_lon": 0.0, "bike_id": "a46c3d202959786f76c5b0d279a8b049", "lon": -77.0105865, "rental_uris": {"ios": "https://dc.lft.to/lastmile_qr_scan", "android": "https://dc.lft.to/lastmile_qr_scan"}}, {"name": "6457758a183a0282eb8ecf695b3c743c", "fusion_lat": 0.0, "type": "electric_scooter", "lat": 38.91805933333333, "is_reserved": 0, "is_disabled": 0, "fusion_lon": 0.0, "bike_id": "6457758a183a0282eb8ecf695b3c743c", "lon": -77.02813933333333, "rental_uris": {"ios": "https://dc.lft.to/lastmile_qr_scan", "android": "https://dc.lft.to/lastmile_qr_scan"}}, {"name": "b99d35b54c70621fbf5111c568bfaedb", "fusion_lat": 0.0, "type": "electric_scooter", "lat": 38.90697433333333, "is_reserved": 0, "is_disabled": 0, "fusion_lon": 0.0, "bike_id": "b99d35b54c70621fbf5111c568bfaedb", "lon": -77.0239405, "rental_uris": {"ios": "https://dc.lft.to/lastmile_qr_scan", "android": "https://dc.lft.to/lastmile_qr_scan"}}, {"name": "15a663d7d52f3e83ea553f63ae896d50", "fusion_lat": 0.0, "type": "electric_bike", "lat": 38.8075605, "is_reserved": 0, "is_disabled": 0, "fusion_lon": 0.0, "bike_id": "15a663d7d52f3e83ea553f63ae896d50", "lon": -77.0945195, "rental_uris": {"ios": "https://dc.lft.to/lastmile_qr_scan", "android": "https://dc.lft.to/lastmile_qr_scan"}}, {"name": "19f8a20b4e0b66298424d3a03870035a", "fusion_lat": 0.0, "type": "electric_scooter", "lat": 38.9206505, "is_reserved": 0, "is_disabled": 0, "fusion_lon": 0.0, "bike_id": "19f8a20b4e0b66298424d3a03870035a", "lon": -77.04247183333334, "rental_uris": {"ios": "https://dc.lft.to/lastmile_qr_scan", "android": "https://dc.lft.to/lastmile_qr_scan"}}, {"name": "6fe42dfee64173db8e72b2a678c71b19", "fusion_lat": 0.0, "type": "electric_scooter", "lat": 38.9070635, "is_reserved": 0, "is_disabled": 0, "fusion_lon": 0.0, "bike_id": "6fe42dfee64173db8e72b2a678c71b19", "lon": -77.0345875, "rental_uris": {"ios": "https://dc.lft.to/lastmile_qr_scan", "android": "https://dc.lft.to/lastmile_qr_scan"}}, {"name": "1ec9d8d6f2ed15c773dd7f801ce9c382", "fusion_lat": 0.0, "type": "electric_scooter", "lat": 38.914131166666664, "is_reserved": 0, "is_disabled": 0, "fusion_lon": 0.0, "bike_id": "1ec9d8d6f2ed15c773dd7f801ce9c382", "lon": -77.03106183333334, "rental_uris": {"ios": "https://dc.lft.to/lastmile_qr_scan", "android": "https://dc.lft.to/lastmile_qr_scan"}}, {"name": "84f4a191129160c5cffc8e28ec7839ff", "fusion_lat": 0.0, "type": "electric_scooter", "lat": 38.91187883333333, "is_reserved": 0, "is_disabled": 0, "fusion_lon": 0.0, "bike_id": "84f4a191129160c5cffc8e28ec7839ff", "lon": -77.0448385, "rental_uris": {"ios": "https://dc.lft.to/lastmile_qr_scan", "android": "https://dc.lft.to/lastmile_qr_scan"}}, {"name": "3c6284d2b22468bfe89b05c943b993df", "fusion_lat": 0.0, "type": "electric_scooter", "lat": 38.91594283333333, "is_reserved": 0, "is_disabled": 0, "fusion_lon": 0.0, "bike_id": "3c6284d2b22468bfe89b05c943b993df", "lon": -77.04253566666667, "rental_uris": {"ios": "https://dc.lft.to/lastmile_qr_scan", "android": "https://dc.lft.to/lastmile_qr_scan"}}, {"name": "31ce1ba6709d2951d5d8cd764bdb78b1", "fusion_lat": 0.0, "type": "electric_scooter", "lat": 38.9275935, "is_reserved": 0, "is_disabled": 0, "fusion_lon": 0.0, "bike_id": "31ce1ba6709d2951d5d8cd764bdb78b1", "lon": -77.03273716666666, "rental_uris": {"ios": "https://dc.lft.to/lastmile_qr_scan", "android": "https://dc.lft.to/lastmile_qr_scan"}}, {"name": "dfab8135fe7b07c1da9eef613c7b23c5", "fusion_lat": 0.0, "type": "electric_scooter", "lat": 38.938655833333335, "is_reserved": 0, "is_disabled": 0, "fusion_lon": 0.0, "bike_id": "dfab8135fe7b07c1da9eef613c7b23c5", "lon": -77.02222083333334, "rental_uris": {"ios": "https://dc.lft.to/lastmile_qr_scan", "android": "https://dc.lft.to/lastmile_qr_scan"}}, {"name": "68961756a8dd61b4c55a3674d09f1b86", "fusion_lat": 0.0, "type": "electric_scooter", "lat": 38.876428833333335, "is_reserved": 0, "is_disabled": 0, "fusion_lon": 0.0, "bike_id": "68961756a8dd61b4c55a3674d09f1b86", "lon": -77.01484683333334, "rental_uris": {"ios": "https://dc.lft.to/lastmile_qr_scan", "android": "https://dc.lft.to/lastmile_qr_scan"}}, {"name": "230fe4d1009be434e32db5cb9c2ca344", "fusion_lat": 0.0, "type": "electric_scooter", "lat": 38.90027216666667, "is_reserved": 0, "is_disabled": 0, "fusion_lon": 0.0, "bike_id": "230fe4d1009be434e32db5cb9c2ca344", "lon": -76.99858183333333, "rental_uris": {"ios": "https://dc.lft.to/lastmile_qr_scan", "android": "https://dc.lft.to/lastmile_qr_scan"}}, {"name": "3114c3fa9fcf81b90463027c29f122ed", "fusion_lat": 0.0, "type": "electric_scooter", "lat": 38.91402866666667, "is_reserved": 0, "is_disabled": 0, "fusion_lon": 0.0, "bike_id": "3114c3fa9fcf81b90463027c29f122ed", "lon": -77.03949883333334, "rental_uris": {"ios": "https://dc.lft.to/lastmile_qr_scan", "android": "https://dc.lft.to/lastmile_qr_scan"}}, {"name": "8806ad1d7900c8e5da0908431b776890", "fusion_lat": 0.0, "type": "electric_scooter", "lat": 38.936329666666666, "is_reserved": 0, "is_disabled": 0, "fusion_lon": 0.0, "bike_id": "8806ad1d7900c8e5da0908431b776890", "lon": -77.0365925, "rental_uris": {"ios": "https://dc.lft.to/lastmile_qr_scan", "android": "https://dc.lft.to/lastmile_qr_scan"}}, {"name": "2c2b9ff191d532a18ab3702d40e8d428", "fusion_lat": 0.0, "type": "electric_scooter", "lat": 38.90581566666667, "is_reserved": 0, "is_disabled": 0, "fusion_lon": 0.0, "bike_id": "2c2b9ff191d532a18ab3702d40e8d428", "lon": -77.037147, "rental_uris": {"ios": "https://dc.lft.to/lastmile_qr_scan", "android": "https://dc.lft.to/lastmile_qr_scan"}}, {"name": "b5be87d7c28a9e76ddc3360e38c8b57e", "fusion_lat": 0.0, "type": "electric_scooter", "lat": 38.920585333333335, "is_reserved": 0, "is_disabled": 0, "fusion_lon": 0.0, "bike_id": "b5be87d7c28a9e76ddc3360e38c8b57e", "lon": -77.03468766666667, "rental_uris": {"ios": "https://dc.lft.to/lastmile_qr_scan", "android": "https://dc.lft.to/lastmile_qr_scan"}}, {"name": "22a240dbfcbad1ed313eedda8e2b467d", "fusion_lat": 0.0, "type": "electric_scooter", "lat": 38.868261333333336, "is_reserved": 0, "is_disabled": 0, "fusion_lon": 0.0, "bike_id": "22a240dbfcbad1ed313eedda8e2b467d", "lon": -76.98613066666667, "rental_uris": {"ios": "https://dc.lft.to/lastmile_qr_scan", "android": "https://dc.lft.to/lastmile_qr_scan"}}, {"name": "e8d41074523ca516dbbb8d00e1a88362", "fusion_lat": 0.0, "type": "electric_scooter", "lat": 38.9367215, "is_reserved": 0, "is_disabled": 0, "fusion_lon": 0.0, "bike_id": "e8d41074523ca516dbbb8d00e1a88362", "lon": -77.0363575, "rental_uris": {"ios": "https://dc.lft.to/lastmile_qr_scan", "android": "https://dc.lft.to/lastmile_qr_scan"}}, {"name": "40ea04e88f87288e5427817b88830750", "fusion_lat": 0.0, "type": "electric_scooter", "lat": 38.93106483333333, "is_reserved": 0, "is_disabled": 0, "fusion_lon": 0.0, "bike_id": "40ea04e88f87288e5427817b88830750", "lon": -77.0350805, "rental_uris": {"ios": "https://dc.lft.to/lastmile_qr_scan", "android": "https://dc.lft.to/lastmile_qr_scan"}}, {"name": "bc978e34980a9d6a6f121454f3f884f5", "fusion_lat": 0.0, "type": "electric_scooter", "lat": 38.86557466666667, "is_reserved": 0, "is_disabled": 0, "fusion_lon": 0.0, "bike_id": "bc978e34980a9d6a6f121454f3f884f5", "lon": -76.95993183333333, "rental_uris": {"ios": "https://dc.lft.to/lastmile_qr_scan", "android": "https://dc.lft.to/lastmile_qr_scan"}}, {"name": "cf9ed95e9004ffc6805f6e61fae8a6fb", "fusion_lat": 0.0, "type": "electric_scooter", "lat": 38.905163333333334, "is_reserved": 0, "is_disabled": 0, "fusion_lon": 0.0, "bike_id": "cf9ed95e9004ffc6805f6e61fae8a6fb", "lon": -77.06883883333333, "rental_uris": {"ios": "https://dc.lft.to/lastmile_qr_scan", "android": "https://dc.lft.to/lastmile_qr_scan"}}, {"name": "dd56842a5407ab8c9a154b65922dd058", "fusion_lat": 0.0, "type": "electric_scooter", "lat": 38.927759, "is_reserved": 0, "is_disabled": 0, "fusion_lon": 0.0, "bike_id": "dd56842a5407ab8c9a154b65922dd058", "lon": -77.027879, "rental_uris": {"ios": "https://dc.lft.to/lastmile_qr_scan", "android": "https://dc.lft.to/lastmile_qr_scan"}}, {"name": "8a91251154a6e472b53dc002f944d33c", "fusion_lat": 0.0, "type": "electric_scooter", "lat": 38.91124, "is_reserved": 0, "is_disabled": 0, "fusion_lon": 0.0, "bike_id": "8a91251154a6e472b53dc002f944d33c", "lon": -77.0477465, "rental_uris": {"ios": "https://dc.lft.to/lastmile_qr_scan", "android": "https://dc.lft.to/lastmile_qr_scan"}}, {"name": "e28f000b7a67292c26a43cdfe4fe67a1", "fusion_lat": 0.0, "type": "electric_scooter", "lat": 38.9270165, "is_reserved": 0, "is_disabled": 0, "fusion_lon": 0.0, "bike_id": "e28f000b7a67292c26a43cdfe4fe67a1", "lon": -77.03718066666667, "rental_uris": {"ios": "https://dc.lft.to/lastmile_qr_scan", "android": "https://dc.lft.to/lastmile_qr_scan"}}, {"name": "61a3637fa5c0bb0d9e68b3ad6c6c622d", "fusion_lat": 0.0, "type": "electric_scooter", "lat": 38.900277333333335, "is_reserved": 0, "is_disabled": 0, "fusion_lon": 0.0, "bike_id": "61a3637fa5c0bb0d9e68b3ad6c6c622d", "lon": -76.99858516666667, "rental_uris": {"ios": "https://dc.lft.to/lastmile_qr_scan", "android": "https://dc.lft.to/lastmile_qr_scan"}}, {"name": "753f8746b1b96a8646871e71fbd0887f", "fusion_lat": 0.0, "type": "electric_scooter", "lat": 38.9125815, "is_reserved": 0, "is_disabled": 0, "fusion_lon": 0.0, "bike_id": "753f8746b1b96a8646871e71fbd0887f", "lon": -77.038687, "rental_uris": {"ios": "https://dc.lft.to/lastmile_qr_scan", "android": "https://dc.lft.to/lastmile_qr_scan"}}, {"name": "f11d77b1a61b2e938ea0f62629d13c79", "fusion_lat": 0.0, "type": "electric_bike", "lat": 38.8531915, "is_reserved": 0, "is_disabled": 0, "fusion_lon": 0.0, "bike_id": "f11d77b1a61b2e938ea0f62629d13c79", "lon": -76.980137, "rental_uris": {"ios": "https://dc.lft.to/lastmile_qr_scan", "android": "https://dc.lft.to/lastmile_qr_scan"}}, {"name": "e6ed26ddd77f2b4eb8ae8a4d715b8dcc", "fusion_lat": 0.0, "type": "electric_scooter", "lat": 38.911076, "is_reserved": 0, "is_disabled": 0, "fusion_lon": 0.0, "bike_id": "e6ed26ddd77f2b4eb8ae8a4d715b8dcc", "lon": -77.02461716666667, "rental_uris": {"ios": "https://dc.lft.to/lastmile_qr_scan", "android": "https://dc.lft.to/lastmile_qr_scan"}}, {"name": "607aea2ace17d42b75f4a0e97198c1c6", "fusion_lat": 0.0, "type": "electric_scooter", "lat": 38.89619533333333, "is_reserved": 0, "is_disabled": 0, "fusion_lon": 0.0, "bike_id": "607aea2ace17d42b75f4a0e97198c1c6", "lon": -77.04464383333334, "rental_uris": {"ios": "https://dc.lft.to/lastmile_qr_scan", "android": "https://dc.lft.to/lastmile_qr_scan"}}, {"name": "2d53a5b68b3eccc97a9f1b633f985fe8", "fusion_lat": 0.0, "type": "electric_scooter", "lat": 38.902512, "is_reserved": 0, "is_disabled": 0, "fusion_lon": 0.0, "bike_id": "2d53a5b68b3eccc97a9f1b633f985fe8", "lon": -76.97700516666667, "rental_uris": {"ios": "https://dc.lft.to/lastmile_qr_scan", "android": "https://dc.lft.to/lastmile_qr_scan"}}, {"name": "b9ab43e8c82b6dbc3642b2325664eabc", "fusion_lat": 0.0, "type": "electric_scooter", "lat": 38.907972666666666, "is_reserved": 0, "is_disabled": 0, "fusion_lon": 0.0, "bike_id": "b9ab43e8c82b6dbc3642b2325664eabc", "lon": -77.0181985, "rental_uris": {"ios": "https://dc.lft.to/lastmile_qr_scan", "android": "https://dc.lft.to/lastmile_qr_scan"}}, {"name": "335ed6fbbf9e2328217c4baa07b38a23", "fusion_lat": 0.0, "type": "electric_scooter", "lat": 38.91147866666667, "is_reserved": 0, "is_disabled": 0, "fusion_lon": 0.0, "bike_id": "335ed6fbbf9e2328217c4baa07b38a23", "lon": -77.01690583333334, "rental_uris": {"ios": "https://dc.lft.to/lastmile_qr_scan", "android": "https://dc.lft.to/lastmile_qr_scan"}}, {"name": "261f2a3d4c84739c834591f0a0b8d361", "fusion_lat": 0.0, "type": "electric_scooter", "lat": 38.9282485, "is_reserved": 0, "is_disabled": 0, "fusion_lon": 0.0, "bike_id": "261f2a3d4c84739c834591f0a0b8d361", "lon": -77.0226325, "rental_uris": {"ios": "https://dc.lft.to/lastmile_qr_scan", "android": "https://dc.lft.to/lastmile_qr_scan"}}, {"name": "f3e7e1180bf3262902cc07daec23ea50", "fusion_lat": 0.0, "type": "electric_bike", "lat": 38.893407833333335, "is_reserved": 0, "is_disabled": 0, "fusion_lon": 0.0, "bike_id": "f3e7e1180bf3262902cc07daec23ea50", "lon": -76.99141866666666, "rental_uris": {"ios": "https://dc.lft.to/lastmile_qr_scan", "android": "https://dc.lft.to/lastmile_qr_scan"}}, {"name": "ed726cbbf957493d72675265e052b97a", "fusion_lat": 0.0, "type": "electric_scooter", "lat": 38.91287783333333, "is_reserved": 0, "is_disabled": 0, "fusion_lon": 0.0, "bike_id": "ed726cbbf957493d72675265e052b97a", "lon": -76.93750616666667, "rental_uris": {"ios": "https://dc.lft.to/lastmile_qr_scan", "android": "https://dc.lft.to/lastmile_qr_scan"}}, {"name": "4fd1cfa5f73ef471f7c7a6c47ea82bfe", "fusion_lat": 0.0, "type": "electric_scooter", "lat": 38.875741833333336, "is_reserved": 0, "is_disabled": 0, "fusion_lon": 0.0, "bike_id": "4fd1cfa5f73ef471f7c7a6c47ea82bfe", "lon": -77.01056866666667, "rental_uris": {"ios": "https://dc.lft.to/lastmile_qr_scan", "android": "https://dc.lft.to/lastmile_qr_scan"}}, {"name": "656c7f675e5e312cfbd3a71687ce1712", "fusion_lat": 0.0, "type": "electric_scooter", "lat": 38.92964883333333, "is_reserved": 0, "is_disabled": 0, "fusion_lon": 0.0, "bike_id": "656c7f675e5e312cfbd3a71687ce1712", "lon": -77.0411605, "rental_uris": {"ios": "https://dc.lft.to/lastmile_qr_scan", "android": "https://dc.lft.to/lastmile_qr_scan"}}, {"name": "a43e7676893f802465e1911b9de39f7a", "fusion_lat": 0.0, "type": "electric_scooter", "lat": 38.91402033333333, "is_reserved": 0, "is_disabled": 0, "fusion_lon": 0.0, "bike_id": "a43e7676893f802465e1911b9de39f7a", "lon": -77.03949733333333, "rental_uris": {"ios": "https://dc.lft.to/lastmile_qr_scan", "android": "https://dc.lft.to/lastmile_qr_scan"}}, {"name": "65b156abea6415514cf49b5f51c38c51", "fusion_lat": 0.0, "type": "electric_scooter", "lat": 38.91769816666667, "is_reserved": 0, "is_disabled": 0, "fusion_lon": 0.0, "bike_id": "65b156abea6415514cf49b5f51c38c51", "lon": -77.09676433333334, "rental_uris": {"ios": "https://dc.lft.to/lastmile_qr_scan", "android": "https://dc.lft.to/lastmile_qr_scan"}}, {"name": "4354572318d3ebbec59705a333783409", "fusion_lat": 0.0, "type": "electric_scooter", "lat": 38.9198255, "is_reserved": 0, "is_disabled": 0, "fusion_lon": 0.0, "bike_id": "4354572318d3ebbec59705a333783409", "lon": -77.02388133333334, "rental_uris": {"ios": "https://dc.lft.to/lastmile_qr_scan", "android": "https://dc.lft.to/lastmile_qr_scan"}}, {"name": "8faed733ecbecc1ed0eebf11be524128", "fusion_lat": 0.0, "type": "electric_scooter", "lat": 38.8665865, "is_reserved": 0, "is_disabled": 0, "fusion_lon": 0.0, "bike_id": "8faed733ecbecc1ed0eebf11be524128", "lon": -76.9888185, "rental_uris": {"ios": "https://dc.lft.to/lastmile_qr_scan", "android": "https://dc.lft.to/lastmile_qr_scan"}}, {"name": "869a0e3be73f9f8c6535f9a22133d91d", "fusion_lat": 0.0, "type": "electric_scooter", "lat": 38.900426, "is_reserved": 0, "is_disabled": 0, "fusion_lon": 0.0, "bike_id": "869a0e3be73f9f8c6535f9a22133d91d", "lon": -76.99141983333334, "rental_uris": {"ios": "https://dc.lft.to/lastmile_qr_scan", "android": "https://dc.lft.to/lastmile_qr_scan"}}, {"name": "5022a3cb4106e210f5171bad6922c723", "fusion_lat": 0.0, "type": "electric_scooter", "lat": 38.92376766666667, "is_reserved": 0, "is_disabled": 0, "fusion_lon": 0.0, "bike_id": "5022a3cb4106e210f5171bad6922c723", "lon": -77.04101666666666, "rental_uris": {"ios": "https://dc.lft.to/lastmile_qr_scan", "android": "https://dc.lft.to/lastmile_qr_scan"}}, {"name": "b7c80281883b2c8a74f15e08f5138b6f", "fusion_lat": 0.0, "type": "electric_scooter", "lat": 38.91833466666667, "is_reserved": 0, "is_disabled": 0, "fusion_lon": 0.0, "bike_id": "b7c80281883b2c8a74f15e08f5138b6f", "lon": -77.0230905, "rental_uris": {"ios": "https://dc.lft.to/lastmile_qr_scan", "android": "https://dc.lft.to/lastmile_qr_scan"}}, {"name": "d3b2cdeed7b728999d8fa9c94affbc4a", "fusion_lat": 0.0, "type": "electric_scooter", "lat": 38.86257633333334, "is_reserved": 0, "is_disabled": 0, "fusion_lon": 0.0, "bike_id": "d3b2cdeed7b728999d8fa9c94affbc4a", "lon": -76.98712116666667, "rental_uris": {"ios": "https://dc.lft.to/lastmile_qr_scan", "android": "https://dc.lft.to/lastmile_qr_scan"}}, {"name": "0b36b1a966aa36621731b605a5d7d942", "fusion_lat": 0.0, "type": "electric_scooter", "lat": 38.924742, "is_reserved": 0, "is_disabled": 0, "fusion_lon": 0.0, "bike_id": "0b36b1a966aa36621731b605a5d7d942", "lon": -77.03052166666667, "rental_uris": {"ios": "https://dc.lft.to/lastmile_qr_scan", "android": "https://dc.lft.to/lastmile_qr_scan"}}, {"name": "3ea0b0332b478d10d0ef44217f924c36", "fusion_lat": 0.0, "type": "electric_scooter", "lat": 38.90973183333333, "is_reserved": 0, "is_disabled": 0, "fusion_lon": 0.0, "bike_id": "3ea0b0332b478d10d0ef44217f924c36", "lon": -77.046741, "rental_uris": {"ios": "https://dc.lft.to/lastmile_qr_scan", "android": "https://dc.lft.to/lastmile_qr_scan"}}, {"name": "7949fb16e9a092df6335a63fb0b60dac", "fusion_lat": 0.0, "type": "electric_scooter", "lat": 38.9179345, "is_reserved": 0, "is_disabled": 0, "fusion_lon": 0.0, "bike_id": "7949fb16e9a092df6335a63fb0b60dac", "lon": -77.02709066666667, "rental_uris": {"ios": "https://dc.lft.to/lastmile_qr_scan", "android": "https://dc.lft.to/lastmile_qr_scan"}}, {"name": "ae4ebe0a54e7ea6349c439b78a3f764e", "fusion_lat": 0.0, "type": "electric_scooter", "lat": 38.912053666666665, "is_reserved": 0, "is_disabled": 0, "fusion_lon": 0.0, "bike_id": "ae4ebe0a54e7ea6349c439b78a3f764e", "lon": -77.03852183333333, "rental_uris": {"ios": "https://dc.lft.to/lastmile_qr_scan", "android": "https://dc.lft.to/lastmile_qr_scan"}}, {"name": "48ffa8694fd3c3d53dabfad3d952210e", "fusion_lat": 0.0, "type": "electric_scooter", "lat": 38.9214035, "is_reserved": 0, "is_disabled": 0, "fusion_lon": 0.0, "bike_id": "48ffa8694fd3c3d53dabfad3d952210e", "lon": -77.04567116666666, "rental_uris": {"ios": "https://dc.lft.to/lastmile_qr_scan", "android": "https://dc.lft.to/lastmile_qr_scan"}}, {"name": "5483ab940b707ee503087d2f316bae3b", "fusion_lat": 0.0, "type": "electric_scooter", "lat": 38.921010833333334, "is_reserved": 0, "is_disabled": 0, "fusion_lon": 0.0, "bike_id": "5483ab940b707ee503087d2f316bae3b", "lon": -77.05471916666667, "rental_uris": {"ios": "https://dc.lft.to/lastmile_qr_scan", "android": "https://dc.lft.to/lastmile_qr_scan"}}, {"name": "6a6c5f3a4f705af4b2748ba39995ae4a", "fusion_lat": 0.0, "type": "electric_scooter", "lat": 38.88218616666666, "is_reserved": 0, "is_disabled": 0, "fusion_lon": 0.0, "bike_id": "6a6c5f3a4f705af4b2748ba39995ae4a", "lon": -76.94172866666666, "rental_uris": {"ios": "https://dc.lft.to/lastmile_qr_scan", "android": "https://dc.lft.to/lastmile_qr_scan"}}, {"name": "6f32bf93cb864413fbf934ee229b377b", "fusion_lat": 0.0, "type": "electric_scooter", "lat": 38.92003866666667, "is_reserved": 0, "is_disabled": 0, "fusion_lon": 0.0, "bike_id": "6f32bf93cb864413fbf934ee229b377b", "lon": -77.03177216666667, "rental_uris": {"ios": "https://dc.lft.to/lastmile_qr_scan", "android": "https://dc.lft.to/lastmile_qr_scan"}}, {"name": "0a0954995138f0431b3add794b80597a", "fusion_lat": 0.0, "type": "electric_scooter", "lat": 38.90559366666667, "is_reserved": 0, "is_disabled": 0, "fusion_lon": 0.0, "bike_id": "0a0954995138f0431b3add794b80597a", "lon": -77.02219333333333, "rental_uris": {"ios": "https://dc.lft.to/lastmile_qr_scan", "android": "https://dc.lft.to/lastmile_qr_scan"}}, {"name": "dbb177252cdd1b3380eb239c1dd45165", "fusion_lat": 0.0, "type": "electric_scooter", "lat": 38.873574166666664, "is_reserved": 0, "is_disabled": 0, "fusion_lon": 0.0, "bike_id": "dbb177252cdd1b3380eb239c1dd45165", "lon": -77.0009225, "rental_uris": {"ios": "https://dc.lft.to/lastmile_qr_scan", "android": "https://dc.lft.to/lastmile_qr_scan"}}, {"name": "3b1e02f423ac6e1f6c85d16f5cffc176", "fusion_lat": 0.0, "type": "electric_bike", "lat": 38.94596383333333, "is_reserved": 0, "is_disabled": 0, "fusion_lon": 0.0, "bike_id": "3b1e02f423ac6e1f6c85d16f5cffc176", "lon": -77.34405583333333, "rental_uris": {"ios": "https://dc.lft.to/lastmile_qr_scan", "android": "https://dc.lft.to/lastmile_qr_scan"}}, {"name": "4c4e3f96bb10933b5b3094c9a5971ff5", "fusion_lat": 0.0, "type": "electric_scooter", "lat": 38.89957416666667, "is_reserved": 0, "is_disabled": 0, "fusion_lon": 0.0, "bike_id": "4c4e3f96bb10933b5b3094c9a5971ff5", "lon": -76.99484916666667, "rental_uris": {"ios": "https://dc.lft.to/lastmile_qr_scan", "android": "https://dc.lft.to/lastmile_qr_scan"}}, {"name": "17a6b8b0662d2651288f200a2f9a5ede", "fusion_lat": 0.0, "type": "electric_scooter", "lat": 38.88782466666667, "is_reserved": 0, "is_disabled": 0, "fusion_lon": 0.0, "bike_id": "17a6b8b0662d2651288f200a2f9a5ede", "lon": -76.95529383333333, "rental_uris": {"ios": "https://dc.lft.to/lastmile_qr_scan", "android": "https://dc.lft.to/lastmile_qr_scan"}}, {"name": "087952b7f8bae726d69be8b8c8d11458", "fusion_lat": 0.0, "type": "electric_scooter", "lat": 38.879200833333336, "is_reserved": 0, "is_disabled": 0, "fusion_lon": 0.0, "bike_id": "087952b7f8bae726d69be8b8c8d11458", "lon": -77.02103533333333, "rental_uris": {"ios": "https://dc.lft.to/lastmile_qr_scan", "android": "https://dc.lft.to/lastmile_qr_scan"}}, {"name": "516cf620dd0b94f685fcf113e9ca86dd", "fusion_lat": 0.0, "type": "electric_scooter", "lat": 38.92492983333333, "is_reserved": 0, "is_disabled": 0, "fusion_lon": 0.0, "bike_id": "516cf620dd0b94f685fcf113e9ca86dd", "lon": -77.05223366666667, "rental_uris": {"ios": "https://dc.lft.to/lastmile_qr_scan", "android": "https://dc.lft.to/lastmile_qr_scan"}}, {"name": "a067cd9b5f8274bf96f4545fb383e245", "fusion_lat": 0.0, "type": "electric_scooter", "lat": 38.9056385, "is_reserved": 0, "is_disabled": 0, "fusion_lon": 0.0, "bike_id": "a067cd9b5f8274bf96f4545fb383e245", "lon": -77.05715316666667, "rental_uris": {"ios": "https://dc.lft.to/lastmile_qr_scan", "android": "https://dc.lft.to/lastmile_qr_scan"}}, {"name": "16929e6c22ff496d7f979cde0733f670", "fusion_lat": 0.0, "type": "electric_scooter", "lat": 38.93328733333333, "is_reserved": 0, "is_disabled": 0, "fusion_lon": 0.0, "bike_id": "16929e6c22ff496d7f979cde0733f670", "lon": -77.081865, "rental_uris": {"ios": "https://dc.lft.to/lastmile_qr_scan", "android": "https://dc.lft.to/lastmile_qr_scan"}}, {"name": "7213844e426d816876656d74e29a319c", "fusion_lat": 0.0, "type": "electric_scooter", "lat": 38.89748566666667, "is_reserved": 0, "is_disabled": 0, "fusion_lon": 0.0, "bike_id": "7213844e426d816876656d74e29a319c", "lon": -77.0475375, "rental_uris": {"ios": "https://dc.lft.to/lastmile_qr_scan", "android": "https://dc.lft.to/lastmile_qr_scan"}}, {"name": "96c37fd2a810282a2a37f3009e77e4e1", "fusion_lat": 0.0, "type": "electric_scooter", "lat": 38.86919433333333, "is_reserved": 0, "is_disabled": 0, "fusion_lon": 0.0, "bike_id": "96c37fd2a810282a2a37f3009e77e4e1", "lon": -76.9750415, "rental_uris": {"ios": "https://dc.lft.to/lastmile_qr_scan", "android": "https://dc.lft.to/lastmile_qr_scan"}}, {"name": "44dd7c61b6c83b2db2dbfcef5f79c13e", "fusion_lat": 0.0, "type": "electric_scooter", "lat": 38.90955, "is_reserved": 0, "is_disabled": 0, "fusion_lon": 0.0, "bike_id": "44dd7c61b6c83b2db2dbfcef5f79c13e", "lon": -77.03856266666666, "rental_uris": {"ios": "https://dc.lft.to/lastmile_qr_scan", "android": "https://dc.lft.to/lastmile_qr_scan"}}, {"name": "f618a34dedea2c45857436176a9292a6", "fusion_lat": 0.0, "type": "electric_scooter", "lat": 38.92892666666667, "is_reserved": 0, "is_disabled": 0, "fusion_lon": 0.0, "bike_id": "f618a34dedea2c45857436176a9292a6", "lon": -77.00528766666666, "rental_uris": {"ios": "https://dc.lft.to/lastmile_qr_scan", "android": "https://dc.lft.to/lastmile_qr_scan"}}, {"name": "46a05d20d729ab081259eda9c06e0bc9", "fusion_lat": 0.0, "type": "electric_scooter", "lat": 38.92376466666666, "is_reserved": 0, "is_disabled": 0, "fusion_lon": 0.0, "bike_id": "46a05d20d729ab081259eda9c06e0bc9", "lon": -76.99021333333333, "rental_uris": {"ios": "https://dc.lft.to/lastmile_qr_scan", "android": "https://dc.lft.to/lastmile_qr_scan"}}, {"name": "d58ab3252adbda2c549451ad1c903d52", "fusion_lat": 0.0, "type": "electric_scooter", "lat": 38.921479, "is_reserved": 0, "is_disabled": 0, "fusion_lon": 0.0, "bike_id": "d58ab3252adbda2c549451ad1c903d52", "lon": -77.0451355, "rental_uris": {"ios": "https://dc.lft.to/lastmile_qr_scan", "android": "https://dc.lft.to/lastmile_qr_scan"}}, {"name": "6658b4f2544a34231b2573d452e3c234", "fusion_lat": 0.0, "type": "electric_scooter", "lat": 38.90520033333333, "is_reserved": 0, "is_disabled": 0, "fusion_lon": 0.0, "bike_id": "6658b4f2544a34231b2573d452e3c234", "lon": -77.02972166666666, "rental_uris": {"ios": "https://dc.lft.to/lastmile_qr_scan", "android": "https://dc.lft.to/lastmile_qr_scan"}}, {"name": "6a32041d5f9f9e1a21ea079b5339f413", "fusion_lat": 0.0, "type": "electric_scooter", "lat": 38.92251, "is_reserved": 0, "is_disabled": 0, "fusion_lon": 0.0, "bike_id": "6a32041d5f9f9e1a21ea079b5339f413", "lon": -77.02810566666666, "rental_uris": {"ios": "https://dc.lft.to/lastmile_qr_scan", "android": "https://dc.lft.to/lastmile_qr_scan"}}, {"name": "b894f285b914188d014aebdd87f89611", "fusion_lat": 0.0, "type": "electric_scooter", "lat": 38.917098333333335, "is_reserved": 0, "is_disabled": 0, "fusion_lon": 0.0, "bike_id": "b894f285b914188d014aebdd87f89611", "lon": -77.0314225, "rental_uris": {"ios": "https://dc.lft.to/lastmile_qr_scan", "android": "https://dc.lft.to/lastmile_qr_scan"}}, {"name": "18604217d3b7292dd66b769896e67616", "fusion_lat": 0.0, "type": "electric_scooter", "lat": 38.912663, "is_reserved": 0, "is_disabled": 0, "fusion_lon": 0.0, "bike_id": "18604217d3b7292dd66b769896e67616", "lon": -77.0386975, "rental_uris": {"ios": "https://dc.lft.to/lastmile_qr_scan", "android": "https://dc.lft.to/lastmile_qr_scan"}}, {"name": "b64efe66b944ba0bf2990235646e0af4", "fusion_lat": 0.0, "type": "electric_scooter", "lat": 38.914912666666666, "is_reserved": 0, "is_disabled": 0, "fusion_lon": 0.0, "bike_id": "b64efe66b944ba0bf2990235646e0af4", "lon": -77.0749105, "rental_uris": {"ios": "https://dc.lft.to/lastmile_qr_scan", "android": "https://dc.lft.to/lastmile_qr_scan"}}, {"name": "178ba32f3388a92698a04252ae3588c8", "fusion_lat": 0.0, "type": "electric_bike", "lat": 38.85244766666667, "is_reserved": 0, "is_disabled": 0, "fusion_lon": 0.0, "bike_id": "178ba32f3388a92698a04252ae3588c8", "lon": -77.11433133333334, "rental_uris": {"ios": "https://dc.lft.to/lastmile_qr_scan", "android": "https://dc.lft.to/lastmile_qr_scan"}}, {"name": "3a432b25143d5a69c265205f788bd0fb", "fusion_lat": 0.0, "type": "electric_scooter", "lat": 38.922216666666664, "is_reserved": 0, "is_disabled": 0, "fusion_lon": 0.0, "bike_id": "3a432b25143d5a69c265205f788bd0fb", "lon": -77.02113383333334, "rental_uris": {"ios": "https://dc.lft.to/lastmile_qr_scan", "android": "https://dc.lft.to/lastmile_qr_scan"}}, {"name": "61491e2bc7a1f7e238fb0b84f5584cb3", "fusion_lat": 0.0, "type": "electric_scooter", "lat": 38.911954, "is_reserved": 0, "is_disabled": 0, "fusion_lon": 0.0, "bike_id": "61491e2bc7a1f7e238fb0b84f5584cb3", "lon": -77.032177, "rental_uris": {"ios": "https://dc.lft.to/lastmile_qr_scan", "android": "https://dc.lft.to/lastmile_qr_scan"}}, {"name": "5fd0fbf28cd0bfa13335ac7cdab3d647", "fusion_lat": 0.0, "type": "electric_scooter", "lat": 38.917958666666664, "is_reserved": 0, "is_disabled": 0, "fusion_lon": 0.0, "bike_id": "5fd0fbf28cd0bfa13335ac7cdab3d647", "lon": -77.0402175, "rental_uris": {"ios": "https://dc.lft.to/lastmile_qr_scan", "android": "https://dc.lft.to/lastmile_qr_scan"}}, {"name": "3ac72cde05ddbe9148a6d74d294ade47", "fusion_lat": 0.0, "type": "electric_scooter", "lat": 38.90573633333333, "is_reserved": 0, "is_disabled": 0, "fusion_lon": 0.0, "bike_id": "3ac72cde05ddbe9148a6d74d294ade47", "lon": -77.00596033333333, "rental_uris": {"ios": "https://dc.lft.to/lastmile_qr_scan", "android": "https://dc.lft.to/lastmile_qr_scan"}}, {"name": "79df579842c5cba27f7c50f4024dc021", "fusion_lat": 0.0, "type": "electric_scooter", "lat": 38.89221233333333, "is_reserved": 0, "is_disabled": 0, "fusion_lon": 0.0, "bike_id": "79df579842c5cba27f7c50f4024dc021", "lon": -77.02234116666666, "rental_uris": {"ios": "https://dc.lft.to/lastmile_qr_scan", "android": "https://dc.lft.to/lastmile_qr_scan"}}, {"name": "aec1807c4bc2a63d5860bd99d2902162", "fusion_lat": 0.0, "type": "electric_scooter", "lat": 38.91814216666667, "is_reserved": 0, "is_disabled": 0, "fusion_lon": 0.0, "bike_id": "aec1807c4bc2a63d5860bd99d2902162", "lon": -77.03212616666667, "rental_uris": {"ios": "https://dc.lft.to/lastmile_qr_scan", "android": "https://dc.lft.to/lastmile_qr_scan"}}, {"name": "160577a419ebc4000dcc461f9d9ea842", "fusion_lat": 0.0, "type": "electric_bike", "lat": 38.97081033333333, "is_reserved": 0, "is_disabled": 0, "fusion_lon": 0.0, "bike_id": "160577a419ebc4000dcc461f9d9ea842", "lon": -76.93626483333334, "rental_uris": {"ios": "https://dc.lft.to/lastmile_qr_scan", "android": "https://dc.lft.to/lastmile_qr_scan"}}, {"name": "eb8cd638eadbc648a35d8a74cbed0e0c", "fusion_lat": 0.0, "type": "electric_bike", "lat": 38.9028945, "is_reserved": 0, "is_disabled": 0, "fusion_lon": 0.0, "bike_id": "eb8cd638eadbc648a35d8a74cbed0e0c", "lon": -76.98087033333333, "rental_uris": {"ios": "https://dc.lft.to/lastmile_qr_scan", "android": "https://dc.lft.to/lastmile_qr_scan"}}, {"name": "c880d4f19cff54a9525f0d6bc6f9051e", "fusion_lat": 0.0, "type": "electric_scooter", "lat": 38.934275666666665, "is_reserved": 0, "is_disabled": 0, "fusion_lon": 0.0, "bike_id": "c880d4f19cff54a9525f0d6bc6f9051e", "lon": -77.040056, "rental_uris": {"ios": "https://dc.lft.to/lastmile_qr_scan", "android": "https://dc.lft.to/lastmile_qr_scan"}}, {"name": "d0f65896b4486f718c0170ba16fdedd0", "fusion_lat": 0.0, "type": "electric_scooter", "lat": 38.907311166666666, "is_reserved": 0, "is_disabled": 0, "fusion_lon": 0.0, "bike_id": "d0f65896b4486f718c0170ba16fdedd0", "lon": -77.0345715, "rental_uris": {"ios": "https://dc.lft.to/lastmile_qr_scan", "android": "https://dc.lft.to/lastmile_qr_scan"}}, {"name": "dec3a1f8e682429423cd1c6ce4d1550f", "fusion_lat": 0.0, "type": "electric_scooter", "lat": 38.93102583333334, "is_reserved": 0, "is_disabled": 0, "fusion_lon": 0.0, "bike_id": "dec3a1f8e682429423cd1c6ce4d1550f", "lon": -77.02420966666666, "rental_uris": {"ios": "https://dc.lft.to/lastmile_qr_scan", "android": "https://dc.lft.to/lastmile_qr_scan"}}, {"name": "2381a6e24395b4142ee1fde08766f53d", "fusion_lat": 0.0, "type": "electric_scooter", "lat": 38.9180125, "is_reserved": 0, "is_disabled": 0, "fusion_lon": 0.0, "bike_id": "2381a6e24395b4142ee1fde08766f53d", "lon": -77.02816633333333, "rental_uris": {"ios": "https://dc.lft.to/lastmile_qr_scan", "android": "https://dc.lft.to/lastmile_qr_scan"}}, {"name": "5b1922f17d49da35afffd164e5a3d99b", "fusion_lat": 0.0, "type": "electric_scooter", "lat": 38.91818266666667, "is_reserved": 0, "is_disabled": 0, "fusion_lon": 0.0, "bike_id": "5b1922f17d49da35afffd164e5a3d99b", "lon": -77.04019033333333, "rental_uris": {"ios": "https://dc.lft.to/lastmile_qr_scan", "android": "https://dc.lft.to/lastmile_qr_scan"}}, {"name": "a24b1baa7281b032ebd17e50041d7010", "fusion_lat": 0.0, "type": "electric_scooter", "lat": 38.87468166666667, "is_reserved": 0, "is_disabled": 0, "fusion_lon": 0.0, "bike_id": "a24b1baa7281b032ebd17e50041d7010", "lon": -77.0020725, "rental_uris": {"ios": "https://dc.lft.to/lastmile_qr_scan", "android": "https://dc.lft.to/lastmile_qr_scan"}}, {"name": "17b07664684beb56f1f88632b1b5baeb", "fusion_lat": 0.0, "type": "electric_scooter", "lat": 38.901399166666664, "is_reserved": 0, "is_disabled": 0, "fusion_lon": 0.0, "bike_id": "17b07664684beb56f1f88632b1b5baeb", "lon": -76.99971266666667, "rental_uris": {"ios": "https://dc.lft.to/lastmile_qr_scan", "android": "https://dc.lft.to/lastmile_qr_scan"}}, {"name": "c744dd2b5c4cd2104eb91991a3a99dc4", "fusion_lat": 0.0, "type": "electric_bike", "lat": 38.97323816666667, "is_reserved": 0, "is_disabled": 0, "fusion_lon": 0.0, "bike_id": "c744dd2b5c4cd2104eb91991a3a99dc4", "lon": -77.02154183333333, "rental_uris": {"ios": "https://dc.lft.to/lastmile_qr_scan", "android": "https://dc.lft.to/lastmile_qr_scan"}}, {"name": "34e4b0bebc3a07e2f0e2c69f87ac54c7", "fusion_lat": 0.0, "type": "electric_bike", "lat": 38.83812416666667, "is_reserved": 0, "is_disabled": 0, "fusion_lon": 0.0, "bike_id": "34e4b0bebc3a07e2f0e2c69f87ac54c7", "lon": -77.09524633333334, "rental_uris": {"ios": "https://dc.lft.to/lastmile_qr_scan", "android": "https://dc.lft.to/lastmile_qr_scan"}}, {"name": "17503894bfefa9c40e91f58105e00e22", "fusion_lat": 0.0, "type": "electric_scooter", "lat": 38.899528833333335, "is_reserved": 0, "is_disabled": 0, "fusion_lon": 0.0, "bike_id": "17503894bfefa9c40e91f58105e00e22", "lon": -77.01779983333333, "rental_uris": {"ios": "https://dc.lft.to/lastmile_qr_scan", "android": "https://dc.lft.to/lastmile_qr_scan"}}, {"name": "bcf98a8879636b1a4166ce789b28be08", "fusion_lat": 0.0, "type": "electric_scooter", "lat": 38.90054766666667, "is_reserved": 0, "is_disabled": 0, "fusion_lon": 0.0, "bike_id": "bcf98a8879636b1a4166ce789b28be08", "lon": -77.0115245, "rental_uris": {"ios": "https://dc.lft.to/lastmile_qr_scan", "android": "https://dc.lft.to/lastmile_qr_scan"}}, {"name": "6f33070a796e4c909e78385153602db9", "fusion_lat": 0.0, "type": "electric_bike", "lat": 38.909729666666664, "is_reserved": 0, "is_disabled": 0, "fusion_lon": 0.0, "bike_id": "6f33070a796e4c909e78385153602db9", "lon": -77.0882345, "rental_uris": {"ios": "https://dc.lft.to/lastmile_qr_scan", "android": "https://dc.lft.to/lastmile_qr_scan"}}, {"name": "6e471a9116755f3fd7c82ada0ad30431", "fusion_lat": 0.0, "type": "electric_scooter", "lat": 38.911842166666666, "is_reserved": 0, "is_disabled": 0, "fusion_lon": 0.0, "bike_id": "6e471a9116755f3fd7c82ada0ad30431", "lon": -77.05963133333333, "rental_uris": {"ios": "https://dc.lft.to/lastmile_qr_scan", "android": "https://dc.lft.to/lastmile_qr_scan"}}, {"name": "8a44a27f74891adcc22b9f5999ec044e", "fusion_lat": 0.0, "type": "electric_scooter", "lat": 38.876267666666664, "is_reserved": 0, "is_disabled": 0, "fusion_lon": 0.0, "bike_id": "8a44a27f74891adcc22b9f5999ec044e", "lon": -76.965286, "rental_uris": {"ios": "https://dc.lft.to/lastmile_qr_scan", "android": "https://dc.lft.to/lastmile_qr_scan"}}, {"name": "25dbaf01bf11ec944119c79277891c82", "fusion_lat": 0.0, "type": "electric_scooter", "lat": 38.915660833333334, "is_reserved": 0, "is_disabled": 0, "fusion_lon": 0.0, "bike_id": "25dbaf01bf11ec944119c79277891c82", "lon": -77.04880466666667, "rental_uris": {"ios": "https://dc.lft.to/lastmile_qr_scan", "android": "https://dc.lft.to/lastmile_qr_scan"}}, {"name": "740f961fd504a98cc397ab78c2e518de", "fusion_lat": 0.0, "type": "electric_scooter", "lat": 38.91830133333333, "is_reserved": 0, "is_disabled": 0, "fusion_lon": 0.0, "bike_id": "740f961fd504a98cc397ab78c2e518de", "lon": -77.02703366666667, "rental_uris": {"ios": "https://dc.lft.to/lastmile_qr_scan", "android": "https://dc.lft.to/lastmile_qr_scan"}}, {"name": "b1f3ad6d4410bdea7af96b26d6b5c83f", "fusion_lat": 0.0, "type": "electric_scooter", "lat": 38.91690233333333, "is_reserved": 0, "is_disabled": 0, "fusion_lon": 0.0, "bike_id": "b1f3ad6d4410bdea7af96b26d6b5c83f", "lon": -77.02599966666666, "rental_uris": {"ios": "https://dc.lft.to/lastmile_qr_scan", "android": "https://dc.lft.to/lastmile_qr_scan"}}, {"name": "6fb15ff2be72d5c449ff79683a7be966", "fusion_lat": 0.0, "type": "electric_bike", "lat": 38.938581666666664, "is_reserved": 0, "is_disabled": 0, "fusion_lon": 0.0, "bike_id": "6fb15ff2be72d5c449ff79683a7be966", "lon": -77.024742, "rental_uris": {"ios": "https://dc.lft.to/lastmile_qr_scan", "android": "https://dc.lft.to/lastmile_qr_scan"}}, {"name": "25026ae2598a44c551b08394ab26f132", "fusion_lat": 0.0, "type": "electric_scooter", "lat": 38.916281, "is_reserved": 0, "is_disabled": 0, "fusion_lon": 0.0, "bike_id": "25026ae2598a44c551b08394ab26f132", "lon": -77.00110483333333, "rental_uris": {"ios": "https://dc.lft.to/lastmile_qr_scan", "android": "https://dc.lft.to/lastmile_qr_scan"}}, {"name": "ebb46b8f022b3e25f11a791ea2d91e08", "fusion_lat": 0.0, "type": "electric_scooter", "lat": 38.92341066666667, "is_reserved": 0, "is_disabled": 0, "fusion_lon": 0.0, "bike_id": "ebb46b8f022b3e25f11a791ea2d91e08", "lon": -77.036578, "rental_uris": {"ios": "https://dc.lft.to/lastmile_qr_scan", "android": "https://dc.lft.to/lastmile_qr_scan"}}, {"name": "f6d34240a75ca863c85f62c661f545de", "fusion_lat": 0.0, "type": "electric_scooter", "lat": 38.928315, "is_reserved": 0, "is_disabled": 0, "fusion_lon": 0.0, "bike_id": "f6d34240a75ca863c85f62c661f545de", "lon": -77.037081, "rental_uris": {"ios": "https://dc.lft.to/lastmile_qr_scan", "android": "https://dc.lft.to/lastmile_qr_scan"}}, {"name": "b46317c8f594b5088d6e91a86f0bbe3d", "fusion_lat": 0.0, "type": "electric_scooter", "lat": 38.93265383333333, "is_reserved": 0, "is_disabled": 0, "fusion_lon": 0.0, "bike_id": "b46317c8f594b5088d6e91a86f0bbe3d", "lon": -77.03894216666667, "rental_uris": {"ios": "https://dc.lft.to/lastmile_qr_scan", "android": "https://dc.lft.to/lastmile_qr_scan"}}, {"name": "4223146b3de6493cc33544990ffc3166", "fusion_lat": 0.0, "type": "electric_bike", "lat": 38.903250666666665, "is_reserved": 0, "is_disabled": 0, "fusion_lon": 0.0, "bike_id": "4223146b3de6493cc33544990ffc3166", "lon": -76.97322233333334, "rental_uris": {"ios": "https://dc.lft.to/lastmile_qr_scan", "android": "https://dc.lft.to/lastmile_qr_scan"}}, {"name": "d31bb318545e34704b517af64332a33a", "fusion_lat": 0.0, "type": "electric_scooter", "lat": 38.89994883333333, "is_reserved": 0, "is_disabled": 0, "fusion_lon": 0.0, "bike_id": "d31bb318545e34704b517af64332a33a", "lon": -76.99624933333334, "rental_uris": {"ios": "https://dc.lft.to/lastmile_qr_scan", "android": "https://dc.lft.to/lastmile_qr_scan"}}, {"name": "c2e76d04f9f556d6974a7d4f2e21fbe0", "fusion_lat": 0.0, "type": "electric_scooter", "lat": 38.915536, "is_reserved": 0, "is_disabled": 0, "fusion_lon": 0.0, "bike_id": "c2e76d04f9f556d6974a7d4f2e21fbe0", "lon": -77.031814, "rental_uris": {"ios": "https://dc.lft.to/lastmile_qr_scan", "android": "https://dc.lft.to/lastmile_qr_scan"}}, {"name": "167a387a2348e2874f8d0dbeb7b26914", "fusion_lat": 0.0, "type": "electric_scooter", "lat": 38.9065315, "is_reserved": 0, "is_disabled": 0, "fusion_lon": 0.0, "bike_id": "167a387a2348e2874f8d0dbeb7b26914", "lon": -77.01147066666667, "rental_uris": {"ios": "https://dc.lft.to/lastmile_qr_scan", "android": "https://dc.lft.to/lastmile_qr_scan"}}, {"name": "23f5f568a1e9478a84e8c36f7275b8f2", "fusion_lat": 0.0, "type": "electric_scooter", "lat": 38.91252716666666, "is_reserved": 0, "is_disabled": 0, "fusion_lon": 0.0, "bike_id": "23f5f568a1e9478a84e8c36f7275b8f2", "lon": -77.01437933333334, "rental_uris": {"ios": "https://dc.lft.to/lastmile_qr_scan", "android": "https://dc.lft.to/lastmile_qr_scan"}}, {"name": "0cf15d6b43e9b16ac9ca840eafc2f240", "fusion_lat": 0.0, "type": "electric_scooter", "lat": 38.900394, "is_reserved": 0, "is_disabled": 0, "fusion_lon": 0.0, "bike_id": "0cf15d6b43e9b16ac9ca840eafc2f240", "lon": -77.001978, "rental_uris": {"ios": "https://dc.lft.to/lastmile_qr_scan", "android": "https://dc.lft.to/lastmile_qr_scan"}}, {"name": "3e547751042ddd0370d32cbc1fa84929", "fusion_lat": 0.0, "type": "electric_bike", "lat": 38.959564666666665, "is_reserved": 0, "is_disabled": 0, "fusion_lon": 0.0, "bike_id": "3e547751042ddd0370d32cbc1fa84929", "lon": -77.10088483333334, "rental_uris": {"ios": "https://dc.lft.to/lastmile_qr_scan", "android": "https://dc.lft.to/lastmile_qr_scan"}}, {"name": "ff8225343ea67bf05168198891e74694", "fusion_lat": 0.0, "type": "electric_scooter", "lat": 38.901554, "is_reserved": 0, "is_disabled": 0, "fusion_lon": 0.0, "bike_id": "ff8225343ea67bf05168198891e74694", "lon": -77.03990016666667, "rental_uris": {"ios": "https://dc.lft.to/lastmile_qr_scan", "android": "https://dc.lft.to/lastmile_qr_scan"}}, {"name": "82e93b6b77f7c13b96f766255019d64b", "fusion_lat": 0.0, "type": "electric_bike", "lat": 38.91187566666667, "is_reserved": 0, "is_disabled": 0, "fusion_lon": 0.0, "bike_id": "82e93b6b77f7c13b96f766255019d64b", "lon": -77.00199766666667, "rental_uris": {"ios": "https://dc.lft.to/lastmile_qr_scan", "android": "https://dc.lft.to/lastmile_qr_scan"}}, {"name": "d1c87dd7f462a37a93f17d0a83b5349f", "fusion_lat": 0.0, "type": "electric_scooter", "lat": 38.918493166666664, "is_reserved": 0, "is_disabled": 0, "fusion_lon": 0.0, "bike_id": "d1c87dd7f462a37a93f17d0a83b5349f", "lon": -77.02605583333333, "rental_uris": {"ios": "https://dc.lft.to/lastmile_qr_scan", "android": "https://dc.lft.to/lastmile_qr_scan"}}, {"name": "7f0eeedecede30f0645d0042cdf67950", "fusion_lat": 0.0, "type": "electric_bike", "lat": 38.857893833333335, "is_reserved": 0, "is_disabled": 0, "fusion_lon": 0.0, "bike_id": "7f0eeedecede30f0645d0042cdf67950", "lon": -76.98743866666666, "rental_uris": {"ios": "https://dc.lft.to/lastmile_qr_scan", "android": "https://dc.lft.to/lastmile_qr_scan"}}, {"name": "b684931c9c68f5b0f0d43a23d991f207", "fusion_lat": 0.0, "type": "electric_scooter", "lat": 38.845408, "is_reserved": 0, "is_disabled": 0, "fusion_lon": 0.0, "bike_id": "b684931c9c68f5b0f0d43a23d991f207", "lon": -76.99599733333334, "rental_uris": {"ios": "https://dc.lft.to/lastmile_qr_scan", "android": "https://dc.lft.to/lastmile_qr_scan"}}, {"name": "ba21d59bdcc71210e57037db15b6cd86", "fusion_lat": 0.0, "type": "electric_scooter", "lat": 38.9132715, "is_reserved": 0, "is_disabled": 0, "fusion_lon": 0.0, "bike_id": "ba21d59bdcc71210e57037db15b6cd86", "lon": -77.0453335, "rental_uris": {"ios": "https://dc.lft.to/lastmile_qr_scan", "android": "https://dc.lft.to/lastmile_qr_scan"}}, {"name": "639bcdc77594ddd38367873e1cc9c542", "fusion_lat": 0.0, "type": "electric_scooter", "lat": 38.9041415, "is_reserved": 0, "is_disabled": 0, "fusion_lon": 0.0, "bike_id": "639bcdc77594ddd38367873e1cc9c542", "lon": -76.97889583333334, "rental_uris": {"ios": "https://dc.lft.to/lastmile_qr_scan", "android": "https://dc.lft.to/lastmile_qr_scan"}}, {"name": "85292d448cc51f30b41f0752c261e891", "fusion_lat": 0.0, "type": "electric_scooter", "lat": 38.9368555, "is_reserved": 0, "is_disabled": 0, "fusion_lon": 0.0, "bike_id": "85292d448cc51f30b41f0752c261e891", "lon": -77.03282783333333, "rental_uris": {"ios": "https://dc.lft.to/lastmile_qr_scan", "android": "https://dc.lft.to/lastmile_qr_scan"}}, {"name": "dad3422b5cac603fda19130a675330f2", "fusion_lat": 0.0, "type": "electric_scooter", "lat": 38.920131, "is_reserved": 0, "is_disabled": 0, "fusion_lon": 0.0, "bike_id": "dad3422b5cac603fda19130a675330f2", "lon": -77.03478116666666, "rental_uris": {"ios": "https://dc.lft.to/lastmile_qr_scan", "android": "https://dc.lft.to/lastmile_qr_scan"}}, {"name": "9d2c40fcc0ecdd4a9afa1ea83989f7dd", "fusion_lat": 0.0, "type": "electric_scooter", "lat": 38.92241166666667, "is_reserved": 0, "is_disabled": 0, "fusion_lon": 0.0, "bike_id": "9d2c40fcc0ecdd4a9afa1ea83989f7dd", "lon": -77.036638, "rental_uris": {"ios": "https://dc.lft.to/lastmile_qr_scan", "android": "https://dc.lft.to/lastmile_qr_scan"}}, {"name": "e8c1272827e5ffe9e0b45d80a4fc2f13", "fusion_lat": 0.0, "type": "electric_scooter", "lat": 38.89603316666667, "is_reserved": 0, "is_disabled": 0, "fusion_lon": 0.0, "bike_id": "e8c1272827e5ffe9e0b45d80a4fc2f13", "lon": -77.04690316666667, "rental_uris": {"ios": "https://dc.lft.to/lastmile_qr_scan", "android": "https://dc.lft.to/lastmile_qr_scan"}}, {"name": "820e73b8f64cc0cd244e1a9a324a0bb5", "fusion_lat": 0.0, "type": "electric_scooter", "lat": 38.96174166666667, "is_reserved": 0, "is_disabled": 0, "fusion_lon": 0.0, "bike_id": "820e73b8f64cc0cd244e1a9a324a0bb5", "lon": -77.03227183333334, "rental_uris": {"ios": "https://dc.lft.to/lastmile_qr_scan", "android": "https://dc.lft.to/lastmile_qr_scan"}}, {"name": "6c89a8f0f27ee09bb77569a0b38aeab5", "fusion_lat": 0.0, "type": "electric_scooter", "lat": 38.93185616666667, "is_reserved": 0, "is_disabled": 0, "fusion_lon": 0.0, "bike_id": "6c89a8f0f27ee09bb77569a0b38aeab5", "lon": -77.028299, "rental_uris": {"ios": "https://dc.lft.to/lastmile_qr_scan", "android": "https://dc.lft.to/lastmile_qr_scan"}}, {"name": "27efc3d3535d6ddaf8fe178b06a8b386", "fusion_lat": 0.0, "type": "electric_scooter", "lat": 38.90224966666667, "is_reserved": 0, "is_disabled": 0, "fusion_lon": 0.0, "bike_id": "27efc3d3535d6ddaf8fe178b06a8b386", "lon": -77.0458995, "rental_uris": {"ios": "https://dc.lft.to/lastmile_qr_scan", "android": "https://dc.lft.to/lastmile_qr_scan"}}, {"name": "40ae2963a80d7251c809142bb5a67472", "fusion_lat": 0.0, "type": "electric_scooter", "lat": 38.91818416666667, "is_reserved": 0, "is_disabled": 0, "fusion_lon": 0.0, "bike_id": "40ae2963a80d7251c809142bb5a67472", "lon": -77.040039, "rental_uris": {"ios": "https://dc.lft.to/lastmile_qr_scan", "android": "https://dc.lft.to/lastmile_qr_scan"}}, {"name": "b4c7e58b60d994406e06c48e30904867", "fusion_lat": 0.0, "type": "electric_scooter", "lat": 38.9252335, "is_reserved": 0, "is_disabled": 0, "fusion_lon": 0.0, "bike_id": "b4c7e58b60d994406e06c48e30904867", "lon": -77.03219783333333, "rental_uris": {"ios": "https://dc.lft.to/lastmile_qr_scan", "android": "https://dc.lft.to/lastmile_qr_scan"}}, {"name": "458b20f0b5d6bc4ca39e8bdf21764ffe", "fusion_lat": 0.0, "type": "electric_bike", "lat": 38.85060416666666, "is_reserved": 0, "is_disabled": 0, "fusion_lon": 0.0, "bike_id": "458b20f0b5d6bc4ca39e8bdf21764ffe", "lon": -76.97327983333334, "rental_uris": {"ios": "https://dc.lft.to/lastmile_qr_scan", "android": "https://dc.lft.to/lastmile_qr_scan"}}, {"name": "87b7e519a11137afa1582d005f458b7e", "fusion_lat": 0.0, "type": "electric_scooter", "lat": 38.896557666666666, "is_reserved": 0, "is_disabled": 0, "fusion_lon": 0.0, "bike_id": "87b7e519a11137afa1582d005f458b7e", "lon": -77.0503975, "rental_uris": {"ios": "https://dc.lft.to/lastmile_qr_scan", "android": "https://dc.lft.to/lastmile_qr_scan"}}, {"name": "8a923b38375367db90a4adcc97bf64e0", "fusion_lat": 0.0, "type": "electric_scooter", "lat": 38.902376333333336, "is_reserved": 0, "is_disabled": 0, "fusion_lon": 0.0, "bike_id": "8a923b38375367db90a4adcc97bf64e0", "lon": -77.00201483333333, "rental_uris": {"ios": "https://dc.lft.to/lastmile_qr_scan", "android": "https://dc.lft.to/lastmile_qr_scan"}}, {"name": "8ea6d2d3a0cce184816ec84527f481b0", "fusion_lat": 0.0, "type": "electric_scooter", "lat": 38.90325266666667, "is_reserved": 0, "is_disabled": 0, "fusion_lon": 0.0, "bike_id": "8ea6d2d3a0cce184816ec84527f481b0", "lon": -77.03649266666666, "rental_uris": {"ios": "https://dc.lft.to/lastmile_qr_scan", "android": "https://dc.lft.to/lastmile_qr_scan"}}, {"name": "7bc23ca1d6dcbf99c26b6d429dc04633", "fusion_lat": 0.0, "type": "electric_scooter", "lat": 38.89228833333333, "is_reserved": 0, "is_disabled": 0, "fusion_lon": 0.0, "bike_id": "7bc23ca1d6dcbf99c26b6d429dc04633", "lon": -77.04662133333333, "rental_uris": {"ios": "https://dc.lft.to/lastmile_qr_scan", "android": "https://dc.lft.to/lastmile_qr_scan"}}, {"name": "f56f0bedec4c622a84ed4ba0886d2f8c", "fusion_lat": 0.0, "type": "electric_scooter", "lat": 38.90240583333333, "is_reserved": 0, "is_disabled": 0, "fusion_lon": 0.0, "bike_id": "f56f0bedec4c622a84ed4ba0886d2f8c", "lon": -77.0151155, "rental_uris": {"ios": "https://dc.lft.to/lastmile_qr_scan", "android": "https://dc.lft.to/lastmile_qr_scan"}}, {"name": "82fcae784e0c23adfbf1e6c6ebd74141", "fusion_lat": 0.0, "type": "electric_bike", "lat": 38.9396735, "is_reserved": 0, "is_disabled": 0, "fusion_lon": 0.0, "bike_id": "82fcae784e0c23adfbf1e6c6ebd74141", "lon": -77.027718, "rental_uris": {"ios": "https://dc.lft.to/lastmile_qr_scan", "android": "https://dc.lft.to/lastmile_qr_scan"}}, {"name": "35308a18afabb7fc41867a902a88ece5", "fusion_lat": 0.0, "type": "electric_scooter", "lat": 38.89386966666667, "is_reserved": 0, "is_disabled": 0, "fusion_lon": 0.0, "bike_id": "35308a18afabb7fc41867a902a88ece5", "lon": -77.011653, "rental_uris": {"ios": "https://dc.lft.to/lastmile_qr_scan", "android": "https://dc.lft.to/lastmile_qr_scan"}}, {"name": "947479b083eb6c430d86fb3d10051042", "fusion_lat": 0.0, "type": "electric_scooter", "lat": 38.866598333333336, "is_reserved": 0, "is_disabled": 0, "fusion_lon": 0.0, "bike_id": "947479b083eb6c430d86fb3d10051042", "lon": -76.988839, "rental_uris": {"ios": "https://dc.lft.to/lastmile_qr_scan", "android": "https://dc.lft.to/lastmile_qr_scan"}}, {"name": "581c1f8bebe1bf96d459996f7ce2ac6d", "fusion_lat": 0.0, "type": "electric_bike", "lat": 38.856171833333335, "is_reserved": 0, "is_disabled": 0, "fusion_lon": 0.0, "bike_id": "581c1f8bebe1bf96d459996f7ce2ac6d", "lon": -77.08539883333333, "rental_uris": {"ios": "https://dc.lft.to/lastmile_qr_scan", "android": "https://dc.lft.to/lastmile_qr_scan"}}, {"name": "89b22a2c3ad60babb782646d0224cdc5", "fusion_lat": 0.0, "type": "electric_scooter", "lat": 38.912536333333335, "is_reserved": 0, "is_disabled": 0, "fusion_lon": 0.0, "bike_id": "89b22a2c3ad60babb782646d0224cdc5", "lon": -77.03868316666667, "rental_uris": {"ios": "https://dc.lft.to/lastmile_qr_scan", "android": "https://dc.lft.to/lastmile_qr_scan"}}, {"name": "14ada8d1bd656465c3d3e22bf7162839", "fusion_lat": 0.0, "type": "electric_scooter", "lat": 38.9026625, "is_reserved": 0, "is_disabled": 0, "fusion_lon": 0.0, "bike_id": "14ada8d1bd656465c3d3e22bf7162839", "lon": -77.03927216666666, "rental_uris": {"ios": "https://dc.lft.to/lastmile_qr_scan", "android": "https://dc.lft.to/lastmile_qr_scan"}}, {"name": "c0a482e59cc4be08df606f85b0730f7e", "fusion_lat": 0.0, "type": "electric_scooter", "lat": 38.91850783333334, "is_reserved": 0, "is_disabled": 0, "fusion_lon": 0.0, "bike_id": "c0a482e59cc4be08df606f85b0730f7e", "lon": -77.04498633333333, "rental_uris": {"ios": "https://dc.lft.to/lastmile_qr_scan", "android": "https://dc.lft.to/lastmile_qr_scan"}}, {"name": "777495dda192785c64d8eaf236041450", "fusion_lat": 0.0, "type": "electric_scooter", "lat": 38.90741116666667, "is_reserved": 0, "is_disabled": 0, "fusion_lon": 0.0, "bike_id": "777495dda192785c64d8eaf236041450", "lon": -77.00815833333333, "rental_uris": {"ios": "https://dc.lft.to/lastmile_qr_scan", "android": "https://dc.lft.to/lastmile_qr_scan"}}, {"name": "1d260f3fbfec403904ca292eab34ded8", "fusion_lat": 0.0, "type": "electric_scooter", "lat": 38.905330666666664, "is_reserved": 0, "is_disabled": 0, "fusion_lon": 0.0, "bike_id": "1d260f3fbfec403904ca292eab34ded8", "lon": -77.06280483333333, "rental_uris": {"ios": "https://dc.lft.to/lastmile_qr_scan", "android": "https://dc.lft.to/lastmile_qr_scan"}}, {"name": "eed829b339e628631cace0a0b9c9c0c7", "fusion_lat": 0.0, "type": "electric_scooter", "lat": 38.93076416666667, "is_reserved": 0, "is_disabled": 0, "fusion_lon": 0.0, "bike_id": "eed829b339e628631cace0a0b9c9c0c7", "lon": -77.02793966666667, "rental_uris": {"ios": "https://dc.lft.to/lastmile_qr_scan", "android": "https://dc.lft.to/lastmile_qr_scan"}}, {"name": "48c6bb86a8597938990284ded3e6e761", "fusion_lat": 0.0, "type": "electric_bike", "lat": 38.90366433333333, "is_reserved": 0, "is_disabled": 0, "fusion_lon": 0.0, "bike_id": "48c6bb86a8597938990284ded3e6e761", "lon": -77.0399195, "rental_uris": {"ios": "https://dc.lft.to/lastmile_qr_scan", "android": "https://dc.lft.to/lastmile_qr_scan"}}, {"name": "aba2d774c813ca26d9cc369cd58ac95c", "fusion_lat": 0.0, "type": "electric_scooter", "lat": 38.9052095, "is_reserved": 0, "is_disabled": 0, "fusion_lon": 0.0, "bike_id": "aba2d774c813ca26d9cc369cd58ac95c", "lon": -77.029695, "rental_uris": {"ios": "https://dc.lft.to/lastmile_qr_scan", "android": "https://dc.lft.to/lastmile_qr_scan"}}, {"name": "ebabacb135e5796805abfe3e35b16534", "fusion_lat": 0.0, "type": "electric_scooter", "lat": 38.92387516666667, "is_reserved": 0, "is_disabled": 0, "fusion_lon": 0.0, "bike_id": "ebabacb135e5796805abfe3e35b16534", "lon": -77.02981466666667, "rental_uris": {"ios": "https://dc.lft.to/lastmile_qr_scan", "android": "https://dc.lft.to/lastmile_qr_scan"}}, {"name": "abfa2b3586577d74e9c2b18f77a58362", "fusion_lat": 0.0, "type": "electric_scooter", "lat": 38.90747433333333, "is_reserved": 0, "is_disabled": 0, "fusion_lon": 0.0, "bike_id": "abfa2b3586577d74e9c2b18f77a58362", "lon": -76.98339016666667, "rental_uris": {"ios": "https://dc.lft.to/lastmile_qr_scan", "android": "https://dc.lft.to/lastmile_qr_scan"}}, {"name": "3898aad06679b6e445bf623eb55dc05b", "fusion_lat": 0.0, "type": "electric_scooter", "lat": 38.8681765, "is_reserved": 0, "is_disabled": 0, "fusion_lon": 0.0, "bike_id": "3898aad06679b6e445bf623eb55dc05b", "lon": -76.98617583333333, "rental_uris": {"ios": "https://dc.lft.to/lastmile_qr_scan", "android": "https://dc.lft.to/lastmile_qr_scan"}}, {"name": "79a05a0c6b9c368eaeb519472bcc1aa5", "fusion_lat": 0.0, "type": "electric_scooter", "lat": 38.88516, "is_reserved": 0, "is_disabled": 0, "fusion_lon": 0.0, "bike_id": "79a05a0c6b9c368eaeb519472bcc1aa5", "lon": -77.003401, "rental_uris": {"ios": "https://dc.lft.to/lastmile_qr_scan", "android": "https://dc.lft.to/lastmile_qr_scan"}}, {"name": "6dfaa97c79d01a244321224f12ea7190", "fusion_lat": 0.0, "type": "electric_scooter", "lat": 38.93001616666667, "is_reserved": 0, "is_disabled": 0, "fusion_lon": 0.0, "bike_id": "6dfaa97c79d01a244321224f12ea7190", "lon": -77.02305666666666, "rental_uris": {"ios": "https://dc.lft.to/lastmile_qr_scan", "android": "https://dc.lft.to/lastmile_qr_scan"}}, {"name": "921da8774c02fb15d85ecb11d09fa33b", "fusion_lat": 0.0, "type": "electric_scooter", "lat": 38.9002435, "is_reserved": 0, "is_disabled": 0, "fusion_lon": 0.0, "bike_id": "921da8774c02fb15d85ecb11d09fa33b", "lon": -77.0021475, "rental_uris": {"ios": "https://dc.lft.to/lastmile_qr_scan", "android": "https://dc.lft.to/lastmile_qr_scan"}}, {"name": "38eeb37f102c62574f715e1c3045e0c7", "fusion_lat": 0.0, "type": "electric_scooter", "lat": 38.91208366666667, "is_reserved": 0, "is_disabled": 0, "fusion_lon": 0.0, "bike_id": "38eeb37f102c62574f715e1c3045e0c7", "lon": -77.038473, "rental_uris": {"ios": "https://dc.lft.to/lastmile_qr_scan", "android": "https://dc.lft.to/lastmile_qr_scan"}}, {"name": "4bb3c4c88ba24b0d84c583c5d6093ba1", "fusion_lat": 0.0, "type": "electric_bike", "lat": 38.8963615, "is_reserved": 0, "is_disabled": 0, "fusion_lon": 0.0, "bike_id": "4bb3c4c88ba24b0d84c583c5d6093ba1", "lon": -77.10457283333334, "rental_uris": {"ios": "https://dc.lft.to/lastmile_qr_scan", "android": "https://dc.lft.to/lastmile_qr_scan"}}, {"name": "67147495467a3d3d18126dd4a2a45b75", "fusion_lat": 0.0, "type": "electric_scooter", "lat": 38.898266, "is_reserved": 0, "is_disabled": 0, "fusion_lon": 0.0, "bike_id": "67147495467a3d3d18126dd4a2a45b75", "lon": -77.029469, "rental_uris": {"ios": "https://dc.lft.to/lastmile_qr_scan", "android": "https://dc.lft.to/lastmile_qr_scan"}}, {"name": "83b212eed6818957f62c52cfeff18dac", "fusion_lat": 0.0, "type": "electric_scooter", "lat": 38.909753, "is_reserved": 0, "is_disabled": 0, "fusion_lon": 0.0, "bike_id": "83b212eed6818957f62c52cfeff18dac", "lon": -77.02358233333334, "rental_uris": {"ios": "https://dc.lft.to/lastmile_qr_scan", "android": "https://dc.lft.to/lastmile_qr_scan"}}, {"name": "b3908f85dd3cc4b592238486acf440a3", "fusion_lat": 0.0, "type": "electric_scooter", "lat": 38.890509, "is_reserved": 0, "is_disabled": 0, "fusion_lon": 0.0, "bike_id": "b3908f85dd3cc4b592238486acf440a3", "lon": -76.93750666666666, "rental_uris": {"ios": "https://dc.lft.to/lastmile_qr_scan", "android": "https://dc.lft.to/lastmile_qr_scan"}}, {"name": "1e6395fd4d770be5471b67af81d2fa83", "fusion_lat": 0.0, "type": "electric_scooter", "lat": 38.92346233333333, "is_reserved": 0, "is_disabled": 0, "fusion_lon": 0.0, "bike_id": "1e6395fd4d770be5471b67af81d2fa83", "lon": -77.03224166666666, "rental_uris": {"ios": "https://dc.lft.to/lastmile_qr_scan", "android": "https://dc.lft.to/lastmile_qr_scan"}}, {"name": "b1a038f90feb63d30bdde22eb7587b9f", "fusion_lat": 0.0, "type": "electric_bike", "lat": 38.89608966666667, "is_reserved": 0, "is_disabled": 0, "fusion_lon": 0.0, "bike_id": "b1a038f90feb63d30bdde22eb7587b9f", "lon": -76.9884225, "rental_uris": {"ios": "https://dc.lft.to/lastmile_qr_scan", "android": "https://dc.lft.to/lastmile_qr_scan"}}, {"name": "50c29bed49643d4f856d27ed615ebee1", "fusion_lat": 0.0, "type": "electric_scooter", "lat": 38.941733, "is_reserved": 0, "is_disabled": 0, "fusion_lon": 0.0, "bike_id": "50c29bed49643d4f856d27ed615ebee1", "lon": -77.025135, "rental_uris": {"ios": "https://dc.lft.to/lastmile_qr_scan", "android": "https://dc.lft.to/lastmile_qr_scan"}}, {"name": "b5bb707fc20158dad51e7eb68349e6e3", "fusion_lat": 0.0, "type": "electric_scooter", "lat": 38.864082, "is_reserved": 0, "is_disabled": 0, "fusion_lon": 0.0, "bike_id": "b5bb707fc20158dad51e7eb68349e6e3", "lon": -76.98049666666667, "rental_uris": {"ios": "https://dc.lft.to/lastmile_qr_scan", "android": "https://dc.lft.to/lastmile_qr_scan"}}, {"name": "8ba64e3a549bf36cb8ccc431809d8d82", "fusion_lat": 0.0, "type": "electric_scooter", "lat": 38.93904083333334, "is_reserved": 0, "is_disabled": 0, "fusion_lon": 0.0, "bike_id": "8ba64e3a549bf36cb8ccc431809d8d82", "lon": -77.06039, "rental_uris": {"ios": "https://dc.lft.to/lastmile_qr_scan", "android": "https://dc.lft.to/lastmile_qr_scan"}}, {"name": "00cba0be58e2f16de1477095d2135462", "fusion_lat": 0.0, "type": "electric_scooter", "lat": 38.91823133333333, "is_reserved": 0, "is_disabled": 0, "fusion_lon": 0.0, "bike_id": "00cba0be58e2f16de1477095d2135462", "lon": -77.010245, "rental_uris": {"ios": "https://dc.lft.to/lastmile_qr_scan", "android": "https://dc.lft.to/lastmile_qr_scan"}}, {"name": "8d65d194d5594aaedc6663ad6f1f63da", "fusion_lat": 0.0, "type": "electric_scooter", "lat": 38.90534866666667, "is_reserved": 0, "is_disabled": 0, "fusion_lon": 0.0, "bike_id": "8d65d194d5594aaedc6663ad6f1f63da", "lon": -77.0628105, "rental_uris": {"ios": "https://dc.lft.to/lastmile_qr_scan", "android": "https://dc.lft.to/lastmile_qr_scan"}}, {"name": "bf3e47923cff531abcb79c316d2ea98a", "fusion_lat": 0.0, "type": "electric_scooter", "lat": 38.909361, "is_reserved": 0, "is_disabled": 0, "fusion_lon": 0.0, "bike_id": "bf3e47923cff531abcb79c316d2ea98a", "lon": -77.03845533333333, "rental_uris": {"ios": "https://dc.lft.to/lastmile_qr_scan", "android": "https://dc.lft.to/lastmile_qr_scan"}}, {"name": "04559e40aabba91ee4e01a68eb91a263", "fusion_lat": 0.0, "type": "electric_scooter", "lat": 38.90193, "is_reserved": 0, "is_disabled": 0, "fusion_lon": 0.0, "bike_id": "04559e40aabba91ee4e01a68eb91a263", "lon": -77.02172783333333, "rental_uris": {"ios": "https://dc.lft.to/lastmile_qr_scan", "android": "https://dc.lft.to/lastmile_qr_scan"}}, {"name": "53a457bbb674008d55b4bec9fb9f3593", "fusion_lat": 0.0, "type": "electric_bike", "lat": 39.033401833333336, "is_reserved": 0, "is_disabled": 0, "fusion_lon": 0.0, "bike_id": "53a457bbb674008d55b4bec9fb9f3593", "lon": -77.04909166666667, "rental_uris": {"ios": "https://dc.lft.to/lastmile_qr_scan", "android": "https://dc.lft.to/lastmile_qr_scan"}}, {"name": "5f37b79f5becb71d402a0f5f7f728030", "fusion_lat": 0.0, "type": "electric_scooter", "lat": 38.90145616666667, "is_reserved": 0, "is_disabled": 0, "fusion_lon": 0.0, "bike_id": "5f37b79f5becb71d402a0f5f7f728030", "lon": -77.053988, "rental_uris": {"ios": "https://dc.lft.to/lastmile_qr_scan", "android": "https://dc.lft.to/lastmile_qr_scan"}}, {"name": "ca2144659432ef5f304d03865086b2d2", "fusion_lat": 0.0, "type": "electric_scooter", "lat": 38.91276466666667, "is_reserved": 0, "is_disabled": 0, "fusion_lon": 0.0, "bike_id": "ca2144659432ef5f304d03865086b2d2", "lon": -77.02246316666667, "rental_uris": {"ios": "https://dc.lft.to/lastmile_qr_scan", "android": "https://dc.lft.to/lastmile_qr_scan"}}, {"name": "29ec5c199dcd3e416252490decb4250b", "fusion_lat": 0.0, "type": "electric_scooter", "lat": 38.903369166666664, "is_reserved": 0, "is_disabled": 0, "fusion_lon": 0.0, "bike_id": "29ec5c199dcd3e416252490decb4250b", "lon": -76.98819683333333, "rental_uris": {"ios": "https://dc.lft.to/lastmile_qr_scan", "android": "https://dc.lft.to/lastmile_qr_scan"}}, {"name": "b4004291d51ab8a223808e3ca3074959", "fusion_lat": 0.0, "type": "electric_scooter", "lat": 38.91521766666666, "is_reserved": 0, "is_disabled": 0, "fusion_lon": 0.0, "bike_id": "b4004291d51ab8a223808e3ca3074959", "lon": -77.01420316666666, "rental_uris": {"ios": "https://dc.lft.to/lastmile_qr_scan", "android": "https://dc.lft.to/lastmile_qr_scan"}}, {"name": "1980054a58ae355b27517fb2c951a2a1", "fusion_lat": 0.0, "type": "electric_scooter", "lat": 38.91140583333333, "is_reserved": 0, "is_disabled": 0, "fusion_lon": 0.0, "bike_id": "1980054a58ae355b27517fb2c951a2a1", "lon": -77.04199283333334, "rental_uris": {"ios": "https://dc.lft.to/lastmile_qr_scan", "android": "https://dc.lft.to/lastmile_qr_scan"}}, {"name": "6332847a5eb23308a4b77f27c1632417", "fusion_lat": 0.0, "type": "electric_scooter", "lat": 38.916920166666664, "is_reserved": 0, "is_disabled": 0, "fusion_lon": 0.0, "bike_id": "6332847a5eb23308a4b77f27c1632417", "lon": -77.02599133333334, "rental_uris": {"ios": "https://dc.lft.to/lastmile_qr_scan", "android": "https://dc.lft.to/lastmile_qr_scan"}}, {"name": "0c66160d656484fb31371a7653d2f042", "fusion_lat": 0.0, "type": "electric_scooter", "lat": 38.936048666666665, "is_reserved": 0, "is_disabled": 0, "fusion_lon": 0.0, "bike_id": "0c66160d656484fb31371a7653d2f042", "lon": -77.05860883333334, "rental_uris": {"ios": "https://dc.lft.to/lastmile_qr_scan", "android": "https://dc.lft.to/lastmile_qr_scan"}}, {"name": "8cb36a3bb66c56d6737d53eddb2f6f05", "fusion_lat": 0.0, "type": "electric_scooter", "lat": 38.8989165, "is_reserved": 0, "is_disabled": 0, "fusion_lon": 0.0, "bike_id": "8cb36a3bb66c56d6737d53eddb2f6f05", "lon": -76.9330115, "rental_uris": {"ios": "https://dc.lft.to/lastmile_qr_scan", "android": "https://dc.lft.to/lastmile_qr_scan"}}, {"name": "8a242e202c8948c88ebfeb021a30c611", "fusion_lat": 0.0, "type": "electric_scooter", "lat": 38.9066165, "is_reserved": 0, "is_disabled": 0, "fusion_lon": 0.0, "bike_id": "8a242e202c8948c88ebfeb021a30c611", "lon": -76.986103, "rental_uris": {"ios": "https://dc.lft.to/lastmile_qr_scan", "android": "https://dc.lft.to/lastmile_qr_scan"}}, {"name": "5e992de2faa4d579f94e9a6973e73e2b", "fusion_lat": 0.0, "type": "electric_scooter", "lat": 38.90265733333333, "is_reserved": 0, "is_disabled": 0, "fusion_lon": 0.0, "bike_id": "5e992de2faa4d579f94e9a6973e73e2b", "lon": -77.0175645, "rental_uris": {"ios": "https://dc.lft.to/lastmile_qr_scan", "android": "https://dc.lft.to/lastmile_qr_scan"}}, {"name": "7d226a5322ccfc7efc424ff8148b74fe", "fusion_lat": 0.0, "type": "electric_scooter", "lat": 38.899528333333336, "is_reserved": 0, "is_disabled": 0, "fusion_lon": 0.0, "bike_id": "7d226a5322ccfc7efc424ff8148b74fe", "lon": -76.9856145, "rental_uris": {"ios": "https://dc.lft.to/lastmile_qr_scan", "android": "https://dc.lft.to/lastmile_qr_scan"}}, {"name": "e1e2cf91081b1c82c4e1230dddb62423", "fusion_lat": 0.0, "type": "electric_scooter", "lat": 38.916830833333336, "is_reserved": 0, "is_disabled": 0, "fusion_lon": 0.0, "bike_id": "e1e2cf91081b1c82c4e1230dddb62423", "lon": -77.02288633333333, "rental_uris": {"ios": "https://dc.lft.to/lastmile_qr_scan", "android": "https://dc.lft.to/lastmile_qr_scan"}}, {"name": "c944f66f08ea696ef0fd0bd54d46746b", "fusion_lat": 0.0, "type": "electric_scooter", "lat": 38.88727183333334, "is_reserved": 0, "is_disabled": 0, "fusion_lon": 0.0, "bike_id": "c944f66f08ea696ef0fd0bd54d46746b", "lon": -77.028277, "rental_uris": {"ios": "https://dc.lft.to/lastmile_qr_scan", "android": "https://dc.lft.to/lastmile_qr_scan"}}, {"name": "ecee2196e9fd5a41d4088a4092518d97", "fusion_lat": 0.0, "type": "electric_scooter", "lat": 38.932826166666665, "is_reserved": 0, "is_disabled": 0, "fusion_lon": 0.0, "bike_id": "ecee2196e9fd5a41d4088a4092518d97", "lon": -77.03642216666667, "rental_uris": {"ios": "https://dc.lft.to/lastmile_qr_scan", "android": "https://dc.lft.to/lastmile_qr_scan"}}, {"name": "24ab7f45c41db8e085612325c0eb10ff", "fusion_lat": 0.0, "type": "electric_scooter", "lat": 38.920471166666665, "is_reserved": 0, "is_disabled": 0, "fusion_lon": 0.0, "bike_id": "24ab7f45c41db8e085612325c0eb10ff", "lon": -77.03025483333333, "rental_uris": {"ios": "https://dc.lft.to/lastmile_qr_scan", "android": "https://dc.lft.to/lastmile_qr_scan"}}, {"name": "99d125733c9c72f02efd2a6fbcacd3c0", "fusion_lat": 0.0, "type": "electric_scooter", "lat": 38.922255, "is_reserved": 0, "is_disabled": 0, "fusion_lon": 0.0, "bike_id": "99d125733c9c72f02efd2a6fbcacd3c0", "lon": -77.047185, "rental_uris": {"ios": "https://dc.lft.to/lastmile_qr_scan", "android": "https://dc.lft.to/lastmile_qr_scan"}}, {"name": "f50c486ede0b7acb29ebac04b4eed93f", "fusion_lat": 0.0, "type": "electric_scooter", "lat": 38.93389333333333, "is_reserved": 0, "is_disabled": 0, "fusion_lon": 0.0, "bike_id": "f50c486ede0b7acb29ebac04b4eed93f", "lon": -77.0358335, "rental_uris": {"ios": "https://dc.lft.to/lastmile_qr_scan", "android": "https://dc.lft.to/lastmile_qr_scan"}},