{"data": {"bikes": [{"bike_id": "d37605b1339bf3071b2a12292756cefa", "is_reserved": 0, "name": "d37605b1339bf3071b2a12292756cefa", "lat": 38.918074833333336, "fusion_lat": 0.0, "lon": -77.02491383333333, "is_disabled": 0, "fusion_lon": 0.0, "rental_uris": {"android": "https://dc.lft.to/lastmile_qr_scan", "ios": "https://dc.lft.to/lastmile_qr_scan"}, "type": "electric_scooter"}, {"bike_id": "251a4c74364345df0f4d2d49fb6d44cd", "is_reserved": 0, "name": "251a4c74364345df0f4d2d49fb6d44cd", "lat": 38.9305175, "fusion_lat": 0.0, "lon": -77.0322555, "is_disabled": 0, "fusion_lon": 0.0, "rental_uris": {"android": "https://dc.lft.to/lastmile_qr_scan", "ios": "https://dc.lft.to/lastmile_qr_scan"}, "type": "electric_scooter"}, {"bike_id": "8d3b163da9fee6213e0a30a4daccb961", "is_reserved": 0, "name": "8d3b163da9fee6213e0a30a4daccb961", "lat": 38.926243666666664, "fusion_lat": 0.0, "lon": -77.0419045, "is_disabled": 0, "fusion_lon": 0.0, "rental_uris": {"android": "https://dc.lft.to/lastmile_qr_scan", "ios": "https://dc.lft.to/lastmile_qr_scan"}, "type": "electric_scooter"}, {"bike_id": "477f21663ff0c8a1366d95f2ae5399c7", "is_reserved": 0, "name": "477f21663ff0c8a1366d95f2ae5399c7", "lat": 38.9059555, "fusion_lat": 0.0, "lon": -77.07005683333334, "is_disabled": 0, "fusion_lon": 0.0, "rental_uris": {"android": "https://dc.lft.to/lastmile_qr_scan", "ios": "https://dc.lft.to/lastmile_qr_scan"}, "type": "electric_scooter"}, {"bike_id": "8dd9f30ad8df27a4277127bb797e1e4a", "is_reserved": 0, "name": "8dd9f30ad8df27a4277127bb797e1e4a", "lat": 38.89618433333333, "fusion_lat": 0.0, "lon": -76.98566666666666, "is_disabled": 0, "fusion_lon": 0.0, "rental_uris": {"android": "https://dc.lft.to/lastmile_qr_scan", "ios": "https://dc.lft.to/lastmile_qr_scan"}, "type": "electric_scooter"}, {"bike_id": "c7816d0bee1d248d7ac42d23875a1b00", "is_reserved": 0, "name": "c7816d0bee1d248d7ac42d23875a1b00", "lat": 38.956409, "fusion_lat": 0.0, "lon": -77.00987266666667, "is_disabled": 0, "fusion_lon": 0.0, "rental_uris": {"android": "https://dc.lft.to/lastmile_qr_scan", "ios": "https://dc.lft.to/lastmile_qr_scan"}, "type": "electric_scooter"}, {"bike_id": "8cb7455f32af324e3bc59c44465f7c53", "is_reserved": 0, "name": "8cb7455f32af324e3bc59c44465f7c53", "lat": 38.87061283333333, "fusion_lat": 0.0, "lon": -77.01354966666666, "is_disabled": 0, "fusion_lon": 0.0, "rental_uris": {"android": "https://dc.lft.to/lastmile_qr_scan", "ios": "https://dc.lft.to/lastmile_qr_scan"}, "type": "electric_bike"}, {"bike_id": "98296c669b11cbdd199d9c3b9c6bb4ad", "is_reserved": 0, "name": "98296c669b11cbdd199d9c3b9c6bb4ad", "lat": 38.925981166666666, "fusion_lat": 0.0, "lon": -77.0238735, "is_disabled": 0, "fusion_lon": 0.0, "rental_uris": {"android": "https://dc.lft.to/lastmile_qr_scan", "ios": "https://dc.lft.to/lastmile_qr_scan"}, "type": "electric_scooter"}, {"bike_id": "3ff6ccbca0ed494af6cfe7aab1e13312", "is_reserved": 0, "name": "3ff6ccbca0ed494af6cfe7aab1e13312", "lat": 38.8784, "fusion_lat": 0.0, "lon": -77.0063765, "is_disabled": 0, "fusion_lon": 0.0, "rental_uris": {"android": "https://dc.lft.to/lastmile_qr_scan", "ios": "https://dc.lft.to/lastmile_qr_scan"}, "type": "electric_scooter"}, {"bike_id": "bd8833f73628ca303a782d69d1d73d7b", "is_reserved": 0, "name": "bd8833f73628ca303a782d69d1d73d7b", "lat": 38.91352416666667, "fusion_lat": 0.0, "lon": -77.01739466666666, "is_disabled": 0, "fusion_lon": 0.0, "rental_uris": {"android": "https://dc.lft.to/lastmile_qr_scan", "ios": "https://dc.lft.to/lastmile_qr_scan"}, "type": "electric_scooter"}, {"bike_id": "492bb7d75d1d42db7ce42e51f67d31fd", "is_reserved": 0, "name": "492bb7d75d1d42db7ce42e51f67d31fd", "lat": 38.921526, "fusion_lat": 0.0, "lon": -76.99348316666666, "is_disabled": 0, "fusion_lon": 0.0, "rental_uris": {"android": "https://dc.lft.to/lastmile_qr_scan", "ios": "https://dc.lft.to/lastmile_qr_scan"}, "type": "electric_scooter"}, {"bike_id": "8a0a24f23e04a7edae8b685c577682b3", "is_reserved": 0, "name": "8a0a24f23e04a7edae8b685c577682b3", "lat": 38.90685283333333, "fusion_lat": 0.0, "lon": -77.02693, "is_disabled": 0, "fusion_lon": 0.0, "rental_uris": {"android": "https://dc.lft.to/lastmile_qr_scan", "ios": "https://dc.lft.to/lastmile_qr_scan"}, "type": "electric_scooter"}, {"bike_id": "da9e84468b5f8bdd578e2d4bb6ebdbba", "is_reserved": 0, "name": "da9e84468b5f8bdd578e2d4bb6ebdbba", "lat": 38.887548833333334, "fusion_lat": 0.0, "lon": -76.9960405, "is_disabled": 0, "fusion_lon": 0.0, "rental_uris": {"android": "https://dc.lft.to/lastmile_qr_scan", "ios": "https://dc.lft.to/lastmile_qr_scan"}, "type": "electric_scooter"}, {"bike_id": "18c5d48ff7f8ca1669d9a150d118be60", "is_reserved": 0, "name": "18c5d48ff7f8ca1669d9a150d118be60", "lat": 38.9237345, "fusion_lat": 0.0, "lon": -77.040866, "is_disabled": 0, "fusion_lon": 0.0, "rental_uris": {"android": "https://dc.lft.to/lastmile_qr_scan", "ios": "https://dc.lft.to/lastmile_qr_scan"}, "type": "electric_scooter"}, {"bike_id": "7b2a99cb1462088bb568f7a5f7225378", "is_reserved": 0, "name": "7b2a99cb1462088bb568f7a5f7225378", "lat": 38.901634333333334, "fusion_lat": 0.0, "lon": -76.99264166666667, "is_disabled": 0, "fusion_lon": 0.0, "rental_uris": {"android": "https://dc.lft.to/lastmile_qr_scan", "ios": "https://dc.lft.to/lastmile_qr_scan"}, "type": "electric_scooter"}, {"bike_id": "3f25a8589f933e0fa6dd9e8a989af3a1", "is_reserved": 0, "name": "3f25a8589f933e0fa6dd9e8a989af3a1", "lat": 38.896989166666664, "fusion_lat": 0.0, "lon": -76.9630475, "is_disabled": 0, "fusion_lon": 0.0, "rental_uris": {"android": "https://dc.lft.to/lastmile_qr_scan", "ios": "https://dc.lft.to/lastmile_qr_scan"}, "type": "electric_bike"}, {"bike_id": "a652e08c696cc495f1f78a9bd29b5379", "is_reserved": 0, "name": "a652e08c696cc495f1f78a9bd29b5379", "lat": 38.92087316666667, "fusion_lat": 0.0, "lon": -77.01782966666667, "is_disabled": 0, "fusion_lon": 0.0, "rental_uris": {"android": "https://dc.lft.to/lastmile_qr_scan", "ios": "https://dc.lft.to/lastmile_qr_scan"}, "type": "electric_scooter"}, {"bike_id": "ad21ba627382a87dd44f1a177e4bcb46", "is_reserved": 0, "name": "ad21ba627382a87dd44f1a177e4bcb46", "lat": 38.84757183333333, "fusion_lat": 0.0, "lon": -76.995009, "is_disabled": 0, "fusion_lon": 0.0, "rental_uris": {"android": "https://dc.lft.to/lastmile_qr_scan", "ios": "https://dc.lft.to/lastmile_qr_scan"}, "type": "electric_scooter"}, {"bike_id": "42b09b31eb07704a6171d99c0e3af576", "is_reserved": 0, "name": "42b09b31eb07704a6171d99c0e3af576", "lat": 38.883424833333336, "fusion_lat": 0.0, "lon": -77.031633, "is_disabled": 0, "fusion_lon": 0.0, "rental_uris": {"android": "https://dc.lft.to/lastmile_qr_scan", "ios": "https://dc.lft.to/lastmile_qr_scan"}, "type": "electric_scooter"}, {"bike_id": "4b96949365beb789b13155a1fbe047c4", "is_reserved": 0, "name": "4b96949365beb789b13155a1fbe047c4", "lat": 38.9056245, "fusion_lat": 0.0, "lon": -77.02105266666666, "is_disabled": 0, "fusion_lon": 0.0, "rental_uris": {"android": "https://dc.lft.to/lastmile_qr_scan", "ios": "https://dc.lft.to/lastmile_qr_scan"}, "type": "electric_scooter"}, {"bike_id": "2995f90c2e46cc6b95c1012327ffbef5", "is_reserved": 0, "name": "2995f90c2e46cc6b95c1012327ffbef5", "lat": 38.898557, "fusion_lat": 0.0, "lon": -77.01362566666667, "is_disabled": 0, "fusion_lon": 0.0, "rental_uris": {"android": "https://dc.lft.to/lastmile_qr_scan", "ios": "https://dc.lft.to/lastmile_qr_scan"}, "type": "electric_scooter"}, {"bike_id": "14e19f21760c7e537a3a16e79b5035c6", "is_reserved": 0, "name": "14e19f21760c7e537a3a16e79b5035c6", "lat": 38.941829166666665, "fusion_lat": 0.0, "lon": -77.0261485, "is_disabled": 0, "fusion_lon": 0.0, "rental_uris": {"android": "https://dc.lft.to/lastmile_qr_scan", "ios": "https://dc.lft.to/lastmile_qr_scan"}, "type": "electric_scooter"}, {"bike_id": "c0ba54aee5465ae051e21c96484f55a9", "is_reserved": 0, "name": "c0ba54aee5465ae051e21c96484f55a9", "lat": 38.905191, "fusion_lat": 0.0, "lon": -77.06056866666667, "is_disabled": 0, "fusion_lon": 0.0, "rental_uris": {"android": "https://dc.lft.to/lastmile_qr_scan", "ios": "https://dc.lft.to/lastmile_qr_scan"}, "type": "electric_scooter"}, {"bike_id": "37d3bb7579d09a88b611f31cd3b7cc05", "is_reserved": 0, "name": "37d3bb7579d09a88b611f31cd3b7cc05", "lat": 38.9021975, "fusion_lat": 0.0, "lon": -77.01792233333333, "is_disabled": 0, "fusion_lon": 0.0, "rental_uris": {"android": "https://dc.lft.to/lastmile_qr_scan", "ios": "https://dc.lft.to/lastmile_qr_scan"}, "type": "electric_scooter"}, {"bike_id": "02e3b9dadbfccc928afb4af76b47b3c8", "is_reserved": 0, "name": "02e3b9dadbfccc928afb4af76b47b3c8", "lat": 38.9002985, "fusion_lat": 0.0, "lon": -76.99626166666667, "is_disabled": 0, "fusion_lon": 0.0, "rental_uris": {"android": "https://dc.lft.to/lastmile_qr_scan", "ios": "https://dc.lft.to/lastmile_qr_scan"}, "type": "electric_scooter"}, {"bike_id": "5a8cd2503632b7fcbcc0a56758cf1d54", "is_reserved": 0, "name": "5a8cd2503632b7fcbcc0a56758cf1d54", "lat": 38.90371833333333, "fusion_lat": 0.0, "lon": -77.009856, "is_disabled": 0, "fusion_lon": 0.0, "rental_uris": {"android": "https://dc.lft.to/lastmile_qr_scan", "ios": "https://dc.lft.to/lastmile_qr_scan"}, "type": "electric_scooter"}, {"bike_id": "0dd79a143df1584ef581f26e22e0b54e", "is_reserved": 0, "name": "0dd79a143df1584ef581f26e22e0b54e", "lat": 38.89238016666667, "fusion_lat": 0.0, "lon": -77.0318255, "is_disabled": 0, "fusion_lon": 0.0, "rental_uris": {"android": "https://dc.lft.to/lastmile_qr_scan", "ios": "https://dc.lft.to/lastmile_qr_scan"}, "type": "electric_scooter"}, {"bike_id": "619a6914134062ffc4547af38bb8d0b3", "is_reserved": 0, "name": "619a6914134062ffc4547af38bb8d0b3", "lat": 38.92257383333333, "fusion_lat": 0.0, "lon": -77.0193545, "is_disabled": 0, "fusion_lon": 0.0, "rental_uris": {"android": "https://dc.lft.to/lastmile_qr_scan", "ios": "https://dc.lft.to/lastmile_qr_scan"}, "type": "electric_scooter"}, {"bike_id": "b9a0dc6077d87f5afa514232853f6205", "is_reserved": 0, "name": "b9a0dc6077d87f5afa514232853f6205", "lat": 38.90064866666667, "fusion_lat": 0.0, "lon": -77.04764133333333, "is_disabled": 0, "fusion_lon": 0.0, "rental_uris": {"android": "https://dc.lft.to/lastmile_qr_scan", "ios": "https://dc.lft.to/lastmile_qr_scan"}, "type": "electric_scooter"}, {"bike_id": "87bd754465b29a308fdf71f54d7d0f74", "is_reserved": 0, "name": "87bd754465b29a308fdf71f54d7d0f74", "lat": 38.91104033333333, "fusion_lat": 0.0, "lon": -77.07347, "is_disabled": 0, "fusion_lon": 0.0, "rental_uris": {"android": "https://dc.lft.to/lastmile_qr_scan", "ios": "https://dc.lft.to/lastmile_qr_scan"}, "type": "electric_scooter"}, {"bike_id": "4eeba6d395c364430af3a0740a7128bd", "is_reserved": 0, "name": "4eeba6d395c364430af3a0740a7128bd", "lat": 38.92866766666667, "fusion_lat": 0.0, "lon": -77.03445816666667, "is_disabled": 0, "fusion_lon": 0.0, "rental_uris": {"android": "https://dc.lft.to/lastmile_qr_scan", "ios": "https://dc.lft.to/lastmile_qr_scan"}, "type": "electric_scooter"}, {"bike_id": "e8fe2232ad6428038170b86f11bfb672", "is_reserved": 0, "name": "e8fe2232ad6428038170b86f11bfb672", "lat": 38.90904116666667, "fusion_lat": 0.0, "lon": -77.02713, "is_disabled": 0, "fusion_lon": 0.0, "rental_uris": {"android": "https://dc.lft.to/lastmile_qr_scan", "ios": "https://dc.lft.to/lastmile_qr_scan"}, "type": "electric_scooter"}, {"bike_id": "f3aa877d629f603d2b6b6668b27fb2b0", "is_reserved": 0, "name": "f3aa877d629f603d2b6b6668b27fb2b0", "lat": 38.925655166666665, "fusion_lat": 0.0, "lon": -77.05265316666667, "is_disabled": 0, "fusion_lon": 0.0, "rental_uris": {"android": "https://dc.lft.to/lastmile_qr_scan", "ios": "https://dc.lft.to/lastmile_qr_scan"}, "type": "electric_scooter"}, {"bike_id": "b114885aab3f4d41dcbc82881ac1523f", "is_reserved": 0, "name": "b114885aab3f4d41dcbc82881ac1523f", "lat": 38.90716833333333, "fusion_lat": 0.0, "lon": -77.04512766666667, "is_disabled": 0, "fusion_lon": 0.0, "rental_uris": {"android": "https://dc.lft.to/lastmile_qr_scan", "ios": "https://dc.lft.to/lastmile_qr_scan"}, "type": "electric_scooter"}, {"bike_id": "66bf86a5c7674d6620b2fbd70001c368", "is_reserved": 0, "name": "66bf86a5c7674d6620b2fbd70001c368", "lat": 38.942860333333336, "fusion_lat": 0.0, "lon": -77.02930133333334, "is_disabled": 0, "fusion_lon": 0.0, "rental_uris": {"android": "https://dc.lft.to/lastmile_qr_scan", "ios": "https://dc.lft.to/lastmile_qr_scan"}, "type": "electric_scooter"}, {"bike_id": "ee98274b75083acdab1d380ed11a0e99", "is_reserved": 0, "name": "ee98274b75083acdab1d380ed11a0e99", "lat": 38.99777983333333, "fusion_lat": 0.0, "lon": -77.04710116666666, "is_disabled": 0, "fusion_lon": 0.0, "rental_uris": {"android": "https://dc.lft.to/lastmile_qr_scan", "ios": "https://dc.lft.to/lastmile_qr_scan"}, "type": "electric_bike"}, {"bike_id": "8a64942c3537f1d6479b5b89946df36e", "is_reserved": 0, "name": "8a64942c3537f1d6479b5b89946df36e", "lat": 38.887285, "fusion_lat": 0.0, "lon": -76.98357583333333, "is_disabled": 0, "fusion_lon": 0.0, "rental_uris": {"android": "https://dc.lft.to/lastmile_qr_scan", "ios": "https://dc.lft.to/lastmile_qr_scan"}, "type": "electric_scooter"}, {"bike_id": "c13b17639cc5c44c9f4d8a4db8ee8bac", "is_reserved": 0, "name": "c13b17639cc5c44c9f4d8a4db8ee8bac", "lat": 38.887376833333335, "fusion_lat": 0.0, "lon": -77.0034015, "is_disabled": 0, "fusion_lon": 0.0, "rental_uris": {"android": "https://dc.lft.to/lastmile_qr_scan", "ios": "https://dc.lft.to/lastmile_qr_scan"}, "type": "electric_scooter"}, {"bike_id": "878dc193e5caef3cb323043d3567c696", "is_reserved": 0, "name": "878dc193e5caef3cb323043d3567c696", "lat": 38.9038925, "fusion_lat": 0.0, "lon": -77.050769, "is_disabled": 0, "fusion_lon": 0.0, "rental_uris": {"android": "https://dc.lft.to/lastmile_qr_scan", "ios": "https://dc.lft.to/lastmile_qr_scan"}, "type": "electric_scooter"}, {"bike_id": "578791e557f6d91bf0f6dca23dfa77b6", "is_reserved": 0, "name": "578791e557f6d91bf0f6dca23dfa77b6", "lat": 38.90013616666667, "fusion_lat": 0.0, "lon": -77.02393816666667, "is_disabled": 0, "fusion_lon": 0.0, "rental_uris": {"android": "https://dc.lft.to/lastmile_qr_scan", "ios": "https://dc.lft.to/lastmile_qr_scan"}, "type": "electric_scooter"}, {"bike_id": "f59d061dfbe8da2a0fdfd815c7efc824", "is_reserved": 0, "name": "f59d061dfbe8da2a0fdfd815c7efc824", "lat": 38.91256766666667, "fusion_lat": 0.0, "lon": -77.00775283333333, "is_disabled": 0, "fusion_lon": 0.0, "rental_uris": {"android": "https://dc.lft.to/lastmile_qr_scan", "ios": "https://dc.lft.to/lastmile_qr_scan"}, "type": "electric_scooter"}, {"bike_id": "01f948c26ec0bdda31c9bb0b3e522356", "is_reserved": 0, "name": "01f948c26ec0bdda31c9bb0b3e522356", "lat": 38.846123, "fusion_lat": 0.0, "lon": -76.96909416666666, "is_disabled": 0, "fusion_lon": 0.0, "rental_uris": {"android": "https://dc.lft.to/lastmile_qr_scan", "ios": "https://dc.lft.to/lastmile_qr_scan"}, "type": "electric_bike"}, {"bike_id": "d150a2e4f0a0b10c788b56ec50b6a45c", "is_reserved": 0, "name": "d150a2e4f0a0b10c788b56ec50b6a45c", "lat": 38.9045885, "fusion_lat": 0.0, "lon": -77.0532725, "is_disabled": 0, "fusion_lon": 0.0, "rental_uris": {"android": "https://dc.lft.to/lastmile_qr_scan", "ios": "https://dc.lft.to/lastmile_qr_scan"}, "type": "electric_scooter"}, {"bike_id": "204ee0a79c52c2bc8334794304562ef7", "is_reserved": 0, "name": "204ee0a79c52c2bc8334794304562ef7", "lat": 38.900789333333336, "fusion_lat": 0.0, "lon": -77.01294733333333, "is_disabled": 0, "fusion_lon": 0.0, "rental_uris": {"android": "https://dc.lft.to/lastmile_qr_scan", "ios": "https://dc.lft.to/lastmile_qr_scan"}, "type": "electric_scooter"}, {"bike_id": "c2e253e01cc015f08f5f974782dfd129", "is_reserved": 0, "name": "c2e253e01cc015f08f5f974782dfd129", "lat": 38.87473133333334, "fusion_lat": 0.0, "lon": -77.00568283333334, "is_disabled": 0, "fusion_lon": 0.0, "rental_uris": {"android": "https://dc.lft.to/lastmile_qr_scan", "ios": "https://dc.lft.to/lastmile_qr_scan"}, "type": "electric_scooter"}, {"bike_id": "fa7fdc4f63f39c6e3d250891052f23c2", "is_reserved": 0, "name": "fa7fdc4f63f39c6e3d250891052f23c2", "lat": 38.876829666666666, "fusion_lat": 0.0, "lon": -77.0034515, "is_disabled": 0, "fusion_lon": 0.0, "rental_uris": {"android": "https://dc.lft.to/lastmile_qr_scan", "ios": "https://dc.lft.to/lastmile_qr_scan"}, "type": "electric_scooter"}, {"bike_id": "e7c36416bf4b6d9e33da68de02edb0b9", "is_reserved": 0, "name": "e7c36416bf4b6d9e33da68de02edb0b9", "lat": 38.8974525, "fusion_lat": 0.0, "lon": -77.03300533333334, "is_disabled": 0, "fusion_lon": 0.0, "rental_uris": {"android": "https://dc.lft.to/lastmile_qr_scan", "ios": "https://dc.lft.to/lastmile_qr_scan"}, "type": "electric_scooter"}, {"bike_id": "30fc4711bfb71e9aa23198d9ac16adeb", "is_reserved": 0, "name": "30fc4711bfb71e9aa23198d9ac16adeb", "lat": 38.92874466666667, "fusion_lat": 0.0, "lon": -77.03282733333333, "is_disabled": 0, "fusion_lon": 0.0, "rental_uris": {"android": "https://dc.lft.to/lastmile_qr_scan", "ios": "https://dc.lft.to/lastmile_qr_scan"}, "type": "electric_scooter"}, {"bike_id": "978176ddddcbcea01f6d322a53c55fbc", "is_reserved": 0, "name": "978176ddddcbcea01f6d322a53c55fbc", "lat": 38.892210666666664, "fusion_lat": 0.0, "lon": -77.0432625, "is_disabled": 0, "fusion_lon": 0.0, "rental_uris": {"android": "https://dc.lft.to/lastmile_qr_scan", "ios": "https://dc.lft.to/lastmile_qr_scan"}, "type": "electric_scooter"}, {"bike_id": "294f653ab3f4a1ee5e98929b1724719f", "is_reserved": 0, "name": "294f653ab3f4a1ee5e98929b1724719f", "lat": 38.93920966666667, "fusion_lat": 0.0, "lon": -77.02466533333333, "is_disabled": 0, "fusion_lon": 0.0, "rental_uris": {"android": "https://dc.lft.to/lastmile_qr_scan", "ios": "https://dc.lft.to/lastmile_qr_scan"}, "type": "electric_scooter"}, {"bike_id": "a1a70e4625094164a1a2eec2ef5baa33", "is_reserved": 0, "name": "a1a70e4625094164a1a2eec2ef5baa33", "lat": 38.873774833333336, "fusion_lat": 0.0, "lon": -77.00123333333333, "is_disabled": 0, "fusion_lon": 0.0, "rental_uris": {"android": "https://dc.lft.to/lastmile_qr_scan", "ios": "https://dc.lft.to/lastmile_qr_scan"}, "type": "electric_scooter"}, {"bike_id": "710bd7349c5590cf62f3fd4194b3ea9f", "is_reserved": 0, "name": "710bd7349c5590cf62f3fd4194b3ea9f", "lat": 38.9622025, "fusion_lat": 0.0, "lon": -77.02792, "is_disabled": 0, "fusion_lon": 0.0, "rental_uris": {"android": "https://dc.lft.to/lastmile_qr_scan", "ios": "https://dc.lft.to/lastmile_qr_scan"}, "type": "electric_bike"}, {"bike_id": "2e2267730ecf47e9f323744bb9180737", "is_reserved": 0, "name": "2e2267730ecf47e9f323744bb9180737", "lat": 38.9034745, "fusion_lat": 0.0, "lon": -77.05289983333333, "is_disabled": 0, "fusion_lon": 0.0, "rental_uris": {"android": "https://dc.lft.to/lastmile_qr_scan", "ios": "https://dc.lft.to/lastmile_qr_scan"}, "type": "electric_scooter"}, {"bike_id": "6ac3dd9e82c9b33fc9aacc1422efabe8", "is_reserved": 0, "name": "6ac3dd9e82c9b33fc9aacc1422efabe8", "lat": 38.90854783333333, "fusion_lat": 0.0, "lon": -77.02719, "is_disabled": 0, "fusion_lon": 0.0, "rental_uris": {"android": "https://dc.lft.to/lastmile_qr_scan", "ios": "https://dc.lft.to/lastmile_qr_scan"}, "type": "electric_scooter"}, {"bike_id": "9471a4cae00d145e626ad5d806deb2fe", "is_reserved": 0, "name": "9471a4cae00d145e626ad5d806deb2fe", "lat": 38.887363, "fusion_lat": 0.0, "lon": -77.02382966666667, "is_disabled": 0, "fusion_lon": 0.0, "rental_uris": {"android": "https://dc.lft.to/lastmile_qr_scan", "ios": "https://dc.lft.to/lastmile_qr_scan"}, "type": "electric_scooter"}, {"bike_id": "1b0f6a29faddd0e15f4c48f83b9ded85", "is_reserved": 0, "name": "1b0f6a29faddd0e15f4c48f83b9ded85", "lat": 38.899519, "fusion_lat": 0.0, "lon": -77.0448705, "is_disabled": 0, "fusion_lon": 0.0, "rental_uris": {"android": "https://dc.lft.to/lastmile_qr_scan", "ios": "https://dc.lft.to/lastmile_qr_scan"}, "type": "electric_scooter"}, {"bike_id": "178af20d81b980b591e77a0cd0946fb5", "is_reserved": 0, "name": "178af20d81b980b591e77a0cd0946fb5", "lat": 38.921964, "fusion_lat": 0.0, "lon": -77.03515833333333, "is_disabled": 0, "fusion_lon": 0.0, "rental_uris": {"android": "https://dc.lft.to/lastmile_qr_scan", "ios": "https://dc.lft.to/lastmile_qr_scan"}, "type": "electric_scooter"}, {"bike_id": "c099405b8fce878d05ebc5016641e081", "is_reserved": 0, "name": "c099405b8fce878d05ebc5016641e081", "lat": 38.905716166666664, "fusion_lat": 0.0, "lon": -77.03423366666667, "is_disabled": 0, "fusion_lon": 0.0, "rental_uris": {"android": "https://dc.lft.to/lastmile_qr_scan", "ios": "https://dc.lft.to/lastmile_qr_scan"}, "type": "electric_scooter"}, {"bike_id": "c524d711cc64fc54d2a3e4acc7872697", "is_reserved": 0, "name": "c524d711cc64fc54d2a3e4acc7872697", "lat": 38.90670866666667, "fusion_lat": 0.0, "lon": -77.02698283333334, "is_disabled": 0, "fusion_lon": 0.0, "rental_uris": {"android": "https://dc.lft.to/lastmile_qr_scan", "ios": "https://dc.lft.to/lastmile_qr_scan"}, "type": "electric_scooter"}, {"bike_id": "134d59dadee8b8fe27c4d6110d53a80e", "is_reserved": 0, "name": "134d59dadee8b8fe27c4d6110d53a80e", "lat": 38.9167765, "fusion_lat": 0.0, "lon": -77.04614416666666, "is_disabled": 0, "fusion_lon": 0.0, "rental_uris": {"android": "https://dc.lft.to/lastmile_qr_scan", "ios": "https://dc.lft.to/lastmile_qr_scan"}, "type": "electric_scooter"}, {"bike_id": "c09978422c32941db615a59137f080c4", "is_reserved": 0, "name": "c09978422c32941db615a59137f080c4", "lat": 38.927930833333335, "fusion_lat": 0.0, "lon": -77.035961, "is_disabled": 0, "fusion_lon": 0.0, "rental_uris": {"android": "https://dc.lft.to/lastmile_qr_scan", "ios": "https://dc.lft.to/lastmile_qr_scan"}, "type": "electric_scooter"}, {"bike_id": "d017c339f38cddc12b59912d1157512a", "is_reserved": 0, "name": "d017c339f38cddc12b59912d1157512a", "lat": 38.92677483333333, "fusion_lat": 0.0, "lon": -77.030961, "is_disabled": 0, "fusion_lon": 0.0, "rental_uris": {"android": "https://dc.lft.to/lastmile_qr_scan", "ios": "https://dc.lft.to/lastmile_qr_scan"}, "type": "electric_scooter"}, {"bike_id": "adc238e33f37bbec507089407fd312f7", "is_reserved": 0, "name": "adc238e33f37bbec507089407fd312f7", "lat": 38.9223155, "fusion_lat": 0.0, "lon": -77.020189, "is_disabled": 0, "fusion_lon": 0.0, "rental_uris": {"android": "https://dc.lft.to/lastmile_qr_scan", "ios": "https://dc.lft.to/lastmile_qr_scan"}, "type": "electric_scooter"}, {"bike_id": "abc41f7a7f15b6b3527daf958783cce6", "is_reserved": 0, "name": "abc41f7a7f15b6b3527daf958783cce6", "lat": 38.92450316666667, "fusion_lat": 0.0, "lon": -77.02033, "is_disabled": 0, "fusion_lon": 0.0, "rental_uris": {"android": "https://dc.lft.to/lastmile_qr_scan", "ios": "https://dc.lft.to/lastmile_qr_scan"}, "type": "electric_scooter"}, {"bike_id": "32db655d211c213e5731304c98314f2c", "is_reserved": 0, "name": "32db655d211c213e5731304c98314f2c", "lat": 38.89667516666667, "fusion_lat": 0.0, "lon": -76.93206433333333, "is_disabled": 0, "fusion_lon": 0.0, "rental_uris": {"android": "https://dc.lft.to/lastmile_qr_scan", "ios": "https://dc.lft.to/lastmile_qr_scan"}, "type": "electric_scooter"}, {"bike_id": "bad33383925980d51ba28ce140fc1159", "is_reserved": 0, "name": "bad33383925980d51ba28ce140fc1159", "lat": 38.89994133333333, "fusion_lat": 0.0, "lon": -77.00687783333333, "is_disabled": 0, "fusion_lon": 0.0, "rental_uris": {"android": "https://dc.lft.to/lastmile_qr_scan", "ios": "https://dc.lft.to/lastmile_qr_scan"}, "type": "electric_scooter"}, {"bike_id": "6e7245af4a8eeb68e7d4d124b05bd6f6", "is_reserved": 0, "name": "6e7245af4a8eeb68e7d4d124b05bd6f6", "lat": 38.8841795, "fusion_lat": 0.0, "lon": -77.00813533333333, "is_disabled": 0, "fusion_lon": 0.0, "rental_uris": {"android": "https://dc.lft.to/lastmile_qr_scan", "ios": "https://dc.lft.to/lastmile_qr_scan"}, "type": "electric_scooter"}, {"bike_id": "d2355067dca97b034a7f3354384223f0", "is_reserved": 0, "name": "d2355067dca97b034a7f3354384223f0", "lat": 38.923388, "fusion_lat": 0.0, "lon": -77.019101, "is_disabled": 0, "fusion_lon": 0.0, "rental_uris": {"android": "https://dc.lft.to/lastmile_qr_scan", "ios": "https://dc.lft.to/lastmile_qr_scan"}, "type": "electric_scooter"}, {"bike_id": "63d55aa6066d9fd65e801d61f62c8c43", "is_reserved": 0, "name": "63d55aa6066d9fd65e801d61f62c8c43", "lat": 38.9053045, "fusion_lat": 0.0, "lon": -77.056386, "is_disabled": 0, "fusion_lon": 0.0, "rental_uris": {"android": "https://dc.lft.to/lastmile_qr_scan", "ios": "https://dc.lft.to/lastmile_qr_scan"}, "type": "electric_scooter"}, {"bike_id": "e2ff8ea1844b0c232e35ac7fcf70455b", "is_reserved": 0, "name": "e2ff8ea1844b0c232e35ac7fcf70455b", "lat": 38.900361, "fusion_lat": 0.0, "lon": -76.988359, "is_disabled": 0, "fusion_lon": 0.0, "rental_uris": {"android": "https://dc.lft.to/lastmile_qr_scan", "ios": "https://dc.lft.to/lastmile_qr_scan"}, "type": "electric_scooter"}, {"bike_id": "c4a7ec42ce12a28bec81cb0afc276f3a", "is_reserved": 0, "name": "c4a7ec42ce12a28bec81cb0afc276f3a", "lat": 38.892426666666665, "fusion_lat": 0.0, "lon": -77.02802, "is_disabled": 0, "fusion_lon": 0.0, "rental_uris": {"android": "https://dc.lft.to/lastmile_qr_scan", "ios": "https://dc.lft.to/lastmile_qr_scan"}, "type": "electric_scooter"}, {"bike_id": "4732c6e94a25ee3a2927dfe1226d7b3b", "is_reserved": 0, "name": "4732c6e94a25ee3a2927dfe1226d7b3b", "lat": 38.8962525, "fusion_lat": 0.0, "lon": -77.02686433333334, "is_disabled": 0, "fusion_lon": 0.0, "rental_uris": {"android": "https://dc.lft.to/lastmile_qr_scan", "ios": "https://dc.lft.to/lastmile_qr_scan"}, "type": "electric_scooter"}, {"bike_id": "fb51b4cd2d441391ae206b4b4f4ab0f7", "is_reserved": 0, "name": "fb51b4cd2d441391ae206b4b4f4ab0f7", "lat": 38.88749216666667, "fusion_lat": 0.0, "lon": -77.02130283333334, "is_disabled": 0, "fusion_lon": 0.0, "rental_uris": {"android": "https://dc.lft.to/lastmile_qr_scan", "ios": "https://dc.lft.to/lastmile_qr_scan"}, "type": "electric_scooter"}, {"bike_id": "eaf4954153e220b2684f08986b5ced58", "is_reserved": 0, "name": "eaf4954153e220b2684f08986b5ced58", "lat": 38.9391345, "fusion_lat": 0.0, "lon": -77.02473, "is_disabled": 0, "fusion_lon": 0.0, "rental_uris": {"android": "https://dc.lft.to/lastmile_qr_scan", "ios": "https://dc.lft.to/lastmile_qr_scan"}, "type": "electric_scooter"}, {"bike_id": "9d92776601a3b5ff613e579b18c05b59", "is_reserved": 0, "name": "9d92776601a3b5ff613e579b18c05b59", "lat": 38.900453166666665, "fusion_lat": 0.0, "lon": -77.00200133333334, "is_disabled": 0, "fusion_lon": 0.0, "rental_uris": {"android": "https://dc.lft.to/lastmile_qr_scan", "ios": "https://dc.lft.to/lastmile_qr_scan"}, "type": "electric_scooter"}, {"bike_id": "ab8222ef7585988bf8d5ed2ad77b112b", "is_reserved": 0, "name": "ab8222ef7585988bf8d5ed2ad77b112b", "lat": 38.91260716666667, "fusion_lat": 0.0, "lon": -77.04439333333333, "is_disabled": 0, "fusion_lon": 0.0, "rental_uris": {"android": "https://dc.lft.to/lastmile_qr_scan", "ios": "https://dc.lft.to/lastmile_qr_scan"}, "type": "electric_scooter"}, {"bike_id": "149d1ca1f5d12931a486f7140f44bb12", "is_reserved": 0, "name": "149d1ca1f5d12931a486f7140f44bb12", "lat": 38.909590666666666, "fusion_lat": 0.0, "lon": -77.04648316666666, "is_disabled": 0, "fusion_lon": 0.0, "rental_uris": {"android": "https://dc.lft.to/lastmile_qr_scan", "ios": "https://dc.lft.to/lastmile_qr_scan"}, "type": "electric_scooter"}, {"bike_id": "b72abb5c97c79ef0512a0ac75b415e72", "is_reserved": 0, "name": "b72abb5c97c79ef0512a0ac75b415e72", "lat": 38.910402, "fusion_lat": 0.0, "lon": -77.0341065, "is_disabled": 0, "fusion_lon": 0.0, "rental_uris": {"android": "https://dc.lft.to/lastmile_qr_scan", "ios": "https://dc.lft.to/lastmile_qr_scan"}, "type": "electric_scooter"}, {"bike_id": "8e73781bfbd4c6ee72efcfaa6d748b51", "is_reserved": 0, "name": "8e73781bfbd4c6ee72efcfaa6d748b51", "lat": 38.901905, "fusion_lat": 0.0, "lon": -77.01622666666667, "is_disabled": 0, "fusion_lon": 0.0, "rental_uris": {"android": "https://dc.lft.to/lastmile_qr_scan", "ios": "https://dc.lft.to/lastmile_qr_scan"}, "type": "electric_scooter"}, {"bike_id": "50f65814efc873b986d9be26757c0df5", "is_reserved": 0, "name": "50f65814efc873b986d9be26757c0df5", "lat": 38.900266, "fusion_lat": 0.0, "lon": -77.04868416666666, "is_disabled": 0, "fusion_lon": 0.0, "rental_uris": {"android": "https://dc.lft.to/lastmile_qr_scan", "ios": "https://dc.lft.to/lastmile_qr_scan"}, "type": "electric_scooter"}, {"bike_id": "2d35866913eb6635e63d8d5c99cacc65", "is_reserved": 0, "name": "2d35866913eb6635e63d8d5c99cacc65", "lat": 38.907383833333334, "fusion_lat": 0.0, "lon": -77.02946683333333, "is_disabled": 0, "fusion_lon": 0.0, "rental_uris": {"android": "https://dc.lft.to/lastmile_qr_scan", "ios": "https://dc.lft.to/lastmile_qr_scan"}, "type": "electric_scooter"}, {"bike_id": "d69e3594d318d2b0d81486dca2cd14ce", "is_reserved": 0, "name": "d69e3594d318d2b0d81486dca2cd14ce", "lat": 38.90223916666667, "fusion_lat": 0.0, "lon": -77.023528, "is_disabled": 0, "fusion_lon": 0.0, "rental_uris": {"android": "https://dc.lft.to/lastmile_qr_scan", "ios": "https://dc.lft.to/lastmile_qr_scan"}, "type": "electric_scooter"}, {"bike_id": "3cc6d4f84aa0585551148d69d81cab24", "is_reserved": 0, "name": "3cc6d4f84aa0585551148d69d81cab24", "lat": 38.9238535, "fusion_lat": 0.0, "lon": -77.021596, "is_disabled": 0, "fusion_lon": 0.0, "rental_uris": {"android": "https://dc.lft.to/lastmile_qr_scan", "ios": "https://dc.lft.to/lastmile_qr_scan"}, "type": "electric_scooter"}, {"bike_id": "d2ac694e613b3a69bcd811f4469a3844", "is_reserved": 0, "name": "d2ac694e613b3a69bcd811f4469a3844", "lat": 38.93050233333334, "fusion_lat": 0.0, "lon": -77.01859866666666, "is_disabled": 0, "fusion_lon": 0.0, "rental_uris": {"android": "https://dc.lft.to/lastmile_qr_scan", "ios": "https://dc.lft.to/lastmile_qr_scan"}, "type": "electric_scooter"}, {"bike_id": "6fb519fda916da6f8280f963080817c6", "is_reserved": 0, "name": "6fb519fda916da6f8280f963080817c6", "lat": 38.89828883333333, "fusion_lat": 0.0, "lon": -77.02778166666667, "is_disabled": 0, "fusion_lon": 0.0, "rental_uris": {"android": "https://dc.lft.to/lastmile_qr_scan", "ios": "https://dc.lft.to/lastmile_qr_scan"}, "type": "electric_scooter"}, {"bike_id": "344dbf8751b2aa27b579e22faea26f89", "is_reserved": 0, "name": "344dbf8751b2aa27b579e22faea26f89", "lat": 38.92831116666667, "fusion_lat": 0.0, "lon": -76.99585683333333, "is_disabled": 0, "fusion_lon": 0.0, "rental_uris": {"android": "https://dc.lft.to/lastmile_qr_scan", "ios": "https://dc.lft.to/lastmile_qr_scan"}, "type": "electric_scooter"}, {"bike_id": "1b234c426ce818d7bcbdd54354850332", "is_reserved": 0, "name": "1b234c426ce818d7bcbdd54354850332", "lat": 38.91713516666667, "fusion_lat": 0.0, "lon": -76.97650016666667, "is_disabled": 0, "fusion_lon": 0.0, "rental_uris": {"android": "https://dc.lft.to/lastmile_qr_scan", "ios": "https://dc.lft.to/lastmile_qr_scan"}, "type": "electric_scooter"}, {"bike_id": "1423991cd99aa254386084ccbed27ee1", "is_reserved": 0, "name": "1423991cd99aa254386084ccbed27ee1", "lat": 38.90388883333333, "fusion_lat": 0.0, "lon": -77.0601265, "is_disabled": 0, "fusion_lon": 0.0, "rental_uris": {"android": "https://dc.lft.to/lastmile_qr_scan", "ios": "https://dc.lft.to/lastmile_qr_scan"}, "type": "electric_scooter"}, {"bike_id": "36c95cef73a6951d8aa4dc07d5a2cd31", "is_reserved": 0, "name": "36c95cef73a6951d8aa4dc07d5a2cd31", "lat": 38.91682766666667, "fusion_lat": 0.0, "lon": -77.02380283333333, "is_disabled": 0, "fusion_lon": 0.0, "rental_uris": {"android": "https://dc.lft.to/lastmile_qr_scan", "ios": "https://dc.lft.to/lastmile_qr_scan"}, "type": "electric_scooter"}, {"bike_id": "7ef70ceb235e189f327558416d61c69b", "is_reserved": 0, "name": "7ef70ceb235e189f327558416d61c69b", "lat": 38.890790333333335, "fusion_lat": 0.0, "lon": -77.0404055, "is_disabled": 0, "fusion_lon": 0.0, "rental_uris": {"android": "https://dc.lft.to/lastmile_qr_scan", "ios": "https://dc.lft.to/lastmile_qr_scan"}, "type": "electric_scooter"}, {"bike_id": "9be5d4cba357a07a73daf66f69d2c53c", "is_reserved": 0, "name": "9be5d4cba357a07a73daf66f69d2c53c", "lat": 38.898503833333336, "fusion_lat": 0.0, "lon": -77.007403, "is_disabled": 0, "fusion_lon": 0.0, "rental_uris": {"android": "https://dc.lft.to/lastmile_qr_scan", "ios": "https://dc.lft.to/lastmile_qr_scan"}, "type": "electric_scooter"}, {"bike_id": "552902466e4c0ee0a901d5e6153b5852", "is_reserved": 0, "name": "552902466e4c0ee0a901d5e6153b5852", "lat": 38.9041065, "fusion_lat": 0.0, "lon": -77.062751, "is_disabled": 0, "fusion_lon": 0.0, "rental_uris": {"android": "https://dc.lft.to/lastmile_qr_scan", "ios": "https://dc.lft.to/lastmile_qr_scan"}, "type": "electric_scooter"}, {"bike_id": "1948d67b84d1dde197620e5897973dc7", "is_reserved": 0, "name": "1948d67b84d1dde197620e5897973dc7", "lat": 38.8409525, "fusion_lat": 0.0, "lon": -77.10702233333333, "is_disabled": 0, "fusion_lon": 0.0, "rental_uris": {"android": "https://dc.lft.to/lastmile_qr_scan", "ios": "https://dc.lft.to/lastmile_qr_scan"}, "type": "electric_bike"}, {"bike_id": "60aa4b62e9ba1c65dd53ab2699c4f2db", "is_reserved": 0, "name": "60aa4b62e9ba1c65dd53ab2699c4f2db", "lat": 38.897205166666666, "fusion_lat": 0.0, "lon": -77.0020645, "is_disabled": 0, "fusion_lon": 0.0, "rental_uris": {"android": "https://dc.lft.to/lastmile_qr_scan", "ios": "https://dc.lft.to/lastmile_qr_scan"}, "type": "electric_scooter"}, {"bike_id": "b024230481293a3ac76c73d355d72646", "is_reserved": 0, "name": "b024230481293a3ac76c73d355d72646", "lat": 38.915957666666664, "fusion_lat": 0.0, "lon": -77.02307466666667, "is_disabled": 0, "fusion_lon": 0.0, "rental_uris": {"android": "https://dc.lft.to/lastmile_qr_scan", "ios": "https://dc.lft.to/lastmile_qr_scan"}, "type": "electric_scooter"}, {"bike_id": "580f3f530858fc09e85da6cbe8b9835e", "is_reserved": 0, "name": "580f3f530858fc09e85da6cbe8b9835e", "lat": 38.900147833333335, "fusion_lat": 0.0, "lon": -77.00215216666666, "is_disabled": 0, "fusion_lon": 0.0, "rental_uris": {"android": "https://dc.lft.to/lastmile_qr_scan", "ios": "https://dc.lft.to/lastmile_qr_scan"}, "type": "electric_scooter"}, {"bike_id": "e92f4022099d595fb96375dc2a9ec7a4", "is_reserved": 0, "name": "e92f4022099d595fb96375dc2a9ec7a4", "lat": 38.9236745, "fusion_lat": 0.0, "lon": -77.02108033333333, "is_disabled": 0, "fusion_lon": 0.0, "rental_uris": {"android": "https://dc.lft.to/lastmile_qr_scan", "ios": "https://dc.lft.to/lastmile_qr_scan"}, "type": "electric_scooter"}, {"bike_id": "ee9362f56ee7b8b2e4b2aaf6b53546ae", "is_reserved": 0, "name": "ee9362f56ee7b8b2e4b2aaf6b53546ae", "lat": 38.92346166666667, "fusion_lat": 0.0, "lon": -77.05179883333334, "is_disabled": 0, "fusion_lon": 0.0, "rental_uris": {"android": "https://dc.lft.to/lastmile_qr_scan", "ios": "https://dc.lft.to/lastmile_qr_scan"}, "type": "electric_scooter"}, {"bike_id": "5558a998ed76fcf85ff434ef4d8b4928", "is_reserved": 0, "name": "5558a998ed76fcf85ff434ef4d8b4928", "lat": 38.90780433333333, "fusion_lat": 0.0, "lon": -77.04506833333333, "is_disabled": 0, "fusion_lon": 0.0, "rental_uris": {"android": "https://dc.lft.to/lastmile_qr_scan", "ios": "https://dc.lft.to/lastmile_qr_scan"}, "type": "electric_scooter"}, {"bike_id": "85ea9c7c8298b4674e85131354e6a27a", "is_reserved": 0, "name": "85ea9c7c8298b4674e85131354e6a27a", "lat": 38.902206666666665, "fusion_lat": 0.0, "lon": -77.01611916666667, "is_disabled": 0, "fusion_lon": 0.0, "rental_uris": {"android": "https://dc.lft.to/lastmile_qr_scan", "ios": "https://dc.lft.to/lastmile_qr_scan"}, "type": "electric_scooter"}, {"bike_id": "560f01b2e46dd1a850997209bb011acd", "is_reserved": 0, "name": "560f01b2e46dd1a850997209bb011acd", "lat": 38.871794, "fusion_lat": 0.0, "lon": -77.00607933333333, "is_disabled": 0, "fusion_lon": 0.0, "rental_uris": {"android": "https://dc.lft.to/lastmile_qr_scan", "ios": "https://dc.lft.to/lastmile_qr_scan"}, "type": "electric_scooter"}, {"bike_id": "ec823cafe1d9de1d5324293147fcc072", "is_reserved": 0, "name": "ec823cafe1d9de1d5324293147fcc072", "lat": 38.900067166666666, "fusion_lat": 0.0, "lon": -77.05415033333334, "is_disabled": 0, "fusion_lon": 0.0, "rental_uris": {"android": "https://dc.lft.to/lastmile_qr_scan", "ios": "https://dc.lft.to/lastmile_qr_scan"}, "type": "electric_scooter"}, {"bike_id": "f435ff8ce926ccda922a16d36728cd1b", "is_reserved": 0, "name": "f435ff8ce926ccda922a16d36728cd1b", "lat": 38.88311266666667, "fusion_lat": 0.0, "lon": -77.01379, "is_disabled": 0, "fusion_lon": 0.0, "rental_uris": {"android": "https://dc.lft.to/lastmile_qr_scan", "ios": "https://dc.lft.to/lastmile_qr_scan"}, "type": "electric_scooter"}, {"bike_id": "b5a277b007fdeffd2023ed7905ce00c8", "is_reserved": 0, "name": "b5a277b007fdeffd2023ed7905ce00c8", "lat": 38.895259333333335, "fusion_lat": 0.0, "lon": -77.002109, "is_disabled": 0, "fusion_lon": 0.0, "rental_uris": {"android": "https://dc.lft.to/lastmile_qr_scan", "ios": "https://dc.lft.to/lastmile_qr_scan"}, "type": "electric_scooter"}, {"bike_id": "28a2c39dfd35a6aaf3a5f911f75448d7", "is_reserved": 0, "name": "28a2c39dfd35a6aaf3a5f911f75448d7", "lat": 38.910709, "fusion_lat": 0.0, "lon": -77.0424915, "is_disabled": 0, "fusion_lon": 0.0, "rental_uris": {"android": "https://dc.lft.to/lastmile_qr_scan", "ios": "https://dc.lft.to/lastmile_qr_scan"}, "type": "electric_scooter"}, {"bike_id": "c30c946b2dc5d0dfb641956e165cfbf3", "is_reserved": 0, "name": "c30c946b2dc5d0dfb641956e165cfbf3", "lat": 38.899232, "fusion_lat": 0.0, "lon": -77.04999283333333, "is_disabled": 0, "fusion_lon": 0.0, "rental_uris": {"android": "https://dc.lft.to/lastmile_qr_scan", "ios": "https://dc.lft.to/lastmile_qr_scan"}, "type": "electric_scooter"}, {"bike_id": "ea32b36a27eb601656e0709cce350e7f", "is_reserved": 0, "name": "ea32b36a27eb601656e0709cce350e7f", "lat": 38.903825166666664, "fusion_lat": 0.0, "lon": -77.03335016666666, "is_disabled": 0, "fusion_lon": 0.0, "rental_uris": {"android": "https://dc.lft.to/lastmile_qr_scan", "ios": "https://dc.lft.to/lastmile_qr_scan"}, "type": "electric_scooter"}, {"bike_id": "39e8337c1ccc9065ad33875c9e421a90", "is_reserved": 0, "name": "39e8337c1ccc9065ad33875c9e421a90", "lat": 38.88712433333333, "fusion_lat": 0.0, "lon": -77.02828066666666, "is_disabled": 0, "fusion_lon": 0.0, "rental_uris": {"android": "https://dc.lft.to/lastmile_qr_scan", "ios": "https://dc.lft.to/lastmile_qr_scan"}, "type": "electric_scooter"}, {"bike_id": "8c0d15aa54e24e500ef7cc69f8cd6285", "is_reserved": 0, "name": "8c0d15aa54e24e500ef7cc69f8cd6285", "lat": 38.88636, "fusion_lat": 0.0, "lon": -76.92582483333334, "is_disabled": 0, "fusion_lon": 0.0, "rental_uris": {"android": "https://dc.lft.to/lastmile_qr_scan", "ios": "https://dc.lft.to/lastmile_qr_scan"}, "type": "electric_scooter"}, {"bike_id": "3cd674a586abbabcfe0d2db540df673a", "is_reserved": 0, "name": "3cd674a586abbabcfe0d2db540df673a", "lat": 38.914042333333335, "fusion_lat": 0.0, "lon": -77.07550633333334, "is_disabled": 0, "fusion_lon": 0.0, "rental_uris": {"android": "https://dc.lft.to/lastmile_qr_scan", "ios": "https://dc.lft.to/lastmile_qr_scan"}, "type": "electric_scooter"}, {"bike_id": "9b876a3f3ff3998b80d00a602d5211a6", "is_reserved": 0, "name": "9b876a3f3ff3998b80d00a602d5211a6", "lat": 38.89953333333333, "fusion_lat": 0.0, "lon": -77.05703916666667, "is_disabled": 0, "fusion_lon": 0.0, "rental_uris": {"android": "https://dc.lft.to/lastmile_qr_scan", "ios": "https://dc.lft.to/lastmile_qr_scan"}, "type": "electric_scooter"}, {"bike_id": "37102a27f03642ed9000c13c6f0551ac", "is_reserved": 0, "name": "37102a27f03642ed9000c13c6f0551ac", "lat": 38.909561333333336, "fusion_lat": 0.0, "lon": -77.034655, "is_disabled": 0, "fusion_lon": 0.0, "rental_uris": {"android": "https://dc.lft.to/lastmile_qr_scan", "ios": "https://dc.lft.to/lastmile_qr_scan"}, "type": "electric_scooter"}, {"bike_id": "b25f79354934c18e075cf65b4b2fcf00", "is_reserved": 0, "name": "b25f79354934c18e075cf65b4b2fcf00", "lat": 38.94271166666667, "fusion_lat": 0.0, "lon": -77.03258666666666, "is_disabled": 0, "fusion_lon": 0.0, "rental_uris": {"android": "https://dc.lft.to/lastmile_qr_scan", "ios": "https://dc.lft.to/lastmile_qr_scan"}, "type": "electric_scooter"}, {"bike_id": "0acc0d6b187ca09e8f81774bb12e9b11", "is_reserved": 0, "name": "0acc0d6b187ca09e8f81774bb12e9b11", "lat": 38.91716383333333, "fusion_lat": 0.0, "lon": -77.03328233333333, "is_disabled": 0, "fusion_lon": 0.0, "rental_uris": {"android": "https://dc.lft.to/lastmile_qr_scan", "ios": "https://dc.lft.to/lastmile_qr_scan"}, "type": "electric_scooter"}, {"bike_id": "b7899c6030b0ace71a9c6c402566bdeb", "is_reserved": 0, "name": "b7899c6030b0ace71a9c6c402566bdeb", "lat": 38.93488416666667, "fusion_lat": 0.0, "lon": -77.07263333333333, "is_disabled": 0, "fusion_lon": 0.0, "rental_uris": {"android": "https://dc.lft.to/lastmile_qr_scan", "ios": "https://dc.lft.to/lastmile_qr_scan"}, "type": "electric_scooter"}, {"bike_id": "c767a146bfede19f709d608abb975e6d", "is_reserved": 0, "name": "c767a146bfede19f709d608abb975e6d", "lat": 38.897910833333334, "fusion_lat": 0.0, "lon": -76.947284, "is_disabled": 0, "fusion_lon": 0.0, "rental_uris": {"android": "https://dc.lft.to/lastmile_qr_scan", "ios": "https://dc.lft.to/lastmile_qr_scan"}, "type": "electric_scooter"}, {"bike_id": "d147d66ccc99aef75e29c70b97c6f6d3", "is_reserved": 0, "name": "d147d66ccc99aef75e29c70b97c6f6d3", "lat": 38.9192475, "fusion_lat": 0.0, "lon": -77.03259533333333, "is_disabled": 0, "fusion_lon": 0.0, "rental_uris": {"android": "https://dc.lft.to/lastmile_qr_scan", "ios": "https://dc.lft.to/lastmile_qr_scan"}, "type": "electric_scooter"}, {"bike_id": "f3f1ed05c799f6a1fc427261c0684be4", "is_reserved": 0, "name": "f3f1ed05c799f6a1fc427261c0684be4", "lat": 38.9036975, "fusion_lat": 0.0, "lon": -77.029832, "is_disabled": 0, "fusion_lon": 0.0, "rental_uris": {"android": "https://dc.lft.to/lastmile_qr_scan", "ios": "https://dc.lft.to/lastmile_qr_scan"}, "type": "electric_scooter"}, {"bike_id": "c4758b10048be6063613ff9ab725d35d", "is_reserved": 0, "name": "c4758b10048be6063613ff9ab725d35d", "lat": 38.87031316666667, "fusion_lat": 0.0, "lon": -77.2291015, "is_disabled": 0, "fusion_lon": 0.0, "rental_uris": {"android": "https://dc.lft.to/lastmile_qr_scan", "ios": "https://dc.lft.to/lastmile_qr_scan"}, "type": "electric_bike"}, {"bike_id": "1bab08d4e5fbacc42af5cf460c3d8cf7", "is_reserved": 0, "name": "1bab08d4e5fbacc42af5cf460c3d8cf7", "lat": 38.9234865, "fusion_lat": 0.0, "lon": -77.0390475, "is_disabled": 0, "fusion_lon": 0.0, "rental_uris": {"android": "https://dc.lft.to/lastmile_qr_scan", "ios": "https://dc.lft.to/lastmile_qr_scan"}, "type": "electric_scooter"}, {"bike_id": "b11119cae9ab66d5bdc5a5be54154991", "is_reserved": 0, "name": "b11119cae9ab66d5bdc5a5be54154991", "lat": 38.90724266666667, "fusion_lat": 0.0, "lon": -77.02520933333334, "is_disabled": 0, "fusion_lon": 0.0, "rental_uris": {"android": "https://dc.lft.to/lastmile_qr_scan", "ios": "https://dc.lft.to/lastmile_qr_scan"}, "type": "electric_scooter"}, {"bike_id": "14ce81e97cecc502778510387150cd3d", "is_reserved": 0, "name": "14ce81e97cecc502778510387150cd3d", "lat": 38.91814933333333, "fusion_lat": 0.0, "lon": -77.04000483333333, "is_disabled": 0, "fusion_lon": 0.0, "rental_uris": {"android": "https://dc.lft.to/lastmile_qr_scan", "ios": "https://dc.lft.to/lastmile_qr_scan"}, "type": "electric_scooter"}, {"bike_id": "50ea73fc1d9f1ab173a308bfaade47b1", "is_reserved": 0, "name": "50ea73fc1d9f1ab173a308bfaade47b1", "lat": 38.95594783333333, "fusion_lat": 0.0, "lon": -77.03362133333333, "is_disabled": 0, "fusion_lon": 0.0, "rental_uris": {"android": "https://dc.lft.to/lastmile_qr_scan", "ios": "https://dc.lft.to/lastmile_qr_scan"}, "type": "electric_scooter"}, {"bike_id": "77dfdc1a092ff78a54b9f57af99ef392", "is_reserved": 0, "name": "77dfdc1a092ff78a54b9f57af99ef392", "lat": 38.892112166666664, "fusion_lat": 0.0, "lon": -76.995695, "is_disabled": 0, "fusion_lon": 0.0, "rental_uris": {"android": "https://dc.lft.to/lastmile_qr_scan", "ios": "https://dc.lft.to/lastmile_qr_scan"}, "type": "electric_scooter"}, {"bike_id": "e4f0ac94eda928227720990f070e7dab", "is_reserved": 0, "name": "e4f0ac94eda928227720990f070e7dab", "lat": 38.9142155, "fusion_lat": 0.0, "lon": -77.0179975, "is_disabled": 0, "fusion_lon": 0.0, "rental_uris": {"android": "https://dc.lft.to/lastmile_qr_scan", "ios": "https://dc.lft.to/lastmile_qr_scan"}, "type": "electric_scooter"}, {"bike_id": "b32a5482c2ed968ef3e69f3b32797a33", "is_reserved": 0, "name": "b32a5482c2ed968ef3e69f3b32797a33", "lat": 38.93780483333333, "fusion_lat": 0.0, "lon": -77.03258316666667, "is_disabled": 0, "fusion_lon": 0.0, "rental_uris": {"android": "https://dc.lft.to/lastmile_qr_scan", "ios": "https://dc.lft.to/lastmile_qr_scan"}, "type": "electric_scooter"}, {"bike_id": "48f31e986cc0527e32198f71c9f5d432", "is_reserved": 0, "name": "48f31e986cc0527e32198f71c9f5d432", "lat": 38.91265333333333, "fusion_lat": 0.0, "lon": -77.02822566666667, "is_disabled": 0, "fusion_lon": 0.0, "rental_uris": {"android": "https://dc.lft.to/lastmile_qr_scan", "ios": "https://dc.lft.to/lastmile_qr_scan"}, "type": "electric_scooter"}, {"bike_id": "56e06bdee7221daf99e2535ae5184d6c", "is_reserved": 0, "name": "56e06bdee7221daf99e2535ae5184d6c", "lat": 38.911857166666664, "fusion_lat": 0.0, "lon": -77.0376065, "is_disabled": 0, "fusion_lon": 0.0, "rental_uris": {"android": "https://dc.lft.to/lastmile_qr_scan", "ios": "https://dc.lft.to/lastmile_qr_scan"}, "type": "electric_scooter"}, {"bike_id": "19326d6a1d03ef9602337151c1a671df", "is_reserved": 0, "name": "19326d6a1d03ef9602337151c1a671df", "lat": 38.895978, "fusion_lat": 0.0, "lon": -77.02345483333333, "is_disabled": 0, "fusion_lon": 0.0, "rental_uris": {"android": "https://dc.lft.to/lastmile_qr_scan", "ios": "https://dc.lft.to/lastmile_qr_scan"}, "type": "electric_scooter"}, {"bike_id": "db5f7ab134ad96b6420df3122ae53b26", "is_reserved": 0, "name": "db5f7ab134ad96b6420df3122ae53b26", "lat": 38.89541766666667, "fusion_lat": 0.0, "lon": -76.9495275, "is_disabled": 0, "fusion_lon": 0.0, "rental_uris": {"android": "https://dc.lft.to/lastmile_qr_scan", "ios": "https://dc.lft.to/lastmile_qr_scan"}, "type": "electric_scooter"}, {"bike_id": "65629fbb147ed99b16a634ac8cb6eb39", "is_reserved": 0, "name": "65629fbb147ed99b16a634ac8cb6eb39", "lat": 38.911146333333335, "fusion_lat": 0.0, "lon": -77.04540433333334, "is_disabled": 0, "fusion_lon": 0.0, "rental_uris": {"android": "https://dc.lft.to/lastmile_qr_scan", "ios": "https://dc.lft.to/lastmile_qr_scan"}, "type": "electric_scooter"}, {"bike_id": "f3e9eab6414ac50e014a20ae0ce623ba", "is_reserved": 0, "name": "f3e9eab6414ac50e014a20ae0ce623ba", "lat": 38.92755616666667, "fusion_lat": 0.0, "lon": -77.02423833333333, "is_disabled": 0, "fusion_lon": 0.0, "rental_uris": {"android": "https://dc.lft.to/lastmile_qr_scan", "ios": "https://dc.lft.to/lastmile_qr_scan"}, "type": "electric_scooter"}, {"bike_id": "644789efae8faab7d6990b7cc3b867de", "is_reserved": 0, "name": "644789efae8faab7d6990b7cc3b867de", "lat": 38.95087383333333, "fusion_lat": 0.0, "lon": -76.99791333333333, "is_disabled": 0, "fusion_lon": 0.0, "rental_uris": {"android": "https://dc.lft.to/lastmile_qr_scan", "ios": "https://dc.lft.to/lastmile_qr_scan"}, "type": "electric_bike"}, {"bike_id": "01564ea49a5e6a5e01f9b3eb7d5b09b8", "is_reserved": 0, "name": "01564ea49a5e6a5e01f9b3eb7d5b09b8", "lat": 38.8904555, "fusion_lat": 0.0, "lon": -77.01502566666667, "is_disabled": 0, "fusion_lon": 0.0, "rental_uris": {"android": "https://dc.lft.to/lastmile_qr_scan", "ios": "https://dc.lft.to/lastmile_qr_scan"}, "type": "electric_scooter"}, {"bike_id": "301467b13b675164957f8632a04f9dc8", "is_reserved": 0, "name": "301467b13b675164957f8632a04f9dc8", "lat": 38.904122, "fusion_lat": 0.0, "lon": -77.0465065, "is_disabled": 0, "fusion_lon": 0.0, "rental_uris": {"android": "https://dc.lft.to/lastmile_qr_scan", "ios": "https://dc.lft.to/lastmile_qr_scan"}, "type": "electric_scooter"}, {"bike_id": "521538465af7da006e979e05bf4565ac", "is_reserved": 0, "name": "521538465af7da006e979e05bf4565ac", "lat": 38.93689583333333, "fusion_lat": 0.0, "lon": -76.99056483333334, "is_disabled": 0, "fusion_lon": 0.0, "rental_uris": {"android": "https://dc.lft.to/lastmile_qr_scan", "ios": "https://dc.lft.to/lastmile_qr_scan"}, "type": "electric_bike"}, {"bike_id": "2b165250f7448b9c8feeda479522a654", "is_reserved": 0, "name": "2b165250f7448b9c8feeda479522a654", "lat": 38.890361166666665, "fusion_lat": 0.0, "lon": -77.02977316666667, "is_disabled": 0, "fusion_lon": 0.0, "rental_uris": {"android": "https://dc.lft.to/lastmile_qr_scan", "ios": "https://dc.lft.to/lastmile_qr_scan"}, "type": "electric_scooter"}, {"bike_id": "eaac02333da079571c5f142aeaeba3c1", "is_reserved": 0, "name": "eaac02333da079571c5f142aeaeba3c1", "lat": 38.90126866666667, "fusion_lat": 0.0, "lon": -77.002116, "is_disabled": 0, "fusion_lon": 0.0, "rental_uris": {"android": "https://dc.lft.to/lastmile_qr_scan", "ios": "https://dc.lft.to/lastmile_qr_scan"}, "type": "electric_scooter"}, {"bike_id": "a7a464fac2466cd985af05ed9fc7af21", "is_reserved": 0, "name": "a7a464fac2466cd985af05ed9fc7af21", "lat": 38.89197333333333, "fusion_lat": 0.0, "lon": -77.022199, "is_disabled": 0, "fusion_lon": 0.0, "rental_uris": {"android": "https://dc.lft.to/lastmile_qr_scan", "ios": "https://dc.lft.to/lastmile_qr_scan"}, "type": "electric_scooter"}, {"bike_id": "1e6673dd128e8e8b64a0853185d30365", "is_reserved": 0, "name": "1e6673dd128e8e8b64a0853185d30365", "lat": 38.905482666666664, "fusion_lat": 0.0, "lon": -77.0068775, "is_disabled": 0, "fusion_lon": 0.0, "rental_uris": {"android": "https://dc.lft.to/lastmile_qr_scan", "ios": "https://dc.lft.to/lastmile_qr_scan"}, "type": "electric_scooter"}, {"bike_id": "a01125db2928ba2ef07082da0942e448", "is_reserved": 0, "name": "a01125db2928ba2ef07082da0942e448", "lat": 38.88719866666667, "fusion_lat": 0.0, "lon": -77.03179283333333, "is_disabled": 0, "fusion_lon": 0.0, "rental_uris": {"android": "https://dc.lft.to/lastmile_qr_scan", "ios": "https://dc.lft.to/lastmile_qr_scan"}, "type": "electric_scooter"}, {"bike_id": "e7ded9ea26b773093bc9a3058b9c1edf", "is_reserved": 0, "name": "e7ded9ea26b773093bc9a3058b9c1edf", "lat": 38.875372166666665, "fusion_lat": 0.0, "lon": -77.005085, "is_disabled": 0, "fusion_lon": 0.0, "rental_uris": {"android": "https://dc.lft.to/lastmile_qr_scan", "ios": "https://dc.lft.to/lastmile_qr_scan"}, "type": "electric_scooter"}, {"bike_id": "f51b4e08d9edabea40dd327fa3f61508", "is_reserved": 0, "name": "f51b4e08d9edabea40dd327fa3f61508", "lat": 38.9003125, "fusion_lat": 0.0, "lon": -76.9913255, "is_disabled": 0, "fusion_lon": 0.0, "rental_uris": {"android": "https://dc.lft.to/lastmile_qr_scan", "ios": "https://dc.lft.to/lastmile_qr_scan"}, "type": "electric_scooter"}, {"bike_id": "45af8d7c63e89ad2172a8985f46f96cd", "is_reserved": 0, "name": "45af8d7c63e89ad2172a8985f46f96cd", "lat": 38.900642166666664, "fusion_lat": 0.0, "lon": -76.92742166666666, "is_disabled": 0, "fusion_lon": 0.0, "rental_uris": {"android": "https://dc.lft.to/lastmile_qr_scan", "ios": "https://dc.lft.to/lastmile_qr_scan"}, "type": "electric_scooter"}, {"bike_id": "8e3422c666bd8ce3a084ad41b08163c0", "is_reserved": 0, "name": "8e3422c666bd8ce3a084ad41b08163c0", "lat": 38.90153933333333, "fusion_lat": 0.0, "lon": -77.02296516666667, "is_disabled": 0, "fusion_lon": 0.0, "rental_uris": {"android": "https://dc.lft.to/lastmile_qr_scan", "ios": "https://dc.lft.to/lastmile_qr_scan"}, "type": "electric_scooter"}, {"bike_id": "0f1329517caf1e7f0cc27766a9bddbfb", "is_reserved": 0, "name": "0f1329517caf1e7f0cc27766a9bddbfb", "lat": 38.887662166666665, "fusion_lat": 0.0, "lon": -77.023701, "is_disabled": 0, "fusion_lon": 0.0, "rental_uris": {"android": "https://dc.lft.to/lastmile_qr_scan", "ios": "https://dc.lft.to/lastmile_qr_scan"}, "type": "electric_scooter"}, {"bike_id": "2b778b8e31d17b0f6c4f429fbb9bf958", "is_reserved": 0, "name": "2b778b8e31d17b0f6c4f429fbb9bf958", "lat": 38.895547666666666, "fusion_lat": 0.0, "lon": -76.94873866666667, "is_disabled": 0, "fusion_lon": 0.0, "rental_uris": {"android": "https://dc.lft.to/lastmile_qr_scan", "ios": "https://dc.lft.to/lastmile_qr_scan"}, "type": "electric_scooter"}, {"bike_id": "4c70cc34dd61cede46631082398dddf7", "is_reserved": 0, "name": "4c70cc34dd61cede46631082398dddf7", "lat": 38.807629, "fusion_lat": 0.0, "lon": -77.12982266666667, "is_disabled": 0, "fusion_lon": 0.0, "rental_uris": {"android": "https://dc.lft.to/lastmile_qr_scan", "ios": "https://dc.lft.to/lastmile_qr_scan"}, "type": "electric_bike"}, {"bike_id": "0eb1ae30719f93648b3762ab04686b8b", "is_reserved": 0, "name": "0eb1ae30719f93648b3762ab04686b8b", "lat": 38.879269666666666, "fusion_lat": 0.0, "lon": -77.00589233333334, "is_disabled": 0, "fusion_lon": 0.0, "rental_uris": {"android": "https://dc.lft.to/lastmile_qr_scan", "ios": "https://dc.lft.to/lastmile_qr_scan"}, "type": "electric_scooter"}, {"bike_id": "8efc1f0a1ab626c3ee587e30f98b2ad0", "is_reserved": 0, "name": "8efc1f0a1ab626c3ee587e30f98b2ad0", "lat": 38.90733933333333, "fusion_lat": 0.0, "lon": -77.029496, "is_disabled": 0, "fusion_lon": 0.0, "rental_uris": {"android": "https://dc.lft.to/lastmile_qr_scan", "ios": "https://dc.lft.to/lastmile_qr_scan"}, "type": "electric_scooter"}, {"bike_id": "b836647b1b2d9a5403ffcc8818e01ed6", "is_reserved": 0, "name": "b836647b1b2d9a5403ffcc8818e01ed6", "lat": 38.90153316666667, "fusion_lat": 0.0, "lon": -77.05910416666667, "is_disabled": 0, "fusion_lon": 0.0, "rental_uris": {"android": "https://dc.lft.to/lastmile_qr_scan", "ios": "https://dc.lft.to/lastmile_qr_scan"}, "type": "electric_scooter"}, {"bike_id": "3a6ee7e6ce2fa6b6493db24ee0ff260d", "is_reserved": 0, "name": "3a6ee7e6ce2fa6b6493db24ee0ff260d", "lat": 38.90531433333334, "fusion_lat": 0.0, "lon": -77.065204, "is_disabled": 0, "fusion_lon": 0.0, "rental_uris": {"android": "https://dc.lft.to/lastmile_qr_scan", "ios": "https://dc.lft.to/lastmile_qr_scan"}, "type": "electric_bike"}, {"bike_id": "303d06b909a967d8e995f6f4c57cf570", "is_reserved": 0, "name": "303d06b909a967d8e995f6f4c57cf570", "lat": 38.899667, "fusion_lat": 0.0, "lon": -77.05011333333333, "is_disabled": 0, "fusion_lon": 0.0, "rental_uris": {"android": "https://dc.lft.to/lastmile_qr_scan", "ios": "https://dc.lft.to/lastmile_qr_scan"}, "type": "electric_scooter"}, {"bike_id": "f7754c5bb3c7ddef198e57c897543144", "is_reserved": 0, "name": "f7754c5bb3c7ddef198e57c897543144", "lat": 38.843535833333334, "fusion_lat": 0.0, "lon": -76.97820716666666, "is_disabled": 0, "fusion_lon": 0.0, "rental_uris": {"android": "https://dc.lft.to/lastmile_qr_scan", "ios": "https://dc.lft.to/lastmile_qr_scan"}, "type": "electric_bike"}, {"bike_id": "1743e179b453f66c6595afd9f964d8a8", "is_reserved": 0, "name": "1743e179b453f66c6595afd9f964d8a8", "lat": 38.940206833333335, "fusion_lat": 0.0, "lon": -76.97607583333334, "is_disabled": 0, "fusion_lon": 0.0, "rental_uris": {"android": "https://dc.lft.to/lastmile_qr_scan", "ios": "https://dc.lft.to/lastmile_qr_scan"}, "type": "electric_bike"}, {"bike_id": "e8102a2967d3418a00ac069bd5019dd5", "is_reserved": 0, "name": "e8102a2967d3418a00ac069bd5019dd5", "lat": 38.923452833333336, "fusion_lat": 0.0, "lon": -77.052281, "is_disabled": 0, "fusion_lon": 0.0, "rental_uris": {"android": "https://dc.lft.to/lastmile_qr_scan", "ios": "https://dc.lft.to/lastmile_qr_scan"}, "type": "electric_scooter"}, {"bike_id": "94bc9700b8c2be26f81800da539432a2", "is_reserved": 0, "name": "94bc9700b8c2be26f81800da539432a2", "lat": 38.896628666666665, "fusion_lat": 0.0, "lon": -77.0248735, "is_disabled": 0, "fusion_lon": 0.0, "rental_uris": {"android": "https://dc.lft.to/lastmile_qr_scan", "ios": "https://dc.lft.to/lastmile_qr_scan"}, "type": "electric_scooter"}, {"bike_id": "a04d143e42d0cf6f40ae90dfebd81c5e", "is_reserved": 0, "name": "a04d143e42d0cf6f40ae90dfebd81c5e", "lat": 38.956297666666664, "fusion_lat": 0.0, "lon": -77.02835616666667, "is_disabled": 0, "fusion_lon": 0.0, "rental_uris": {"android": "https://dc.lft.to/lastmile_qr_scan", "ios": "https://dc.lft.to/lastmile_qr_scan"}, "type": "electric_scooter"}, {"bike_id": "6f13983fb22c12fa6ded3f0f8f1e2f83", "is_reserved": 0, "name": "6f13983fb22c12fa6ded3f0f8f1e2f83", "lat": 38.90497933333333, "fusion_lat": 0.0, "lon": -76.97445133333333, "is_disabled": 0, "fusion_lon": 0.0, "rental_uris": {"android": "https://dc.lft.to/lastmile_qr_scan", "ios": "https://dc.lft.to/lastmile_qr_scan"}, "type": "electric_bike"}, {"bike_id": "9b375967ff5087d0a440ef8d10eaeb03", "is_reserved": 0, "name": "9b375967ff5087d0a440ef8d10eaeb03", "lat": 38.9157875, "fusion_lat": 0.0, "lon": -76.98390383333333, "is_disabled": 0, "fusion_lon": 0.0, "rental_uris": {"android": "https://dc.lft.to/lastmile_qr_scan", "ios": "https://dc.lft.to/lastmile_qr_scan"}, "type": "electric_scooter"}, {"bike_id": "c922be270bfc9c334fdf686154b9a036", "is_reserved": 0, "name": "c922be270bfc9c334fdf686154b9a036", "lat": 38.89831916666667, "fusion_lat": 0.0, "lon": -77.03351733333334, "is_disabled": 0, "fusion_lon": 0.0, "rental_uris": {"android": "https://dc.lft.to/lastmile_qr_scan", "ios": "https://dc.lft.to/lastmile_qr_scan"}, "type": "electric_scooter"}, {"bike_id": "32d4ec34b5078a8a977c69f787c4ed09", "is_reserved": 0, "name": "32d4ec34b5078a8a977c69f787c4ed09", "lat": 38.9165195, "fusion_lat": 0.0, "lon": -77.04145233333334, "is_disabled": 0, "fusion_lon": 0.0, "rental_uris": {"android": "https://dc.lft.to/lastmile_qr_scan", "ios": "https://dc.lft.to/lastmile_qr_scan"}, "type": "electric_scooter"}, {"bike_id": "9bc3e7d4868c01276aa74a7e6cfb20d1", "is_reserved": 0, "name": "9bc3e7d4868c01276aa74a7e6cfb20d1", "lat": 38.870622833333336, "fusion_lat": 0.0, "lon": -77.00741166666667, "is_disabled": 0, "fusion_lon": 0.0, "rental_uris": {"android": "https://dc.lft.to/lastmile_qr_scan", "ios": "https://dc.lft.to/lastmile_qr_scan"}, "type": "electric_scooter"}, {"bike_id": "836e161c0c3423661f388402f857846f", "is_reserved": 0, "name": "836e161c0c3423661f388402f857846f", "lat": 38.79982783333333, "fusion_lat": 0.0, "lon": -77.129791, "is_disabled": 0, "fusion_lon": 0.0, "rental_uris": {"android": "https://dc.lft.to/lastmile_qr_scan", "ios": "https://dc.lft.to/lastmile_qr_scan"}, "type": "electric_bike"}, {"bike_id": "ce848cfb2ee3dd0ab8772a13f308e299", "is_reserved": 0, "name": "ce848cfb2ee3dd0ab8772a13f308e299", "lat": 38.921869, "fusion_lat": 0.0, "lon": -77.04190133333333, "is_disabled": 0, "fusion_lon": 0.0, "rental_uris": {"android": "https://dc.lft.to/lastmile_qr_scan", "ios": "https://dc.lft.to/lastmile_qr_scan"}, "type": "electric_scooter"}, {"bike_id": "3d8d8c59fc11a20b88ab3aa3d4ecfc06", "is_reserved": 0, "name": "3d8d8c59fc11a20b88ab3aa3d4ecfc06", "lat": 38.86335866666667, "fusion_lat": 0.0, "lon": -76.987193, "is_disabled": 0, "fusion_lon": 0.0, "rental_uris": {"android": "https://dc.lft.to/lastmile_qr_scan", "ios": "https://dc.lft.to/lastmile_qr_scan"}, "type": "electric_bike"}, {"bike_id": "0df1c72c1ab44125bd68c39ca0e17ade", "is_reserved": 0, "name": "0df1c72c1ab44125bd68c39ca0e17ade", "lat": 38.872059, "fusion_lat": 0.0, "lon": -77.01679333333334, "is_disabled": 0, "fusion_lon": 0.0, "rental_uris": {"android": "https://dc.lft.to/lastmile_qr_scan", "ios": "https://dc.lft.to/lastmile_qr_scan"}, "type": "electric_scooter"}, {"bike_id": "68903bd0eb8dd4b826af1f6a71e90206", "is_reserved": 0, "name": "68903bd0eb8dd4b826af1f6a71e90206", "lat": 38.91731383333333, "fusion_lat": 0.0, "lon": -77.04170016666667, "is_disabled": 0, "fusion_lon": 0.0, "rental_uris": {"android": "https://dc.lft.to/lastmile_qr_scan", "ios": "https://dc.lft.to/lastmile_qr_scan"}, "type": "electric_scooter"}, {"bike_id": "e5fb975b5ae222387d94da4eee70948b", "is_reserved": 0, "name": "e5fb975b5ae222387d94da4eee70948b", "lat": 38.95485883333333, "fusion_lat": 0.0, "lon": -77.02663116666666, "is_disabled": 0, "fusion_lon": 0.0, "rental_uris": {"android": "https://dc.lft.to/lastmile_qr_scan", "ios": "https://dc.lft.to/lastmile_qr_scan"}, "type": "electric_bike"}, {"bike_id": "2ba76cab81e4137194e2c658ac8ccede", "is_reserved": 0, "name": "2ba76cab81e4137194e2c658ac8ccede", "lat": 38.9185935, "fusion_lat": 0.0, "lon": -77.0417065, "is_disabled": 0, "fusion_lon": 0.0, "rental_uris": {"android": "https://dc.lft.to/lastmile_qr_scan", "ios": "https://dc.lft.to/lastmile_qr_scan"}, "type": "electric_scooter"}, {"bike_id": "3a8268019d6bf3d7a5c5746e5c8842e1", "is_reserved": 0, "name": "3a8268019d6bf3d7a5c5746e5c8842e1", "lat": 38.9326045, "fusion_lat": 0.0, "lon": -76.98897616666666, "is_disabled": 0, "fusion_lon": 0.0, "rental_uris": {"android": "https://dc.lft.to/lastmile_qr_scan", "ios": "https://dc.lft.to/lastmile_qr_scan"}, "type": "electric_scooter"}, {"bike_id": "c8d4c6b7d76dd188eef88ed3276fbc3b", "is_reserved": 0, "name": "c8d4c6b7d76dd188eef88ed3276fbc3b", "lat": 38.919567, "fusion_lat": 0.0, "lon": -77.04169183333333, "is_disabled": 0, "fusion_lon": 0.0, "rental_uris": {"android": "https://dc.lft.to/lastmile_qr_scan", "ios": "https://dc.lft.to/lastmile_qr_scan"}, "type": "electric_scooter"}, {"bike_id": "4ffcae5fa961541a00b02e35373ff250", "is_reserved": 0, "name": "4ffcae5fa961541a00b02e35373ff250", "lat": 38.898301000000004, "fusion_lat": 0.0, "lon": -77.0296415, "is_disabled": 0, "fusion_lon": 0.0, "rental_uris": {"android": "https://dc.lft.to/lastmile_qr_scan", "ios": "https://dc.lft.to/lastmile_qr_scan"}, "type": "electric_scooter"}, {"bike_id": "2dd65da9943311308a4c27076bf7cebb", "is_reserved": 0, "name": "2dd65da9943311308a4c27076bf7cebb", "lat": 38.902552666666665, "fusion_lat": 0.0, "lon": -77.01860166666667, "is_disabled": 0, "fusion_lon": 0.0, "rental_uris": {"android": "https://dc.lft.to/lastmile_qr_scan", "ios": "https://dc.lft.to/lastmile_qr_scan"}, "type": "electric_scooter"}, {"bike_id": "f14d1cebe81c7141f680bea369d3d72f", "is_reserved": 0, "name": "f14d1cebe81c7141f680bea369d3d72f", "lat": 38.905351333333336, "fusion_lat": 0.0, "lon": -77.05634116666667, "is_disabled": 0, "fusion_lon": 0.0, "rental_uris": {"android": "https://dc.lft.to/lastmile_qr_scan", "ios": "https://dc.lft.to/lastmile_qr_scan"}, "type": "electric_scooter"}, {"bike_id": "4fa11a468eac238615cbdaf0e3547e93", "is_reserved": 0, "name": "4fa11a468eac238615cbdaf0e3547e93", "lat": 38.88650666666667, "fusion_lat": 0.0, "lon": -77.01999483333333, "is_disabled": 0, "fusion_lon": 0.0, "rental_uris": {"android": "https://dc.lft.to/lastmile_qr_scan", "ios": "https://dc.lft.to/lastmile_qr_scan"}, "type": "electric_scooter"}, {"bike_id": "db522474ac0342f7120b883d3fa5f097", "is_reserved": 0, "name": "db522474ac0342f7120b883d3fa5f097", "lat": 38.9170815, "fusion_lat": 0.0, "lon": -77.03343616666666, "is_disabled": 0, "fusion_lon": 0.0, "rental_uris": {"android": "https://dc.lft.to/lastmile_qr_scan", "ios": "https://dc.lft.to/lastmile_qr_scan"}, "type": "electric_scooter"}, {"bike_id": "22fb76d3d9364614b6c2046b7ecb911e", "is_reserved": 0, "name": "22fb76d3d9364614b6c2046b7ecb911e", "lat": 38.9084505, "fusion_lat": 0.0, "lon": -77.06334983333333, "is_disabled": 0, "fusion_lon": 0.0, "rental_uris": {"android": "https://dc.lft.to/lastmile_qr_scan", "ios": "https://dc.lft.to/lastmile_qr_scan"}, "type": "electric_scooter"}, {"bike_id": "ed1508c3bb8094d3503661420f792754", "is_reserved": 0, "name": "ed1508c3bb8094d3503661420f792754", "lat": 38.92150016666667, "fusion_lat": 0.0, "lon": -77.03868683333333, "is_disabled": 0, "fusion_lon": 0.0, "rental_uris": {"android": "https://dc.lft.to/lastmile_qr_scan", "ios": "https://dc.lft.to/lastmile_qr_scan"}, "type": "electric_scooter"}, {"bike_id": "92e6482aa3a67c6e5e5d5ac0026b3dcb", "is_reserved": 0, "name": "92e6482aa3a67c6e5e5d5ac0026b3dcb", "lat": 38.92411833333333, "fusion_lat": 0.0, "lon": -77.03542816666666, "is_disabled": 0, "fusion_lon": 0.0, "rental_uris": {"android": "https://dc.lft.to/lastmile_qr_scan", "ios": "https://dc.lft.to/lastmile_qr_scan"}, "type": "electric_scooter"}, {"bike_id": "48c653dbfec10b1e9784440b0240a8e7", "is_reserved": 0, "name": "48c653dbfec10b1e9784440b0240a8e7", "lat": 38.9343325, "fusion_lat": 0.0, "lon": -77.0400115, "is_disabled": 0, "fusion_lon": 0.0, "rental_uris": {"android": "https://dc.lft.to/lastmile_qr_scan", "ios": "https://dc.lft.to/lastmile_qr_scan"}, "type": "electric_scooter"}, {"bike_id": "e06af721af43ab4507b908e84a897534", "is_reserved": 0, "name": "e06af721af43ab4507b908e84a897534", "lat": 38.91684733333334, "fusion_lat": 0.0, "lon": -77.03843, "is_disabled": 0, "fusion_lon": 0.0, "rental_uris": {"android": "https://dc.lft.to/lastmile_qr_scan", "ios": "https://dc.lft.to/lastmile_qr_scan"}, "type": "electric_scooter"}, {"bike_id": "1dab5f9f66dad05a025cdfbd49faf3b6", "is_reserved": 0, "name": "1dab5f9f66dad05a025cdfbd49faf3b6", "lat": 38.904178, "fusion_lat": 0.0, "lon": -77.02579933333334, "is_disabled": 0, "fusion_lon": 0.0, "rental_uris": {"android": "https://dc.lft.to/lastmile_qr_scan", "ios": "https://dc.lft.to/lastmile_qr_scan"}, "type": "electric_scooter"}, {"bike_id": "44b47010eec2e4deabf0a35c61961d6e", "is_reserved": 0, "name": "44b47010eec2e4deabf0a35c61961d6e", "lat": 38.871644333333336, "fusion_lat": 0.0, "lon": -77.00565666666667, "is_disabled": 0, "fusion_lon": 0.0, "rental_uris": {"android": "https://dc.lft.to/lastmile_qr_scan", "ios": "https://dc.lft.to/lastmile_qr_scan"}, "type": "electric_scooter"}, {"bike_id": "1119e638c14479466876ed4ded27476c", "is_reserved": 0, "name": "1119e638c14479466876ed4ded27476c", "lat": 38.89969083333333, "fusion_lat": 0.0, "lon": -76.99489166666666, "is_disabled": 0, "fusion_lon": 0.0, "rental_uris": {"android": "https://dc.lft.to/lastmile_qr_scan", "ios": "https://dc.lft.to/lastmile_qr_scan"}, "type": "electric_scooter"}, {"bike_id": "0f6276e248d206bdde375b19c52d0264", "is_reserved": 0, "name": "0f6276e248d206bdde375b19c52d0264", "lat": 38.898394833333334, "fusion_lat": 0.0, "lon": -77.0304825, "is_disabled": 0, "fusion_lon": 0.0, "rental_uris": {"android": "https://dc.lft.to/lastmile_qr_scan", "ios": "https://dc.lft.to/lastmile_qr_scan"}, "type": "electric_scooter"}, {"bike_id": "cfcefc17e95643022249085d4e3598b1", "is_reserved": 0, "name": "cfcefc17e95643022249085d4e3598b1", "lat": 38.9179915, "fusion_lat": 0.0, "lon": -77.034514, "is_disabled": 0, "fusion_lon": 0.0, "rental_uris": {"android": "https://dc.lft.to/lastmile_qr_scan", "ios": "https://dc.lft.to/lastmile_qr_scan"}, "type": "electric_scooter"}, {"bike_id": "53ba8014adfbb4fa46e83d4c867db423", "is_reserved": 0, "name": "53ba8014adfbb4fa46e83d4c867db423", "lat": 38.90907883333333, "fusion_lat": 0.0, "lon": -77.0421005, "is_disabled": 0, "fusion_lon": 0.0, "rental_uris": {"android": "https://dc.lft.to/lastmile_qr_scan", "ios": "https://dc.lft.to/lastmile_qr_scan"}, "type": "electric_scooter"}, {"bike_id": "ef7dec8be3382a5af64e65079d60a664", "is_reserved": 0, "name": "ef7dec8be3382a5af64e65079d60a664", "lat": 38.857347833333336, "fusion_lat": 0.0, "lon": -77.098072, "is_disabled": 0, "fusion_lon": 0.0, "rental_uris": {"android": "https://dc.lft.to/lastmile_qr_scan", "ios": "https://dc.lft.to/lastmile_qr_scan"}, "type": "electric_bike"}, {"bike_id": "2c270b40d3b81c3e3c906115281c51d7", "is_reserved": 0, "name": "2c270b40d3b81c3e3c906115281c51d7", "lat": 38.86667533333333, "fusion_lat": 0.0, "lon": -76.9889725, "is_disabled": 0, "fusion_lon": 0.0, "rental_uris": {"android": "https://dc.lft.to/lastmile_qr_scan", "ios": "https://dc.lft.to/lastmile_qr_scan"}, "type": "electric_scooter"}, {"bike_id": "295747298ef61a170d1e48bd9d2eed7a", "is_reserved": 0, "name": "295747298ef61a170d1e48bd9d2eed7a", "lat": 38.8928875, "fusion_lat": 0.0, "lon": -77.01238466666666, "is_disabled": 0, "fusion_lon": 0.0, "rental_uris": {"android": "https://dc.lft.to/lastmile_qr_scan", "ios": "https://dc.lft.to/lastmile_qr_scan"}, "type": "electric_scooter"}, {"bike_id": "cb5a0987e6591a8edcb14d772e7424c1", "is_reserved": 0, "name": "cb5a0987e6591a8edcb14d772e7424c1", "lat": 38.870635666666665, "fusion_lat": 0.0, "lon": -77.00744566666667, "is_disabled": 0, "fusion_lon": 0.0, "rental_uris": {"android": "https://dc.lft.to/lastmile_qr_scan", "ios": "https://dc.lft.to/lastmile_qr_scan"}, "type": "electric_scooter"}, {"bike_id": "2569c79d97abb3762687da10fe1a3800", "is_reserved": 0, "name": "2569c79d97abb3762687da10fe1a3800", "lat": 38.9082565, "fusion_lat": 0.0, "lon": -77.0318405, "is_disabled": 0, "fusion_lon": 0.0, "rental_uris": {"android": "https://dc.lft.to/lastmile_qr_scan", "ios": "https://dc.lft.to/lastmile_qr_scan"}, "type": "electric_scooter"}, {"bike_id": "5e2f68eec3c2f829f0c42ad3c497329a", "is_reserved": 0, "name": "5e2f68eec3c2f829f0c42ad3c497329a", "lat": 38.913962833333336, "fusion_lat": 0.0, "lon": -77.04339216666666, "is_disabled": 0, "fusion_lon": 0.0, "rental_uris": {"android": "https://dc.lft.to/lastmile_qr_scan", "ios": "https://dc.lft.to/lastmile_qr_scan"}, "type": "electric_scooter"}, {"bike_id": "605aacb12a93b29a9197969ace92227e", "is_reserved": 0, "name": "605aacb12a93b29a9197969ace92227e", "lat": 38.918125833333335, "fusion_lat": 0.0, "lon": -77.03164383333333, "is_disabled": 0, "fusion_lon": 0.0, "rental_uris": {"android": "https://dc.lft.to/lastmile_qr_scan", "ios": "https://dc.lft.to/lastmile_qr_scan"}, "type": "electric_scooter"}, {"bike_id": "ae6b7d1927caded67415ed6f322a0c60", "is_reserved": 0, "name": "ae6b7d1927caded67415ed6f322a0c60", "lat": 38.902963, "fusion_lat": 0.0, "lon": -77.016193, "is_disabled": 0, "fusion_lon": 0.0, "rental_uris": {"android": "https://dc.lft.to/lastmile_qr_scan", "ios": "https://dc.lft.to/lastmile_qr_scan"}, "type": "electric_scooter"}, {"bike_id": "7a8d79fe739974c01271e73251a01e0e", "is_reserved": 0, "name": "7a8d79fe739974c01271e73251a01e0e", "lat": 38.902401166666664, "fusion_lat": 0.0, "lon": -77.018566, "is_disabled": 0, "fusion_lon": 0.0, "rental_uris": {"android": "https://dc.lft.to/lastmile_qr_scan", "ios": "https://dc.lft.to/lastmile_qr_scan"}, "type": "electric_scooter"}, {"bike_id": "4712ba1b40eac90969b387f7933f5d92", "is_reserved": 0, "name": "4712ba1b40eac90969b387f7933f5d92", "lat": 38.89824566666667, "fusion_lat": 0.0, "lon": -77.05036816666667, "is_disabled": 0, "fusion_lon": 0.0, "rental_uris": {"android": "https://dc.lft.to/lastmile_qr_scan", "ios": "https://dc.lft.to/lastmile_qr_scan"}, "type": "electric_scooter"}, {"bike_id": "45f7278453e763b41acce0d19ea65d82", "is_reserved": 0, "name": "45f7278453e763b41acce0d19ea65d82", "lat": 38.922299333333335, "fusion_lat": 0.0, "lon": -77.02330866666667, "is_disabled": 0, "fusion_lon": 0.0, "rental_uris": {"android": "https://dc.lft.to/lastmile_qr_scan", "ios": "https://dc.lft.to/lastmile_qr_scan"}, "type": "electric_scooter"}, {"bike_id": "7ce9c6bec013088d2ca459126f6cddfc", "is_reserved": 0, "name": "7ce9c6bec013088d2ca459126f6cddfc", "lat": 38.9064175, "fusion_lat": 0.0, "lon": -77.04175933333333, "is_disabled": 0, "fusion_lon": 0.0, "rental_uris": {"android": "https://dc.lft.to/lastmile_qr_scan", "ios": "https://dc.lft.to/lastmile_qr_scan"}, "type": "electric_scooter"}, {"bike_id": "c1bf1f36a42066f6fe4afea858436a91", "is_reserved": 0, "name": "c1bf1f36a42066f6fe4afea858436a91", "lat": 38.90954816666667, "fusion_lat": 0.0, "lon": -77.03465016666667, "is_disabled": 0, "fusion_lon": 0.0, "rental_uris": {"android": "https://dc.lft.to/lastmile_qr_scan", "ios": "https://dc.lft.to/lastmile_qr_scan"}, "type": "electric_scooter"}, {"bike_id": "66690e4ebd03ecdcc50f91a500a4d81a", "is_reserved": 0, "name": "66690e4ebd03ecdcc50f91a500a4d81a", "lat": 38.89221633333333, "fusion_lat": 0.0, "lon": -77.04322983333333, "is_disabled": 0, "fusion_lon": 0.0, "rental_uris": {"android": "https://dc.lft.to/lastmile_qr_scan", "ios": "https://dc.lft.to/lastmile_qr_scan"}, "type": "electric_scooter"}, {"bike_id": "ec60a125c20b1711672808ed18111e8b", "is_reserved": 0, "name": "ec60a125c20b1711672808ed18111e8b", "lat": 38.94271533333333, "fusion_lat": 0.0, "lon": -77.03256966666666, "is_disabled": 0, "fusion_lon": 0.0, "rental_uris": {"android": "https://dc.lft.to/lastmile_qr_scan", "ios": "https://dc.lft.to/lastmile_qr_scan"}, "type": "electric_scooter"}, {"bike_id": "e88f6ed81ff0068abc1a84eb35c320ea", "is_reserved": 0, "name": "e88f6ed81ff0068abc1a84eb35c320ea", "lat": 38.8855715, "fusion_lat": 0.0, "lon": -77.0199955, "is_disabled": 0, "fusion_lon": 0.0, "rental_uris": {"android": "https://dc.lft.to/lastmile_qr_scan", "ios": "https://dc.lft.to/lastmile_qr_scan"}, "type": "electric_scooter"}, {"bike_id": "4a68b9e2f477dd6378d89cc0fda26f71", "is_reserved": 0, "name": "4a68b9e2f477dd6378d89cc0fda26f71", "lat": 38.89012016666667, "fusion_lat": 0.0, "lon": -76.9369745, "is_disabled": 0, "fusion_lon": 0.0, "rental_uris": {"android": "https://dc.lft.to/lastmile_qr_scan", "ios": "https://dc.lft.to/lastmile_qr_scan"}, "type": "electric_scooter"}, {"bike_id": "d88bd0c80be43bf791ac73885f17b3ed", "is_reserved": 0, "name": "d88bd0c80be43bf791ac73885f17b3ed", "lat": 38.9080325, "fusion_lat": 0.0, "lon": -77.0433695, "is_disabled": 0, "fusion_lon": 0.0, "rental_uris": {"android": "https://dc.lft.to/lastmile_qr_scan", "ios": "https://dc.lft.to/lastmile_qr_scan"}, "type": "electric_scooter"}, {"bike_id": "5cdf3756cfaf945e00cf138f91ca8795", "is_reserved": 0, "name": "5cdf3756cfaf945e00cf138f91ca8795", "lat": 38.91404983333334, "fusion_lat": 0.0, "lon": -77.02981816666667, "is_disabled": 0, "fusion_lon": 0.0, "rental_uris": {"android": "https://dc.lft.to/lastmile_qr_scan", "ios": "https://dc.lft.to/lastmile_qr_scan"}, "type": "electric_scooter"}, {"bike_id": "208e3313726a0e43eeb9ce0d8839b3c9", "is_reserved": 0, "name": "208e3313726a0e43eeb9ce0d8839b3c9", "lat": 38.89535866666667, "fusion_lat": 0.0, "lon": -77.01106416666667, "is_disabled": 0, "fusion_lon": 0.0, "rental_uris": {"android": "https://dc.lft.to/lastmile_qr_scan", "ios": "https://dc.lft.to/lastmile_qr_scan"}, "type": "electric_scooter"}, {"bike_id": "5e2dd5dd16e35536a6718ccff4138c03", "is_reserved": 0, "name": "5e2dd5dd16e35536a6718ccff4138c03", "lat": 38.90128883333333, "fusion_lat": 0.0, "lon": -77.0461495, "is_disabled": 0, "fusion_lon": 0.0, "rental_uris": {"android": "https://dc.lft.to/lastmile_qr_scan", "ios": "https://dc.lft.to/lastmile_qr_scan"}, "type": "electric_scooter"}, {"bike_id": "681920af6bc1f4b3ceb90e1dc41723f7", "is_reserved": 0, "name": "681920af6bc1f4b3ceb90e1dc41723f7", "lat": 38.8133065, "fusion_lat": 0.0, "lon": -77.050767, "is_disabled": 0, "fusion_lon": 0.0, "rental_uris": {"android": "https://dc.lft.to/lastmile_qr_scan", "ios": "https://dc.lft.to/lastmile_qr_scan"}, "type": "electric_bike"}, {"bike_id": "eec5cf80274e551483d10415bfe8f133", "is_reserved": 0, "name": "eec5cf80274e551483d10415bfe8f133", "lat": 38.889927666666665, "fusion_lat": 0.0, "lon": -76.9543295, "is_disabled": 0, "fusion_lon": 0.0, "rental_uris": {"android": "https://dc.lft.to/lastmile_qr_scan", "ios": "https://dc.lft.to/lastmile_qr_scan"}, "type": "electric_scooter"}, {"bike_id": "c95b1432a416573332681c51170ec90d", "is_reserved": 0, "name": "c95b1432a416573332681c51170ec90d", "lat": 38.89829833333334, "fusion_lat": 0.0, "lon": -77.02786583333334, "is_disabled": 0, "fusion_lon": 0.0, "rental_uris": {"android": "https://dc.lft.to/lastmile_qr_scan", "ios": "https://dc.lft.to/lastmile_qr_scan"}, "type": "electric_scooter"}, {"bike_id": "0df6b8dee9f2a99e8334771b2ff317b0", "is_reserved": 0, "name": "0df6b8dee9f2a99e8334771b2ff317b0", "lat": 38.8874635, "fusion_lat": 0.0, "lon": -77.01775816666667, "is_disabled": 0, "fusion_lon": 0.0, "rental_uris": {"android": "https://dc.lft.to/lastmile_qr_scan", "ios": "https://dc.lft.to/lastmile_qr_scan"}, "type": "electric_scooter"}, {"bike_id": "826e075559f440940ad45275dd0519b7", "is_reserved": 0, "name": "826e075559f440940ad45275dd0519b7", "lat": 38.9031845, "fusion_lat": 0.0, "lon": -77.024475, "is_disabled": 0, "fusion_lon": 0.0, "rental_uris": {"android": "https://dc.lft.to/lastmile_qr_scan", "ios": "https://dc.lft.to/lastmile_qr_scan"}, "type": "electric_scooter"}, {"bike_id": "665b1a34855b807618a4823173efebee", "is_reserved": 0, "name": "665b1a34855b807618a4823173efebee", "lat": 38.835159, "fusion_lat": 0.0, "lon": -76.98672566666667, "is_disabled": 0, "fusion_lon": 0.0, "rental_uris": {"android": "https://dc.lft.to/lastmile_qr_scan", "ios": "https://dc.lft.to/lastmile_qr_scan"}, "type": "electric_bike"}, {"bike_id": "f1b87bee4a30803afe67b0c10dd80a46", "is_reserved": 0, "name": "f1b87bee4a30803afe67b0c10dd80a46", "lat": 38.916946333333335, "fusion_lat": 0.0, "lon": -77.03038983333333, "is_disabled": 0, "fusion_lon": 0.0, "rental_uris": {"android": "https://dc.lft.to/lastmile_qr_scan", "ios": "https://dc.lft.to/lastmile_qr_scan"}, "type": "electric_scooter"}, {"bike_id": "0c637c0285d483d1b2fa6613445b4367", "is_reserved": 0, "name": "0c637c0285d483d1b2fa6613445b4367", "lat": 38.8765935, "fusion_lat": 0.0, "lon": -77.00074616666667, "is_disabled": 0, "fusion_lon": 0.0, "rental_uris": {"android": "https://dc.lft.to/lastmile_qr_scan", "ios": "https://dc.lft.to/lastmile_qr_scan"}, "type": "electric_scooter"}, {"bike_id": "d639b0ec8591108c778e2ec01bfb8411", "is_reserved": 0, "name": "d639b0ec8591108c778e2ec01bfb8411", "lat": 38.917504666666666, "fusion_lat": 0.0, "lon": -77.04154166666666, "is_disabled": 0, "fusion_lon": 0.0, "rental_uris": {"android": "https://dc.lft.to/lastmile_qr_scan", "ios": "https://dc.lft.to/lastmile_qr_scan"}, "type": "electric_scooter"}, {"bike_id": "659396e99c6f7fff021ac3586ab08692", "is_reserved": 0, "name": "659396e99c6f7fff021ac3586ab08692", "lat": 38.898341, "fusion_lat": 0.0, "lon": -76.94636166666666, "is_disabled": 0, "fusion_lon": 0.0, "rental_uris": {"android": "https://dc.lft.to/lastmile_qr_scan", "ios": "https://dc.lft.to/lastmile_qr_scan"}, "type": "electric_scooter"}, {"bike_id": "b17a7604cd722e4c42ee4da3b98f2aa0", "is_reserved": 0, "name": "b17a7604cd722e4c42ee4da3b98f2aa0", "lat": 38.92380133333333, "fusion_lat": 0.0, "lon": -77.03533583333333, "is_disabled": 0, "fusion_lon": 0.0, "rental_uris": {"android": "https://dc.lft.to/lastmile_qr_scan", "ios": "https://dc.lft.to/lastmile_qr_scan"}, "type": "electric_scooter"}, {"bike_id": "a597b901434b51734531b1006f866db4", "is_reserved": 0, "name": "a597b901434b51734531b1006f866db4", "lat": 38.91308133333333, "fusion_lat": 0.0, "lon": -77.02691533333333, "is_disabled": 0, "fusion_lon": 0.0, "rental_uris": {"android": "https://dc.lft.to/lastmile_qr_scan", "ios": "https://dc.lft.to/lastmile_qr_scan"}, "type": "electric_scooter"}, {"bike_id": "d88a89bd0fb3ac83b5cbc63a7437c4eb", "is_reserved": 0, "name": "d88a89bd0fb3ac83b5cbc63a7437c4eb", "lat": 38.90364183333333, "fusion_lat": 0.0, "lon": -77.032032, "is_disabled": 0, "fusion_lon": 0.0, "rental_uris": {"android": "https://dc.lft.to/lastmile_qr_scan", "ios": "https://dc.lft.to/lastmile_qr_scan"}, "type": "electric_scooter"}, {"bike_id": "bb0dfb75267a039369ed2d7c80ecbb0e", "is_reserved": 0, "name": "bb0dfb75267a039369ed2d7c80ecbb0e", "lat": 38.9022325, "fusion_lat": 0.0, "lon": -77.01610016666666, "is_disabled": 0, "fusion_lon": 0.0, "rental_uris": {"android": "https://dc.lft.to/lastmile_qr_scan", "ios": "https://dc.lft.to/lastmile_qr_scan"}, "type": "electric_scooter"}, {"bike_id": "a49952968d7b77998e06938ae6e30210", "is_reserved": 0, "name": "a49952968d7b77998e06938ae6e30210", "lat": 38.88111983333334, "fusion_lat": 0.0, "lon": -77.01646916666667, "is_disabled": 0, "fusion_lon": 0.0, "rental_uris": {"android": "https://dc.lft.to/lastmile_qr_scan", "ios": "https://dc.lft.to/lastmile_qr_scan"}, "type": "electric_scooter"}, {"bike_id": "3a360c5b51aa87c540dd16f391996d83", "is_reserved": 0, "name": "3a360c5b51aa87c540dd16f391996d83", "lat": 38.938267, "fusion_lat": 0.0, "lon": -76.986163, "is_disabled": 0, "fusion_lon": 0.0, "rental_uris": {"android": "https://dc.lft.to/lastmile_qr_scan", "ios": "https://dc.lft.to/lastmile_qr_scan"}, "type": "electric_scooter"}, {"bike_id": "daf87b3bbc6df5fceae75322e79e725b", "is_reserved": 0, "name": "daf87b3bbc6df5fceae75322e79e725b", "lat": 38.9074005, "fusion_lat": 0.0, "lon": -77.04324333333334, "is_disabled": 0, "fusion_lon": 0.0, "rental_uris": {"android": "https://dc.lft.to/lastmile_qr_scan", "ios": "https://dc.lft.to/lastmile_qr_scan"}, "type": "electric_scooter"}, {"bike_id": "bec6c59c5b150989976cb086944ab884", "is_reserved": 0, "name": "bec6c59c5b150989976cb086944ab884", "lat": 38.91555266666667, "fusion_lat": 0.0, "lon": -76.983439, "is_disabled": 0, "fusion_lon": 0.0, "rental_uris": {"android": "https://dc.lft.to/lastmile_qr_scan", "ios": "https://dc.lft.to/lastmile_qr_scan"}, "type": "electric_bike"}, {"bike_id": "ed2ab2c467db7a84324dc8eb20e4bb6a", "is_reserved": 0, "name": "ed2ab2c467db7a84324dc8eb20e4bb6a", "lat": 38.9017185, "fusion_lat": 0.0, "lon": -77.02486433333333, "is_disabled": 0, "fusion_lon": 0.0, "rental_uris": {"android": "https://dc.lft.to/lastmile_qr_scan", "ios": "https://dc.lft.to/lastmile_qr_scan"}, "type": "electric_scooter"}, {"bike_id": "a7c8716740fb8b744abd10df421b3328", "is_reserved": 0, "name": "a7c8716740fb8b744abd10df421b3328", "lat": 38.900626333333335, "fusion_lat": 0.0, "lon": -76.93383233333333, "is_disabled": 0, "fusion_lon": 0.0, "rental_uris": {"android": "https://dc.lft.to/lastmile_qr_scan", "ios": "https://dc.lft.to/lastmile_qr_scan"}, "type": "electric_scooter"}, {"bike_id": "f1cfae71284a2c328b98ee4dc1e87f83", "is_reserved": 0, "name": "f1cfae71284a2c328b98ee4dc1e87f83", "lat": 38.97882416666667, "fusion_lat": 0.0, "lon": -77.06027016666667, "is_disabled": 0, "fusion_lon": 0.0, "rental_uris": {"android": "https://dc.lft.to/lastmile_qr_scan", "ios": "https://dc.lft.to/lastmile_qr_scan"}, "type": "electric_bike"}, {"bike_id": "8af096196fd3301cc68efbd07f3cc6d3", "is_reserved": 0, "name": "8af096196fd3301cc68efbd07f3cc6d3", "lat": 38.877892, "fusion_lat": 0.0, "lon": -76.9994225, "is_disabled": 0, "fusion_lon": 0.0, "rental_uris": {"android": "https://dc.lft.to/lastmile_qr_scan", "ios": "https://dc.lft.to/lastmile_qr_scan"}, "type": "electric_scooter"}, {"bike_id": "2c5463913efffca68fcdfbe2a631d512", "is_reserved": 0, "name": "2c5463913efffca68fcdfbe2a631d512", "lat": 38.93986533333333, "fusion_lat": 0.0, "lon": -77.02864716666667, "is_disabled": 0, "fusion_lon": 0.0, "rental_uris": {"android": "https://dc.lft.to/lastmile_qr_scan", "ios": "https://dc.lft.to/lastmile_qr_scan"}, "type": "electric_scooter"}, {"bike_id": "935ece04960b82a962178ef19c22c0f2", "is_reserved": 0, "name": "935ece04960b82a962178ef19c22c0f2", "lat": 38.923440166666666, "fusion_lat": 0.0, "lon": -77.05170166666667, "is_disabled": 0, "fusion_lon": 0.0, "rental_uris": {"android": "https://dc.lft.to/lastmile_qr_scan", "ios": "https://dc.lft.to/lastmile_qr_scan"}, "type": "electric_scooter"}, {"bike_id": "2a439d181bf33757e187606ed2034ba5", "is_reserved": 0, "name": "2a439d181bf33757e187606ed2034ba5", "lat": 38.91806483333333, "fusion_lat": 0.0, "lon": -77.02495066666667, "is_disabled": 0, "fusion_lon": 0.0, "rental_uris": {"android": "https://dc.lft.to/lastmile_qr_scan", "ios": "https://dc.lft.to/lastmile_qr_scan"}, "type": "electric_scooter"}, {"bike_id": "f1f84b8f5bbe2008e072a4e109a5a739", "is_reserved": 0, "name": "f1f84b8f5bbe2008e072a4e109a5a739", "lat": 38.918251833333336, "fusion_lat": 0.0, "lon": -77.0241895, "is_disabled": 0, "fusion_lon": 0.0, "rental_uris": {"android": "https://dc.lft.to/lastmile_qr_scan", "ios": "https://dc.lft.to/lastmile_qr_scan"}, "type": "electric_scooter"}, {"bike_id": "005240ce5bdfdfc0c7c6794187de5ad1", "is_reserved": 0, "name": "005240ce5bdfdfc0c7c6794187de5ad1", "lat": 38.91689783333333, "fusion_lat": 0.0, "lon": -77.028655, "is_disabled": 0, "fusion_lon": 0.0, "rental_uris": {"android": "https://dc.lft.to/lastmile_qr_scan", "ios": "https://dc.lft.to/lastmile_qr_scan"}, "type": "electric_scooter"}, {"bike_id": "06c042d2df30d3fd86d425cd58a98848", "is_reserved": 0, "name": "06c042d2df30d3fd86d425cd58a98848", "lat": 38.87765383333333, "fusion_lat": 0.0, "lon": -77.01048533333334, "is_disabled": 0, "fusion_lon": 0.0, "rental_uris": {"android": "https://dc.lft.to/lastmile_qr_scan", "ios": "https://dc.lft.to/lastmile_qr_scan"}, "type": "electric_bike"}, {"bike_id": "f4446000730d70252024e98fddc12bee", "is_reserved": 0, "name": "f4446000730d70252024e98fddc12bee", "lat": 38.92351516666667, "fusion_lat": 0.0, "lon": -77.00305466666667, "is_disabled": 0, "fusion_lon": 0.0, "rental_uris": {"android": "https://dc.lft.to/lastmile_qr_scan", "ios": "https://dc.lft.to/lastmile_qr_scan"}, "type": "electric_scooter"}, {"bike_id": "da230112e7e9d7c13df8fa64fe64fb52", "is_reserved": 0, "name": "da230112e7e9d7c13df8fa64fe64fb52", "lat": 38.91103716666667, "fusion_lat": 0.0, "lon": -77.04466766666667, "is_disabled": 0, "fusion_lon": 0.0, "rental_uris": {"android": "https://dc.lft.to/lastmile_qr_scan", "ios": "https://dc.lft.to/lastmile_qr_scan"}, "type": "electric_scooter"}, {"bike_id": "ab5246a83ba56a45a07f6b6351f1729d", "is_reserved": 0, "name": "ab5246a83ba56a45a07f6b6351f1729d", "lat": 38.9020745, "fusion_lat": 0.0, "lon": -77.05072133333333, "is_disabled": 0, "fusion_lon": 0.0, "rental_uris": {"android": "https://dc.lft.to/lastmile_qr_scan", "ios": "https://dc.lft.to/lastmile_qr_scan"}, "type": "electric_scooter"}, {"bike_id": "d3414e73bf4512ca3f6da48552392870", "is_reserved": 0, "name": "d3414e73bf4512ca3f6da48552392870", "lat": 38.94307416666667, "fusion_lat": 0.0, "lon": -77.02491783333333, "is_disabled": 0, "fusion_lon": 0.0, "rental_uris": {"android": "https://dc.lft.to/lastmile_qr_scan", "ios": "https://dc.lft.to/lastmile_qr_scan"}, "type": "electric_scooter"}, {"bike_id": "f785bbe094dbe179f1bb449662cf2a9d", "is_reserved": 0, "name": "f785bbe094dbe179f1bb449662cf2a9d", "lat": 38.90434783333333, "fusion_lat": 0.0, "lon": -77.03206633333333, "is_disabled": 0, "fusion_lon": 0.0, "rental_uris": {"android": "https://dc.lft.to/lastmile_qr_scan", "ios": "https://dc.lft.to/lastmile_qr_scan"}, "type": "electric_scooter"}, {"bike_id": "5ddfdafe41bf18dd43cc8515aa8fb46b", "is_reserved": 0, "name": "5ddfdafe41bf18dd43cc8515aa8fb46b", "lat": 38.9111735, "fusion_lat": 0.0, "lon": -77.04458283333334, "is_disabled": 0, "fusion_lon": 0.0, "rental_uris": {"android": "https://dc.lft.to/lastmile_qr_scan", "ios": "https://dc.lft.to/lastmile_qr_scan"}, "type": "electric_scooter"}, {"bike_id": "2a7e43f0ed58c5ddbbd97df413eae82a", "is_reserved": 0, "name": "2a7e43f0ed58c5ddbbd97df413eae82a", "lat": 38.924392166666664, "fusion_lat": 0.0, "lon": -77.052043, "is_disabled": 0, "fusion_lon": 0.0, "rental_uris": {"android": "https://dc.lft.to/lastmile_qr_scan", "ios": "https://dc.lft.to/lastmile_qr_scan"}, "type": "electric_bike"}, {"bike_id": "e57c90857b0f9aeffa696a426ccb4547", "is_reserved": 0, "name": "e57c90857b0f9aeffa696a426ccb4547", "lat": 38.904671666666665, "fusion_lat": 0.0, "lon": -77.01890533333334, "is_disabled": 0, "fusion_lon": 0.0, "rental_uris": {"android": "https://dc.lft.to/lastmile_qr_scan", "ios": "https://dc.lft.to/lastmile_qr_scan"}, "type": "electric_scooter"}, {"bike_id": "d4955fab7a2cfdbffc4aa036eb02314a", "is_reserved": 0, "name": "d4955fab7a2cfdbffc4aa036eb02314a", "lat": 38.900063, "fusion_lat": 0.0, "lon": -77.04666516666667, "is_disabled": 0, "fusion_lon": 0.0, "rental_uris": {"android": "https://dc.lft.to/lastmile_qr_scan", "ios": "https://dc.lft.to/lastmile_qr_scan"}, "type": "electric_scooter"}, {"bike_id": "8f43e64e9735a4b02d592450aae98897", "is_reserved": 0, "name": "8f43e64e9735a4b02d592450aae98897", "lat": 38.902492, "fusion_lat": 0.0, "lon": -77.03422883333333, "is_disabled": 0, "fusion_lon": 0.0, "rental_uris": {"android": "https://dc.lft.to/lastmile_qr_scan", "ios": "https://dc.lft.to/lastmile_qr_scan"}, "type": "electric_scooter"}, {"bike_id": "c624311f84efebc2de2c0793775d1b33", "is_reserved": 0, "name": "c624311f84efebc2de2c0793775d1b33", "lat": 38.924308333333336, "fusion_lat": 0.0, "lon": -77.04004366666666, "is_disabled": 0, "fusion_lon": 0.0, "rental_uris": {"android": "https://dc.lft.to/lastmile_qr_scan", "ios": "https://dc.lft.to/lastmile_qr_scan"}, "type": "electric_scooter"}, {"bike_id": "06938a7c14e402236afa776618013ef2", "is_reserved": 0, "name": "06938a7c14e402236afa776618013ef2", "lat": 38.900657, "fusion_lat": 0.0, "lon": -77.02332333333334, "is_disabled": 0, "fusion_lon": 0.0, "rental_uris": {"android": "https://dc.lft.to/lastmile_qr_scan", "ios": "https://dc.lft.to/lastmile_qr_scan"}, "type": "electric_scooter"}, {"bike_id": "4ad1d8010d95ed392e9fed7308673f37", "is_reserved": 0, "name": "4ad1d8010d95ed392e9fed7308673f37", "lat": 38.89221966666667, "fusion_lat": 0.0, "lon": -77.045016, "is_disabled": 0, "fusion_lon": 0.0, "rental_uris": {"android": "https://dc.lft.to/lastmile_qr_scan", "ios": "https://dc.lft.to/lastmile_qr_scan"}, "type": "electric_scooter"}, {"bike_id": "559853458c09495f6902d33758146efb", "is_reserved": 0, "name": "559853458c09495f6902d33758146efb", "lat": 38.87154483333333, "fusion_lat": 0.0, "lon": -77.1314375, "is_disabled": 0, "fusion_lon": 0.0, "rental_uris": {"android": "https://dc.lft.to/lastmile_qr_scan", "ios": "https://dc.lft.to/lastmile_qr_scan"}, "type": "electric_bike"}, {"bike_id": "3bee7c19527904e4ea4777011afb7b19", "is_reserved": 0, "name": "3bee7c19527904e4ea4777011afb7b19", "lat": 38.87556816666667, "fusion_lat": 0.0, "lon": -77.00600366666667, "is_disabled": 0, "fusion_lon": 0.0, "rental_uris": {"android": "https://dc.lft.to/lastmile_qr_scan", "ios": "https://dc.lft.to/lastmile_qr_scan"}, "type": "electric_scooter"}, {"bike_id": "36bacbc5c761ecf50a56253f1f325914", "is_reserved": 0, "name": "36bacbc5c761ecf50a56253f1f325914", "lat": 38.911097166666664, "fusion_lat": 0.0, "lon": -77.0453905, "is_disabled": 0, "fusion_lon": 0.0, "rental_uris": {"android": "https://dc.lft.to/lastmile_qr_scan", "ios": "https://dc.lft.to/lastmile_qr_scan"}, "type": "electric_scooter"}, {"bike_id": "d539a78bbc4e45fdf583d5d524133c68", "is_reserved": 0, "name": "d539a78bbc4e45fdf583d5d524133c68", "lat": 38.9054395, "fusion_lat": 0.0, "lon": -77.04499583333333, "is_disabled": 0, "fusion_lon": 0.0, "rental_uris": {"android": "https://dc.lft.to/lastmile_qr_scan", "ios": "https://dc.lft.to/lastmile_qr_scan"}, "type": "electric_scooter"}, {"bike_id": "a769a7463e8041e30526bf132892c1a1", "is_reserved": 0, "name": "a769a7463e8041e30526bf132892c1a1", "lat": 38.89839966666667, "fusion_lat": 0.0, "lon": -77.02187883333333, "is_disabled": 0, "fusion_lon": 0.0, "rental_uris": {"android": "https://dc.lft.to/lastmile_qr_scan", "ios": "https://dc.lft.to/lastmile_qr_scan"}, "type": "electric_scooter"}, {"bike_id": "78537e2a0cefa3145d1580d844cbf0ec", "is_reserved": 0, "name": "78537e2a0cefa3145d1580d844cbf0ec", "lat": 38.922971, "fusion_lat": 0.0, "lon": -77.0232585, "is_disabled": 0, "fusion_lon": 0.0, "rental_uris": {"android": "https://dc.lft.to/lastmile_qr_scan", "ios": "https://dc.lft.to/lastmile_qr_scan"}, "type": "electric_scooter"}, {"bike_id": "79edec6253eb1ca4fda7d6f4e2099ba0", "is_reserved": 0, "name": "79edec6253eb1ca4fda7d6f4e2099ba0", "lat": 38.9126365, "fusion_lat": 0.0, "lon": -77.03299283333334, "is_disabled": 0, "fusion_lon": 0.0, "rental_uris": {"android": "https://dc.lft.to/lastmile_qr_scan", "ios": "https://dc.lft.to/lastmile_qr_scan"}, "type": "electric_scooter"}, {"bike_id": "f6e9652e581fa2d29076b620b67ccde6", "is_reserved": 0, "name": "f6e9652e581fa2d29076b620b67ccde6", "lat": 38.908110666666666, "fusion_lat": 0.0, "lon": -77.034543, "is_disabled": 0, "fusion_lon": 0.0, "rental_uris": {"android": "https://dc.lft.to/lastmile_qr_scan", "ios": "https://dc.lft.to/lastmile_qr_scan"}, "type": "electric_scooter"}, {"bike_id": "885a9196616ad22788adc46be02a795c", "is_reserved": 0, "name": "885a9196616ad22788adc46be02a795c", "lat": 38.919435, "fusion_lat": 0.0, "lon": -77.024942, "is_disabled": 0, "fusion_lon": 0.0, "rental_uris": {"android": "https://dc.lft.to/lastmile_qr_scan", "ios": "https://dc.lft.to/lastmile_qr_scan"}, "type": "electric_scooter"}, {"bike_id": "1c08e41c03875b566fe33d7c7d143d7b", "is_reserved": 0, "name": "1c08e41c03875b566fe33d7c7d143d7b", "lat": 38.922617333333335, "fusion_lat": 0.0, "lon": -77.01868033333334, "is_disabled": 0, "fusion_lon": 0.0, "rental_uris": {"android": "https://dc.lft.to/lastmile_qr_scan", "ios": "https://dc.lft.to/lastmile_qr_scan"}, "type": "electric_scooter"}, {"bike_id": "11346a87470ceda658328a69b06ec9c2", "is_reserved": 0, "name": "11346a87470ceda658328a69b06ec9c2", "lat": 38.89610116666667, "fusion_lat": 0.0, "lon": -77.0442635, "is_disabled": 0, "fusion_lon": 0.0, "rental_uris": {"android": "https://dc.lft.to/lastmile_qr_scan", "ios": "https://dc.lft.to/lastmile_qr_scan"}, "type": "electric_scooter"}, {"bike_id": "db52a298d0bf5fbd57e925811c1da317", "is_reserved": 0, "name": "db52a298d0bf5fbd57e925811c1da317", "lat": 38.926143, "fusion_lat": 0.0, "lon": -77.07569283333333, "is_disabled": 0, "fusion_lon": 0.0, "rental_uris": {"android": "https://dc.lft.to/lastmile_qr_scan", "ios": "https://dc.lft.to/lastmile_qr_scan"}, "type": "electric_scooter"}, {"bike_id": "2e447001542ca860d1c81001ee9e2781", "is_reserved": 0, "name": "2e447001542ca860d1c81001ee9e2781", "lat": 38.910475, "fusion_lat": 0.0, "lon": -77.04379583333333, "is_disabled": 0, "fusion_lon": 0.0, "rental_uris": {"android": "https://dc.lft.to/lastmile_qr_scan", "ios": "https://dc.lft.to/lastmile_qr_scan"}, "type": "electric_scooter"}, {"bike_id": "3ca37ed900494939aede9c9401a833ad", "is_reserved": 0, "name": "3ca37ed900494939aede9c9401a833ad", "lat": 38.91715883333333, "fusion_lat": 0.0, "lon": -77.040649, "is_disabled": 0, "fusion_lon": 0.0, "rental_uris": {"android": "https://dc.lft.to/lastmile_qr_scan", "ios": "https://dc.lft.to/lastmile_qr_scan"}, "type": "electric_scooter"}, {"bike_id": "3e8e1ac40ae00d301edec061c5cb7a86", "is_reserved": 0, "name": "3e8e1ac40ae00d301edec061c5cb7a86", "lat": 38.9287485, "fusion_lat": 0.0, "lon": -77.01362433333334, "is_disabled": 0, "fusion_lon": 0.0, "rental_uris": {"android": "https://dc.lft.to/lastmile_qr_scan", "ios": "https://dc.lft.to/lastmile_qr_scan"}, "type": "electric_scooter"}, {"bike_id": "b10b59a14e276603ed9e022739adbc4b", "is_reserved": 0, "name": "b10b59a14e276603ed9e022739adbc4b", "lat": 38.903630166666666, "fusion_lat": 0.0, "lon": -77.038478, "is_disabled": 0, "fusion_lon": 0.0, "rental_uris": {"android": "https://dc.lft.to/lastmile_qr_scan", "ios": "https://dc.lft.to/lastmile_qr_scan"}, "type": "electric_scooter"}, {"bike_id": "ce123a3e1f08a1641c548d9f252fa8e9", "is_reserved": 0, "name": "ce123a3e1f08a1641c548d9f252fa8e9", "lat": 38.901135833333335, "fusion_lat": 0.0, "lon": -76.97422933333333, "is_disabled": 0, "fusion_lon": 0.0, "rental_uris": {"android": "https://dc.lft.to/lastmile_qr_scan", "ios": "https://dc.lft.to/lastmile_qr_scan"}, "type": "electric_scooter"}, {"bike_id": "95d5d7d8b4728ac8658eb961a6a791d5", "is_reserved": 0, "name": "95d5d7d8b4728ac8658eb961a6a791d5", "lat": 38.910335, "fusion_lat": 0.0, "lon": -76.9934295, "is_disabled": 0, "fusion_lon": 0.0, "rental_uris": {"android": "https://dc.lft.to/lastmile_qr_scan", "ios": "https://dc.lft.to/lastmile_qr_scan"}, "type": "electric_scooter"}, {"bike_id": "6a0b4dcfb9002bd4395ac18ff6ec105a", "is_reserved": 0, "name": "6a0b4dcfb9002bd4395ac18ff6ec105a", "lat": 38.89543883333333, "fusion_lat": 0.0, "lon": -76.9833665, "is_disabled": 0, "fusion_lon": 0.0, "rental_uris": {"android": "https://dc.lft.to/lastmile_qr_scan", "ios": "https://dc.lft.to/lastmile_qr_scan"}, "type": "electric_scooter"}, {"bike_id": "08e68e9c9e548886443981e08317aff4", "is_reserved": 0, "name": "08e68e9c9e548886443981e08317aff4", "lat": 38.90082533333333, "fusion_lat": 0.0, "lon": -77.051424, "is_disabled": 0, "fusion_lon": 0.0, "rental_uris": {"android": "https://dc.lft.to/lastmile_qr_scan", "ios": "https://dc.lft.to/lastmile_qr_scan"}, "type": "electric_scooter"}, {"bike_id": "f38dc11759f55d72811f9231e47759f8", "is_reserved": 0, "name": "f38dc11759f55d72811f9231e47759f8", "lat": 38.900853166666664, "fusion_lat": 0.0, "lon": -77.05040516666666, "is_disabled": 0, "fusion_lon": 0.0, "rental_uris": {"android": "https://dc.lft.to/lastmile_qr_scan", "ios": "https://dc.lft.to/lastmile_qr_scan"}, "type": "electric_scooter"}, {"bike_id": "9e79a54c0c269e9c635d20bf64745792", "is_reserved": 0, "name": "9e79a54c0c269e9c635d20bf64745792", "lat": 38.90133683333333, "fusion_lat": 0.0, "lon": -77.0448465, "is_disabled": 0, "fusion_lon": 0.0, "rental_uris": {"android": "https://dc.lft.to/lastmile_qr_scan", "ios": "https://dc.lft.to/lastmile_qr_scan"}, "type": "electric_scooter"}, {"bike_id": "93106c61694ad3fb003020601bcdf95e", "is_reserved": 0, "name": "93106c61694ad3fb003020601bcdf95e", "lat": 38.908437, "fusion_lat": 0.0, "lon": -77.00368733333333, "is_disabled": 0, "fusion_lon": 0.0, "rental_uris": {"android": "https://dc.lft.to/lastmile_qr_scan", "ios": "https://dc.lft.to/lastmile_qr_scan"}, "type": "electric_scooter"}, {"bike_id": "7155d2d6e8d84afdaa5ba22d43e835a4", "is_reserved": 0, "name": "7155d2d6e8d84afdaa5ba22d43e835a4", "lat": 38.896254166666665, "fusion_lat": 0.0, "lon": -76.99849266666666, "is_disabled": 0, "fusion_lon": 0.0, "rental_uris": {"android": "https://dc.lft.to/lastmile_qr_scan", "ios": "https://dc.lft.to/lastmile_qr_scan"}, "type": "electric_scooter"}, {"bike_id": "5eec836b250213da5ce6b4b749cb8255", "is_reserved": 0, "name": "5eec836b250213da5ce6b4b749cb8255", "lat": 38.883964666666664, "fusion_lat": 0.0, "lon": -77.01968483333333, "is_disabled": 0, "fusion_lon": 0.0, "rental_uris": {"android": "https://dc.lft.to/lastmile_qr_scan", "ios": "https://dc.lft.to/lastmile_qr_scan"}, "type": "electric_scooter"}, {"bike_id": "ff499503ee25f2e3663764adbc61e83b", "is_reserved": 0, "name": "ff499503ee25f2e3663764adbc61e83b", "lat": 38.8217225, "fusion_lat": 0.0, "lon": -77.0014535, "is_disabled": 0, "fusion_lon": 0.0, "rental_uris": {"android": "https://dc.lft.to/lastmile_qr_scan", "ios": "https://dc.lft.to/lastmile_qr_scan"}, "type": "electric_bike"}, {"bike_id": "c4d8d79c05e4d7824f1b0bef9386f4d9", "is_reserved": 0, "name": "c4d8d79c05e4d7824f1b0bef9386f4d9", "lat": 38.8470125, "fusion_lat": 0.0, "lon": -76.98040433333334, "is_disabled": 0, "fusion_lon": 0.0, "rental_uris": {"android": "https://dc.lft.to/lastmile_qr_scan", "ios": "https://dc.lft.to/lastmile_qr_scan"}, "type": "electric_bike"}, {"bike_id": "de26213174600c6ae9887cfcca6e8408", "is_reserved": 0, "name": "de26213174600c6ae9887cfcca6e8408", "lat": 38.921664666666665, "fusion_lat": 0.0, "lon": -77.03840083333333, "is_disabled": 0, "fusion_lon": 0.0, "rental_uris": {"android": "https://dc.lft.to/lastmile_qr_scan", "ios": "https://dc.lft.to/lastmile_qr_scan"}, "type": "electric_scooter"}, {"bike_id": "0febec4acd566f56e1399ba4057947c6", "is_reserved": 0, "name": "0febec4acd566f56e1399ba4057947c6", "lat": 38.90028683333333, "fusion_lat": 0.0, "lon": -76.99135466666667, "is_disabled": 0, "fusion_lon": 0.0, "rental_uris": {"android": "https://dc.lft.to/lastmile_qr_scan", "ios": "https://dc.lft.to/lastmile_qr_scan"}, "type": "electric_scooter"}, {"bike_id": "86c51a22e9af082feffaddf546eebcc1", "is_reserved": 0, "name": "86c51a22e9af082feffaddf546eebcc1", "lat": 38.89605433333333, "fusion_lat": 0.0, "lon": -77.00929433333333, "is_disabled": 0, "fusion_lon": 0.0, "rental_uris": {"android": "https://dc.lft.to/lastmile_qr_scan", "ios": "https://dc.lft.to/lastmile_qr_scan"}, "type": "electric_scooter"}, {"bike_id": "2c5532e46bc6310d520941578c5b2888", "is_reserved": 0, "name": "2c5532e46bc6310d520941578c5b2888", "lat": 38.89647683333333, "fusion_lat": 0.0, "lon": -77.02696033333334, "is_disabled": 0, "fusion_lon": 0.0, "rental_uris": {"android": "https://dc.lft.to/lastmile_qr_scan", "ios": "https://dc.lft.to/lastmile_qr_scan"}, "type": "electric_scooter"}, {"bike_id": "e200df465fb1a0c2ae53e998343e17c8", "is_reserved": 0, "name": "e200df465fb1a0c2ae53e998343e17c8", "lat": 38.858021, "fusion_lat": 0.0, "lon": -76.9871955, "is_disabled": 0, "fusion_lon": 0.0, "rental_uris": {"android": "https://dc.lft.to/lastmile_qr_scan", "ios": "https://dc.lft.to/lastmile_qr_scan"}, "type": "electric_bike"},