{"data": {"bikes": [{"is_disabled": 0, "fusion_lon": 0.0, "fusion_lat": 0.0, "lat": 38.927954, "type": "electric_scooter", "lon": -77.0243985, "bike_id": "bcadb7361c61feb4d2addd16c4cf6f05", "rental_uris": {"android": "https://dc.lft.to/lastmile_qr_scan", "ios": "https://dc.lft.to/lastmile_qr_scan"}, "name": "bcadb7361c61feb4d2addd16c4cf6f05", "is_reserved": 0}, {"is_disabled": 0, "fusion_lon": 0.0, "fusion_lat": 0.0, "lat": 38.92970733333333, "type": "electric_scooter", "lon": -77.04200283333333, "bike_id": "4b2f7be8ed6c97f553d3c9deb7dff652", "rental_uris": {"android": "https://dc.lft.to/lastmile_qr_scan", "ios": "https://dc.lft.to/lastmile_qr_scan"}, "name": "4b2f7be8ed6c97f553d3c9deb7dff652", "is_reserved": 0}, {"is_disabled": 0, "fusion_lon": 0.0, "fusion_lat": 0.0, "lat": 38.966137333333336, "type": "electric_scooter", "lon": -77.03528033333333, "bike_id": "40bf12b422539c679de6e9fd3dbbe18d", "rental_uris": {"android": "https://dc.lft.to/lastmile_qr_scan", "ios": "https://dc.lft.to/lastmile_qr_scan"}, "name": "40bf12b422539c679de6e9fd3dbbe18d", "is_reserved": 0}, {"is_disabled": 0, "fusion_lon": 0.0, "fusion_lat": 0.0, "lat": 38.91660016666667, "type": "electric_scooter", "lon": -77.0438515, "bike_id": "320e71ed976962ab72b99e2861aedccc", "rental_uris": {"android": "https://dc.lft.to/lastmile_qr_scan", "ios": "https://dc.lft.to/lastmile_qr_scan"}, "name": "320e71ed976962ab72b99e2861aedccc", "is_reserved": 0}, {"is_disabled": 0, "fusion_lon": 0.0, "fusion_lat": 0.0, "lat": 38.9333945, "type": "electric_bike", "lon": -77.04212233333334, "bike_id": "558587f80ffb9d4307edbd47e48e3285", "rental_uris": {"android": "https://dc.lft.to/lastmile_qr_scan", "ios": "https://dc.lft.to/lastmile_qr_scan"}, "name": "558587f80ffb9d4307edbd47e48e3285", "is_reserved": 0}, {"is_disabled": 0, "fusion_lon": 0.0, "fusion_lat": 0.0, "lat": 38.9171065, "type": "electric_scooter", "lon": -77.03674066666666, "bike_id": "36ff8418c6fbde5621b2894041c7548c", "rental_uris": {"android": "https://dc.lft.to/lastmile_qr_scan", "ios": "https://dc.lft.to/lastmile_qr_scan"}, "name": "36ff8418c6fbde5621b2894041c7548c", "is_reserved": 0}, {"is_disabled": 0, "fusion_lon": 0.0, "fusion_lat": 0.0, "lat": 38.946216, "type": "electric_scooter", "lon": -77.03622816666666, "bike_id": "ab9fa5fd4a12ee2a8ed6bd38e991fe32", "rental_uris": {"android": "https://dc.lft.to/lastmile_qr_scan", "ios": "https://dc.lft.to/lastmile_qr_scan"}, "name": "ab9fa5fd4a12ee2a8ed6bd38e991fe32", "is_reserved": 0}, {"is_disabled": 0, "fusion_lon": 0.0, "fusion_lat": 0.0, "lat": 38.92035633333333, "type": "electric_scooter", "lon": -77.031404, "bike_id": "e10dfa615788b471a654b480b49b5437", "rental_uris": {"android": "https://dc.lft.to/lastmile_qr_scan", "ios": "https://dc.lft.to/lastmile_qr_scan"}, "name": "e10dfa615788b471a654b480b49b5437", "is_reserved": 0}, {"is_disabled": 0, "fusion_lon": 0.0, "fusion_lat": 0.0, "lat": 38.912702, "type": "electric_scooter", "lon": -77.0336765, "bike_id": "2a15c78bc91e18ad9df1bd899e3c7078", "rental_uris": {"android": "https://dc.lft.to/lastmile_qr_scan", "ios": "https://dc.lft.to/lastmile_qr_scan"}, "name": "2a15c78bc91e18ad9df1bd899e3c7078", "is_reserved": 0}, {"is_disabled": 0, "fusion_lon": 0.0, "fusion_lat": 0.0, "lat": 38.84896116666667, "type": "electric_scooter", "lon": -77.00521716666667, "bike_id": "08cd04ff079d0bf270946c47acc4a988", "rental_uris": {"android": "https://dc.lft.to/lastmile_qr_scan", "ios": "https://dc.lft.to/lastmile_qr_scan"}, "name": "08cd04ff079d0bf270946c47acc4a988", "is_reserved": 0}, {"is_disabled": 0, "fusion_lon": 0.0, "fusion_lat": 0.0, "lat": 38.90624716666667, "type": "electric_scooter", "lon": -77.02409833333333, "bike_id": "a9be5103289092e7cdf8c84c70a428cd", "rental_uris": {"android": "https://dc.lft.to/lastmile_qr_scan", "ios": "https://dc.lft.to/lastmile_qr_scan"}, "name": "a9be5103289092e7cdf8c84c70a428cd", "is_reserved": 0}, {"is_disabled": 0, "fusion_lon": 0.0, "fusion_lat": 0.0, "lat": 38.90588783333333, "type": "electric_scooter", "lon": -77.05121966666667, "bike_id": "d312b4354b3dd1a534a877ea059c67cf", "rental_uris": {"android": "https://dc.lft.to/lastmile_qr_scan", "ios": "https://dc.lft.to/lastmile_qr_scan"}, "name": "d312b4354b3dd1a534a877ea059c67cf", "is_reserved": 0}, {"is_disabled": 0, "fusion_lon": 0.0, "fusion_lat": 0.0, "lat": 38.900611833333336, "type": "electric_scooter", "lon": -77.00735416666667, "bike_id": "71fb7f4795d5eedf0c13181981a9b73c", "rental_uris": {"android": "https://dc.lft.to/lastmile_qr_scan", "ios": "https://dc.lft.to/lastmile_qr_scan"}, "name": "71fb7f4795d5eedf0c13181981a9b73c", "is_reserved": 0}, {"is_disabled": 0, "fusion_lon": 0.0, "fusion_lat": 0.0, "lat": 38.87781116666667, "type": "electric_scooter", "lon": -77.0143625, "bike_id": "4cee6997789fb11062527f21a7600372", "rental_uris": {"android": "https://dc.lft.to/lastmile_qr_scan", "ios": "https://dc.lft.to/lastmile_qr_scan"}, "name": "4cee6997789fb11062527f21a7600372", "is_reserved": 0}, {"is_disabled": 0, "fusion_lon": 0.0, "fusion_lat": 0.0, "lat": 38.911886833333334, "type": "electric_scooter", "lon": -77.04180683333334, "bike_id": "0735892faca9e0efb6260c2c8049dd66", "rental_uris": {"android": "https://dc.lft.to/lastmile_qr_scan", "ios": "https://dc.lft.to/lastmile_qr_scan"}, "name": "0735892faca9e0efb6260c2c8049dd66", "is_reserved": 0}, {"is_disabled": 0, "fusion_lon": 0.0, "fusion_lat": 0.0, "lat": 38.9370775, "type": "electric_scooter", "lon": -77.06098166666666, "bike_id": "a612f0d67d8a50002721356148367e4f", "rental_uris": {"android": "https://dc.lft.to/lastmile_qr_scan", "ios": "https://dc.lft.to/lastmile_qr_scan"}, "name": "a612f0d67d8a50002721356148367e4f", "is_reserved": 0}, {"is_disabled": 0, "fusion_lon": 0.0, "fusion_lat": 0.0, "lat": 38.863538, "type": "electric_scooter", "lon": -76.990631, "bike_id": "6d58aace477185a8aab61c1c101be03b", "rental_uris": {"android": "https://dc.lft.to/lastmile_qr_scan", "ios": "https://dc.lft.to/lastmile_qr_scan"}, "name": "6d58aace477185a8aab61c1c101be03b", "is_reserved": 0}, {"is_disabled": 0, "fusion_lon": 0.0, "fusion_lat": 0.0, "lat": 38.98133983333334, "type": "electric_bike", "lon": -77.00763666666667, "bike_id": "97308ddc14eadfd59607ee740f39ba6e", "rental_uris": {"android": "https://dc.lft.to/lastmile_qr_scan", "ios": "https://dc.lft.to/lastmile_qr_scan"}, "name": "97308ddc14eadfd59607ee740f39ba6e", "is_reserved": 0}, {"is_disabled": 0, "fusion_lon": 0.0, "fusion_lat": 0.0, "lat": 38.985022, "type": "electric_bike", "lon": -76.98208783333334, "bike_id": "e2975717efa2f3b741f7a5f713b4230d", "rental_uris": {"android": "https://dc.lft.to/lastmile_qr_scan", "ios": "https://dc.lft.to/lastmile_qr_scan"}, "name": "e2975717efa2f3b741f7a5f713b4230d", "is_reserved": 0}, {"is_disabled": 0, "fusion_lon": 0.0, "fusion_lat": 0.0, "lat": 38.915623, "type": "electric_scooter", "lon": -77.010242, "bike_id": "f1401fa460ec0e8276a99e8525fc8024", "rental_uris": {"android": "https://dc.lft.to/lastmile_qr_scan", "ios": "https://dc.lft.to/lastmile_qr_scan"}, "name": "f1401fa460ec0e8276a99e8525fc8024", "is_reserved": 0}, {"is_disabled": 0, "fusion_lon": 0.0, "fusion_lat": 0.0, "lat": 38.905548833333334, "type": "electric_scooter", "lon": -77.032508, "bike_id": "88a53111f7ff08ed2b2690bd7538c981", "rental_uris": {"android": "https://dc.lft.to/lastmile_qr_scan", "ios": "https://dc.lft.to/lastmile_qr_scan"}, "name": "88a53111f7ff08ed2b2690bd7538c981", "is_reserved": 0}, {"is_disabled": 0, "fusion_lon": 0.0, "fusion_lat": 0.0, "lat": 38.900120666666666, "type": "electric_scooter", "lon": -77.0119335, "bike_id": "a6e3971c59b6014cb6515a3076e613d4", "rental_uris": {"android": "https://dc.lft.to/lastmile_qr_scan", "ios": "https://dc.lft.to/lastmile_qr_scan"}, "name": "a6e3971c59b6014cb6515a3076e613d4", "is_reserved": 0}, {"is_disabled": 0, "fusion_lon": 0.0, "fusion_lat": 0.0, "lat": 38.9171025, "type": "electric_scooter", "lon": -77.0412475, "bike_id": "b2db99a418a77cc936282cd3231cd747", "rental_uris": {"android": "https://dc.lft.to/lastmile_qr_scan", "ios": "https://dc.lft.to/lastmile_qr_scan"}, "name": "b2db99a418a77cc936282cd3231cd747", "is_reserved": 0}, {"is_disabled": 0, "fusion_lon": 0.0, "fusion_lat": 0.0, "lat": 38.905394333333334, "type": "electric_scooter", "lon": -77.02518383333333, "bike_id": "580eb9502bbdf6ddcbf80848cd8818ea", "rental_uris": {"android": "https://dc.lft.to/lastmile_qr_scan", "ios": "https://dc.lft.to/lastmile_qr_scan"}, "name": "580eb9502bbdf6ddcbf80848cd8818ea", "is_reserved": 0}, {"is_disabled": 0, "fusion_lon": 0.0, "fusion_lat": 0.0, "lat": 38.90921933333333, "type": "electric_scooter", "lon": -77.02283033333333, "bike_id": "d407a08a0e1a0a16d67827a21cdb1078", "rental_uris": {"android": "https://dc.lft.to/lastmile_qr_scan", "ios": "https://dc.lft.to/lastmile_qr_scan"}, "name": "d407a08a0e1a0a16d67827a21cdb1078", "is_reserved": 0}, {"is_disabled": 0, "fusion_lon": 0.0, "fusion_lat": 0.0, "lat": 38.98596533333333, "type": "electric_bike", "lon": -77.03750216666667, "bike_id": "e797b559baf437bf1b54a7c88d4dbaae", "rental_uris": {"android": "https://dc.lft.to/lastmile_qr_scan", "ios": "https://dc.lft.to/lastmile_qr_scan"}, "name": "e797b559baf437bf1b54a7c88d4dbaae", "is_reserved": 0}, {"is_disabled": 0, "fusion_lon": 0.0, "fusion_lat": 0.0, "lat": 38.91823, "type": "electric_scooter", "lon": -77.0366045, "bike_id": "9f0b1446d18af163922254453ff441e4", "rental_uris": {"android": "https://dc.lft.to/lastmile_qr_scan", "ios": "https://dc.lft.to/lastmile_qr_scan"}, "name": "9f0b1446d18af163922254453ff441e4", "is_reserved": 0}, {"is_disabled": 0, "fusion_lon": 0.0, "fusion_lat": 0.0, "lat": 38.9167925, "type": "electric_scooter", "lon": -77.0296895, "bike_id": "8682f2b317d77d15aa81bee74d15fd40", "rental_uris": {"android": "https://dc.lft.to/lastmile_qr_scan", "ios": "https://dc.lft.to/lastmile_qr_scan"}, "name": "8682f2b317d77d15aa81bee74d15fd40", "is_reserved": 0}, {"is_disabled": 0, "fusion_lon": 0.0, "fusion_lat": 0.0, "lat": 38.910778666666666, "type": "electric_scooter", "lon": -77.02089033333333, "bike_id": "50f009c72a8eba521abb807bbfc4b21d", "rental_uris": {"android": "https://dc.lft.to/lastmile_qr_scan", "ios": "https://dc.lft.to/lastmile_qr_scan"}, "name": "50f009c72a8eba521abb807bbfc4b21d", "is_reserved": 0}, {"is_disabled": 0, "fusion_lon": 0.0, "fusion_lat": 0.0, "lat": 38.923606666666664, "type": "electric_scooter", "lon": -77.05031, "bike_id": "7e7a36e4264cc9c7b9bbefc7415a9ec3", "rental_uris": {"android": "https://dc.lft.to/lastmile_qr_scan", "ios": "https://dc.lft.to/lastmile_qr_scan"}, "name": "7e7a36e4264cc9c7b9bbefc7415a9ec3", "is_reserved": 0}, {"is_disabled": 0, "fusion_lon": 0.0, "fusion_lat": 0.0, "lat": 38.9331465, "type": "electric_scooter", "lon": -77.0329115, "bike_id": "c63aa0045d71bf8aaa627594516727d8", "rental_uris": {"android": "https://dc.lft.to/lastmile_qr_scan", "ios": "https://dc.lft.to/lastmile_qr_scan"}, "name": "c63aa0045d71bf8aaa627594516727d8", "is_reserved": 0}, {"is_disabled": 0, "fusion_lon": 0.0, "fusion_lat": 0.0, "lat": 38.92370433333333, "type": "electric_scooter", "lon": -77.02814116666667, "bike_id": "1ca8b098493c3733e5c862a837ae7dc1", "rental_uris": {"android": "https://dc.lft.to/lastmile_qr_scan", "ios": "https://dc.lft.to/lastmile_qr_scan"}, "name": "1ca8b098493c3733e5c862a837ae7dc1", "is_reserved": 0}, {"is_disabled": 0, "fusion_lon": 0.0, "fusion_lat": 0.0, "lat": 38.934960333333336, "type": "electric_scooter", "lon": -77.02603766666667, "bike_id": "7174c51460fcc78717c5cf442a9f785a", "rental_uris": {"android": "https://dc.lft.to/lastmile_qr_scan", "ios": "https://dc.lft.to/lastmile_qr_scan"}, "name": "7174c51460fcc78717c5cf442a9f785a", "is_reserved": 0}, {"is_disabled": 0, "fusion_lon": 0.0, "fusion_lat": 0.0, "lat": 38.92837633333333, "type": "electric_scooter", "lon": -77.01413216666667, "bike_id": "7d3022d8a49760cadd839601801de68b", "rental_uris": {"android": "https://dc.lft.to/lastmile_qr_scan", "ios": "https://dc.lft.to/lastmile_qr_scan"}, "name": "7d3022d8a49760cadd839601801de68b", "is_reserved": 0}, {"is_disabled": 0, "fusion_lon": 0.0, "fusion_lat": 0.0, "lat": 38.9299525, "type": "electric_scooter", "lon": -77.03240516666666, "bike_id": "52c8f57bfb7afc0d3ffc79dba5df3ef8", "rental_uris": {"android": "https://dc.lft.to/lastmile_qr_scan", "ios": "https://dc.lft.to/lastmile_qr_scan"}, "name": "52c8f57bfb7afc0d3ffc79dba5df3ef8", "is_reserved": 0}, {"is_disabled": 0, "fusion_lon": 0.0, "fusion_lat": 0.0, "lat": 38.8842095, "type": "electric_scooter", "lon": -76.95412983333334, "bike_id": "92d954817b8fde72ae98a177b1e9b250", "rental_uris": {"android": "https://dc.lft.to/lastmile_qr_scan", "ios": "https://dc.lft.to/lastmile_qr_scan"}, "name": "92d954817b8fde72ae98a177b1e9b250", "is_reserved": 0}, {"is_disabled": 0, "fusion_lon": 0.0, "fusion_lat": 0.0, "lat": 38.898404166666666, "type": "electric_scooter", "lon": -77.03200116666666, "bike_id": "ffb36dd9b53d7a778f76e907e49a4919", "rental_uris": {"android": "https://dc.lft.to/lastmile_qr_scan", "ios": "https://dc.lft.to/lastmile_qr_scan"}, "name": "ffb36dd9b53d7a778f76e907e49a4919", "is_reserved": 0}, {"is_disabled": 0, "fusion_lon": 0.0, "fusion_lat": 0.0, "lat": 38.9039275, "type": "electric_scooter", "lon": -77.04243166666667, "bike_id": "8ec4efe2fff72f4fd09ac337bb297c72", "rental_uris": {"android": "https://dc.lft.to/lastmile_qr_scan", "ios": "https://dc.lft.to/lastmile_qr_scan"}, "name": "8ec4efe2fff72f4fd09ac337bb297c72", "is_reserved": 0}, {"is_disabled": 0, "fusion_lon": 0.0, "fusion_lat": 0.0, "lat": 38.91331866666667, "type": "electric_scooter", "lon": -77.03273133333333, "bike_id": "bf6e8d1af119a6c9b111b12a5e9c5331", "rental_uris": {"android": "https://dc.lft.to/lastmile_qr_scan", "ios": "https://dc.lft.to/lastmile_qr_scan"}, "name": "bf6e8d1af119a6c9b111b12a5e9c5331", "is_reserved": 0}, {"is_disabled": 0, "fusion_lon": 0.0, "fusion_lat": 0.0, "lat": 39.0884155, "type": "electric_bike", "lon": -77.17800266666667, "bike_id": "4bdc7a939b11168d8e6c3a541d51c6c9", "rental_uris": {"android": "https://dc.lft.to/lastmile_qr_scan", "ios": "https://dc.lft.to/lastmile_qr_scan"}, "name": "4bdc7a939b11168d8e6c3a541d51c6c9", "is_reserved": 0}, {"is_disabled": 0, "fusion_lon": 0.0, "fusion_lat": 0.0, "lat": 38.91482933333333, "type": "electric_scooter", "lon": -77.03468983333333, "bike_id": "e6f4be10f39380f7a3c963f67b61b1b8", "rental_uris": {"android": "https://dc.lft.to/lastmile_qr_scan", "ios": "https://dc.lft.to/lastmile_qr_scan"}, "name": "e6f4be10f39380f7a3c963f67b61b1b8", "is_reserved": 0}, {"is_disabled": 0, "fusion_lon": 0.0, "fusion_lat": 0.0, "lat": 38.92369166666667, "type": "electric_scooter", "lon": -77.0280525, "bike_id": "b0e4141d6fce2d56e541d47a7eac3fe2", "rental_uris": {"android": "https://dc.lft.to/lastmile_qr_scan", "ios": "https://dc.lft.to/lastmile_qr_scan"}, "name": "b0e4141d6fce2d56e541d47a7eac3fe2", "is_reserved": 0}, {"is_disabled": 0, "fusion_lon": 0.0, "fusion_lat": 0.0, "lat": 38.8920825, "type": "electric_scooter", "lon": -76.98808633333333, "bike_id": "15da70c10826b2c0401a897c00927b64", "rental_uris": {"android": "https://dc.lft.to/lastmile_qr_scan", "ios": "https://dc.lft.to/lastmile_qr_scan"}, "name": "15da70c10826b2c0401a897c00927b64", "is_reserved": 0}, {"is_disabled": 0, "fusion_lon": 0.0, "fusion_lat": 0.0, "lat": 38.910396166666665, "type": "electric_scooter", "lon": -77.01373683333334, "bike_id": "9a238a2b7c2a5af6212897494b98b720", "rental_uris": {"android": "https://dc.lft.to/lastmile_qr_scan", "ios": "https://dc.lft.to/lastmile_qr_scan"}, "name": "9a238a2b7c2a5af6212897494b98b720", "is_reserved": 0}, {"is_disabled": 0, "fusion_lon": 0.0, "fusion_lat": 0.0, "lat": 38.922527333333335, "type": "electric_scooter", "lon": -77.03135183333333, "bike_id": "b099f73273dae7e768623995ec418f29", "rental_uris": {"android": "https://dc.lft.to/lastmile_qr_scan", "ios": "https://dc.lft.to/lastmile_qr_scan"}, "name": "b099f73273dae7e768623995ec418f29", "is_reserved": 0}, {"is_disabled": 0, "fusion_lon": 0.0, "fusion_lat": 0.0, "lat": 38.9036665, "type": "electric_scooter", "lon": -77.002193, "bike_id": "f76f219ca429f91d19569642a6977d1d", "rental_uris": {"android": "https://dc.lft.to/lastmile_qr_scan", "ios": "https://dc.lft.to/lastmile_qr_scan"}, "name": "f76f219ca429f91d19569642a6977d1d", "is_reserved": 0}, {"is_disabled": 0, "fusion_lon": 0.0, "fusion_lat": 0.0, "lat": 38.919322333333334, "type": "electric_scooter", "lon": -77.03027133333333, "bike_id": "a0b5cb723549eb3331c3c7e064285b78", "rental_uris": {"android": "https://dc.lft.to/lastmile_qr_scan", "ios": "https://dc.lft.to/lastmile_qr_scan"}, "name": "a0b5cb723549eb3331c3c7e064285b78", "is_reserved": 0}, {"is_disabled": 0, "fusion_lon": 0.0, "fusion_lat": 0.0, "lat": 38.90927966666667, "type": "electric_scooter", "lon": -77.03202966666667, "bike_id": "e36f482df203e9fbece2dfb461f6e413", "rental_uris": {"android": "https://dc.lft.to/lastmile_qr_scan", "ios": "https://dc.lft.to/lastmile_qr_scan"}, "name": "e36f482df203e9fbece2dfb461f6e413", "is_reserved": 0}, {"is_disabled": 0, "fusion_lon": 0.0, "fusion_lat": 0.0, "lat": 38.949818666666665, "type": "electric_scooter", "lon": -77.0269985, "bike_id": "9059ee53287f49c962a26237ee32ff78", "rental_uris": {"android": "https://dc.lft.to/lastmile_qr_scan", "ios": "https://dc.lft.to/lastmile_qr_scan"}, "name": "9059ee53287f49c962a26237ee32ff78", "is_reserved": 0}, {"is_disabled": 0, "fusion_lon": 0.0, "fusion_lat": 0.0, "lat": 38.89224466666667, "type": "electric_scooter", "lon": -77.02255716666667, "bike_id": "3d74a1bac465e5d89a0f33b055bc78ba", "rental_uris": {"android": "https://dc.lft.to/lastmile_qr_scan", "ios": "https://dc.lft.to/lastmile_qr_scan"}, "name": "3d74a1bac465e5d89a0f33b055bc78ba", "is_reserved": 0}, {"is_disabled": 0, "fusion_lon": 0.0, "fusion_lat": 0.0, "lat": 38.889974, "type": "electric_scooter", "lon": -77.01500516666667, "bike_id": "f437c3bccd7f711f0a4aadcd6d090f46", "rental_uris": {"android": "https://dc.lft.to/lastmile_qr_scan", "ios": "https://dc.lft.to/lastmile_qr_scan"}, "name": "f437c3bccd7f711f0a4aadcd6d090f46", "is_reserved": 0}, {"is_disabled": 0, "fusion_lon": 0.0, "fusion_lat": 0.0, "lat": 38.92248716666667, "type": "electric_scooter", "lon": -77.0307545, "bike_id": "0a586c4fbb27031fff08b091f8c60a67", "rental_uris": {"android": "https://dc.lft.to/lastmile_qr_scan", "ios": "https://dc.lft.to/lastmile_qr_scan"}, "name": "0a586c4fbb27031fff08b091f8c60a67", "is_reserved": 0}, {"is_disabled": 0, "fusion_lon": 0.0, "fusion_lat": 0.0, "lat": 38.94550016666667, "type": "electric_scooter", "lon": -77.042387, "bike_id": "944860efa8bdc2b531f41095f86e8ee7", "rental_uris": {"android": "https://dc.lft.to/lastmile_qr_scan", "ios": "https://dc.lft.to/lastmile_qr_scan"}, "name": "944860efa8bdc2b531f41095f86e8ee7", "is_reserved": 0}, {"is_disabled": 0, "fusion_lon": 0.0, "fusion_lat": 0.0, "lat": 38.83353966666667, "type": "electric_bike", "lon": -76.96551916666667, "bike_id": "cf3bff62812e0a46b5da8b935a8b2390", "rental_uris": {"android": "https://dc.lft.to/lastmile_qr_scan", "ios": "https://dc.lft.to/lastmile_qr_scan"}, "name": "cf3bff62812e0a46b5da8b935a8b2390", "is_reserved": 0}, {"is_disabled": 0, "fusion_lon": 0.0, "fusion_lat": 0.0, "lat": 38.89728016666667, "type": "electric_scooter", "lon": -77.030052, "bike_id": "1cd1ff0df76e5f1f27a2b18f9592e461", "rental_uris": {"android": "https://dc.lft.to/lastmile_qr_scan", "ios": "https://dc.lft.to/lastmile_qr_scan"}, "name": "1cd1ff0df76e5f1f27a2b18f9592e461", "is_reserved": 0}, {"is_disabled": 0, "fusion_lon": 0.0, "fusion_lat": 0.0, "lat": 38.904979, "type": "electric_scooter", "lon": -77.03835866666667, "bike_id": "5861056df201560f3e1bf86fd3768b1c", "rental_uris": {"android": "https://dc.lft.to/lastmile_qr_scan", "ios": "https://dc.lft.to/lastmile_qr_scan"}, "name": "5861056df201560f3e1bf86fd3768b1c", "is_reserved": 0}, {"is_disabled": 0, "fusion_lon": 0.0, "fusion_lat": 0.0, "lat": 38.918574, "type": "electric_bike", "lon": -76.96085683333334, "bike_id": "7887c81c6079cef2893b2cd20d2da88e", "rental_uris": {"android": "https://dc.lft.to/lastmile_qr_scan", "ios": "https://dc.lft.to/lastmile_qr_scan"}, "name": "7887c81c6079cef2893b2cd20d2da88e", "is_reserved": 0}, {"is_disabled": 0, "fusion_lon": 0.0, "fusion_lat": 0.0, "lat": 38.868428333333334, "type": "electric_bike", "lon": -77.0973255, "bike_id": "33b2c25a3a04c965487bc6ed6f1b0a52", "rental_uris": {"android": "https://dc.lft.to/lastmile_qr_scan", "ios": "https://dc.lft.to/lastmile_qr_scan"}, "name": "33b2c25a3a04c965487bc6ed6f1b0a52", "is_reserved": 0}, {"is_disabled": 0, "fusion_lon": 0.0, "fusion_lat": 0.0, "lat": 38.963124, "type": "electric_bike", "lon": -77.05759783333333, "bike_id": "2bdb5fef7bb99d3ebcbeae3af44a7b11", "rental_uris": {"android": "https://dc.lft.to/lastmile_qr_scan", "ios": "https://dc.lft.to/lastmile_qr_scan"}, "name": "2bdb5fef7bb99d3ebcbeae3af44a7b11", "is_reserved": 0}, {"is_disabled": 0, "fusion_lon": 0.0, "fusion_lat": 0.0, "lat": 38.8824925, "type": "electric_scooter", "lon": -77.00343083333334, "bike_id": "6ce03784ad282bc509b09c287f5eb4e8", "rental_uris": {"android": "https://dc.lft.to/lastmile_qr_scan", "ios": "https://dc.lft.to/lastmile_qr_scan"}, "name": "6ce03784ad282bc509b09c287f5eb4e8", "is_reserved": 0}, {"is_disabled": 0, "fusion_lon": 0.0, "fusion_lat": 0.0, "lat": 38.90143966666667, "type": "electric_scooter", "lon": -77.03044833333334, "bike_id": "f7d28f3925e7e4e57e19640deb7e9781", "rental_uris": {"android": "https://dc.lft.to/lastmile_qr_scan", "ios": "https://dc.lft.to/lastmile_qr_scan"}, "name": "f7d28f3925e7e4e57e19640deb7e9781", "is_reserved": 0}, {"is_disabled": 0, "fusion_lon": 0.0, "fusion_lat": 0.0, "lat": 38.878501666666665, "type": "electric_scooter", "lon": -77.00189383333333, "bike_id": "75a411f4e630760ed2e5d6d769b6f28d", "rental_uris": {"android": "https://dc.lft.to/lastmile_qr_scan", "ios": "https://dc.lft.to/lastmile_qr_scan"}, "name": "75a411f4e630760ed2e5d6d769b6f28d", "is_reserved": 0}, {"is_disabled": 0, "fusion_lon": 0.0, "fusion_lat": 0.0, "lat": 38.917086166666664, "type": "electric_scooter", "lon": -77.03673216666667, "bike_id": "5aef16d03ba04740fd23b7a702f2df78", "rental_uris": {"android": "https://dc.lft.to/lastmile_qr_scan", "ios": "https://dc.lft.to/lastmile_qr_scan"}, "name": "5aef16d03ba04740fd23b7a702f2df78", "is_reserved": 0}, {"is_disabled": 0, "fusion_lon": 0.0, "fusion_lat": 0.0, "lat": 38.887595, "type": "electric_scooter", "lon": -76.99614183333334, "bike_id": "cd28ffc70b6d1f62fef1e066bfa327d6", "rental_uris": {"android": "https://dc.lft.to/lastmile_qr_scan", "ios": "https://dc.lft.to/lastmile_qr_scan"}, "name": "cd28ffc70b6d1f62fef1e066bfa327d6", "is_reserved": 0}, {"is_disabled": 0, "fusion_lon": 0.0, "fusion_lat": 0.0, "lat": 38.8920345, "type": "electric_scooter", "lon": -76.988032, "bike_id": "9814477259172b0c2adfe0a041dcb153", "rental_uris": {"android": "https://dc.lft.to/lastmile_qr_scan", "ios": "https://dc.lft.to/lastmile_qr_scan"}, "name": "9814477259172b0c2adfe0a041dcb153", "is_reserved": 0}, {"is_disabled": 0, "fusion_lon": 0.0, "fusion_lat": 0.0, "lat": 38.905437666666664, "type": "electric_scooter", "lon": -77.05692833333333, "bike_id": "d6c2e60adbe210e6a2f3b5cd36fb3866", "rental_uris": {"android": "https://dc.lft.to/lastmile_qr_scan", "ios": "https://dc.lft.to/lastmile_qr_scan"}, "name": "d6c2e60adbe210e6a2f3b5cd36fb3866", "is_reserved": 0}, {"is_disabled": 0, "fusion_lon": 0.0, "fusion_lat": 0.0, "lat": 38.88737116666667, "type": "electric_scooter", "lon": -77.01526883333334, "bike_id": "ea89772716adf3540c30962022c9d822", "rental_uris": {"android": "https://dc.lft.to/lastmile_qr_scan", "ios": "https://dc.lft.to/lastmile_qr_scan"}, "name": "ea89772716adf3540c30962022c9d822", "is_reserved": 0}, {"is_disabled": 0, "fusion_lon": 0.0, "fusion_lat": 0.0, "lat": 38.924284, "type": "electric_scooter", "lon": -77.05618283333334, "bike_id": "4aa02097793b9fb2f49635ed81f7c886", "rental_uris": {"android": "https://dc.lft.to/lastmile_qr_scan", "ios": "https://dc.lft.to/lastmile_qr_scan"}, "name": "4aa02097793b9fb2f49635ed81f7c886", "is_reserved": 0}, {"is_disabled": 0, "fusion_lon": 0.0, "fusion_lat": 0.0, "lat": 38.969289, "type": "electric_bike", "lon": -77.02624016666667, "bike_id": "2dc0ce70d451394bad49894b6d7f06ca", "rental_uris": {"android": "https://dc.lft.to/lastmile_qr_scan", "ios": "https://dc.lft.to/lastmile_qr_scan"}, "name": "2dc0ce70d451394bad49894b6d7f06ca", "is_reserved": 0}, {"is_disabled": 0, "fusion_lon": 0.0, "fusion_lat": 0.0, "lat": 38.87876766666667, "type": "electric_scooter", "lon": -77.02225766666666, "bike_id": "3d96a0160350169213868e65e5ad1971", "rental_uris": {"android": "https://dc.lft.to/lastmile_qr_scan", "ios": "https://dc.lft.to/lastmile_qr_scan"}, "name": "3d96a0160350169213868e65e5ad1971", "is_reserved": 0}, {"is_disabled": 0, "fusion_lon": 0.0, "fusion_lat": 0.0, "lat": 38.918636166666666, "type": "electric_bike", "lon": -76.96172383333334, "bike_id": "b14b7bf0e2243c527de5621cca58de0f", "rental_uris": {"android": "https://dc.lft.to/lastmile_qr_scan", "ios": "https://dc.lft.to/lastmile_qr_scan"}, "name": "b14b7bf0e2243c527de5621cca58de0f", "is_reserved": 0}, {"is_disabled": 0, "fusion_lon": 0.0, "fusion_lat": 0.0, "lat": 38.9866295, "type": "electric_scooter", "lon": -77.02643716666667, "bike_id": "2a0e3d9c5255402b90a9865f08a08986", "rental_uris": {"android": "https://dc.lft.to/lastmile_qr_scan", "ios": "https://dc.lft.to/lastmile_qr_scan"}, "name": "2a0e3d9c5255402b90a9865f08a08986", "is_reserved": 0}, {"is_disabled": 0, "fusion_lon": 0.0, "fusion_lat": 0.0, "lat": 38.914736, "type": "electric_scooter", "lon": -77.04402016666667, "bike_id": "1c8aa046aea443dc37207190083c12b6", "rental_uris": {"android": "https://dc.lft.to/lastmile_qr_scan", "ios": "https://dc.lft.to/lastmile_qr_scan"}, "name": "1c8aa046aea443dc37207190083c12b6", "is_reserved": 0}, {"is_disabled": 0, "fusion_lon": 0.0, "fusion_lat": 0.0, "lat": 38.918547833333335, "type": "electric_scooter", "lon": -77.0295415, "bike_id": "7e40f4bc02fb6a227b57a5825d9d3ec9", "rental_uris": {"android": "https://dc.lft.to/lastmile_qr_scan", "ios": "https://dc.lft.to/lastmile_qr_scan"}, "name": "7e40f4bc02fb6a227b57a5825d9d3ec9", "is_reserved": 0}, {"is_disabled": 0, "fusion_lon": 0.0, "fusion_lat": 0.0, "lat": 38.914934, "type": "electric_scooter", "lon": -77.01979, "bike_id": "7c3ec780a6b163d15cbb2b4dbab08c2b", "rental_uris": {"android": "https://dc.lft.to/lastmile_qr_scan", "ios": "https://dc.lft.to/lastmile_qr_scan"}, "name": "7c3ec780a6b163d15cbb2b4dbab08c2b", "is_reserved": 0}, {"is_disabled": 0, "fusion_lon": 0.0, "fusion_lat": 0.0, "lat": 38.93273766666667, "type": "electric_scooter", "lon": -76.99684933333333, "bike_id": "efaadcd11560c00ee7ddaf1d9e1889c5", "rental_uris": {"android": "https://dc.lft.to/lastmile_qr_scan", "ios": "https://dc.lft.to/lastmile_qr_scan"}, "name": "efaadcd11560c00ee7ddaf1d9e1889c5", "is_reserved": 0}, {"is_disabled": 0, "fusion_lon": 0.0, "fusion_lat": 0.0, "lat": 38.900014666666664, "type": "electric_scooter", "lon": -77.0271765, "bike_id": "398e189725b7e6f543f01b27cafdd115", "rental_uris": {"android": "https://dc.lft.to/lastmile_qr_scan", "ios": "https://dc.lft.to/lastmile_qr_scan"}, "name": "398e189725b7e6f543f01b27cafdd115", "is_reserved": 0}, {"is_disabled": 0, "fusion_lon": 0.0, "fusion_lat": 0.0, "lat": 38.8360615, "type": "electric_bike", "lon": -77.00381866666666, "bike_id": "a1f21476ee0851be91e14c5980f76392", "rental_uris": {"android": "https://dc.lft.to/lastmile_qr_scan", "ios": "https://dc.lft.to/lastmile_qr_scan"}, "name": "a1f21476ee0851be91e14c5980f76392", "is_reserved": 0}, {"is_disabled": 0, "fusion_lon": 0.0, "fusion_lat": 0.0, "lat": 38.899121, "type": "electric_scooter", "lon": -76.93389333333333, "bike_id": "8bdbc409082a101d336eabf9b950be59", "rental_uris": {"android": "https://dc.lft.to/lastmile_qr_scan", "ios": "https://dc.lft.to/lastmile_qr_scan"}, "name": "8bdbc409082a101d336eabf9b950be59", "is_reserved": 0}, {"is_disabled": 0, "fusion_lon": 0.0, "fusion_lat": 0.0, "lat": 38.89731333333334, "type": "electric_scooter", "lon": -77.007556, "bike_id": "72daab9b4139df0a0151bd401ae9ffee", "rental_uris": {"android": "https://dc.lft.to/lastmile_qr_scan", "ios": "https://dc.lft.to/lastmile_qr_scan"}, "name": "72daab9b4139df0a0151bd401ae9ffee", "is_reserved": 0}, {"is_disabled": 0, "fusion_lon": 0.0, "fusion_lat": 0.0, "lat": 38.91735466666667, "type": "electric_scooter", "lon": -77.02282833333334, "bike_id": "d7fd0fe902f0e1fbf6ff6e02d9e8f164", "rental_uris": {"android": "https://dc.lft.to/lastmile_qr_scan", "ios": "https://dc.lft.to/lastmile_qr_scan"}, "name": "d7fd0fe902f0e1fbf6ff6e02d9e8f164", "is_reserved": 0}, {"is_disabled": 0, "fusion_lon": 0.0, "fusion_lat": 0.0, "lat": 38.917991666666666, "type": "electric_scooter", "lon": -77.0343945, "bike_id": "5f1d0d42e99c2ffc589ef6b1bc48fc06", "rental_uris": {"android": "https://dc.lft.to/lastmile_qr_scan", "ios": "https://dc.lft.to/lastmile_qr_scan"}, "name": "5f1d0d42e99c2ffc589ef6b1bc48fc06", "is_reserved": 0}, {"is_disabled": 0, "fusion_lon": 0.0, "fusion_lat": 0.0, "lat": 38.84292766666667, "type": "electric_scooter", "lon": -76.99943216666667, "bike_id": "89d7eaee40419c8e12faf25ffdc6cda0", "rental_uris": {"android": "https://dc.lft.to/lastmile_qr_scan", "ios": "https://dc.lft.to/lastmile_qr_scan"}, "name": "89d7eaee40419c8e12faf25ffdc6cda0", "is_reserved": 0}, {"is_disabled": 0, "fusion_lon": 0.0, "fusion_lat": 0.0, "lat": 38.9083745, "type": "electric_scooter", "lon": -76.99700483333334, "bike_id": "1f8cd3d83f2e9e756a2e8b41e5c92760", "rental_uris": {"android": "https://dc.lft.to/lastmile_qr_scan", "ios": "https://dc.lft.to/lastmile_qr_scan"}, "name": "1f8cd3d83f2e9e756a2e8b41e5c92760", "is_reserved": 0}, {"is_disabled": 0, "fusion_lon": 0.0, "fusion_lat": 0.0, "lat": 38.88705366666667, "type": "electric_scooter", "lon": -76.95360516666666, "bike_id": "76258fc80d660986ec64d7a00bb2319f", "rental_uris": {"android": "https://dc.lft.to/lastmile_qr_scan", "ios": "https://dc.lft.to/lastmile_qr_scan"}, "name": "76258fc80d660986ec64d7a00bb2319f", "is_reserved": 0}, {"is_disabled": 0, "fusion_lon": 0.0, "fusion_lat": 0.0, "lat": 38.900754, "type": "electric_scooter", "lon": -77.04770216666667, "bike_id": "a5b5fedda798c2bc514f895430eb333e", "rental_uris": {"android": "https://dc.lft.to/lastmile_qr_scan", "ios": "https://dc.lft.to/lastmile_qr_scan"}, "name": "a5b5fedda798c2bc514f895430eb333e", "is_reserved": 0}, {"is_disabled": 0, "fusion_lon": 0.0, "fusion_lat": 0.0, "lat": 38.93415233333333, "type": "electric_scooter", "lon": -77.042659, "bike_id": "3b3437d06cdf358e89c728ccf395b67d", "rental_uris": {"android": "https://dc.lft.to/lastmile_qr_scan", "ios": "https://dc.lft.to/lastmile_qr_scan"}, "name": "3b3437d06cdf358e89c728ccf395b67d", "is_reserved": 0}, {"is_disabled": 0, "fusion_lon": 0.0, "fusion_lat": 0.0, "lat": 38.89571333333333, "type": "electric_bike", "lon": -76.97621166666667, "bike_id": "a5a48ce2ad1bd4688c0ea836b81b009d", "rental_uris": {"android": "https://dc.lft.to/lastmile_qr_scan", "ios": "https://dc.lft.to/lastmile_qr_scan"}, "name": "a5a48ce2ad1bd4688c0ea836b81b009d", "is_reserved": 0}, {"is_disabled": 0, "fusion_lon": 0.0, "fusion_lat": 0.0, "lat": 38.8922005, "type": "electric_scooter", "lon": -77.026244, "bike_id": "9fc1707b744da9a22c57e40be529814a", "rental_uris": {"android": "https://dc.lft.to/lastmile_qr_scan", "ios": "https://dc.lft.to/lastmile_qr_scan"}, "name": "9fc1707b744da9a22c57e40be529814a", "is_reserved": 0}, {"is_disabled": 0, "fusion_lon": 0.0, "fusion_lat": 0.0, "lat": 38.90907333333333, "type": "electric_scooter", "lon": -77.04293666666666, "bike_id": "3e132c8c2d4291675a134823d58c271b", "rental_uris": {"android": "https://dc.lft.to/lastmile_qr_scan", "ios": "https://dc.lft.to/lastmile_qr_scan"}, "name": "3e132c8c2d4291675a134823d58c271b", "is_reserved": 0}, {"is_disabled": 0, "fusion_lon": 0.0, "fusion_lat": 0.0, "lat": 38.89934066666667, "type": "electric_scooter", "lon": -77.01966883333333, "bike_id": "6aeb5d5c24b148a59adf6ae6b1fc60ee", "rental_uris": {"android": "https://dc.lft.to/lastmile_qr_scan", "ios": "https://dc.lft.to/lastmile_qr_scan"}, "name": "6aeb5d5c24b148a59adf6ae6b1fc60ee", "is_reserved": 0}, {"is_disabled": 0, "fusion_lon": 0.0, "fusion_lat": 0.0, "lat": 38.917058, "type": "electric_scooter", "lon": -77.04148483333333, "bike_id": "7011a2b483f6de50e377a88ce1fb2499", "rental_uris": {"android": "https://dc.lft.to/lastmile_qr_scan", "ios": "https://dc.lft.to/lastmile_qr_scan"}, "name": "7011a2b483f6de50e377a88ce1fb2499", "is_reserved": 0}, {"is_disabled": 0, "fusion_lon": 0.0, "fusion_lat": 0.0, "lat": 38.91109516666667, "type": "electric_scooter", "lon": -77.00376733333333, "bike_id": "cc740fa5b6617176d6c8963de73ebef7", "rental_uris": {"android": "https://dc.lft.to/lastmile_qr_scan", "ios": "https://dc.lft.to/lastmile_qr_scan"}, "name": "cc740fa5b6617176d6c8963de73ebef7", "is_reserved": 0}, {"is_disabled": 0, "fusion_lon": 0.0, "fusion_lat": 0.0, "lat": 38.9209325, "type": "electric_scooter", "lon": -77.0259165, "bike_id": "fe05a639922b3ce00d48a1acaf6c449f", "rental_uris": {"android": "https://dc.lft.to/lastmile_qr_scan", "ios": "https://dc.lft.to/lastmile_qr_scan"}, "name": "fe05a639922b3ce00d48a1acaf6c449f", "is_reserved": 0}, {"is_disabled": 0, "fusion_lon": 0.0, "fusion_lat": 0.0, "lat": 38.88449683333333, "type": "electric_scooter", "lon": -76.95097466666667, "bike_id": "5d80f4e3d92eee9d40c91aede692a397", "rental_uris": {"android": "https://dc.lft.to/lastmile_qr_scan", "ios": "https://dc.lft.to/lastmile_qr_scan"}, "name": "5d80f4e3d92eee9d40c91aede692a397", "is_reserved": 0}, {"is_disabled": 0, "fusion_lon": 0.0, "fusion_lat": 0.0, "lat": 38.923583666666666, "type": "electric_scooter", "lon": -77.039092, "bike_id": "9dcba7203ab749430416b3147ce322b1", "rental_uris": {"android": "https://dc.lft.to/lastmile_qr_scan", "ios": "https://dc.lft.to/lastmile_qr_scan"}, "name": "9dcba7203ab749430416b3147ce322b1", "is_reserved": 0}, {"is_disabled": 0, "fusion_lon": 0.0, "fusion_lat": 0.0, "lat": 38.918524, "type": "electric_scooter", "lon": -77.032117, "bike_id": "eebf0163b1eceb6bf5a2e72e0d16691a", "rental_uris": {"android": "https://dc.lft.to/lastmile_qr_scan", "ios": "https://dc.lft.to/lastmile_qr_scan"}, "name": "eebf0163b1eceb6bf5a2e72e0d16691a", "is_reserved": 0}, {"is_disabled": 0, "fusion_lon": 0.0, "fusion_lat": 0.0, "lat": 38.910504833333334, "type": "electric_scooter", "lon": -77.06454333333333, "bike_id": "6bee08c96c8357fa927aee752868c9aa", "rental_uris": {"android": "https://dc.lft.to/lastmile_qr_scan", "ios": "https://dc.lft.to/lastmile_qr_scan"}, "name": "6bee08c96c8357fa927aee752868c9aa", "is_reserved": 0}, {"is_disabled": 0, "fusion_lon": 0.0, "fusion_lat": 0.0, "lat": 38.8739845, "type": "electric_scooter", "lon": -77.0019375, "bike_id": "4f971600f87edf6174039233a803a9d6", "rental_uris": {"android": "https://dc.lft.to/lastmile_qr_scan", "ios": "https://dc.lft.to/lastmile_qr_scan"}, "name": "4f971600f87edf6174039233a803a9d6", "is_reserved": 0}, {"is_disabled": 0, "fusion_lon": 0.0, "fusion_lat": 0.0, "lat": 38.936409, "type": "electric_bike", "lon": -76.9545485, "bike_id": "d7fd86ad98df13f3428e048af4a486f7", "rental_uris": {"android": "https://dc.lft.to/lastmile_qr_scan", "ios": "https://dc.lft.to/lastmile_qr_scan"}, "name": "d7fd86ad98df13f3428e048af4a486f7", "is_reserved": 0}, {"is_disabled": 0, "fusion_lon": 0.0, "fusion_lat": 0.0, "lat": 38.88872966666667, "type": "electric_scooter", "lon": -77.028495, "bike_id": "436c391d733761c6c9fea24a36672fbd", "rental_uris": {"android": "https://dc.lft.to/lastmile_qr_scan", "ios": "https://dc.lft.to/lastmile_qr_scan"}, "name": "436c391d733761c6c9fea24a36672fbd", "is_reserved": 0}, {"is_disabled": 0, "fusion_lon": 0.0, "fusion_lat": 0.0, "lat": 38.90541116666667, "type": "electric_scooter", "lon": -77.005864, "bike_id": "df2497730d9afdb9a1a7222dc8dc7afc", "rental_uris": {"android": "https://dc.lft.to/lastmile_qr_scan", "ios": "https://dc.lft.to/lastmile_qr_scan"}, "name": "df2497730d9afdb9a1a7222dc8dc7afc", "is_reserved": 0}, {"is_disabled": 0, "fusion_lon": 0.0, "fusion_lat": 0.0, "lat": 38.904604, "type": "electric_scooter", "lon": -77.03469483333333, "bike_id": "74587c98c5f0933119dd00197d71b639", "rental_uris": {"android": "https://dc.lft.to/lastmile_qr_scan", "ios": "https://dc.lft.to/lastmile_qr_scan"}, "name": "74587c98c5f0933119dd00197d71b639", "is_reserved": 0}, {"is_disabled": 0, "fusion_lon": 0.0, "fusion_lat": 0.0, "lat": 38.9141645, "type": "electric_scooter", "lon": -77.04499666666666, "bike_id": "4988045fdd9ce50ecfe39edd6519caa6", "rental_uris": {"android": "https://dc.lft.to/lastmile_qr_scan", "ios": "https://dc.lft.to/lastmile_qr_scan"}, "name": "4988045fdd9ce50ecfe39edd6519caa6", "is_reserved": 0}, {"is_disabled": 0, "fusion_lon": 0.0, "fusion_lat": 0.0, "lat": 38.9457985, "type": "electric_bike", "lon": -76.98774616666667, "bike_id": "2fc74833d0428f492e1f943636638f22", "rental_uris": {"android": "https://dc.lft.to/lastmile_qr_scan", "ios": "https://dc.lft.to/lastmile_qr_scan"}, "name": "2fc74833d0428f492e1f943636638f22", "is_reserved": 0}, {"is_disabled": 0, "fusion_lon": 0.0, "fusion_lat": 0.0, "lat": 38.904859, "type": "electric_scooter", "lon": -77.035911, "bike_id": "9a164339d2ee7bda1fb6db9744c5bf10", "rental_uris": {"android": "https://dc.lft.to/lastmile_qr_scan", "ios": "https://dc.lft.to/lastmile_qr_scan"}, "name": "9a164339d2ee7bda1fb6db9744c5bf10", "is_reserved": 0}, {"is_disabled": 0, "fusion_lon": 0.0, "fusion_lat": 0.0, "lat": 38.9610875, "type": "electric_bike", "lon": -77.02846216666667, "bike_id": "81591d2de0d5e3412bb0e772d3c8517c", "rental_uris": {"android": "https://dc.lft.to/lastmile_qr_scan", "ios": "https://dc.lft.to/lastmile_qr_scan"}, "name": "81591d2de0d5e3412bb0e772d3c8517c", "is_reserved": 0}, {"is_disabled": 0, "fusion_lon": 0.0, "fusion_lat": 0.0, "lat": 38.90417516666667, "type": "electric_scooter", "lon": -77.0288015, "bike_id": "4683065868af739b1b360cf44051b730", "rental_uris": {"android": "https://dc.lft.to/lastmile_qr_scan", "ios": "https://dc.lft.to/lastmile_qr_scan"}, "name": "4683065868af739b1b360cf44051b730", "is_reserved": 0}, {"is_disabled": 0, "fusion_lon": 0.0, "fusion_lat": 0.0, "lat": 38.9475, "type": "electric_scooter", "lon": -77.01800933333334, "bike_id": "960090bfef1ef227a9358f3f101bbe17", "rental_uris": {"android": "https://dc.lft.to/lastmile_qr_scan", "ios": "https://dc.lft.to/lastmile_qr_scan"}, "name": "960090bfef1ef227a9358f3f101bbe17", "is_reserved": 0}, {"is_disabled": 0, "fusion_lon": 0.0, "fusion_lat": 0.0, "lat": 38.89952666666667, "type": "electric_scooter", "lon": -77.05218266666667, "bike_id": "6f53b554acbb046229294eb91f0fa165", "rental_uris": {"android": "https://dc.lft.to/lastmile_qr_scan", "ios": "https://dc.lft.to/lastmile_qr_scan"}, "name": "6f53b554acbb046229294eb91f0fa165", "is_reserved": 0}, {"is_disabled": 0, "fusion_lon": 0.0, "fusion_lat": 0.0, "lat": 38.887474166666664, "type": "electric_scooter", "lon": -77.016072, "bike_id": "cd056f6ee17d907f7bb5215811ab3e58", "rental_uris": {"android": "https://dc.lft.to/lastmile_qr_scan", "ios": "https://dc.lft.to/lastmile_qr_scan"}, "name": "cd056f6ee17d907f7bb5215811ab3e58", "is_reserved": 0}, {"is_disabled": 0, "fusion_lon": 0.0, "fusion_lat": 0.0, "lat": 38.941847333333335, "type": "electric_scooter", "lon": -77.02705183333333, "bike_id": "45f9b46728cfd001195b8f58cab79d41", "rental_uris": {"android": "https://dc.lft.to/lastmile_qr_scan", "ios": "https://dc.lft.to/lastmile_qr_scan"}, "name": "45f9b46728cfd001195b8f58cab79d41", "is_reserved": 0}, {"is_disabled": 0, "fusion_lon": 0.0, "fusion_lat": 0.0, "lat": 38.87498933333333, "type": "electric_scooter", "lon": -76.999751, "bike_id": "4abd8baf26fa6ee71fd96e3cf8e5c0ad", "rental_uris": {"android": "https://dc.lft.to/lastmile_qr_scan", "ios": "https://dc.lft.to/lastmile_qr_scan"}, "name": "4abd8baf26fa6ee71fd96e3cf8e5c0ad", "is_reserved": 0}, {"is_disabled": 0, "fusion_lon": 0.0, "fusion_lat": 0.0, "lat": 38.91823466666666, "type": "electric_scooter", "lon": -77.036622, "bike_id": "00f794123f574af8efb05e81d0a365f9", "rental_uris": {"android": "https://dc.lft.to/lastmile_qr_scan", "ios": "https://dc.lft.to/lastmile_qr_scan"}, "name": "00f794123f574af8efb05e81d0a365f9", "is_reserved": 0}, {"is_disabled": 0, "fusion_lon": 0.0, "fusion_lat": 0.0, "lat": 38.94300966666667, "type": "electric_scooter", "lon": -77.0335105, "bike_id": "886ae3f6e68d1302b8de1aecdd6248c9", "rental_uris": {"android": "https://dc.lft.to/lastmile_qr_scan", "ios": "https://dc.lft.to/lastmile_qr_scan"}, "name": "886ae3f6e68d1302b8de1aecdd6248c9", "is_reserved": 0}, {"is_disabled": 0, "fusion_lon": 0.0, "fusion_lat": 0.0, "lat": 38.8429405, "type": "electric_scooter", "lon": -76.99944983333333, "bike_id": "c880d4e4b67e8d6ed3ed9d99963e85f1", "rental_uris": {"android": "https://dc.lft.to/lastmile_qr_scan", "ios": "https://dc.lft.to/lastmile_qr_scan"}, "name": "c880d4e4b67e8d6ed3ed9d99963e85f1", "is_reserved": 0}, {"is_disabled": 0, "fusion_lon": 0.0, "fusion_lat": 0.0, "lat": 38.928933, "type": "electric_scooter", "lon": -77.0324775, "bike_id": "bfb9bb461269c4c014321a3282105194", "rental_uris": {"android": "https://dc.lft.to/lastmile_qr_scan", "ios": "https://dc.lft.to/lastmile_qr_scan"}, "name": "bfb9bb461269c4c014321a3282105194", "is_reserved": 0}, {"is_disabled": 0, "fusion_lon": 0.0, "fusion_lat": 0.0, "lat": 38.964512, "type": "electric_bike", "lon": -76.97724216666667, "bike_id": "c21d5a250da5a9022afb398de62bccbf", "rental_uris": {"android": "https://dc.lft.to/lastmile_qr_scan", "ios": "https://dc.lft.to/lastmile_qr_scan"}, "name": "c21d5a250da5a9022afb398de62bccbf", "is_reserved": 0}, {"is_disabled": 0, "fusion_lon": 0.0, "fusion_lat": 0.0, "lat": 39.029991333333335, "type": "electric_bike", "lon": -77.1065, "bike_id": "0d51a88a444197714b375535b8b89332", "rental_uris": {"android": "https://dc.lft.to/lastmile_qr_scan", "ios": "https://dc.lft.to/lastmile_qr_scan"}, "name": "0d51a88a444197714b375535b8b89332", "is_reserved": 0}, {"is_disabled": 0, "fusion_lon": 0.0, "fusion_lat": 0.0, "lat": 38.91188133333333, "type": "electric_scooter", "lon": -77.01872516666667, "bike_id": "aeae435c7039687edcc21d1858660a8f", "rental_uris": {"android": "https://dc.lft.to/lastmile_qr_scan", "ios": "https://dc.lft.to/lastmile_qr_scan"}, "name": "aeae435c7039687edcc21d1858660a8f", "is_reserved": 0}, {"is_disabled": 0, "fusion_lon": 0.0, "fusion_lat": 0.0, "lat": 38.90682066666667, "type": "electric_scooter", "lon": -77.02691616666667, "bike_id": "afc46386f1744ad9cf22dd00e1f9476a", "rental_uris": {"android": "https://dc.lft.to/lastmile_qr_scan", "ios": "https://dc.lft.to/lastmile_qr_scan"}, "name": "afc46386f1744ad9cf22dd00e1f9476a", "is_reserved": 0}, {"is_disabled": 0, "fusion_lon": 0.0, "fusion_lat": 0.0, "lat": 38.92052266666666, "type": "electric_scooter", "lon": -77.02613666666667, "bike_id": "30d5d378940fe898db937107378c30cf", "rental_uris": {"android": "https://dc.lft.to/lastmile_qr_scan", "ios": "https://dc.lft.to/lastmile_qr_scan"}, "name": "30d5d378940fe898db937107378c30cf", "is_reserved": 0}, {"is_disabled": 0, "fusion_lon": 0.0, "fusion_lat": 0.0, "lat": 38.89223233333333, "type": "electric_scooter", "lon": -77.03337833333333, "bike_id": "3cedf99b988c263874f301db088707cb", "rental_uris": {"android": "https://dc.lft.to/lastmile_qr_scan", "ios": "https://dc.lft.to/lastmile_qr_scan"}, "name": "3cedf99b988c263874f301db088707cb", "is_reserved": 0}, {"is_disabled": 0, "fusion_lon": 0.0, "fusion_lat": 0.0, "lat": 38.90571666666666, "type": "electric_scooter", "lon": -77.03358033333333, "bike_id": "f7a7365ad5864b03f5d0c4e28ca1245c", "rental_uris": {"android": "https://dc.lft.to/lastmile_qr_scan", "ios": "https://dc.lft.to/lastmile_qr_scan"}, "name": "f7a7365ad5864b03f5d0c4e28ca1245c", "is_reserved": 0}, {"is_disabled": 0, "fusion_lon": 0.0, "fusion_lat": 0.0, "lat": 38.90195533333333, "type": "electric_scooter", "lon": -77.03950483333334, "bike_id": "720e23c57e099cae5dbef8f4d731e9d9", "rental_uris": {"android": "https://dc.lft.to/lastmile_qr_scan", "ios": "https://dc.lft.to/lastmile_qr_scan"}, "name": "720e23c57e099cae5dbef8f4d731e9d9", "is_reserved": 0}, {"is_disabled": 0, "fusion_lon": 0.0, "fusion_lat": 0.0, "lat": 38.9109945, "type": "electric_scooter", "lon": -77.03186883333333, "bike_id": "71747f073127462e9cba583dde92bea7", "rental_uris": {"android": "https://dc.lft.to/lastmile_qr_scan", "ios": "https://dc.lft.to/lastmile_qr_scan"}, "name": "71747f073127462e9cba583dde92bea7", "is_reserved": 0}, {"is_disabled": 0, "fusion_lon": 0.0, "fusion_lat": 0.0, "lat": 38.908395166666665, "type": "electric_scooter", "lon": -76.996995, "bike_id": "88c4ab2e1fad443b64d4dd760a54c190", "rental_uris": {"android": "https://dc.lft.to/lastmile_qr_scan", "ios": "https://dc.lft.to/lastmile_qr_scan"}, "name": "88c4ab2e1fad443b64d4dd760a54c190", "is_reserved": 0}, {"is_disabled": 0, "fusion_lon": 0.0, "fusion_lat": 0.0, "lat": 38.9167365, "type": "electric_scooter", "lon": -77.02708066666666, "bike_id": "ce0d7a6a14f1275ee7dd35d37e2a403d", "rental_uris": {"android": "https://dc.lft.to/lastmile_qr_scan", "ios": "https://dc.lft.to/lastmile_qr_scan"}, "name": "ce0d7a6a14f1275ee7dd35d37e2a403d", "is_reserved": 0}, {"is_disabled": 0, "fusion_lon": 0.0, "fusion_lat": 0.0, "lat": 38.91857783333333, "type": "electric_scooter", "lon": -77.0416515, "bike_id": "a1b6dd87c4e06ee14557121de0968321", "rental_uris": {"android": "https://dc.lft.to/lastmile_qr_scan", "ios": "https://dc.lft.to/lastmile_qr_scan"}, "name": "a1b6dd87c4e06ee14557121de0968321", "is_reserved": 0}, {"is_disabled": 0, "fusion_lon": 0.0, "fusion_lat": 0.0, "lat": 38.84515666666667, "type": "electric_bike", "lon": -77.07795333333334, "bike_id": "45f5b08a604f6010e5858bd9b1eacdf5", "rental_uris": {"android": "https://dc.lft.to/lastmile_qr_scan", "ios": "https://dc.lft.to/lastmile_qr_scan"}, "name": "45f5b08a604f6010e5858bd9b1eacdf5", "is_reserved": 0}, {"is_disabled": 0, "fusion_lon": 0.0, "fusion_lat": 0.0, "lat": 38.91428366666667, "type": "electric_scooter", "lon": -77.01993833333333, "bike_id": "e6f4b784cc51d4244616de1057997a80", "rental_uris": {"android": "https://dc.lft.to/lastmile_qr_scan", "ios": "https://dc.lft.to/lastmile_qr_scan"}, "name": "e6f4b784cc51d4244616de1057997a80", "is_reserved": 0}, {"is_disabled": 0, "fusion_lon": 0.0, "fusion_lat": 0.0, "lat": 38.87808016666666, "type": "electric_scooter", "lon": -77.01427116666666, "bike_id": "67b4e55b98e563db36f4d530002f9c6e", "rental_uris": {"android": "https://dc.lft.to/lastmile_qr_scan", "ios": "https://dc.lft.to/lastmile_qr_scan"}, "name": "67b4e55b98e563db36f4d530002f9c6e", "is_reserved": 0}, {"is_disabled": 0, "fusion_lon": 0.0, "fusion_lat": 0.0, "lat": 38.92963566666667, "type": "electric_scooter", "lon": -77.023432, "bike_id": "6034d6d76f42b9a634db517b6441df48", "rental_uris": {"android": "https://dc.lft.to/lastmile_qr_scan", "ios": "https://dc.lft.to/lastmile_qr_scan"}, "name": "6034d6d76f42b9a634db517b6441df48", "is_reserved": 0}, {"is_disabled": 0, "fusion_lon": 0.0, "fusion_lat": 0.0, "lat": 38.917471, "type": "electric_scooter", "lon": -77.0415435, "bike_id": "d132795dfe14f4972b3b87b2b8da647a", "rental_uris": {"android": "https://dc.lft.to/lastmile_qr_scan", "ios": "https://dc.lft.to/lastmile_qr_scan"}, "name": "d132795dfe14f4972b3b87b2b8da647a", "is_reserved": 0}, {"is_disabled": 0, "fusion_lon": 0.0, "fusion_lat": 0.0, "lat": 38.92746133333333, "type": "electric_scooter", "lon": -77.02532966666666, "bike_id": "819d7a6f4358a85a268e06d95a10a2e2", "rental_uris": {"android": "https://dc.lft.to/lastmile_qr_scan", "ios": "https://dc.lft.to/lastmile_qr_scan"}, "name": "819d7a6f4358a85a268e06d95a10a2e2", "is_reserved": 0}, {"is_disabled": 0, "fusion_lon": 0.0, "fusion_lat": 0.0, "lat": 38.918549166666665, "type": "electric_bike", "lon": -76.9608915, "bike_id": "68d74aae8810453f388b6e8c38d859f8", "rental_uris": {"android": "https://dc.lft.to/lastmile_qr_scan", "ios": "https://dc.lft.to/lastmile_qr_scan"}, "name": "68d74aae8810453f388b6e8c38d859f8", "is_reserved": 0}, {"is_disabled": 0, "fusion_lon": 0.0, "fusion_lat": 0.0, "lat": 38.917064333333336, "type": "electric_scooter", "lon": -77.0429745, "bike_id": "425ce917d1695308557c75a076df50e9", "rental_uris": {"android": "https://dc.lft.to/lastmile_qr_scan", "ios": "https://dc.lft.to/lastmile_qr_scan"}, "name": "425ce917d1695308557c75a076df50e9", "is_reserved": 0}, {"is_disabled": 0, "fusion_lon": 0.0, "fusion_lat": 0.0, "lat": 38.83930816666667, "type": "electric_bike", "lon": -77.07895616666667, "bike_id": "a89e8a49c6e1daeb86066a7936e92538", "rental_uris": {"android": "https://dc.lft.to/lastmile_qr_scan", "ios": "https://dc.lft.to/lastmile_qr_scan"}, "name": "a89e8a49c6e1daeb86066a7936e92538", "is_reserved": 0}, {"is_disabled": 0, "fusion_lon": 0.0, "fusion_lat": 0.0, "lat": 38.905622666666666, "type": "electric_scooter", "lon": -77.02464033333334, "bike_id": "49162d2d26a5f3cbd4de41dd95c355dd", "rental_uris": {"android": "https://dc.lft.to/lastmile_qr_scan", "ios": "https://dc.lft.to/lastmile_qr_scan"}, "name": "49162d2d26a5f3cbd4de41dd95c355dd", "is_reserved": 0}, {"is_disabled": 0, "fusion_lon": 0.0, "fusion_lat": 0.0, "lat": 38.92840133333333, "type": "electric_scooter", "lon": -77.0561685, "bike_id": "f2d981230f48bd57f4b9adc8429ba066", "rental_uris": {"android": "https://dc.lft.to/lastmile_qr_scan", "ios": "https://dc.lft.to/lastmile_qr_scan"}, "name": "f2d981230f48bd57f4b9adc8429ba066", "is_reserved": 0}, {"is_disabled": 0, "fusion_lon": 0.0, "fusion_lat": 0.0, "lat": 38.911939, "type": "electric_scooter", "lon": -77.03858366666667, "bike_id": "f47acdd692a19fb5674f1c00e7d64e92", "rental_uris": {"android": "https://dc.lft.to/lastmile_qr_scan", "ios": "https://dc.lft.to/lastmile_qr_scan"}, "name": "f47acdd692a19fb5674f1c00e7d64e92", "is_reserved": 0}, {"is_disabled": 0, "fusion_lon": 0.0, "fusion_lat": 0.0, "lat": 38.9149515, "type": "electric_scooter", "lon": -76.98372483333333, "bike_id": "dc74c44446d28e6035fb57579a9a9052", "rental_uris": {"android": "https://dc.lft.to/lastmile_qr_scan", "ios": "https://dc.lft.to/lastmile_qr_scan"}, "name": "dc74c44446d28e6035fb57579a9a9052", "is_reserved": 0}, {"is_disabled": 0, "fusion_lon": 0.0, "fusion_lat": 0.0, "lat": 38.903166666666664, "type": "electric_scooter", "lon": -77.01899083333333, "bike_id": "8f8c0681d7f1c35de9ac1bc2006cb517", "rental_uris": {"android": "https://dc.lft.to/lastmile_qr_scan", "ios": "https://dc.lft.to/lastmile_qr_scan"}, "name": "8f8c0681d7f1c35de9ac1bc2006cb517", "is_reserved": 0}, {"is_disabled": 0, "fusion_lon": 0.0, "fusion_lat": 0.0, "lat": 38.9082845, "type": "electric_scooter", "lon": -77.04173683333333, "bike_id": "f47551f0ff71b100765f0d58f01f2c4c", "rental_uris": {"android": "https://dc.lft.to/lastmile_qr_scan", "ios": "https://dc.lft.to/lastmile_qr_scan"}, "name": "f47551f0ff71b100765f0d58f01f2c4c", "is_reserved": 0}, {"is_disabled": 0, "fusion_lon": 0.0, "fusion_lat": 0.0, "lat": 38.9211115, "type": "electric_scooter", "lon": -77.03052833333334, "bike_id": "ea1e9a3501f1145909c427aeafaa1a7e", "rental_uris": {"android": "https://dc.lft.to/lastmile_qr_scan", "ios": "https://dc.lft.to/lastmile_qr_scan"}, "name": "ea1e9a3501f1145909c427aeafaa1a7e", "is_reserved": 0}, {"is_disabled": 0, "fusion_lon": 0.0, "fusion_lat": 0.0, "lat": 38.8765415, "type": "electric_scooter", "lon": -77.01562983333334, "bike_id": "bebad3d2b1ac8ab8f22557d18f05017e", "rental_uris": {"android": "https://dc.lft.to/lastmile_qr_scan", "ios": "https://dc.lft.to/lastmile_qr_scan"}, "name": "bebad3d2b1ac8ab8f22557d18f05017e", "is_reserved": 0}, {"is_disabled": 0, "fusion_lon": 0.0, "fusion_lat": 0.0, "lat": 38.931537, "type": "electric_scooter", "lon": -77.03452183333333, "bike_id": "7d6b7d6f7150d96b8af3afbf93561d5c", "rental_uris": {"android": "https://dc.lft.to/lastmile_qr_scan", "ios": "https://dc.lft.to/lastmile_qr_scan"}, "name": "7d6b7d6f7150d96b8af3afbf93561d5c", "is_reserved": 0}, {"is_disabled": 0, "fusion_lon": 0.0, "fusion_lat": 0.0, "lat": 38.88224016666667, "type": "electric_bike", "lon": -77.11283516666667, "bike_id": "a905a663defdb8e1e709a00769fc5a2d", "rental_uris": {"android": "https://dc.lft.to/lastmile_qr_scan", "ios": "https://dc.lft.to/lastmile_qr_scan"}, "name": "a905a663defdb8e1e709a00769fc5a2d", "is_reserved": 0}, {"is_disabled": 0, "fusion_lon": 0.0, "fusion_lat": 0.0, "lat": 38.909714666666666, "type": "electric_scooter", "lon": -77.08075033333333, "bike_id": "6fb5f6c87634ae92babfad3191012dac", "rental_uris": {"android": "https://dc.lft.to/lastmile_qr_scan", "ios": "https://dc.lft.to/lastmile_qr_scan"}, "name": "6fb5f6c87634ae92babfad3191012dac", "is_reserved": 0}, {"is_disabled": 0, "fusion_lon": 0.0, "fusion_lat": 0.0, "lat": 38.9044985, "type": "electric_scooter", "lon": -77.02885266666667, "bike_id": "943ab43e38fb6848e08478a7a85e8c30", "rental_uris": {"android": "https://dc.lft.to/lastmile_qr_scan", "ios": "https://dc.lft.to/lastmile_qr_scan"}, "name": "943ab43e38fb6848e08478a7a85e8c30", "is_reserved": 0}, {"is_disabled": 0, "fusion_lon": 0.0, "fusion_lat": 0.0, "lat": 38.89827716666667, "type": "electric_scooter", "lon": -76.946531, "bike_id": "aec54a2e79e9b6cd0e10f2e3d72bf1a0", "rental_uris": {"android": "https://dc.lft.to/lastmile_qr_scan", "ios": "https://dc.lft.to/lastmile_qr_scan"}, "name": "aec54a2e79e9b6cd0e10f2e3d72bf1a0", "is_reserved": 0}, {"is_disabled": 0, "fusion_lon": 0.0, "fusion_lat": 0.0, "lat": 38.91097383333334, "type": "electric_scooter", "lon": -77.03864016666667, "bike_id": "955d8a073c66626e772feffbbc14fea4", "rental_uris": {"android": "https://dc.lft.to/lastmile_qr_scan", "ios": "https://dc.lft.to/lastmile_qr_scan"}, "name": "955d8a073c66626e772feffbbc14fea4", "is_reserved": 0}, {"is_disabled": 0, "fusion_lon": 0.0, "fusion_lat": 0.0, "lat": 38.886564166666666, "type": "electric_scooter", "lon": -77.02825366666667, "bike_id": "38578f2cd2895e76150fcb5005ffde9d", "rental_uris": {"android": "https://dc.lft.to/lastmile_qr_scan", "ios": "https://dc.lft.to/lastmile_qr_scan"}, "name": "38578f2cd2895e76150fcb5005ffde9d", "is_reserved": 0}, {"is_disabled": 0, "fusion_lon": 0.0, "fusion_lat": 0.0, "lat": 38.93103466666667, "type": "electric_scooter", "lon": -77.0383515, "bike_id": "fdefe787f26a56132bf20a1dd715589c", "rental_uris": {"android": "https://dc.lft.to/lastmile_qr_scan", "ios": "https://dc.lft.to/lastmile_qr_scan"}, "name": "fdefe787f26a56132bf20a1dd715589c", "is_reserved": 0}, {"is_disabled": 0, "fusion_lon": 0.0, "fusion_lat": 0.0, "lat": 38.90051183333333, "type": "electric_scooter", "lon": -77.00065666666667, "bike_id": "68b8a8ab6419ecf7611415f2bc653129", "rental_uris": {"android": "https://dc.lft.to/lastmile_qr_scan", "ios": "https://dc.lft.to/lastmile_qr_scan"}, "name": "68b8a8ab6419ecf7611415f2bc653129", "is_reserved": 0}, {"is_disabled": 0, "fusion_lon": 0.0, "fusion_lat": 0.0, "lat": 38.95310166666667, "type": "electric_scooter", "lon": -77.03600633333333, "bike_id": "88f3ee740ef15dd66be53b0e46aff1aa", "rental_uris": {"android": "https://dc.lft.to/lastmile_qr_scan", "ios": "https://dc.lft.to/lastmile_qr_scan"}, "name": "88f3ee740ef15dd66be53b0e46aff1aa", "is_reserved": 0}, {"is_disabled": 0, "fusion_lon": 0.0, "fusion_lat": 0.0, "lat": 38.929757, "type": "electric_scooter", "lon": -77.03252533333334, "bike_id": "5a123b7b032cca6ad1b59cec423d3878", "rental_uris": {"android": "https://dc.lft.to/lastmile_qr_scan", "ios": "https://dc.lft.to/lastmile_qr_scan"}, "name": "5a123b7b032cca6ad1b59cec423d3878", "is_reserved": 0}, {"is_disabled": 0, "fusion_lon": 0.0, "fusion_lat": 0.0, "lat": 38.92447466666667, "type": "electric_bike", "lon": -76.968302, "bike_id": "9588d7d7931b57819bbb1675c20801fa", "rental_uris": {"android": "https://dc.lft.to/lastmile_qr_scan", "ios": "https://dc.lft.to/lastmile_qr_scan"}, "name": "9588d7d7931b57819bbb1675c20801fa", "is_reserved": 0}, {"is_disabled": 0, "fusion_lon": 0.0, "fusion_lat": 0.0, "lat": 39.1056755, "type": "electric_bike", "lon": -77.15267483333334, "bike_id": "ac41e891afa42ee376a38af90de20c54", "rental_uris": {"android": "https://dc.lft.to/lastmile_qr_scan", "ios": "https://dc.lft.to/lastmile_qr_scan"}, "name": "ac41e891afa42ee376a38af90de20c54", "is_reserved": 0}, {"is_disabled": 0, "fusion_lon": 0.0, "fusion_lat": 0.0, "lat": 38.902695333333334, "type": "electric_scooter", "lon": -77.04262733333333, "bike_id": "5be034ff99df3e85a8b1ad2555c9abf8", "rental_uris": {"android": "https://dc.lft.to/lastmile_qr_scan", "ios": "https://dc.lft.to/lastmile_qr_scan"}, "name": "5be034ff99df3e85a8b1ad2555c9abf8", "is_reserved": 0}, {"is_disabled": 0, "fusion_lon": 0.0, "fusion_lat": 0.0, "lat": 38.9453485, "type": "electric_bike", "lon": -77.0270555, "bike_id": "d89b771f2863f38b6ad248eb819bafda", "rental_uris": {"android": "https://dc.lft.to/lastmile_qr_scan", "ios": "https://dc.lft.to/lastmile_qr_scan"}, "name": "d89b771f2863f38b6ad248eb819bafda", "is_reserved": 0}, {"is_disabled": 0, "fusion_lon": 0.0, "fusion_lat": 0.0, "lat": 38.92098933333333, "type": "electric_scooter", "lon": -76.99415266666666, "bike_id": "2bb754155e32778e9880aa10baeb2748", "rental_uris": {"android": "https://dc.lft.to/lastmile_qr_scan", "ios": "https://dc.lft.to/lastmile_qr_scan"}, "name": "2bb754155e32778e9880aa10baeb2748", "is_reserved": 0}, {"is_disabled": 0, "fusion_lon": 0.0, "fusion_lat": 0.0, "lat": 38.9198505, "type": "electric_scooter", "lon": -77.00020583333334, "bike_id": "2b46be6dc4460c21ddb4d5cb59741594", "rental_uris": {"android": "https://dc.lft.to/lastmile_qr_scan", "ios": "https://dc.lft.to/lastmile_qr_scan"}, "name": "2b46be6dc4460c21ddb4d5cb59741594", "is_reserved": 0}, {"is_disabled": 0, "fusion_lon": 0.0, "fusion_lat": 0.0, "lat": 38.89376383333333, "type": "electric_scooter", "lon": -76.94996666666667, "bike_id": "37878a178e3de7011b0fa952ba9c05bb", "rental_uris": {"android": "https://dc.lft.to/lastmile_qr_scan", "ios": "https://dc.lft.to/lastmile_qr_scan"}, "name": "37878a178e3de7011b0fa952ba9c05bb", "is_reserved": 0}, {"is_disabled": 0, "fusion_lon": 0.0, "fusion_lat": 0.0, "lat": 38.934971166666664, "type": "electric_bike", "lon": -77.07279666666666, "bike_id": "859dfc0d0bb933b07a5992ea07870b10", "rental_uris": {"android": "https://dc.lft.to/lastmile_qr_scan", "ios": "https://dc.lft.to/lastmile_qr_scan"}, "name": "859dfc0d0bb933b07a5992ea07870b10", "is_reserved": 0}, {"is_disabled": 0, "fusion_lon": 0.0, "fusion_lat": 0.0, "lat": 38.953118833333335, "type": "electric_scooter", "lon": -77.0359975, "bike_id": "571561317d4f66701b9f5dfb487ba6b0", "rental_uris": {"android": "https://dc.lft.to/lastmile_qr_scan", "ios": "https://dc.lft.to/lastmile_qr_scan"}, "name": "571561317d4f66701b9f5dfb487ba6b0", "is_reserved": 0}, {"is_disabled": 0, "fusion_lon": 0.0, "fusion_lat": 0.0, "lat": 38.9173205, "type": "electric_scooter", "lon": -77.023833, "bike_id": "123e93f9b7bb8a78515b450ecc484f91", "rental_uris": {"android": "https://dc.lft.to/lastmile_qr_scan", "ios": "https://dc.lft.to/lastmile_qr_scan"}, "name": "123e93f9b7bb8a78515b450ecc484f91", "is_reserved": 0}, {"is_disabled": 0, "fusion_lon": 0.0, "fusion_lat": 0.0, "lat": 38.988164, "type": "electric_bike", "lon": -77.0265, "bike_id": "e1ef91a40e7134ddf9a37e3f2b8b29fb", "rental_uris": {"android": "https://dc.lft.to/lastmile_qr_scan", "ios": "https://dc.lft.to/lastmile_qr_scan"}, "name": "e1ef91a40e7134ddf9a37e3f2b8b29fb", "is_reserved": 0}, {"is_disabled": 0, "fusion_lon": 0.0, "fusion_lat": 0.0, "lat": 38.908473, "type": "electric_scooter", "lon": -77.02385133333334, "bike_id": "c5108c8d4f1da50a45a721528c94b3c8", "rental_uris": {"android": "https://dc.lft.to/lastmile_qr_scan", "ios": "https://dc.lft.to/lastmile_qr_scan"}, "name": "c5108c8d4f1da50a45a721528c94b3c8", "is_reserved": 0}, {"is_disabled": 0, "fusion_lon": 0.0, "fusion_lat": 0.0, "lat": 38.897920666666664, "type": "electric_scooter", "lon": -76.93051816666667, "bike_id": "46a7c764c9938e39868a8ee8c39b8aeb", "rental_uris": {"android": "https://dc.lft.to/lastmile_qr_scan", "ios": "https://dc.lft.to/lastmile_qr_scan"}, "name": "46a7c764c9938e39868a8ee8c39b8aeb", "is_reserved": 0}, {"is_disabled": 0, "fusion_lon": 0.0, "fusion_lat": 0.0, "lat": 38.83154833333333, "type": "electric_bike", "lon": -76.99692216666666, "bike_id": "25d9cddf3353a5236228258fcfef5e6e", "rental_uris": {"android": "https://dc.lft.to/lastmile_qr_scan", "ios": "https://dc.lft.to/lastmile_qr_scan"}, "name": "25d9cddf3353a5236228258fcfef5e6e", "is_reserved": 0}, {"is_disabled": 0, "fusion_lon": 0.0, "fusion_lat": 0.0, "lat": 38.949823, "type": "electric_scooter", "lon": -77.02699716666666, "bike_id": "46bb1731f5b9bf03796bb8ffa58c06b7", "rental_uris": {"android": "https://dc.lft.to/lastmile_qr_scan", "ios": "https://dc.lft.to/lastmile_qr_scan"}, "name": "46bb1731f5b9bf03796bb8ffa58c06b7", "is_reserved": 0}, {"is_disabled": 0, "fusion_lon": 0.0, "fusion_lat": 0.0, "lat": 38.924050333333334, "type": "electric_scooter", "lon": -77.03555283333333, "bike_id": "e7c834529993bf8dd5d63511fd720e97", "rental_uris": {"android": "https://dc.lft.to/lastmile_qr_scan", "ios": "https://dc.lft.to/lastmile_qr_scan"}, "name": "e7c834529993bf8dd5d63511fd720e97", "is_reserved": 0}, {"is_disabled": 0, "fusion_lon": 0.0, "fusion_lat": 0.0, "lat": 38.87473166666667, "type": "electric_scooter", "lon": -77.00529916666666, "bike_id": "d80d3096e688c9f30962819f1b256aeb", "rental_uris": {"android": "https://dc.lft.to/lastmile_qr_scan", "ios": "https://dc.lft.to/lastmile_qr_scan"}, "name": "d80d3096e688c9f30962819f1b256aeb", "is_reserved": 0}, {"is_disabled": 0, "fusion_lon": 0.0, "fusion_lat": 0.0, "lat": 38.887414166666666, "type": "electric_scooter", "lon": -77.01529083333334, "bike_id": "3a6abaaa2bdd12d7fc5c0a7a9597af44", "rental_uris": {"android": "https://dc.lft.to/lastmile_qr_scan", "ios": "https://dc.lft.to/lastmile_qr_scan"}, "name": "3a6abaaa2bdd12d7fc5c0a7a9597af44", "is_reserved": 0}, {"is_disabled": 0, "fusion_lon": 0.0, "fusion_lat": 0.0, "lat": 38.9222265, "type": "electric_scooter", "lon": -77.04336033333334, "bike_id": "13012809704f0d3b67d0d6f61537e044", "rental_uris": {"android": "https://dc.lft.to/lastmile_qr_scan", "ios": "https://dc.lft.to/lastmile_qr_scan"}, "name": "13012809704f0d3b67d0d6f61537e044", "is_reserved": 0}, {"is_disabled": 0, "fusion_lon": 0.0, "fusion_lat": 0.0, "lat": 38.93668783333333, "type": "electric_bike", "lon": -76.95205516666667, "bike_id": "87668ed11afc43318264610d209c5f2e", "rental_uris": {"android": "https://dc.lft.to/lastmile_qr_scan", "ios": "https://dc.lft.to/lastmile_qr_scan"}, "name": "87668ed11afc43318264610d209c5f2e", "is_reserved": 0}, {"is_disabled": 0, "fusion_lon": 0.0, "fusion_lat": 0.0, "lat": 38.8857725, "type": "electric_scooter", "lon": -76.91907233333333, "bike_id": "0897ef95b8cdd623d161c47388bbf652", "rental_uris": {"android": "https://dc.lft.to/lastmile_qr_scan", "ios": "https://dc.lft.to/lastmile_qr_scan"}, "name": "0897ef95b8cdd623d161c47388bbf652", "is_reserved": 0}, {"is_disabled": 0, "fusion_lon": 0.0, "fusion_lat": 0.0, "lat": 38.924076, "type": "electric_scooter", "lon": -77.052531, "bike_id": "c70a645ddccb316d7c0827c07ffe4a65", "rental_uris": {"android": "https://dc.lft.to/lastmile_qr_scan", "ios": "https://dc.lft.to/lastmile_qr_scan"}, "name": "c70a645ddccb316d7c0827c07ffe4a65", "is_reserved": 0}, {"is_disabled": 0, "fusion_lon": 0.0, "fusion_lat": 0.0, "lat": 38.9048225, "type": "electric_scooter", "lon": -77.02717233333334, "bike_id": "f925c73aa200ec2de9a3ea268370e655", "rental_uris": {"android": "https://dc.lft.to/lastmile_qr_scan", "ios": "https://dc.lft.to/lastmile_qr_scan"}, "name": "f925c73aa200ec2de9a3ea268370e655", "is_reserved": 0}, {"is_disabled": 0, "fusion_lon": 0.0, "fusion_lat": 0.0, "lat": 39.038843666666665, "type": "electric_bike", "lon": -77.1090785, "bike_id": "fb2b82cc259fb9e33c2332c813f1552c", "rental_uris": {"android": "https://dc.lft.to/lastmile_qr_scan", "ios": "https://dc.lft.to/lastmile_qr_scan"}, "name": "fb2b82cc259fb9e33c2332c813f1552c", "is_reserved": 0}, {"is_disabled": 0, "fusion_lon": 0.0, "fusion_lat": 0.0, "lat": 38.95607283333333, "type": "electric_scooter", "lon": -77.02778616666667, "bike_id": "d7e5c14162bb8ceca222c882127b98c7", "rental_uris": {"android": "https://dc.lft.to/lastmile_qr_scan", "ios": "https://dc.lft.to/lastmile_qr_scan"}, "name": "d7e5c14162bb8ceca222c882127b98c7", "is_reserved": 0}, {"is_disabled": 0, "fusion_lon": 0.0, "fusion_lat": 0.0, "lat": 38.95324816666667, "type": "electric_scooter", "lon": -77.06848033333333, "bike_id": "e910e89844d88bc12856a00179aa7e8a", "rental_uris": {"android": "https://dc.lft.to/lastmile_qr_scan", "ios": "https://dc.lft.to/lastmile_qr_scan"}, "name": "e910e89844d88bc12856a00179aa7e8a", "is_reserved": 0}, {"is_disabled": 0, "fusion_lon": 0.0, "fusion_lat": 0.0, "lat": 38.919191, "type": "electric_scooter", "lon": -77.04173866666666, "bike_id": "c94245ed7e0c19a5d22ce56ee95f572e", "rental_uris": {"android": "https://dc.lft.to/lastmile_qr_scan", "ios": "https://dc.lft.to/lastmile_qr_scan"}, "name": "c94245ed7e0c19a5d22ce56ee95f572e", "is_reserved": 0}, {"is_disabled": 0, "fusion_lon": 0.0, "fusion_lat": 0.0, "lat": 38.925344333333335, "type": "electric_scooter", "lon": -77.04423683333333, "bike_id": "38031038b22c1f6803d9bbeb2e9423c4", "rental_uris": {"android": "https://dc.lft.to/lastmile_qr_scan", "ios": "https://dc.lft.to/lastmile_qr_scan"}, "name": "38031038b22c1f6803d9bbeb2e9423c4", "is_reserved": 0}, {"is_disabled": 0, "fusion_lon": 0.0, "fusion_lat": 0.0, "lat": 38.884808166666666, "type": "electric_scooter", "lon": -76.9296455, "bike_id": "029cbebd71d68213db65d56dc34f8320", "rental_uris": {"android": "https://dc.lft.to/lastmile_qr_scan", "ios": "https://dc.lft.to/lastmile_qr_scan"}, "name": "029cbebd71d68213db65d56dc34f8320", "is_reserved": 0}, {"is_disabled": 0, "fusion_lon": 0.0, "fusion_lat": 0.0, "lat": 38.916292166666665, "type": "electric_scooter", "lon": -77.04024183333334, "bike_id": "24920adedca483802371f5752cda3e53", "rental_uris": {"android": "https://dc.lft.to/lastmile_qr_scan", "ios": "https://dc.lft.to/lastmile_qr_scan"}, "name": "24920adedca483802371f5752cda3e53", "is_reserved": 0}, {"is_disabled": 0, "fusion_lon": 0.0, "fusion_lat": 0.0, "lat": 38.89786316666667, "type": "electric_scooter", "lon": -77.0337615, "bike_id": "7c290e3cfadf3b209e89ab8b69b8c12f", "rental_uris": {"android": "https://dc.lft.to/lastmile_qr_scan", "ios": "https://dc.lft.to/lastmile_qr_scan"}, "name": "7c290e3cfadf3b209e89ab8b69b8c12f", "is_reserved": 0}, {"is_disabled": 0, "fusion_lon": 0.0, "fusion_lat": 0.0, "lat": 38.90275583333333, "type": "electric_scooter", "lon": -77.05323583333333, "bike_id": "09e236e3f116d1d0941353227ebfcd77", "rental_uris": {"android": "https://dc.lft.to/lastmile_qr_scan", "ios": "https://dc.lft.to/lastmile_qr_scan"}, "name": "09e236e3f116d1d0941353227ebfcd77", "is_reserved": 0}, {"is_disabled": 0, "fusion_lon": 0.0, "fusion_lat": 0.0, "lat": 38.90772066666667, "type": "electric_scooter", "lon": -77.0321645, "bike_id": "4a7cdadc2f1dbd4f55f749abfc8f6001", "rental_uris": {"android": "https://dc.lft.to/lastmile_qr_scan", "ios": "https://dc.lft.to/lastmile_qr_scan"}, "name": "4a7cdadc2f1dbd4f55f749abfc8f6001", "is_reserved": 0}, {"is_disabled": 0, "fusion_lon": 0.0, "fusion_lat": 0.0, "lat": 38.80299933333333, "type": "electric_bike", "lon": -77.03985516666667, "bike_id": "8cea4e8e4b18cc7a4f1e4964eb30d5bd", "rental_uris": {"android": "https://dc.lft.to/lastmile_qr_scan", "ios": "https://dc.lft.to/lastmile_qr_scan"}, "name": "8cea4e8e4b18cc7a4f1e4964eb30d5bd", "is_reserved": 0}, {"is_disabled": 0, "fusion_lon": 0.0, "fusion_lat": 0.0, "lat": 38.93475166666666, "type": "electric_scooter", "lon": -77.02411883333333, "bike_id": "cf436840c7a112564e24058db2967e10", "rental_uris": {"android": "https://dc.lft.to/lastmile_qr_scan", "ios": "https://dc.lft.to/lastmile_qr_scan"}, "name": "cf436840c7a112564e24058db2967e10", "is_reserved": 0}, {"is_disabled": 0, "fusion_lon": 0.0, "fusion_lat": 0.0, "lat": 38.920286833333336, "type": "electric_scooter", "lon": -77.01908866666666, "bike_id": "b4124eb98e5ab512244524f3e3b55341", "rental_uris": {"android": "https://dc.lft.to/lastmile_qr_scan", "ios": "https://dc.lft.to/lastmile_qr_scan"}, "name": "b4124eb98e5ab512244524f3e3b55341", "is_reserved": 0}, {"is_disabled": 0, "fusion_lon": 0.0, "fusion_lat": 0.0, "lat": 38.88742466666667, "type": "electric_scooter", "lon": -77.015322, "bike_id": "4b4d71159fb92d796fa375b801ea16a1", "rental_uris": {"android": "https://dc.lft.to/lastmile_qr_scan", "ios": "https://dc.lft.to/lastmile_qr_scan"}, "name": "4b4d71159fb92d796fa375b801ea16a1", "is_reserved": 0}, {"is_disabled": 0, "fusion_lon": 0.0, "fusion_lat": 0.0, "lat": 38.92270833333333, "type": "electric_scooter", "lon": -77.034034, "bike_id": "8f36ebbe937ce6f1419ef22365a4412d", "rental_uris": {"android": "https://dc.lft.to/lastmile_qr_scan", "ios": "https://dc.lft.to/lastmile_qr_scan"}, "name": "8f36ebbe937ce6f1419ef22365a4412d", "is_reserved": 0}, {"is_disabled": 0, "fusion_lon": 0.0, "fusion_lat": 0.0, "lat": 38.9195825, "type": "electric_scooter", "lon": -77.013972, "bike_id": "d42b1a2c937c4825d4501ab9df01b6c3", "rental_uris": {"android": "https://dc.lft.to/lastmile_qr_scan", "ios": "https://dc.lft.to/lastmile_qr_scan"}, "name": "d42b1a2c937c4825d4501ab9df01b6c3", "is_reserved": 0}, {"is_disabled": 0, "fusion_lon": 0.0, "fusion_lat": 0.0, "lat": 38.912267, "type": "electric_scooter", "lon": -77.0320725, "bike_id": "0bf78cb14b451cf7cdd9f59903b1bc3a", "rental_uris": {"android": "https://dc.lft.to/lastmile_qr_scan", "ios": "https://dc.lft.to/lastmile_qr_scan"}, "name": "0bf78cb14b451cf7cdd9f59903b1bc3a", "is_reserved": 0}, {"is_disabled": 0, "fusion_lon": 0.0, "fusion_lat": 0.0, "lat": 38.9170465, "type": "electric_scooter", "lon": -77.02881933333333, "bike_id": "b28bda3b065e2c9777b8990b41a75700", "rental_uris": {"android": "https://dc.lft.to/lastmile_qr_scan", "ios": "https://dc.lft.to/lastmile_qr_scan"}, "name": "b28bda3b065e2c9777b8990b41a75700", "is_reserved": 0}, {"is_disabled": 0, "fusion_lon": 0.0, "fusion_lat": 0.0, "lat": 38.935972, "type": "electric_scooter", "lon": -77.05588983333334, "bike_id": "5e3e3e8cef955f69ee7165228d105c52", "rental_uris": {"android": "https://dc.lft.to/lastmile_qr_scan", "ios": "https://dc.lft.to/lastmile_qr_scan"}, "name": "5e3e3e8cef955f69ee7165228d105c52", "is_reserved": 0}, {"is_disabled": 0, "fusion_lon": 0.0, "fusion_lat": 0.0, "lat": 38.90514816666666, "type": "electric_scooter", "lon": -77.066233, "bike_id": "855a3880bac63a7d909cbc49aa4541e4", "rental_uris": {"android": "https://dc.lft.to/lastmile_qr_scan", "ios": "https://dc.lft.to/lastmile_qr_scan"}, "name": "855a3880bac63a7d909cbc49aa4541e4", "is_reserved": 0}, {"is_disabled": 0, "fusion_lon": 0.0, "fusion_lat": 0.0, "lat": 38.93149866666667, "type": "electric_scooter", "lon": -77.0413455, "bike_id": "59316225559cd1f5ae3e902cd34c2610", "rental_uris": {"android": "https://dc.lft.to/lastmile_qr_scan", "ios": "https://dc.lft.to/lastmile_qr_scan"}, "name": "59316225559cd1f5ae3e902cd34c2610", "is_reserved": 0}, {"is_disabled": 0, "fusion_lon": 0.0, "fusion_lat": 0.0, "lat": 38.895577333333335, "type": "electric_scooter", "lon": -76.948721, "bike_id": "5a9ea3cbff9f17629055f9ea554f1daa", "rental_uris": {"android": "https://dc.lft.to/lastmile_qr_scan", "ios": "https://dc.lft.to/lastmile_qr_scan"}, "name": "5a9ea3cbff9f17629055f9ea554f1daa", "is_reserved": 0}, {"is_disabled": 0, "fusion_lon": 0.0, "fusion_lat": 0.0, "lat": 38.94188966666667, "type": "electric_scooter", "lon": -77.04255816666667, "bike_id": "f504fad2ff71c685472d244bbc2f49a6", "rental_uris": {"android": "https://dc.lft.to/lastmile_qr_scan", "ios": "https://dc.lft.to/lastmile_qr_scan"}, "name": "f504fad2ff71c685472d244bbc2f49a6", "is_reserved": 0}, {"is_disabled": 0, "fusion_lon": 0.0, "fusion_lat": 0.0, "lat": 38.86526383333333, "type": "electric_scooter", "lon": -76.98968266666667, "bike_id": "a7803893159c36d1eb4b596ae11d5052", "rental_uris": {"android": "https://dc.lft.to/lastmile_qr_scan", "ios": "https://dc.lft.to/lastmile_qr_scan"}, "name": "a7803893159c36d1eb4b596ae11d5052", "is_reserved": 0}, {"is_disabled": 0, "fusion_lon": 0.0, "fusion_lat": 0.0, "lat": 38.89848966666667, "type": "electric_scooter", "lon": -76.944942, "bike_id": "db749d03d5b419dbb899a65591d17ee8", "rental_uris": {"android": "https://dc.lft.to/lastmile_qr_scan", "ios": "https://dc.lft.to/lastmile_qr_scan"}, "name": "db749d03d5b419dbb899a65591d17ee8", "is_reserved": 0}, {"is_disabled": 0, "fusion_lon": 0.0, "fusion_lat": 0.0, "lat": 38.897347, "type": "electric_scooter", "lon": -77.02352716666667, "bike_id": "39d5c68b19aa28db50047bcae3840272", "rental_uris": {"android": "https://dc.lft.to/lastmile_qr_scan", "ios": "https://dc.lft.to/lastmile_qr_scan"}, "name": "39d5c68b19aa28db50047bcae3840272", "is_reserved": 0}, {"is_disabled": 0, "fusion_lon": 0.0, "fusion_lat": 0.0, "lat": 38.90604116666667, "type": "electric_scooter", "lon": -77.01621416666667, "bike_id": "6898e65cb2d4263dc041c68a11e96670", "rental_uris": {"android": "https://dc.lft.to/lastmile_qr_scan", "ios": "https://dc.lft.to/lastmile_qr_scan"}, "name": "6898e65cb2d4263dc041c68a11e96670", "is_reserved": 0}, {"is_disabled": 0, "fusion_lon": 0.0, "fusion_lat": 0.0, "lat": 38.96057233333333, "type": "electric_scooter", "lon": -77.08568966666667, "bike_id": "67d8a45948f929c6c09bff81ca54ae89", "rental_uris": {"android": "https://dc.lft.to/lastmile_qr_scan", "ios": "https://dc.lft.to/lastmile_qr_scan"}, "name": "67d8a45948f929c6c09bff81ca54ae89", "is_reserved": 0}, {"is_disabled": 0, "fusion_lon": 0.0, "fusion_lat": 0.0, "lat": 38.913424, "type": "electric_scooter", "lon": -77.03186466666666, "bike_id": "d326d23aaade8e26ec8ad3d499233d80", "rental_uris": {"android": "https://dc.lft.to/lastmile_qr_scan", "ios": "https://dc.lft.to/lastmile_qr_scan"}, "name": "d326d23aaade8e26ec8ad3d499233d80", "is_reserved": 0}, {"is_disabled": 0, "fusion_lon": 0.0, "fusion_lat": 0.0, "lat": 38.8932945, "type": "electric_scooter", "lon": -77.02131233333333, "bike_id": "6edcf845163f2a22d53501e82c6d8421", "rental_uris": {"android": "https://dc.lft.to/lastmile_qr_scan", "ios": "https://dc.lft.to/lastmile_qr_scan"}, "name": "6edcf845163f2a22d53501e82c6d8421", "is_reserved": 0}, {"is_disabled": 0, "fusion_lon": 0.0, "fusion_lat": 0.0, "lat": 39.023009, "type": "electric_bike", "lon": -77.02103633333333, "bike_id": "4565ab2805f2843bf93b19a4fcf1e6b3", "rental_uris": {"android": "https://dc.lft.to/lastmile_qr_scan", "ios": "https://dc.lft.to/lastmile_qr_scan"}, "name": "4565ab2805f2843bf93b19a4fcf1e6b3", "is_reserved": 0}, {"is_disabled": 0, "fusion_lon": 0.0, "fusion_lat": 0.0, "lat": 38.90384016666667, "type": "electric_scooter", "lon": -76.99003666666667, "bike_id": "99801590ad7ab14e4b4d3d0eec5aba24", "rental_uris": {"android": "https://dc.lft.to/lastmile_qr_scan", "ios": "https://dc.lft.to/lastmile_qr_scan"}, "name": "99801590ad7ab14e4b4d3d0eec5aba24", "is_reserved": 0}, {"is_disabled": 0, "fusion_lon": 0.0, "fusion_lat": 0.0, "lat": 38.93318933333333, "type": "electric_scooter", "lon": -77.03277383333334, "bike_id": "4bf82a4d174c8f2b652a689be970ffa3", "rental_uris": {"android": "https://dc.lft.to/lastmile_qr_scan", "ios": "https://dc.lft.to/lastmile_qr_scan"}, "name": "4bf82a4d174c8f2b652a689be970ffa3", "is_reserved": 0}, {"is_disabled": 0, "fusion_lon": 0.0, "fusion_lat": 0.0, "lat": 38.902919, "type": "electric_scooter", "lon": -77.023779, "bike_id": "caad35f21307563c360ef64fe0a2ad93", "rental_uris": {"android": "https://dc.lft.to/lastmile_qr_scan", "ios": "https://dc.lft.to/lastmile_qr_scan"}, "name": "caad35f21307563c360ef64fe0a2ad93", "is_reserved": 0}, {"is_disabled": 0, "fusion_lon": 0.0, "fusion_lat": 0.0, "lat": 38.92460416666667, "type": "electric_scooter", "lon": -77.02960566666667, "bike_id": "52fc46ce036459c675ea6ecf4167d9f3", "rental_uris": {"android": "https://dc.lft.to/lastmile_qr_scan", "ios": "https://dc.lft.to/lastmile_qr_scan"}, "name": "52fc46ce036459c675ea6ecf4167d9f3", "is_reserved": 0}, {"is_disabled": 0, "fusion_lon": 0.0, "fusion_lat": 0.0, "lat": 38.94626616666667, "type": "electric_bike", "lon": -76.934128, "bike_id": "918479aff597ef775761206f79408a3b", "rental_uris": {"android": "https://dc.lft.to/lastmile_qr_scan", "ios": "https://dc.lft.to/lastmile_qr_scan"}, "name": "918479aff597ef775761206f79408a3b", "is_reserved": 0}, {"is_disabled": 0, "fusion_lon": 0.0, "fusion_lat": 0.0, "lat": 38.937153333333335, "type": "electric_scooter", "lon": -77.02458666666666, "bike_id": "bca3b6be6224753d4dfffaa88056be1b", "rental_uris": {"android": "https://dc.lft.to/lastmile_qr_scan", "ios": "https://dc.lft.to/lastmile_qr_scan"}, "name": "bca3b6be6224753d4dfffaa88056be1b", "is_reserved": 0}, {"is_disabled": 0, "fusion_lon": 0.0, "fusion_lat": 0.0, "lat": 38.91048333333333, "type": "electric_scooter", "lon": -77.02284633333333, "bike_id": "41e60af0e614a6f5be187fb1b8a363d7", "rental_uris": {"android": "https://dc.lft.to/lastmile_qr_scan", "ios": "https://dc.lft.to/lastmile_qr_scan"}, "name": "41e60af0e614a6f5be187fb1b8a363d7", "is_reserved": 0}, {"is_disabled": 0, "fusion_lon": 0.0, "fusion_lat": 0.0, "lat": 38.92306816666667, "type": "electric_scooter", "lon": -77.040342, "bike_id": "0e843d985f75cc19b26d0e7c284cdb92", "rental_uris": {"android": "https://dc.lft.to/lastmile_qr_scan", "ios": "https://dc.lft.to/lastmile_qr_scan"}, "name": "0e843d985f75cc19b26d0e7c284cdb92", "is_reserved": 0}, {"is_disabled": 0, "fusion_lon": 0.0, "fusion_lat": 0.0, "lat": 38.999353, "type": "electric_bike", "lon": -77.00122666666667, "bike_id": "8fbb190ef8a03cbe5813e3647551e633", "rental_uris": {"android": "https://dc.lft.to/lastmile_qr_scan", "ios": "https://dc.lft.to/lastmile_qr_scan"}, "name": "8fbb190ef8a03cbe5813e3647551e633", "is_reserved": 0}, {"is_disabled": 0, "fusion_lon": 0.0, "fusion_lat": 0.0, "lat": 38.900093, "type": "electric_scooter", "lon": -77.03188483333334, "bike_id": "7d173ad3710d685789404028aba9ec98", "rental_uris": {"android": "https://dc.lft.to/lastmile_qr_scan", "ios": "https://dc.lft.to/lastmile_qr_scan"}, "name": "7d173ad3710d685789404028aba9ec98", "is_reserved": 0}, {"is_disabled": 0, "fusion_lon": 0.0, "fusion_lat": 0.0, "lat": 38.919393666666664, "type": "electric_scooter", "lon": -77.0813255, "bike_id": "091f46ca45a4cb2a9b0cb33987ef04d7", "rental_uris": {"android": "https://dc.lft.to/lastmile_qr_scan", "ios": "https://dc.lft.to/lastmile_qr_scan"}, "name": "091f46ca45a4cb2a9b0cb33987ef04d7", "is_reserved": 0}, {"is_disabled": 0, "fusion_lon": 0.0, "fusion_lat": 0.0, "lat": 38.89907083333333, "type": "electric_scooter", "lon": -76.93346116666666, "bike_id": "8475741214624e2ae8c0b2735945b2e3", "rental_uris": {"android": "https://dc.lft.to/lastmile_qr_scan", "ios": "https://dc.lft.to/lastmile_qr_scan"}, "name": "8475741214624e2ae8c0b2735945b2e3", "is_reserved": 0}, {"is_disabled": 0, "fusion_lon": 0.0, "fusion_lat": 0.0, "lat": 39.0959715, "type": "electric_bike", "lon": -77.14780416666666, "bike_id": "49212457dde6ebb73d6b7ae80ec94e1a", "rental_uris": {"android": "https://dc.lft.to/lastmile_qr_scan", "ios": "https://dc.lft.to/lastmile_qr_scan"}, "name": "49212457dde6ebb73d6b7ae80ec94e1a", "is_reserved": 0}, {"is_disabled": 0, "fusion_lon": 0.0, "fusion_lat": 0.0, "lat": 38.90634283333333, "type": "electric_scooter", "lon": -77.02499216666666, "bike_id": "a0c35c035d77c3264070bb5d759062e3", "rental_uris": {"android": "https://dc.lft.to/lastmile_qr_scan", "ios": "https://dc.lft.to/lastmile_qr_scan"}, "name": "a0c35c035d77c3264070bb5d759062e3", "is_reserved": 0}, {"is_disabled": 0, "fusion_lon": 0.0, "fusion_lat": 0.0, "lat": 38.85536883333333, "type": "electric_bike", "lon": -77.10714533333334, "bike_id": "b968f9b5562d5697aba7850a3d47d06c", "rental_uris": {"android": "https://dc.lft.to/lastmile_qr_scan", "ios": "https://dc.lft.to/lastmile_qr_scan"}, "name": "b968f9b5562d5697aba7850a3d47d06c", "is_reserved": 0}, {"is_disabled": 0, "fusion_lon": 0.0, "fusion_lat": 0.0, "lat": 38.91227, "type": "electric_scooter", "lon": -77.0478005, "bike_id": "ad987ad33929d5a92426d8be61932cfd", "rental_uris": {"android": "https://dc.lft.to/lastmile_qr_scan", "ios": "https://dc.lft.to/lastmile_qr_scan"}, "name": "ad987ad33929d5a92426d8be61932cfd", "is_reserved": 0}, {"is_disabled": 0, "fusion_lon": 0.0, "fusion_lat": 0.0, "lat": 38.86036633333333, "type": "electric_scooter", "lon": -76.996818, "bike_id": "01fbbcdacff87d755bfabaa1f0001650", "rental_uris": {"android": "https://dc.lft.to/lastmile_qr_scan", "ios": "https://dc.lft.to/lastmile_qr_scan"}, "name": "01fbbcdacff87d755bfabaa1f0001650", "is_reserved": 0}, {"is_disabled": 0, "fusion_lon": 0.0, "fusion_lat": 0.0, "lat": 38.8950405, "type": "electric_scooter", "lon": -76.94879216666666, "bike_id": "e68f359affed6fbfe03879f8bf0f9b9d", "rental_uris": {"android": "https://dc.lft.to/lastmile_qr_scan", "ios": "https://dc.lft.to/lastmile_qr_scan"}, "name": "e68f359affed6fbfe03879f8bf0f9b9d", "is_reserved": 0}, {"is_disabled": 0, "fusion_lon": 0.0, "fusion_lat": 0.0, "lat": 38.990927, "type": "electric_bike", "lon": -76.8749375, "bike_id": "97364e57da7f70f9bc110ee45770e4a8", "rental_uris": {"android": "https://dc.lft.to/lastmile_qr_scan", "ios": "https://dc.lft.to/lastmile_qr_scan"}, "name": "97364e57da7f70f9bc110ee45770e4a8", "is_reserved": 0}, {"is_disabled": 0, "fusion_lon": 0.0, "fusion_lat": 0.0, "lat": 38.88968066666666, "type": "electric_bike", "lon": -76.9486215, "bike_id": "caef5a6b89c9cb76b16e06a13c4dc713", "rental_uris": {"android": "https://dc.lft.to/lastmile_qr_scan", "ios": "https://dc.lft.to/lastmile_qr_scan"}, "name": "caef5a6b89c9cb76b16e06a13c4dc713", "is_reserved": 0}, {"is_disabled": 0, "fusion_lon": 0.0, "fusion_lat": 0.0, "lat": 38.90767833333334, "type": "electric_scooter", "lon": -77.032663, "bike_id": "a492b206640d9ae816d5872339d3d0f8", "rental_uris": {"android": "https://dc.lft.to/lastmile_qr_scan", "ios": "https://dc.lft.to/lastmile_qr_scan"}, "name": "a492b206640d9ae816d5872339d3d0f8", "is_reserved": 0}, {"is_disabled": 0, "fusion_lon": 0.0, "fusion_lat": 0.0, "lat": 38.91616616666667, "type": "electric_scooter", "lon": -77.04351633333333, "bike_id": "0445d984e894de93160dbe2b86a6a153", "rental_uris": {"android": "https://dc.lft.to/lastmile_qr_scan", "ios": "https://dc.lft.to/lastmile_qr_scan"}, "name": "0445d984e894de93160dbe2b86a6a153", "is_reserved": 0}, {"is_disabled": 0, "fusion_lon": 0.0, "fusion_lat": 0.0, "lat": 38.975757333333334, "type": "electric_bike", "lon": -76.964022, "bike_id": "3d2337779e48d363c76d5a7fddba8591", "rental_uris": {"android": "https://dc.lft.to/lastmile_qr_scan", "ios": "https://dc.lft.to/lastmile_qr_scan"}, "name": "3d2337779e48d363c76d5a7fddba8591", "is_reserved": 0}, {"is_disabled": 0, "fusion_lon": 0.0, "fusion_lat": 0.0, "lat": 38.887386, "type": "electric_scooter", "lon": -77.02273466666666, "bike_id": "34f8e0f03c498944944e54fd8f2143e3", "rental_uris": {"android": "https://dc.lft.to/lastmile_qr_scan", "ios": "https://dc.lft.to/lastmile_qr_scan"}, "name": "34f8e0f03c498944944e54fd8f2143e3", "is_reserved": 0}, {"is_disabled": 0, "fusion_lon": 0.0, "fusion_lat": 0.0, "lat": 38.9287945, "type": "electric_bike", "lon": -77.037363, "bike_id": "692a8b49de4c2c6738a4b3c0bc7c7411", "rental_uris": {"android": "https://dc.lft.to/lastmile_qr_scan", "ios": "https://dc.lft.to/lastmile_qr_scan"}, "name": "692a8b49de4c2c6738a4b3c0bc7c7411", "is_reserved": 0}, {"is_disabled": 0, "fusion_lon": 0.0, "fusion_lat": 0.0, "lat": 38.8882265, "type": "electric_bike", "lon": -77.12742216666666, "bike_id": "a853d9817ce86ae229dea391b60a89c1", "rental_uris": {"android": "https://dc.lft.to/lastmile_qr_scan", "ios": "https://dc.lft.to/lastmile_qr_scan"}, "name": "a853d9817ce86ae229dea391b60a89c1", "is_reserved": 0}, {"is_disabled": 0, "fusion_lon": 0.0, "fusion_lat": 0.0, "lat": 38.908309, "type": "electric_bike", "lon": -76.94155566666667, "bike_id": "c905b1d46beaee02a7715f90a01f9b53", "rental_uris": {"android": "https://dc.lft.to/lastmile_qr_scan", "ios": "https://dc.lft.to/lastmile_qr_scan"}, "name": "c905b1d46beaee02a7715f90a01f9b53", "is_reserved": 0}, {"is_disabled": 0, "fusion_lon": 0.0, "fusion_lat": 0.0, "lat": 38.93295666666667, "type": "electric_scooter", "lon": -77.02392366666666, "bike_id": "0b4d083010057116cc35b3d8a09ac25e", "rental_uris": {"android": "https://dc.lft.to/lastmile_qr_scan", "ios": "https://dc.lft.to/lastmile_qr_scan"}, "name": "0b4d083010057116cc35b3d8a09ac25e", "is_reserved": 0}, {"is_disabled": 0, "fusion_lon": 0.0, "fusion_lat": 0.0, "lat": 38.8976585, "type": "electric_scooter", "lon": -77.022025, "bike_id": "6d2b87d6eee4c69901bb102de02fb978", "rental_uris": {"android": "https://dc.lft.to/lastmile_qr_scan", "ios": "https://dc.lft.to/lastmile_qr_scan"}, "name": "6d2b87d6eee4c69901bb102de02fb978", "is_reserved": 0}, {"is_disabled": 0, "fusion_lon": 0.0, "fusion_lat": 0.0, "lat": 38.932129333333336, "type": "electric_scooter", "lon": -77.02381033333333, "bike_id": "1e588aaa527999293a9eff43a3aa3506", "rental_uris": {"android": "https://dc.lft.to/lastmile_qr_scan", "ios": "https://dc.lft.to/lastmile_qr_scan"}, "name": "1e588aaa527999293a9eff43a3aa3506", "is_reserved": 0}, {"is_disabled": 0, "fusion_lon": 0.0, "fusion_lat": 0.0, "lat": 38.906719333333335, "type": "electric_scooter", "lon": -77.02710283333333, "bike_id": "b02a2fafab6240e774fbb3ce9f687177", "rental_uris": {"android": "https://dc.lft.to/lastmile_qr_scan", "ios": "https://dc.lft.to/lastmile_qr_scan"}, "name": "b02a2fafab6240e774fbb3ce9f687177", "is_reserved": 0}, {"is_disabled": 0, "fusion_lon": 0.0, "fusion_lat": 0.0, "lat": 38.91691466666666, "type": "electric_scooter", "lon": -77.03685433333334, "bike_id": "2cde269d2b747d54976a9ae09ee5ba3d", "rental_uris": {"android": "https://dc.lft.to/lastmile_qr_scan", "ios": "https://dc.lft.to/lastmile_qr_scan"}, "name": "2cde269d2b747d54976a9ae09ee5ba3d", "is_reserved": 0}, {"is_disabled": 0, "fusion_lon": 0.0, "fusion_lat": 0.0, "lat": 38.869578833333335, "type": "electric_scooter", "lon": -76.9792655, "bike_id": "873e0e806ebb0fc354745cd80cbbe577", "rental_uris": {"android": "https://dc.lft.to/lastmile_qr_scan", "ios": "https://dc.lft.to/lastmile_qr_scan"}, "name": "873e0e806ebb0fc354745cd80cbbe577", "is_reserved": 0}, {"is_disabled": 0, "fusion_lon": 0.0, "fusion_lat": 0.0, "lat": 38.915631833333336, "type": "electric_scooter", "lon": -77.03235916666667, "bike_id": "dc485e304a50e305bbc096a88d5a9654", "rental_uris": {"android": "https://dc.lft.to/lastmile_qr_scan", "ios": "https://dc.lft.to/lastmile_qr_scan"}, "name": "dc485e304a50e305bbc096a88d5a9654", "is_reserved": 0}, {"is_disabled": 0, "fusion_lon": 0.0, "fusion_lat": 0.0, "lat": 39.099473, "type": "electric_bike", "lon": -77.18786883333334, "bike_id": "1836ac508dd45bf3d8371217d1c128d7", "rental_uris": {"android": "https://dc.lft.to/lastmile_qr_scan", "ios": "https://dc.lft.to/lastmile_qr_scan"}, "name": "1836ac508dd45bf3d8371217d1c128d7", "is_reserved": 0}, {"is_disabled": 0, "fusion_lon": 0.0, "fusion_lat": 0.0, "lat": 38.908306833333334, "type": "electric_scooter", "lon": -77.03345683333333, "bike_id": "beeb6fee63dc9b29712d584d8d8b3ce1", "rental_uris": {"android": "https://dc.lft.to/lastmile_qr_scan", "ios": "https://dc.lft.to/lastmile_qr_scan"}, "name": "beeb6fee63dc9b29712d584d8d8b3ce1", "is_reserved": 0}, {"is_disabled": 0, "fusion_lon": 0.0, "fusion_lat": 0.0, "lat": 38.886162666666664, "type": "electric_scooter", "lon": -76.9950645, "bike_id": "f7bc0800d7216eb4feb85390940342fc", "rental_uris": {"android": "https://dc.lft.to/lastmile_qr_scan", "ios": "https://dc.lft.to/lastmile_qr_scan"}, "name": "f7bc0800d7216eb4feb85390940342fc", "is_reserved": 0}, {"is_disabled": 0, "fusion_lon": 0.0, "fusion_lat": 0.0, "lat": 38.919115, "type": "electric_scooter", "lon": -77.04177183333333, "bike_id": "d578ff0cf46186040e392c74227ed209", "rental_uris": {"android": "https://dc.lft.to/lastmile_qr_scan", "ios": "https://dc.lft.to/lastmile_qr_scan"}, "name": "d578ff0cf46186040e392c74227ed209", "is_reserved": 0}, {"is_disabled": 0, "fusion_lon": 0.0, "fusion_lat": 0.0, "lat": 38.8862905, "type": "electric_scooter", "lon": -76.99846816666667, "bike_id": "a9b0f492ae311dc8893f37211743d4bc", "rental_uris": {"android": "https://dc.lft.to/lastmile_qr_scan", "ios": "https://dc.lft.to/lastmile_qr_scan"}, "name": "a9b0f492ae311dc8893f37211743d4bc", "is_reserved": 0}, {"is_disabled": 0, "fusion_lon": 0.0, "fusion_lat": 0.0, "lat": 38.935031, "type": "electric_bike", "lon": -76.94954366666667, "bike_id": "bcd6ecce342e3eee0731a41dc6783c18", "rental_uris": {"android": "https://dc.lft.to/lastmile_qr_scan", "ios": "https://dc.lft.to/lastmile_qr_scan"}, "name": "bcd6ecce342e3eee0731a41dc6783c18", "is_reserved": 0}, {"is_disabled": 0, "fusion_lon": 0.0, "fusion_lat": 0.0, "lat": 38.8381335, "type": "electric_scooter", "lon": -77.004305, "bike_id": "35a446189bf2e7bc11ec397c75847b74", "rental_uris": {"android": "https://dc.lft.to/lastmile_qr_scan", "ios": "https://dc.lft.to/lastmile_qr_scan"}, "name": "35a446189bf2e7bc11ec397c75847b74", "is_reserved": 0}, {"is_disabled": 0, "fusion_lon": 0.0, "fusion_lat": 0.0, "lat": 38.842939666666666, "type": "electric_scooter", "lon": -76.99949, "bike_id": "575c9cae9d477f773604486ef47aa167", "rental_uris": {"android": "https://dc.lft.to/lastmile_qr_scan", "ios": "https://dc.lft.to/lastmile_qr_scan"}, "name": "575c9cae9d477f773604486ef47aa167", "is_reserved": 0}, {"is_disabled": 0, "fusion_lon": 0.0, "fusion_lat": 0.0, "lat": 38.902504666666665, "type": "electric_scooter", "lon": -77.0534695, "bike_id": "9fc2e6ba71fcc100ce0b0c131efa4fc4", "rental_uris": {"android": "https://dc.lft.to/lastmile_qr_scan", "ios": "https://dc.lft.to/lastmile_qr_scan"}, "name": "9fc2e6ba71fcc100ce0b0c131efa4fc4", "is_reserved": 0}, {"is_disabled": 0, "fusion_lon": 0.0, "fusion_lat": 0.0, "lat": 38.89712683333333, "type": "electric_scooter", "lon": -77.02295266666667, "bike_id": "3b6c218948a9276cf0eff48d0906ae5a", "rental_uris": {"android": "https://dc.lft.to/lastmile_qr_scan", "ios": "https://dc.lft.to/lastmile_qr_scan"}, "name": "3b6c218948a9276cf0eff48d0906ae5a", "is_reserved": 0}, {"is_disabled": 0, "fusion_lon": 0.0, "fusion_lat": 0.0, "lat": 38.897687, "type": "electric_scooter", "lon": -77.02851266666667, "bike_id": "672f86ce85577b53217d0cbfee45a714", "rental_uris": {"android": "https://dc.lft.to/lastmile_qr_scan", "ios": "https://dc.lft.to/lastmile_qr_scan"}, "name": "672f86ce85577b53217d0cbfee45a714", "is_reserved": 0}, {"is_disabled": 0, "fusion_lon": 0.0, "fusion_lat": 0.0, "lat": 38.892168166666664, "type": "electric_scooter", "lon": -77.03181333333333, "bike_id": "5b9a67e12ccdc2f2f1c0445c2cc0c033", "rental_uris": {"android": "https://dc.lft.to/lastmile_qr_scan", "ios": "https://dc.lft.to/lastmile_qr_scan"}, "name": "5b9a67e12ccdc2f2f1c0445c2cc0c033", "is_reserved": 0}, {"is_disabled": 0, "fusion_lon": 0.0, "fusion_lat": 0.0, "lat": 38.89237466666667, "type": "electric_scooter", "lon": -77.02587983333333, "bike_id": "5598ca98abcba41d3ef14b9f98bc51ad", "rental_uris": {"android": "https://dc.lft.to/lastmile_qr_scan", "ios": "https://dc.lft.to/lastmile_qr_scan"}, "name": "5598ca98abcba41d3ef14b9f98bc51ad", "is_reserved": 0}, {"is_disabled": 0, "fusion_lon": 0.0, "fusion_lat": 0.0, "lat": 38.9352145, "type": "electric_scooter", "lon": -77.06634633333333, "bike_id": "b17709f5311739661deecf77ce48a85b", "rental_uris": {"android": "https://dc.lft.to/lastmile_qr_scan", "ios": "https://dc.lft.to/lastmile_qr_scan"}, "name": "b17709f5311739661deecf77ce48a85b", "is_reserved": 0}, {"is_disabled": 0, "fusion_lon": 0.0, "fusion_lat": 0.0, "lat": 38.90312633333333, "type": "electric_scooter", "lon": -77.03860516666667, "bike_id": "8021e2b184f6fbcc9988a8f7fec4d569", "rental_uris": {"android": "https://dc.lft.to/lastmile_qr_scan", "ios": "https://dc.lft.to/lastmile_qr_scan"}, "name": "8021e2b184f6fbcc9988a8f7fec4d569", "is_reserved": 0}, {"is_disabled": 0, "fusion_lon": 0.0, "fusion_lat": 0.0, "lat": 38.930832833333334, "type": "electric_scooter", "lon": -77.036252, "bike_id": "71d5cb53e2bde9c36cd73512a91a623a", "rental_uris": {"android": "https://dc.lft.to/lastmile_qr_scan", "ios": "https://dc.lft.to/lastmile_qr_scan"}, "name": "71d5cb53e2bde9c36cd73512a91a623a", "is_reserved": 0}, {"is_disabled": 0, "fusion_lon": 0.0, "fusion_lat": 0.0, "lat": 38.9085445, "type": "electric_scooter", "lon": -77.060772, "bike_id": "4bb861df8688876abdf2203676f6e271", "rental_uris": {"android": "https://dc.lft.to/lastmile_qr_scan", "ios": "https://dc.lft.to/lastmile_qr_scan"}, "name": "4bb861df8688876abdf2203676f6e271", "is_reserved": 0}, {"is_disabled": 0, "fusion_lon": 0.0, "fusion_lat": 0.0, "lat": 38.92167883333333, "type": "electric_bike", "lon": -77.03533866666666, "bike_id": "6a0c85378d48f7bf305d942acf6ba1d3", "rental_uris": {"android": "https://dc.lft.to/lastmile_qr_scan", "ios": "https://dc.lft.to/lastmile_qr_scan"}, "name": "6a0c85378d48f7bf305d942acf6ba1d3", "is_reserved": 0}, {"is_disabled": 0, "fusion_lon": 0.0, "fusion_lat": 0.0, "lat": 38.910977333333335, "type": "electric_scooter", "lon": -77.029724, "bike_id": "782a0527b820b7df8d948da9086a1568", "rental_uris": {"android": "https://dc.lft.to/lastmile_qr_scan", "ios": "https://dc.lft.to/lastmile_qr_scan"}, "name": "782a0527b820b7df8d948da9086a1568", "is_reserved": 0}, {"is_disabled": 0, "fusion_lon": 0.0, "fusion_lat": 0.0, "lat": 38.866076666666665, "type": "electric_scooter", "lon": -77.0107415, "bike_id": "e42223334248bd67077ba077a292d519", "rental_uris": {"android": "https://dc.lft.to/lastmile_qr_scan", "ios": "https://dc.lft.to/lastmile_qr_scan"}, "name": "e42223334248bd67077ba077a292d519", "is_reserved": 0}, {"is_disabled": 0, "fusion_lon": 0.0, "fusion_lat": 0.0, "lat": 38.89664066666667, "type": "electric_scooter", "lon": -77.02726816666667, "bike_id": "668e2f6e0de360c9e321c9f65ff2bb2b", "rental_uris": {"android": "https://dc.lft.to/lastmile_qr_scan", "ios": "https://dc.lft.to/lastmile_qr_scan"}, "name": "668e2f6e0de360c9e321c9f65ff2bb2b", "is_reserved": 0}, {"is_disabled": 0, "fusion_lon": 0.0, "fusion_lat": 0.0, "lat": 38.90481916666667, "type": "electric_scooter", "lon": -77.06221183333334, "bike_id": "c354672f46a40b72bef8db40c0ebac44", "rental_uris": {"android": "https://dc.lft.to/lastmile_qr_scan", "ios": "https://dc.lft.to/lastmile_qr_scan"}, "name": "c354672f46a40b72bef8db40c0ebac44", "is_reserved": 0}, {"is_disabled": 0, "fusion_lon": 0.0, "fusion_lat": 0.0, "lat": 38.93638383333333, "type": "electric_scooter", "lon": -77.02697033333334, "bike_id": "555d0594616b78920022fe1b9509135b", "rental_uris": {"android": "https://dc.lft.to/lastmile_qr_scan", "ios": "https://dc.lft.to/lastmile_qr_scan"}, "name": "555d0594616b78920022fe1b9509135b", "is_reserved": 0}, {"is_disabled": 0, "fusion_lon": 0.0, "fusion_lat": 0.0, "lat": 38.902909333333334, "type": "electric_scooter", "lon": -77.02421783333334, "bike_id": "36b43ad4b925e39d75b2ce8df5f6759d", "rental_uris": {"android": "https://dc.lft.to/lastmile_qr_scan", "ios": "https://dc.lft.to/lastmile_qr_scan"}, "name": "36b43ad4b925e39d75b2ce8df5f6759d", "is_reserved": 0}, {"is_disabled": 0, "fusion_lon": 0.0, "fusion_lat": 0.0, "lat": 38.9120215, "type": "electric_scooter", "lon": -77.0416875, "bike_id": "384dd48a5e0a6cca79f1617cac2c4126", "rental_uris": {"android": "https://dc.lft.to/lastmile_qr_scan", "ios": "https://dc.lft.to/lastmile_qr_scan"}, "name": "384dd48a5e0a6cca79f1617cac2c4126", "is_reserved": 0}, {"is_disabled": 0, "fusion_lon": 0.0, "fusion_lat": 0.0, "lat": 38.838134833333335, "type": "electric_scooter", "lon": -77.004289, "bike_id": "5491f42efbed6301440e303f840c2383", "rental_uris": {"android": "https://dc.lft.to/lastmile_qr_scan", "ios": "https://dc.lft.to/lastmile_qr_scan"}, "name": "5491f42efbed6301440e303f840c2383", "is_reserved": 0}, {"is_disabled": 0, "fusion_lon": 0.0, "fusion_lat": 0.0, "lat": 38.93715783333333, "type": "electric_scooter", "lon": -77.02433266666667, "bike_id": "0f38f169821f9fcad63b32a3f6f437de", "rental_uris": {"android": "https://dc.lft.to/lastmile_qr_scan", "ios": "https://dc.lft.to/lastmile_qr_scan"}, "name": "0f38f169821f9fcad63b32a3f6f437de", "is_reserved": 0}, {"is_disabled": 0, "fusion_lon": 0.0, "fusion_lat": 0.0, "lat": 38.93706783333333, "type": "electric_scooter", "lon": -77.061013, "bike_id": "76df0159fe49a0d8661114f3bc1ef025", "rental_uris": {"android": "https://dc.lft.to/lastmile_qr_scan", "ios": "https://dc.lft.to/lastmile_qr_scan"}, "name": "76df0159fe49a0d8661114f3bc1ef025", "is_reserved": 0}, {"is_disabled": 0, "fusion_lon": 0.0, "fusion_lat": 0.0, "lat": 38.90794433333333, "type": "electric_scooter", "lon": -77.00137383333333, "bike_id": "f5cb5fc6d170f2800e1b05929ada8569", "rental_uris": {"android": "https://dc.lft.to/lastmile_qr_scan", "ios": "https://dc.lft.to/lastmile_qr_scan"}, "name": "f5cb5fc6d170f2800e1b05929ada8569", "is_reserved": 0}, {"is_disabled": 0, "fusion_lon": 0.0, "fusion_lat": 0.0, "lat": 38.90700116666667, "type": "electric_scooter", "lon": -77.06301666666667, "bike_id": "8a2f9944fd7c06f623f0875dc079297b", "rental_uris": {"android": "https://dc.lft.to/lastmile_qr_scan", "ios": "https://dc.lft.to/lastmile_qr_scan"}, "name": "8a2f9944fd7c06f623f0875dc079297b", "is_reserved": 0}, {"is_disabled": 0, "fusion_lon": 0.0, "fusion_lat": 0.0, "lat": 38.919690833333334, "type": "electric_scooter", "lon": -77.04154516666667, "bike_id": "ff6ecb42a8190953661fe22c026f4f64", "rental_uris": {"android": "https://dc.lft.to/lastmile_qr_scan", "ios": "https://dc.lft.to/lastmile_qr_scan"}, "name": "ff6ecb42a8190953661fe22c026f4f64", "is_reserved": 0}, {"is_disabled": 0, "fusion_lon": 0.0, "fusion_lat": 0.0, "lat": 38.9168155, "type": "electric_scooter", "lon": -77.041398, "bike_id": "ab4e196604e53034588880f1c9de7ec8", "rental_uris": {"android": "https://dc.lft.to/lastmile_qr_scan", "ios": "https://dc.lft.to/lastmile_qr_scan"}, "name": "ab4e196604e53034588880f1c9de7ec8", "is_reserved": 0}, {"is_disabled": 0, "fusion_lon": 0.0, "fusion_lat": 0.0, "lat": 38.91974283333333, "type": "electric_scooter", "lon": -77.04175583333334, "bike_id": "e2a51c294f41fe8d5b8101c93e65d5d9", "rental_uris": {"android": "https://dc.lft.to/lastmile_qr_scan", "ios": "https://dc.lft.to/lastmile_qr_scan"}, "name": "e2a51c294f41fe8d5b8101c93e65d5d9", "is_reserved": 0}, {"is_disabled": 0, "fusion_lon": 0.0, "fusion_lat": 0.0, "lat": 38.95614283333333, "type": "electric_scooter", "lon": -77.02761, "bike_id": "438b99ca7661821209ec00b5ec61d49e", "rental_uris": {"android": "https://dc.lft.to/lastmile_qr_scan", "ios": "https://dc.lft.to/lastmile_qr_scan"}, "name": "438b99ca7661821209ec00b5ec61d49e", "is_reserved": 0}, {"is_disabled": 0, "fusion_lon": 0.0, "fusion_lat": 0.0, "lat": 38.900077333333336, "type": "electric_scooter", "lon": -77.03381883333333, "bike_id": "a0d0aa1c045407daaec922e4897040dc", "rental_uris": {"android": "https://dc.lft.to/lastmile_qr_scan", "ios": "https://dc.lft.to/lastmile_qr_scan"}, "name": "a0d0aa1c045407daaec922e4897040dc", "is_reserved": 0}, {"is_disabled": 0, "fusion_lon": 0.0, "fusion_lat": 0.0, "lat": 38.88917383333333, "type": "electric_scooter", "lon": -76.98002416666667, "bike_id": "a057135738e71bdb8b23cf842c2fe2a3", "rental_uris": {"android": "https://dc.lft.to/lastmile_qr_scan", "ios": "https://dc.lft.to/lastmile_qr_scan"}, "name": "a057135738e71bdb8b23cf842c2fe2a3", "is_reserved": 0}, {"is_disabled": 0, "fusion_lon": 0.0, "fusion_lat": 0.0, "lat": 38.9059385, "type": "electric_scooter", "lon": -77.0691325, "bike_id": "b5f5e5b82c47f8a4837c74778a440dec", "rental_uris": {"android": "https://dc.lft.to/lastmile_qr_scan", "ios": "https://dc.lft.to/lastmile_qr_scan"}, "name": "b5f5e5b82c47f8a4837c74778a440dec", "is_reserved": 0}, {"is_disabled": 0, "fusion_lon": 0.0, "fusion_lat": 0.0, "lat": 38.92442533333333, "type": "electric_bike", "lon": -76.90754366666667, "bike_id": "3369217454548ccd727a215f52412ca2", "rental_uris": {"android": "https://dc.lft.to/lastmile_qr_scan", "ios": "https://dc.lft.to/lastmile_qr_scan"},