{"data": {"bikes": [{"fusion_lat": 0.0, "name": "6dc2995837708c07d7d95590cb015976", "is_disabled": 0, "rental_uris": {"android": "https://dc.lft.to/lastmile_qr_scan", "ios": "https://dc.lft.to/lastmile_qr_scan"}, "fusion_lon": 0.0, "lat": 38.931804166666666, "bike_id": "6dc2995837708c07d7d95590cb015976", "type": "electric_scooter", "is_reserved": 0, "lon": -77.02006166666666}, {"fusion_lat": 0.0, "name": "10153e3f09a6554f7cacb9d40e2cc8d2", "is_disabled": 0, "rental_uris": {"android": "https://dc.lft.to/lastmile_qr_scan", "ios": "https://dc.lft.to/lastmile_qr_scan"}, "fusion_lon": 0.0, "lat": 38.905770833333335, "bike_id": "10153e3f09a6554f7cacb9d40e2cc8d2", "type": "electric_scooter", "is_reserved": 0, "lon": -77.02211183333333}, {"fusion_lat": 0.0, "name": "0019c8bdeeb72695965afd7ab33664ca", "is_disabled": 0, "rental_uris": {"android": "https://dc.lft.to/lastmile_qr_scan", "ios": "https://dc.lft.to/lastmile_qr_scan"}, "fusion_lon": 0.0, "lat": 38.92338083333333, "bike_id": "0019c8bdeeb72695965afd7ab33664ca", "type": "electric_scooter", "is_reserved": 0, "lon": -77.05218}, {"fusion_lat": 0.0, "name": "9e6ffc12108ec414c996ff58a3c4f640", "is_disabled": 0, "rental_uris": {"android": "https://dc.lft.to/lastmile_qr_scan", "ios": "https://dc.lft.to/lastmile_qr_scan"}, "fusion_lon": 0.0, "lat": 38.90353983333333, "bike_id": "9e6ffc12108ec414c996ff58a3c4f640", "type": "electric_scooter", "is_reserved": 0, "lon": -76.97475983333334}, {"fusion_lat": 0.0, "name": "e56e57c8606ed417e3182f77ba06e046", "is_disabled": 0, "rental_uris": {"android": "https://dc.lft.to/lastmile_qr_scan", "ios": "https://dc.lft.to/lastmile_qr_scan"}, "fusion_lon": 0.0, "lat": 38.934612, "bike_id": "e56e57c8606ed417e3182f77ba06e046", "type": "electric_scooter", "is_reserved": 0, "lon": -77.04118233333334}, {"fusion_lat": 0.0, "name": "3e493c4a7ccfe0f336ebff7ffadd7f6e", "is_disabled": 0, "rental_uris": {"android": "https://dc.lft.to/lastmile_qr_scan", "ios": "https://dc.lft.to/lastmile_qr_scan"}, "fusion_lon": 0.0, "lat": 38.909321166666665, "bike_id": "3e493c4a7ccfe0f336ebff7ffadd7f6e", "type": "electric_scooter", "is_reserved": 0, "lon": -76.99940066666667}, {"fusion_lat": 0.0, "name": "0ccb766e0013a571c075b641c4762fc7", "is_disabled": 0, "rental_uris": {"android": "https://dc.lft.to/lastmile_qr_scan", "ios": "https://dc.lft.to/lastmile_qr_scan"}, "fusion_lon": 0.0, "lat": 38.91798, "bike_id": "0ccb766e0013a571c075b641c4762fc7", "type": "electric_scooter", "is_reserved": 0, "lon": -77.0232815}, {"fusion_lat": 0.0, "name": "e88345f747e1b5085699cd2ee0d7f83f", "is_disabled": 0, "rental_uris": {"android": "https://dc.lft.to/lastmile_qr_scan", "ios": "https://dc.lft.to/lastmile_qr_scan"}, "fusion_lon": 0.0, "lat": 38.928129, "bike_id": "e88345f747e1b5085699cd2ee0d7f83f", "type": "electric_scooter", "is_reserved": 0, "lon": -77.02329616666667}, {"fusion_lat": 0.0, "name": "36413d02cd301a11e05dde1c27057d46", "is_disabled": 0, "rental_uris": {"android": "https://dc.lft.to/lastmile_qr_scan", "ios": "https://dc.lft.to/lastmile_qr_scan"}, "fusion_lon": 0.0, "lat": 38.907830833333335, "bike_id": "36413d02cd301a11e05dde1c27057d46", "type": "electric_scooter", "is_reserved": 0, "lon": -77.04246183333333}, {"fusion_lat": 0.0, "name": "829824b889d6cf4813c2bb74b853fd5c", "is_disabled": 0, "rental_uris": {"android": "https://dc.lft.to/lastmile_qr_scan", "ios": "https://dc.lft.to/lastmile_qr_scan"}, "fusion_lon": 0.0, "lat": 38.88732483333333, "bike_id": "829824b889d6cf4813c2bb74b853fd5c", "type": "electric_scooter", "is_reserved": 0, "lon": -77.01509816666666}, {"fusion_lat": 0.0, "name": "bba4d331ee3a9476cd8eb9b8395ba8cb", "is_disabled": 0, "rental_uris": {"android": "https://dc.lft.to/lastmile_qr_scan", "ios": "https://dc.lft.to/lastmile_qr_scan"}, "fusion_lon": 0.0, "lat": 38.90101266666667, "bike_id": "bba4d331ee3a9476cd8eb9b8395ba8cb", "type": "electric_scooter", "is_reserved": 0, "lon": -76.93044783333333}, {"fusion_lat": 0.0, "name": "19c3804e3fe3e7a6c217d0cfb6448541", "is_disabled": 0, "rental_uris": {"android": "https://dc.lft.to/lastmile_qr_scan", "ios": "https://dc.lft.to/lastmile_qr_scan"}, "fusion_lon": 0.0, "lat": 38.924665166666664, "bike_id": "19c3804e3fe3e7a6c217d0cfb6448541", "type": "electric_scooter", "is_reserved": 0, "lon": -77.02073}, {"fusion_lat": 0.0, "name": "a1e89feddc5464220bb5ab387e2f127c", "is_disabled": 0, "rental_uris": {"android": "https://dc.lft.to/lastmile_qr_scan", "ios": "https://dc.lft.to/lastmile_qr_scan"}, "fusion_lon": 0.0, "lat": 38.930859833333336, "bike_id": "a1e89feddc5464220bb5ab387e2f127c", "type": "electric_scooter", "is_reserved": 0, "lon": -77.02008816666667}, {"fusion_lat": 0.0, "name": "a7b76cfba9b9c67a60967590c438990b", "is_disabled": 0, "rental_uris": {"android": "https://dc.lft.to/lastmile_qr_scan", "ios": "https://dc.lft.to/lastmile_qr_scan"}, "fusion_lon": 0.0, "lat": 38.91177316666667, "bike_id": "a7b76cfba9b9c67a60967590c438990b", "type": "electric_scooter", "is_reserved": 0, "lon": -77.0295675}, {"fusion_lat": 0.0, "name": "3e8c2819d82f29453ba6c3d9da203519", "is_disabled": 0, "rental_uris": {"android": "https://dc.lft.to/lastmile_qr_scan", "ios": "https://dc.lft.to/lastmile_qr_scan"}, "fusion_lon": 0.0, "lat": 38.903815333333334, "bike_id": "3e8c2819d82f29453ba6c3d9da203519", "type": "electric_scooter", "is_reserved": 0, "lon": -77.0177645}, {"fusion_lat": 0.0, "name": "2b482f5b3dc920c1ddb1adf34ee6e91e", "is_disabled": 0, "rental_uris": {"android": "https://dc.lft.to/lastmile_qr_scan", "ios": "https://dc.lft.to/lastmile_qr_scan"}, "fusion_lon": 0.0, "lat": 38.897273, "bike_id": "2b482f5b3dc920c1ddb1adf34ee6e91e", "type": "electric_scooter", "is_reserved": 0, "lon": -77.0246675}, {"fusion_lat": 0.0, "name": "babcef45c48134d25ef593fcf9a2d78e", "is_disabled": 0, "rental_uris": {"android": "https://dc.lft.to/lastmile_qr_scan", "ios": "https://dc.lft.to/lastmile_qr_scan"}, "fusion_lon": 0.0, "lat": 38.899693166666665, "bike_id": "babcef45c48134d25ef593fcf9a2d78e", "type": "electric_scooter", "is_reserved": 0, "lon": -77.052705}, {"fusion_lat": 0.0, "name": "a841b9d45d8de19a5ef80de0e945fb8c", "is_disabled": 0, "rental_uris": {"android": "https://dc.lft.to/lastmile_qr_scan", "ios": "https://dc.lft.to/lastmile_qr_scan"}, "fusion_lon": 0.0, "lat": 38.925510833333334, "bike_id": "a841b9d45d8de19a5ef80de0e945fb8c", "type": "electric_scooter", "is_reserved": 0, "lon": -77.03339433333333}, {"fusion_lat": 0.0, "name": "2ea1c8e690f50375a0b5b21a51b677be", "is_disabled": 0, "rental_uris": {"android": "https://dc.lft.to/lastmile_qr_scan", "ios": "https://dc.lft.to/lastmile_qr_scan"}, "fusion_lon": 0.0, "lat": 38.91259, "bike_id": "2ea1c8e690f50375a0b5b21a51b677be", "type": "electric_scooter", "is_reserved": 0, "lon": -77.03869166666667}, {"fusion_lat": 0.0, "name": "7c9ecba1d26f9f7247e504fd4c7ad233", "is_disabled": 0, "rental_uris": {"android": "https://dc.lft.to/lastmile_qr_scan", "ios": "https://dc.lft.to/lastmile_qr_scan"}, "fusion_lon": 0.0, "lat": 38.9144135, "bike_id": "7c9ecba1d26f9f7247e504fd4c7ad233", "type": "electric_scooter", "is_reserved": 0, "lon": -77.012218}, {"fusion_lat": 0.0, "name": "963f827d92ce5dc5889d133fc777033c", "is_disabled": 0, "rental_uris": {"android": "https://dc.lft.to/lastmile_qr_scan", "ios": "https://dc.lft.to/lastmile_qr_scan"}, "fusion_lon": 0.0, "lat": 38.85356566666667, "bike_id": "963f827d92ce5dc5889d133fc777033c", "type": "electric_bike", "is_reserved": 0, "lon": -77.13466}, {"fusion_lat": 0.0, "name": "33ad38791981646ee0c0003619350341", "is_disabled": 0, "rental_uris": {"android": "https://dc.lft.to/lastmile_qr_scan", "ios": "https://dc.lft.to/lastmile_qr_scan"}, "fusion_lon": 0.0, "lat": 38.84756016666667, "bike_id": "33ad38791981646ee0c0003619350341", "type": "electric_scooter", "is_reserved": 0, "lon": -76.9950275}, {"fusion_lat": 0.0, "name": "4677969434b084a1d734ddf6d3e15758", "is_disabled": 0, "rental_uris": {"android": "https://dc.lft.to/lastmile_qr_scan", "ios": "https://dc.lft.to/lastmile_qr_scan"}, "fusion_lon": 0.0, "lat": 38.92467583333333, "bike_id": "4677969434b084a1d734ddf6d3e15758", "type": "electric_scooter", "is_reserved": 0, "lon": -77.035342}, {"fusion_lat": 0.0, "name": "61149e058270b4ef103f7949e63fcc30", "is_disabled": 0, "rental_uris": {"android": "https://dc.lft.to/lastmile_qr_scan", "ios": "https://dc.lft.to/lastmile_qr_scan"}, "fusion_lon": 0.0, "lat": 38.87510066666667, "bike_id": "61149e058270b4ef103f7949e63fcc30", "type": "electric_scooter", "is_reserved": 0, "lon": -77.00046833333333}, {"fusion_lat": 0.0, "name": "4c43eaa04601f7dcd804180d172014fa", "is_disabled": 0, "rental_uris": {"android": "https://dc.lft.to/lastmile_qr_scan", "ios": "https://dc.lft.to/lastmile_qr_scan"}, "fusion_lon": 0.0, "lat": 38.92055166666667, "bike_id": "4c43eaa04601f7dcd804180d172014fa", "type": "electric_scooter", "is_reserved": 0, "lon": -76.99884316666666}, {"fusion_lat": 0.0, "name": "d298894df5e5ec6c43f5a3ab2e7c1fe9", "is_disabled": 0, "rental_uris": {"android": "https://dc.lft.to/lastmile_qr_scan", "ios": "https://dc.lft.to/lastmile_qr_scan"}, "fusion_lon": 0.0, "lat": 38.926018666666664, "bike_id": "d298894df5e5ec6c43f5a3ab2e7c1fe9", "type": "electric_scooter", "is_reserved": 0, "lon": -77.03745116666667}, {"fusion_lat": 0.0, "name": "2d39283671b295cfa8c6dc8cc4627b19", "is_disabled": 0, "rental_uris": {"android": "https://dc.lft.to/lastmile_qr_scan", "ios": "https://dc.lft.to/lastmile_qr_scan"}, "fusion_lon": 0.0, "lat": 38.911443, "bike_id": "2d39283671b295cfa8c6dc8cc4627b19", "type": "electric_scooter", "is_reserved": 0, "lon": -77.023812}, {"fusion_lat": 0.0, "name": "182204eb300ea9fdc7bff73138f23a9a", "is_disabled": 0, "rental_uris": {"android": "https://dc.lft.to/lastmile_qr_scan", "ios": "https://dc.lft.to/lastmile_qr_scan"}, "fusion_lon": 0.0, "lat": 38.92770066666667, "bike_id": "182204eb300ea9fdc7bff73138f23a9a", "type": "electric_scooter", "is_reserved": 0, "lon": -77.0274345}, {"fusion_lat": 0.0, "name": "c74e04ea0bb66698a33007da1fbd820f", "is_disabled": 0, "rental_uris": {"android": "https://dc.lft.to/lastmile_qr_scan", "ios": "https://dc.lft.to/lastmile_qr_scan"}, "fusion_lon": 0.0, "lat": 38.90958533333333, "bike_id": "c74e04ea0bb66698a33007da1fbd820f", "type": "electric_scooter", "is_reserved": 0, "lon": -77.02377}, {"fusion_lat": 0.0, "name": "2a77156e2c6a2fd90c6283262b34e160", "is_disabled": 0, "rental_uris": {"android": "https://dc.lft.to/lastmile_qr_scan", "ios": "https://dc.lft.to/lastmile_qr_scan"}, "fusion_lon": 0.0, "lat": 38.89855033333333, "bike_id": "2a77156e2c6a2fd90c6283262b34e160", "type": "electric_scooter", "is_reserved": 0, "lon": -77.02219566666666}, {"fusion_lat": 0.0, "name": "08471f3452eb8df6041451addb6c8730", "is_disabled": 0, "rental_uris": {"android": "https://dc.lft.to/lastmile_qr_scan", "ios": "https://dc.lft.to/lastmile_qr_scan"}, "fusion_lon": 0.0, "lat": 38.87882716666667, "bike_id": "08471f3452eb8df6041451addb6c8730", "type": "electric_scooter", "is_reserved": 0, "lon": -76.96542566666666}, {"fusion_lat": 0.0, "name": "3e3a50d05de7366fdab50c9f7d729fb7", "is_disabled": 0, "rental_uris": {"android": "https://dc.lft.to/lastmile_qr_scan", "ios": "https://dc.lft.to/lastmile_qr_scan"}, "fusion_lon": 0.0, "lat": 38.906415833333334, "bike_id": "3e3a50d05de7366fdab50c9f7d729fb7", "type": "electric_scooter", "is_reserved": 0, "lon": -77.04881616666667}, {"fusion_lat": 0.0, "name": "2a8af96a17ff0b997d9ab542f0c689d1", "is_disabled": 0, "rental_uris": {"android": "https://dc.lft.to/lastmile_qr_scan", "ios": "https://dc.lft.to/lastmile_qr_scan"}, "fusion_lon": 0.0, "lat": 38.904105, "bike_id": "2a8af96a17ff0b997d9ab542f0c689d1", "type": "electric_scooter", "is_reserved": 0, "lon": -77.03669083333334}, {"fusion_lat": 0.0, "name": "c0ba773cacf0356f6a86f6f974623b0a", "is_disabled": 0, "rental_uris": {"android": "https://dc.lft.to/lastmile_qr_scan", "ios": "https://dc.lft.to/lastmile_qr_scan"}, "fusion_lon": 0.0, "lat": 38.89521, "bike_id": "c0ba773cacf0356f6a86f6f974623b0a", "type": "electric_scooter", "is_reserved": 0, "lon": -77.00921833333334}, {"fusion_lat": 0.0, "name": "b646cb7f9ab61e9c594e658c958fc163", "is_disabled": 0, "rental_uris": {"android": "https://dc.lft.to/lastmile_qr_scan", "ios": "https://dc.lft.to/lastmile_qr_scan"}, "fusion_lon": 0.0, "lat": 38.92261333333333, "bike_id": "b646cb7f9ab61e9c594e658c958fc163", "type": "electric_scooter", "is_reserved": 0, "lon": -77.03666233333334}, {"fusion_lat": 0.0, "name": "1070fdf766bbaa507db81102197a489a", "is_disabled": 0, "rental_uris": {"android": "https://dc.lft.to/lastmile_qr_scan", "ios": "https://dc.lft.to/lastmile_qr_scan"}, "fusion_lon": 0.0, "lat": 38.90162383333333, "bike_id": "1070fdf766bbaa507db81102197a489a", "type": "electric_scooter", "is_reserved": 0, "lon": -77.03178616666666}, {"fusion_lat": 0.0, "name": "f9cab6e9fc566d6cd5f8c31127ab4c7d", "is_disabled": 0, "rental_uris": {"android": "https://dc.lft.to/lastmile_qr_scan", "ios": "https://dc.lft.to/lastmile_qr_scan"}, "fusion_lon": 0.0, "lat": 38.923838833333335, "bike_id": "f9cab6e9fc566d6cd5f8c31127ab4c7d", "type": "electric_scooter", "is_reserved": 0, "lon": -77.02743266666667}, {"fusion_lat": 0.0, "name": "aead487f3c0f76e7b2b31e81bd6f7a94", "is_disabled": 0, "rental_uris": {"android": "https://dc.lft.to/lastmile_qr_scan", "ios": "https://dc.lft.to/lastmile_qr_scan"}, "fusion_lon": 0.0, "lat": 38.91164033333333, "bike_id": "aead487f3c0f76e7b2b31e81bd6f7a94", "type": "electric_scooter", "is_reserved": 0, "lon": -76.98724333333334}, {"fusion_lat": 0.0, "name": "9a8ceed40717725ef091e423a3567ca6", "is_disabled": 0, "rental_uris": {"android": "https://dc.lft.to/lastmile_qr_scan", "ios": "https://dc.lft.to/lastmile_qr_scan"}, "fusion_lon": 0.0, "lat": 38.89953166666667, "bike_id": "9a8ceed40717725ef091e423a3567ca6", "type": "electric_scooter", "is_reserved": 0, "lon": -77.054747}, {"fusion_lat": 0.0, "name": "4f7a2f6f60b8aa745f61500e59d20543", "is_disabled": 0, "rental_uris": {"android": "https://dc.lft.to/lastmile_qr_scan", "ios": "https://dc.lft.to/lastmile_qr_scan"}, "fusion_lon": 0.0, "lat": 38.92681433333333, "bike_id": "4f7a2f6f60b8aa745f61500e59d20543", "type": "electric_scooter", "is_reserved": 0, "lon": -77.03146616666666}, {"fusion_lat": 0.0, "name": "6fb875c0dac7520c0a5519d15cf2619a", "is_disabled": 0, "rental_uris": {"android": "https://dc.lft.to/lastmile_qr_scan", "ios": "https://dc.lft.to/lastmile_qr_scan"}, "fusion_lon": 0.0, "lat": 38.901352, "bike_id": "6fb875c0dac7520c0a5519d15cf2619a", "type": "electric_scooter", "is_reserved": 0, "lon": -76.99119333333333}, {"fusion_lat": 0.0, "name": "5078dbdc50ff388edaa98fd0b37a013c", "is_disabled": 0, "rental_uris": {"android": "https://dc.lft.to/lastmile_qr_scan", "ios": "https://dc.lft.to/lastmile_qr_scan"}, "fusion_lon": 0.0, "lat": 38.909607666666666, "bike_id": "5078dbdc50ff388edaa98fd0b37a013c", "type": "electric_scooter", "is_reserved": 0, "lon": -77.0227885}, {"fusion_lat": 0.0, "name": "46af8d817c8d18de7e0703c074189084", "is_disabled": 0, "rental_uris": {"android": "https://dc.lft.to/lastmile_qr_scan", "ios": "https://dc.lft.to/lastmile_qr_scan"}, "fusion_lon": 0.0, "lat": 38.9134325, "bike_id": "46af8d817c8d18de7e0703c074189084", "type": "electric_bike", "is_reserved": 0, "lon": -76.988991}, {"fusion_lat": 0.0, "name": "bd842015749222ceb2a000107f9ddfcf", "is_disabled": 0, "rental_uris": {"android": "https://dc.lft.to/lastmile_qr_scan", "ios": "https://dc.lft.to/lastmile_qr_scan"}, "fusion_lon": 0.0, "lat": 38.919799, "bike_id": "bd842015749222ceb2a000107f9ddfcf", "type": "electric_scooter", "is_reserved": 0, "lon": -77.04089066666667}, {"fusion_lat": 0.0, "name": "ab9f923ec3e0ae6d5ae4e9f5562037b4", "is_disabled": 0, "rental_uris": {"android": "https://dc.lft.to/lastmile_qr_scan", "ios": "https://dc.lft.to/lastmile_qr_scan"}, "fusion_lon": 0.0, "lat": 38.8781295, "bike_id": "ab9f923ec3e0ae6d5ae4e9f5562037b4", "type": "electric_scooter", "is_reserved": 0, "lon": -77.01531116666666}, {"fusion_lat": 0.0, "name": "bdbd432f1ca331d375b0a8f7b400c1a1", "is_disabled": 0, "rental_uris": {"android": "https://dc.lft.to/lastmile_qr_scan", "ios": "https://dc.lft.to/lastmile_qr_scan"}, "fusion_lon": 0.0, "lat": 38.88386416666667, "bike_id": "bdbd432f1ca331d375b0a8f7b400c1a1", "type": "electric_scooter", "is_reserved": 0, "lon": -76.98560433333333}, {"fusion_lat": 0.0, "name": "756553ae74ed5de2abf470deab2aae71", "is_disabled": 0, "rental_uris": {"android": "https://dc.lft.to/lastmile_qr_scan", "ios": "https://dc.lft.to/lastmile_qr_scan"}, "fusion_lon": 0.0, "lat": 38.87376833333333, "bike_id": "756553ae74ed5de2abf470deab2aae71", "type": "electric_scooter", "is_reserved": 0, "lon": -77.0006175}, {"fusion_lat": 0.0, "name": "8d530101291be15754f241b71de18ca8", "is_disabled": 0, "rental_uris": {"android": "https://dc.lft.to/lastmile_qr_scan", "ios": "https://dc.lft.to/lastmile_qr_scan"}, "fusion_lon": 0.0, "lat": 38.898895833333334, "bike_id": "8d530101291be15754f241b71de18ca8", "type": "electric_scooter", "is_reserved": 0, "lon": -77.00144383333334}, {"fusion_lat": 0.0, "name": "f0104bd279e19678b9ba0be3e9e13a76", "is_disabled": 0, "rental_uris": {"android": "https://dc.lft.to/lastmile_qr_scan", "ios": "https://dc.lft.to/lastmile_qr_scan"}, "fusion_lon": 0.0, "lat": 38.89353966666667, "bike_id": "f0104bd279e19678b9ba0be3e9e13a76", "type": "electric_scooter", "is_reserved": 0, "lon": -76.98654516666667}, {"fusion_lat": 0.0, "name": "9248d0b8d1c87368f361ec26e5d89ad6", "is_disabled": 0, "rental_uris": {"android": "https://dc.lft.to/lastmile_qr_scan", "ios": "https://dc.lft.to/lastmile_qr_scan"}, "fusion_lon": 0.0, "lat": 38.9202585, "bike_id": "9248d0b8d1c87368f361ec26e5d89ad6", "type": "electric_scooter", "is_reserved": 0, "lon": -77.02714816666666}, {"fusion_lat": 0.0, "name": "9b3bfe17af8f2a33e40156de6c5109fc", "is_disabled": 0, "rental_uris": {"android": "https://dc.lft.to/lastmile_qr_scan", "ios": "https://dc.lft.to/lastmile_qr_scan"}, "fusion_lon": 0.0, "lat": 38.931828, "bike_id": "9b3bfe17af8f2a33e40156de6c5109fc", "type": "electric_scooter", "is_reserved": 0, "lon": -77.03304183333333}, {"fusion_lat": 0.0, "name": "f6e0f672c6be53d4b74f53f755c4d1d3", "is_disabled": 0, "rental_uris": {"android": "https://dc.lft.to/lastmile_qr_scan", "ios": "https://dc.lft.to/lastmile_qr_scan"}, "fusion_lon": 0.0, "lat": 38.93056583333333, "bike_id": "f6e0f672c6be53d4b74f53f755c4d1d3", "type": "electric_scooter", "is_reserved": 0, "lon": -77.03941066666667}, {"fusion_lat": 0.0, "name": "86c58d56f8f644bb24422e15a61f52a9", "is_disabled": 0, "rental_uris": {"android": "https://dc.lft.to/lastmile_qr_scan", "ios": "https://dc.lft.to/lastmile_qr_scan"}, "fusion_lon": 0.0, "lat": 38.90906583333334, "bike_id": "86c58d56f8f644bb24422e15a61f52a9", "type": "electric_scooter", "is_reserved": 0, "lon": -77.02615666666667}, {"fusion_lat": 0.0, "name": "2cbfcf012d681edc98ee3e284541bf03", "is_disabled": 0, "rental_uris": {"android": "https://dc.lft.to/lastmile_qr_scan", "ios": "https://dc.lft.to/lastmile_qr_scan"}, "fusion_lon": 0.0, "lat": 38.90892483333333, "bike_id": "2cbfcf012d681edc98ee3e284541bf03", "type": "electric_scooter", "is_reserved": 0, "lon": -77.04389366666666}, {"fusion_lat": 0.0, "name": "5f047d9b715df49669396780e1f1bd17", "is_disabled": 0, "rental_uris": {"android": "https://dc.lft.to/lastmile_qr_scan", "ios": "https://dc.lft.to/lastmile_qr_scan"}, "fusion_lon": 0.0, "lat": 38.934126, "bike_id": "5f047d9b715df49669396780e1f1bd17", "type": "electric_scooter", "is_reserved": 0, "lon": -77.02202783333334}, {"fusion_lat": 0.0, "name": "15d6908941d6f0199e89ba8dcb934b2f", "is_disabled": 0, "rental_uris": {"android": "https://dc.lft.to/lastmile_qr_scan", "ios": "https://dc.lft.to/lastmile_qr_scan"}, "fusion_lon": 0.0, "lat": 38.911579, "bike_id": "15d6908941d6f0199e89ba8dcb934b2f", "type": "electric_scooter", "is_reserved": 0, "lon": -77.04350983333333}, {"fusion_lat": 0.0, "name": "c0b68fe7bb3916138648ea15b66534f3", "is_disabled": 0, "rental_uris": {"android": "https://dc.lft.to/lastmile_qr_scan", "ios": "https://dc.lft.to/lastmile_qr_scan"}, "fusion_lon": 0.0, "lat": 38.90523816666666, "bike_id": "c0b68fe7bb3916138648ea15b66534f3", "type": "electric_scooter", "is_reserved": 0, "lon": -77.04834416666667}, {"fusion_lat": 0.0, "name": "6979093549ee9e9c601e5114ed099ca7", "is_disabled": 0, "rental_uris": {"android": "https://dc.lft.to/lastmile_qr_scan", "ios": "https://dc.lft.to/lastmile_qr_scan"}, "fusion_lon": 0.0, "lat": 38.9013195, "bike_id": "6979093549ee9e9c601e5114ed099ca7", "type": "electric_scooter", "is_reserved": 0, "lon": -77.01824866666666}, {"fusion_lat": 0.0, "name": "fac82cb1cd0092a7aea403866d990c5d", "is_disabled": 0, "rental_uris": {"android": "https://dc.lft.to/lastmile_qr_scan", "ios": "https://dc.lft.to/lastmile_qr_scan"}, "fusion_lon": 0.0, "lat": 38.90484766666667, "bike_id": "fac82cb1cd0092a7aea403866d990c5d", "type": "electric_scooter", "is_reserved": 0, "lon": -76.94958466666667}, {"fusion_lat": 0.0, "name": "db610862aafdbcc500a4db1a4dfbb00a", "is_disabled": 0, "rental_uris": {"android": "https://dc.lft.to/lastmile_qr_scan", "ios": "https://dc.lft.to/lastmile_qr_scan"}, "fusion_lon": 0.0, "lat": 38.90550283333334, "bike_id": "db610862aafdbcc500a4db1a4dfbb00a", "type": "electric_scooter", "is_reserved": 0, "lon": -77.046553}, {"fusion_lat": 0.0, "name": "c9d16f0881bcbf1c5f84691d3afeaff9", "is_disabled": 0, "rental_uris": {"android": "https://dc.lft.to/lastmile_qr_scan", "ios": "https://dc.lft.to/lastmile_qr_scan"}, "fusion_lon": 0.0, "lat": 38.8532265, "bike_id": "c9d16f0881bcbf1c5f84691d3afeaff9", "type": "electric_scooter", "is_reserved": 0, "lon": -76.9800725}, {"fusion_lat": 0.0, "name": "4b5d1f5003ed0199bc5a9a37d3e81184", "is_disabled": 0, "rental_uris": {"android": "https://dc.lft.to/lastmile_qr_scan", "ios": "https://dc.lft.to/lastmile_qr_scan"}, "fusion_lon": 0.0, "lat": 38.89234966666667, "bike_id": "4b5d1f5003ed0199bc5a9a37d3e81184", "type": "electric_scooter", "is_reserved": 0, "lon": -77.025065}, {"fusion_lat": 0.0, "name": "a4366f9c3798ad2a528bad86b3b18e67", "is_disabled": 0, "rental_uris": {"android": "https://dc.lft.to/lastmile_qr_scan", "ios": "https://dc.lft.to/lastmile_qr_scan"}, "fusion_lon": 0.0, "lat": 38.909446333333335, "bike_id": "a4366f9c3798ad2a528bad86b3b18e67", "type": "electric_scooter", "is_reserved": 0, "lon": -77.018897}, {"fusion_lat": 0.0, "name": "02f5477879d14bf354f477d7de05a5a1", "is_disabled": 0, "rental_uris": {"android": "https://dc.lft.to/lastmile_qr_scan", "ios": "https://dc.lft.to/lastmile_qr_scan"}, "fusion_lon": 0.0, "lat": 38.900877333333334, "bike_id": "02f5477879d14bf354f477d7de05a5a1", "type": "electric_scooter", "is_reserved": 0, "lon": -76.983315}, {"fusion_lat": 0.0, "name": "e39e44c2b9f2d065d3548f9f99df620e", "is_disabled": 0, "rental_uris": {"android": "https://dc.lft.to/lastmile_qr_scan", "ios": "https://dc.lft.to/lastmile_qr_scan"}, "fusion_lon": 0.0, "lat": 38.93470883333333, "bike_id": "e39e44c2b9f2d065d3548f9f99df620e", "type": "electric_scooter", "is_reserved": 0, "lon": -77.07208233333333}, {"fusion_lat": 0.0, "name": "d14f3ec3af9db364a29ea2f7c5409a26", "is_disabled": 0, "rental_uris": {"android": "https://dc.lft.to/lastmile_qr_scan", "ios": "https://dc.lft.to/lastmile_qr_scan"}, "fusion_lon": 0.0, "lat": 38.938784, "bike_id": "d14f3ec3af9db364a29ea2f7c5409a26", "type": "electric_scooter", "is_reserved": 0, "lon": -77.02468666666667}, {"fusion_lat": 0.0, "name": "cdfc03a93209a7c42759d779bf3433c6", "is_disabled": 0, "rental_uris": {"android": "https://dc.lft.to/lastmile_qr_scan", "ios": "https://dc.lft.to/lastmile_qr_scan"}, "fusion_lon": 0.0, "lat": 38.9014215, "bike_id": "cdfc03a93209a7c42759d779bf3433c6", "type": "electric_scooter", "is_reserved": 0, "lon": -77.041909}, {"fusion_lat": 0.0, "name": "615223868c96bab1086b33a73b661ba3", "is_disabled": 0, "rental_uris": {"android": "https://dc.lft.to/lastmile_qr_scan", "ios": "https://dc.lft.to/lastmile_qr_scan"}, "fusion_lon": 0.0, "lat": 38.920771, "bike_id": "615223868c96bab1086b33a73b661ba3", "type": "electric_scooter", "is_reserved": 0, "lon": -77.01393883333333}, {"fusion_lat": 0.0, "name": "6d9154ba302980b349ab4423f95e91d5", "is_disabled": 0, "rental_uris": {"android": "https://dc.lft.to/lastmile_qr_scan", "ios": "https://dc.lft.to/lastmile_qr_scan"}, "fusion_lon": 0.0, "lat": 38.880154833333336, "bike_id": "6d9154ba302980b349ab4423f95e91d5", "type": "electric_scooter", "is_reserved": 0, "lon": -76.98457983333333}, {"fusion_lat": 0.0, "name": "7613965a8f597df3ded1bc0a6b436fb5", "is_disabled": 0, "rental_uris": {"android": "https://dc.lft.to/lastmile_qr_scan", "ios": "https://dc.lft.to/lastmile_qr_scan"}, "fusion_lon": 0.0, "lat": 38.90970766666667, "bike_id": "7613965a8f597df3ded1bc0a6b436fb5", "type": "electric_scooter", "is_reserved": 0, "lon": -77.02161}, {"fusion_lat": 0.0, "name": "1ca12059c620107052253e98c85fbab5", "is_disabled": 0, "rental_uris": {"android": "https://dc.lft.to/lastmile_qr_scan", "ios": "https://dc.lft.to/lastmile_qr_scan"}, "fusion_lon": 0.0, "lat": 38.90010733333333, "bike_id": "1ca12059c620107052253e98c85fbab5", "type": "electric_scooter", "is_reserved": 0, "lon": -77.024018}, {"fusion_lat": 0.0, "name": "79c981ecb8500bbf0cd7d1b6d21392f6", "is_disabled": 0, "rental_uris": {"android": "https://dc.lft.to/lastmile_qr_scan", "ios": "https://dc.lft.to/lastmile_qr_scan"}, "fusion_lon": 0.0, "lat": 38.899567, "bike_id": "79c981ecb8500bbf0cd7d1b6d21392f6", "type": "electric_scooter", "is_reserved": 0, "lon": -76.985639}, {"fusion_lat": 0.0, "name": "113aec6494731cb74d58489471a92688", "is_disabled": 0, "rental_uris": {"android": "https://dc.lft.to/lastmile_qr_scan", "ios": "https://dc.lft.to/lastmile_qr_scan"}, "fusion_lon": 0.0, "lat": 38.857010833333334, "bike_id": "113aec6494731cb74d58489471a92688", "type": "electric_scooter", "is_reserved": 0, "lon": -76.9959275}, {"fusion_lat": 0.0, "name": "648d938aa10ddd25a95305e029f8dab7", "is_disabled": 0, "rental_uris": {"android": "https://dc.lft.to/lastmile_qr_scan", "ios": "https://dc.lft.to/lastmile_qr_scan"}, "fusion_lon": 0.0, "lat": 38.887958, "bike_id": "648d938aa10ddd25a95305e029f8dab7", "type": "electric_bike", "is_reserved": 0, "lon": -76.92998116666666}, {"fusion_lat": 0.0, "name": "18e20c0075f0862bd6539e30e70629b3", "is_disabled": 0, "rental_uris": {"android": "https://dc.lft.to/lastmile_qr_scan", "ios": "https://dc.lft.to/lastmile_qr_scan"}, "fusion_lon": 0.0, "lat": 38.92987466666666, "bike_id": "18e20c0075f0862bd6539e30e70629b3", "type": "electric_scooter", "is_reserved": 0, "lon": -77.0347235}, {"fusion_lat": 0.0, "name": "dd1b291bed8c280cf096a10e0a96cc69", "is_disabled": 0, "rental_uris": {"android": "https://dc.lft.to/lastmile_qr_scan", "ios": "https://dc.lft.to/lastmile_qr_scan"}, "fusion_lon": 0.0, "lat": 38.9079985, "bike_id": "dd1b291bed8c280cf096a10e0a96cc69", "type": "electric_scooter", "is_reserved": 0, "lon": -77.043504}, {"fusion_lat": 0.0, "name": "dac068046d4d8cb468034c916de9f0db", "is_disabled": 0, "rental_uris": {"android": "https://dc.lft.to/lastmile_qr_scan", "ios": "https://dc.lft.to/lastmile_qr_scan"}, "fusion_lon": 0.0, "lat": 38.92120766666667, "bike_id": "dac068046d4d8cb468034c916de9f0db", "type": "electric_scooter", "is_reserved": 0, "lon": -77.04427116666666}, {"fusion_lat": 0.0, "name": "c4aa68a14f15a9a6b57f21231d0480c0", "is_disabled": 0, "rental_uris": {"android": "https://dc.lft.to/lastmile_qr_scan", "ios": "https://dc.lft.to/lastmile_qr_scan"}, "fusion_lon": 0.0, "lat": 38.9320405, "bike_id": "c4aa68a14f15a9a6b57f21231d0480c0", "type": "electric_scooter", "is_reserved": 0, "lon": -77.03666183333333}, {"fusion_lat": 0.0, "name": "5c386a2a8f1bb0cfc91b0b32af97edb1", "is_disabled": 0, "rental_uris": {"android": "https://dc.lft.to/lastmile_qr_scan", "ios": "https://dc.lft.to/lastmile_qr_scan"}, "fusion_lon": 0.0, "lat": 38.935104333333335, "bike_id": "5c386a2a8f1bb0cfc91b0b32af97edb1", "type": "electric_scooter", "is_reserved": 0, "lon": -77.03290266666667}, {"fusion_lat": 0.0, "name": "d7580e68af8bddaf9f3f9463aeabb275", "is_disabled": 0, "rental_uris": {"android": "https://dc.lft.to/lastmile_qr_scan", "ios": "https://dc.lft.to/lastmile_qr_scan"}, "fusion_lon": 0.0, "lat": 38.92180783333333, "bike_id": "d7580e68af8bddaf9f3f9463aeabb275", "type": "electric_scooter", "is_reserved": 0, "lon": -77.0266905}, {"fusion_lat": 0.0, "name": "bf5e74b39b5494e2623ac87f479955ae", "is_disabled": 0, "rental_uris": {"android": "https://dc.lft.to/lastmile_qr_scan", "ios": "https://dc.lft.to/lastmile_qr_scan"}, "fusion_lon": 0.0, "lat": 38.89574966666667, "bike_id": "bf5e74b39b5494e2623ac87f479955ae", "type": "electric_scooter", "is_reserved": 0, "lon": -77.03170466666667}, {"fusion_lat": 0.0, "name": "1b0a5af72d93632b207111e149c68276", "is_disabled": 0, "rental_uris": {"android": "https://dc.lft.to/lastmile_qr_scan", "ios": "https://dc.lft.to/lastmile_qr_scan"}, "fusion_lon": 0.0, "lat": 38.90736583333333, "bike_id": "1b0a5af72d93632b207111e149c68276", "type": "electric_scooter", "is_reserved": 0, "lon": -77.02982116666666}, {"fusion_lat": 0.0, "name": "24dd5686ae9df5b6d56b4252c110a128", "is_disabled": 0, "rental_uris": {"android": "https://dc.lft.to/lastmile_qr_scan", "ios": "https://dc.lft.to/lastmile_qr_scan"}, "fusion_lon": 0.0, "lat": 38.922816, "bike_id": "24dd5686ae9df5b6d56b4252c110a128", "type": "electric_scooter", "is_reserved": 0, "lon": -76.99771333333334}, {"fusion_lat": 0.0, "name": "1be83f8241f51baeb4186e3ea647a361", "is_disabled": 0, "rental_uris": {"android": "https://dc.lft.to/lastmile_qr_scan", "ios": "https://dc.lft.to/lastmile_qr_scan"}, "fusion_lon": 0.0, "lat": 38.930475, "bike_id": "1be83f8241f51baeb4186e3ea647a361", "type": "electric_scooter", "is_reserved": 0, "lon": -77.03796466666667}, {"fusion_lat": 0.0, "name": "6d11949606bccd63f6f9972ce432b936", "is_disabled": 0, "rental_uris": {"android": "https://dc.lft.to/lastmile_qr_scan", "ios": "https://dc.lft.to/lastmile_qr_scan"}, "fusion_lon": 0.0, "lat": 38.897281666666665, "bike_id": "6d11949606bccd63f6f9972ce432b936", "type": "electric_scooter", "is_reserved": 0, "lon": -77.00932566666667}, {"fusion_lat": 0.0, "name": "5f4842a56ab311194d19517d12eaf381", "is_disabled": 0, "rental_uris": {"android": "https://dc.lft.to/lastmile_qr_scan", "ios": "https://dc.lft.to/lastmile_qr_scan"}, "fusion_lon": 0.0, "lat": 38.884908333333335, "bike_id": "5f4842a56ab311194d19517d12eaf381", "type": "electric_scooter", "is_reserved": 0, "lon": -77.0108425}, {"fusion_lat": 0.0, "name": "604e9c4d3c41a26e0a7d5656430b3464", "is_disabled": 0, "rental_uris": {"android": "https://dc.lft.to/lastmile_qr_scan", "ios": "https://dc.lft.to/lastmile_qr_scan"}, "fusion_lon": 0.0, "lat": 38.909454833333335, "bike_id": "604e9c4d3c41a26e0a7d5656430b3464", "type": "electric_scooter", "is_reserved": 0, "lon": -76.987687}, {"fusion_lat": 0.0, "name": "fe597195c4b62886a4c59027e51da7d9", "is_disabled": 0, "rental_uris": {"android": "https://dc.lft.to/lastmile_qr_scan", "ios": "https://dc.lft.to/lastmile_qr_scan"}, "fusion_lon": 0.0, "lat": 38.900257333333336, "bike_id": "fe597195c4b62886a4c59027e51da7d9", "type": "electric_scooter", "is_reserved": 0, "lon": -76.974005}, {"fusion_lat": 0.0, "name": "736c24f28ef4fe441ff6b67e73d306eb", "is_disabled": 0, "rental_uris": {"android": "https://dc.lft.to/lastmile_qr_scan", "ios": "https://dc.lft.to/lastmile_qr_scan"}, "fusion_lon": 0.0, "lat": 38.91260833333333, "bike_id": "736c24f28ef4fe441ff6b67e73d306eb", "type": "electric_scooter", "is_reserved": 0, "lon": -77.0387075}, {"fusion_lat": 0.0, "name": "ef0fd4725bd232338ce48484c15fbd78", "is_disabled": 0, "rental_uris": {"android": "https://dc.lft.to/lastmile_qr_scan", "ios": "https://dc.lft.to/lastmile_qr_scan"}, "fusion_lon": 0.0, "lat": 38.906930833333334, "bike_id": "ef0fd4725bd232338ce48484c15fbd78", "type": "electric_scooter", "is_reserved": 0, "lon": -76.99957683333334}, {"fusion_lat": 0.0, "name": "d8f1cbcdb38032e69db6fcc6f1939608", "is_disabled": 0, "rental_uris": {"android": "https://dc.lft.to/lastmile_qr_scan", "ios": "https://dc.lft.to/lastmile_qr_scan"}, "fusion_lon": 0.0, "lat": 38.9046695, "bike_id": "d8f1cbcdb38032e69db6fcc6f1939608", "type": "electric_bike", "is_reserved": 0, "lon": -77.01899533333334}, {"fusion_lat": 0.0, "name": "c6dfb1cf2746990bb083eb322c331e86", "is_disabled": 0, "rental_uris": {"android": "https://dc.lft.to/lastmile_qr_scan", "ios": "https://dc.lft.to/lastmile_qr_scan"}, "fusion_lon": 0.0, "lat": 38.94068816666667, "bike_id": "c6dfb1cf2746990bb083eb322c331e86", "type": "electric_bike", "is_reserved": 0, "lon": -76.99455716666667}, {"fusion_lat": 0.0, "name": "30297a2005008bb4277140f9ae79fa3e", "is_disabled": 0, "rental_uris": {"android": "https://dc.lft.to/lastmile_qr_scan", "ios": "https://dc.lft.to/lastmile_qr_scan"}, "fusion_lon": 0.0, "lat": 38.874674166666665, "bike_id": "30297a2005008bb4277140f9ae79fa3e", "type": "electric_scooter", "is_reserved": 0, "lon": -77.00564516666667}, {"fusion_lat": 0.0, "name": "6f96939176cb287356bf8b8a56f77747", "is_disabled": 0, "rental_uris": {"android": "https://dc.lft.to/lastmile_qr_scan", "ios": "https://dc.lft.to/lastmile_qr_scan"}, "fusion_lon": 0.0, "lat": 38.934635166666666, "bike_id": "6f96939176cb287356bf8b8a56f77747", "type": "electric_scooter", "is_reserved": 0, "lon": -77.0411345}, {"fusion_lat": 0.0, "name": "8a0db290b70bbf49cac673b01f25580b", "is_disabled": 0, "rental_uris": {"android": "https://dc.lft.to/lastmile_qr_scan", "ios": "https://dc.lft.to/lastmile_qr_scan"}, "fusion_lon": 0.0, "lat": 38.88735583333333, "bike_id": "8a0db290b70bbf49cac673b01f25580b", "type": "electric_scooter", "is_reserved": 0, "lon": -77.0034385}, {"fusion_lat": 0.0, "name": "cf1f801bc1edc3cf537c75364abf2cc4", "is_disabled": 0, "rental_uris": {"android": "https://dc.lft.to/lastmile_qr_scan", "ios": "https://dc.lft.to/lastmile_qr_scan"}, "fusion_lon": 0.0, "lat": 38.903191666666665, "bike_id": "cf1f801bc1edc3cf537c75364abf2cc4", "type": "electric_scooter", "is_reserved": 0, "lon": -77.01191733333333}, {"fusion_lat": 0.0, "name": "46d96cfa1a65318a1438b7adebf66c26", "is_disabled": 0, "rental_uris": {"android": "https://dc.lft.to/lastmile_qr_scan", "ios": "https://dc.lft.to/lastmile_qr_scan"}, "fusion_lon": 0.0, "lat": 38.916219, "bike_id": "46d96cfa1a65318a1438b7adebf66c26", "type": "electric_scooter", "is_reserved": 0, "lon": -77.01347816666667}, {"fusion_lat": 0.0, "name": "7fa7b9c39977df9e08d79a9e5120a56e", "is_disabled": 0, "rental_uris": {"android": "https://dc.lft.to/lastmile_qr_scan", "ios": "https://dc.lft.to/lastmile_qr_scan"}, "fusion_lon": 0.0, "lat": 38.907152833333335, "bike_id": "7fa7b9c39977df9e08d79a9e5120a56e", "type": "electric_scooter", "is_reserved": 0, "lon": -77.048103}, {"fusion_lat": 0.0, "name": "6a06858ebbd5d79dfe1329b22e055c9b", "is_disabled": 0, "rental_uris": {"android": "https://dc.lft.to/lastmile_qr_scan", "ios": "https://dc.lft.to/lastmile_qr_scan"}, "fusion_lon": 0.0, "lat": 38.90667216666667, "bike_id": "6a06858ebbd5d79dfe1329b22e055c9b", "type": "electric_scooter", "is_reserved": 0, "lon": -77.03859333333334}, {"fusion_lat": 0.0, "name": "a023f36c009353a020ba8fc5bf1184db", "is_disabled": 0, "rental_uris": {"android": "https://dc.lft.to/lastmile_qr_scan", "ios": "https://dc.lft.to/lastmile_qr_scan"}, "fusion_lon": 0.0, "lat": 38.93135066666667, "bike_id": "a023f36c009353a020ba8fc5bf1184db", "type": "electric_scooter", "is_reserved": 0, "lon": -77.078541}, {"fusion_lat": 0.0, "name": "aa03bab846cdc8d99e40303b0982d2a3", "is_disabled": 0, "rental_uris": {"android": "https://dc.lft.to/lastmile_qr_scan", "ios": "https://dc.lft.to/lastmile_qr_scan"}, "fusion_lon": 0.0, "lat": 38.923335333333334, "bike_id": "aa03bab846cdc8d99e40303b0982d2a3", "type": "electric_scooter", "is_reserved": 0, "lon": -77.0207785}, {"fusion_lat": 0.0, "name": "657e66437d7fbe92851dd58f847505f2", "is_disabled": 0, "rental_uris": {"android": "https://dc.lft.to/lastmile_qr_scan", "ios": "https://dc.lft.to/lastmile_qr_scan"}, "fusion_lon": 0.0, "lat": 38.92523633333333, "bike_id": "657e66437d7fbe92851dd58f847505f2", "type": "electric_scooter", "is_reserved": 0, "lon": -77.0296815}, {"fusion_lat": 0.0, "name": "92f1a18af05b7f0835a7f0d0939d9e05", "is_disabled": 0, "rental_uris": {"android": "https://dc.lft.to/lastmile_qr_scan", "ios": "https://dc.lft.to/lastmile_qr_scan"}, "fusion_lon": 0.0, "lat": 38.9110865, "bike_id": "92f1a18af05b7f0835a7f0d0939d9e05", "type": "electric_scooter", "is_reserved": 0, "lon": -77.01001183333334}, {"fusion_lat": 0.0, "name": "6c15115188d98e3498646ff3d8dc8876", "is_disabled": 0, "rental_uris": {"android": "https://dc.lft.to/lastmile_qr_scan", "ios": "https://dc.lft.to/lastmile_qr_scan"}, "fusion_lon": 0.0, "lat": 38.92011883333333, "bike_id": "6c15115188d98e3498646ff3d8dc8876", "type": "electric_bike", "is_reserved": 0, "lon": -76.990662}, {"fusion_lat": 0.0, "name": "fc1b705e282c4239a3d06be7e5273d4a", "is_disabled": 0, "rental_uris": {"android": "https://dc.lft.to/lastmile_qr_scan", "ios": "https://dc.lft.to/lastmile_qr_scan"}, "fusion_lon": 0.0, "lat": 38.943306166666666, "bike_id": "fc1b705e282c4239a3d06be7e5273d4a", "type": "electric_scooter", "is_reserved": 0, "lon": -77.01553516666667}, {"fusion_lat": 0.0, "name": "5824c53b7aba8740e73a485f68b9c75d", "is_disabled": 0, "rental_uris": {"android": "https://dc.lft.to/lastmile_qr_scan", "ios": "https://dc.lft.to/lastmile_qr_scan"}, "fusion_lon": 0.0, "lat": 38.899692, "bike_id": "5824c53b7aba8740e73a485f68b9c75d", "type": "electric_scooter", "is_reserved": 0, "lon": -77.05269}, {"fusion_lat": 0.0, "name": "9b691a1e9d0bc9d312870d498b999058", "is_disabled": 0, "rental_uris": {"android": "https://dc.lft.to/lastmile_qr_scan", "ios": "https://dc.lft.to/lastmile_qr_scan"}, "fusion_lon": 0.0, "lat": 38.91130783333333, "bike_id": "9b691a1e9d0bc9d312870d498b999058", "type": "electric_scooter", "is_reserved": 0, "lon": -77.036695}, {"fusion_lat": 0.0, "name": "004738f49a7a33daabae1a4c7823e5fe", "is_disabled": 0, "rental_uris": {"android": "https://dc.lft.to/lastmile_qr_scan", "ios": "https://dc.lft.to/lastmile_qr_scan"}, "fusion_lon": 0.0, "lat": 38.89604116666667, "bike_id": "004738f49a7a33daabae1a4c7823e5fe", "type": "electric_scooter", "is_reserved": 0, "lon": -76.98108233333333}, {"fusion_lat": 0.0, "name": "f1540280ebb0844b6b0985b65ac6b6d8", "is_disabled": 0, "rental_uris": {"android": "https://dc.lft.to/lastmile_qr_scan", "ios": "https://dc.lft.to/lastmile_qr_scan"}, "fusion_lon": 0.0, "lat": 38.924747333333336, "bike_id": "f1540280ebb0844b6b0985b65ac6b6d8", "type": "electric_scooter", "is_reserved": 0, "lon": -77.02669516666667}, {"fusion_lat": 0.0, "name": "2fb84fb74b9394e47386e25ebdfb3236", "is_disabled": 0, "rental_uris": {"android": "https://dc.lft.to/lastmile_qr_scan", "ios": "https://dc.lft.to/lastmile_qr_scan"}, "fusion_lon": 0.0, "lat": 38.89016633333333, "bike_id": "2fb84fb74b9394e47386e25ebdfb3236", "type": "electric_scooter", "is_reserved": 0, "lon": -76.9373765}, {"fusion_lat": 0.0, "name": "2b361fb02f8e0c8e0be659447c5ee117", "is_disabled": 0, "rental_uris": {"android": "https://dc.lft.to/lastmile_qr_scan", "ios": "https://dc.lft.to/lastmile_qr_scan"}, "fusion_lon": 0.0, "lat": 38.90188216666667, "bike_id": "2b361fb02f8e0c8e0be659447c5ee117", "type": "electric_scooter", "is_reserved": 0, "lon": -77.050488}, {"fusion_lat": 0.0, "name": "0192bb6bfaf932a10404b17076227b26", "is_disabled": 0, "rental_uris": {"android": "https://dc.lft.to/lastmile_qr_scan", "ios": "https://dc.lft.to/lastmile_qr_scan"}, "fusion_lon": 0.0, "lat": 38.911085166666666, "bike_id": "0192bb6bfaf932a10404b17076227b26", "type": "electric_scooter", "is_reserved": 0, "lon": -77.01147383333333}, {"fusion_lat": 0.0, "name": "5f9e3b5fdb8c32453f5a9856b2e3ea8c", "is_disabled": 0, "rental_uris": {"android": "https://dc.lft.to/lastmile_qr_scan", "ios": "https://dc.lft.to/lastmile_qr_scan"}, "fusion_lon": 0.0, "lat": 38.898285, "bike_id": "5f9e3b5fdb8c32453f5a9856b2e3ea8c", "type": "electric_scooter", "is_reserved": 0, "lon": -77.0298405}, {"fusion_lat": 0.0, "name": "fe8d56c47abd8130e86ddefe2b02cb14", "is_disabled": 0, "rental_uris": {"android": "https://dc.lft.to/lastmile_qr_scan", "ios": "https://dc.lft.to/lastmile_qr_scan"}, "fusion_lon": 0.0, "lat": 38.91889416666667, "bike_id": "fe8d56c47abd8130e86ddefe2b02cb14", "type": "electric_scooter", "is_reserved": 0, "lon": -77.03492833333334}, {"fusion_lat": 0.0, "name": "c12f028a5a896d1128bdf697026e05a7", "is_disabled": 0, "rental_uris": {"android": "https://dc.lft.to/lastmile_qr_scan", "ios": "https://dc.lft.to/lastmile_qr_scan"}, "fusion_lon": 0.0, "lat": 38.87176816666667, "bike_id": "c12f028a5a896d1128bdf697026e05a7", "type": "electric_scooter", "is_reserved": 0, "lon": -77.00914}, {"fusion_lat": 0.0, "name": "c1d37edb1d5924a6fae03b883b1d6f6a", "is_disabled": 0, "rental_uris": {"android": "https://dc.lft.to/lastmile_qr_scan", "ios": "https://dc.lft.to/lastmile_qr_scan"}, "fusion_lon": 0.0, "lat": 38.928658, "bike_id": "c1d37edb1d5924a6fae03b883b1d6f6a", "type": "electric_scooter", "is_reserved": 0, "lon": -77.02725883333333}, {"fusion_lat": 0.0, "name": "a58b9b0ffc3df0450a9fca8501462a5b", "is_disabled": 0, "rental_uris": {"android": "https://dc.lft.to/lastmile_qr_scan", "ios": "https://dc.lft.to/lastmile_qr_scan"}, "fusion_lon": 0.0, "lat": 38.90456483333333, "bike_id": "a58b9b0ffc3df0450a9fca8501462a5b", "type": "electric_scooter", "is_reserved": 0, "lon": -77.05324933333333}, {"fusion_lat": 0.0, "name": "b1ef9ae49690c3beff9158998d859ebc", "is_disabled": 0, "rental_uris": {"android": "https://dc.lft.to/lastmile_qr_scan", "ios": "https://dc.lft.to/lastmile_qr_scan"}, "fusion_lon": 0.0, "lat": 38.882423333333335, "bike_id": "b1ef9ae49690c3beff9158998d859ebc", "type": "electric_scooter", "is_reserved": 0, "lon": -77.0035735}, {"fusion_lat": 0.0, "name": "0e9ae24e3add6372c1107fc7cdc1b219", "is_disabled": 0, "rental_uris": {"android": "https://dc.lft.to/lastmile_qr_scan", "ios": "https://dc.lft.to/lastmile_qr_scan"}, "fusion_lon": 0.0, "lat": 38.966755666666664, "bike_id": "0e9ae24e3add6372c1107fc7cdc1b219", "type": "electric_bike", "is_reserved": 0, "lon": -77.02168}, {"fusion_lat": 0.0, "name": "210cb2c8cbd313c9fc7c58341f0816f5", "is_disabled": 0, "rental_uris": {"android": "https://dc.lft.to/lastmile_qr_scan", "ios": "https://dc.lft.to/lastmile_qr_scan"}, "fusion_lon": 0.0, "lat": 38.8948805, "bike_id": "210cb2c8cbd313c9fc7c58341f0816f5", "type": "electric_scooter", "is_reserved": 0, "lon": -77.0110735}, {"fusion_lat": 0.0, "name": "d96cd2dee07966cdecfffbd103fb0d6b", "is_disabled": 0, "rental_uris": {"android": "https://dc.lft.to/lastmile_qr_scan", "ios": "https://dc.lft.to/lastmile_qr_scan"}, "fusion_lon": 0.0, "lat": 38.922113833333334, "bike_id": "d96cd2dee07966cdecfffbd103fb0d6b", "type": "electric_scooter", "is_reserved": 0, "lon": -77.0201895}, {"fusion_lat": 0.0, "name": "a46fa7755f6273b212dae6ba165d9c55", "is_disabled": 0, "rental_uris": {"android": "https://dc.lft.to/lastmile_qr_scan", "ios": "https://dc.lft.to/lastmile_qr_scan"}, "fusion_lon": 0.0, "lat": 38.9207135, "bike_id": "a46fa7755f6273b212dae6ba165d9c55", "type": "electric_scooter", "is_reserved": 0, "lon": -77.02281783333333}, {"fusion_lat": 0.0, "name": "22e41ce67338d5a91271248eba20cf18", "is_disabled": 0, "rental_uris": {"android": "https://dc.lft.to/lastmile_qr_scan", "ios": "https://dc.lft.to/lastmile_qr_scan"}, "fusion_lon": 0.0, "lat": 38.887220666666664, "bike_id": "22e41ce67338d5a91271248eba20cf18", "type": "electric_scooter", "is_reserved": 0, "lon": -77.02582716666667}, {"fusion_lat": 0.0, "name": "236e05b11e2f983a2a76945aa52db09a", "is_disabled": 0, "rental_uris": {"android": "https://dc.lft.to/lastmile_qr_scan", "ios": "https://dc.lft.to/lastmile_qr_scan"}, "fusion_lon": 0.0, "lat": 38.931853333333336, "bike_id": "236e05b11e2f983a2a76945aa52db09a", "type": "electric_scooter", "is_reserved": 0, "lon": -77.04301983333333}, {"fusion_lat": 0.0, "name": "9017fb230d5481351d718c9457b43c6a", "is_disabled": 0, "rental_uris": {"android": "https://dc.lft.to/lastmile_qr_scan", "ios": "https://dc.lft.to/lastmile_qr_scan"}, "fusion_lon": 0.0, "lat": 38.8901355, "bike_id": "9017fb230d5481351d718c9457b43c6a", "type": "electric_scooter", "is_reserved": 0, "lon": -76.937381}, {"fusion_lat": 0.0, "name": "17068fea347a19e7d45dbf489a61562f", "is_disabled": 0, "rental_uris": {"android": "https://dc.lft.to/lastmile_qr_scan", "ios": "https://dc.lft.to/lastmile_qr_scan"}, "fusion_lon": 0.0, "lat": 38.946298666666664, "bike_id": "17068fea347a19e7d45dbf489a61562f", "type": "electric_scooter", "is_reserved": 0, "lon": -77.01846933333333}, {"fusion_lat": 0.0, "name": "1e4e110597e3ba61663fb9e06abe9e7a", "is_disabled": 0, "rental_uris": {"android": "https://dc.lft.to/lastmile_qr_scan", "ios": "https://dc.lft.to/lastmile_qr_scan"}, "fusion_lon": 0.0, "lat": 38.900651833333335, "bike_id": "1e4e110597e3ba61663fb9e06abe9e7a", "type": "electric_scooter", "is_reserved": 0, "lon": -77.00219}, {"fusion_lat": 0.0, "name": "c8c8796afe1ab3263f168a9d9ed0a4ec", "is_disabled": 0, "rental_uris": {"android": "https://dc.lft.to/lastmile_qr_scan", "ios": "https://dc.lft.to/lastmile_qr_scan"}, "fusion_lon": 0.0, "lat": 38.8911345, "bike_id": "c8c8796afe1ab3263f168a9d9ed0a4ec", "type": "electric_scooter", "is_reserved": 0, "lon": -76.94380916666667}, {"fusion_lat": 0.0, "name": "cc6450be192da32929ebaee3fe5473df", "is_disabled": 0, "rental_uris": {"android": "https://dc.lft.to/lastmile_qr_scan", "ios": "https://dc.lft.to/lastmile_qr_scan"}, "fusion_lon": 0.0, "lat": 38.8970755, "bike_id": "cc6450be192da32929ebaee3fe5473df", "type": "electric_scooter", "is_reserved": 0, "lon": -77.0131625}, {"fusion_lat": 0.0, "name": "728446504eeec68d7ccb460adca7183e", "is_disabled": 0, "rental_uris": {"android": "https://dc.lft.to/lastmile_qr_scan", "ios": "https://dc.lft.to/lastmile_qr_scan"}, "fusion_lon": 0.0, "lat": 38.7827055, "bike_id": "728446504eeec68d7ccb460adca7183e", "type": "electric_bike", "is_reserved": 0, "lon": -77.0160425}, {"fusion_lat": 0.0, "name": "362b0577cc6b27bbeab0851bc4c75db8", "is_disabled": 0, "rental_uris": {"android": "https://dc.lft.to/lastmile_qr_scan", "ios": "https://dc.lft.to/lastmile_qr_scan"}, "fusion_lon": 0.0, "lat": 38.90271333333333, "bike_id": "362b0577cc6b27bbeab0851bc4c75db8", "type": "electric_scooter", "is_reserved": 0, "lon": -77.05329266666666}, {"fusion_lat": 0.0, "name": "84ec00709bef9a66b0d36bb78c2a89a2", "is_disabled": 0, "rental_uris": {"android": "https://dc.lft.to/lastmile_qr_scan", "ios": "https://dc.lft.to/lastmile_qr_scan"}, "fusion_lon": 0.0, "lat": 38.907865666666666, "bike_id": "84ec00709bef9a66b0d36bb78c2a89a2", "type": "electric_scooter", "is_reserved": 0, "lon": -77.03858083333333}, {"fusion_lat": 0.0, "name": "d58c6743909eb182f373873f7906876d", "is_disabled": 0, "rental_uris": {"android": "https://dc.lft.to/lastmile_qr_scan", "ios": "https://dc.lft.to/lastmile_qr_scan"}, "fusion_lon": 0.0, "lat": 38.91264833333334, "bike_id": "d58c6743909eb182f373873f7906876d", "type": "electric_scooter", "is_reserved": 0, "lon": -77.0387065}, {"fusion_lat": 0.0, "name": "c89cb1a8aa2e1be53a07cb040ca47d6a", "is_disabled": 0, "rental_uris": {"android": "https://dc.lft.to/lastmile_qr_scan", "ios": "https://dc.lft.to/lastmile_qr_scan"}, "fusion_lon": 0.0, "lat": 38.924346166666666, "bike_id": "c89cb1a8aa2e1be53a07cb040ca47d6a", "type": "electric_scooter", "is_reserved": 0, "lon": -77.04457633333334}, {"fusion_lat": 0.0, "name": "0105b27d336a84036f88dd3e715ed3bb", "is_disabled": 0, "rental_uris": {"android": "https://dc.lft.to/lastmile_qr_scan", "ios": "https://dc.lft.to/lastmile_qr_scan"}, "fusion_lon": 0.0, "lat": 38.926906, "bike_id": "0105b27d336a84036f88dd3e715ed3bb", "type": "electric_scooter", "is_reserved": 0, "lon": -77.02782966666666}, {"fusion_lat": 0.0, "name": "c84bce08f278519e8f5531d0a13d8c7a", "is_disabled": 0, "rental_uris": {"android": "https://dc.lft.to/lastmile_qr_scan", "ios": "https://dc.lft.to/lastmile_qr_scan"}, "fusion_lon": 0.0, "lat": 38.90507433333333, "bike_id": "c84bce08f278519e8f5531d0a13d8c7a", "type": "electric_scooter", "is_reserved": 0, "lon": -77.0317795}, {"fusion_lat": 0.0, "name": "058a703bb539846c1174eff3e80721a2", "is_disabled": 0, "rental_uris": {"android": "https://dc.lft.to/lastmile_qr_scan", "ios": "https://dc.lft.to/lastmile_qr_scan"}, "fusion_lon": 0.0, "lat": 38.96180916666667, "bike_id": "058a703bb539846c1174eff3e80721a2", "type": "electric_bike", "is_reserved": 0, "lon": -77.052675}, {"fusion_lat": 0.0, "name": "157d07183c257d18e06837a9e5be8c23", "is_disabled": 0, "rental_uris": {"android": "https://dc.lft.to/lastmile_qr_scan", "ios": "https://dc.lft.to/lastmile_qr_scan"}, "fusion_lon": 0.0, "lat": 38.92068666666667, "bike_id": "157d07183c257d18e06837a9e5be8c23", "type": "electric_scooter", "is_reserved": 0, "lon": -77.01475366666666}, {"fusion_lat": 0.0, "name": "8b6e8df4b4cd294306b2bd9877caed8c", "is_disabled": 0, "rental_uris": {"android": "https://dc.lft.to/lastmile_qr_scan", "ios": "https://dc.lft.to/lastmile_qr_scan"}, "fusion_lon": 0.0, "lat": 38.89886116666667, "bike_id": "8b6e8df4b4cd294306b2bd9877caed8c", "type": "electric_scooter", "is_reserved": 0, "lon": -77.03322133333333}, {"fusion_lat": 0.0, "name": "aa230292cae3c1d2d3df6467d93f09c9", "is_disabled": 0, "rental_uris": {"android": "https://dc.lft.to/lastmile_qr_scan", "ios": "https://dc.lft.to/lastmile_qr_scan"}, "fusion_lon": 0.0, "lat": 38.97286, "bike_id": "aa230292cae3c1d2d3df6467d93f09c9", "type": "electric_scooter", "is_reserved": 0, "lon": -77.01160316666666}, {"fusion_lat": 0.0, "name": "f44a5d07f1dab1648d460731ea895237", "is_disabled": 0, "rental_uris": {"android": "https://dc.lft.to/lastmile_qr_scan", "ios": "https://dc.lft.to/lastmile_qr_scan"}, "fusion_lon": 0.0, "lat": 38.854472, "bike_id": "f44a5d07f1dab1648d460731ea895237", "type": "electric_scooter", "is_reserved": 0, "lon": -76.98578416666666}, {"fusion_lat": 0.0, "name": "a9e3b226f54b98b00be85cbbcfb739ff", "is_disabled": 0, "rental_uris": {"android": "https://dc.lft.to/lastmile_qr_scan", "ios": "https://dc.lft.to/lastmile_qr_scan"}, "fusion_lon": 0.0, "lat": 38.92039116666667, "bike_id": "a9e3b226f54b98b00be85cbbcfb739ff", "type": "electric_scooter", "is_reserved": 0, "lon": -77.01796083333333}, {"fusion_lat": 0.0, "name": "b5ce5817fedbca8d80a35a00ac5bbe24", "is_disabled": 0, "rental_uris": {"android": "https://dc.lft.to/lastmile_qr_scan", "ios": "https://dc.lft.to/lastmile_qr_scan"}, "fusion_lon": 0.0, "lat": 38.9132635, "bike_id": "b5ce5817fedbca8d80a35a00ac5bbe24", "type": "electric_scooter", "is_reserved": 0, "lon": -77.0319245}, {"fusion_lat": 0.0, "name": "d71b9fd15f2b27c0dbec40b1fff58a23", "is_disabled": 0, "rental_uris": {"android": "https://dc.lft.to/lastmile_qr_scan", "ios": "https://dc.lft.to/lastmile_qr_scan"}, "fusion_lon": 0.0, "lat": 38.913345, "bike_id": "d71b9fd15f2b27c0dbec40b1fff58a23", "type": "electric_scooter", "is_reserved": 0, "lon": -77.042784}, {"fusion_lat": 0.0, "name": "c78b84088dddbe0b1beaa64517ef18a8", "is_disabled": 0, "rental_uris": {"android": "https://dc.lft.to/lastmile_qr_scan", "ios": "https://dc.lft.to/lastmile_qr_scan"}, "fusion_lon": 0.0, "lat": 38.92810433333333, "bike_id": "c78b84088dddbe0b1beaa64517ef18a8", "type": "electric_scooter", "is_reserved": 0, "lon": -77.0436305}, {"fusion_lat": 0.0, "name": "04cd4001560cbfaad5ccfd89a23a791c", "is_disabled": 0, "rental_uris": {"android": "https://dc.lft.to/lastmile_qr_scan", "ios": "https://dc.lft.to/lastmile_qr_scan"}, "fusion_lon": 0.0, "lat": 38.927392, "bike_id": "04cd4001560cbfaad5ccfd89a23a791c", "type": "electric_bike", "is_reserved": 0, "lon": -76.993607}, {"fusion_lat": 0.0, "name": "8711253b44cf1bacee3269dd7bd85da1", "is_disabled": 0, "rental_uris": {"android": "https://dc.lft.to/lastmile_qr_scan", "ios": "https://dc.lft.to/lastmile_qr_scan"}, "fusion_lon": 0.0, "lat": 38.908523, "bike_id": "8711253b44cf1bacee3269dd7bd85da1", "type": "electric_scooter", "is_reserved": 0, "lon": -76.99762033333333}, {"fusion_lat": 0.0, "name": "beb262f092eaa72ed77cc5bea0d2301a", "is_disabled": 0, "rental_uris": {"android": "https://dc.lft.to/lastmile_qr_scan", "ios": "https://dc.lft.to/lastmile_qr_scan"}, "fusion_lon": 0.0, "lat": 38.906818, "bike_id": "beb262f092eaa72ed77cc5bea0d2301a", "type": "electric_bike", "is_reserved": 0, "lon": -76.944923}, {"fusion_lat": 0.0, "name": "6912fc76a534f7eb669ebc8f0fb77c57", "is_disabled": 0, "rental_uris": {"android": "https://dc.lft.to/lastmile_qr_scan", "ios": "https://dc.lft.to/lastmile_qr_scan"}, "fusion_lon": 0.0, "lat": 38.901493333333335, "bike_id": "6912fc76a534f7eb669ebc8f0fb77c57", "type": "electric_scooter", "is_reserved": 0, "lon": -76.93069283333334}, {"fusion_lat": 0.0, "name": "23fed28e765eae3caae8dd41343aa3a7", "is_disabled": 0, "rental_uris": {"android": "https://dc.lft.to/lastmile_qr_scan", "ios": "https://dc.lft.to/lastmile_qr_scan"}, "fusion_lon": 0.0, "lat": 38.922296833333334, "bike_id": "23fed28e765eae3caae8dd41343aa3a7", "type": "electric_scooter", "is_reserved": 0, "lon": -77.04244916666667}, {"fusion_lat": 0.0, "name": "4db7be68e058c0685bad72ee7c13cf0b", "is_disabled": 0, "rental_uris": {"android": "https://dc.lft.to/lastmile_qr_scan", "ios": "https://dc.lft.to/lastmile_qr_scan"}, "fusion_lon": 0.0, "lat": 38.961265166666664, "bike_id": "4db7be68e058c0685bad72ee7c13cf0b", "type": "electric_bike", "is_reserved": 0, "lon": -77.03271583333333}, {"fusion_lat": 0.0, "name": "7f53463bff6bb8ac33dd35596b6e0ee1", "is_disabled": 0, "rental_uris": {"android": "https://dc.lft.to/lastmile_qr_scan", "ios": "https://dc.lft.to/lastmile_qr_scan"}, "fusion_lon": 0.0, "lat": 38.9231765, "bike_id": "7f53463bff6bb8ac33dd35596b6e0ee1", "type": "electric_scooter", "is_reserved": 0, "lon": -77.041302}, {"fusion_lat": 0.0, "name": "a564093ae23cfa6519610f38279fafb9", "is_disabled": 0, "rental_uris": {"android": "https://dc.lft.to/lastmile_qr_scan", "ios": "https://dc.lft.to/lastmile_qr_scan"}, "fusion_lon": 0.0, "lat": 38.873744333333335, "bike_id": "a564093ae23cfa6519610f38279fafb9", "type": "electric_bike", "is_reserved": 0, "lon": -77.11802166666666}, {"fusion_lat": 0.0, "name": "e6d840e0342398749d9b7935b1c14123", "is_disabled": 0, "rental_uris": {"android": "https://dc.lft.to/lastmile_qr_scan", "ios": "https://dc.lft.to/lastmile_qr_scan"}, "fusion_lon": 0.0, "lat": 39.014170666666665, "bike_id": "e6d840e0342398749d9b7935b1c14123", "type": "electric_bike", "is_reserved": 0, "lon": -77.04498}, {"fusion_lat": 0.0, "name": "9038239f63e16a50592ab72d52bfb662", "is_disabled": 0, "rental_uris": {"android": "https://dc.lft.to/lastmile_qr_scan", "ios": "https://dc.lft.to/lastmile_qr_scan"}, "fusion_lon": 0.0, "lat": 38.923830833333334, "bike_id": "9038239f63e16a50592ab72d52bfb662", "type": "electric_scooter", "is_reserved": 0, "lon": -77.0411205}, {"fusion_lat": 0.0, "name": "0f4524656f8e26c647e954762d9539b8", "is_disabled": 0, "rental_uris": {"android": "https://dc.lft.to/lastmile_qr_scan", "ios": "https://dc.lft.to/lastmile_qr_scan"}, "fusion_lon": 0.0, "lat": 38.911096, "bike_id": "0f4524656f8e26c647e954762d9539b8", "type": "electric_scooter", "is_reserved": 0, "lon": -77.021048}, {"fusion_lat": 0.0, "name": "2c6e9fdf6573b2831a378b7394a4bccc", "is_disabled": 0, "rental_uris": {"android": "https://dc.lft.to/lastmile_qr_scan", "ios": "https://dc.lft.to/lastmile_qr_scan"}, "fusion_lon": 0.0, "lat": 38.89560683333333, "bike_id": "2c6e9fdf6573b2831a378b7394a4bccc", "type": "electric_scooter", "is_reserved": 0, "lon": -76.9943135}, {"fusion_lat": 0.0, "name": "438059ac96d93297b061094e37ed50b0", "is_disabled": 0, "rental_uris": {"android": "https://dc.lft.to/lastmile_qr_scan", "ios": "https://dc.lft.to/lastmile_qr_scan"}, "fusion_lon": 0.0, "lat": 38.88209833333333, "bike_id": "438059ac96d93297b061094e37ed50b0", "type": "electric_bike", "is_reserved": 0, "lon": -76.99269316666667}, {"fusion_lat": 0.0, "name": "7ca3987c82bf96c663d5ebaefcebf475", "is_disabled": 0, "rental_uris": {"android": "https://dc.lft.to/lastmile_qr_scan", "ios": "https://dc.lft.to/lastmile_qr_scan"}, "fusion_lon": 0.0, "lat": 38.8766855, "bike_id": "7ca3987c82bf96c663d5ebaefcebf475", "type": "electric_scooter", "is_reserved": 0, "lon": -77.01757883333333}, {"fusion_lat": 0.0, "name": "4a2f47a94da684baedf7be040dbabb1b", "is_disabled": 0, "rental_uris": {"android": "https://dc.lft.to/lastmile_qr_scan", "ios": "https://dc.lft.to/lastmile_qr_scan"}, "fusion_lon": 0.0, "lat": 38.89874183333333, "bike_id": "4a2f47a94da684baedf7be040dbabb1b", "type": "electric_bike", "is_reserved": 0, "lon": -77.11331683333333}, {"fusion_lat": 0.0, "name": "5d289c87d48456b42ea9dbab25db111f", "is_disabled": 0, "rental_uris": {"android": "https://dc.lft.to/lastmile_qr_scan", "ios": "https://dc.lft.to/lastmile_qr_scan"}, "fusion_lon": 0.0, "lat": 38.922005666666664, "bike_id": "5d289c87d48456b42ea9dbab25db111f", "type": "electric_scooter", "is_reserved": 0, "lon": -77.08086916666667}, {"fusion_lat": 0.0, "name": "d7597fb88338d968dd6a03560dc91d31", "is_disabled": 0, "rental_uris": {"android": "https://dc.lft.to/lastmile_qr_scan", "ios": "https://dc.lft.to/lastmile_qr_scan"}, "fusion_lon": 0.0, "lat": 38.915506666666666, "bike_id": "d7597fb88338d968dd6a03560dc91d31", "type": "electric_scooter", "is_reserved": 0, "lon": -77.03125116666666}, {"fusion_lat": 0.0, "name": "78b84dfbb00ef64be128f28e9040bf19", "is_disabled": 0, "rental_uris": {"android": "https://dc.lft.to/lastmile_qr_scan", "ios": "https://dc.lft.to/lastmile_qr_scan"}, "fusion_lon": 0.0, "lat": 38.914463166666664, "bike_id": "78b84dfbb00ef64be128f28e9040bf19", "type": "electric_scooter", "is_reserved": 0, "lon": -77.0449875}, {"fusion_lat": 0.0, "name": "ccae35db2d9d74fa81f88e2019fda5b1", "is_disabled": 0, "rental_uris": {"android": "https://dc.lft.to/lastmile_qr_scan", "ios": "https://dc.lft.to/lastmile_qr_scan"}, "fusion_lon": 0.0, "lat": 38.90499333333333, "bike_id": "ccae35db2d9d74fa81f88e2019fda5b1", "type": "electric_scooter", "is_reserved": 0, "lon": -77.04647083333333}, {"fusion_lat": 0.0, "name": "11464eba8bf8acebadfb3c2dc9b4b473", "is_disabled": 0, "rental_uris": {"android": "https://dc.lft.to/lastmile_qr_scan", "ios": "https://dc.lft.to/lastmile_qr_scan"}, "fusion_lon": 0.0, "lat": 38.950781, "bike_id": "11464eba8bf8acebadfb3c2dc9b4b473", "type": "electric_bike", "is_reserved": 0, "lon": -77.01195616666666}, {"fusion_lat": 0.0, "name": "715a31fb691aeda6d20672176c3a8011", "is_disabled": 0, "rental_uris": {"android": "https://dc.lft.to/lastmile_qr_scan", "ios": "https://dc.lft.to/lastmile_qr_scan"}, "fusion_lon": 0.0, "lat": 38.892956, "bike_id": "715a31fb691aeda6d20672176c3a8011", "type": "electric_scooter", "is_reserved": 0, "lon": -77.0487635}, {"fusion_lat": 0.0, "name": "89c86bf65115778d8f2ed79cf6e9927d", "is_disabled": 0, "rental_uris": {"android": "https://dc.lft.to/lastmile_qr_scan", "ios": "https://dc.lft.to/lastmile_qr_scan"}, "fusion_lon": 0.0, "lat": 38.889890666666666, "bike_id": "89c86bf65115778d8f2ed79cf6e9927d", "type": "electric_scooter", "is_reserved": 0, "lon": -76.91418333333333}, {"fusion_lat": 0.0, "name": "37587a9a39a94f6035684bf1abfb9b10", "is_disabled": 0, "rental_uris": {"android": "https://dc.lft.to/lastmile_qr_scan", "ios": "https://dc.lft.to/lastmile_qr_scan"}, "fusion_lon": 0.0, "lat": 38.920438833333336, "bike_id": "37587a9a39a94f6035684bf1abfb9b10", "type": "electric_scooter", "is_reserved": 0, "lon": -77.017929}, {"fusion_lat": 0.0, "name": "bad5c10235b9673342c0cd8bb1a4188b", "is_disabled": 0, "rental_uris": {"android": "https://dc.lft.to/lastmile_qr_scan", "ios": "https://dc.lft.to/lastmile_qr_scan"}, "fusion_lon": 0.0, "lat": 38.9084605, "bike_id": "bad5c10235b9673342c0cd8bb1a4188b", "type": "electric_scooter", "is_reserved": 0, "lon": -77.04669633333333}, {"fusion_lat": 0.0, "name": "a0cf99b06c223e0c4cb5a0148b928c84", "is_disabled": 0, "rental_uris": {"android": "https://dc.lft.to/lastmile_qr_scan", "ios": "https://dc.lft.to/lastmile_qr_scan"}, "fusion_lon": 0.0, "lat": 38.958003166666664, "bike_id": "a0cf99b06c223e0c4cb5a0148b928c84", "type": "electric_bike", "is_reserved": 0, "lon": -76.96044366666666}, {"fusion_lat": 0.0, "name": "a63b618b8213ebfde0b33a4de8c4d706", "is_disabled": 0, "rental_uris": {"android": "https://dc.lft.to/lastmile_qr_scan", "ios": "https://dc.lft.to/lastmile_qr_scan"}, "fusion_lon": 0.0, "lat": 38.944033, "bike_id": "a63b618b8213ebfde0b33a4de8c4d706", "type": "electric_scooter", "is_reserved": 0, "lon": -77.03862666666667}, {"fusion_lat": 0.0, "name": "2d422f783700c436e3978f074856a304", "is_disabled": 0, "rental_uris": {"android": "https://dc.lft.to/lastmile_qr_scan", "ios": "https://dc.lft.to/lastmile_qr_scan"}, "fusion_lon": 0.0, "lat": 38.92557266666667, "bike_id": "2d422f783700c436e3978f074856a304", "type": "electric_scooter", "is_reserved": 0, "lon": -77.03335683333333}, {"fusion_lat": 0.0, "name": "6b0ab2db464f6e02be45c617767024fc", "is_disabled": 0, "rental_uris": {"android": "https://dc.lft.to/lastmile_qr_scan", "ios": "https://dc.lft.to/lastmile_qr_scan"}, "fusion_lon": 0.0, "lat": 38.88016566666667, "bike_id": "6b0ab2db464f6e02be45c617767024fc", "type": "electric_scooter", "is_reserved": 0, "lon": -76.93112216666667}, {"fusion_lat": 0.0, "name": "e1021a0c26b1240c118e165915f9de0c", "is_disabled": 0, "rental_uris": {"android": "https://dc.lft.to/lastmile_qr_scan", "ios": "https://dc.lft.to/lastmile_qr_scan"}, "fusion_lon": 0.0, "lat": 38.89910666666667, "bike_id": "e1021a0c26b1240c118e165915f9de0c", "type": "electric_scooter", "is_reserved": 0, "lon": -76.9455805}, {"fusion_lat": 0.0, "name": "7d73c618d4f994667828be8d49a35dc5", "is_disabled": 0, "rental_uris": {"android": "https://dc.lft.to/lastmile_qr_scan", "ios": "https://dc.lft.to/lastmile_qr_scan"}, "fusion_lon": 0.0, "lat": 38.8245985, "bike_id": "7d73c618d4f994667828be8d49a35dc5", "type": "electric_bike", "is_reserved": 0, "lon": -77.007927}, {"fusion_lat": 0.0, "name": "575227aef632236e892058a9f3e52f48", "is_disabled": 0, "rental_uris": {"android": "https://dc.lft.to/lastmile_qr_scan", "ios": "https://dc.lft.to/lastmile_qr_scan"}, "fusion_lon": 0.0, "lat": 38.9296115, "bike_id": "575227aef632236e892058a9f3e52f48", "type": "electric_scooter", "is_reserved": 0, "lon": -77.0196005}, {"fusion_lat": 0.0, "name": "79e4404a64f4eb72d5b35cd17a109973", "is_disabled": 0, "rental_uris": {"android": "https://dc.lft.to/lastmile_qr_scan", "ios": "https://dc.lft.to/lastmile_qr_scan"}, "fusion_lon": 0.0, "lat": 38.89223033333333, "bike_id": "79e4404a64f4eb72d5b35cd17a109973", "type": "electric_scooter", "is_reserved": 0, "lon": -77.032173}, {"fusion_lat": 0.0, "name": "38a5c5f4d4a74e4eef5cae28f8acae31", "is_disabled": 0, "rental_uris": {"android": "https://dc.lft.to/lastmile_qr_scan", "ios": "https://dc.lft.to/lastmile_qr_scan"}, "fusion_lon": 0.0, "lat": 38.91077766666667, "bike_id": "38a5c5f4d4a74e4eef5cae28f8acae31", "type": "electric_scooter", "is_reserved": 0, "lon": -77.0649865}, {"fusion_lat": 0.0, "name": "a0b3d22864ab5a6de729c1d397b03644", "is_disabled": 0, "rental_uris": {"android": "https://dc.lft.to/lastmile_qr_scan", "ios": "https://dc.lft.to/lastmile_qr_scan"}, "fusion_lon": 0.0, "lat": 38.88767983333334, "bike_id": "a0b3d22864ab5a6de729c1d397b03644", "type": "electric_scooter", "is_reserved": 0, "lon": -76.97756016666666}, {"fusion_lat": 0.0, "name": "726c1cec83ddc284264a3a80241d0b25", "is_disabled": 0, "rental_uris": {"android": "https://dc.lft.to/lastmile_qr_scan", "ios": "https://dc.lft.to/lastmile_qr_scan"}, "fusion_lon": 0.0, "lat": 38.89229266666667, "bike_id": "726c1cec83ddc284264a3a80241d0b25", "type": "electric_scooter", "is_reserved": 0, "lon": -77.02410833333333}, {"fusion_lat": 0.0, "name": "07a03d57b688e7e65471537242a50702", "is_disabled": 0, "rental_uris": {"android": "https://dc.lft.to/lastmile_qr_scan", "ios": "https://dc.lft.to/lastmile_qr_scan"}, "fusion_lon": 0.0, "lat": 38.90944116666667, "bike_id": "07a03d57b688e7e65471537242a50702", "type": "electric_scooter", "is_reserved": 0, "lon": -77.04865883333333}, {"fusion_lat": 0.0, "name": "35e4bd0e29af603ed4bc7674fab9f8dd", "is_disabled": 0, "rental_uris": {"android": "https://dc.lft.to/lastmile_qr_scan", "ios": "https://dc.lft.to/lastmile_qr_scan"}, "fusion_lon": 0.0, "lat": 38.90725333333334, "bike_id": "35e4bd0e29af603ed4bc7674fab9f8dd", "type": "electric_scooter", "is_reserved": 0, "lon": -77.0317975}, {"fusion_lat": 0.0, "name": "0a9a8467741819973eb9ab58477b804e", "is_disabled": 0, "rental_uris": {"android": "https://dc.lft.to/lastmile_qr_scan", "ios": "https://dc.lft.to/lastmile_qr_scan"}, "fusion_lon": 0.0, "lat": 38.9140155, "bike_id": "0a9a8467741819973eb9ab58477b804e", "type": "electric_scooter", "is_reserved": 0, "lon": -77.008335}, {"fusion_lat": 0.0, "name": "e956f10a96bc78bc839fe18cbda6aaf0", "is_disabled": 0, "rental_uris": {"android": "https://dc.lft.to/lastmile_qr_scan", "ios": "https://dc.lft.to/lastmile_qr_scan"}, "fusion_lon": 0.0, "lat": 38.904587166666666, "bike_id": "e956f10a96bc78bc839fe18cbda6aaf0", "type": "electric_scooter", "is_reserved": 0, "lon": -77.00713633333334}, {"fusion_lat": 0.0, "name": "f8629a0e0b4eaaa054a059b02d8a51cf", "is_disabled": 0, "rental_uris": {"android": "https://dc.lft.to/lastmile_qr_scan", "ios": "https://dc.lft.to/lastmile_qr_scan"}, "fusion_lon": 0.0, "lat": 38.842971, "bike_id": "f8629a0e0b4eaaa054a059b02d8a51cf", "type": "electric_bike", "is_reserved": 0, "lon": -77.10865783333334}, {"fusion_lat": 0.0, "name": "427174e1457cc2fa1113d53de601d3f1", "is_disabled": 0, "rental_uris": {"android": "https://dc.lft.to/lastmile_qr_scan", "ios": "https://dc.lft.to/lastmile_qr_scan"}, "fusion_lon": 0.0, "lat": 38.9190705, "bike_id": "427174e1457cc2fa1113d53de601d3f1", "type": "electric_scooter", "is_reserved": 0, "lon": -77.0136155}, {"fusion_lat": 0.0, "name": "733ddb92cb491880a226a940fa269b71", "is_disabled": 0, "rental_uris": {"android": "https://dc.lft.to/lastmile_qr_scan", "ios": "https://dc.lft.to/lastmile_qr_scan"}, "fusion_lon": 0.0, "lat": 38.91796933333333, "bike_id": "733ddb92cb491880a226a940fa269b71", "type": "electric_scooter", "is_reserved": 0, "lon": -77.03433533333333}, {"fusion_lat": 0.0, "name": "08776f9469da4a7cabefe5d3189d68cf", "is_disabled": 0, "rental_uris": {"android": "https://dc.lft.to/lastmile_qr_scan", "ios": "https://dc.lft.to/lastmile_qr_scan"}, "fusion_lon": 0.0, "lat": 38.913383833333334, "bike_id": "08776f9469da4a7cabefe5d3189d68cf", "type": "electric_scooter", "is_reserved": 0, "lon": -77.047835}, {"fusion_lat": 0.0, "name": "d1058b9d51d185ed10fdf06a35a31325", "is_disabled": 0, "rental_uris": {"android": "https://dc.lft.to/lastmile_qr_scan", "ios": "https://dc.lft.to/lastmile_qr_scan"}, "fusion_lon": 0.0, "lat": 38.92554283333333, "bike_id": "d1058b9d51d185ed10fdf06a35a31325", "type": "electric_scooter", "is_reserved": 0, "lon": -77.04298616666667}, {"fusion_lat": 0.0, "name": "3eb421793b2d6c5680ea7085b1fac22d", "is_disabled": 0, "rental_uris": {"android": "https://dc.lft.to/lastmile_qr_scan", "ios": "https://dc.lft.to/lastmile_qr_scan"}, "fusion_lon": 0.0, "lat": 38.91993933333333, "bike_id": "3eb421793b2d6c5680ea7085b1fac22d", "type": "electric_scooter", "is_reserved": 0, "lon": -77.0711965}, {"fusion_lat": 0.0, "name": "363748ea77755b161aa126dd7d272374", "is_disabled": 0, "rental_uris": {"android": "https://dc.lft.to/lastmile_qr_scan", "ios": "https://dc.lft.to/lastmile_qr_scan"}, "fusion_lon": 0.0, "lat": 38.953778166666666, "bike_id": "363748ea77755b161aa126dd7d272374", "type": "electric_bike", "is_reserved": 0, "lon": -76.9795775}, {"fusion_lat": 0.0, "name": "05c83d9cca57db90bae9a005890663c2", "is_disabled": 0, "rental_uris": {"android": "https://dc.lft.to/lastmile_qr_scan", "ios": "https://dc.lft.to/lastmile_qr_scan"}, "fusion_lon": 0.0, "lat": 38.926172, "bike_id": "05c83d9cca57db90bae9a005890663c2", "type": "electric_scooter", "is_reserved": 0, "lon": -77.0432365}, {"fusion_lat": 0.0, "name": "5a47b027d5d6f70654dc7a6ebe17d6cd", "is_disabled": 0, "rental_uris": {"android": "https://dc.lft.to/lastmile_qr_scan", "ios": "https://dc.lft.to/lastmile_qr_scan"}, "fusion_lon": 0.0, "lat": 38.907308, "bike_id": "5a47b027d5d6f70654dc7a6ebe17d6cd", "type": "electric_scooter", "is_reserved": 0, "lon": -77.034508}, {"fusion_lat": 0.0, "name": "6d94c3a2898b7b94f3ac6f4553b80505", "is_disabled": 0, "rental_uris": {"android": "https://dc.lft.to/lastmile_qr_scan", "ios": "https://dc.lft.to/lastmile_qr_scan"}, "fusion_lon": 0.0, "lat": 38.92252666666667, "bike_id": "6d94c3a2898b7b94f3ac6f4553b80505", "type": "electric_scooter", "is_reserved": 0, "lon": -77.01950916666667}, {"fusion_lat": 0.0, "name": "8dcc801a4654ab75cab1c1b3a9c819eb", "is_disabled": 0, "rental_uris": {"android": "https://dc.lft.to/lastmile_qr_scan", "ios": "https://dc.lft.to/lastmile_qr_scan"}, "fusion_lon": 0.0, "lat": 38.94178733333333, "bike_id": "8dcc801a4654ab75cab1c1b3a9c819eb", "type": "electric_scooter", "is_reserved": 0, "lon": -77.03654316666666}, {"fusion_lat": 0.0, "name": "fe834eae609d03eea70ef549cc8c8a34", "is_disabled": 0, "rental_uris": {"android": "https://dc.lft.to/lastmile_qr_scan", "ios": "https://dc.lft.to/lastmile_qr_scan"}, "fusion_lon": 0.0, "lat": 38.93483333333333, "bike_id": "fe834eae609d03eea70ef549cc8c8a34", "type": "electric_scooter", "is_reserved": 0, "lon": -77.0360745}, {"fusion_lat": 0.0, "name": "0405546807599737f9ba46896a9cab50", "is_disabled": 0, "rental_uris": {"android": "https://dc.lft.to/lastmile_qr_scan", "ios": "https://dc.lft.to/lastmile_qr_scan"}, "fusion_lon": 0.0, "lat": 38.8887335, "bike_id": "0405546807599737f9ba46896a9cab50", "type": "electric_scooter", "is_reserved": 0, "lon": -77.02854383333333}, {"fusion_lat": 0.0, "name": "d1f9d8b6b600d3f5d7b5be1a87ea5017", "is_disabled": 0, "rental_uris": {"android": "https://dc.lft.to/lastmile_qr_scan", "ios": "https://dc.lft.to/lastmile_qr_scan"}, "fusion_lon": 0.0, "lat": 38.91099533333333, "bike_id": "d1f9d8b6b600d3f5d7b5be1a87ea5017", "type": "electric_scooter", "is_reserved": 0, "lon": -77.04200033333333}, {"fusion_lat": 0.0, "name": "ef90ccf87c83c6a7f018cfc60cbcd5aa", "is_disabled": 0, "rental_uris": {"android": "https://dc.lft.to/lastmile_qr_scan", "ios": "https://dc.lft.to/lastmile_qr_scan"}, "fusion_lon": 0.0, "lat": 38.8579055, "bike_id": "ef90ccf87c83c6a7f018cfc60cbcd5aa", "type": "electric_bike", "is_reserved": 0, "lon": -76.98726716666667}, {"fusion_lat": 0.0, "name": "f04a87f1e5afe749d8ac827efd636e39", "is_disabled": 0, "rental_uris": {"android": "https://dc.lft.to/lastmile_qr_scan", "ios": "https://dc.lft.to/lastmile_qr_scan"}, "fusion_lon": 0.0, "lat": 38.89233216666667, "bike_id": "f04a87f1e5afe749d8ac827efd636e39", "type": "electric_scooter", "is_reserved": 0, "lon": -77.04893633333333}, {"fusion_lat": 0.0, "name": "2400a4ba93239f74d9c8204a6e71fe93", "is_disabled": 0, "rental_uris": {"android": "https://dc.lft.to/lastmile_qr_scan", "ios": "https://dc.lft.to/lastmile_qr_scan"}, "fusion_lon": 0.0, "lat": 38.91980483333333, "bike_id": "2400a4ba93239f74d9c8204a6e71fe93", "type": "electric_scooter", "is_reserved": 0, "lon": -77.04085733333334}, {"fusion_lat": 0.0, "name": "1b5d35377e2ef1d0ecf9626202c3e891", "is_disabled": 0, "rental_uris": {"android": "https://dc.lft.to/lastmile_qr_scan", "ios": "https://dc.lft.to/lastmile_qr_scan"}, "fusion_lon": 0.0, "lat": 38.91027666666667, "bike_id": "1b5d35377e2ef1d0ecf9626202c3e891", "type": "electric_scooter", "is_reserved": 0, "lon": -77.00758516666667}, {"fusion_lat": 0.0, "name": "aaa5e35b0b8b0ed21e7cdc0be7a9a846", "is_disabled": 0, "rental_uris": {"android": "https://dc.lft.to/lastmile_qr_scan", "ios": "https://dc.lft.to/lastmile_qr_scan"}, "fusion_lon": 0.0, "lat": 38.9245965, "bike_id": "aaa5e35b0b8b0ed21e7cdc0be7a9a846", "type": "electric_scooter", "is_reserved": 0, "lon": -76.99332583333333}, {"fusion_lat": 0.0, "name": "e0446c5b5a3523f95ee8c34afa6d4ec4", "is_disabled": 0, "rental_uris": {"android": "https://dc.lft.to/lastmile_qr_scan", "ios": "https://dc.lft.to/lastmile_qr_scan"}, "fusion_lon": 0.0, "lat": 38.92062166666667, "bike_id": "e0446c5b5a3523f95ee8c34afa6d4ec4", "type": "electric_scooter", "is_reserved": 0, "lon": -76.9986145}, {"fusion_lat": 0.0, "name": "d83182a7294299af7f0d121fb7d63fc7", "is_disabled": 0, "rental_uris": {"android": "https://dc.lft.to/lastmile_qr_scan", "ios": "https://dc.lft.to/lastmile_qr_scan"}, "fusion_lon": 0.0, "lat": 38.928377, "bike_id": "d83182a7294299af7f0d121fb7d63fc7", "type": "electric_scooter", "is_reserved": 0, "lon": -76.980315}, {"fusion_lat": 0.0, "name": "e9458aa083bad88e6c9ff5ce7e0b36f8", "is_disabled": 0, "rental_uris": {"android": "https://dc.lft.to/lastmile_qr_scan", "ios": "https://dc.lft.to/lastmile_qr_scan"}, "fusion_lon": 0.0, "lat": 38.86253333333333, "bike_id": "e9458aa083bad88e6c9ff5ce7e0b36f8", "type": "electric_bike", "is_reserved": 0, "lon": -76.98332783333333}, {"fusion_lat": 0.0, "name": "3db7f855c92b41072f6b3e0c186f31d6", "is_disabled": 0, "rental_uris": {"android": "https://dc.lft.to/lastmile_qr_scan", "ios": "https://dc.lft.to/lastmile_qr_scan"}, "fusion_lon": 0.0, "lat": 38.923268166666666, "bike_id": "3db7f855c92b41072f6b3e0c186f31d6", "type": "electric_scooter", "is_reserved": 0, "lon": -77.03557583333334}, {"fusion_lat": 0.0, "name": "ddddc0195efaf314260e30b2282834c9", "is_disabled": 0, "rental_uris": {"android": "https://dc.lft.to/lastmile_qr_scan", "ios": "https://dc.lft.to/lastmile_qr_scan"}, "fusion_lon": 0.0, "lat": 38.917212666666664, "bike_id": "ddddc0195efaf314260e30b2282834c9", "type": "electric_scooter", "is_reserved": 0, "lon": -77.0081475}, {"fusion_lat": 0.0, "name": "4b492396d8733d2fbb75a75c8b5b4e53", "is_disabled": 0, "rental_uris": {"android": "https://dc.lft.to/lastmile_qr_scan", "ios": "https://dc.lft.to/lastmile_qr_scan"}, "fusion_lon": 0.0, "lat": 38.86886333333333, "bike_id": "4b492396d8733d2fbb75a75c8b5b4e53", "type": "electric_bike", "is_reserved": 0, "lon": -76.9832165}, {"fusion_lat": 0.0, "name": "8f5c9583e825bb0de5e0ff64f316d2ba", "is_disabled": 0, "rental_uris": {"android": "https://dc.lft.to/lastmile_qr_scan", "ios": "https://dc.lft.to/lastmile_qr_scan"}, "fusion_lon": 0.0, "lat": 38.9250675, "bike_id": "8f5c9583e825bb0de5e0ff64f316d2ba", "type": "electric_scooter", "is_reserved": 0, "lon": -77.01954816666667}, {"fusion_lat": 0.0, "name": "77535a9b0890b27e2aa15af40b667a84", "is_disabled": 0, "rental_uris": {"android": "https://dc.lft.to/lastmile_qr_scan", "ios": "https://dc.lft.to/lastmile_qr_scan"}, "fusion_lon": 0.0, "lat": 38.901037333333335, "bike_id": "77535a9b0890b27e2aa15af40b667a84", "type": "electric_scooter", "is_reserved": 0, "lon": -77.01976216666667}, {"fusion_lat": 0.0, "name": "91960a0aad52679b141487ebc893ef5c", "is_disabled": 0, "rental_uris": {"android": "https://dc.lft.to/lastmile_qr_scan", "ios": "https://dc.lft.to/lastmile_qr_scan"}, "fusion_lon": 0.0, "lat": 38.8992765, "bike_id": "91960a0aad52679b141487ebc893ef5c", "type": "electric_scooter", "is_reserved": 0, "lon": -77.021807}, {"fusion_lat": 0.0, "name": "0e24a5ddc5c6bc2fa351a175675b1ed7", "is_disabled": 0, "rental_uris": {"android": "https://dc.lft.to/lastmile_qr_scan", "ios": "https://dc.lft.to/lastmile_qr_scan"}, "fusion_lon": 0.0, "lat": 38.9191495, "bike_id": "0e24a5ddc5c6bc2fa351a175675b1ed7", "type": "electric_scooter", "is_reserved": 0, "lon": -77.03393283333334}, {"fusion_lat": 0.0, "name": "79246ed105991c85f21844bfc797c9e1", "is_disabled": 0, "rental_uris": {"android": "https://dc.lft.to/lastmile_qr_scan", "ios": "https://dc.lft.to/lastmile_qr_scan"}, "fusion_lon": 0.0, "lat": 38.9588835, "bike_id": "79246ed105991c85f21844bfc797c9e1", "type": "electric_scooter", "is_reserved": 0, "lon": -77.00284533333334}, {"fusion_lat": 0.0, "name": "3528a96803b2f2734c3acc58d1ee17cc", "is_disabled": 0, "rental_uris": {"android": "https://dc.lft.to/lastmile_qr_scan", "ios": "https://dc.lft.to/lastmile_qr_scan"}, "fusion_lon": 0.0, "lat": 38.87662483333333, "bike_id": "3528a96803b2f2734c3acc58d1ee17cc", "type": "electric_scooter", "is_reserved": 0, "lon": -77.0046635}, {"fusion_lat": 0.0, "name": "5a4704b30a9894ff6bcab10eee203795", "is_disabled": 0, "rental_uris": {"android": "https://dc.lft.to/lastmile_qr_scan", "ios": "https://dc.lft.to/lastmile_qr_scan"}, "fusion_lon": 0.0, "lat": 38.927436666666665, "bike_id": "5a4704b30a9894ff6bcab10eee203795", "type": "electric_scooter", "is_reserved": 0, "lon": -77.022662}, {"fusion_lat": 0.0, "name": "5e8a9eb6497a397813de8c67d756dfcf", "is_disabled": 0, "rental_uris": {"android": "https://dc.lft.to/lastmile_qr_scan", "ios": "https://dc.lft.to/lastmile_qr_scan"}, "fusion_lon": 0.0, "lat": 38.897153, "bike_id": "5e8a9eb6497a397813de8c67d756dfcf", "type": "electric_bike", "is_reserved": 0, "lon": -77.01160816666666}, {"fusion_lat": 0.0, "name": "c7c90734d7716f5a41b97fa3b1a7dc3f", "is_disabled": 0, "rental_uris": {"android": "https://dc.lft.to/lastmile_qr_scan", "ios": "https://dc.lft.to/lastmile_qr_scan"}, "fusion_lon": 0.0, "lat": 38.9214, "bike_id": "c7c90734d7716f5a41b97fa3b1a7dc3f", "type": "electric_scooter", "is_reserved": 0, "lon": -77.04418666666666}, {"fusion_lat": 0.0, "name": "5ac5adc9a9b64761c7dd013197bbec30", "is_disabled": 0, "rental_uris": {"android": "https://dc.lft.to/lastmile_qr_scan", "ios": "https://dc.lft.to/lastmile_qr_scan"}, "fusion_lon": 0.0, "lat": 38.90669416666667, "bike_id": "5ac5adc9a9b64761c7dd013197bbec30", "type": "electric_scooter", "is_reserved": 0, "lon": -77.0271395}, {"fusion_lat": 0.0, "name": "c943ec24cba03d0d6feeda029d744615", "is_disabled": 0, "rental_uris": {"android": "https://dc.lft.to/lastmile_qr_scan", "ios": "https://dc.lft.to/lastmile_qr_scan"}, "fusion_lon": 0.0, "lat": 38.927301, "bike_id": "c943ec24cba03d0d6feeda029d744615", "type": "electric_scooter", "is_reserved": 0, "lon": -77.052508}, {"fusion_lat": 0.0, "name": "84d1c193d97ba45bbbe27af079ac645e", "is_disabled": 0, "rental_uris": {"android": "https://dc.lft.to/lastmile_qr_scan", "ios": "https://dc.lft.to/lastmile_qr_scan"}, "fusion_lon": 0.0, "lat": 38.92014616666667, "bike_id": "84d1c193d97ba45bbbe27af079ac645e", "type": "electric_scooter", "is_reserved": 0, "lon": -77.038911}, {"fusion_lat": 0.0, "name": "b1b58cebc96a69ee12edceb03e1948fd", "is_disabled": 0, "rental_uris": {"android": "https://dc.lft.to/lastmile_qr_scan", "ios": "https://dc.lft.to/lastmile_qr_scan"}, "fusion_lon": 0.0, "lat": 38.90429233333333, "bike_id": "b1b58cebc96a69ee12edceb03e1948fd", "type": "electric_scooter", "is_reserved": 0, "lon": -77.05139683333333}, {"fusion_lat": 0.0, "name": "040c540196c3e7dcc1dde5bc9f1741a1", "is_disabled": 0, "rental_uris": {"android": "https://dc.lft.to/lastmile_qr_scan", "ios": "https://dc.lft.to/lastmile_qr_scan"}, "fusion_lon": 0.0, "lat": 38.8029745, "bike_id": "040c540196c3e7dcc1dde5bc9f1741a1", "type": "electric_bike", "is_reserved": 0, "lon": -77.059415}, {"fusion_lat": 0.0, "name": "e0fc057ab89df855795f2c3dbc004772", "is_disabled": 0, "rental_uris": {"android": "https://dc.lft.to/lastmile_qr_scan", "ios": "https://dc.lft.to/lastmile_qr_scan"}, "fusion_lon": 0.0, "lat": 38.923767833333336, "bike_id": "e0fc057ab89df855795f2c3dbc004772", "type": "electric_scooter", "is_reserved": 0, "lon": -77.044622}, {"fusion_lat": 0.0, "name": "f456a7d9e5609de1b54d1070db075247", "is_disabled": 0, "rental_uris": {"android": "https://dc.lft.to/lastmile_qr_scan", "ios": "https://dc.lft.to/lastmile_qr_scan"}, "fusion_lon": 0.0, "lat": 38.90384383333333, "bike_id": "f456a7d9e5609de1b54d1070db075247", "type": "electric_scooter", "is_reserved": 0, "lon": -76.97618483333333}, {"fusion_lat": 0.0, "name": "e1ed8c159aeba9e82a863fdb302e95f9", "is_disabled": 0, "rental_uris": {"android": "https://dc.lft.to/lastmile_qr_scan", "ios": "https://dc.lft.to/lastmile_qr_scan"}, "fusion_lon": 0.0, "lat": 38.9639425, "bike_id": "e1ed8c159aeba9e82a863fdb302e95f9", "type": "electric_scooter", "is_reserved": 0, "lon": -77.02593633333333}, {"fusion_lat": 0.0, "name": "150c59bf152688cb21c28664616b7916", "is_disabled": 0, "rental_uris": {"android": "https://dc.lft.to/lastmile_qr_scan", "ios": "https://dc.lft.to/lastmile_qr_scan"}, "fusion_lon": 0.0, "lat": 38.881848, "bike_id": "150c59bf152688cb21c28664616b7916", "type": "electric_scooter", "is_reserved": 0, "lon": -77.0035355}, {"fusion_lat": 0.0, "name": "ecabd0297fe2ebb68dc1ba073fa81f0c", "is_disabled": 0, "rental_uris": {"android": "https://dc.lft.to/lastmile_qr_scan", "ios": "https://dc.lft.to/lastmile_qr_scan"}, "fusion_lon": 0.0, "lat": 38.93255633333333, "bike_id": "ecabd0297fe2ebb68dc1ba073fa81f0c", "type": "electric_scooter", "is_reserved": 0, "lon": -77.03281616666666}, {"fusion_lat": 0.0, "name": "58b64d69b8eae85908c5c43d94023aca", "is_disabled": 0, "rental_uris": {"android": "https://dc.lft.to/lastmile_qr_scan", "ios": "https://dc.lft.to/lastmile_qr_scan"}, "fusion_lon": 0.0, "lat": 38.9003305, "bike_id": "58b64d69b8eae85908c5c43d94023aca", "type": "electric_scooter", "is_reserved": 0, "lon": -77.0118105}, {"fusion_lat": 0.0, "name": "f9433dd074e8ec8d83b1e897e4f29571", "is_disabled": 0, "rental_uris": {"android": "https://dc.lft.to/lastmile_qr_scan", "ios": "https://dc.lft.to/lastmile_qr_scan"}, "fusion_lon": 0.0, "lat": 38.87958483333333, "bike_id": "f9433dd074e8ec8d83b1e897e4f29571", "type": "electric_scooter", "is_reserved": 0, "lon": -77.005847}, {"fusion_lat": 0.0, "name": "cdf3842e36b1487b08162184e7d99bee", "is_disabled": 0, "rental_uris": {"android": "https://dc.lft.to/lastmile_qr_scan", "ios": "https://dc.lft.to/lastmile_qr_scan"}, "fusion_lon": 0.0, "lat": 38.89240933333333, "bike_id": "cdf3842e36b1487b08162184e7d99bee", "type": "electric_scooter", "is_reserved": 0, "lon": -77.04358833333333}, {"fusion_lat": 0.0, "name": "d7b66834dcd360b3c057e4b3ba57cd87", "is_disabled": 0, "rental_uris": {"android": "https://dc.lft.to/lastmile_qr_scan", "ios": "https://dc.lft.to/lastmile_qr_scan"}, "fusion_lon": 0.0, "lat": 38.921035, "bike_id": "d7b66834dcd360b3c057e4b3ba57cd87", "type": "electric_scooter", "is_reserved": 0, "lon": -77.031939}, {"fusion_lat": 0.0, "name": "9c0320016db36e13271d85a17c0fa621", "is_disabled": 0, "rental_uris": {"android": "https://dc.lft.to/lastmile_qr_scan", "ios": "https://dc.lft.to/lastmile_qr_scan"}, "fusion_lon": 0.0, "lat": 38.9228445, "bike_id": "9c0320016db36e13271d85a17c0fa621", "type": "electric_scooter", "is_reserved": 0, "lon": -77.03659966666666}, {"fusion_lat": 0.0, "name": "789e14a31261b3d1311c1798b40ea9ca", "is_disabled": 0, "rental_uris": {"android": "https://dc.lft.to/lastmile_qr_scan", "ios": "https://dc.lft.to/lastmile_qr_scan"}, "fusion_lon": 0.0, "lat": 38.89222816666667, "bike_id": "789e14a31261b3d1311c1798b40ea9ca", "type": "electric_scooter", "is_reserved": 0, "lon": -77.048673}, {"fusion_lat": 0.0, "name": "a5cd6d22741c83f106c9be02be1ac3fc", "is_disabled": 0, "rental_uris": {"android": "https://dc.lft.to/lastmile_qr_scan", "ios": "https://dc.lft.to/lastmile_qr_scan"}, "fusion_lon": 0.0, "lat": 38.91331016666667, "bike_id": "a5cd6d22741c83f106c9be02be1ac3fc", "type": "electric_scooter", "is_reserved": 0, "lon": -77.04280983333334}, {"fusion_lat": 0.0, "name": "e3cd8e51fd66357679532db425041264", "is_disabled": 0, "rental_uris": {"android": "https://dc.lft.to/lastmile_qr_scan", "ios": "https://dc.lft.to/lastmile_qr_scan"}, "fusion_lon": 0.0, "lat": 38.911729666666666, "bike_id": "e3cd8e51fd66357679532db425041264", "type": "electric_scooter", "is_reserved": 0, "lon": -77.0386295}, {"fusion_lat": 0.0, "name": "7e1a4f2463572ab939c2363bde312c37", "is_disabled": 0, "rental_uris": {"android": "https://dc.lft.to/lastmile_qr_scan", "ios": "https://dc.lft.to/lastmile_qr_scan"}, "fusion_lon": 0.0, "lat": 38.941800666666666, "bike_id": "7e1a4f2463572ab939c2363bde312c37", "type": "electric_scooter", "is_reserved": 0, "lon": -77.03065466666666}, {"fusion_lat": 0.0, "name": "1cac4b4b21376f117f4314eaca9769d8", "is_disabled": 0, "rental_uris": {"android": "https://dc.lft.to/lastmile_qr_scan", "ios": "https://dc.lft.to/lastmile_qr_scan"}, "fusion_lon": 0.0, "lat": 38.90512183333333, "bike_id": "1cac4b4b21376f117f4314eaca9769d8", "type": "electric_scooter", "is_reserved": 0, "lon": -77.06153783333333}, {"fusion_lat": 0.0, "name": "130dd328e7ba077f2ec647b0a3a4698c", "is_disabled": 0, "rental_uris": {"android": "https://dc.lft.to/lastmile_qr_scan", "ios": "https://dc.lft.to/lastmile_qr_scan"}, "fusion_lon": 0.0, "lat": 38.900369166666664, "bike_id": "130dd328e7ba077f2ec647b0a3a4698c", "type": "electric_scooter", "is_reserved": 0, "lon": -77.00200716666667}, {"fusion_lat": 0.0, "name": "c2c025e9f3a4892a7fb9e57be117e2d3", "is_disabled": 0, "rental_uris": {"android": "https://dc.lft.to/lastmile_qr_scan", "ios": "https://dc.lft.to/lastmile_qr_scan"}, "fusion_lon": 0.0, "lat": 38.906348666666666, "bike_id": "c2c025e9f3a4892a7fb9e57be117e2d3", "type": "electric_scooter", "is_reserved": 0, "lon": -77.04324716666666}, {"fusion_lat": 0.0, "name": "9d0a9b4bfdd8540adc1585ba48138862", "is_disabled": 0, "rental_uris": {"android": "https://dc.lft.to/lastmile_qr_scan", "ios": "https://dc.lft.to/lastmile_qr_scan"}, "fusion_lon": 0.0, "lat": 38.90227183333333, "bike_id": "9d0a9b4bfdd8540adc1585ba48138862", "type": "electric_scooter", "is_reserved": 0, "lon": -77.054665}, {"fusion_lat": 0.0, "name": "87d22078b44cd79e9d6894e3dab5c58a", "is_disabled": 0, "rental_uris": {"android": "https://dc.lft.to/lastmile_qr_scan", "ios": "https://dc.lft.to/lastmile_qr_scan"}, "fusion_lon": 0.0, "lat": 38.9661915, "bike_id": "87d22078b44cd79e9d6894e3dab5c58a", "type": "electric_bike", "is_reserved": 0, "lon": -77.03433083333333}, {"fusion_lat": 0.0, "name": "9758ef9381b5b0aa7ca7245b09794de9", "is_disabled": 0, "rental_uris": {"android": "https://dc.lft.to/lastmile_qr_scan", "ios": "https://dc.lft.to/lastmile_qr_scan"}, "fusion_lon": 0.0, "lat": 38.907629166666666, "bike_id": "9758ef9381b5b0aa7ca7245b09794de9", "type": "electric_scooter", "is_reserved": 0, "lon": -77.03583366666666}, {"fusion_lat": 0.0, "name": "327d45164c8f8f8ab38583e86deb4ae8", "is_disabled": 0, "rental_uris": {"android": "https://dc.lft.to/lastmile_qr_scan", "ios": "https://dc.lft.to/lastmile_qr_scan"}, "fusion_lon": 0.0, "lat": 38.91404133333333, "bike_id": "327d45164c8f8f8ab38583e86deb4ae8", "type": "electric_scooter", "is_reserved": 0, "lon": -77.04155183333333}, {"fusion_lat": 0.0, "name": "13673834ec45200010a3127ca7a25566", "is_disabled": 0, "rental_uris": {"android": "https://dc.lft.to/lastmile_qr_scan", "ios": "https://dc.lft.to/lastmile_qr_scan"}, "fusion_lon": 0.0, "lat": 38.905595, "bike_id": "13673834ec45200010a3127ca7a25566", "type": "electric_scooter", "is_reserved": 0, "lon": -77.00819466666667}, {"fusion_lat": 0.0, "name": "795d656cd11859416880b745fd3006b8", "is_disabled": 0, "rental_uris": {"android": "https://dc.lft.to/lastmile_qr_scan", "ios": "https://dc.lft.to/lastmile_qr_scan"}, "fusion_lon": 0.0, "lat": 38.915625666666664, "bike_id": "795d656cd11859416880b745fd3006b8", "type": "electric_scooter", "is_reserved": 0, "lon": -77.01039216666666}, {"fusion_lat": 0.0, "name": "37f27da9d7c0dd6a9e6cc2185ccca527", "is_disabled": 0, "rental_uris": {"android": "https://dc.lft.to/lastmile_qr_scan", "ios": "https://dc.lft.to/lastmile_qr_scan"}, "fusion_lon": 0.0, "lat": 38.88343166666667, "bike_id": "37f27da9d7c0dd6a9e6cc2185ccca527", "type": "electric_scooter", "is_reserved": 0, "lon": -76.9350475}, {"fusion_lat": 0.0, "name": "c13158ec193528a4ab853d80e39baebd", "is_disabled": 0, "rental_uris": {"android": "https://dc.lft.to/lastmile_qr_scan", "ios": "https://dc.lft.to/lastmile_qr_scan"}, "fusion_lon": 0.0, "lat": 38.9013085, "bike_id": "c13158ec193528a4ab853d80e39baebd", "type": "electric_scooter", "is_reserved": 0, "lon": -77.04467416666667}, {"fusion_lat": 0.0, "name": "3482a752cc98c27b6f296b1302789ee5", "is_disabled": 0, "rental_uris": {"android": "https://dc.lft.to/lastmile_qr_scan", "ios": "https://dc.lft.to/lastmile_qr_scan"}, "fusion_lon": 0.0, "lat": 38.94386683333333, "bike_id": "3482a752cc98c27b6f296b1302789ee5", "type": "electric_scooter", "is_reserved": 0, "lon": -77.095082}, {"fusion_lat": 0.0, "name": "8036ba8a38d0ed16db489eaddb551251", "is_disabled": 0, "rental_uris": {"android": "https://dc.lft.to/lastmile_qr_scan", "ios": "https://dc.lft.to/lastmile_qr_scan"}, "fusion_lon": 0.0, "lat": 38.921619166666666, "bike_id": "8036ba8a38d0ed16db489eaddb551251", "type": "electric_scooter", "is_reserved": 0, "lon": -77.03268033333333}, {"fusion_lat": 0.0, "name": "2862cc580a61315786762bd0bb0bad40", "is_disabled": 0, "rental_uris": {"android": "https://dc.lft.to/lastmile_qr_scan", "ios": "https://dc.lft.to/lastmile_qr_scan"}, "fusion_lon": 0.0, "lat": 38.8902525, "bike_id": "2862cc580a61315786762bd0bb0bad40", "type": "electric_scooter", "is_reserved": 0, "lon": -77.03178683333333}, {"fusion_lat": 0.0, "name": "c9f9fd107ba27e80076e22a861758e73", "is_disabled": 0, "rental_uris": {"android": "https://dc.lft.to/lastmile_qr_scan", "ios": "https://dc.lft.to/lastmile_qr_scan"}, "fusion_lon": 0.0, "lat": 38.9209965, "bike_id": "c9f9fd107ba27e80076e22a861758e73", "type": "electric_scooter", "is_reserved": 0, "lon": -77.02514616666667}, {"fusion_lat": 0.0, "name": "bdcd4755639ac15c0ed51681e3203cfc", "is_disabled": 0, "rental_uris": {"android": "https://dc.lft.to/lastmile_qr_scan", "ios": "https://dc.lft.to/lastmile_qr_scan"}, "fusion_lon": 0.0, "lat": 38.90019383333333, "bike_id": "bdcd4755639ac15c0ed51681e3203cfc", "type": "electric_scooter", "is_reserved": 0, "lon": -76.98817183333334}, {"fusion_lat": 0.0, "name": "05988afec361b0293b84cfd1b28b5ca5", "is_disabled": 0, "rental_uris": {"android": "https://dc.lft.to/lastmile_qr_scan", "ios": "https://dc.lft.to/lastmile_qr_scan"}, "fusion_lon": 0.0, "lat": 38.877087833333334, "bike_id": "05988afec361b0293b84cfd1b28b5ca5", "type": "electric_scooter", "is_reserved": 0, "lon": -76.99383683333333}, {"fusion_lat": 0.0, "name": "7b2c7d687365798d863f86088e74d174", "is_disabled": 0, "rental_uris": {"android": "https://dc.lft.to/lastmile_qr_scan", "ios": "https://dc.lft.to/lastmile_qr_scan"}, "fusion_lon": 0.0, "lat": 38.89875716666667, "bike_id": "7b2c7d687365798d863f86088e74d174", "type": "electric_scooter", "is_reserved": 0, "lon": -76.9318535}, {"fusion_lat": 0.0, "name": "72908614371a7023ef2011bab565c3fc", "is_disabled": 0, "rental_uris": {"android": "https://dc.lft.to/lastmile_qr_scan", "ios": "https://dc.lft.to/lastmile_qr_scan"}, "fusion_lon": 0.0, "lat": 38.9043625, "bike_id": "72908614371a7023ef2011bab565c3fc", "type": "electric_scooter", "is_reserved": 0, "lon": -77.02589133333333}, {"fusion_lat": 0.0, "name": "241048671d955c5bde653920d878431e", "is_disabled": 0, "rental_uris": {"android": "https://dc.lft.to/lastmile_qr_scan", "ios": "https://dc.lft.to/lastmile_qr_scan"}, "fusion_lon": 0.0, "lat": 38.92973116666667, "bike_id": "241048671d955c5bde653920d878431e", "type": "electric_scooter", "is_reserved": 0, "lon": -77.0279785}, {"fusion_lat": 0.0, "name": "38011c1aa52d7bc99867cfb5685c77b7", "is_disabled": 0, "rental_uris": {"android": "https://dc.lft.to/lastmile_qr_scan", "ios": "https://dc.lft.to/lastmile_qr_scan"}, "fusion_lon": 0.0, "lat": 38.920193, "bike_id": "38011c1aa52d7bc99867cfb5685c77b7", "type": "electric_scooter", "is_reserved": 0, "lon": -77.01315583333333}, {"fusion_lat": 0.0, "name": "299d136e32fcc075cf150fe12f2366b5", "is_disabled": 0, "rental_uris": {"android": "https://dc.lft.to/lastmile_qr_scan", "ios": "https://dc.lft.to/lastmile_qr_scan"}, "fusion_lon": 0.0, "lat": 38.9112425, "bike_id": "299d136e32fcc075cf150fe12f2366b5", "type": "electric_scooter", "is_reserved": 0, "lon": -77.00769633333333}, {"fusion_lat": 0.0, "name": "2b607838d3d687ef454a173ca873bf96", "is_disabled": 0, "rental_uris": {"android": "https://dc.lft.to/lastmile_qr_scan", "ios": "https://dc.lft.to/lastmile_qr_scan"}, "fusion_lon": 0.0, "lat": 38.893407833333335, "bike_id": "2b607838d3d687ef454a173ca873bf96", "type": "electric_scooter", "is_reserved": 0, "lon": -77.03194616666667}, {"fusion_lat": 0.0, "name": "859619f77f0c4d81d004f340812c55cd", "is_disabled": 0, "rental_uris": {"android": "https://dc.lft.to/lastmile_qr_scan", "ios": "https://dc.lft.to/lastmile_qr_scan"}, "fusion_lon": 0.0, "lat": 38.892189333333334, "bike_id": "859619f77f0c4d81d004f340812c55cd", "type": "electric_scooter", "is_reserved": 0, "lon": -77.04868716666667}, {"fusion_lat": 0.0, "name": "4ce1c3134abc2a5768562b3d9e48e5de", "is_disabled": 0, "rental_uris": {"android": "https://dc.lft.to/lastmile_qr_scan", "ios": "https://dc.lft.to/lastmile_qr_scan"}, "fusion_lon": 0.0, "lat": 38.900288833333335, "bike_id": "4ce1c3134abc2a5768562b3d9e48e5de", "type": "electric_scooter", "is_reserved": 0, "lon": -77.011793}, {"fusion_lat": 0.0, "name": "8ac5292c0920ce9af88e6085ad8410c6", "is_disabled": 0, "rental_uris": {"android": "https://dc.lft.to/lastmile_qr_scan", "ios": "https://dc.lft.to/lastmile_qr_scan"}, "fusion_lon": 0.0, "lat": 38.898435666666664, "bike_id": "8ac5292c0920ce9af88e6085ad8410c6", "type": "electric_scooter", "is_reserved": 0, "lon": -76.981654}, {"fusion_lat": 0.0, "name": "e728b38888d5f4104a5f983a60c7398c", "is_disabled": 0, "rental_uris": {"android": "https://dc.lft.to/lastmile_qr_scan", "ios": "https://dc.lft.to/lastmile_qr_scan"}, "fusion_lon": 0.0, "lat": 38.93090983333333, "bike_id": "e728b38888d5f4104a5f983a60c7398c", "type": "electric_scooter", "is_reserved": 0, "lon": -77.034391}, {"fusion_lat": 0.0, "name": "ef20decd3d22e3c6caa1353509a91f49", "is_disabled": 0, "rental_uris": {"android": "https://dc.lft.to/lastmile_qr_scan", "ios": "https://dc.lft.to/lastmile_qr_scan"}, "fusion_lon": 0.0, "lat": 38.93220483333333, "bike_id": "ef20decd3d22e3c6caa1353509a91f49", "type": "electric_scooter", "is_reserved": 0, "lon": -77.0441565}, {"fusion_lat": 0.0, "name": "6106bbbf750957c542d212622536ace5", "is_disabled": 0, "rental_uris": {"android": "https://dc.lft.to/lastmile_qr_scan", "ios": "https://dc.lft.to/lastmile_qr_scan"}, "fusion_lon": 0.0, "lat": 38.8358135, "bike_id": "6106bbbf750957c542d212622536ace5", "type": "electric_bike", "is_reserved": 0, "lon": -76.99010333333334}, {"fusion_lat": 0.0, "name": "a1d361ac67353d7c6033b34b0f99c537", "is_disabled": 0, "rental_uris": {"android": "https://dc.lft.to/lastmile_qr_scan", "ios": "https://dc.lft.to/lastmile_qr_scan"}, "fusion_lon": 0.0, "lat": 38.90030183333333, "bike_id": "a1d361ac67353d7c6033b34b0f99c537", "type": "electric_scooter", "is_reserved": 0, "lon": -77.01686166666667}, {"fusion_lat": 0.0, "name": "b3df75d495006f98a5a7d9800a812622", "is_disabled": 0, "rental_uris": {"android": "https://dc.lft.to/lastmile_qr_scan", "ios": "https://dc.lft.to/lastmile_qr_scan"}, "fusion_lon": 0.0, "lat": 38.9288555, "bike_id": "b3df75d495006f98a5a7d9800a812622", "type": "electric_scooter", "is_reserved": 0, "lon": -77.03735566666667}, {"fusion_lat": 0.0, "name": "3aa2e6dee7fa1608a267bb99322da6db", "is_disabled": 0, "rental_uris": {"android": "https://dc.lft.to/lastmile_qr_scan", "ios": "https://dc.lft.to/lastmile_qr_scan"}, "fusion_lon": 0.0, "lat": 38.914709, "bike_id": "3aa2e6dee7fa1608a267bb99322da6db", "type": "electric_scooter", "is_reserved": 0, "lon": -76.98387816666667}, {"fusion_lat": 0.0, "name": "0ec1336414e14e61dd5108211d12c21f", "is_disabled": 0, "rental_uris": {"android": "https://dc.lft.to/lastmile_qr_scan", "ios": "https://dc.lft.to/lastmile_qr_scan"}, "fusion_lon": 0.0, "lat": 38.918182333333334, "bike_id": "0ec1336414e14e61dd5108211d12c21f", "type": "electric_scooter", "is_reserved": 0, "lon": -77.03683633333333}, {"fusion_lat": 0.0, "name": "f63f994985f9543269304439c9daeed2", "is_disabled": 0, "rental_uris": {"android": "https://dc.lft.to/lastmile_qr_scan", "ios": "https://dc.lft.to/lastmile_qr_scan"}, "fusion_lon": 0.0, "lat": 38.91480633333333, "bike_id": "f63f994985f9543269304439c9daeed2", "type": "electric_scooter", "is_reserved": 0, "lon": -77.02174866666667}, {"fusion_lat": 0.0, "name": "e93851589c3516a137d5b68abdb900db", "is_disabled": 0, "rental_uris": {"android": "https://dc.lft.to/lastmile_qr_scan", "ios": "https://dc.lft.to/lastmile_qr_scan"}, "fusion_lon": 0.0, "lat": 38.9499595, "bike_id": "e93851589c3516a137d5b68abdb900db", "type": "electric_scooter", "is_reserved": 0, "lon": -77.01950683333334}, {"fusion_lat": 0.0, "name": "ad99d7aa16021e2ba2467845faff48eb", "is_disabled": 0, "rental_uris": {"android": "https://dc.lft.to/lastmile_qr_scan", "ios": "https://dc.lft.to/lastmile_qr_scan"}, "fusion_lon": 0.0, "lat": 38.918477833333334, "bike_id": "ad99d7aa16021e2ba2467845faff48eb", "type": "electric_scooter", "is_reserved": 0, "lon": -76.96540016666667}, {"fusion_lat": 0.0, "name": "f21cf0e8d5ce9fbd5fccd7e8e0a3ec0c", "is_disabled": 0, "rental_uris": {"android": "https://dc.lft.to/lastmile_qr_scan", "ios": "https://dc.lft.to/lastmile_qr_scan"}, "fusion_lon": 0.0, "lat": 38.92052533333333, "bike_id": "f21cf0e8d5ce9fbd5fccd7e8e0a3ec0c", "type": "electric_scooter", "is_reserved": 0, "lon": -77.02372266666667}, {"fusion_lat": 0.0, "name": "a4d32de9adae1472a0c64c8176afb5c4", "is_disabled": 0, "rental_uris": {"android": "https://dc.lft.to/lastmile_qr_scan", "ios": "https://dc.lft.to/lastmile_qr_scan"}, "fusion_lon": 0.0, "lat": 38.906818333333334, "bike_id": "a4d32de9adae1472a0c64c8176afb5c4", "type": "electric_scooter", "is_reserved": 0, "lon": -77.01098366666666}, {"fusion_lat": 0.0, "name": "aed02e9b33d3d5a416f9a46d94c49494", "is_disabled": 0, "rental_uris": {"android": "https://dc.lft.to/lastmile_qr_scan", "ios": "https://dc.lft.to/lastmile_qr_scan"}, "fusion_lon": 0.0, "lat": 38.921919833333334, "bike_id": "aed02e9b33d3d5a416f9a46d94c49494", "type": "electric_scooter", "is_reserved": 0, "lon": -77.04030166666666}, {"fusion_lat": 0.0, "name": "7e4af08a3c29a1d199fe8360db4c270c", "is_disabled": 0, "rental_uris": {"android": "https://dc.lft.to/lastmile_qr_scan", "ios": "https://dc.lft.to/lastmile_qr_scan"}, "fusion_lon": 0.0, "lat": 38.91569533333333, "bike_id": "7e4af08a3c29a1d199fe8360db4c270c", "type": "electric_scooter", "is_reserved": 0, "lon": -77.04641033333333}, {"fusion_lat": 0.0, "name": "df5c035308ae1cfe909fb44e35011dff", "is_disabled": 0, "rental_uris": {"android": "https://dc.lft.to/lastmile_qr_scan", "ios": "https://dc.lft.to/lastmile_qr_scan"}, "fusion_lon": 0.0, "lat": 38.9085075, "bike_id": "df5c035308ae1cfe909fb44e35011dff", "type": "electric_scooter", "is_reserved": 0, "lon": -77.0101685}, {"fusion_lat": 0.0, "name": "7b48b1b61f38790711bc15483b097fc4", "is_disabled": 0, "rental_uris": {"android": "https://dc.lft.to/lastmile_qr_scan", "ios": "https://dc.lft.to/lastmile_qr_scan"}, "fusion_lon": 0.0, "lat": 38.941676333333334, "bike_id": "7b48b1b61f38790711bc15483b097fc4", "type": "electric_bike", "is_reserved": 0, "lon": -76.96649733333334}, {"fusion_lat": 0.0, "name": "d62778ee6d2cb90f47c612390929d4cd", "is_disabled": 0, "rental_uris": {"android": "https://dc.lft.to/lastmile_qr_scan", "ios": "https://dc.lft.to/lastmile_qr_scan"}, "fusion_lon": 0.0, "lat": 38.88720516666667, "bike_id": "d62778ee6d2cb90f47c612390929d4cd", "type": "electric_scooter", "is_reserved": 0, "lon": -77.0258195}, {"fusion_lat": 0.0, "name": "e2d7e380127e7e512a5f52feb484b188", "is_disabled": 0, "rental_uris": {"android": "https://dc.lft.to/lastmile_qr_scan", "ios": "https://dc.lft.to/lastmile_qr_scan"}, "fusion_lon": 0.0, "lat": 38.923845166666666, "bike_id": "e2d7e380127e7e512a5f52feb484b188", "type": "electric_scooter", "is_reserved": 0, "lon": -77.03545933333334}, {"fusion_lat": 0.0, "name": "4a20f3f5b31d973713b7b365fbd06f31", "is_disabled": 0, "rental_uris": {"android": "https://dc.lft.to/lastmile_qr_scan", "ios": "https://dc.lft.to/lastmile_qr_scan"}, "fusion_lon": 0.0, "lat": 38.8955065, "bike_id": "4a20f3f5b31d973713b7b365fbd06f31", "type": "electric_scooter", "is_reserved": 0, "lon": -77.02370566666667}, {"fusion_lat": 0.0, "name": "bff8f1228c927937f3a5ecee2d5f4691", "is_disabled": 0, "rental_uris": {"android": "https://dc.lft.to/lastmile_qr_scan", "ios": "https://dc.lft.to/lastmile_qr_scan"},