{"data": {"bikes": [{"is_reserved": 0, "type": "electric_bike", "fusion_lat": 0.0, "is_disabled": 0, "rental_uris": {"ios": "https://dc.lft.to/lastmile_qr_scan", "android": "https://dc.lft.to/lastmile_qr_scan"}, "bike_id": "b28a7e979275445dc3ebb12e9c2e2032", "lat": 38.93843316666667, "name": "b28a7e979275445dc3ebb12e9c2e2032", "lon": -76.94336433333334, "fusion_lon": 0.0}, {"is_reserved": 0, "type": "electric_scooter", "fusion_lat": 0.0, "is_disabled": 0, "rental_uris": {"ios": "https://dc.lft.to/lastmile_qr_scan", "android": "https://dc.lft.to/lastmile_qr_scan"}, "bike_id": "831df75607773687336c3119abfb5bd8", "lat": 38.96499466666667, "name": "831df75607773687336c3119abfb5bd8", "lon": -77.06283033333334, "fusion_lon": 0.0}, {"is_reserved": 0, "type": "electric_scooter", "fusion_lat": 0.0, "is_disabled": 0, "rental_uris": {"ios": "https://dc.lft.to/lastmile_qr_scan", "android": "https://dc.lft.to/lastmile_qr_scan"}, "bike_id": "439f8be8a3db58e3d4b792e1ad95b4e4", "lat": 38.91385433333333, "name": "439f8be8a3db58e3d4b792e1ad95b4e4", "lon": -77.03210883333334, "fusion_lon": 0.0}, {"is_reserved": 0, "type": "electric_scooter", "fusion_lat": 0.0, "is_disabled": 0, "rental_uris": {"ios": "https://dc.lft.to/lastmile_qr_scan", "android": "https://dc.lft.to/lastmile_qr_scan"}, "bike_id": "f2242d73f6e89d17c542e6e553f617fa", "lat": 38.8842105, "name": "f2242d73f6e89d17c542e6e553f617fa", "lon": -77.03015916666666, "fusion_lon": 0.0}, {"is_reserved": 0, "type": "electric_scooter", "fusion_lat": 0.0, "is_disabled": 0, "rental_uris": {"ios": "https://dc.lft.to/lastmile_qr_scan", "android": "https://dc.lft.to/lastmile_qr_scan"}, "bike_id": "8e0e69c6bff6c9ac964a7d62905e08e8", "lat": 38.902482, "name": "8e0e69c6bff6c9ac964a7d62905e08e8", "lon": -77.040547, "fusion_lon": 0.0}, {"is_reserved": 0, "type": "electric_scooter", "fusion_lat": 0.0, "is_disabled": 0, "rental_uris": {"ios": "https://dc.lft.to/lastmile_qr_scan", "android": "https://dc.lft.to/lastmile_qr_scan"}, "bike_id": "0f8d9c579f9afaff8d974fbf5c71a61d", "lat": 38.90605333333333, "name": "0f8d9c579f9afaff8d974fbf5c71a61d", "lon": -77.0584285, "fusion_lon": 0.0}, {"is_reserved": 0, "type": "electric_bike", "fusion_lat": 0.0, "is_disabled": 0, "rental_uris": {"ios": "https://dc.lft.to/lastmile_qr_scan", "android": "https://dc.lft.to/lastmile_qr_scan"}, "bike_id": "d9aad22f52ef07efb04108c2d52cedc0", "lat": 38.950897499999996, "name": "d9aad22f52ef07efb04108c2d52cedc0", "lon": -77.012273, "fusion_lon": 0.0}, {"is_reserved": 0, "type": "electric_scooter", "fusion_lat": 0.0, "is_disabled": 0, "rental_uris": {"ios": "https://dc.lft.to/lastmile_qr_scan", "android": "https://dc.lft.to/lastmile_qr_scan"}, "bike_id": "bcdb4f23b896b32874ce941746826adc", "lat": 38.914458333333336, "name": "bcdb4f23b896b32874ce941746826adc", "lon": -77.00352216666667, "fusion_lon": 0.0}, {"is_reserved": 0, "type": "electric_scooter", "fusion_lat": 0.0, "is_disabled": 0, "rental_uris": {"ios": "https://dc.lft.to/lastmile_qr_scan", "android": "https://dc.lft.to/lastmile_qr_scan"}, "bike_id": "be9ddea29371a0ab3fc5bacc25418998", "lat": 38.9011365, "name": "be9ddea29371a0ab3fc5bacc25418998", "lon": -77.0317395, "fusion_lon": 0.0}, {"is_reserved": 0, "type": "electric_scooter", "fusion_lat": 0.0, "is_disabled": 0, "rental_uris": {"ios": "https://dc.lft.to/lastmile_qr_scan", "android": "https://dc.lft.to/lastmile_qr_scan"}, "bike_id": "f6dcae072f3ba89057bd5dcb23b7c7b1", "lat": 38.895475166666664, "name": "f6dcae072f3ba89057bd5dcb23b7c7b1", "lon": -76.983414, "fusion_lon": 0.0}, {"is_reserved": 0, "type": "electric_scooter", "fusion_lat": 0.0, "is_disabled": 0, "rental_uris": {"ios": "https://dc.lft.to/lastmile_qr_scan", "android": "https://dc.lft.to/lastmile_qr_scan"}, "bike_id": "270e25f9a863d6ee91ea0a540b355490", "lat": 38.918094333333336, "name": "270e25f9a863d6ee91ea0a540b355490", "lon": -77.03436816666667, "fusion_lon": 0.0}, {"is_reserved": 0, "type": "electric_scooter", "fusion_lat": 0.0, "is_disabled": 0, "rental_uris": {"ios": "https://dc.lft.to/lastmile_qr_scan", "android": "https://dc.lft.to/lastmile_qr_scan"}, "bike_id": "0d6325128672ae63a26fc138c13a3212", "lat": 38.90872366666667, "name": "0d6325128672ae63a26fc138c13a3212", "lon": -77.07153683333334, "fusion_lon": 0.0}, {"is_reserved": 0, "type": "electric_scooter", "fusion_lat": 0.0, "is_disabled": 0, "rental_uris": {"ios": "https://dc.lft.to/lastmile_qr_scan", "android": "https://dc.lft.to/lastmile_qr_scan"}, "bike_id": "984e84a0c3b549f77c6b332cfef99240", "lat": 38.9059665, "name": "984e84a0c3b549f77c6b332cfef99240", "lon": -77.047058, "fusion_lon": 0.0}, {"is_reserved": 0, "type": "electric_scooter", "fusion_lat": 0.0, "is_disabled": 0, "rental_uris": {"ios": "https://dc.lft.to/lastmile_qr_scan", "android": "https://dc.lft.to/lastmile_qr_scan"}, "bike_id": "a50659e997b64dabc89b5ae4f5ebf287", "lat": 38.89365133333333, "name": "a50659e997b64dabc89b5ae4f5ebf287", "lon": -76.94113483333334, "fusion_lon": 0.0}, {"is_reserved": 0, "type": "electric_scooter", "fusion_lat": 0.0, "is_disabled": 0, "rental_uris": {"ios": "https://dc.lft.to/lastmile_qr_scan", "android": "https://dc.lft.to/lastmile_qr_scan"}, "bike_id": "612e93b9fd346bfdedcebc3dee738dac", "lat": 38.926277166666665, "name": "612e93b9fd346bfdedcebc3dee738dac", "lon": -77.04149933333333, "fusion_lon": 0.0}, {"is_reserved": 0, "type": "electric_scooter", "fusion_lat": 0.0, "is_disabled": 0, "rental_uris": {"ios": "https://dc.lft.to/lastmile_qr_scan", "android": "https://dc.lft.to/lastmile_qr_scan"}, "bike_id": "3b6357faefbad89faf3f1cae0912e0df", "lat": 38.892348, "name": "3b6357faefbad89faf3f1cae0912e0df", "lon": -77.0499955, "fusion_lon": 0.0}, {"is_reserved": 0, "type": "electric_bike", "fusion_lat": 0.0, "is_disabled": 0, "rental_uris": {"ios": "https://dc.lft.to/lastmile_qr_scan", "android": "https://dc.lft.to/lastmile_qr_scan"}, "bike_id": "ba205df9d31d860964c977d06f67b79f", "lat": 38.87176916666667, "name": "ba205df9d31d860964c977d06f67b79f", "lon": -77.23394466666667, "fusion_lon": 0.0}, {"is_reserved": 0, "type": "electric_scooter", "fusion_lat": 0.0, "is_disabled": 0, "rental_uris": {"ios": "https://dc.lft.to/lastmile_qr_scan", "android": "https://dc.lft.to/lastmile_qr_scan"}, "bike_id": "afd6a314430a23a73f0aabe81c443c36", "lat": 38.921733333333336, "name": "afd6a314430a23a73f0aabe81c443c36", "lon": -77.04356733333333, "fusion_lon": 0.0}, {"is_reserved": 0, "type": "electric_bike", "fusion_lat": 0.0, "is_disabled": 0, "rental_uris": {"ios": "https://dc.lft.to/lastmile_qr_scan", "android": "https://dc.lft.to/lastmile_qr_scan"}, "bike_id": "16ee115070937cbc4a408ac6463ac4a8", "lat": 39.00006666666667, "name": "16ee115070937cbc4a408ac6463ac4a8", "lon": -76.91811933333334, "fusion_lon": 0.0}, {"is_reserved": 0, "type": "electric_bike", "fusion_lat": 0.0, "is_disabled": 0, "rental_uris": {"ios": "https://dc.lft.to/lastmile_qr_scan", "android": "https://dc.lft.to/lastmile_qr_scan"}, "bike_id": "1affbedd246d6c146ef2de7915bbd508", "lat": 38.80739583333333, "name": "1affbedd246d6c146ef2de7915bbd508", "lon": -77.09687366666667, "fusion_lon": 0.0}, {"is_reserved": 0, "type": "electric_scooter", "fusion_lat": 0.0, "is_disabled": 0, "rental_uris": {"ios": "https://dc.lft.to/lastmile_qr_scan", "android": "https://dc.lft.to/lastmile_qr_scan"}, "bike_id": "25064863b6fab1d828528c3833bb0177", "lat": 38.895343, "name": "25064863b6fab1d828528c3833bb0177", "lon": -76.94891116666666, "fusion_lon": 0.0}, {"is_reserved": 0, "type": "electric_bike", "fusion_lat": 0.0, "is_disabled": 0, "rental_uris": {"ios": "https://dc.lft.to/lastmile_qr_scan", "android": "https://dc.lft.to/lastmile_qr_scan"}, "bike_id": "fed92043abfa40bf6840e5b2bc70f689", "lat": 38.81327116666667, "name": "fed92043abfa40bf6840e5b2bc70f689", "lon": -77.050881, "fusion_lon": 0.0}, {"is_reserved": 0, "type": "electric_scooter", "fusion_lat": 0.0, "is_disabled": 0, "rental_uris": {"ios": "https://dc.lft.to/lastmile_qr_scan", "android": "https://dc.lft.to/lastmile_qr_scan"}, "bike_id": "efa3edd09a9ccdcc1617c6e7a39f45dc", "lat": 38.877231, "name": "efa3edd09a9ccdcc1617c6e7a39f45dc", "lon": -77.005984, "fusion_lon": 0.0}, {"is_reserved": 0, "type": "electric_scooter", "fusion_lat": 0.0, "is_disabled": 0, "rental_uris": {"ios": "https://dc.lft.to/lastmile_qr_scan", "android": "https://dc.lft.to/lastmile_qr_scan"}, "bike_id": "4bc2571ab760bda69d7bde0d1f60d474", "lat": 38.931944333333334, "name": "4bc2571ab760bda69d7bde0d1f60d474", "lon": -77.0326615, "fusion_lon": 0.0}, {"is_reserved": 0, "type": "electric_scooter", "fusion_lat": 0.0, "is_disabled": 0, "rental_uris": {"ios": "https://dc.lft.to/lastmile_qr_scan", "android": "https://dc.lft.to/lastmile_qr_scan"}, "bike_id": "6651616b2e8331ef9fa6b70531841ba8", "lat": 38.92295816666667, "name": "6651616b2e8331ef9fa6b70531841ba8", "lon": -77.02075366666666, "fusion_lon": 0.0}, {"is_reserved": 0, "type": "electric_bike", "fusion_lat": 0.0, "is_disabled": 0, "rental_uris": {"ios": "https://dc.lft.to/lastmile_qr_scan", "android": "https://dc.lft.to/lastmile_qr_scan"}, "bike_id": "47e05fdc3cf271629357cd604d9153b1", "lat": 38.961257833333335, "name": "47e05fdc3cf271629357cd604d9153b1", "lon": -77.03273966666667, "fusion_lon": 0.0}, {"is_reserved": 0, "type": "electric_scooter", "fusion_lat": 0.0, "is_disabled": 0, "rental_uris": {"ios": "https://dc.lft.to/lastmile_qr_scan", "android": "https://dc.lft.to/lastmile_qr_scan"}, "bike_id": "59d51e0af3eb3c787af722ab7c52b4d1", "lat": 38.9133875, "name": "59d51e0af3eb3c787af722ab7c52b4d1", "lon": -77.01063433333333, "fusion_lon": 0.0}, {"is_reserved": 0, "type": "electric_scooter", "fusion_lat": 0.0, "is_disabled": 0, "rental_uris": {"ios": "https://dc.lft.to/lastmile_qr_scan", "android": "https://dc.lft.to/lastmile_qr_scan"}, "bike_id": "b9adfb4c44bbeac06ecbef5d317d0dc9", "lat": 38.920836333333334, "name": "b9adfb4c44bbeac06ecbef5d317d0dc9", "lon": -77.03168316666667, "fusion_lon": 0.0}, {"is_reserved": 0, "type": "electric_scooter", "fusion_lat": 0.0, "is_disabled": 0, "rental_uris": {"ios": "https://dc.lft.to/lastmile_qr_scan", "android": "https://dc.lft.to/lastmile_qr_scan"}, "bike_id": "2f24760885cc916bad133084f786e3a3", "lat": 38.94683, "name": "2f24760885cc916bad133084f786e3a3", "lon": -77.0328415, "fusion_lon": 0.0}, {"is_reserved": 0, "type": "electric_scooter", "fusion_lat": 0.0, "is_disabled": 0, "rental_uris": {"ios": "https://dc.lft.to/lastmile_qr_scan", "android": "https://dc.lft.to/lastmile_qr_scan"}, "bike_id": "39c3c1b7023700ec0216fc2219ca8fc8", "lat": 38.93903816666667, "name": "39c3c1b7023700ec0216fc2219ca8fc8", "lon": -77.032875, "fusion_lon": 0.0}, {"is_reserved": 0, "type": "electric_scooter", "fusion_lat": 0.0, "is_disabled": 0, "rental_uris": {"ios": "https://dc.lft.to/lastmile_qr_scan", "android": "https://dc.lft.to/lastmile_qr_scan"}, "bike_id": "87b3a56a2d394c8018ac2a40b3ae8baf", "lat": 38.906194666666664, "name": "87b3a56a2d394c8018ac2a40b3ae8baf", "lon": -77.02107833333334, "fusion_lon": 0.0}, {"is_reserved": 0, "type": "electric_scooter", "fusion_lat": 0.0, "is_disabled": 0, "rental_uris": {"ios": "https://dc.lft.to/lastmile_qr_scan", "android": "https://dc.lft.to/lastmile_qr_scan"}, "bike_id": "478ee5539fbf51913e68177b69f5c106", "lat": 38.9146655, "name": "478ee5539fbf51913e68177b69f5c106", "lon": -77.00213333333333, "fusion_lon": 0.0}, {"is_reserved": 0, "type": "electric_scooter", "fusion_lat": 0.0, "is_disabled": 0, "rental_uris": {"ios": "https://dc.lft.to/lastmile_qr_scan", "android": "https://dc.lft.to/lastmile_qr_scan"}, "bike_id": "582645d0c4782d8654bf4476fe205aec", "lat": 38.886602, "name": "582645d0c4782d8654bf4476fe205aec", "lon": -76.98563233333333, "fusion_lon": 0.0}, {"is_reserved": 0, "type": "electric_scooter", "fusion_lat": 0.0, "is_disabled": 0, "rental_uris": {"ios": "https://dc.lft.to/lastmile_qr_scan", "android": "https://dc.lft.to/lastmile_qr_scan"}, "bike_id": "e49be735d66ee9ef96bd5dd5604114b3", "lat": 38.911176, "name": "e49be735d66ee9ef96bd5dd5604114b3", "lon": -77.03836783333334, "fusion_lon": 0.0}, {"is_reserved": 0, "type": "electric_scooter", "fusion_lat": 0.0, "is_disabled": 0, "rental_uris": {"ios": "https://dc.lft.to/lastmile_qr_scan", "android": "https://dc.lft.to/lastmile_qr_scan"}, "bike_id": "e0d4f9c63b98e36ae0e81c69d7e03e0e", "lat": 38.934234000000004, "name": "e0d4f9c63b98e36ae0e81c69d7e03e0e", "lon": -77.04411283333333, "fusion_lon": 0.0}, {"is_reserved": 0, "type": "electric_scooter", "fusion_lat": 0.0, "is_disabled": 0, "rental_uris": {"ios": "https://dc.lft.to/lastmile_qr_scan", "android": "https://dc.lft.to/lastmile_qr_scan"}, "bike_id": "95f8d5fee8332635ed87f279ae22917b", "lat": 38.8551825, "name": "95f8d5fee8332635ed87f279ae22917b", "lon": -76.99140383333334, "fusion_lon": 0.0}, {"is_reserved": 0, "type": "electric_scooter", "fusion_lat": 0.0, "is_disabled": 0, "rental_uris": {"ios": "https://dc.lft.to/lastmile_qr_scan", "android": "https://dc.lft.to/lastmile_qr_scan"}, "bike_id": "0166bd623d13349b90178859c7141961", "lat": 38.89474166666667, "name": "0166bd623d13349b90178859c7141961", "lon": -76.9935595, "fusion_lon": 0.0}, {"is_reserved": 0, "type": "electric_scooter", "fusion_lat": 0.0, "is_disabled": 0, "rental_uris": {"ios": "https://dc.lft.to/lastmile_qr_scan", "android": "https://dc.lft.to/lastmile_qr_scan"}, "bike_id": "5c3d3660f05e476ff4f82aec4976b3c8", "lat": 38.922858833333336, "name": "5c3d3660f05e476ff4f82aec4976b3c8", "lon": -77.019967, "fusion_lon": 0.0}, {"is_reserved": 0, "type": "electric_scooter", "fusion_lat": 0.0, "is_disabled": 0, "rental_uris": {"ios": "https://dc.lft.to/lastmile_qr_scan", "android": "https://dc.lft.to/lastmile_qr_scan"}, "bike_id": "420e41a76aaf1d5611bfc991bc1d0526", "lat": 38.88129716666667, "name": "420e41a76aaf1d5611bfc991bc1d0526", "lon": -76.993488, "fusion_lon": 0.0}, {"is_reserved": 0, "type": "electric_scooter", "fusion_lat": 0.0, "is_disabled": 0, "rental_uris": {"ios": "https://dc.lft.to/lastmile_qr_scan", "android": "https://dc.lft.to/lastmile_qr_scan"}, "bike_id": "787cc96043a5442ed712ffda0e32616d", "lat": 38.89834283333333, "name": "787cc96043a5442ed712ffda0e32616d", "lon": -76.94634466666666, "fusion_lon": 0.0}, {"is_reserved": 0, "type": "electric_scooter", "fusion_lat": 0.0, "is_disabled": 0, "rental_uris": {"ios": "https://dc.lft.to/lastmile_qr_scan", "android": "https://dc.lft.to/lastmile_qr_scan"}, "bike_id": "a4bde64f084000798ae8f5e17fbf2a7d", "lat": 38.922184666666666, "name": "a4bde64f084000798ae8f5e17fbf2a7d", "lon": -77.0329845, "fusion_lon": 0.0}, {"is_reserved": 0, "type": "electric_scooter", "fusion_lat": 0.0, "is_disabled": 0, "rental_uris": {"ios": "https://dc.lft.to/lastmile_qr_scan", "android": "https://dc.lft.to/lastmile_qr_scan"}, "bike_id": "33974c77883dafb07b9b68c8b46fa667", "lat": 38.90204766666667, "name": "33974c77883dafb07b9b68c8b46fa667", "lon": -77.0237495, "fusion_lon": 0.0}, {"is_reserved": 0, "type": "electric_scooter", "fusion_lat": 0.0, "is_disabled": 0, "rental_uris": {"ios": "https://dc.lft.to/lastmile_qr_scan", "android": "https://dc.lft.to/lastmile_qr_scan"}, "bike_id": "751de901dd1f6ba6a347c0814572e329", "lat": 38.9283475, "name": "751de901dd1f6ba6a347c0814572e329", "lon": -77.0370945, "fusion_lon": 0.0}, {"is_reserved": 0, "type": "electric_scooter", "fusion_lat": 0.0, "is_disabled": 0, "rental_uris": {"ios": "https://dc.lft.to/lastmile_qr_scan", "android": "https://dc.lft.to/lastmile_qr_scan"}, "bike_id": "5e440610b6a2c41a6d13c2c47f320aaf", "lat": 38.876356666666666, "name": "5e440610b6a2c41a6d13c2c47f320aaf", "lon": -77.0096335, "fusion_lon": 0.0}, {"is_reserved": 0, "type": "electric_scooter", "fusion_lat": 0.0, "is_disabled": 0, "rental_uris": {"ios": "https://dc.lft.to/lastmile_qr_scan", "android": "https://dc.lft.to/lastmile_qr_scan"}, "bike_id": "423abdc375d63823e4842e14cffa8305", "lat": 38.898448333333334, "name": "423abdc375d63823e4842e14cffa8305", "lon": -77.03929966666666, "fusion_lon": 0.0}, {"is_reserved": 0, "type": "electric_scooter", "fusion_lat": 0.0, "is_disabled": 0, "rental_uris": {"ios": "https://dc.lft.to/lastmile_qr_scan", "android": "https://dc.lft.to/lastmile_qr_scan"}, "bike_id": "a4fd4a5129b9b2909c563be0e11d81c5", "lat": 38.904857, "name": "a4fd4a5129b9b2909c563be0e11d81c5", "lon": -77.0279555, "fusion_lon": 0.0}, {"is_reserved": 0, "type": "electric_scooter", "fusion_lat": 0.0, "is_disabled": 0, "rental_uris": {"ios": "https://dc.lft.to/lastmile_qr_scan", "android": "https://dc.lft.to/lastmile_qr_scan"}, "bike_id": "c772d5036b123aaf979476b189fa6646", "lat": 38.904546, "name": "c772d5036b123aaf979476b189fa6646", "lon": -77.01686883333333, "fusion_lon": 0.0}, {"is_reserved": 0, "type": "electric_scooter", "fusion_lat": 0.0, "is_disabled": 0, "rental_uris": {"ios": "https://dc.lft.to/lastmile_qr_scan", "android": "https://dc.lft.to/lastmile_qr_scan"}, "bike_id": "2f70312234b6dbef5e1db21fcb4bb317", "lat": 38.93779966666666, "name": "2f70312234b6dbef5e1db21fcb4bb317", "lon": -76.9937145, "fusion_lon": 0.0}, {"is_reserved": 0, "type": "electric_scooter", "fusion_lat": 0.0, "is_disabled": 0, "rental_uris": {"ios": "https://dc.lft.to/lastmile_qr_scan", "android": "https://dc.lft.to/lastmile_qr_scan"}, "bike_id": "0ad71165a95091061fe4d6d185fc0770", "lat": 38.90256733333333, "name": "0ad71165a95091061fe4d6d185fc0770", "lon": -77.0167295, "fusion_lon": 0.0}, {"is_reserved": 0, "type": "electric_scooter", "fusion_lat": 0.0, "is_disabled": 0, "rental_uris": {"ios": "https://dc.lft.to/lastmile_qr_scan", "android": "https://dc.lft.to/lastmile_qr_scan"}, "bike_id": "5f34756979956b55f02bea7fe265b24c", "lat": 38.882662333333336, "name": "5f34756979956b55f02bea7fe265b24c", "lon": -76.99524983333333, "fusion_lon": 0.0}, {"is_reserved": 0, "type": "electric_scooter", "fusion_lat": 0.0, "is_disabled": 0, "rental_uris": {"ios": "https://dc.lft.to/lastmile_qr_scan", "android": "https://dc.lft.to/lastmile_qr_scan"}, "bike_id": "79d98c7a4d76daab669b5b2dfe61f747", "lat": 38.9033545, "name": "79d98c7a4d76daab669b5b2dfe61f747", "lon": -76.97588666666667, "fusion_lon": 0.0}, {"is_reserved": 0, "type": "electric_scooter", "fusion_lat": 0.0, "is_disabled": 0, "rental_uris": {"ios": "https://dc.lft.to/lastmile_qr_scan", "android": "https://dc.lft.to/lastmile_qr_scan"}, "bike_id": "96cbd0d1d743f8166fdec325cab24ea7", "lat": 38.8967505, "name": "96cbd0d1d743f8166fdec325cab24ea7", "lon": -77.01193533333333, "fusion_lon": 0.0}, {"is_reserved": 0, "type": "electric_scooter", "fusion_lat": 0.0, "is_disabled": 0, "rental_uris": {"ios": "https://dc.lft.to/lastmile_qr_scan", "android": "https://dc.lft.to/lastmile_qr_scan"}, "bike_id": "117bcf960cf09d4e2aaf0efb93934504", "lat": 38.91201083333333, "name": "117bcf960cf09d4e2aaf0efb93934504", "lon": -77.00210533333333, "fusion_lon": 0.0}, {"is_reserved": 0, "type": "electric_scooter", "fusion_lat": 0.0, "is_disabled": 0, "rental_uris": {"ios": "https://dc.lft.to/lastmile_qr_scan", "android": "https://dc.lft.to/lastmile_qr_scan"}, "bike_id": "82992cdcd74c28bcce38ff307ee9e8c1", "lat": 38.90960033333333, "name": "82992cdcd74c28bcce38ff307ee9e8c1", "lon": -77.02379866666666, "fusion_lon": 0.0}, {"is_reserved": 0, "type": "electric_scooter", "fusion_lat": 0.0, "is_disabled": 0, "rental_uris": {"ios": "https://dc.lft.to/lastmile_qr_scan", "android": "https://dc.lft.to/lastmile_qr_scan"}, "bike_id": "953b9da4ad3b4f72791f0481abb79ed1", "lat": 38.9238275, "name": "953b9da4ad3b4f72791f0481abb79ed1", "lon": -77.05175433333334, "fusion_lon": 0.0}, {"is_reserved": 0, "type": "electric_scooter", "fusion_lat": 0.0, "is_disabled": 0, "rental_uris": {"ios": "https://dc.lft.to/lastmile_qr_scan", "android": "https://dc.lft.to/lastmile_qr_scan"}, "bike_id": "a8f9eb335b9963816a2b93f98fb14582", "lat": 38.924125833333335, "name": "a8f9eb335b9963816a2b93f98fb14582", "lon": -77.02988783333333, "fusion_lon": 0.0}, {"is_reserved": 0, "type": "electric_scooter", "fusion_lat": 0.0, "is_disabled": 0, "rental_uris": {"ios": "https://dc.lft.to/lastmile_qr_scan", "android": "https://dc.lft.to/lastmile_qr_scan"}, "bike_id": "e91404990f8797f8b6782b2915c11648", "lat": 38.92069633333333, "name": "e91404990f8797f8b6782b2915c11648", "lon": -77.02824916666667, "fusion_lon": 0.0}, {"is_reserved": 0, "type": "electric_scooter", "fusion_lat": 0.0, "is_disabled": 0, "rental_uris": {"ios": "https://dc.lft.to/lastmile_qr_scan", "android": "https://dc.lft.to/lastmile_qr_scan"}, "bike_id": "81f2fca9b87aa8810d23081cf73c1fbc", "lat": 38.90490116666667, "name": "81f2fca9b87aa8810d23081cf73c1fbc", "lon": -77.0282655, "fusion_lon": 0.0}, {"is_reserved": 0, "type": "electric_scooter", "fusion_lat": 0.0, "is_disabled": 0, "rental_uris": {"ios": "https://dc.lft.to/lastmile_qr_scan", "android": "https://dc.lft.to/lastmile_qr_scan"}, "bike_id": "7c543b74fa70ea2d9866d72721ffbadf", "lat": 38.9408865, "name": "7c543b74fa70ea2d9866d72721ffbadf", "lon": -77.02731233333333, "fusion_lon": 0.0}, {"is_reserved": 0, "type": "electric_scooter", "fusion_lat": 0.0, "is_disabled": 0, "rental_uris": {"ios": "https://dc.lft.to/lastmile_qr_scan", "android": "https://dc.lft.to/lastmile_qr_scan"}, "bike_id": "4a741b357317acb64f924772bcbfc4da", "lat": 38.8788295, "name": "4a741b357317acb64f924772bcbfc4da", "lon": -77.00052316666667, "fusion_lon": 0.0}, {"is_reserved": 0, "type": "electric_scooter", "fusion_lat": 0.0, "is_disabled": 0, "rental_uris": {"ios": "https://dc.lft.to/lastmile_qr_scan", "android": "https://dc.lft.to/lastmile_qr_scan"}, "bike_id": "5593e4b8cf23e84ff915cb3f9c35180e", "lat": 38.93480316666667, "name": "5593e4b8cf23e84ff915cb3f9c35180e", "lon": -77.05790983333333, "fusion_lon": 0.0}, {"is_reserved": 0, "type": "electric_bike", "fusion_lat": 0.0, "is_disabled": 0, "rental_uris": {"ios": "https://dc.lft.to/lastmile_qr_scan", "android": "https://dc.lft.to/lastmile_qr_scan"}, "bike_id": "51032dac3f68f7ce1afef1677b29c0f8", "lat": 39.084756, "name": "51032dac3f68f7ce1afef1677b29c0f8", "lon": -76.95074383333333, "fusion_lon": 0.0}, {"is_reserved": 0, "type": "electric_scooter", "fusion_lat": 0.0, "is_disabled": 0, "rental_uris": {"ios": "https://dc.lft.to/lastmile_qr_scan", "android": "https://dc.lft.to/lastmile_qr_scan"}, "bike_id": "463f0e53e859941dc69b72c9a87a3615", "lat": 38.9206425, "name": "463f0e53e859941dc69b72c9a87a3615", "lon": -77.04235883333334, "fusion_lon": 0.0}, {"is_reserved": 0, "type": "electric_scooter", "fusion_lat": 0.0, "is_disabled": 0, "rental_uris": {"ios": "https://dc.lft.to/lastmile_qr_scan", "android": "https://dc.lft.to/lastmile_qr_scan"}, "bike_id": "e1e8de90a345379a231d22ef836ad5f5", "lat": 38.900353333333335, "name": "e1e8de90a345379a231d22ef836ad5f5", "lon": -77.01713033333333, "fusion_lon": 0.0}, {"is_reserved": 0, "type": "electric_scooter", "fusion_lat": 0.0, "is_disabled": 0, "rental_uris": {"ios": "https://dc.lft.to/lastmile_qr_scan", "android": "https://dc.lft.to/lastmile_qr_scan"}, "bike_id": "8667d4e063efb5d89e22892957a2c77e", "lat": 38.864957, "name": "8667d4e063efb5d89e22892957a2c77e", "lon": -76.9773075, "fusion_lon": 0.0}, {"is_reserved": 0, "type": "electric_scooter", "fusion_lat": 0.0, "is_disabled": 0, "rental_uris": {"ios": "https://dc.lft.to/lastmile_qr_scan", "android": "https://dc.lft.to/lastmile_qr_scan"}, "bike_id": "a194101eb020be24e47263672cc00b45", "lat": 38.8929975, "name": "a194101eb020be24e47263672cc00b45", "lon": -77.01990466666666, "fusion_lon": 0.0}, {"is_reserved": 0, "type": "electric_scooter", "fusion_lat": 0.0, "is_disabled": 0, "rental_uris": {"ios": "https://dc.lft.to/lastmile_qr_scan", "android": "https://dc.lft.to/lastmile_qr_scan"}, "bike_id": "0c3a4ae0af79a58adc9d0ba3a7f71595", "lat": 38.8995425, "name": "0c3a4ae0af79a58adc9d0ba3a7f71595", "lon": -76.92635666666666, "fusion_lon": 0.0}, {"is_reserved": 0, "type": "electric_scooter", "fusion_lat": 0.0, "is_disabled": 0, "rental_uris": {"ios": "https://dc.lft.to/lastmile_qr_scan", "android": "https://dc.lft.to/lastmile_qr_scan"}, "bike_id": "4f361757e4663268a75976de506a5cb0", "lat": 38.91716983333333, "name": "4f361757e4663268a75976de506a5cb0", "lon": -77.03861483333333, "fusion_lon": 0.0}, {"is_reserved": 0, "type": "electric_scooter", "fusion_lat": 0.0, "is_disabled": 0, "rental_uris": {"ios": "https://dc.lft.to/lastmile_qr_scan", "android": "https://dc.lft.to/lastmile_qr_scan"}, "bike_id": "d3a5b1443c942eed95d23481a8ef6fae", "lat": 38.929987, "name": "d3a5b1443c942eed95d23481a8ef6fae", "lon": -77.03794716666667, "fusion_lon": 0.0}, {"is_reserved": 0, "type": "electric_scooter", "fusion_lat": 0.0, "is_disabled": 0, "rental_uris": {"ios": "https://dc.lft.to/lastmile_qr_scan", "android": "https://dc.lft.to/lastmile_qr_scan"}, "bike_id": "7a4f38d3451d0a4ae1d07f83cfd34da8", "lat": 38.935305, "name": "7a4f38d3451d0a4ae1d07f83cfd34da8", "lon": -77.02363483333333, "fusion_lon": 0.0}, {"is_reserved": 0, "type": "electric_bike", "fusion_lat": 0.0, "is_disabled": 0, "rental_uris": {"ios": "https://dc.lft.to/lastmile_qr_scan", "android": "https://dc.lft.to/lastmile_qr_scan"}, "bike_id": "fed213000f3e710a3ea7c5cabebf5e11", "lat": 39.02519683333333, "name": "fed213000f3e710a3ea7c5cabebf5e11", "lon": -77.01967466666666, "fusion_lon": 0.0}, {"is_reserved": 0, "type": "electric_scooter", "fusion_lat": 0.0, "is_disabled": 0, "rental_uris": {"ios": "https://dc.lft.to/lastmile_qr_scan", "android": "https://dc.lft.to/lastmile_qr_scan"}, "bike_id": "bbae7e64eb1f850892d9baaad30a455e", "lat": 38.911111166666664, "name": "bbae7e64eb1f850892d9baaad30a455e", "lon": -77.003751, "fusion_lon": 0.0}, {"is_reserved": 0, "type": "electric_scooter", "fusion_lat": 0.0, "is_disabled": 0, "rental_uris": {"ios": "https://dc.lft.to/lastmile_qr_scan", "android": "https://dc.lft.to/lastmile_qr_scan"}, "bike_id": "5e39ceae6958be9107b5f14f506b9022", "lat": 38.89375, "name": "5e39ceae6958be9107b5f14f506b9022", "lon": -77.02062166666667, "fusion_lon": 0.0}, {"is_reserved": 0, "type": "electric_scooter", "fusion_lat": 0.0, "is_disabled": 0, "rental_uris": {"ios": "https://dc.lft.to/lastmile_qr_scan", "android": "https://dc.lft.to/lastmile_qr_scan"}, "bike_id": "2282562b2905b5e8c7ee53a0ada82fd7", "lat": 38.929162833333336, "name": "2282562b2905b5e8c7ee53a0ada82fd7", "lon": -77.0209145, "fusion_lon": 0.0}, {"is_reserved": 0, "type": "electric_scooter", "fusion_lat": 0.0, "is_disabled": 0, "rental_uris": {"ios": "https://dc.lft.to/lastmile_qr_scan", "android": "https://dc.lft.to/lastmile_qr_scan"}, "bike_id": "51163f074489b6c1ffe95c90918c4198", "lat": 38.855656, "name": "51163f074489b6c1ffe95c90918c4198", "lon": -76.99079016666667, "fusion_lon": 0.0}, {"is_reserved": 0, "type": "electric_scooter", "fusion_lat": 0.0, "is_disabled": 0, "rental_uris": {"ios": "https://dc.lft.to/lastmile_qr_scan", "android": "https://dc.lft.to/lastmile_qr_scan"}, "bike_id": "fc80d5a93700e49e5b469f31e8efb6ca", "lat": 38.9311615, "name": "fc80d5a93700e49e5b469f31e8efb6ca", "lon": -77.02104533333333, "fusion_lon": 0.0}, {"is_reserved": 0, "type": "electric_scooter", "fusion_lat": 0.0, "is_disabled": 0, "rental_uris": {"ios": "https://dc.lft.to/lastmile_qr_scan", "android": "https://dc.lft.to/lastmile_qr_scan"}, "bike_id": "ac8a813050e8aced032e11010502b121", "lat": 38.917812, "name": "ac8a813050e8aced032e11010502b121", "lon": -77.0231065, "fusion_lon": 0.0}, {"is_reserved": 0, "type": "electric_scooter", "fusion_lat": 0.0, "is_disabled": 0, "rental_uris": {"ios": "https://dc.lft.to/lastmile_qr_scan", "android": "https://dc.lft.to/lastmile_qr_scan"}, "bike_id": "6ec5d88e09c4c837c3baba257750ea0a", "lat": 38.903425666666664, "name": "6ec5d88e09c4c837c3baba257750ea0a", "lon": -77.02595583333333, "fusion_lon": 0.0}, {"is_reserved": 0, "type": "electric_scooter", "fusion_lat": 0.0, "is_disabled": 0, "rental_uris": {"ios": "https://dc.lft.to/lastmile_qr_scan", "android": "https://dc.lft.to/lastmile_qr_scan"}, "bike_id": "48ee2b9c222a710f359c801f90b64f97", "lat": 38.936038833333335, "name": "48ee2b9c222a710f359c801f90b64f97", "lon": -77.02414416666667, "fusion_lon": 0.0}, {"is_reserved": 0, "type": "electric_scooter", "fusion_lat": 0.0, "is_disabled": 0, "rental_uris": {"ios": "https://dc.lft.to/lastmile_qr_scan", "android": "https://dc.lft.to/lastmile_qr_scan"}, "bike_id": "a77fe8c9fbbe199ba488d4fa7f46966d", "lat": 38.88242433333333, "name": "a77fe8c9fbbe199ba488d4fa7f46966d", "lon": -76.93337116666666, "fusion_lon": 0.0}, {"is_reserved": 0, "type": "electric_scooter", "fusion_lat": 0.0, "is_disabled": 0, "rental_uris": {"ios": "https://dc.lft.to/lastmile_qr_scan", "android": "https://dc.lft.to/lastmile_qr_scan"}, "bike_id": "0e60e1c8ca3ba97609dbcb250d55876b", "lat": 38.919731166666665, "name": "0e60e1c8ca3ba97609dbcb250d55876b", "lon": -77.0237835, "fusion_lon": 0.0}, {"is_reserved": 0, "type": "electric_scooter", "fusion_lat": 0.0, "is_disabled": 0, "rental_uris": {"ios": "https://dc.lft.to/lastmile_qr_scan", "android": "https://dc.lft.to/lastmile_qr_scan"}, "bike_id": "8597383a378007f02040795366125868", "lat": 38.926535333333334, "name": "8597383a378007f02040795366125868", "lon": -77.0243475, "fusion_lon": 0.0}, {"is_reserved": 0, "type": "electric_scooter", "fusion_lat": 0.0, "is_disabled": 0, "rental_uris": {"ios": "https://dc.lft.to/lastmile_qr_scan", "android": "https://dc.lft.to/lastmile_qr_scan"}, "bike_id": "b768073cd9834c01e4f463598b25234e", "lat": 38.91620983333333, "name": "b768073cd9834c01e4f463598b25234e", "lon": -77.029611, "fusion_lon": 0.0}, {"is_reserved": 0, "type": "electric_scooter", "fusion_lat": 0.0, "is_disabled": 0, "rental_uris": {"ios": "https://dc.lft.to/lastmile_qr_scan", "android": "https://dc.lft.to/lastmile_qr_scan"}, "bike_id": "74b2f4986959574d1b2db4ed045b3280", "lat": 38.913349833333335, "name": "74b2f4986959574d1b2db4ed045b3280", "lon": -77.03046916666666, "fusion_lon": 0.0}, {"is_reserved": 0, "type": "electric_scooter", "fusion_lat": 0.0, "is_disabled": 0, "rental_uris": {"ios": "https://dc.lft.to/lastmile_qr_scan", "android": "https://dc.lft.to/lastmile_qr_scan"}, "bike_id": "3cf43468fc4a2d20f9ff4c4a5ab6ef49", "lat": 38.92073533333333, "name": "3cf43468fc4a2d20f9ff4c4a5ab6ef49", "lon": -77.02396466666667, "fusion_lon": 0.0}, {"is_reserved": 0, "type": "electric_scooter", "fusion_lat": 0.0, "is_disabled": 0, "rental_uris": {"ios": "https://dc.lft.to/lastmile_qr_scan", "android": "https://dc.lft.to/lastmile_qr_scan"}, "bike_id": "40be0536f7902df31ca66d5047332351", "lat": 38.920739833333336, "name": "40be0536f7902df31ca66d5047332351", "lon": -77.024118, "fusion_lon": 0.0}, {"is_reserved": 0, "type": "electric_scooter", "fusion_lat": 0.0, "is_disabled": 0, "rental_uris": {"ios": "https://dc.lft.to/lastmile_qr_scan", "android": "https://dc.lft.to/lastmile_qr_scan"}, "bike_id": "ef834082c27cb765a41bb2430844c471", "lat": 38.928952333333335, "name": "ef834082c27cb765a41bb2430844c471", "lon": -77.03209, "fusion_lon": 0.0}, {"is_reserved": 0, "type": "electric_scooter", "fusion_lat": 0.0, "is_disabled": 0, "rental_uris": {"ios": "https://dc.lft.to/lastmile_qr_scan", "android": "https://dc.lft.to/lastmile_qr_scan"}, "bike_id": "adeb1c2730f954fa1e0b29fe300a9988", "lat": 38.92970966666667, "name": "adeb1c2730f954fa1e0b29fe300a9988", "lon": -77.02790983333334, "fusion_lon": 0.0}, {"is_reserved": 0, "type": "electric_scooter", "fusion_lat": 0.0, "is_disabled": 0, "rental_uris": {"ios": "https://dc.lft.to/lastmile_qr_scan", "android": "https://dc.lft.to/lastmile_qr_scan"}, "bike_id": "1ba7148a5e8d67ed65ed61ffd751f598", "lat": 38.92062416666667, "name": "1ba7148a5e8d67ed65ed61ffd751f598", "lon": -77.02506916666667, "fusion_lon": 0.0}, {"is_reserved": 0, "type": "electric_scooter", "fusion_lat": 0.0, "is_disabled": 0, "rental_uris": {"ios": "https://dc.lft.to/lastmile_qr_scan", "android": "https://dc.lft.to/lastmile_qr_scan"}, "bike_id": "046475e648d2509c1165cd2f0ac4eee9", "lat": 38.92379233333333, "name": "046475e648d2509c1165cd2f0ac4eee9", "lon": -77.03078883333333, "fusion_lon": 0.0}, {"is_reserved": 0, "type": "electric_scooter", "fusion_lat": 0.0, "is_disabled": 0, "rental_uris": {"ios": "https://dc.lft.to/lastmile_qr_scan", "android": "https://dc.lft.to/lastmile_qr_scan"}, "bike_id": "c34d419fac340e3f983bcd8dbb0dcd2c", "lat": 38.899538166666666, "name": "c34d419fac340e3f983bcd8dbb0dcd2c", "lon": -77.01448833333333, "fusion_lon": 0.0}, {"is_reserved": 0, "type": "electric_scooter", "fusion_lat": 0.0, "is_disabled": 0, "rental_uris": {"ios": "https://dc.lft.to/lastmile_qr_scan", "android": "https://dc.lft.to/lastmile_qr_scan"}, "bike_id": "1b25e55c633065ad8eed0f63cea48c9e", "lat": 38.91406, "name": "1b25e55c633065ad8eed0f63cea48c9e", "lon": -77.0450515, "fusion_lon": 0.0}, {"is_reserved": 0, "type": "electric_scooter", "fusion_lat": 0.0, "is_disabled": 0, "rental_uris": {"ios": "https://dc.lft.to/lastmile_qr_scan", "android": "https://dc.lft.to/lastmile_qr_scan"}, "bike_id": "4da4d308a16859ac7e01e5e889271540", "lat": 38.90849166666667, "name": "4da4d308a16859ac7e01e5e889271540", "lon": -77.02463566666667, "fusion_lon": 0.0}, {"is_reserved": 0, "type": "electric_scooter", "fusion_lat": 0.0, "is_disabled": 0, "rental_uris": {"ios": "https://dc.lft.to/lastmile_qr_scan", "android": "https://dc.lft.to/lastmile_qr_scan"}, "bike_id": "5185704858efa117ff03415e03871f29", "lat": 38.894795333333334, "name": "5185704858efa117ff03415e03871f29", "lon": -76.94874, "fusion_lon": 0.0}, {"is_reserved": 0, "type": "electric_scooter", "fusion_lat": 0.0, "is_disabled": 0, "rental_uris": {"ios": "https://dc.lft.to/lastmile_qr_scan", "android": "https://dc.lft.to/lastmile_qr_scan"}, "bike_id": "f8efef45404702872210ad48ca8dbc3a", "lat": 38.91158, "name": "f8efef45404702872210ad48ca8dbc3a", "lon": -77.044841, "fusion_lon": 0.0}, {"is_reserved": 0, "type": "electric_scooter", "fusion_lat": 0.0, "is_disabled": 0, "rental_uris": {"ios": "https://dc.lft.to/lastmile_qr_scan", "android": "https://dc.lft.to/lastmile_qr_scan"}, "bike_id": "6778027e36a930f36482c310731e4468", "lat": 38.89329216666667, "name": "6778027e36a930f36482c310731e4468", "lon": -76.93932649999999, "fusion_lon": 0.0}, {"is_reserved": 0, "type": "electric_scooter", "fusion_lat": 0.0, "is_disabled": 0, "rental_uris": {"ios": "https://dc.lft.to/lastmile_qr_scan", "android": "https://dc.lft.to/lastmile_qr_scan"}, "bike_id": "6da60658b234a0194bd0b1f29ffebeda", "lat": 38.91758883333333, "name": "6da60658b234a0194bd0b1f29ffebeda", "lon": -77.004451, "fusion_lon": 0.0}, {"is_reserved": 0, "type": "electric_bike", "fusion_lat": 0.0, "is_disabled": 0, "rental_uris": {"ios": "https://dc.lft.to/lastmile_qr_scan", "android": "https://dc.lft.to/lastmile_qr_scan"}, "bike_id": "39b06a046b51583d355e10b82dadf615", "lat": 38.87580883333333, "name": "39b06a046b51583d355e10b82dadf615", "lon": -77.2341425, "fusion_lon": 0.0}, {"is_reserved": 0, "type": "electric_bike", "fusion_lat": 0.0, "is_disabled": 0, "rental_uris": {"ios": "https://dc.lft.to/lastmile_qr_scan", "android": "https://dc.lft.to/lastmile_qr_scan"}, "bike_id": "a2f681e45bb5fe817241f3c1660400e5", "lat": 38.876694, "name": "a2f681e45bb5fe817241f3c1660400e5", "lon": -77.02090483333333, "fusion_lon": 0.0}, {"is_reserved": 0, "type": "electric_scooter", "fusion_lat": 0.0, "is_disabled": 0, "rental_uris": {"ios": "https://dc.lft.to/lastmile_qr_scan", "android": "https://dc.lft.to/lastmile_qr_scan"}, "bike_id": "be99600c283422d8f1d03c8d77d3767c", "lat": 38.90281483333333, "name": "be99600c283422d8f1d03c8d77d3767c", "lon": -77.01733483333334, "fusion_lon": 0.0}, {"is_reserved": 0, "type": "electric_scooter", "fusion_lat": 0.0, "is_disabled": 0, "rental_uris": {"ios": "https://dc.lft.to/lastmile_qr_scan", "android": "https://dc.lft.to/lastmile_qr_scan"}, "bike_id": "c506405948bf360a920c56c4d8586b6a", "lat": 38.92443316666667, "name": "c506405948bf360a920c56c4d8586b6a", "lon": -77.04245266666666, "fusion_lon": 0.0}, {"is_reserved": 0, "type": "electric_scooter", "fusion_lat": 0.0, "is_disabled": 0, "rental_uris": {"ios": "https://dc.lft.to/lastmile_qr_scan", "android": "https://dc.lft.to/lastmile_qr_scan"}, "bike_id": "025c9bfe557dfe950794d36d92e3ce8c", "lat": 38.87070816666667, "name": "025c9bfe557dfe950794d36d92e3ce8c", "lon": -76.9813195, "fusion_lon": 0.0}, {"is_reserved": 0, "type": "electric_scooter", "fusion_lat": 0.0, "is_disabled": 0, "rental_uris": {"ios": "https://dc.lft.to/lastmile_qr_scan", "android": "https://dc.lft.to/lastmile_qr_scan"}, "bike_id": "e2bf001deb8a6576dcdfcb3b392d8bca", "lat": 38.916528666666665, "name": "e2bf001deb8a6576dcdfcb3b392d8bca", "lon": -77.0228545, "fusion_lon": 0.0}, {"is_reserved": 0, "type": "electric_scooter", "fusion_lat": 0.0, "is_disabled": 0, "rental_uris": {"ios": "https://dc.lft.to/lastmile_qr_scan", "android": "https://dc.lft.to/lastmile_qr_scan"}, "bike_id": "96072ba5243c27a1c0f08df897dfb1cb", "lat": 38.930315, "name": "96072ba5243c27a1c0f08df897dfb1cb", "lon": -77.060736, "fusion_lon": 0.0}, {"is_reserved": 0, "type": "electric_scooter", "fusion_lat": 0.0, "is_disabled": 0, "rental_uris": {"ios": "https://dc.lft.to/lastmile_qr_scan", "android": "https://dc.lft.to/lastmile_qr_scan"}, "bike_id": "fe8ec12ea36e7849101eae8b42771afb", "lat": 38.892252666666664, "name": "fe8ec12ea36e7849101eae8b42771afb", "lon": -77.046411, "fusion_lon": 0.0}, {"is_reserved": 0, "type": "electric_scooter", "fusion_lat": 0.0, "is_disabled": 0, "rental_uris": {"ios": "https://dc.lft.to/lastmile_qr_scan", "android": "https://dc.lft.to/lastmile_qr_scan"}, "bike_id": "ef9780b6fcf0f1fc48e99a762cbf954b", "lat": 38.89825033333334, "name": "ef9780b6fcf0f1fc48e99a762cbf954b", "lon": -76.9300735, "fusion_lon": 0.0}, {"is_reserved": 0, "type": "electric_scooter", "fusion_lat": 0.0, "is_disabled": 0, "rental_uris": {"ios": "https://dc.lft.to/lastmile_qr_scan", "android": "https://dc.lft.to/lastmile_qr_scan"}, "bike_id": "db43e85844e4e5c74229a1e8dd8dcc1b", "lat": 38.9221445, "name": "db43e85844e4e5c74229a1e8dd8dcc1b", "lon": -77.04236616666667, "fusion_lon": 0.0}, {"is_reserved": 0, "type": "electric_scooter", "fusion_lat": 0.0, "is_disabled": 0, "rental_uris": {"ios": "https://dc.lft.to/lastmile_qr_scan", "android": "https://dc.lft.to/lastmile_qr_scan"}, "bike_id": "cf50b486d8e5ac1eef2f73b180371477", "lat": 38.897678, "name": "cf50b486d8e5ac1eef2f73b180371477", "lon": -77.04771916666667, "fusion_lon": 0.0}, {"is_reserved": 0, "type": "electric_bike", "fusion_lat": 0.0, "is_disabled": 0, "rental_uris": {"ios": "https://dc.lft.to/lastmile_qr_scan", "android": "https://dc.lft.to/lastmile_qr_scan"}, "bike_id": "256972fa1a1abf0879eb1574e437df01", "lat": 38.809816833333336, "name": "256972fa1a1abf0879eb1574e437df01", "lon": -77.07662183333333, "fusion_lon": 0.0}, {"is_reserved": 0, "type": "electric_scooter", "fusion_lat": 0.0, "is_disabled": 0, "rental_uris": {"ios": "https://dc.lft.to/lastmile_qr_scan", "android": "https://dc.lft.to/lastmile_qr_scan"}, "bike_id": "a9014bdf8d75444a8a5f687b12c056ac", "lat": 38.898182, "name": "a9014bdf8d75444a8a5f687b12c056ac", "lon": -77.01270166666667, "fusion_lon": 0.0}, {"is_reserved": 0, "type": "electric_bike", "fusion_lat": 0.0, "is_disabled": 0, "rental_uris": {"ios": "https://dc.lft.to/lastmile_qr_scan", "android": "https://dc.lft.to/lastmile_qr_scan"}, "bike_id": "c81e4559aba0fd85b64da11a9e3e7292", "lat": 38.92019466666667, "name": "c81e4559aba0fd85b64da11a9e3e7292", "lon": -77.003311, "fusion_lon": 0.0}, {"is_reserved": 0, "type": "electric_scooter", "fusion_lat": 0.0, "is_disabled": 0, "rental_uris": {"ios": "https://dc.lft.to/lastmile_qr_scan", "android": "https://dc.lft.to/lastmile_qr_scan"}, "bike_id": "9a4d7960d50cf1df42e258714af82d3f", "lat": 38.926668166666666, "name": "9a4d7960d50cf1df42e258714af82d3f", "lon": -76.99540016666667, "fusion_lon": 0.0}, {"is_reserved": 0, "type": "electric_scooter", "fusion_lat": 0.0, "is_disabled": 0, "rental_uris": {"ios": "https://dc.lft.to/lastmile_qr_scan", "android": "https://dc.lft.to/lastmile_qr_scan"}, "bike_id": "f4363e9215daf0536d4b600d1ca9a106", "lat": 38.894454, "name": "f4363e9215daf0536d4b600d1ca9a106", "lon": -76.9808435, "fusion_lon": 0.0}, {"is_reserved": 0, "type": "electric_scooter", "fusion_lat": 0.0, "is_disabled": 0, "rental_uris": {"ios": "https://dc.lft.to/lastmile_qr_scan", "android": "https://dc.lft.to/lastmile_qr_scan"}, "bike_id": "a32b76fcc0109b4c0f5987b21feff1c7", "lat": 38.907566333333335, "name": "a32b76fcc0109b4c0f5987b21feff1c7", "lon": -77.00758933333333, "fusion_lon": 0.0}, {"is_reserved": 0, "type": "electric_bike", "fusion_lat": 0.0, "is_disabled": 0, "rental_uris": {"ios": "https://dc.lft.to/lastmile_qr_scan", "android": "https://dc.lft.to/lastmile_qr_scan"}, "bike_id": "1ed26a79c0c3388601b3bd39f64ba5a6", "lat": 38.9363905, "name": "1ed26a79c0c3388601b3bd39f64ba5a6", "lon": -76.95460316666667, "fusion_lon": 0.0}, {"is_reserved": 0, "type": "electric_scooter", "fusion_lat": 0.0, "is_disabled": 0, "rental_uris": {"ios": "https://dc.lft.to/lastmile_qr_scan", "android": "https://dc.lft.to/lastmile_qr_scan"}, "bike_id": "ad8ead9775214975eface54448b4e37f", "lat": 38.924638, "name": "ad8ead9775214975eface54448b4e37f", "lon": -77.02244933333333, "fusion_lon": 0.0}, {"is_reserved": 0, "type": "electric_scooter", "fusion_lat": 0.0, "is_disabled": 0, "rental_uris": {"ios": "https://dc.lft.to/lastmile_qr_scan", "android": "https://dc.lft.to/lastmile_qr_scan"}, "bike_id": "fab7d9a9eeca8ce8d69c5c129d0c9567", "lat": 38.9187605, "name": "fab7d9a9eeca8ce8d69c5c129d0c9567", "lon": -77.03506283333333, "fusion_lon": 0.0}, {"is_reserved": 0, "type": "electric_scooter", "fusion_lat": 0.0, "is_disabled": 0, "rental_uris": {"ios": "https://dc.lft.to/lastmile_qr_scan", "android": "https://dc.lft.to/lastmile_qr_scan"}, "bike_id": "b8631670a8e0667f48d3e9c74ade7c59", "lat": 38.91656316666667, "name": "b8631670a8e0667f48d3e9c74ade7c59", "lon": -77.01032233333333, "fusion_lon": 0.0}, {"is_reserved": 0, "type": "electric_scooter", "fusion_lat": 0.0, "is_disabled": 0, "rental_uris": {"ios": "https://dc.lft.to/lastmile_qr_scan", "android": "https://dc.lft.to/lastmile_qr_scan"}, "bike_id": "acd7288f103aadfc3e8142131c794398", "lat": 38.93595916666666, "name": "acd7288f103aadfc3e8142131c794398", "lon": -77.03762883333333, "fusion_lon": 0.0}, {"is_reserved": 0, "type": "electric_scooter", "fusion_lat": 0.0, "is_disabled": 0, "rental_uris": {"ios": "https://dc.lft.to/lastmile_qr_scan", "android": "https://dc.lft.to/lastmile_qr_scan"}, "bike_id": "0e6300d71dff8a80d51df45a59ef322b", "lat": 38.921545, "name": "0e6300d71dff8a80d51df45a59ef322b", "lon": -77.0339145, "fusion_lon": 0.0}, {"is_reserved": 0, "type": "electric_scooter", "fusion_lat": 0.0, "is_disabled": 0, "rental_uris": {"ios": "https://dc.lft.to/lastmile_qr_scan", "android": "https://dc.lft.to/lastmile_qr_scan"}, "bike_id": "dd5034a6b6d0308f7f62664466007513", "lat": 38.89638333333333, "name": "dd5034a6b6d0308f7f62664466007513", "lon": -77.0284475, "fusion_lon": 0.0}, {"is_reserved": 0, "type": "electric_scooter", "fusion_lat": 0.0, "is_disabled": 0, "rental_uris": {"ios": "https://dc.lft.to/lastmile_qr_scan", "android": "https://dc.lft.to/lastmile_qr_scan"}, "bike_id": "dac1d05fb874216970f334cea9fcaac4", "lat": 38.94489166666666, "name": "dac1d05fb874216970f334cea9fcaac4", "lon": -77.094997, "fusion_lon": 0.0}, {"is_reserved": 0, "type": "electric_bike", "fusion_lat": 0.0, "is_disabled": 0, "rental_uris": {"ios": "https://dc.lft.to/lastmile_qr_scan", "android": "https://dc.lft.to/lastmile_qr_scan"}, "bike_id": "4ce250deb68ce05691a86c2f3003fcef", "lat": 38.8830595, "name": "4ce250deb68ce05691a86c2f3003fcef", "lon": -77.002029, "fusion_lon": 0.0}, {"is_reserved": 0, "type": "electric_scooter", "fusion_lat": 0.0, "is_disabled": 0, "rental_uris": {"ios": "https://dc.lft.to/lastmile_qr_scan", "android": "https://dc.lft.to/lastmile_qr_scan"}, "bike_id": "4d6c6122ba80a994f5c2e8f82a462278", "lat": 38.90012016666667, "name": "4d6c6122ba80a994f5c2e8f82a462278", "lon": -77.01199866666667, "fusion_lon": 0.0}, {"is_reserved": 0, "type": "electric_scooter", "fusion_lat": 0.0, "is_disabled": 0, "rental_uris": {"ios": "https://dc.lft.to/lastmile_qr_scan", "android": "https://dc.lft.to/lastmile_qr_scan"}, "bike_id": "8f8d6d2e1a7a4f176fe674bf09f5b1d5", "lat": 38.923718, "name": "8f8d6d2e1a7a4f176fe674bf09f5b1d5", "lon": -77.07289766666666, "fusion_lon": 0.0}, {"is_reserved": 0, "type": "electric_bike", "fusion_lat": 0.0, "is_disabled": 0, "rental_uris": {"ios": "https://dc.lft.to/lastmile_qr_scan", "android": "https://dc.lft.to/lastmile_qr_scan"}, "bike_id": "c0571dc4380ff4f4c65b631523f8471e", "lat": 38.903871, "name": "c0571dc4380ff4f4c65b631523f8471e", "lon": -76.93745633333333, "fusion_lon": 0.0}, {"is_reserved": 0, "type": "electric_scooter", "fusion_lat": 0.0, "is_disabled": 0, "rental_uris": {"ios": "https://dc.lft.to/lastmile_qr_scan", "android": "https://dc.lft.to/lastmile_qr_scan"}, "bike_id": "8aed5adcf9f83cf2343e04ce2ce72c79", "lat": 38.9354165, "name": "8aed5adcf9f83cf2343e04ce2ce72c79", "lon": -77.05749216666666, "fusion_lon": 0.0}, {"is_reserved": 0, "type": "electric_scooter", "fusion_lat": 0.0, "is_disabled": 0, "rental_uris": {"ios": "https://dc.lft.to/lastmile_qr_scan", "android": "https://dc.lft.to/lastmile_qr_scan"}, "bike_id": "e3e97decfddeb2e94d95f069dd2f35fc", "lat": 38.915533, "name": "e3e97decfddeb2e94d95f069dd2f35fc", "lon": -77.04128666666666, "fusion_lon": 0.0}, {"is_reserved": 0, "type": "electric_scooter", "fusion_lat": 0.0, "is_disabled": 0, "rental_uris": {"ios": "https://dc.lft.to/lastmile_qr_scan", "android": "https://dc.lft.to/lastmile_qr_scan"}, "bike_id": "386d9bafc76c708704d782f8c221c948", "lat": 38.88695116666667, "name": "386d9bafc76c708704d782f8c221c948", "lon": -77.00054483333334, "fusion_lon": 0.0}, {"is_reserved": 0, "type": "electric_scooter", "fusion_lat": 0.0, "is_disabled": 0, "rental_uris": {"ios": "https://dc.lft.to/lastmile_qr_scan", "android": "https://dc.lft.to/lastmile_qr_scan"}, "bike_id": "93fe363833a580f8792181d2c1190c94", "lat": 38.8792295, "name": "93fe363833a580f8792181d2c1190c94", "lon": -77.01333616666666, "fusion_lon": 0.0}, {"is_reserved": 0, "type": "electric_bike", "fusion_lat": 0.0, "is_disabled": 0, "rental_uris": {"ios": "https://dc.lft.to/lastmile_qr_scan", "android": "https://dc.lft.to/lastmile_qr_scan"}, "bike_id": "454abc677c7e88296ea80b38ab7e55b3", "lat": 38.96773233333333, "name": "454abc677c7e88296ea80b38ab7e55b3", "lon": -76.99657583333334, "fusion_lon": 0.0}, {"is_reserved": 0, "type": "electric_scooter", "fusion_lat": 0.0, "is_disabled": 0, "rental_uris": {"ios": "https://dc.lft.to/lastmile_qr_scan", "android": "https://dc.lft.to/lastmile_qr_scan"}, "bike_id": "69973aa0c7f9bb52e1ca1f17185dd6d3", "lat": 38.915747833333334, "name": "69973aa0c7f9bb52e1ca1f17185dd6d3", "lon": -77.02004766666667, "fusion_lon": 0.0}, {"is_reserved": 0, "type": "electric_scooter", "fusion_lat": 0.0, "is_disabled": 0, "rental_uris": {"ios": "https://dc.lft.to/lastmile_qr_scan", "android": "https://dc.lft.to/lastmile_qr_scan"}, "bike_id": "361e48566832397ee1a54d4fc85fdf02", "lat": 38.908647333333334, "name": "361e48566832397ee1a54d4fc85fdf02", "lon": -77.02671066666667, "fusion_lon": 0.0}, {"is_reserved": 0, "type": "electric_scooter", "fusion_lat": 0.0, "is_disabled": 0, "rental_uris": {"ios": "https://dc.lft.to/lastmile_qr_scan", "android": "https://dc.lft.to/lastmile_qr_scan"}, "bike_id": "47bbdb033e80e546912bc8db5fbe1c53", "lat": 38.9289725, "name": "47bbdb033e80e546912bc8db5fbe1c53", "lon": -77.02750566666667, "fusion_lon": 0.0}, {"is_reserved": 0, "type": "electric_scooter", "fusion_lat": 0.0, "is_disabled": 0, "rental_uris": {"ios": "https://dc.lft.to/lastmile_qr_scan", "android": "https://dc.lft.to/lastmile_qr_scan"}, "bike_id": "dc391045015ac10f79bebe540acc47c0", "lat": 38.92595133333333, "name": "dc391045015ac10f79bebe540acc47c0", "lon": -77.02504766666667, "fusion_lon": 0.0}, {"is_reserved": 0, "type": "electric_bike", "fusion_lat": 0.0, "is_disabled": 0, "rental_uris": {"ios": "https://dc.lft.to/lastmile_qr_scan", "android": "https://dc.lft.to/lastmile_qr_scan"}, "bike_id": "0abeb9da11023a9e4554e99c648001a9", "lat": 38.846197, "name": "0abeb9da11023a9e4554e99c648001a9", "lon": -76.97837, "fusion_lon": 0.0}, {"is_reserved": 0, "type": "electric_scooter", "fusion_lat": 0.0, "is_disabled": 0, "rental_uris": {"ios": "https://dc.lft.to/lastmile_qr_scan", "android": "https://dc.lft.to/lastmile_qr_scan"}, "bike_id": "47c11abd3be0e623dc51442caaa210cc", "lat": 38.88574083333334, "name": "47c11abd3be0e623dc51442caaa210cc", "lon": -77.01209316666667, "fusion_lon": 0.0}, {"is_reserved": 0, "type": "electric_scooter", "fusion_lat": 0.0, "is_disabled": 0, "rental_uris": {"ios": "https://dc.lft.to/lastmile_qr_scan", "android": "https://dc.lft.to/lastmile_qr_scan"}, "bike_id": "b59a7ed8a0413c9aed2d500e6af5344d", "lat": 38.91563766666667, "name": "b59a7ed8a0413c9aed2d500e6af5344d", "lon": -77.032646, "fusion_lon": 0.0}, {"is_reserved": 0, "type": "electric_scooter", "fusion_lat": 0.0, "is_disabled": 0, "rental_uris": {"ios": "https://dc.lft.to/lastmile_qr_scan", "android": "https://dc.lft.to/lastmile_qr_scan"}, "bike_id": "cf32436743aa02249e14c3531103eac0", "lat": 38.903944, "name": "cf32436743aa02249e14c3531103eac0", "lon": -77.03998933333334, "fusion_lon": 0.0}, {"is_reserved": 0, "type": "electric_scooter", "fusion_lat": 0.0, "is_disabled": 0, "rental_uris": {"ios": "https://dc.lft.to/lastmile_qr_scan", "android": "https://dc.lft.to/lastmile_qr_scan"}, "bike_id": "40e51ebd0a92fcb02991e1dcab81c7b5", "lat": 38.9081515, "name": "40e51ebd0a92fcb02991e1dcab81c7b5", "lon": -77.084244, "fusion_lon": 0.0}, {"is_reserved": 0, "type": "electric_scooter", "fusion_lat": 0.0, "is_disabled": 0, "rental_uris": {"ios": "https://dc.lft.to/lastmile_qr_scan", "android": "https://dc.lft.to/lastmile_qr_scan"}, "bike_id": "e5c99e2e8dfd6bec50de8136cc9dc41f", "lat": 38.9154995, "name": "e5c99e2e8dfd6bec50de8136cc9dc41f", "lon": -76.985005, "fusion_lon": 0.0}, {"is_reserved": 0, "type": "electric_scooter", "fusion_lat": 0.0, "is_disabled": 0, "rental_uris": {"ios": "https://dc.lft.to/lastmile_qr_scan", "android": "https://dc.lft.to/lastmile_qr_scan"}, "bike_id": "c87a5072de3eb970952c9db4db0531fc", "lat": 38.93512616666667, "name": "c87a5072de3eb970952c9db4db0531fc", "lon": -77.03674816666667, "fusion_lon": 0.0}, {"is_reserved": 0, "type": "electric_scooter", "fusion_lat": 0.0, "is_disabled": 0, "rental_uris": {"ios": "https://dc.lft.to/lastmile_qr_scan", "android": "https://dc.lft.to/lastmile_qr_scan"}, "bike_id": "16c3f4a2912fed1b51a483473646bee4", "lat": 38.9195495, "name": "16c3f4a2912fed1b51a483473646bee4", "lon": -77.07981883333333, "fusion_lon": 0.0}, {"is_reserved": 0, "type": "electric_scooter", "fusion_lat": 0.0, "is_disabled": 0, "rental_uris": {"ios": "https://dc.lft.to/lastmile_qr_scan", "android": "https://dc.lft.to/lastmile_qr_scan"}, "bike_id": "d74e70bc2e03373b94c64f2d2f151931", "lat": 38.932255833333336, "name": "d74e70bc2e03373b94c64f2d2f151931", "lon": -77.02972966666667, "fusion_lon": 0.0}, {"is_reserved": 0, "type": "electric_scooter", "fusion_lat": 0.0, "is_disabled": 0, "rental_uris": {"ios": "https://dc.lft.to/lastmile_qr_scan", "android": "https://dc.lft.to/lastmile_qr_scan"}, "bike_id": "d3aa5b06cc651a753e3e7027c737ae5c", "lat": 38.88713083333333, "name": "d3aa5b06cc651a753e3e7027c737ae5c", "lon": -76.983402, "fusion_lon": 0.0}, {"is_reserved": 0, "type": "electric_scooter", "fusion_lat": 0.0, "is_disabled": 0, "rental_uris": {"ios": "https://dc.lft.to/lastmile_qr_scan", "android": "https://dc.lft.to/lastmile_qr_scan"}, "bike_id": "0ac51c172fe47fe14c53c7495acf2acb", "lat": 38.92476333333333, "name": "0ac51c172fe47fe14c53c7495acf2acb", "lon": -77.02222833333333, "fusion_lon": 0.0}, {"is_reserved": 0, "type": "electric_scooter", "fusion_lat": 0.0, "is_disabled": 0, "rental_uris": {"ios": "https://dc.lft.to/lastmile_qr_scan", "android": "https://dc.lft.to/lastmile_qr_scan"}, "bike_id": "37d11cd86f178feddd5116c456b429c6", "lat": 38.9420955, "name": "37d11cd86f178feddd5116c456b429c6", "lon": -77.01332983333333, "fusion_lon": 0.0}, {"is_reserved": 0, "type": "electric_scooter", "fusion_lat": 0.0, "is_disabled": 0, "rental_uris": {"ios": "https://dc.lft.to/lastmile_qr_scan", "android": "https://dc.lft.to/lastmile_qr_scan"}, "bike_id": "eef24ecc014d20c918938977c87e1d9b", "lat": 38.906098, "name": "eef24ecc014d20c918938977c87e1d9b", "lon": -77.06660233333334, "fusion_lon": 0.0}, {"is_reserved": 0, "type": "electric_scooter", "fusion_lat": 0.0, "is_disabled": 0, "rental_uris": {"ios": "https://dc.lft.to/lastmile_qr_scan", "android": "https://dc.lft.to/lastmile_qr_scan"}, "bike_id": "aa2eeaae44569eb2d56e8cd4cf5bd5fa", "lat": 38.9272185, "name": "aa2eeaae44569eb2d56e8cd4cf5bd5fa", "lon": -77.0209865, "fusion_lon": 0.0}, {"is_reserved": 0, "type": "electric_scooter", "fusion_lat": 0.0, "is_disabled": 0, "rental_uris": {"ios": "https://dc.lft.to/lastmile_qr_scan", "android": "https://dc.lft.to/lastmile_qr_scan"}, "bike_id": "59aa9ac6dd6b44438617f7691f465854", "lat": 38.94275116666667, "name": "59aa9ac6dd6b44438617f7691f465854", "lon": -77.02927833333334, "fusion_lon": 0.0}, {"is_reserved": 0, "type": "electric_bike", "fusion_lat": 0.0, "is_disabled": 0, "rental_uris": {"ios": "https://dc.lft.to/lastmile_qr_scan", "android": "https://dc.lft.to/lastmile_qr_scan"}, "bike_id": "f3b6bc80f3678447b5cf8b0131e1db7b", "lat": 38.91902866666667, "name": "f3b6bc80f3678447b5cf8b0131e1db7b", "lon": -77.00059683333333, "fusion_lon": 0.0}, {"is_reserved": 0, "type": "electric_scooter", "fusion_lat": 0.0, "is_disabled": 0, "rental_uris": {"ios": "https://dc.lft.to/lastmile_qr_scan", "android": "https://dc.lft.to/lastmile_qr_scan"}, "bike_id": "5e28680bdfeb2fab08936abd4eeceb0b", "lat": 38.92651166666667, "name": "5e28680bdfeb2fab08936abd4eeceb0b", "lon": -77.03857016666667, "fusion_lon": 0.0}, {"is_reserved": 0, "type": "electric_scooter", "fusion_lat": 0.0, "is_disabled": 0, "rental_uris": {"ios": "https://dc.lft.to/lastmile_qr_scan", "android": "https://dc.lft.to/lastmile_qr_scan"}, "bike_id": "fa7d1a42d7e1451795e92f8beba1c9b4", "lat": 38.898453333333336, "name": "fa7d1a42d7e1451795e92f8beba1c9b4", "lon": -77.03912483333333, "fusion_lon": 0.0}, {"is_reserved": 0, "type": "electric_scooter", "fusion_lat": 0.0, "is_disabled": 0, "rental_uris": {"ios": "https://dc.lft.to/lastmile_qr_scan", "android": "https://dc.lft.to/lastmile_qr_scan"}, "bike_id": "abc29ec2efbd17d798b2563fce2dbe1e", "lat": 38.94646383333333, "name": "abc29ec2efbd17d798b2563fce2dbe1e", "lon": -77.01745066666666, "fusion_lon": 0.0}, {"is_reserved": 0, "type": "electric_scooter", "fusion_lat": 0.0, "is_disabled": 0, "rental_uris": {"ios": "https://dc.lft.to/lastmile_qr_scan", "android": "https://dc.lft.to/lastmile_qr_scan"}, "bike_id": "e1fc18413daa022b9621d3e6eb2c4280", "lat": 38.90729233333333, "name": "e1fc18413daa022b9621d3e6eb2c4280", "lon": -77.038656, "fusion_lon": 0.0}, {"is_reserved": 0, "type": "electric_scooter", "fusion_lat": 0.0, "is_disabled": 0, "rental_uris": {"ios": "https://dc.lft.to/lastmile_qr_scan", "android": "https://dc.lft.to/lastmile_qr_scan"}, "bike_id": "5c435d2b65f9abff4dfcf21891a64f09", "lat": 38.905399, "name": "5c435d2b65f9abff4dfcf21891a64f09", "lon": -77.05802433333334, "fusion_lon": 0.0}, {"is_reserved": 0, "type": "electric_scooter", "fusion_lat": 0.0, "is_disabled": 0, "rental_uris": {"ios": "https://dc.lft.to/lastmile_qr_scan", "android": "https://dc.lft.to/lastmile_qr_scan"}, "bike_id": "b725026890bfb7c47c70f86f618e9f35", "lat": 38.91544316666667, "name": "b725026890bfb7c47c70f86f618e9f35", "lon": -77.02968183333333, "fusion_lon": 0.0}, {"is_reserved": 0, "type": "electric_scooter", "fusion_lat": 0.0, "is_disabled": 0, "rental_uris": {"ios": "https://dc.lft.to/lastmile_qr_scan", "android": "https://dc.lft.to/lastmile_qr_scan"}, "bike_id": "7542b974febf9d8ca65341cfffd0085a", "lat": 38.904852, "name": "7542b974febf9d8ca65341cfffd0085a", "lon": -77.04348316666666, "fusion_lon": 0.0}, {"is_reserved": 0, "type": "electric_scooter", "fusion_lat": 0.0, "is_disabled": 0, "rental_uris": {"ios": "https://dc.lft.to/lastmile_qr_scan", "android": "https://dc.lft.to/lastmile_qr_scan"}, "bike_id": "d5c61f525a94a299878f559fcf5db432", "lat": 38.87373733333333, "name": "d5c61f525a94a299878f559fcf5db432", "lon": -77.00128416666666, "fusion_lon": 0.0}, {"is_reserved": 0, "type": "electric_scooter", "fusion_lat": 0.0, "is_disabled": 0, "rental_uris": {"ios": "https://dc.lft.to/lastmile_qr_scan", "android": "https://dc.lft.to/lastmile_qr_scan"}, "bike_id": "2f017739312a6f1bb6797fcc7315b202", "lat": 38.933720666666666, "name": "2f017739312a6f1bb6797fcc7315b202", "lon": -77.07249466666667, "fusion_lon": 0.0}, {"is_reserved": 0, "type": "electric_scooter", "fusion_lat": 0.0, "is_disabled": 0, "rental_uris": {"ios": "https://dc.lft.to/lastmile_qr_scan", "android": "https://dc.lft.to/lastmile_qr_scan"}, "bike_id": "a9bdfceeef9ec72cf9d1923caa078855", "lat": 38.944636333333335, "name": "a9bdfceeef9ec72cf9d1923caa078855", "lon": -77.00659933333333, "fusion_lon": 0.0}, {"is_reserved": 0, "type": "electric_scooter", "fusion_lat": 0.0, "is_disabled": 0, "rental_uris": {"ios": "https://dc.lft.to/lastmile_qr_scan", "android": "https://dc.lft.to/lastmile_qr_scan"}, "bike_id": "aa582c3e4235163208bfe571bd01011f", "lat": 38.912142333333335, "name": "aa582c3e4235163208bfe571bd01011f", "lon": -77.00660566666667, "fusion_lon": 0.0}, {"is_reserved": 0, "type": "electric_scooter", "fusion_lat": 0.0, "is_disabled": 0, "rental_uris": {"ios": "https://dc.lft.to/lastmile_qr_scan", "android": "https://dc.lft.to/lastmile_qr_scan"}, "bike_id": "638ff7b73d7bab388a9d827defdc2933", "lat": 38.92045266666667, "name": "638ff7b73d7bab388a9d827defdc2933", "lon": -77.03388983333333, "fusion_lon": 0.0}, {"is_reserved": 0, "type": "electric_scooter", "fusion_lat": 0.0, "is_disabled": 0, "rental_uris": {"ios": "https://dc.lft.to/lastmile_qr_scan", "android": "https://dc.lft.to/lastmile_qr_scan"}, "bike_id": "d5bde42ccfaf080ea347653b53ccfffc", "lat": 38.902643, "name": "d5bde42ccfaf080ea347653b53ccfffc", "lon": -76.9898235, "fusion_lon": 0.0}, {"is_reserved": 0, "type": "electric_scooter", "fusion_lat": 0.0, "is_disabled": 0, "rental_uris": {"ios": "https://dc.lft.to/lastmile_qr_scan", "android": "https://dc.lft.to/lastmile_qr_scan"}, "bike_id": "d1bf1ab51022a396f6ba51300250bfff", "lat": 38.90787816666667, "name": "d1bf1ab51022a396f6ba51300250bfff", "lon": -77.07263966666666, "fusion_lon": 0.0}, {"is_reserved": 0, "type": "electric_bike", "fusion_lat": 0.0, "is_disabled": 0, "rental_uris": {"ios": "https://dc.lft.to/lastmile_qr_scan", "android": "https://dc.lft.to/lastmile_qr_scan"}, "bike_id": "30a8d59d370d4e890ecd3b95789f4da1", "lat": 38.950167666666665, "name": "30a8d59d370d4e890ecd3b95789f4da1", "lon": -77.01428583333333, "fusion_lon": 0.0}, {"is_reserved": 0, "type": "electric_scooter", "fusion_lat": 0.0, "is_disabled": 0, "rental_uris": {"ios": "https://dc.lft.to/lastmile_qr_scan", "android": "https://dc.lft.to/lastmile_qr_scan"}, "bike_id": "6648f42bd490acc4459e516c89c0d8a7", "lat": 38.907474, "name": "6648f42bd490acc4459e516c89c0d8a7", "lon": -77.00352866666667, "fusion_lon": 0.0}, {"is_reserved": 0, "type": "electric_bike", "fusion_lat": 0.0, "is_disabled": 0, "rental_uris": {"ios": "https://dc.lft.to/lastmile_qr_scan", "android": "https://dc.lft.to/lastmile_qr_scan"}, "bike_id": "06331790395ede4347cf47362d080e62", "lat": 38.933907833333336, "name": "06331790395ede4347cf47362d080e62", "lon": -77.023828, "fusion_lon": 0.0}, {"is_reserved": 0, "type": "electric_scooter", "fusion_lat": 0.0, "is_disabled": 0, "rental_uris": {"ios": "https://dc.lft.to/lastmile_qr_scan", "android": "https://dc.lft.to/lastmile_qr_scan"}, "bike_id": "b3bb0c1fd3701f19e97e0d9e76f17bc0", "lat": 38.967969, "name": "b3bb0c1fd3701f19e97e0d9e76f17bc0", "lon": -77.02560716666666, "fusion_lon": 0.0}, {"is_reserved": 0, "type": "electric_scooter", "fusion_lat": 0.0, "is_disabled": 0, "rental_uris": {"ios": "https://dc.lft.to/lastmile_qr_scan", "android": "https://dc.lft.to/lastmile_qr_scan"}, "bike_id": "2ed8d23099a5f014bd7d90a77efe966d", "lat": 38.91979116666667, "name": "2ed8d23099a5f014bd7d90a77efe966d", "lon": -77.04152216666667, "fusion_lon": 0.0}, {"is_reserved": 0, "type": "electric_scooter", "fusion_lat": 0.0, "is_disabled": 0, "rental_uris": {"ios": "https://dc.lft.to/lastmile_qr_scan", "android": "https://dc.lft.to/lastmile_qr_scan"}, "bike_id": "84840609a041f8ff52fa9abf07d6ea82", "lat": 38.9048605, "name": "84840609a041f8ff52fa9abf07d6ea82", "lon": -76.9497035, "fusion_lon": 0.0}, {"is_reserved": 0, "type": "electric_scooter", "fusion_lat": 0.0, "is_disabled": 0, "rental_uris": {"ios": "https://dc.lft.to/lastmile_qr_scan", "android": "https://dc.lft.to/lastmile_qr_scan"}, "bike_id": "900b792802401a4c61e0beff0263efba", "lat": 38.924582666666666, "name": "900b792802401a4c61e0beff0263efba", "lon": -77.052306, "fusion_lon": 0.0}, {"is_reserved": 0, "type": "electric_scooter", "fusion_lat": 0.0, "is_disabled": 0, "rental_uris": {"ios": "https://dc.lft.to/lastmile_qr_scan", "android": "https://dc.lft.to/lastmile_qr_scan"}, "bike_id": "9f7550c82d1658f939b74684f60725f2", "lat": 38.9029375, "name": "9f7550c82d1658f939b74684f60725f2", "lon": -77.04861, "fusion_lon": 0.0}, {"is_reserved": 0, "type": "electric_scooter", "fusion_lat": 0.0, "is_disabled": 0, "rental_uris": {"ios": "https://dc.lft.to/lastmile_qr_scan", "android": "https://dc.lft.to/lastmile_qr_scan"}, "bike_id": "0e0fb3b2ca03e0e908629a7e5e8e940d", "lat": 38.911221833333336, "name": "0e0fb3b2ca03e0e908629a7e5e8e940d", "lon": -77.02092266666666, "fusion_lon": 0.0}, {"is_reserved": 0, "type": "electric_scooter", "fusion_lat": 0.0, "is_disabled": 0, "rental_uris": {"ios": "https://dc.lft.to/lastmile_qr_scan", "android": "https://dc.lft.to/lastmile_qr_scan"}, "bike_id": "45ef6961ce5693e33883c20cac71f241", "lat": 38.92751116666667, "name": "45ef6961ce5693e33883c20cac71f241", "lon": -77.03274433333333, "fusion_lon": 0.0}, {"is_reserved": 0, "type": "electric_scooter", "fusion_lat": 0.0, "is_disabled": 0, "rental_uris": {"ios": "https://dc.lft.to/lastmile_qr_scan", "android": "https://dc.lft.to/lastmile_qr_scan"}, "bike_id": "4137281351d8baaf69d8fa6d8c21ffc5", "lat": 38.9029395, "name": "4137281351d8baaf69d8fa6d8c21ffc5", "lon": -77.02811116666666, "fusion_lon": 0.0}, {"is_reserved": 0, "type": "electric_scooter", "fusion_lat": 0.0, "is_disabled": 0, "rental_uris": {"ios": "https://dc.lft.to/lastmile_qr_scan", "android": "https://dc.lft.to/lastmile_qr_scan"}, "bike_id": "bcde6153818f26c61ff89500d5fa9896", "lat": 38.90130966666667, "name": "bcde6153818f26c61ff89500d5fa9896", "lon": -77.0400175, "fusion_lon": 0.0}, {"is_reserved": 0, "type": "electric_scooter", "fusion_lat": 0.0, "is_disabled": 0, "rental_uris": {"ios": "https://dc.lft.to/lastmile_qr_scan", "android": "https://dc.lft.to/lastmile_qr_scan"}, "bike_id": "ff525a3dd3e19df702d02864018925f6", "lat": 38.957346333333334, "name": "ff525a3dd3e19df702d02864018925f6", "lon": -77.0241945, "fusion_lon": 0.0}, {"is_reserved": 0, "type": "electric_scooter", "fusion_lat": 0.0, "is_disabled": 0, "rental_uris": {"ios": "https://dc.lft.to/lastmile_qr_scan", "android": "https://dc.lft.to/lastmile_qr_scan"}, "bike_id": "b1447c19173375d08eab7b7fc3d67c2d", "lat": 38.892909, "name": "b1447c19173375d08eab7b7fc3d67c2d", "lon": -77.012469, "fusion_lon": 0.0}, {"is_reserved": 0, "type": "electric_scooter", "fusion_lat": 0.0, "is_disabled": 0, "rental_uris": {"ios": "https://dc.lft.to/lastmile_qr_scan", "android": "https://dc.lft.to/lastmile_qr_scan"}, "bike_id": "e9b9c0ec67c699a41f7b3e2aa4a846ee", "lat": 38.923482, "name": "e9b9c0ec67c699a41f7b3e2aa4a846ee", "lon": -77.035278, "fusion_lon": 0.0}, {"is_reserved": 0, "type": "electric_scooter", "fusion_lat": 0.0, "is_disabled": 0, "rental_uris": {"ios": "https://dc.lft.to/lastmile_qr_scan", "android": "https://dc.lft.to/lastmile_qr_scan"}, "bike_id": "43a1185a9289790f99a86cbcb4679d53", "lat": 38.913706166666664, "name": "43a1185a9289790f99a86cbcb4679d53", "lon": -77.0448145, "fusion_lon": 0.0}, {"is_reserved": 0, "type": "electric_scooter", "fusion_lat": 0.0, "is_disabled": 0, "rental_uris": {"ios": "https://dc.lft.to/lastmile_qr_scan", "android": "https://dc.lft.to/lastmile_qr_scan"}, "bike_id": "8816ae114c645dfa8563e05d53725f70", "lat": 38.88712266666667, "name": "8816ae114c645dfa8563e05d53725f70", "lon": -76.983816, "fusion_lon": 0.0}, {"is_reserved": 0, "type": "electric_scooter", "fusion_lat": 0.0, "is_disabled": 0, "rental_uris": {"ios": "https://dc.lft.to/lastmile_qr_scan", "android": "https://dc.lft.to/lastmile_qr_scan"}, "bike_id": "94a25e8b47dc45468522991c93e9a794", "lat": 38.92243366666667, "name": "94a25e8b47dc45468522991c93e9a794", "lon": -77.0184865, "fusion_lon": 0.0}, {"is_reserved": 0, "type": "electric_scooter", "fusion_lat": 0.0, "is_disabled": 0, "rental_uris": {"ios": "https://dc.lft.to/lastmile_qr_scan", "android": "https://dc.lft.to/lastmile_qr_scan"}, "bike_id": "dbe5f2349d0a2fe7edee0077848b91b4", "lat": 38.940909, "name": "dbe5f2349d0a2fe7edee0077848b91b4", "lon": -77.02302583333334, "fusion_lon": 0.0}, {"is_reserved": 0, "type": "electric_scooter", "fusion_lat": 0.0, "is_disabled": 0, "rental_uris": {"ios": "https://dc.lft.to/lastmile_qr_scan", "android": "https://dc.lft.to/lastmile_qr_scan"}, "bike_id": "75426594b048cc7f85b9cffa9d8f67a2", "lat": 38.94702916666667, "name": "75426594b048cc7f85b9cffa9d8f67a2", "lon": -77.03284633333334, "fusion_lon": 0.0}, {"is_reserved": 0, "type": "electric_scooter", "fusion_lat": 0.0, "is_disabled": 0, "rental_uris": {"ios": "https://dc.lft.to/lastmile_qr_scan", "android": "https://dc.lft.to/lastmile_qr_scan"}, "bike_id": "239d2ba60fd1b8021d33ce4a2e01efa6", "lat": 38.8873485, "name": "239d2ba60fd1b8021d33ce4a2e01efa6", "lon": -77.01395716666667, "fusion_lon": 0.0}, {"is_reserved": 0, "type": "electric_scooter", "fusion_lat": 0.0, "is_disabled": 0, "rental_uris": {"ios": "https://dc.lft.to/lastmile_qr_scan", "android": "https://dc.lft.to/lastmile_qr_scan"}, "bike_id": "0e55fa8c3ba12f4ac6f7297b89eef864", "lat": 38.902758666666664, "name": "0e55fa8c3ba12f4ac6f7297b89eef864", "lon": -77.0276405, "fusion_lon": 0.0}, {"is_reserved": 0, "type": "electric_scooter", "fusion_lat": 0.0, "is_disabled": 0, "rental_uris": {"ios": "https://dc.lft.to/lastmile_qr_scan", "android": "https://dc.lft.to/lastmile_qr_scan"}, "bike_id": "d83c7fda16c06d28e6097a75e7c9c756", "lat": 38.910522666666665, "name": "d83c7fda16c06d28e6097a75e7c9c756", "lon": -77.04352233333333, "fusion_lon": 0.0}, {"is_reserved": 0, "type": "electric_scooter", "fusion_lat": 0.0, "is_disabled": 0, "rental_uris": {"ios": "https://dc.lft.to/lastmile_qr_scan", "android": "https://dc.lft.to/lastmile_qr_scan"}, "bike_id": "975509a8a3eb4cf6a656eec2d24ef3b0", "lat": 38.919129166666664, "name": "975509a8a3eb4cf6a656eec2d24ef3b0", "lon": -77.0116585, "fusion_lon": 0.0}, {"is_reserved": 0, "type": "electric_scooter", "fusion_lat": 0.0, "is_disabled": 0, "rental_uris": {"ios": "https://dc.lft.to/lastmile_qr_scan", "android": "https://dc.lft.to/lastmile_qr_scan"}, "bike_id": "d89b11287e4c625b77fe0eb089d9be21", "lat": 38.898695000000004, "name": "d89b11287e4c625b77fe0eb089d9be21", "lon": -77.04654766666667, "fusion_lon": 0.0}, {"is_reserved": 0, "type": "electric_scooter", "fusion_lat": 0.0, "is_disabled": 0, "rental_uris": {"ios": "https://dc.lft.to/lastmile_qr_scan", "android": "https://dc.lft.to/lastmile_qr_scan"}, "bike_id": "ebf5f091fc256ff2c3c39984e2b52147", "lat": 38.8943425, "name": "ebf5f091fc256ff2c3c39984e2b52147", "lon": -77.04466933333333, "fusion_lon": 0.0}, {"is_reserved": 0, "type": "electric_scooter", "fusion_lat": 0.0, "is_disabled": 0, "rental_uris": {"ios": "https://dc.lft.to/lastmile_qr_scan", "android": "https://dc.lft.to/lastmile_qr_scan"}, "bike_id": "4f94611d137b71efd299f3911281b4cc", "lat": 38.927880333333334, "name": "4f94611d137b71efd299f3911281b4cc", "lon": -77.03150083333334, "fusion_lon": 0.0}, {"is_reserved": 0, "type": "electric_scooter", "fusion_lat": 0.0, "is_disabled": 0, "rental_uris": {"ios": "https://dc.lft.to/lastmile_qr_scan", "android": "https://dc.lft.to/lastmile_qr_scan"}, "bike_id": "3e870da9b1b2f042a39e11df993cf273", "lat": 38.88610116666667, "name": "3e870da9b1b2f042a39e11df993cf273", "lon": -77.00333683333334, "fusion_lon": 0.0}, {"is_reserved": 0, "type": "electric_scooter", "fusion_lat": 0.0, "is_disabled": 0, "rental_uris": {"ios": "https://dc.lft.to/lastmile_qr_scan", "android": "https://dc.lft.to/lastmile_qr_scan"}, "bike_id": "e0e6ba218c346675f235bef930bcb96f", "lat": 38.8767035, "name": "e0e6ba218c346675f235bef930bcb96f", "lon": -77.00321866666667, "fusion_lon": 0.0}, {"is_reserved": 0, "type": "electric_scooter", "fusion_lat": 0.0, "is_disabled": 0, "rental_uris": {"ios": "https://dc.lft.to/lastmile_qr_scan", "android": "https://dc.lft.to/lastmile_qr_scan"}, "bike_id": "c72536201a6b645f1b0df73702a472e9", "lat": 38.931935333333335, "name": "c72536201a6b645f1b0df73702a472e9", "lon": -77.0199, "fusion_lon": 0.0}, {"is_reserved": 0, "type": "electric_scooter", "fusion_lat": 0.0, "is_disabled": 0, "rental_uris": {"ios": "https://dc.lft.to/lastmile_qr_scan", "android": "https://dc.lft.to/lastmile_qr_scan"}, "bike_id": "8bb4b57d687a07fe20c0085b0b03d0f6", "lat": 38.88172816666667, "name": "8bb4b57d687a07fe20c0085b0b03d0f6", "lon": -77.01749133333334, "fusion_lon": 0.0}, {"is_reserved": 0, "type": "electric_scooter", "fusion_lat": 0.0, "is_disabled": 0, "rental_uris": {"ios": "https://dc.lft.to/lastmile_qr_scan", "android": "https://dc.lft.to/lastmile_qr_scan"}, "bike_id": "ce8f59cdea42dba128276b5341986124", "lat": 38.9156315, "name": "ce8f59cdea42dba128276b5341986124", "lon": -77.03672766666666, "fusion_lon": 0.0}, {"is_reserved": 0, "type": "electric_scooter", "fusion_lat": 0.0, "is_disabled": 0, "rental_uris": {"ios": "https://dc.lft.to/lastmile_qr_scan", "android": "https://dc.lft.to/lastmile_qr_scan"}, "bike_id": "e2c84619a6490274ac90d82e588fcd33", "lat": 38.9366465, "name": "e2c84619a6490274ac90d82e588fcd33", "lon": -77.06614233333333, "fusion_lon": 0.0}, {"is_reserved": 0, "type": "electric_bike", "fusion_lat": 0.0, "is_disabled": 0, "rental_uris": {"ios": "https://dc.lft.to/lastmile_qr_scan", "android": "https://dc.lft.to/lastmile_qr_scan"}, "bike_id": "738e4c2d37612c1d98787926e42c990c", "lat": 38.9643645, "name": "738e4c2d37612c1d98787926e42c990c", "lon": -77.03191716666667, "fusion_lon": 0.0}, {"is_reserved": 0, "type": "electric_scooter", "fusion_lat": 0.0, "is_disabled": 0, "rental_uris": {"ios": "https://dc.lft.to/lastmile_qr_scan", "android": "https://dc.lft.to/lastmile_qr_scan"}, "bike_id": "60b3c1ccd2ebae51c84b366677f3cab8", "lat": 38.92652666666667, "name": "60b3c1ccd2ebae51c84b366677f3cab8", "lon": -77.02434433333333, "fusion_lon": 0.0}, {"is_reserved": 0, "type": "electric_scooter", "fusion_lat": 0.0, "is_disabled": 0, "rental_uris": {"ios": "https://dc.lft.to/lastmile_qr_scan", "android": "https://dc.lft.to/lastmile_qr_scan"}, "bike_id": "926859ca8825eb35e7789e7bd6945311", "lat": 38.900269333333334, "name": "926859ca8825eb35e7789e7bd6945311", "lon": -76.99860216666667, "fusion_lon": 0.0}, {"is_reserved": 0, "type": "electric_scooter", "fusion_lat": 0.0, "is_disabled": 0, "rental_uris": {"ios": "https://dc.lft.to/lastmile_qr_scan", "android": "https://dc.lft.to/lastmile_qr_scan"}, "bike_id": "957210f33c2c8be0a3a588f1d1f267a6", "lat": 38.90263783333333, "name": "957210f33c2c8be0a3a588f1d1f267a6", "lon": -77.02715916666666, "fusion_lon": 0.0}, {"is_reserved": 0, "type": "electric_bike", "fusion_lat": 0.0, "is_disabled": 0, "rental_uris": {"ios": "https://dc.lft.to/lastmile_qr_scan", "android": "https://dc.lft.to/lastmile_qr_scan"}, "bike_id": "a796aa6535cc9b3b36412cb7ad400061", "lat": 38.925353, "name": "a796aa6535cc9b3b36412cb7ad400061", "lon": -77.07335566666667, "fusion_lon": 0.0}, {"is_reserved": 0, "type": "electric_scooter", "fusion_lat": 0.0, "is_disabled": 0, "rental_uris": {"ios": "https://dc.lft.to/lastmile_qr_scan", "android": "https://dc.lft.to/lastmile_qr_scan"}, "bike_id": "2295984e21f08ed38f9d983d2686fc4d", "lat": 38.92025016666667, "name": "2295984e21f08ed38f9d983d2686fc4d", "lon": -76.99565, "fusion_lon": 0.0}, {"is_reserved": 0, "type": "electric_bike", "fusion_lat": 0.0, "is_disabled": 0, "rental_uris": {"ios": "https://dc.lft.to/lastmile_qr_scan", "android": "https://dc.lft.to/lastmile_qr_scan"}, "bike_id": "ff178e00030cef9c4cf34a9e0a81f0c3", "lat": 38.866301, "name": "ff178e00030cef9c4cf34a9e0a81f0c3", "lon": -76.990012, "fusion_lon": 0.0}, {"is_reserved": 0, "type": "electric_bike", "fusion_lat": 0.0, "is_disabled": 0, "rental_uris": {"ios": "https://dc.lft.to/lastmile_qr_scan", "android": "https://dc.lft.to/lastmile_qr_scan"}, "bike_id": "4fd9702558606c06de10e66092a63770", "lat": 38.854584333333335, "name": "4fd9702558606c06de10e66092a63770", "lon": -76.97232266666667, "fusion_lon": 0.0}, {"is_reserved": 0, "type": "electric_scooter", "fusion_lat": 0.0, "is_disabled": 0, "rental_uris": {"ios": "https://dc.lft.to/lastmile_qr_scan", "android": "https://dc.lft.to/lastmile_qr_scan"}, "bike_id": "8a7140b0ed1f9629fb2e6397196a23e6", "lat": 38.914368, "name": "8a7140b0ed1f9629fb2e6397196a23e6", "lon": -77.02291866666667, "fusion_lon": 0.0}, {"is_reserved": 0, "type": "electric_scooter", "fusion_lat": 0.0, "is_disabled": 0, "rental_uris": {"ios": "https://dc.lft.to/lastmile_qr_scan", "android": "https://dc.lft.to/lastmile_qr_scan"}, "bike_id": "875f762951d8e519b41b4c3843d0d5fe", "lat": 38.879189333333336, "name": "875f762951d8e519b41b4c3843d0d5fe", "lon": -76.94475416666667, "fusion_lon": 0.0}, {"is_reserved": 0, "type": "electric_scooter", "fusion_lat": 0.0, "is_disabled": 0, "rental_uris": {"ios": "https://dc.lft.to/lastmile_qr_scan", "android": "https://dc.lft.to/lastmile_qr_scan"}, "bike_id": "36f2661dd3f86d7d4e9dde39d0e05978", "lat": 38.915608166666665, "name": "36f2661dd3f86d7d4e9dde39d0e05978", "lon": -77.03669066666667, "fusion_lon": 0.0}, {"is_reserved": 0, "type": "electric_scooter", "fusion_lat": 0.0, "is_disabled": 0, "rental_uris": {"ios": "https://dc.lft.to/lastmile_qr_scan", "android": "https://dc.lft.to/lastmile_qr_scan"}, "bike_id": "3d99149b85fe01ccceedd8515db80ed4", "lat": 38.893971, "name": "3d99149b85fe01ccceedd8515db80ed4", "lon": -77.0500405, "fusion_lon": 0.0}, {"is_reserved": 0, "type": "electric_scooter", "fusion_lat": 0.0, "is_disabled": 0, "rental_uris": {"ios": "https://dc.lft.to/lastmile_qr_scan", "android": "https://dc.lft.to/lastmile_qr_scan"}, "bike_id": "3958794e304edd998fa04f6302beee85", "lat": 38.907881833333334, "name": "3958794e304edd998fa04f6302beee85", "lon": -77.0449865, "fusion_lon": 0.0}, {"is_reserved": 0, "type": "electric_scooter", "fusion_lat": 0.0, "is_disabled": 0, "rental_uris": {"ios": "https://dc.lft.to/lastmile_qr_scan", "android": "https://dc.lft.to/lastmile_qr_scan"}, "bike_id": "9589754310e646ab105824cbc8503869", "lat": 38.90614166666667, "name": "9589754310e646ab105824cbc8503869", "lon": -76.9898425, "fusion_lon": 0.0}, {"is_reserved": 0, "type": "electric_scooter", "fusion_lat": 0.0, "is_disabled": 0, "rental_uris": {"ios": "https://dc.lft.to/lastmile_qr_scan", "android": "https://dc.lft.to/lastmile_qr_scan"}, "bike_id": "f6f9c31a93322d2fa6ee16597a4ee4f2", "lat": 38.9204345, "name": "f6f9c31a93322d2fa6ee16597a4ee4f2", "lon": -77.01679916666667, "fusion_lon": 0.0}, {"is_reserved": 0, "type": "electric_scooter", "fusion_lat": 0.0, "is_disabled": 0, "rental_uris": {"ios": "https://dc.lft.to/lastmile_qr_scan", "android": "https://dc.lft.to/lastmile_qr_scan"}, "bike_id": "46cb5dd09b8654fb14b4bd11947a6ff4", "lat": 38.899357333333334, "name": "46cb5dd09b8654fb14b4bd11947a6ff4", "lon": -77.01456716666667, "fusion_lon": 0.0}, {"is_reserved": 0, "type": "electric_scooter", "fusion_lat": 0.0, "is_disabled": 0, "rental_uris": {"ios": "https://dc.lft.to/lastmile_qr_scan", "android": "https://dc.lft.to/lastmile_qr_scan"}, "bike_id": "672e9cde1dd47313a6e921384853d8f1", "lat": 38.90417216666667, "name": "672e9cde1dd47313a6e921384853d8f1", "lon": -76.98531216666666, "fusion_lon": 0.0}, {"is_reserved": 0, "type": "electric_scooter", "fusion_lat": 0.0, "is_disabled": 0, "rental_uris": {"ios": "https://dc.lft.to/lastmile_qr_scan", "android": "https://dc.lft.to/lastmile_qr_scan"}, "bike_id": "dabdd5b15213b8f313bf9796020d9270", "lat": 38.899697333333336, "name": "dabdd5b15213b8f313bf9796020d9270", "lon": -77.04720533333334, "fusion_lon": 0.0}, {"is_reserved": 0, "type": "electric_scooter", "fusion_lat": 0.0, "is_disabled": 0, "rental_uris": {"ios": "https://dc.lft.to/lastmile_qr_scan", "android": "https://dc.lft.to/lastmile_qr_scan"}, "bike_id": "0659aa5feb6a9cdbf04cfcaf8d2e1ac8", "lat": 38.949789333333335, "name": "0659aa5feb6a9cdbf04cfcaf8d2e1ac8", "lon": -77.02449033333333, "fusion_lon": 0.0}, {"is_reserved": 0, "type": "electric_bike", "fusion_lat": 0.0, "is_disabled": 0, "rental_uris": {"ios": "https://dc.lft.to/lastmile_qr_scan", "android": "https://dc.lft.to/lastmile_qr_scan"}, "bike_id": "bc4220803d165feed82cc3583039e4ac", "lat": 38.99094616666667, "name": "bc4220803d165feed82cc3583039e4ac", "lon": -76.9937135, "fusion_lon": 0.0}, {"is_reserved": 0, "type": "electric_scooter", "fusion_lat": 0.0, "is_disabled": 0, "rental_uris": {"ios": "https://dc.lft.to/lastmile_qr_scan", "android": "https://dc.lft.to/lastmile_qr_scan"}, "bike_id": "4953b86c79550a2f500139b7844e07af", "lat": 38.905819666666666, "name": "4953b86c79550a2f500139b7844e07af", "lon": -77.06283633333334, "fusion_lon": 0.0}, {"is_reserved": 0, "type": "electric_scooter", "fusion_lat": 0.0, "is_disabled": 0, "rental_uris": {"ios": "https://dc.lft.to/lastmile_qr_scan", "android": "https://dc.lft.to/lastmile_qr_scan"}, "bike_id": "29d1163e3b8dae5c28a8a90f4a2b7268", "lat": 38.914796333333335, "name": "29d1163e3b8dae5c28a8a90f4a2b7268", "lon": -77.04091066666666, "fusion_lon": 0.0}, {"is_reserved": 0, "type": "electric_scooter", "fusion_lat": 0.0, "is_disabled": 0, "rental_uris": {"ios": "https://dc.lft.to/lastmile_qr_scan", "android": "https://dc.lft.to/lastmile_qr_scan"}, "bike_id": "098b5259c2c6de7b1134dbc558c9414f", "lat": 38.924595833333335, "name": "098b5259c2c6de7b1134dbc558c9414f", "lon": -77.03792716666666, "fusion_lon": 0.0}, {"is_reserved": 0, "type": "electric_scooter", "fusion_lat": 0.0, "is_disabled": 0, "rental_uris": {"ios": "https://dc.lft.to/lastmile_qr_scan", "android": "https://dc.lft.to/lastmile_qr_scan"}, "bike_id": "ea175dad4a2dc8af187c1b6676305f99", "lat": 38.8803795, "name": "ea175dad4a2dc8af187c1b6676305f99", "lon": -76.92724116666666, "fusion_lon": 0.0}, {"is_reserved": 0, "type": "electric_scooter", "fusion_lat": 0.0, "is_disabled": 0, "rental_uris": {"ios": "https://dc.lft.to/lastmile_qr_scan", "android": "https://dc.lft.to/lastmile_qr_scan"}, "bike_id": "e57a1129f09ec70962f8fb5a822aef35", "lat": 38.9027815, "name": "e57a1129f09ec70962f8fb5a822aef35", "lon": -77.02774683333334, "fusion_lon": 0.0}, {"is_reserved": 0, "type": "electric_scooter", "fusion_lat": 0.0, "is_disabled": 0, "rental_uris": {"ios": "https://dc.lft.to/lastmile_qr_scan", "android": "https://dc.lft.to/lastmile_qr_scan"}, "bike_id": "75733633a964068e087b985fc0449129", "lat": 38.94172483333333, "name": "75733633a964068e087b985fc0449129", "lon": -77.02538083333333, "fusion_lon": 0.0}, {"is_reserved": 0, "type": "electric_scooter", "fusion_lat": 0.0, "is_disabled": 0, "rental_uris": {"ios": "https://dc.lft.to/lastmile_qr_scan", "android": "https://dc.lft.to/lastmile_qr_scan"}, "bike_id": "165e002857e8c91c378010bc23e78504", "lat": 38.906886, "name": "165e002857e8c91c378010bc23e78504", "lon": -77.02723416666667, "fusion_lon": 0.0}, {"is_reserved": 0, "type": "electric_scooter", "fusion_lat": 0.0, "is_disabled": 0, "rental_uris": {"ios": "https://dc.lft.to/lastmile_qr_scan", "android": "https://dc.lft.to/lastmile_qr_scan"}, "bike_id": "6b2a7d5c3b1a7e846e76fb65a2101a61", "lat": 38.90972566666667, "name": "6b2a7d5c3b1a7e846e76fb65a2101a61", "lon": -77.04845916666666, "fusion_lon": 0.0}, {"is_reserved": 0, "type": "electric_scooter", "fusion_lat": 0.0, "is_disabled": 0, "rental_uris": {"ios": "https://dc.lft.to/lastmile_qr_scan", "android": "https://dc.lft.to/lastmile_qr_scan"}, "bike_id": "06a972a02b09298daeeed81622d6ddc6", "lat": 38.9164005, "name": "06a972a02b09298daeeed81622d6ddc6", "lon": -77.04523166666667, "fusion_lon": 0.0}, {"is_reserved": 0, "type": "electric_scooter", "fusion_lat": 0.0, "is_disabled": 0, "rental_uris": {"ios": "https://dc.lft.to/lastmile_qr_scan", "android": "https://dc.lft.to/lastmile_qr_scan"}, "bike_id": "27ce4bb3652f7afbcf3a64fdb7f6ad56", "lat": 38.91487033333333, "name": "27ce4bb3652f7afbcf3a64fdb7f6ad56", "lon": -77.0145605, "fusion_lon": 0.0}, {"is_reserved": 0, "type": "electric_bike", "fusion_lat": 0.0, "is_disabled": 0, "rental_uris": {"ios": "https://dc.lft.to/lastmile_qr_scan", "android": "https://dc.lft.to/lastmile_qr_scan"}, "bike_id": "3f5b779d131e9f7151417df8127e34ae", "lat": 38.82932233333333, "name": "3f5b779d131e9f7151417df8127e34ae", "lon": -77.068827, "fusion_lon": 0.0}, {"is_reserved": 0, "type": "electric_scooter", "fusion_lat": 0.0, "is_disabled": 0, "rental_uris": {"ios": "https://dc.lft.to/lastmile_qr_scan", "android": "https://dc.lft.to/lastmile_qr_scan"}, "bike_id": "1e6f40fc2343a845bda84aa08e6228b0", "lat": 38.899111166666664, "name": "1e6f40fc2343a845bda84aa08e6228b0", "lon": -76.93392116666666, "fusion_lon": 0.0}, {"is_reserved": 0, "type": "electric_scooter", "fusion_lat": 0.0, "is_disabled": 0, "rental_uris": {"ios": "https://dc.lft.to/lastmile_qr_scan", "android": "https://dc.lft.to/lastmile_qr_scan"}, "bike_id": "5ec409de54556833b94d4512eee0d102", "lat": 38.9239105, "name": "5ec409de54556833b94d4512eee0d102", "lon": -77.02609183333334, "fusion_lon": 0.0}, {"is_reserved": 0, "type": "electric_scooter", "fusion_lat": 0.0, "is_disabled": 0, "rental_uris": {"ios": "https://dc.lft.to/lastmile_qr_scan", "android": "https://dc.lft.to/lastmile_qr_scan"}, "bike_id": "a46583eecab299ab741e4e434df6306d", "lat": 38.935365, "name": "a46583eecab299ab741e4e434df6306d", "lon": -77.0234995, "fusion_lon": 0.0}, {"is_reserved": 0, "type": "electric_scooter", "fusion_lat": 0.0, "is_disabled": 0, "rental_uris": {"ios": "https://dc.lft.to/lastmile_qr_scan", "android": "https://dc.lft.to/lastmile_qr_scan"}, "bike_id": "00396babfc6647c8ee09a02f7edd7660", "lat": 38.92960566666667, "name": "00396babfc6647c8ee09a02f7edd7660", "lon": -77.03176266666667, "fusion_lon": 0.0}, {"is_reserved": 0, "type": "electric_bike", "fusion_lat": 0.0, "is_disabled": 0, "rental_uris": {"ios": "https://dc.lft.to/lastmile_qr_scan", "android": "https://dc.lft.to/lastmile_qr_scan"}, "bike_id": "965cb3f7943d0d854472e8172597cc7f", "lat": 38.924374, "name": "965cb3f7943d0d854472e8172597cc7f", "lon": -77.02500633333334, "fusion_lon": 0.0}, {"is_reserved": 0, "type": "electric_scooter", "fusion_lat": 0.0, "is_disabled": 0, "rental_uris": {"ios": "https://dc.lft.to/lastmile_qr_scan", "android": "https://dc.lft.to/lastmile_qr_scan"}, "bike_id": "2740bd4321a8c774d2d1e7ac84f57355", "lat": 38.915993, "name": "2740bd4321a8c774d2d1e7ac84f57355", "lon": -77.032088, "fusion_lon": 0.0}, {"is_reserved": 0, "type": "electric_scooter", "fusion_lat": 0.0, "is_disabled": 0, "rental_uris": {"ios": "https://dc.lft.to/lastmile_qr_scan", "android": "https://dc.lft.to/lastmile_qr_scan"}, "bike_id": "a471ef9ec4ea219263846b98d7b5c58d", "lat": 38.930906, "name": "a471ef9ec4ea219263846b98d7b5c58d", "lon": -77.0344415, "fusion_lon": 0.0}, {"is_reserved": 0, "type": "electric_scooter", "fusion_lat": 0.0, "is_disabled": 0, "rental_uris": {"ios": "https://dc.lft.to/lastmile_qr_scan", "android": "https://dc.lft.to/lastmile_qr_scan"}, "bike_id": "36cf9632a7e97067d41ede4c6477b36b", "lat": 38.92182116666667, "name": "36cf9632a7e97067d41ede4c6477b36b", "lon": -77.04029733333333, "fusion_lon": 0.0}, {"is_reserved": 0, "type": "electric_scooter", "fusion_lat": 0.0, "is_disabled": 0, "rental_uris": {"ios": "https://dc.lft.to/lastmile_qr_scan", "android": "https://dc.lft.to/lastmile_qr_scan"}, "bike_id": "1b7672c47588a46d304258b2285e5058", "lat": 38.902841, "name": "1b7672c47588a46d304258b2285e5058", "lon": -77.02016816666666, "fusion_lon": 0.0}, {"is_reserved": 0, "type": "electric_bike", "fusion_lat": 0.0, "is_disabled": 0, "rental_uris": {"ios": "https://dc.lft.to/lastmile_qr_scan", "android": "https://dc.lft.to/lastmile_qr_scan"}, "bike_id": "2c6cde94d0f0b6ee17a1a23c4db2ff7c", "lat": 38.982837, "name": "2c6cde94d0f0b6ee17a1a23c4db2ff7c", "lon": -76.9764405, "fusion_lon": 0.0}, {"is_reserved": 0, "type": "electric_scooter", "fusion_lat": 0.0, "is_disabled": 0, "rental_uris": {"ios": "https://dc.lft.to/lastmile_qr_scan", "android": "https://dc.lft.to/lastmile_qr_scan"}, "bike_id": "423bf953d74603fbc671f563ad31a267", "lat": 38.90497933333333, "name": "423bf953d74603fbc671f563ad31a267", "lon": -77.03572983333333, "fusion_lon": 0.0}, {"is_reserved": 0, "type": "electric_scooter", "fusion_lat": 0.0, "is_disabled": 0, "rental_uris": {"ios": "https://dc.lft.to/lastmile_qr_scan", "android": "https://dc.lft.to/lastmile_qr_scan"}, "bike_id": "85b5d54965cd956d45975896a8575f28", "lat": 38.936041833333334, "name": "85b5d54965cd956d45975896a8575f28", "lon": -77.055903, "fusion_lon": 0.0}, {"is_reserved": 0, "type": "electric_scooter", "fusion_lat": 0.0, "is_disabled": 0, "rental_uris": {"ios": "https://dc.lft.to/lastmile_qr_scan", "android": "https://dc.lft.to/lastmile_qr_scan"}, "bike_id": "c1ed72e4c5df5d6f04128005eeb04282", "lat": 38.91820216666667, "name": "c1ed72e4c5df5d6f04128005eeb04282", "lon": -77.02708883333334, "fusion_lon": 0.0}, {"is_reserved": 0, "type": "electric_scooter", "fusion_lat": 0.0, "is_disabled": 0, "rental_uris": {"ios": "https://dc.lft.to/lastmile_qr_scan", "android": "https://dc.lft.to/lastmile_qr_scan"}, "bike_id": "38b450d7e405833a625031c83362d213", "lat": 38.9215195, "name": "38b450d7e405833a625031c83362d213", "lon": -77.03507783333333, "fusion_lon": 0.0}, {"is_reserved": 0, "type": "electric_scooter", "fusion_lat": 0.0, "is_disabled": 0, "rental_uris": {"ios": "https://dc.lft.to/lastmile_qr_scan", "android": "https://dc.lft.to/lastmile_qr_scan"}, "bike_id": "235461ae1f968e68f98009eb50d25751", "lat": 38.897251833333335, "name": "235461ae1f968e68f98009eb50d25751", "lon": -77.02814483333333, "fusion_lon": 0.0}, {"is_reserved": 0, "type": "electric_scooter", "fusion_lat": 0.0, "is_disabled": 0, "rental_uris": {"ios": "https://dc.lft.to/lastmile_qr_scan", "android": "https://dc.lft.to/lastmile_qr_scan"}, "bike_id": "ed8efb4d415e4d9980cd01c07f2e8c9d", "lat": 38.901143833333336, "name": "ed8efb4d415e4d9980cd01c07f2e8c9d", "lon": -77.0344625, "fusion_lon": 0.0}, {"is_reserved": 0, "type": "electric_bike", "fusion_lat": 0.0, "is_disabled": 0, "rental_uris": {"ios": "https://dc.lft.to/lastmile_qr_scan", "android": "https://dc.lft.to/lastmile_qr_scan"}, "bike_id": "c23bc24a725aafd944a969fbb2459f62", "lat": 38.87732966666667, "name": "c23bc24a725aafd944a969fbb2459f62", "lon": -77.1184875, "fusion_lon": 0.0}, {"is_reserved": 0, "type": "electric_scooter", "fusion_lat": 0.0, "is_disabled": 0, "rental_uris": {"ios": "https://dc.lft.to/lastmile_qr_scan", "android": "https://dc.lft.to/lastmile_qr_scan"}, "bike_id": "aa2b39aa3251879a5a3ef7b89a619225", "lat": 38.93462316666667, "name": "aa2b39aa3251879a5a3ef7b89a619225", "lon": -77.02791483333333, "fusion_lon": 0.0}, {"is_reserved": 0, "type": "electric_scooter", "fusion_lat": 0.0, "is_disabled": 0, "rental_uris": {"ios": "https://dc.lft.to/lastmile_qr_scan", "android": "https://dc.lft.to/lastmile_qr_scan"}, "bike_id": "527946337e54b7df306d380dcab29ae4", "lat": 38.930128, "name": "527946337e54b7df306d380dcab29ae4", "lon": -77.040502, "fusion_lon": 0.0}, {"is_reserved": 0, "type": "electric_scooter", "fusion_lat": 0.0, "is_disabled": 0, "rental_uris": {"ios": "https://dc.lft.to/lastmile_qr_scan", "android": "https://dc.lft.to/lastmile_qr_scan"}, "bike_id": "6f8bb8a50d13079f538e04666c1c8c64", "lat": 38.90956, "name": "6f8bb8a50d13079f538e04666c1c8c64", "lon": -76.9957775, "fusion_lon": 0.0}, {"is_reserved": 0, "type": "electric_scooter", "fusion_lat": 0.0, "is_disabled": 0, "rental_uris": {"ios": "https://dc.lft.to/lastmile_qr_scan", "android": "https://dc.lft.to/lastmile_qr_scan"}, "bike_id": "0e0d6589cad4fa61a5bc909b0b7b6565", "lat": 38.924881, "name": "0e0d6589cad4fa61a5bc909b0b7b6565", "lon": -77.02133866666667, "fusion_lon": 0.0}, {"is_reserved": 0, "type": "electric_scooter", "fusion_lat": 0.0, "is_disabled": 0, "rental_uris": {"ios": "https://dc.lft.to/lastmile_qr_scan", "android": "https://dc.lft.to/lastmile_qr_scan"}, "bike_id": "08296afd9c2b5c8219660ea07bdbdea9", "lat": 38.908234, "name": "08296afd9c2b5c8219660ea07bdbdea9", "lon": -77.04333366666667, "fusion_lon": 0.0}, {"is_reserved": 0, "type": "electric_bike", "fusion_lat": 0.0, "is_disabled": 0, "rental_uris": {"ios": "https://dc.lft.to/lastmile_qr_scan", "android": "https://dc.lft.to/lastmile_qr_scan"}, "bike_id": "f3e9890abcab5b1ecd7bb2e5864409fd", "lat": 38.908969666666664, "name": "f3e9890abcab5b1ecd7bb2e5864409fd", "lon": -77.03215783333333, "fusion_lon": 0.0}, {"is_reserved": 0, "type": "electric_scooter", "fusion_lat": 0.0, "is_disabled": 0, "rental_uris": {"ios": "https://dc.lft.to/lastmile_qr_scan", "android": "https://dc.lft.to/lastmile_qr_scan"}, "bike_id": "1b22b68341a3b46f50fb509f8c0e9b21", "lat": 38.906287, "name": "1b22b68341a3b46f50fb509f8c0e9b21", "lon": -77.009023, "fusion_lon": 0.0}, {"is_reserved": 0, "type": "electric_scooter", "fusion_lat": 0.0, "is_disabled": 0, "rental_uris": {"ios": "https://dc.lft.to/lastmile_qr_scan", "android": "https://dc.lft.to/lastmile_qr_scan"}, "bike_id": "a9abd406f6c1c224d6f5ecb1ccedc9ea", "lat": 38.92574883333333, "name": "a9abd406f6c1c224d6f5ecb1ccedc9ea", "lon": -77.02990933333334, "fusion_lon": 0.0}, {"is_reserved": 0, "type": "electric_scooter", "fusion_lat": 0.0, "is_disabled": 0, "rental_uris": {"ios": "https://dc.lft.to/lastmile_qr_scan", "android": "https://dc.lft.to/lastmile_qr_scan"}, "bike_id": "801bba6de8c0c37fd1864753b6398c02", "lat": 38.93266233333333, "name": "801bba6de8c0c37fd1864753b6398c02", "lon": -77.0326325, "fusion_lon": 0.0}, {"is_reserved": 0, "type": "electric_bike", "fusion_lat": 0.0, "is_disabled": 0, "rental_uris": {"ios": "https://dc.lft.to/lastmile_qr_scan", "android": "https://dc.lft.to/lastmile_qr_scan"}, "bike_id": "b7923415b42174e724e69c6616952444", "lat": 38.85060516666667, "name": "b7923415b42174e724e69c6616952444", "lon": -76.95829433333333, "fusion_lon": 0.0}, {"is_reserved": 0, "type": "electric_scooter", "fusion_lat": 0.0, "is_disabled": 0, "rental_uris": {"ios": "https://dc.lft.to/lastmile_qr_scan", "android": "https://dc.lft.to/lastmile_qr_scan"}, "bike_id": "2e0a687722a21d67a140ad239a465864", "lat": 38.9309825, "name": "2e0a687722a21d67a140ad239a465864", "lon": -77.02474616666667, "fusion_lon": 0.0}, {"is_reserved": 0, "type": "electric_scooter", "fusion_lat": 0.0, "is_disabled": 0, "rental_uris": {"ios": "https://dc.lft.to/lastmile_qr_scan", "android": "https://dc.lft.to/lastmile_qr_scan"}, "bike_id": "6851a80766d0404537bf8e9e6b789059", "lat": 38.86084366666667, "name": "6851a80766d0404537bf8e9e6b789059", "lon": -76.983764, "fusion_lon": 0.0}, {"is_reserved": 0, "type": "electric_scooter", "fusion_lat": 0.0, "is_disabled": 0, "rental_uris": {"ios": "https://dc.lft.to/lastmile_qr_scan", "android": "https://dc.lft.to/lastmile_qr_scan"}, "bike_id": "08ce4b5293f996cea6799885507f3301", "lat": 38.88574783333333, "name": "08ce4b5293f996cea6799885507f3301", "lon": -77.01213183333333, "fusion_lon": 0.0}, {"is_reserved": 0, "type": "electric_scooter", "fusion_lat": 0.0, "is_disabled": 0, "rental_uris": {"ios": "https://dc.lft.to/lastmile_qr_scan", "android": "https://dc.lft.to/lastmile_qr_scan"}, "bike_id": "212b4ca05fa4ec463148aaf7db9a1f68", "lat": 38.89635483333333, "name": "212b4ca05fa4ec463148aaf7db9a1f68", "lon": -77.0466625, "fusion_lon": 0.0}, {"is_reserved": 0, "type": "electric_scooter", "fusion_lat": 0.0, "is_disabled": 0, "rental_uris": {"ios": "https://dc.lft.to/lastmile_qr_scan", "android": "https://dc.lft.to/lastmile_qr_scan"}, "bike_id": "a9937318467d291ab90e5f5d0f4264b8", "lat": 38.904395, "name": "a9937318467d291ab90e5f5d0f4264b8", "lon": -76.9973115, "fusion_lon": 0.0}, {"is_reserved": 0, "type": "electric_scooter", "fusion_lat": 0.0, "is_disabled": 0, "rental_uris": {"ios": "https://dc.lft.to/lastmile_qr_scan", "android": "https://dc.lft.to/lastmile_qr_scan"}, "bike_id": "0646a7c3d94e164ec86ca289456664a1", "lat": 38.923829, "name": "0646a7c3d94e164ec86ca289456664a1", "lon": -77.0411265, "fusion_lon": 0.0}, {"is_reserved": 0, "type": "electric_scooter", "fusion_lat": 0.0, "is_disabled": 0, "rental_uris": {"ios": "https://dc.lft.to/lastmile_qr_scan", "android": "https://dc.lft.to/lastmile_qr_scan"}, "bike_id": "db5572c95fd431e99c7e339df0faf161", "lat": 38.91815883333334, "name": "db5572c95fd431e99c7e339df0faf161", "lon": -77.02709466666667, "fusion_lon": 0.0}, {"is_reserved": 0, "type": "electric_scooter", "fusion_lat": 0.0, "is_disabled": 0, "rental_uris": {"ios": "https://dc.lft.to/lastmile_qr_scan", "android": "https://dc.lft.to/lastmile_qr_scan"}, "bike_id": "289c9d1383c06d96d0f46de24900bffd", "lat": 38.92505416666667, "name": "289c9d1383c06d96d0f46de24900bffd", "lon": -77.05114766666667, "fusion_lon": 0.0}, {"is_reserved": 0, "type": "electric_scooter", "fusion_lat": 0.0, "is_disabled": 0, "rental_uris": {"ios": "https://dc.lft.to/lastmile_qr_scan", "android": "https://dc.lft.to/lastmile_qr_scan"}, "bike_id": "3e66fa69c90a4e7acfc704741c49a2b4", "lat": 38.9026335, "name": "3e66fa69c90a4e7acfc704741c49a2b4", "lon": -77.04540583333333, "fusion_lon": 0.0}, {"is_reserved": 0, "type": "electric_bike", "fusion_lat": 0.0, "is_disabled": 0, "rental_uris": {"ios": "https://dc.lft.to/lastmile_qr_scan", "android": "https://dc.lft.to/lastmile_qr_scan"}, "bike_id": "991fb567a053ea848d77a852e608ff91", "lat": 38.972831666666664, "name": "991fb567a053ea848d77a852e608ff91", "lon": -77.03626366666667, "fusion_lon": 0.0}, {"is_reserved": 0, "type": "electric_scooter", "fusion_lat": 0.0, "is_disabled": 0, "rental_uris": {"ios": "https://dc.lft.to/lastmile_qr_scan", "android": "https://dc.lft.to/lastmile_qr_scan"}, "bike_id": "deb7a087f817320473dafac4b6087cbf", "lat": 38.87842583333333, "name": "deb7a087f817320473dafac4b6087cbf", "lon": -77.0087755, "fusion_lon": 0.0}, {"is_reserved": 0, "type": "electric_scooter", "fusion_lat": 0.0, "is_disabled": 0, "rental_uris": {"ios": "https://dc.lft.to/lastmile_qr_scan", "android": "https://dc.lft.to/lastmile_qr_scan"}, "bike_id": "28cc76b57d12c99fff203f51336b9c19", "lat": 38.894754166666665, "name": "28cc76b57d12c99fff203f51336b9c19", "lon": -77.02738016666666, "fusion_lon": 0.0}, {"is_reserved": 0, "type": "electric_bike", "fusion_lat": 0.0, "is_disabled": 0, "rental_uris": {"ios": "https://dc.lft.to/lastmile_qr_scan", "android": "https://dc.lft.to/lastmile_qr_scan"}, "bike_id": "b51bfea00892ab9451c390ccd1a8ee6d", "lat": 38.842910833333335, "name": "b51bfea00892ab9451c390ccd1a8ee6d", "lon": -77.06385633333333, "fusion_lon": 0.0}, {"is_reserved": 0, "type": "electric_scooter", "fusion_lat": 0.0, "is_disabled": 0, "rental_uris": {"ios": "https://dc.lft.to/lastmile_qr_scan", "android": "https://dc.lft.to/lastmile_qr_scan"}, "bike_id": "95df6d33d386eff3f39a8f7b0bcc8167", "lat": 38.920973833333335, "name": "95df6d33d386eff3f39a8f7b0bcc8167", "lon": -77.02507933333334, "fusion_lon": 0.0}, {"is_reserved": 0, "type": "electric_bike", "fusion_lat": 0.0, "is_disabled": 0, "rental_uris": {"ios": "https://dc.lft.to/lastmile_qr_scan", "android": "https://dc.lft.to/lastmile_qr_scan"}, "bike_id": "95bc0e911ac8babc931047dac378adbb", "lat": 38.952469, "name": "95bc0e911ac8babc931047dac378adbb", "lon": -77.09622466666667, "fusion_lon": 0.0}, {"is_reserved": 0, "type": "electric_scooter", "fusion_lat": 0.0, "is_disabled": 0, "rental_uris": {"ios": "https://dc.lft.to/lastmile_qr_scan", "android": "https://dc.lft.to/lastmile_qr_scan"}, "bike_id": "1f35a50d7dfb78df625c3e5965a4a302", "lat": 38.9232945, "name": "1f35a50d7dfb78df625c3e5965a4a302", "lon": -77.03782216666667, "fusion_lon": 0.0}, {"is_reserved": 0, "type": "electric_scooter", "fusion_lat": 0.0, "is_disabled": 0, "rental_uris": {"ios": "https://dc.lft.to/lastmile_qr_scan", "android": "https://dc.lft.to/lastmile_qr_scan"}, "bike_id": "7fb9a3b91560b0e53d1ef9f6db2f96b4", "lat": 38.90692116666666, "name": "7fb9a3b91560b0e53d1ef9f6db2f96b4", "lon": -77.02722833333333, "fusion_lon": 0.0}, {"is_reserved": 0, "type": "electric_bike", "fusion_lat": 0.0, "is_disabled": 0, "rental_uris": {"ios": "https://dc.lft.to/lastmile_qr_scan", "android": "https://dc.lft.to/lastmile_qr_scan"}, "bike_id": "750cfbedc66c0a773da7cbc5159fb5ba", "lat": 38.92962083333333, "name": "750cfbedc66c0a773da7cbc5159fb5ba", "lon": -77.0201635, "fusion_lon": 0.0}, {"is_reserved": 0, "type": "electric_scooter", "fusion_lat": 0.0, "is_disabled": 0, "rental_uris": {"ios": "https://dc.lft.to/lastmile_qr_scan", "android": "https://dc.lft.to/lastmile_qr_scan"}, "bike_id": "8fb584b896e418aa1a2b790b0dd4b0fd", "lat": 38.920852, "name": "8fb584b896e418aa1a2b790b0dd4b0fd", "lon": -76.9948325, "fusion_lon": 0.0}, {"is_reserved": 0, "type": "electric_scooter", "fusion_lat": 0.0, "is_disabled": 0, "rental_uris": {"ios": "https://dc.lft.to/lastmile_qr_scan", "android": "https://dc.lft.to/lastmile_qr_scan"}, "bike_id": "3fe6230c9059353a03e11bfd89cb101c", "lat": 38.91837783333333, "name": "3fe6230c9059353a03e11bfd89cb101c", "lon": -77.04545216666666, "fusion_lon": 0.0}, {"is_reserved": 0, "type": "electric_scooter", "fusion_lat": 0.0, "is_disabled": 0, "rental_uris": {"ios": "https://dc.lft.to/lastmile_qr_scan", "android": "https://dc.lft.to/lastmile_qr_scan"}, "bike_id": "b6a16b4362825af37d9d3c254f48b994", "lat": 38.9111375, "name": "b6a16b4362825af37d9d3c254f48b994", "lon": -77.01105933333334, "fusion_lon": 0.0}, {"is_reserved": 0, "type": "electric_scooter", "fusion_lat": 0.0, "is_disabled": 0, "rental_uris": {"ios": "https://dc.lft.to/lastmile_qr_scan", "android": "https://dc.lft.to/lastmile_qr_scan"}, "bike_id": "73c18fa9695bd4a6e3f3e6e67e7eec66", "lat": 38.923333666666664, "name": "73c18fa9695bd4a6e3f3e6e67e7eec66", "lon": -77.00893766666667, "fusion_lon": 0.0}, {"is_reserved": 0, "type": "electric_scooter", "fusion_lat": 0.0, "is_disabled": 0, "rental_uris": {"ios": "https://dc.lft.to/lastmile_qr_scan", "android": "https://dc.lft.to/lastmile_qr_scan"}, "bike_id": "bb54670e33d8b8b0b05f406e2cde352f", "lat": 38.91815116666667, "name": "bb54670e33d8b8b0b05f406e2cde352f", "lon": -77.02703333333334, "fusion_lon": 0.0}, {"is_reserved": 0, "type": "electric_scooter", "fusion_lat": 0.0, "is_disabled": 0, "rental_uris": {"ios": "https://dc.lft.to/lastmile_qr_scan", "android": "https://dc.lft.to/lastmile_qr_scan"}, "bike_id": "55f2e42c188c476dec5bf9233afab205", "lat": 38.9090185, "name": "55f2e42c188c476dec5bf9233afab205", "lon": -77.00282516666667, "fusion_lon": 0.0}, {"is_reserved": 0, "type": "electric_bike", "fusion_lat": 0.0, "is_disabled": 0, "rental_uris": {"ios": "https://dc.lft.to/lastmile_qr_scan", "android": "https://dc.lft.to/lastmile_qr_scan"}, "bike_id": "0fa9b0886b1383b98d6cb2fa3cf31cf6", "lat": 38.92291216666667, "name": "0fa9b0886b1383b98d6cb2fa3cf31cf6", "lon": -76.99776883333334, "fusion_lon": 0.0}, {"is_reserved": 0, "type": "electric_scooter", "fusion_lat": 0.0, "is_disabled": 0, "rental_uris": {"ios": "https://dc.lft.to/lastmile_qr_scan", "android": "https://dc.lft.to/lastmile_qr_scan"}, "bike_id": "1aacea1dcfd8ff95713a2294e519cdb3", "lat": 38.89527666666667, "name": "1aacea1dcfd8ff95713a2294e519cdb3", "lon": -76.97722816666666, "fusion_lon": 0.0}, {"is_reserved": 0, "type": "electric_scooter", "fusion_lat": 0.0, "is_disabled": 0, "rental_uris": {"ios": "https://dc.lft.to/lastmile_qr_scan", "android": "https://dc.lft.to/lastmile_qr_scan"},