{"data": {"bikes": [{"rental_uris": {"android": "https://dc.lft.to/lastmile_qr_scan", "ios": "https://dc.lft.to/lastmile_qr_scan"}, "type": "electric_scooter", "lon": -77.03212283333333, "name": "0cb24df53a3389f8322c3707c890dfa8", "bike_id": "0cb24df53a3389f8322c3707c890dfa8", "fusion_lat": 0.0, "is_reserved": 0, "lat": 38.91187083333333, "fusion_lon": 0.0, "is_disabled": 0}, {"rental_uris": {"android": "https://dc.lft.to/lastmile_qr_scan", "ios": "https://dc.lft.to/lastmile_qr_scan"}, "type": "electric_scooter", "lon": -77.01225866666667, "name": "3a486b50ea288922366305f2cb2840f7", "bike_id": "3a486b50ea288922366305f2cb2840f7", "fusion_lat": 0.0, "is_reserved": 0, "lat": 38.915457, "fusion_lon": 0.0, "is_disabled": 0}, {"rental_uris": {"android": "https://dc.lft.to/lastmile_qr_scan", "ios": "https://dc.lft.to/lastmile_qr_scan"}, "type": "electric_scooter", "lon": -77.02823733333334, "name": "71b7f071bedca6971328997d9d1ffa34", "bike_id": "71b7f071bedca6971328997d9d1ffa34", "fusion_lat": 0.0, "is_reserved": 0, "lat": 38.91550933333333, "fusion_lon": 0.0, "is_disabled": 0}, {"rental_uris": {"android": "https://dc.lft.to/lastmile_qr_scan", "ios": "https://dc.lft.to/lastmile_qr_scan"}, "type": "electric_scooter", "lon": -76.98362933333334, "name": "8110994e8ad213efa06e65c0de6ddb62", "bike_id": "8110994e8ad213efa06e65c0de6ddb62", "fusion_lat": 0.0, "is_reserved": 0, "lat": 38.861045833333336, "fusion_lon": 0.0, "is_disabled": 0}, {"rental_uris": {"android": "https://dc.lft.to/lastmile_qr_scan", "ios": "https://dc.lft.to/lastmile_qr_scan"}, "type": "electric_scooter", "lon": -77.0318495, "name": "0e8aa6859c4a55f0b847f95e16f762fb", "bike_id": "0e8aa6859c4a55f0b847f95e16f762fb", "fusion_lat": 0.0, "is_reserved": 0, "lat": 38.90725316666666, "fusion_lon": 0.0, "is_disabled": 0}, {"rental_uris": {"android": "https://dc.lft.to/lastmile_qr_scan", "ios": "https://dc.lft.to/lastmile_qr_scan"}, "type": "electric_scooter", "lon": -77.02353983333333, "name": "58fb0d802bc6da61db42cac1f0cdfbde", "bike_id": "58fb0d802bc6da61db42cac1f0cdfbde", "fusion_lat": 0.0, "is_reserved": 0, "lat": 38.89219416666667, "fusion_lon": 0.0, "is_disabled": 0}, {"rental_uris": {"android": "https://dc.lft.to/lastmile_qr_scan", "ios": "https://dc.lft.to/lastmile_qr_scan"}, "type": "electric_bike", "lon": -77.114156, "name": "fc1f936a5b9155385f8ce1de657027f4", "bike_id": "fc1f936a5b9155385f8ce1de657027f4", "fusion_lat": 0.0, "is_reserved": 0, "lat": 38.8428735, "fusion_lon": 0.0, "is_disabled": 0}, {"rental_uris": {"android": "https://dc.lft.to/lastmile_qr_scan", "ios": "https://dc.lft.to/lastmile_qr_scan"}, "type": "electric_bike", "lon": -77.05090683333333, "name": "b70443cb6a4054f1e796a081addf82b4", "bike_id": "b70443cb6a4054f1e796a081addf82b4", "fusion_lat": 0.0, "is_reserved": 0, "lat": 38.813315833333334, "fusion_lon": 0.0, "is_disabled": 0}, {"rental_uris": {"android": "https://dc.lft.to/lastmile_qr_scan", "ios": "https://dc.lft.to/lastmile_qr_scan"}, "type": "electric_scooter", "lon": -77.06284083333334, "name": "658bfe5a6ad6903cbdcdc13b86abab5e", "bike_id": "658bfe5a6ad6903cbdcdc13b86abab5e", "fusion_lat": 0.0, "is_reserved": 0, "lat": 38.90457516666667, "fusion_lon": 0.0, "is_disabled": 0}, {"rental_uris": {"android": "https://dc.lft.to/lastmile_qr_scan", "ios": "https://dc.lft.to/lastmile_qr_scan"}, "type": "electric_bike", "lon": -77.024897, "name": "523f65f59be5da47352f938c648b5965", "bike_id": "523f65f59be5da47352f938c648b5965", "fusion_lat": 0.0, "is_reserved": 0, "lat": 38.973689666666665, "fusion_lon": 0.0, "is_disabled": 0}, {"rental_uris": {"android": "https://dc.lft.to/lastmile_qr_scan", "ios": "https://dc.lft.to/lastmile_qr_scan"}, "type": "electric_scooter", "lon": -76.94925716666667, "name": "f4df014c95334f43353b8ba66dbbeebb", "bike_id": "f4df014c95334f43353b8ba66dbbeebb", "fusion_lat": 0.0, "is_reserved": 0, "lat": 38.88477733333333, "fusion_lon": 0.0, "is_disabled": 0}, {"rental_uris": {"android": "https://dc.lft.to/lastmile_qr_scan", "ios": "https://dc.lft.to/lastmile_qr_scan"}, "type": "electric_scooter", "lon": -77.01535916666667, "name": "28c94ca079ad86c135e8c5066adb5cb0", "bike_id": "28c94ca079ad86c135e8c5066adb5cb0", "fusion_lat": 0.0, "is_reserved": 0, "lat": 38.94311016666666, "fusion_lon": 0.0, "is_disabled": 0}, {"rental_uris": {"android": "https://dc.lft.to/lastmile_qr_scan", "ios": "https://dc.lft.to/lastmile_qr_scan"}, "type": "electric_scooter", "lon": -77.01883066666667, "name": "c593777f380d0e820c7c996a19799041", "bike_id": "c593777f380d0e820c7c996a19799041", "fusion_lat": 0.0, "is_reserved": 0, "lat": 38.9095485, "fusion_lon": 0.0, "is_disabled": 0}, {"rental_uris": {"android": "https://dc.lft.to/lastmile_qr_scan", "ios": "https://dc.lft.to/lastmile_qr_scan"}, "type": "electric_scooter", "lon": -77.03886433333334, "name": "f409c37a72200b48e093deaaa3d435ac", "bike_id": "f409c37a72200b48e093deaaa3d435ac", "fusion_lat": 0.0, "is_reserved": 0, "lat": 38.932654166666666, "fusion_lon": 0.0, "is_disabled": 0}, {"rental_uris": {"android": "https://dc.lft.to/lastmile_qr_scan", "ios": "https://dc.lft.to/lastmile_qr_scan"}, "type": "electric_scooter", "lon": -76.99020716666666, "name": "0f3e87e37605d6ab8dab23211fdeb68a", "bike_id": "0f3e87e37605d6ab8dab23211fdeb68a", "fusion_lat": 0.0, "is_reserved": 0, "lat": 38.8611055, "fusion_lon": 0.0, "is_disabled": 0}, {"rental_uris": {"android": "https://dc.lft.to/lastmile_qr_scan", "ios": "https://dc.lft.to/lastmile_qr_scan"}, "type": "electric_scooter", "lon": -76.99631216666667, "name": "c4287997dcc59e37d99d0ddcb15f0a42", "bike_id": "c4287997dcc59e37d99d0ddcb15f0a42", "fusion_lat": 0.0, "is_reserved": 0, "lat": 38.84619033333333, "fusion_lon": 0.0, "is_disabled": 0}, {"rental_uris": {"android": "https://dc.lft.to/lastmile_qr_scan", "ios": "https://dc.lft.to/lastmile_qr_scan"}, "type": "electric_scooter", "lon": -76.93738733333333, "name": "f70a21d999c911328e0b4a11d8e5fdcd", "bike_id": "f70a21d999c911328e0b4a11d8e5fdcd", "fusion_lat": 0.0, "is_reserved": 0, "lat": 38.89018383333333, "fusion_lon": 0.0, "is_disabled": 0}, {"rental_uris": {"android": "https://dc.lft.to/lastmile_qr_scan", "ios": "https://dc.lft.to/lastmile_qr_scan"}, "type": "electric_scooter", "lon": -77.0279845, "name": "021ac5136bc8c6f0ff8c8aa0c1f0a385", "bike_id": "021ac5136bc8c6f0ff8c8aa0c1f0a385", "fusion_lat": 0.0, "is_reserved": 0, "lat": 38.8980945, "fusion_lon": 0.0, "is_disabled": 0}, {"rental_uris": {"android": "https://dc.lft.to/lastmile_qr_scan", "ios": "https://dc.lft.to/lastmile_qr_scan"}, "type": "electric_scooter", "lon": -77.034399, "name": "e90f543699c18b484d11b3781ee33c69", "bike_id": "e90f543699c18b484d11b3781ee33c69", "fusion_lat": 0.0, "is_reserved": 0, "lat": 38.90431016666667, "fusion_lon": 0.0, "is_disabled": 0}, {"rental_uris": {"android": "https://dc.lft.to/lastmile_qr_scan", "ios": "https://dc.lft.to/lastmile_qr_scan"}, "type": "electric_scooter", "lon": -77.02480266666667, "name": "401a9c4549c4a05657cdfb8b453fe307", "bike_id": "401a9c4549c4a05657cdfb8b453fe307", "fusion_lat": 0.0, "is_reserved": 0, "lat": 38.938795666666664, "fusion_lon": 0.0, "is_disabled": 0}, {"rental_uris": {"android": "https://dc.lft.to/lastmile_qr_scan", "ios": "https://dc.lft.to/lastmile_qr_scan"}, "type": "electric_scooter", "lon": -77.00050916666666, "name": "301afccfae699b36986147b3dbf536ac", "bike_id": "301afccfae699b36986147b3dbf536ac", "fusion_lat": 0.0, "is_reserved": 0, "lat": 38.903622, "fusion_lon": 0.0, "is_disabled": 0}, {"rental_uris": {"android": "https://dc.lft.to/lastmile_qr_scan", "ios": "https://dc.lft.to/lastmile_qr_scan"}, "type": "electric_scooter", "lon": -76.9315955, "name": "17cdaec3c6551459cd2f5af7f25ce795", "bike_id": "17cdaec3c6551459cd2f5af7f25ce795", "fusion_lat": 0.0, "is_reserved": 0, "lat": 38.89881466666667, "fusion_lon": 0.0, "is_disabled": 0}, {"rental_uris": {"android": "https://dc.lft.to/lastmile_qr_scan", "ios": "https://dc.lft.to/lastmile_qr_scan"}, "type": "electric_scooter", "lon": -76.94214583333333, "name": "c568719c98d671db8e22d4e270cd92fc", "bike_id": "c568719c98d671db8e22d4e270cd92fc", "fusion_lat": 0.0, "is_reserved": 0, "lat": 38.8967695, "fusion_lon": 0.0, "is_disabled": 0}, {"rental_uris": {"android": "https://dc.lft.to/lastmile_qr_scan", "ios": "https://dc.lft.to/lastmile_qr_scan"}, "type": "electric_scooter", "lon": -77.01566533333333, "name": "96e922a84ce62705b604411b35515544", "bike_id": "96e922a84ce62705b604411b35515544", "fusion_lat": 0.0, "is_reserved": 0, "lat": 38.876362666666665, "fusion_lon": 0.0, "is_disabled": 0}, {"rental_uris": {"android": "https://dc.lft.to/lastmile_qr_scan", "ios": "https://dc.lft.to/lastmile_qr_scan"}, "type": "electric_bike", "lon": -77.112161, "name": "f6c69e5c43f3a074d47221562ea3a3db", "bike_id": "f6c69e5c43f3a074d47221562ea3a3db", "fusion_lat": 0.0, "is_reserved": 0, "lat": 38.828737333333336, "fusion_lon": 0.0, "is_disabled": 0}, {"rental_uris": {"android": "https://dc.lft.to/lastmile_qr_scan", "ios": "https://dc.lft.to/lastmile_qr_scan"}, "type": "electric_scooter", "lon": -77.0095755, "name": "ebaed3244423513c142ac351b916b954", "bike_id": "ebaed3244423513c142ac351b916b954", "fusion_lat": 0.0, "is_reserved": 0, "lat": 38.92135916666667, "fusion_lon": 0.0, "is_disabled": 0}, {"rental_uris": {"android": "https://dc.lft.to/lastmile_qr_scan", "ios": "https://dc.lft.to/lastmile_qr_scan"}, "type": "electric_scooter", "lon": -77.03448966666667, "name": "ed67ba4642b5cb3caaa951c9c62a0d00", "bike_id": "ed67ba4642b5cb3caaa951c9c62a0d00", "fusion_lat": 0.0, "is_reserved": 0, "lat": 38.905199333333336, "fusion_lon": 0.0, "is_disabled": 0}, {"rental_uris": {"android": "https://dc.lft.to/lastmile_qr_scan", "ios": "https://dc.lft.to/lastmile_qr_scan"}, "type": "electric_bike", "lon": -76.87497416666666, "name": "e855e8d4b80b442d8cf153bb7c1ff1b1", "bike_id": "e855e8d4b80b442d8cf153bb7c1ff1b1", "fusion_lat": 0.0, "is_reserved": 0, "lat": 38.99090233333333, "fusion_lon": 0.0, "is_disabled": 0}, {"rental_uris": {"android": "https://dc.lft.to/lastmile_qr_scan", "ios": "https://dc.lft.to/lastmile_qr_scan"}, "type": "electric_scooter", "lon": -77.03841483333333, "name": "96b911d4071be14b25c7c1f7550921a3", "bike_id": "96b911d4071be14b25c7c1f7550921a3", "fusion_lat": 0.0, "is_reserved": 0, "lat": 38.911962833333334, "fusion_lon": 0.0, "is_disabled": 0}, {"rental_uris": {"android": "https://dc.lft.to/lastmile_qr_scan", "ios": "https://dc.lft.to/lastmile_qr_scan"}, "type": "electric_scooter", "lon": -77.05029783333333, "name": "09955fc6abbdf0a2da8496ebb1e3a1f4", "bike_id": "09955fc6abbdf0a2da8496ebb1e3a1f4", "fusion_lat": 0.0, "is_reserved": 0, "lat": 38.923636, "fusion_lon": 0.0, "is_disabled": 0}, {"rental_uris": {"android": "https://dc.lft.to/lastmile_qr_scan", "ios": "https://dc.lft.to/lastmile_qr_scan"}, "type": "electric_scooter", "lon": -77.0227885, "name": "79e0d37a81861612a68db8f93d80acb8", "bike_id": "79e0d37a81861612a68db8f93d80acb8", "fusion_lat": 0.0, "is_reserved": 0, "lat": 38.918387833333334, "fusion_lon": 0.0, "is_disabled": 0}, {"rental_uris": {"android": "https://dc.lft.to/lastmile_qr_scan", "ios": "https://dc.lft.to/lastmile_qr_scan"}, "type": "electric_scooter", "lon": -77.07851233333334, "name": "8192306d46c55c82c438d355fe905680", "bike_id": "8192306d46c55c82c438d355fe905680", "fusion_lat": 0.0, "is_reserved": 0, "lat": 38.931370333333334, "fusion_lon": 0.0, "is_disabled": 0}, {"rental_uris": {"android": "https://dc.lft.to/lastmile_qr_scan", "ios": "https://dc.lft.to/lastmile_qr_scan"}, "type": "electric_scooter", "lon": -77.0296475, "name": "b01fd7b2a744a21a676071f801103913", "bike_id": "b01fd7b2a744a21a676071f801103913", "fusion_lat": 0.0, "is_reserved": 0, "lat": 38.9246225, "fusion_lon": 0.0, "is_disabled": 0}, {"rental_uris": {"android": "https://dc.lft.to/lastmile_qr_scan", "ios": "https://dc.lft.to/lastmile_qr_scan"}, "type": "electric_scooter", "lon": -77.03873033333333, "name": "5d4c2beee708dadd3d34cd557bba615c", "bike_id": "5d4c2beee708dadd3d34cd557bba615c", "fusion_lat": 0.0, "is_reserved": 0, "lat": 38.905799333333334, "fusion_lon": 0.0, "is_disabled": 0}, {"rental_uris": {"android": "https://dc.lft.to/lastmile_qr_scan", "ios": "https://dc.lft.to/lastmile_qr_scan"}, "type": "electric_scooter", "lon": -76.99291266666667, "name": "89fb769709f5ffc4371a8aa1cc67a262", "bike_id": "89fb769709f5ffc4371a8aa1cc67a262", "fusion_lat": 0.0, "is_reserved": 0, "lat": 38.90009666666667, "fusion_lon": 0.0, "is_disabled": 0}, {"rental_uris": {"android": "https://dc.lft.to/lastmile_qr_scan", "ios": "https://dc.lft.to/lastmile_qr_scan"}, "type": "electric_scooter", "lon": -77.04581633333333, "name": "c2d07ff18c7c5f762ee7c2c0205b2c75", "bike_id": "c2d07ff18c7c5f762ee7c2c0205b2c75", "fusion_lat": 0.0, "is_reserved": 0, "lat": 38.899902, "fusion_lon": 0.0, "is_disabled": 0}, {"rental_uris": {"android": "https://dc.lft.to/lastmile_qr_scan", "ios": "https://dc.lft.to/lastmile_qr_scan"}, "type": "electric_scooter", "lon": -77.02418233333333, "name": "f14a63dc702bf6624a12652c7d0b7155", "bike_id": "f14a63dc702bf6624a12652c7d0b7155", "fusion_lat": 0.0, "is_reserved": 0, "lat": 38.895239333333336, "fusion_lon": 0.0, "is_disabled": 0}, {"rental_uris": {"android": "https://dc.lft.to/lastmile_qr_scan", "ios": "https://dc.lft.to/lastmile_qr_scan"}, "type": "electric_scooter", "lon": -77.04126666666667, "name": "2b877606a891db420e5b91c8dea32313", "bike_id": "2b877606a891db420e5b91c8dea32313", "fusion_lat": 0.0, "is_reserved": 0, "lat": 38.909682333333336, "fusion_lon": 0.0, "is_disabled": 0}, {"rental_uris": {"android": "https://dc.lft.to/lastmile_qr_scan", "ios": "https://dc.lft.to/lastmile_qr_scan"}, "type": "electric_scooter", "lon": -77.02543666666666, "name": "905707d3ed64f36098dc222a6cb19491", "bike_id": "905707d3ed64f36098dc222a6cb19491", "fusion_lat": 0.0, "is_reserved": 0, "lat": 38.916561333333334, "fusion_lon": 0.0, "is_disabled": 0}, {"rental_uris": {"android": "https://dc.lft.to/lastmile_qr_scan", "ios": "https://dc.lft.to/lastmile_qr_scan"}, "type": "electric_scooter", "lon": -77.04248816666667, "name": "3f111836f81f654c785e2ee13de394b6", "bike_id": "3f111836f81f654c785e2ee13de394b6", "fusion_lat": 0.0, "is_reserved": 0, "lat": 38.9220145, "fusion_lon": 0.0, "is_disabled": 0}, {"rental_uris": {"android": "https://dc.lft.to/lastmile_qr_scan", "ios": "https://dc.lft.to/lastmile_qr_scan"}, "type": "electric_scooter", "lon": -77.03147133333333, "name": "257a7d6b7f7338ca91afb713cf6ec6ac", "bike_id": "257a7d6b7f7338ca91afb713cf6ec6ac", "fusion_lat": 0.0, "is_reserved": 0, "lat": 38.8971665, "fusion_lon": 0.0, "is_disabled": 0}, {"rental_uris": {"android": "https://dc.lft.to/lastmile_qr_scan", "ios": "https://dc.lft.to/lastmile_qr_scan"}, "type": "electric_scooter", "lon": -77.03177983333333, "name": "098857a4d4434679852e21894c5ff195", "bike_id": "098857a4d4434679852e21894c5ff195", "fusion_lat": 0.0, "is_reserved": 0, "lat": 38.88731416666667, "fusion_lon": 0.0, "is_disabled": 0}, {"rental_uris": {"android": "https://dc.lft.to/lastmile_qr_scan", "ios": "https://dc.lft.to/lastmile_qr_scan"}, "type": "electric_scooter", "lon": -77.03831983333333, "name": "335192560d90e7fc43013cdedb7cdf64", "bike_id": "335192560d90e7fc43013cdedb7cdf64", "fusion_lat": 0.0, "is_reserved": 0, "lat": 38.911184, "fusion_lon": 0.0, "is_disabled": 0}, {"rental_uris": {"android": "https://dc.lft.to/lastmile_qr_scan", "ios": "https://dc.lft.to/lastmile_qr_scan"}, "type": "electric_scooter", "lon": -77.02440783333333, "name": "1377d5b97cae289d01be17f8a6433e92", "bike_id": "1377d5b97cae289d01be17f8a6433e92", "fusion_lat": 0.0, "is_reserved": 0, "lat": 38.932898333333334, "fusion_lon": 0.0, "is_disabled": 0}, {"rental_uris": {"android": "https://dc.lft.to/lastmile_qr_scan", "ios": "https://dc.lft.to/lastmile_qr_scan"}, "type": "electric_scooter", "lon": -76.99492533333333, "name": "16f8f4968310af5975d86e20ec5234ef", "bike_id": "16f8f4968310af5975d86e20ec5234ef", "fusion_lat": 0.0, "is_reserved": 0, "lat": 38.86245783333333, "fusion_lon": 0.0, "is_disabled": 0}, {"rental_uris": {"android": "https://dc.lft.to/lastmile_qr_scan", "ios": "https://dc.lft.to/lastmile_qr_scan"}, "type": "electric_scooter", "lon": -77.02476066666667, "name": "4432e2f60cc437a81457608461bbd294", "bike_id": "4432e2f60cc437a81457608461bbd294", "fusion_lat": 0.0, "is_reserved": 0, "lat": 38.93846816666667, "fusion_lon": 0.0, "is_disabled": 0}, {"rental_uris": {"android": "https://dc.lft.to/lastmile_qr_scan", "ios": "https://dc.lft.to/lastmile_qr_scan"}, "type": "electric_scooter", "lon": -77.046568, "name": "08beedefe62589c814a47b8b10ae9d1a", "bike_id": "08beedefe62589c814a47b8b10ae9d1a", "fusion_lat": 0.0, "is_reserved": 0, "lat": 38.90014166666667, "fusion_lon": 0.0, "is_disabled": 0}, {"rental_uris": {"android": "https://dc.lft.to/lastmile_qr_scan", "ios": "https://dc.lft.to/lastmile_qr_scan"}, "type": "electric_bike", "lon": -77.13095166666666, "name": "c8a3d2b2378efdb7cc2c28f1705b6479", "bike_id": "c8a3d2b2378efdb7cc2c28f1705b6479", "fusion_lat": 0.0, "is_reserved": 0, "lat": 38.861614833333334, "fusion_lon": 0.0, "is_disabled": 0}, {"rental_uris": {"android": "https://dc.lft.to/lastmile_qr_scan", "ios": "https://dc.lft.to/lastmile_qr_scan"}, "type": "electric_scooter", "lon": -76.99914116666666, "name": "492d55a039e356e1d2ce93a8143ac5ed", "bike_id": "492d55a039e356e1d2ce93a8143ac5ed", "fusion_lat": 0.0, "is_reserved": 0, "lat": 38.9093635, "fusion_lon": 0.0, "is_disabled": 0}, {"rental_uris": {"android": "https://dc.lft.to/lastmile_qr_scan", "ios": "https://dc.lft.to/lastmile_qr_scan"}, "type": "electric_scooter", "lon": -77.0069105, "name": "be74952eeac889e1254a2ca5c1933e52", "bike_id": "be74952eeac889e1254a2ca5c1933e52", "fusion_lat": 0.0, "is_reserved": 0, "lat": 38.8769925, "fusion_lon": 0.0, "is_disabled": 0}, {"rental_uris": {"android": "https://dc.lft.to/lastmile_qr_scan", "ios": "https://dc.lft.to/lastmile_qr_scan"}, "type": "electric_scooter", "lon": -77.04564966666666, "name": "3ce3ab61f7a078c8f627c209d3765309", "bike_id": "3ce3ab61f7a078c8f627c209d3765309", "fusion_lat": 0.0, "is_reserved": 0, "lat": 38.921265, "fusion_lon": 0.0, "is_disabled": 0}, {"rental_uris": {"android": "https://dc.lft.to/lastmile_qr_scan", "ios": "https://dc.lft.to/lastmile_qr_scan"}, "type": "electric_bike", "lon": -76.99396, "name": "3a838c30339436d664f3c3dc9a55f295", "bike_id": "3a838c30339436d664f3c3dc9a55f295", "fusion_lat": 0.0, "is_reserved": 0, "lat": 38.9226145, "fusion_lon": 0.0, "is_disabled": 0}, {"rental_uris": {"android": "https://dc.lft.to/lastmile_qr_scan", "ios": "https://dc.lft.to/lastmile_qr_scan"}, "type": "electric_bike", "lon": -76.99058583333333, "name": "facdef2b703217acc3a283a2f15831e0", "bike_id": "facdef2b703217acc3a283a2f15831e0", "fusion_lat": 0.0, "is_reserved": 0, "lat": 38.936874833333334, "fusion_lon": 0.0, "is_disabled": 0}, {"rental_uris": {"android": "https://dc.lft.to/lastmile_qr_scan", "ios": "https://dc.lft.to/lastmile_qr_scan"}, "type": "electric_scooter", "lon": -76.94856083333333, "name": "86296af07aaf56ab5a21e6bd683199e7", "bike_id": "86296af07aaf56ab5a21e6bd683199e7", "fusion_lat": 0.0, "is_reserved": 0, "lat": 38.88295433333333, "fusion_lon": 0.0, "is_disabled": 0}, {"rental_uris": {"android": "https://dc.lft.to/lastmile_qr_scan", "ios": "https://dc.lft.to/lastmile_qr_scan"}, "type": "electric_scooter", "lon": -77.05517916666666, "name": "bd8c8d3eb3a7cca386b780f3a9452e24", "bike_id": "bd8c8d3eb3a7cca386b780f3a9452e24", "fusion_lat": 0.0, "is_reserved": 0, "lat": 38.944124333333335, "fusion_lon": 0.0, "is_disabled": 0}, {"rental_uris": {"android": "https://dc.lft.to/lastmile_qr_scan", "ios": "https://dc.lft.to/lastmile_qr_scan"}, "type": "electric_scooter", "lon": -76.99514666666667, "name": "d4e04d86c2205c0265ba5128ddce525c", "bike_id": "d4e04d86c2205c0265ba5128ddce525c", "fusion_lat": 0.0, "is_reserved": 0, "lat": 38.894806, "fusion_lon": 0.0, "is_disabled": 0}, {"rental_uris": {"android": "https://dc.lft.to/lastmile_qr_scan", "ios": "https://dc.lft.to/lastmile_qr_scan"}, "type": "electric_scooter", "lon": -77.04317883333333, "name": "da6d90f1699894a165347d3b80ecffd4", "bike_id": "da6d90f1699894a165347d3b80ecffd4", "fusion_lat": 0.0, "is_reserved": 0, "lat": 38.9111935, "fusion_lon": 0.0, "is_disabled": 0}, {"rental_uris": {"android": "https://dc.lft.to/lastmile_qr_scan", "ios": "https://dc.lft.to/lastmile_qr_scan"}, "type": "electric_scooter", "lon": -77.03150666666667, "name": "c26fbb7c0bd487e8539a7cea10513220", "bike_id": "c26fbb7c0bd487e8539a7cea10513220", "fusion_lat": 0.0, "is_reserved": 0, "lat": 38.88740883333333, "fusion_lon": 0.0, "is_disabled": 0}, {"rental_uris": {"android": "https://dc.lft.to/lastmile_qr_scan", "ios": "https://dc.lft.to/lastmile_qr_scan"}, "type": "electric_scooter", "lon": -77.053076, "name": "82530adc28cca48c1775b953e9a586ee", "bike_id": "82530adc28cca48c1775b953e9a586ee", "fusion_lat": 0.0, "is_reserved": 0, "lat": 38.926158, "fusion_lon": 0.0, "is_disabled": 0}, {"rental_uris": {"android": "https://dc.lft.to/lastmile_qr_scan", "ios": "https://dc.lft.to/lastmile_qr_scan"}, "type": "electric_scooter", "lon": -77.02408933333334, "name": "eac9263f2a095fb59491e4c06856b3ea", "bike_id": "eac9263f2a095fb59491e4c06856b3ea", "fusion_lat": 0.0, "is_reserved": 0, "lat": 38.8937605, "fusion_lon": 0.0, "is_disabled": 0}, {"rental_uris": {"android": "https://dc.lft.to/lastmile_qr_scan", "ios": "https://dc.lft.to/lastmile_qr_scan"}, "type": "electric_scooter", "lon": -76.948405, "name": "5fc3d21a37854b94c8f5831cb35c4357", "bike_id": "5fc3d21a37854b94c8f5831cb35c4357", "fusion_lat": 0.0, "is_reserved": 0, "lat": 38.8948405, "fusion_lon": 0.0, "is_disabled": 0}, {"rental_uris": {"android": "https://dc.lft.to/lastmile_qr_scan", "ios": "https://dc.lft.to/lastmile_qr_scan"}, "type": "electric_scooter", "lon": -77.0358095, "name": "4f7292ff79f4ad8cd0f093a0d00d5359", "bike_id": "4f7292ff79f4ad8cd0f093a0d00d5359", "fusion_lat": 0.0, "is_reserved": 0, "lat": 38.903828, "fusion_lon": 0.0, "is_disabled": 0}, {"rental_uris": {"android": "https://dc.lft.to/lastmile_qr_scan", "ios": "https://dc.lft.to/lastmile_qr_scan"}, "type": "electric_scooter", "lon": -77.03452533333333, "name": "77fd70a3859843f36ac2e5606bafc6c7", "bike_id": "77fd70a3859843f36ac2e5606bafc6c7", "fusion_lat": 0.0, "is_reserved": 0, "lat": 38.90258816666667, "fusion_lon": 0.0, "is_disabled": 0}, {"rental_uris": {"android": "https://dc.lft.to/lastmile_qr_scan", "ios": "https://dc.lft.to/lastmile_qr_scan"}, "type": "electric_scooter", "lon": -77.0382205, "name": "06ff6c76af9978673a26a7cc9fcf8a3f", "bike_id": "06ff6c76af9978673a26a7cc9fcf8a3f", "fusion_lat": 0.0, "is_reserved": 0, "lat": 38.90717083333333, "fusion_lon": 0.0, "is_disabled": 0}, {"rental_uris": {"android": "https://dc.lft.to/lastmile_qr_scan", "ios": "https://dc.lft.to/lastmile_qr_scan"}, "type": "electric_scooter", "lon": -77.00104766666666, "name": "37070358c518531d5deb42ee604ed75e", "bike_id": "37070358c518531d5deb42ee604ed75e", "fusion_lat": 0.0, "is_reserved": 0, "lat": 38.91632633333333, "fusion_lon": 0.0, "is_disabled": 0}, {"rental_uris": {"android": "https://dc.lft.to/lastmile_qr_scan", "ios": "https://dc.lft.to/lastmile_qr_scan"}, "type": "electric_scooter", "lon": -76.98606116666667, "name": "e6074d47a28c7a152a77269f3fc8ae9a", "bike_id": "e6074d47a28c7a152a77269f3fc8ae9a", "fusion_lat": 0.0, "is_reserved": 0, "lat": 38.854386, "fusion_lon": 0.0, "is_disabled": 0}, {"rental_uris": {"android": "https://dc.lft.to/lastmile_qr_scan", "ios": "https://dc.lft.to/lastmile_qr_scan"}, "type": "electric_scooter", "lon": -77.04585266666666, "name": "8570ad268e5b65f5a8f5fa5e7090f24c", "bike_id": "8570ad268e5b65f5a8f5fa5e7090f24c", "fusion_lat": 0.0, "is_reserved": 0, "lat": 38.921414166666665, "fusion_lon": 0.0, "is_disabled": 0}, {"rental_uris": {"android": "https://dc.lft.to/lastmile_qr_scan", "ios": "https://dc.lft.to/lastmile_qr_scan"}, "type": "electric_scooter", "lon": -77.02180133333333, "name": "faf979efd05ebdefa52fe5dd9dc4e99f", "bike_id": "faf979efd05ebdefa52fe5dd9dc4e99f", "fusion_lat": 0.0, "is_reserved": 0, "lat": 38.892326833333335, "fusion_lon": 0.0, "is_disabled": 0}, {"rental_uris": {"android": "https://dc.lft.to/lastmile_qr_scan", "ios": "https://dc.lft.to/lastmile_qr_scan"}, "type": "electric_scooter", "lon": -77.025463, "name": "0784ea47406f97ade39a3c48b2285507", "bike_id": "0784ea47406f97ade39a3c48b2285507", "fusion_lat": 0.0, "is_reserved": 0, "lat": 38.935188333333336, "fusion_lon": 0.0, "is_disabled": 0}, {"rental_uris": {"android": "https://dc.lft.to/lastmile_qr_scan", "ios": "https://dc.lft.to/lastmile_qr_scan"}, "type": "electric_scooter", "lon": -77.04632516666666, "name": "0e77c78a1be0375f2663f661a4145995", "bike_id": "0e77c78a1be0375f2663f661a4145995", "fusion_lat": 0.0, "is_reserved": 0, "lat": 38.90065883333333, "fusion_lon": 0.0, "is_disabled": 0}, {"rental_uris": {"android": "https://dc.lft.to/lastmile_qr_scan", "ios": "https://dc.lft.to/lastmile_qr_scan"}, "type": "electric_scooter", "lon": -77.0500465, "name": "162ab6ab7d695e1292fda1b06d5fa826", "bike_id": "162ab6ab7d695e1292fda1b06d5fa826", "fusion_lat": 0.0, "is_reserved": 0, "lat": 38.89224183333333, "fusion_lon": 0.0, "is_disabled": 0}, {"rental_uris": {"android": "https://dc.lft.to/lastmile_qr_scan", "ios": "https://dc.lft.to/lastmile_qr_scan"}, "type": "electric_scooter", "lon": -77.03276083333333, "name": "1e2158e8f1592a6b015f1d146ee48117", "bike_id": "1e2158e8f1592a6b015f1d146ee48117", "fusion_lat": 0.0, "is_reserved": 0, "lat": 38.924611166666665, "fusion_lon": 0.0, "is_disabled": 0}, {"rental_uris": {"android": "https://dc.lft.to/lastmile_qr_scan", "ios": "https://dc.lft.to/lastmile_qr_scan"}, "type": "electric_scooter", "lon": -77.02347233333333, "name": "b8f69af6438bc686938afbad115c5fcf", "bike_id": "b8f69af6438bc686938afbad115c5fcf", "fusion_lat": 0.0, "is_reserved": 0, "lat": 38.93324166666667, "fusion_lon": 0.0, "is_disabled": 0}, {"rental_uris": {"android": "https://dc.lft.to/lastmile_qr_scan", "ios": "https://dc.lft.to/lastmile_qr_scan"}, "type": "electric_scooter", "lon": -77.02178916666666, "name": "2e45831c925cc47299c26af6037fc405", "bike_id": "2e45831c925cc47299c26af6037fc405", "fusion_lat": 0.0, "is_reserved": 0, "lat": 38.89228883333333, "fusion_lon": 0.0, "is_disabled": 0}, {"rental_uris": {"android": "https://dc.lft.to/lastmile_qr_scan", "ios": "https://dc.lft.to/lastmile_qr_scan"}, "type": "electric_scooter", "lon": -77.01792133333333, "name": "7b32c6c4db8ebf89243ec4edfec3512a", "bike_id": "7b32c6c4db8ebf89243ec4edfec3512a", "fusion_lat": 0.0, "is_reserved": 0, "lat": 38.90641333333333, "fusion_lon": 0.0, "is_disabled": 0}, {"rental_uris": {"android": "https://dc.lft.to/lastmile_qr_scan", "ios": "https://dc.lft.to/lastmile_qr_scan"}, "type": "electric_scooter", "lon": -77.04414516666667, "name": "5e1698d69d8ec167cde34c6e417a8428", "bike_id": "5e1698d69d8ec167cde34c6e417a8428", "fusion_lat": 0.0, "is_reserved": 0, "lat": 38.896051166666666, "fusion_lon": 0.0, "is_disabled": 0}, {"rental_uris": {"android": "https://dc.lft.to/lastmile_qr_scan", "ios": "https://dc.lft.to/lastmile_qr_scan"}, "type": "electric_bike", "lon": -77.0312115, "name": "e11d0ddffb3ad4ebb0cd4ad937b5132d", "bike_id": "e11d0ddffb3ad4ebb0cd4ad937b5132d", "fusion_lat": 0.0, "is_reserved": 0, "lat": 38.9242325, "fusion_lon": 0.0, "is_disabled": 0}, {"rental_uris": {"android": "https://dc.lft.to/lastmile_qr_scan", "ios": "https://dc.lft.to/lastmile_qr_scan"}, "type": "electric_scooter", "lon": -77.025418, "name": "6bfa440e89c02b264bfa0f256304460b", "bike_id": "6bfa440e89c02b264bfa0f256304460b", "fusion_lat": 0.0, "is_reserved": 0, "lat": 38.92741566666667, "fusion_lon": 0.0, "is_disabled": 0}, {"rental_uris": {"android": "https://dc.lft.to/lastmile_qr_scan", "ios": "https://dc.lft.to/lastmile_qr_scan"}, "type": "electric_scooter", "lon": -77.02346466666667, "name": "bf6d5b10feaaa645565cd7b93292c123", "bike_id": "bf6d5b10feaaa645565cd7b93292c123", "fusion_lat": 0.0, "is_reserved": 0, "lat": 38.929917, "fusion_lon": 0.0, "is_disabled": 0}, {"rental_uris": {"android": "https://dc.lft.to/lastmile_qr_scan", "ios": "https://dc.lft.to/lastmile_qr_scan"}, "type": "electric_bike", "lon": -76.9882855, "name": "b5aee65274e4a4c62ce8f84dfc3ddf15", "bike_id": "b5aee65274e4a4c62ce8f84dfc3ddf15", "fusion_lat": 0.0, "is_reserved": 0, "lat": 38.985619166666666, "fusion_lon": 0.0, "is_disabled": 0}, {"rental_uris": {"android": "https://dc.lft.to/lastmile_qr_scan", "ios": "https://dc.lft.to/lastmile_qr_scan"}, "type": "electric_scooter", "lon": -77.006031, "name": "ca638c67f229f66c541c19e549fc3c7d", "bike_id": "ca638c67f229f66c541c19e549fc3c7d", "fusion_lat": 0.0, "is_reserved": 0, "lat": 38.87456516666666, "fusion_lon": 0.0, "is_disabled": 0}, {"rental_uris": {"android": "https://dc.lft.to/lastmile_qr_scan", "ios": "https://dc.lft.to/lastmile_qr_scan"}, "type": "electric_scooter", "lon": -77.0060215, "name": "f755a037737f4810b3d44643abf52d80", "bike_id": "f755a037737f4810b3d44643abf52d80", "fusion_lat": 0.0, "is_reserved": 0, "lat": 38.874548, "fusion_lon": 0.0, "is_disabled": 0}, {"rental_uris": {"android": "https://dc.lft.to/lastmile_qr_scan", "ios": "https://dc.lft.to/lastmile_qr_scan"}, "type": "electric_bike", "lon": -77.09966433333334, "name": "2f9dbf3167413b9d375385073cf67c2c", "bike_id": "2f9dbf3167413b9d375385073cf67c2c", "fusion_lat": 0.0, "is_reserved": 0, "lat": 38.85789916666667, "fusion_lon": 0.0, "is_disabled": 0}, {"rental_uris": {"android": "https://dc.lft.to/lastmile_qr_scan", "ios": "https://dc.lft.to/lastmile_qr_scan"}, "type": "electric_bike", "lon": -77.1526735, "name": "e420d287372e972907fb1226ab64face", "bike_id": "e420d287372e972907fb1226ab64face", "fusion_lat": 0.0, "is_reserved": 0, "lat": 39.10564516666667, "fusion_lon": 0.0, "is_disabled": 0}, {"rental_uris": {"android": "https://dc.lft.to/lastmile_qr_scan", "ios": "https://dc.lft.to/lastmile_qr_scan"}, "type": "electric_scooter", "lon": -76.98326283333333, "name": "d90fd83f0d42cfe260e91df52b5f0a09", "bike_id": "d90fd83f0d42cfe260e91df52b5f0a09", "fusion_lat": 0.0, "is_reserved": 0, "lat": 38.861727, "fusion_lon": 0.0, "is_disabled": 0}, {"rental_uris": {"android": "https://dc.lft.to/lastmile_qr_scan", "ios": "https://dc.lft.to/lastmile_qr_scan"}, "type": "electric_scooter", "lon": -76.96505216666667, "name": "ca32a032e9e195dfcd5767071cc17c4a", "bike_id": "ca32a032e9e195dfcd5767071cc17c4a", "fusion_lat": 0.0, "is_reserved": 0, "lat": 38.87646183333333, "fusion_lon": 0.0, "is_disabled": 0}, {"rental_uris": {"android": "https://dc.lft.to/lastmile_qr_scan", "ios": "https://dc.lft.to/lastmile_qr_scan"}, "type": "electric_scooter", "lon": -77.037984, "name": "aece40e93145ea83459f3d4535dd464d", "bike_id": "aece40e93145ea83459f3d4535dd464d", "fusion_lat": 0.0, "is_reserved": 0, "lat": 38.93015166666667, "fusion_lon": 0.0, "is_disabled": 0}, {"rental_uris": {"android": "https://dc.lft.to/lastmile_qr_scan", "ios": "https://dc.lft.to/lastmile_qr_scan"}, "type": "electric_scooter", "lon": -77.04720066666667, "name": "ab6d2144272986252b88ba631de69ffc", "bike_id": "ab6d2144272986252b88ba631de69ffc", "fusion_lat": 0.0, "is_reserved": 0, "lat": 38.89956316666667, "fusion_lon": 0.0, "is_disabled": 0}, {"rental_uris": {"android": "https://dc.lft.to/lastmile_qr_scan", "ios": "https://dc.lft.to/lastmile_qr_scan"}, "type": "electric_scooter", "lon": -77.02413333333334, "name": "53ee7944fb5403402b851e1c7ded5262", "bike_id": "53ee7944fb5403402b851e1c7ded5262", "fusion_lat": 0.0, "is_reserved": 0, "lat": 38.909582, "fusion_lon": 0.0, "is_disabled": 0}, {"rental_uris": {"android": "https://dc.lft.to/lastmile_qr_scan", "ios": "https://dc.lft.to/lastmile_qr_scan"}, "type": "electric_scooter", "lon": -77.03475483333334, "name": "d8089b09b5fe7973e7b31e3c28cfe2aa", "bike_id": "d8089b09b5fe7973e7b31e3c28cfe2aa", "fusion_lat": 0.0, "is_reserved": 0, "lat": 38.909574666666664, "fusion_lon": 0.0, "is_disabled": 0}, {"rental_uris": {"android": "https://dc.lft.to/lastmile_qr_scan", "ios": "https://dc.lft.to/lastmile_qr_scan"}, "type": "electric_bike", "lon": -76.9299665, "name": "db98e3d76c03be7fa19974ca02b80179", "bike_id": "db98e3d76c03be7fa19974ca02b80179", "fusion_lat": 0.0, "is_reserved": 0, "lat": 38.88796333333333, "fusion_lon": 0.0, "is_disabled": 0}, {"rental_uris": {"android": "https://dc.lft.to/lastmile_qr_scan", "ios": "https://dc.lft.to/lastmile_qr_scan"}, "type": "electric_bike", "lon": -76.96838583333333, "name": "bab6372ff23027c3547ddb5811056a27", "bike_id": "bab6372ff23027c3547ddb5811056a27", "fusion_lat": 0.0, "is_reserved": 0, "lat": 38.92445083333333, "fusion_lon": 0.0, "is_disabled": 0}, {"rental_uris": {"android": "https://dc.lft.to/lastmile_qr_scan", "ios": "https://dc.lft.to/lastmile_qr_scan"}, "type": "electric_scooter", "lon": -77.033973, "name": "acbf7e35865a4097262ab886faf91aa3", "bike_id": "acbf7e35865a4097262ab886faf91aa3", "fusion_lat": 0.0, "is_reserved": 0, "lat": 38.90963333333333, "fusion_lon": 0.0, "is_disabled": 0}, {"rental_uris": {"android": "https://dc.lft.to/lastmile_qr_scan", "ios": "https://dc.lft.to/lastmile_qr_scan"}, "type": "electric_scooter", "lon": -76.993357, "name": "3aefe5a620b2afa4a629ec86e479e1ac", "bike_id": "3aefe5a620b2afa4a629ec86e479e1ac", "fusion_lat": 0.0, "is_reserved": 0, "lat": 38.8765465, "fusion_lon": 0.0, "is_disabled": 0}, {"rental_uris": {"android": "https://dc.lft.to/lastmile_qr_scan", "ios": "https://dc.lft.to/lastmile_qr_scan"}, "type": "electric_scooter", "lon": -77.03637316666666, "name": "ad3a703a218830063a7b4e469ad9aac8", "bike_id": "ad3a703a218830063a7b4e469ad9aac8", "fusion_lat": 0.0, "is_reserved": 0, "lat": 38.916260333333334, "fusion_lon": 0.0, "is_disabled": 0}, {"rental_uris": {"android": "https://dc.lft.to/lastmile_qr_scan", "ios": "https://dc.lft.to/lastmile_qr_scan"}, "type": "electric_scooter", "lon": -77.02036833333334, "name": "8e1cb4d30e6f726ffe392643604006eb", "bike_id": "8e1cb4d30e6f726ffe392643604006eb", "fusion_lat": 0.0, "is_reserved": 0, "lat": 38.89263433333333, "fusion_lon": 0.0, "is_disabled": 0}, {"rental_uris": {"android": "https://dc.lft.to/lastmile_qr_scan", "ios": "https://dc.lft.to/lastmile_qr_scan"}, "type": "electric_bike", "lon": -77.11427066666667, "name": "2ccdfca027c2302a5f5195dbbd57fa8b", "bike_id": "2ccdfca027c2302a5f5195dbbd57fa8b", "fusion_lat": 0.0, "is_reserved": 0, "lat": 38.8524505, "fusion_lon": 0.0, "is_disabled": 0}, {"rental_uris": {"android": "https://dc.lft.to/lastmile_qr_scan", "ios": "https://dc.lft.to/lastmile_qr_scan"}, "type": "electric_scooter", "lon": -77.03344866666667, "name": "eb9891a54607b92a6d783faf54b95a91", "bike_id": "eb9891a54607b92a6d783faf54b95a91", "fusion_lat": 0.0, "is_reserved": 0, "lat": 38.916917, "fusion_lon": 0.0, "is_disabled": 0}, {"rental_uris": {"android": "https://dc.lft.to/lastmile_qr_scan", "ios": "https://dc.lft.to/lastmile_qr_scan"}, "type": "electric_scooter", "lon": -76.997652, "name": "1693e00cbabde0ebe91dee3e0c229a0b", "bike_id": "1693e00cbabde0ebe91dee3e0c229a0b", "fusion_lat": 0.0, "is_reserved": 0, "lat": 38.922729, "fusion_lon": 0.0, "is_disabled": 0}, {"rental_uris": {"android": "https://dc.lft.to/lastmile_qr_scan", "ios": "https://dc.lft.to/lastmile_qr_scan"}, "type": "electric_scooter", "lon": -77.02166933333334, "name": "8e819f987317bd08e0b7def2bbecff3a", "bike_id": "8e819f987317bd08e0b7def2bbecff3a", "fusion_lat": 0.0, "is_reserved": 0, "lat": 38.94083066666666, "fusion_lon": 0.0, "is_disabled": 0}, {"rental_uris": {"android": "https://dc.lft.to/lastmile_qr_scan", "ios": "https://dc.lft.to/lastmile_qr_scan"}, "type": "electric_scooter", "lon": -77.0293415, "name": "32f4477064471d9e8651f442b8bafbb8", "bike_id": "32f4477064471d9e8651f442b8bafbb8", "fusion_lat": 0.0, "is_reserved": 0, "lat": 38.904920833333335, "fusion_lon": 0.0, "is_disabled": 0}, {"rental_uris": {"android": "https://dc.lft.to/lastmile_qr_scan", "ios": "https://dc.lft.to/lastmile_qr_scan"}, "type": "electric_scooter", "lon": -77.02964866666667, "name": "30f83c2b40efab0e479598623866f48e", "bike_id": "30f83c2b40efab0e479598623866f48e", "fusion_lat": 0.0, "is_reserved": 0, "lat": 38.898936166666665, "fusion_lon": 0.0, "is_disabled": 0}, {"rental_uris": {"android": "https://dc.lft.to/lastmile_qr_scan", "ios": "https://dc.lft.to/lastmile_qr_scan"}, "type": "electric_scooter", "lon": -77.04026333333333, "name": "34424a2acc59b05b8214100473f60669", "bike_id": "34424a2acc59b05b8214100473f60669", "fusion_lat": 0.0, "is_reserved": 0, "lat": 38.9236835, "fusion_lon": 0.0, "is_disabled": 0}, {"rental_uris": {"android": "https://dc.lft.to/lastmile_qr_scan", "ios": "https://dc.lft.to/lastmile_qr_scan"}, "type": "electric_scooter", "lon": -77.040906, "name": "21f19c6ea459053818fbe152cb7faa63", "bike_id": "21f19c6ea459053818fbe152cb7faa63", "fusion_lat": 0.0, "is_reserved": 0, "lat": 38.90522433333334, "fusion_lon": 0.0, "is_disabled": 0}, {"rental_uris": {"android": "https://dc.lft.to/lastmile_qr_scan", "ios": "https://dc.lft.to/lastmile_qr_scan"}, "type": "electric_scooter", "lon": -76.98361033333333, "name": "acc1767eb85dbdbe0570b6b970d65508", "bike_id": "acc1767eb85dbdbe0570b6b970d65508", "fusion_lat": 0.0, "is_reserved": 0, "lat": 38.864794, "fusion_lon": 0.0, "is_disabled": 0}, {"rental_uris": {"android": "https://dc.lft.to/lastmile_qr_scan", "ios": "https://dc.lft.to/lastmile_qr_scan"}, "type": "electric_scooter", "lon": -77.04490433333333, "name": "9e1c76f8d4533da3025820937eb1af5e", "bike_id": "9e1c76f8d4533da3025820937eb1af5e", "fusion_lat": 0.0, "is_reserved": 0, "lat": 38.91235983333333, "fusion_lon": 0.0, "is_disabled": 0}, {"rental_uris": {"android": "https://dc.lft.to/lastmile_qr_scan", "ios": "https://dc.lft.to/lastmile_qr_scan"}, "type": "electric_scooter", "lon": -77.04199783333334, "name": "43c5af5d915668d36260d1c510654a24", "bike_id": "43c5af5d915668d36260d1c510654a24", "fusion_lat": 0.0, "is_reserved": 0, "lat": 38.89221516666667, "fusion_lon": 0.0, "is_disabled": 0}, {"rental_uris": {"android": "https://dc.lft.to/lastmile_qr_scan", "ios": "https://dc.lft.to/lastmile_qr_scan"}, "type": "electric_scooter", "lon": -77.0059235, "name": "ab46a6f5a25d9fc5393e406643390f79", "bike_id": "ab46a6f5a25d9fc5393e406643390f79", "fusion_lat": 0.0, "is_reserved": 0, "lat": 38.905535666666665, "fusion_lon": 0.0, "is_disabled": 0}, {"rental_uris": {"android": "https://dc.lft.to/lastmile_qr_scan", "ios": "https://dc.lft.to/lastmile_qr_scan"}, "type": "electric_scooter", "lon": -77.02640966666667, "name": "fc28b6813fdb0d93d8fc4c5de68fd751", "bike_id": "fc28b6813fdb0d93d8fc4c5de68fd751", "fusion_lat": 0.0, "is_reserved": 0, "lat": 38.881022, "fusion_lon": 0.0, "is_disabled": 0}, {"rental_uris": {"android": "https://dc.lft.to/lastmile_qr_scan", "ios": "https://dc.lft.to/lastmile_qr_scan"}, "type": "electric_scooter", "lon": -76.98826183333334, "name": "550e791506f1686fe4201aaa26044c3f", "bike_id": "550e791506f1686fe4201aaa26044c3f", "fusion_lat": 0.0, "is_reserved": 0, "lat": 38.880295333333336, "fusion_lon": 0.0, "is_disabled": 0}, {"rental_uris": {"android": "https://dc.lft.to/lastmile_qr_scan", "ios": "https://dc.lft.to/lastmile_qr_scan"}, "type": "electric_scooter", "lon": -76.97451933333333, "name": "934077228025e8bc6bed7dc3e9733b42", "bike_id": "934077228025e8bc6bed7dc3e9733b42", "fusion_lat": 0.0, "is_reserved": 0, "lat": 38.86370316666667, "fusion_lon": 0.0, "is_disabled": 0}, {"rental_uris": {"android": "https://dc.lft.to/lastmile_qr_scan", "ios": "https://dc.lft.to/lastmile_qr_scan"}, "type": "electric_scooter", "lon": -77.0346655, "name": "00331b8172ee904d75e85cb250a62963", "bike_id": "00331b8172ee904d75e85cb250a62963", "fusion_lat": 0.0, "is_reserved": 0, "lat": 38.902813, "fusion_lon": 0.0, "is_disabled": 0}, {"rental_uris": {"android": "https://dc.lft.to/lastmile_qr_scan", "ios": "https://dc.lft.to/lastmile_qr_scan"}, "type": "electric_scooter", "lon": -77.04225316666667, "name": "831d00511a7a54cd9daabd0894aff416", "bike_id": "831d00511a7a54cd9daabd0894aff416", "fusion_lat": 0.0, "is_reserved": 0, "lat": 38.911041, "fusion_lon": 0.0, "is_disabled": 0}, {"rental_uris": {"android": "https://dc.lft.to/lastmile_qr_scan", "ios": "https://dc.lft.to/lastmile_qr_scan"}, "type": "electric_scooter", "lon": -77.0417615, "name": "f4c748987d5b3f82f0295f1da88f03e2", "bike_id": "f4c748987d5b3f82f0295f1da88f03e2", "fusion_lat": 0.0, "is_reserved": 0, "lat": 38.92053833333333, "fusion_lon": 0.0, "is_disabled": 0}, {"rental_uris": {"android": "https://dc.lft.to/lastmile_qr_scan", "ios": "https://dc.lft.to/lastmile_qr_scan"}, "type": "electric_scooter", "lon": -77.0330665, "name": "7cf6c1a4492054a782cae12014e5a7b3", "bike_id": "7cf6c1a4492054a782cae12014e5a7b3", "fusion_lat": 0.0, "is_reserved": 0, "lat": 38.89849533333334, "fusion_lon": 0.0, "is_disabled": 0}, {"rental_uris": {"android": "https://dc.lft.to/lastmile_qr_scan", "ios": "https://dc.lft.to/lastmile_qr_scan"}, "type": "electric_scooter", "lon": -77.04658383333333, "name": "79dfc95b3218814afdef23bf87df82eb", "bike_id": "79dfc95b3218814afdef23bf87df82eb", "fusion_lat": 0.0, "is_reserved": 0, "lat": 38.9000955, "fusion_lon": 0.0, "is_disabled": 0}, {"rental_uris": {"android": "https://dc.lft.to/lastmile_qr_scan", "ios": "https://dc.lft.to/lastmile_qr_scan"}, "type": "electric_scooter", "lon": -77.049772, "name": "98737964af27975c87ef422b85e3428a", "bike_id": "98737964af27975c87ef422b85e3428a", "fusion_lat": 0.0, "is_reserved": 0, "lat": 38.896049166666664, "fusion_lon": 0.0, "is_disabled": 0}, {"rental_uris": {"android": "https://dc.lft.to/lastmile_qr_scan", "ios": "https://dc.lft.to/lastmile_qr_scan"}, "type": "electric_bike", "lon": -76.95806316666666, "name": "bf3bcacd3cbf296a38b11fe14898ec56", "bike_id": "bf3bcacd3cbf296a38b11fe14898ec56", "fusion_lat": 0.0, "is_reserved": 0, "lat": 38.980465833333334, "fusion_lon": 0.0, "is_disabled": 0}, {"rental_uris": {"android": "https://dc.lft.to/lastmile_qr_scan", "ios": "https://dc.lft.to/lastmile_qr_scan"}, "type": "electric_scooter", "lon": -76.99978933333334, "name": "0ec77fc55c84cf47316d65da8add9466", "bike_id": "0ec77fc55c84cf47316d65da8add9466", "fusion_lat": 0.0, "is_reserved": 0, "lat": 38.83840083333333, "fusion_lon": 0.0, "is_disabled": 0}, {"rental_uris": {"android": "https://dc.lft.to/lastmile_qr_scan", "ios": "https://dc.lft.to/lastmile_qr_scan"}, "type": "electric_scooter", "lon": -76.9936475, "name": "b396c7658b3724afec8d0913d7399a48", "bike_id": "b396c7658b3724afec8d0913d7399a48", "fusion_lat": 0.0, "is_reserved": 0, "lat": 38.92841466666667, "fusion_lon": 0.0, "is_disabled": 0}, {"rental_uris": {"android": "https://dc.lft.to/lastmile_qr_scan", "ios": "https://dc.lft.to/lastmile_qr_scan"}, "type": "electric_scooter", "lon": -77.04300333333333, "name": "e8a25f8a20df8db115ddb63230ae5aff", "bike_id": "e8a25f8a20df8db115ddb63230ae5aff", "fusion_lat": 0.0, "is_reserved": 0, "lat": 38.92334316666667, "fusion_lon": 0.0, "is_disabled": 0}, {"rental_uris": {"android": "https://dc.lft.to/lastmile_qr_scan", "ios": "https://dc.lft.to/lastmile_qr_scan"}, "type": "electric_scooter", "lon": -76.99403216666667, "name": "e84892b19f198adb42cda511351f2501", "bike_id": "e84892b19f198adb42cda511351f2501", "fusion_lat": 0.0, "is_reserved": 0, "lat": 38.92259816666667, "fusion_lon": 0.0, "is_disabled": 0}, {"rental_uris": {"android": "https://dc.lft.to/lastmile_qr_scan", "ios": "https://dc.lft.to/lastmile_qr_scan"}, "type": "electric_scooter", "lon": -76.99078416666667, "name": "556fcb84078caae843ae8395e5b0e550", "bike_id": "556fcb84078caae843ae8395e5b0e550", "fusion_lat": 0.0, "is_reserved": 0, "lat": 38.860509, "fusion_lon": 0.0, "is_disabled": 0}, {"rental_uris": {"android": "https://dc.lft.to/lastmile_qr_scan", "ios": "https://dc.lft.to/lastmile_qr_scan"}, "type": "electric_scooter", "lon": -76.9900435, "name": "04631caa7add7643c679b71c05c12f3b", "bike_id": "04631caa7add7643c679b71c05c12f3b", "fusion_lat": 0.0, "is_reserved": 0, "lat": 38.865076, "fusion_lon": 0.0, "is_disabled": 0}, {"rental_uris": {"android": "https://dc.lft.to/lastmile_qr_scan", "ios": "https://dc.lft.to/lastmile_qr_scan"}, "type": "electric_scooter", "lon": -77.044925, "name": "a0752c3dec66549ae8ff6adecb9ca9ac", "bike_id": "a0752c3dec66549ae8ff6adecb9ca9ac", "fusion_lat": 0.0, "is_reserved": 0, "lat": 38.91845216666667, "fusion_lon": 0.0, "is_disabled": 0}, {"rental_uris": {"android": "https://dc.lft.to/lastmile_qr_scan", "ios": "https://dc.lft.to/lastmile_qr_scan"}, "type": "electric_scooter", "lon": -77.02447916666667, "name": "63fb6ed907f6f0bdfc195f6bb51ebf92", "bike_id": "63fb6ed907f6f0bdfc195f6bb51ebf92", "fusion_lat": 0.0, "is_reserved": 0, "lat": 38.89190683333333, "fusion_lon": 0.0, "is_disabled": 0}, {"rental_uris": {"android": "https://dc.lft.to/lastmile_qr_scan", "ios": "https://dc.lft.to/lastmile_qr_scan"}, "type": "electric_scooter", "lon": -77.018106, "name": "df8d197a9cf5001b6601205c0aa2aec5", "bike_id": "df8d197a9cf5001b6601205c0aa2aec5", "fusion_lat": 0.0, "is_reserved": 0, "lat": 38.8771485, "fusion_lon": 0.0, "is_disabled": 0}, {"rental_uris": {"android": "https://dc.lft.to/lastmile_qr_scan", "ios": "https://dc.lft.to/lastmile_qr_scan"}, "type": "electric_scooter", "lon": -77.03419033333333, "name": "4c7af9d57afd06ab2ce38c4c1bd6db64", "bike_id": "4c7af9d57afd06ab2ce38c4c1bd6db64", "fusion_lat": 0.0, "is_reserved": 0, "lat": 38.92425166666666, "fusion_lon": 0.0, "is_disabled": 0}, {"rental_uris": {"android": "https://dc.lft.to/lastmile_qr_scan", "ios": "https://dc.lft.to/lastmile_qr_scan"}, "type": "electric_scooter", "lon": -77.04047583333333, "name": "75489ea305461153c461b9f3127506fb", "bike_id": "75489ea305461153c461b9f3127506fb", "fusion_lat": 0.0, "is_reserved": 0, "lat": 38.9057145, "fusion_lon": 0.0, "is_disabled": 0}, {"rental_uris": {"android": "https://dc.lft.to/lastmile_qr_scan", "ios": "https://dc.lft.to/lastmile_qr_scan"}, "type": "electric_scooter", "lon": -77.021072, "name": "b577c2e7ec180bcc0aa2c4780bc6d92a", "bike_id": "b577c2e7ec180bcc0aa2c4780bc6d92a", "fusion_lat": 0.0, "is_reserved": 0, "lat": 38.940967666666666, "fusion_lon": 0.0, "is_disabled": 0}, {"rental_uris": {"android": "https://dc.lft.to/lastmile_qr_scan", "ios": "https://dc.lft.to/lastmile_qr_scan"}, "type": "electric_scooter", "lon": -76.9995235, "name": "eb6d3ad5600a6d87b808a0a766432804", "bike_id": "eb6d3ad5600a6d87b808a0a766432804", "fusion_lat": 0.0, "is_reserved": 0, "lat": 38.84291833333333, "fusion_lon": 0.0, "is_disabled": 0}, {"rental_uris": {"android": "https://dc.lft.to/lastmile_qr_scan", "ios": "https://dc.lft.to/lastmile_qr_scan"}, "type": "electric_scooter", "lon": -77.00068783333333, "name": "e933d3656b451db7e3bbf1a6dae6908a", "bike_id": "e933d3656b451db7e3bbf1a6dae6908a", "fusion_lat": 0.0, "is_reserved": 0, "lat": 38.91913816666667, "fusion_lon": 0.0, "is_disabled": 0}, {"rental_uris": {"android": "https://dc.lft.to/lastmile_qr_scan", "ios": "https://dc.lft.to/lastmile_qr_scan"}, "type": "electric_scooter", "lon": -77.02693916666666, "name": "b2b213632fc3308d3eee8a556539de54", "bike_id": "b2b213632fc3308d3eee8a556539de54", "fusion_lat": 0.0, "is_reserved": 0, "lat": 38.9084615, "fusion_lon": 0.0, "is_disabled": 0}, {"rental_uris": {"android": "https://dc.lft.to/lastmile_qr_scan", "ios": "https://dc.lft.to/lastmile_qr_scan"}, "type": "electric_scooter", "lon": -77.01243333333333, "name": "6e2dc621ff6dc7dab2567334de26364d", "bike_id": "6e2dc621ff6dc7dab2567334de26364d", "fusion_lat": 0.0, "is_reserved": 0, "lat": 38.87200433333334, "fusion_lon": 0.0, "is_disabled": 0}, {"rental_uris": {"android": "https://dc.lft.to/lastmile_qr_scan", "ios": "https://dc.lft.to/lastmile_qr_scan"}, "type": "electric_scooter", "lon": -77.02093733333334, "name": "6e9f92e1a4619a2753af1a16d5066e6e", "bike_id": "6e9f92e1a4619a2753af1a16d5066e6e", "fusion_lat": 0.0, "is_reserved": 0, "lat": 38.92907266666667, "fusion_lon": 0.0, "is_disabled": 0}, {"rental_uris": {"android": "https://dc.lft.to/lastmile_qr_scan", "ios": "https://dc.lft.to/lastmile_qr_scan"}, "type": "electric_scooter", "lon": -77.01795033333333, "name": "78d86922d9fbcdf026dde37c14c3ef3f", "bike_id": "78d86922d9fbcdf026dde37c14c3ef3f", "fusion_lat": 0.0, "is_reserved": 0, "lat": 38.92110983333333, "fusion_lon": 0.0, "is_disabled": 0}, {"rental_uris": {"android": "https://dc.lft.to/lastmile_qr_scan", "ios": "https://dc.lft.to/lastmile_qr_scan"}, "type": "electric_scooter", "lon": -77.06518333333334, "name": "6333e4c5c9d66c15e34d450e1c019e55", "bike_id": "6333e4c5c9d66c15e34d450e1c019e55", "fusion_lat": 0.0, "is_reserved": 0, "lat": 38.905265666666665, "fusion_lon": 0.0, "is_disabled": 0}, {"rental_uris": {"android": "https://dc.lft.to/lastmile_qr_scan", "ios": "https://dc.lft.to/lastmile_qr_scan"}, "type": "electric_scooter", "lon": -77.00645966666667, "name": "27e803e53820433a0507677a7f0ce611", "bike_id": "27e803e53820433a0507677a7f0ce611", "fusion_lat": 0.0, "is_reserved": 0, "lat": 38.88332916666667, "fusion_lon": 0.0, "is_disabled": 0}, {"rental_uris": {"android": "https://dc.lft.to/lastmile_qr_scan", "ios": "https://dc.lft.to/lastmile_qr_scan"}, "type": "electric_scooter", "lon": -77.03193683333333, "name": "db8cf91d40f1d68d9fa7ca6f9bebcff5", "bike_id": "db8cf91d40f1d68d9fa7ca6f9bebcff5", "fusion_lat": 0.0, "is_reserved": 0, "lat": 38.929704, "fusion_lon": 0.0, "is_disabled": 0}, {"rental_uris": {"android": "https://dc.lft.to/lastmile_qr_scan", "ios": "https://dc.lft.to/lastmile_qr_scan"}, "type": "electric_scooter", "lon": -77.0145905, "name": "ec8cfa1bc7229661b17e68c2a4e566af", "bike_id": "ec8cfa1bc7229661b17e68c2a4e566af", "fusion_lat": 0.0, "is_reserved": 0, "lat": 38.926721666666666, "fusion_lon": 0.0, "is_disabled": 0}, {"rental_uris": {"android": "https://dc.lft.to/lastmile_qr_scan", "ios": "https://dc.lft.to/lastmile_qr_scan"}, "type": "electric_scooter", "lon": -77.038388, "name": "a0562e429ff226ee7ae16b80b456d0b3", "bike_id": "a0562e429ff226ee7ae16b80b456d0b3", "fusion_lat": 0.0, "is_reserved": 0, "lat": 38.90276933333333, "fusion_lon": 0.0, "is_disabled": 0}, {"rental_uris": {"android": "https://dc.lft.to/lastmile_qr_scan", "ios": "https://dc.lft.to/lastmile_qr_scan"}, "type": "electric_scooter", "lon": -77.04394633333334, "name": "758b06bbfae0ff839e4ced7fa420d600", "bike_id": "758b06bbfae0ff839e4ced7fa420d600", "fusion_lat": 0.0, "is_reserved": 0, "lat": 38.92241716666667, "fusion_lon": 0.0, "is_disabled": 0}, {"rental_uris": {"android": "https://dc.lft.to/lastmile_qr_scan", "ios": "https://dc.lft.to/lastmile_qr_scan"}, "type": "electric_bike", "lon": -77.043021, "name": "b44a0d47e8487315e9643c416b141fb2", "bike_id": "b44a0d47e8487315e9643c416b141fb2", "fusion_lat": 0.0, "is_reserved": 0, "lat": 39.05445433333333, "fusion_lon": 0.0, "is_disabled": 0}, {"rental_uris": {"android": "https://dc.lft.to/lastmile_qr_scan", "ios": "https://dc.lft.to/lastmile_qr_scan"}, "type": "electric_scooter", "lon": -77.01521883333334, "name": "70d3a16517a6a39f5879fad53cdf2f1a", "bike_id": "70d3a16517a6a39f5879fad53cdf2f1a", "fusion_lat": 0.0, "is_reserved": 0, "lat": 38.913526, "fusion_lon": 0.0, "is_disabled": 0}, {"rental_uris": {"android": "https://dc.lft.to/lastmile_qr_scan", "ios": "https://dc.lft.to/lastmile_qr_scan"}, "type": "electric_scooter", "lon": -77.0240715, "name": "ea6d1ecce4de0d321b456f53b5df430e", "bike_id": "ea6d1ecce4de0d321b456f53b5df430e", "fusion_lat": 0.0, "is_reserved": 0, "lat": 38.9133725, "fusion_lon": 0.0, "is_disabled": 0}, {"rental_uris": {"android": "https://dc.lft.to/lastmile_qr_scan", "ios": "https://dc.lft.to/lastmile_qr_scan"}, "type": "electric_scooter", "lon": -77.02855483333333, "name": "d49123e3648312ffa16e89f77970ac9f", "bike_id": "d49123e3648312ffa16e89f77970ac9f", "fusion_lat": 0.0, "is_reserved": 0, "lat": 38.898387, "fusion_lon": 0.0, "is_disabled": 0}, {"rental_uris": {"android": "https://dc.lft.to/lastmile_qr_scan", "ios": "https://dc.lft.to/lastmile_qr_scan"}, "type": "electric_scooter", "lon": -77.0498995, "name": "a68b65df0eedda2d185e0cb632af31a0", "bike_id": "a68b65df0eedda2d185e0cb632af31a0", "fusion_lat": 0.0, "is_reserved": 0, "lat": 38.898954, "fusion_lon": 0.0, "is_disabled": 0}, {"rental_uris": {"android": "https://dc.lft.to/lastmile_qr_scan", "ios": "https://dc.lft.to/lastmile_qr_scan"}, "type": "electric_scooter", "lon": -76.9353335, "name": "bd7572349d9aa4e0e823bda285c65969", "bike_id": "bd7572349d9aa4e0e823bda285c65969", "fusion_lat": 0.0, "is_reserved": 0, "lat": 38.8967935, "fusion_lon": 0.0, "is_disabled": 0}, {"rental_uris": {"android": "https://dc.lft.to/lastmile_qr_scan", "ios": "https://dc.lft.to/lastmile_qr_scan"}, "type": "electric_scooter", "lon": -77.02703966666667, "name": "f7c134dccd5f05f639c26ee701c63a33", "bike_id": "f7c134dccd5f05f639c26ee701c63a33", "fusion_lat": 0.0, "is_reserved": 0, "lat": 38.949992, "fusion_lon": 0.0, "is_disabled": 0}, {"rental_uris": {"android": "https://dc.lft.to/lastmile_qr_scan", "ios": "https://dc.lft.to/lastmile_qr_scan"}, "type": "electric_scooter", "lon": -77.08217766666667, "name": "fe5a8efd0be4d4816f7474a4de44773e", "bike_id": "fe5a8efd0be4d4816f7474a4de44773e", "fusion_lat": 0.0, "is_reserved": 0, "lat": 38.93553033333333, "fusion_lon": 0.0, "is_disabled": 0}, {"rental_uris": {"android": "https://dc.lft.to/lastmile_qr_scan", "ios": "https://dc.lft.to/lastmile_qr_scan"}, "type": "electric_bike", "lon": -77.17844383333333, "name": "20682c872b8572db24f252b53685e876", "bike_id": "20682c872b8572db24f252b53685e876", "fusion_lat": 0.0, "is_reserved": 0, "lat": 39.08902883333333, "fusion_lon": 0.0, "is_disabled": 0}, {"rental_uris": {"android": "https://dc.lft.to/lastmile_qr_scan", "ios": "https://dc.lft.to/lastmile_qr_scan"}, "type": "electric_scooter", "lon": -77.019926, "name": "9cea137850cbc0662d97cd0a20ac080b", "bike_id": "9cea137850cbc0662d97cd0a20ac080b", "fusion_lat": 0.0, "is_reserved": 0, "lat": 38.90145116666667, "fusion_lon": 0.0, "is_disabled": 0}, {"rental_uris": {"android": "https://dc.lft.to/lastmile_qr_scan", "ios": "https://dc.lft.to/lastmile_qr_scan"}, "type": "electric_scooter", "lon": -77.03219266666666, "name": "461abe64e529c53f1cbd22ca6e47d835", "bike_id": "461abe64e529c53f1cbd22ca6e47d835", "fusion_lat": 0.0, "is_reserved": 0, "lat": 38.92965183333333, "fusion_lon": 0.0, "is_disabled": 0}, {"rental_uris": {"android": "https://dc.lft.to/lastmile_qr_scan", "ios": "https://dc.lft.to/lastmile_qr_scan"}, "type": "electric_scooter", "lon": -77.06528366666667, "name": "94bc2ab276795b5fb84cd6fe798af2d8", "bike_id": "94bc2ab276795b5fb84cd6fe798af2d8", "fusion_lat": 0.0, "is_reserved": 0, "lat": 38.9347145, "fusion_lon": 0.0, "is_disabled": 0}, {"rental_uris": {"android": "https://dc.lft.to/lastmile_qr_scan", "ios": "https://dc.lft.to/lastmile_qr_scan"}, "type": "electric_scooter", "lon": -77.02670366666666, "name": "50bf0aed3bf82c47f4566ebb3c93ccf4", "bike_id": "50bf0aed3bf82c47f4566ebb3c93ccf4", "fusion_lat": 0.0, "is_reserved": 0, "lat": 38.89708, "fusion_lon": 0.0, "is_disabled": 0}, {"rental_uris": {"android": "https://dc.lft.to/lastmile_qr_scan", "ios": "https://dc.lft.to/lastmile_qr_scan"}, "type": "electric_bike", "lon": -76.91593816666666, "name": "26ceb89cd7830b288980f48275e65c0e", "bike_id": "26ceb89cd7830b288980f48275e65c0e", "fusion_lat": 0.0, "is_reserved": 0, "lat": 38.880098333333336, "fusion_lon": 0.0, "is_disabled": 0}, {"rental_uris": {"android": "https://dc.lft.to/lastmile_qr_scan", "ios": "https://dc.lft.to/lastmile_qr_scan"}, "type": "electric_bike", "lon": -76.987827, "name": "e9dee3d20f2b5036b0ae0b3198535dba", "bike_id": "e9dee3d20f2b5036b0ae0b3198535dba", "fusion_lat": 0.0, "is_reserved": 0, "lat": 38.845400833333336, "fusion_lon": 0.0, "is_disabled": 0}, {"rental_uris": {"android": "https://dc.lft.to/lastmile_qr_scan", "ios": "https://dc.lft.to/lastmile_qr_scan"}, "type": "electric_scooter", "lon": -77.00353166666666, "name": "b9954ce2a2b57dbd49c12e59904eaf7b", "bike_id": "b9954ce2a2b57dbd49c12e59904eaf7b", "fusion_lat": 0.0, "is_reserved": 0, "lat": 38.89771366666667, "fusion_lon": 0.0, "is_disabled": 0}, {"rental_uris": {"android": "https://dc.lft.to/lastmile_qr_scan", "ios": "https://dc.lft.to/lastmile_qr_scan"}, "type": "electric_scooter", "lon": -77.06236533333333, "name": "13ffba0df76f810a579645f12d3766a5", "bike_id": "13ffba0df76f810a579645f12d3766a5", "fusion_lat": 0.0, "is_reserved": 0, "lat": 38.90525516666666, "fusion_lon": 0.0, "is_disabled": 0}, {"rental_uris": {"android": "https://dc.lft.to/lastmile_qr_scan", "ios": "https://dc.lft.to/lastmile_qr_scan"}, "type": "electric_scooter", "lon": -76.994608, "name": "7bd0875fd2b30c7ac81d7d16ae420b52", "bike_id": "7bd0875fd2b30c7ac81d7d16ae420b52", "fusion_lat": 0.0, "is_reserved": 0, "lat": 38.862163, "fusion_lon": 0.0, "is_disabled": 0}, {"rental_uris": {"android": "https://dc.lft.to/lastmile_qr_scan", "ios": "https://dc.lft.to/lastmile_qr_scan"}, "type": "electric_scooter", "lon": -77.05728416666666, "name": "1f7667d315de41888b4162005fc16d6c", "bike_id": "1f7667d315de41888b4162005fc16d6c", "fusion_lat": 0.0, "is_reserved": 0, "lat": 38.9336955, "fusion_lon": 0.0, "is_disabled": 0}, {"rental_uris": {"android": "https://dc.lft.to/lastmile_qr_scan", "ios": "https://dc.lft.to/lastmile_qr_scan"}, "type": "electric_scooter", "lon": -77.10175216666667, "name": "53d02bd2f7205ed759b91c7c2e5941db", "bike_id": "53d02bd2f7205ed759b91c7c2e5941db", "fusion_lat": 0.0, "is_reserved": 0, "lat": 38.92546516666667, "fusion_lon": 0.0, "is_disabled": 0}, {"rental_uris": {"android": "https://dc.lft.to/lastmile_qr_scan", "ios": "https://dc.lft.to/lastmile_qr_scan"}, "type": "electric_scooter", "lon": -76.98541683333333, "name": "fe384a299f02119da5081648c182231d", "bike_id": "fe384a299f02119da5081648c182231d", "fusion_lat": 0.0, "is_reserved": 0, "lat": 38.920089833333336, "fusion_lon": 0.0, "is_disabled": 0}, {"rental_uris": {"android": "https://dc.lft.to/lastmile_qr_scan", "ios": "https://dc.lft.to/lastmile_qr_scan"}, "type": "electric_scooter", "lon": -77.0481955, "name": "a31a73fc9e9070b92c44380001d645ce", "bike_id": "a31a73fc9e9070b92c44380001d645ce", "fusion_lat": 0.0, "is_reserved": 0, "lat": 38.91335866666667, "fusion_lon": 0.0, "is_disabled": 0}, {"rental_uris": {"android": "https://dc.lft.to/lastmile_qr_scan", "ios": "https://dc.lft.to/lastmile_qr_scan"}, "type": "electric_bike", "lon": -76.908164, "name": "7f6e3f0d96b031996f88144f5485f85f", "bike_id": "7f6e3f0d96b031996f88144f5485f85f", "fusion_lat": 0.0, "is_reserved": 0, "lat": 38.994547, "fusion_lon": 0.0, "is_disabled": 0}, {"rental_uris": {"android": "https://dc.lft.to/lastmile_qr_scan", "ios": "https://dc.lft.to/lastmile_qr_scan"}, "type": "electric_scooter", "lon": -76.931596, "name": "c856f550b65b838bea3131046e8b2cb1", "bike_id": "c856f550b65b838bea3131046e8b2cb1", "fusion_lat": 0.0, "is_reserved": 0, "lat": 38.898809166666666, "fusion_lon": 0.0, "is_disabled": 0}, {"rental_uris": {"android": "https://dc.lft.to/lastmile_qr_scan", "ios": "https://dc.lft.to/lastmile_qr_scan"}, "type": "electric_scooter", "lon": -77.06582983333334, "name": "d2ebd79aa4f03aaea76a544736b9b6c1", "bike_id": "d2ebd79aa4f03aaea76a544736b9b6c1", "fusion_lat": 0.0, "is_reserved": 0, "lat": 38.91368683333334, "fusion_lon": 0.0, "is_disabled": 0}, {"rental_uris": {"android": "https://dc.lft.to/lastmile_qr_scan", "ios": "https://dc.lft.to/lastmile_qr_scan"}, "type": "electric_scooter", "lon": -76.93183283333333, "name": "062d75435e9d2b373f35c18d2bd1b4f5", "bike_id": "062d75435e9d2b373f35c18d2bd1b4f5", "fusion_lat": 0.0, "is_reserved": 0, "lat": 38.898769333333334, "fusion_lon": 0.0, "is_disabled": 0}, {"rental_uris": {"android": "https://dc.lft.to/lastmile_qr_scan", "ios": "https://dc.lft.to/lastmile_qr_scan"}, "type": "electric_scooter", "lon": -76.9988905, "name": "1eb7e1dc505050ba56fd0779223e2faa", "bike_id": "1eb7e1dc505050ba56fd0779223e2faa", "fusion_lat": 0.0, "is_reserved": 0, "lat": 38.902444833333334, "fusion_lon": 0.0, "is_disabled": 0}, {"rental_uris": {"android": "https://dc.lft.to/lastmile_qr_scan", "ios": "https://dc.lft.to/lastmile_qr_scan"}, "type": "electric_scooter", "lon": -77.02406366666666, "name": "c761a5b68aafb673a8020d7fa2135c00", "bike_id": "c761a5b68aafb673a8020d7fa2135c00", "fusion_lat": 0.0, "is_reserved": 0, "lat": 38.9168745, "fusion_lon": 0.0, "is_disabled": 0}, {"rental_uris": {"android": "https://dc.lft.to/lastmile_qr_scan", "ios": "https://dc.lft.to/lastmile_qr_scan"}, "type": "electric_scooter", "lon": -76.9411815, "name": "fa24d609ae7e4de40c1e5755a9b10eec", "bike_id": "fa24d609ae7e4de40c1e5755a9b10eec", "fusion_lat": 0.0, "is_reserved": 0, "lat": 38.90789766666666, "fusion_lon": 0.0, "is_disabled": 0}, {"rental_uris": {"android": "https://dc.lft.to/lastmile_qr_scan", "ios": "https://dc.lft.to/lastmile_qr_scan"}, "type": "electric_scooter", "lon": -77.0433765, "name": "7e8b6f3e7d273ebeba75ad5e1266bafe", "bike_id": "7e8b6f3e7d273ebeba75ad5e1266bafe", "fusion_lat": 0.0, "is_reserved": 0, "lat": 38.904036166666664, "fusion_lon": 0.0, "is_disabled": 0}, {"rental_uris": {"android": "https://dc.lft.to/lastmile_qr_scan", "ios": "https://dc.lft.to/lastmile_qr_scan"}, "type": "electric_scooter", "lon": -77.02394666666666, "name": "db1174adda0a706f50dcae644f625555", "bike_id": "db1174adda0a706f50dcae644f625555", "fusion_lat": 0.0, "is_reserved": 0, "lat": 38.88733583333333, "fusion_lon": 0.0, "is_disabled": 0}, {"rental_uris": {"android": "https://dc.lft.to/lastmile_qr_scan", "ios": "https://dc.lft.to/lastmile_qr_scan"}, "type": "electric_scooter", "lon": -76.98775283333333, "name": "92780a8e794fef87174c02095f202fd1", "bike_id": "92780a8e794fef87174c02095f202fd1", "fusion_lat": 0.0, "is_reserved": 0, "lat": 38.9117095, "fusion_lon": 0.0, "is_disabled": 0}, {"rental_uris": {"android": "https://dc.lft.to/lastmile_qr_scan", "ios": "https://dc.lft.to/lastmile_qr_scan"}, "type": "electric_bike", "lon": -77.127426, "name": "752636030104ad1b5839b7d070a0b126", "bike_id": "752636030104ad1b5839b7d070a0b126", "fusion_lat": 0.0, "is_reserved": 0, "lat": 38.88817866666667, "fusion_lon": 0.0, "is_disabled": 0}, {"rental_uris": {"android": "https://dc.lft.to/lastmile_qr_scan", "ios": "https://dc.lft.to/lastmile_qr_scan"}, "type": "electric_scooter", "lon": -77.02691283333333, "name": "703a7f176ab980d7154b8a3591538fc3", "bike_id": "703a7f176ab980d7154b8a3591538fc3", "fusion_lat": 0.0, "is_reserved": 0, "lat": 38.9067035, "fusion_lon": 0.0, "is_disabled": 0}, {"rental_uris": {"android": "https://dc.lft.to/lastmile_qr_scan", "ios": "https://dc.lft.to/lastmile_qr_scan"}, "type": "electric_scooter", "lon": -76.98687583333333, "name": "2e7283d0763b5e6a00a08341b7eb436b", "bike_id": "2e7283d0763b5e6a00a08341b7eb436b", "fusion_lat": 0.0, "is_reserved": 0, "lat": 38.855768, "fusion_lon": 0.0, "is_disabled": 0}, {"rental_uris": {"android": "https://dc.lft.to/lastmile_qr_scan", "ios": "https://dc.lft.to/lastmile_qr_scan"}, "type": "electric_scooter", "lon": -77.06155133333333, "name": "ac0df5538c52986d7848fdd02194e2a3", "bike_id": "ac0df5538c52986d7848fdd02194e2a3", "fusion_lat": 0.0, "is_reserved": 0, "lat": 38.942220666666664, "fusion_lon": 0.0, "is_disabled": 0}, {"rental_uris": {"android": "https://dc.lft.to/lastmile_qr_scan", "ios": "https://dc.lft.to/lastmile_qr_scan"}, "type": "electric_scooter", "lon": -77.03431666666667, "name": "b204ab5f24c3d2d0e0998d328770e9fa", "bike_id": "b204ab5f24c3d2d0e0998d328770e9fa", "fusion_lat": 0.0, "is_reserved": 0, "lat": 38.9021695, "fusion_lon": 0.0, "is_disabled": 0}, {"rental_uris": {"android": "https://dc.lft.to/lastmile_qr_scan", "ios": "https://dc.lft.to/lastmile_qr_scan"}, "type": "electric_scooter", "lon": -77.04354333333333, "name": "1a0ac0a0342e99a9ca0bb8188a842d59", "bike_id": "1a0ac0a0342e99a9ca0bb8188a842d59", "fusion_lat": 0.0, "is_reserved": 0, "lat": 38.921568666666666, "fusion_lon": 0.0, "is_disabled": 0}, {"rental_uris": {"android": "https://dc.lft.to/lastmile_qr_scan", "ios": "https://dc.lft.to/lastmile_qr_scan"}, "type": "electric_scooter", "lon": -77.05004483333333, "name": "8417c0336d9f72a090d083b2eb532b61", "bike_id": "8417c0336d9f72a090d083b2eb532b61", "fusion_lat": 0.0, "is_reserved": 0, "lat": 38.9051875, "fusion_lon": 0.0, "is_disabled": 0}, {"rental_uris": {"android": "https://dc.lft.to/lastmile_qr_scan", "ios": "https://dc.lft.to/lastmile_qr_scan"}, "type": "electric_scooter", "lon": -77.002456, "name": "a6d2151de58e96bc34f91e6113022fcc", "bike_id": "a6d2151de58e96bc34f91e6113022fcc", "fusion_lat": 0.0, "is_reserved": 0, "lat": 38.95263716666667, "fusion_lon": 0.0, "is_disabled": 0}, {"rental_uris": {"android": "https://dc.lft.to/lastmile_qr_scan", "ios": "https://dc.lft.to/lastmile_qr_scan"}, "type": "electric_scooter", "lon": -77.04341533333333, "name": "13bdc66449c85987831a680f170df31d", "bike_id": "13bdc66449c85987831a680f170df31d", "fusion_lat": 0.0, "is_reserved": 0, "lat": 38.90352266666667, "fusion_lon": 0.0, "is_disabled": 0}, {"rental_uris": {"android": "https://dc.lft.to/lastmile_qr_scan", "ios": "https://dc.lft.to/lastmile_qr_scan"}, "type": "electric_bike", "lon": -77.00227716666667, "name": "f1b9c51e67d8f8d4e81ff186c9bf15a3", "bike_id": "f1b9c51e67d8f8d4e81ff186c9bf15a3", "fusion_lat": 0.0, "is_reserved": 0, "lat": 38.95739283333333, "fusion_lon": 0.0, "is_disabled": 0}, {"rental_uris": {"android": "https://dc.lft.to/lastmile_qr_scan", "ios": "https://dc.lft.to/lastmile_qr_scan"}, "type": "electric_scooter", "lon": -77.02139083333333, "name": "2c7951af6152b0084dab6314e18b8fe9", "bike_id": "2c7951af6152b0084dab6314e18b8fe9", "fusion_lat": 0.0, "is_reserved": 0, "lat": 38.89593966666666, "fusion_lon": 0.0, "is_disabled": 0}, {"rental_uris": {"android": "https://dc.lft.to/lastmile_qr_scan", "ios": "https://dc.lft.to/lastmile_qr_scan"}, "type": "electric_scooter", "lon": -77.024735, "name": "9cf0a2519b30ec3ee7a1f4c49cad2745", "bike_id": "9cf0a2519b30ec3ee7a1f4c49cad2745", "fusion_lat": 0.0, "is_reserved": 0, "lat": 38.92651933333333, "fusion_lon": 0.0, "is_disabled": 0}, {"rental_uris": {"android": "https://dc.lft.to/lastmile_qr_scan", "ios": "https://dc.lft.to/lastmile_qr_scan"}, "type": "electric_scooter", "lon": -77.0199845, "name": "54fe5a93f6d1a51edca5b9f9b853607d", "bike_id": "54fe5a93f6d1a51edca5b9f9b853607d", "fusion_lat": 0.0, "is_reserved": 0, "lat": 38.91331533333334, "fusion_lon": 0.0, "is_disabled": 0}, {"rental_uris": {"android": "https://dc.lft.to/lastmile_qr_scan", "ios": "https://dc.lft.to/lastmile_qr_scan"}, "type": "electric_scooter", "lon": -77.00740633333334, "name": "05149140e03e174e977b3e35101b222e", "bike_id": "05149140e03e174e977b3e35101b222e", "fusion_lat": 0.0, "is_reserved": 0, "lat": 38.87644233333333, "fusion_lon": 0.0, "is_disabled": 0}, {"rental_uris": {"android": "https://dc.lft.to/lastmile_qr_scan", "ios": "https://dc.lft.to/lastmile_qr_scan"}, "type": "electric_scooter", "lon": -77.01997733333333, "name": "aed55543aede7f8bf3eeb1fcb5ff70d5", "bike_id": "aed55543aede7f8bf3eeb1fcb5ff70d5", "fusion_lat": 0.0, "is_reserved": 0, "lat": 38.91330033333333, "fusion_lon": 0.0, "is_disabled": 0}, {"rental_uris": {"android": "https://dc.lft.to/lastmile_qr_scan", "ios": "https://dc.lft.to/lastmile_qr_scan"}, "type": "electric_scooter", "lon": -76.99949383333333, "name": "7095977182fae8080ab0ede9fc28cb5d", "bike_id": "7095977182fae8080ab0ede9fc28cb5d", "fusion_lat": 0.0, "is_reserved": 0, "lat": 38.90863316666667, "fusion_lon": 0.0, "is_disabled": 0}, {"rental_uris": {"android": "https://dc.lft.to/lastmile_qr_scan", "ios": "https://dc.lft.to/lastmile_qr_scan"}, "type": "electric_scooter", "lon": -77.02700833333333, "name": "98d584fb1e0e9a6e375214ff9cbf5698", "bike_id": "98d584fb1e0e9a6e375214ff9cbf5698", "fusion_lat": 0.0, "is_reserved": 0, "lat": 38.89718633333333, "fusion_lon": 0.0, "is_disabled": 0}, {"rental_uris": {"android": "https://dc.lft.to/lastmile_qr_scan", "ios": "https://dc.lft.to/lastmile_qr_scan"}, "type": "electric_scooter", "lon": -77.03708366666666, "name": "31ef11e22123445eaefb7ce93a5435c1", "bike_id": "31ef11e22123445eaefb7ce93a5435c1", "fusion_lat": 0.0, "is_reserved": 0, "lat": 38.9155145, "fusion_lon": 0.0, "is_disabled": 0}, {"rental_uris": {"android": "https://dc.lft.to/lastmile_qr_scan", "ios": "https://dc.lft.to/lastmile_qr_scan"}, "type": "electric_scooter", "lon": -77.06264866666666, "name": "30b515ae1f9f9a4926c7b62e21a0a159", "bike_id": "30b515ae1f9f9a4926c7b62e21a0a159", "fusion_lat": 0.0, "is_reserved": 0, "lat": 38.90621133333333, "fusion_lon": 0.0, "is_disabled": 0}, {"rental_uris": {"android": "https://dc.lft.to/lastmile_qr_scan", "ios": "https://dc.lft.to/lastmile_qr_scan"}, "type": "electric_bike", "lon": -76.9608785, "name": "c7ce623528a9537bf4744d7af55a4ea8", "bike_id": "c7ce623528a9537bf4744d7af55a4ea8", "fusion_lat": 0.0, "is_reserved": 0, "lat": 38.91858333333333, "fusion_lon": 0.0, "is_disabled": 0}, {"rental_uris": {"android": "https://dc.lft.to/lastmile_qr_scan", "ios": "https://dc.lft.to/lastmile_qr_scan"}, "type": "electric_scooter", "lon": -77.004901, "name": "61abd8c9eb71e44f289fcd628e8d9d18", "bike_id": "61abd8c9eb71e44f289fcd628e8d9d18", "fusion_lat": 0.0, "is_reserved": 0, "lat": 38.89677366666667, "fusion_lon": 0.0, "is_disabled": 0}, {"rental_uris": {"android": "https://dc.lft.to/lastmile_qr_scan", "ios": "https://dc.lft.to/lastmile_qr_scan"}, "type": "electric_bike", "lon": -77.06381983333333, "name": "c2e50f886892cc1afdd2e515fa244c54", "bike_id": "c2e50f886892cc1afdd2e515fa244c54", "fusion_lat": 0.0, "is_reserved": 0, "lat": 39.017305666666665, "fusion_lon": 0.0, "is_disabled": 0}, {"rental_uris": {"android": "https://dc.lft.to/lastmile_qr_scan", "ios": "https://dc.lft.to/lastmile_qr_scan"}, "type": "electric_scooter", "lon": -76.982046, "name": "8b1d217393ace05ba1af487b0fc2f3b2", "bike_id": "8b1d217393ace05ba1af487b0fc2f3b2", "fusion_lat": 0.0, "is_reserved": 0, "lat": 38.901835166666665, "fusion_lon": 0.0, "is_disabled": 0}, {"rental_uris": {"android": "https://dc.lft.to/lastmile_qr_scan", "ios": "https://dc.lft.to/lastmile_qr_scan"}, "type": "electric_scooter", "lon": -76.95656483333333, "name": "a27d0f8be82b2cf859890e024219de5b", "bike_id": "a27d0f8be82b2cf859890e024219de5b", "fusion_lat": 0.0, "is_reserved": 0, "lat": 38.896073, "fusion_lon": 0.0, "is_disabled": 0}, {"rental_uris": {"android": "https://dc.lft.to/lastmile_qr_scan", "ios": "https://dc.lft.to/lastmile_qr_scan"}, "type": "electric_scooter", "lon": -77.03656283333333, "name": "49bd76d142b27b44fc3441ce76b077d9", "bike_id": "49bd76d142b27b44fc3441ce76b077d9", "fusion_lat": 0.0, "is_reserved": 0, "lat": 38.922048833333335, "fusion_lon": 0.0, "is_disabled": 0}, {"rental_uris": {"android": "https://dc.lft.to/lastmile_qr_scan", "ios": "https://dc.lft.to/lastmile_qr_scan"}, "type": "electric_bike", "lon": -76.97251133333333, "name": "577150cfa363b830925554ca1bb18e8a", "bike_id": "577150cfa363b830925554ca1bb18e8a", "fusion_lat": 0.0, "is_reserved": 0, "lat": 38.957421833333335, "fusion_lon": 0.0, "is_disabled": 0}, {"rental_uris": {"android": "https://dc.lft.to/lastmile_qr_scan", "ios": "https://dc.lft.to/lastmile_qr_scan"}, "type": "electric_scooter", "lon": -77.063948, "name": "02db7307550613258e710c567c3bd25b", "bike_id": "02db7307550613258e710c567c3bd25b", "fusion_lat": 0.0, "is_reserved": 0, "lat": 38.9441595, "fusion_lon": 0.0, "is_disabled": 0}, {"rental_uris": {"android": "https://dc.lft.to/lastmile_qr_scan", "ios": "https://dc.lft.to/lastmile_qr_scan"}, "type": "electric_scooter", "lon": -76.98884983333333, "name": "c12fd318a444fa065b9612d7a4b4b326", "bike_id": "c12fd318a444fa065b9612d7a4b4b326", "fusion_lat": 0.0, "is_reserved": 0, "lat": 38.866743, "fusion_lon": 0.0, "is_disabled": 0}, {"rental_uris": {"android": "https://dc.lft.to/lastmile_qr_scan", "ios": "https://dc.lft.to/lastmile_qr_scan"}, "type": "electric_scooter", "lon": -77.04183783333333, "name": "eaf01cb4a6d21b2fa588f86ea6f2227f", "bike_id": "eaf01cb4a6d21b2fa588f86ea6f2227f", "fusion_lat": 0.0, "is_reserved": 0, "lat": 38.923192666666665, "fusion_lon": 0.0, "is_disabled": 0}, {"rental_uris": {"android": "https://dc.lft.to/lastmile_qr_scan", "ios": "https://dc.lft.to/lastmile_qr_scan"}, "type": "electric_scooter", "lon": -77.04155283333333, "name": "ab7600f04b9bb20e3e23a5aece34d4b4", "bike_id": "ab7600f04b9bb20e3e23a5aece34d4b4", "fusion_lat": 0.0, "is_reserved": 0, "lat": 38.919284833333336, "fusion_lon": 0.0, "is_disabled": 0}, {"rental_uris": {"android": "https://dc.lft.to/lastmile_qr_scan", "ios": "https://dc.lft.to/lastmile_qr_scan"}, "type": "electric_scooter", "lon": -77.04245416666667, "name": "e4daac4571e948b9a79ff449cfa54a02", "bike_id": "e4daac4571e948b9a79ff449cfa54a02", "fusion_lat": 0.0, "is_reserved": 0, "lat": 38.90842, "fusion_lon": 0.0, "is_disabled": 0}, {"rental_uris": {"android": "https://dc.lft.to/lastmile_qr_scan", "ios": "https://dc.lft.to/lastmile_qr_scan"}, "type": "electric_scooter", "lon": -76.99950983333333, "name": "daff85796345aeb979988535363ecfcc", "bike_id": "daff85796345aeb979988535363ecfcc", "fusion_lat": 0.0, "is_reserved": 0, "lat": 38.908656666666666, "fusion_lon": 0.0, "is_disabled": 0}, {"rental_uris": {"android": "https://dc.lft.to/lastmile_qr_scan", "ios": "https://dc.lft.to/lastmile_qr_scan"}, "type": "electric_scooter", "lon": -77.04454066666666, "name": "241fed6f1c86b4cd3c29249024322fcb", "bike_id": "241fed6f1c86b4cd3c29249024322fcb", "fusion_lat": 0.0, "is_reserved": 0, "lat": 38.9192785, "fusion_lon": 0.0, "is_disabled": 0}, {"rental_uris": {"android": "https://dc.lft.to/lastmile_qr_scan", "ios": "https://dc.lft.to/lastmile_qr_scan"}, "type": "electric_scooter", "lon": -76.984574, "name": "ab062bdf9629bd55d23ea65a90b5be9b", "bike_id": "ab062bdf9629bd55d23ea65a90b5be9b", "fusion_lat": 0.0, "is_reserved": 0, "lat": 38.8801405, "fusion_lon": 0.0, "is_disabled": 0}, {"rental_uris": {"android": "https://dc.lft.to/lastmile_qr_scan", "ios": "https://dc.lft.to/lastmile_qr_scan"}, "type": "electric_scooter", "lon": -77.01813933333334, "name": "6b0d10749952fa70822f219f742b19c4", "bike_id": "6b0d10749952fa70822f219f742b19c4", "fusion_lat": 0.0, "is_reserved": 0, "lat": 38.88629433333333, "fusion_lon": 0.0, "is_disabled": 0}, {"rental_uris": {"android": "https://dc.lft.to/lastmile_qr_scan", "ios": "https://dc.lft.to/lastmile_qr_scan"}, "type": "electric_scooter", "lon": -76.991483, "name": "c6f11ea4a88cfac9606a0e576564ce1d", "bike_id": "c6f11ea4a88cfac9606a0e576564ce1d", "fusion_lat": 0.0, "is_reserved": 0, "lat": 38.89979983333333, "fusion_lon": 0.0, "is_disabled": 0}, {"rental_uris": {"android": "https://dc.lft.to/lastmile_qr_scan", "ios": "https://dc.lft.to/lastmile_qr_scan"}, "type": "electric_scooter", "lon": -76.99491266666666, "name": "5a50a322b912ed183274afc640a6ca4d", "bike_id": "5a50a322b912ed183274afc640a6ca4d", "fusion_lat": 0.0, "is_reserved": 0, "lat": 38.862427833333335, "fusion_lon": 0.0, "is_disabled": 0}, {"rental_uris": {"android": "https://dc.lft.to/lastmile_qr_scan", "ios": "https://dc.lft.to/lastmile_qr_scan"}, "type": "electric_scooter", "lon": -77.03235133333334, "name": "f059bb3b59268849d151a70b66c8388d", "bike_id": "f059bb3b59268849d151a70b66c8388d", "fusion_lat": 0.0, "is_reserved": 0, "lat": 38.9298735, "fusion_lon": 0.0, "is_disabled": 0}, {"rental_uris": {"android": "https://dc.lft.to/lastmile_qr_scan", "ios": "https://dc.lft.to/lastmile_qr_scan"}, "type": "electric_scooter", "lon": -77.0263415, "name": "defcc0eded3f298cd97b9d403e7afc2f", "bike_id": "defcc0eded3f298cd97b9d403e7afc2f", "fusion_lat": 0.0, "is_reserved": 0, "lat": 38.9011325, "fusion_lon": 0.0, "is_disabled": 0}, {"rental_uris": {"android": "https://dc.lft.to/lastmile_qr_scan", "ios": "https://dc.lft.to/lastmile_qr_scan"}, "type": "electric_bike", "lon": -76.975075, "name": "f009796d05816e20f991129885793c5e", "bike_id": "f009796d05816e20f991129885793c5e", "fusion_lat": 0.0, "is_reserved": 0, "lat": 38.919359166666666, "fusion_lon": 0.0, "is_disabled": 0}, {"rental_uris": {"android": "https://dc.lft.to/lastmile_qr_scan", "ios": "https://dc.lft.to/lastmile_qr_scan"}, "type": "electric_scooter", "lon": -76.97555466666667, "name": "c7c0b23179164f4c0981112ef8a5b802", "bike_id": "c7c0b23179164f4c0981112ef8a5b802", "fusion_lat": 0.0, "is_reserved": 0, "lat": 38.904392, "fusion_lon": 0.0, "is_disabled": 0}, {"rental_uris": {"android": "https://dc.lft.to/lastmile_qr_scan", "ios": "https://dc.lft.to/lastmile_qr_scan"}, "type": "electric_bike", "lon": -76.98330516666667, "name": "5f2ec9e51b3c1eb854ce7294e4b0debf", "bike_id": "5f2ec9e51b3c1eb854ce7294e4b0debf", "fusion_lat": 0.0, "is_reserved": 0, "lat": 38.96602, "fusion_lon": 0.0, "is_disabled": 0}, {"rental_uris": {"android": "https://dc.lft.to/lastmile_qr_scan", "ios": "https://dc.lft.to/lastmile_qr_scan"}, "type": "electric_bike", "lon": -77.08940516666667, "name": "3c1b1f7798f2a8e7c2755ac0055b49d7", "bike_id": "3c1b1f7798f2a8e7c2755ac0055b49d7", "fusion_lat": 0.0, "is_reserved": 0, "lat": 38.8410305, "fusion_lon": 0.0, "is_disabled": 0}, {"rental_uris": {"android": "https://dc.lft.to/lastmile_qr_scan", "ios": "https://dc.lft.to/lastmile_qr_scan"}, "type": "electric_scooter", "lon": -76.99780066666666, "name": "6f458ae626b55480e3f1c00c2e7462e1", "bike_id": "6f458ae626b55480e3f1c00c2e7462e1", "fusion_lat": 0.0, "is_reserved": 0, "lat": 38.844220666666665, "fusion_lon": 0.0, "is_disabled": 0}, {"rental_uris": {"android": "https://dc.lft.to/lastmile_qr_scan", "ios": "https://dc.lft.to/lastmile_qr_scan"}, "type": "electric_scooter", "lon": -77.0329065, "name": "f6446e44f08278887f2d1988fcdc078c", "bike_id": "f6446e44f08278887f2d1988fcdc078c", "fusion_lat": 0.0, "is_reserved": 0, "lat": 38.9565095, "fusion_lon": 0.0, "is_disabled": 0}, {"rental_uris": {"android": "https://dc.lft.to/lastmile_qr_scan", "ios": "https://dc.lft.to/lastmile_qr_scan"}, "type": "electric_scooter", "lon": -76.947646, "name": "0b953f16c78b7533db92337d55e4a511", "bike_id": "0b953f16c78b7533db92337d55e4a511", "fusion_lat": 0.0, "is_reserved": 0, "lat": 38.896214666666665, "fusion_lon": 0.0, "is_disabled": 0}, {"rental_uris": {"android": "https://dc.lft.to/lastmile_qr_scan", "ios": "https://dc.lft.to/lastmile_qr_scan"}, "type": "electric_bike", "lon": -77.03622516666667, "name": "c3aaa95d3e95fbf817c16e801e435dd0", "bike_id": "c3aaa95d3e95fbf817c16e801e435dd0", "fusion_lat": 0.0, "is_reserved": 0, "lat": 38.97297183333333, "fusion_lon": 0.0, "is_disabled": 0}, {"rental_uris": {"android": "https://dc.lft.to/lastmile_qr_scan", "ios": "https://dc.lft.to/lastmile_qr_scan"}, "type": "electric_bike", "lon": -77.01376033333334, "name": "9330b9d03713cd7c4f0936b951d26ce5", "bike_id": "9330b9d03713cd7c4f0936b951d26ce5", "fusion_lat": 0.0, "is_reserved": 0, "lat": 38.892263666666665, "fusion_lon": 0.0, "is_disabled": 0}, {"rental_uris": {"android": "https://dc.lft.to/lastmile_qr_scan", "ios": "https://dc.lft.to/lastmile_qr_scan"}, "type": "electric_scooter", "lon": -77.04405116666666, "name": "7c28c6208502e28ef014bc0494ac9b0f", "bike_id": "7c28c6208502e28ef014bc0494ac9b0f", "fusion_lat": 0.0, "is_reserved": 0, "lat": 38.909142833333334, "fusion_lon": 0.0, "is_disabled": 0}, {"rental_uris": {"android": "https://dc.lft.to/lastmile_qr_scan", "ios": "https://dc.lft.to/lastmile_qr_scan"}, "type": "electric_scooter", "lon": -77.00595516666667, "name": "08edd30ed7ecf81c83559812fa005527", "bike_id": "08edd30ed7ecf81c83559812fa005527", "fusion_lat": 0.0, "is_reserved": 0, "lat": 38.9064395, "fusion_lon": 0.0, "is_disabled": 0}, {"rental_uris": {"android": "https://dc.lft.to/lastmile_qr_scan", "ios": "https://dc.lft.to/lastmile_qr_scan"}, "type": "electric_bike", "lon": -77.003707, "name": "e72f86e7e9734852759ee67f6ea9db61", "bike_id": "e72f86e7e9734852759ee67f6ea9db61", "fusion_lat": 0.0, "is_reserved": 0, "lat": 38.83605983333333, "fusion_lon": 0.0, "is_disabled": 0}, {"rental_uris": {"android": "https://dc.lft.to/lastmile_qr_scan", "ios": "https://dc.lft.to/lastmile_qr_scan"}, "type": "electric_scooter", "lon": -77.02123566666667, "name": "cd686e04a327177e34103e7fc2ddee30", "bike_id": "cd686e04a327177e34103e7fc2ddee30", "fusion_lat": 0.0, "is_reserved": 0, "lat": 38.9030635, "fusion_lon": 0.0, "is_disabled": 0}, {"rental_uris": {"android": "https://dc.lft.to/lastmile_qr_scan", "ios": "https://dc.lft.to/lastmile_qr_scan"}, "type": "electric_scooter", "lon": -76.94943233333333, "name": "52eec5ef6108faa83754ef6160a17e2d", "bike_id": "52eec5ef6108faa83754ef6160a17e2d", "fusion_lat": 0.0, "is_reserved": 0, "lat": 38.88318116666667, "fusion_lon": 0.0, "is_disabled": 0}, {"rental_uris": {"android": "https://dc.lft.to/lastmile_qr_scan", "ios": "https://dc.lft.to/lastmile_qr_scan"}, "type": "electric_bike", "lon": -77.10509583333334, "name": "31108fd7d446cbc220837df43f631695", "bike_id": "31108fd7d446cbc220837df43f631695", "fusion_lat": 0.0, "is_reserved": 0, "lat": 38.928479, "fusion_lon": 0.0, "is_disabled": 0}, {"rental_uris": {"android": "https://dc.lft.to/lastmile_qr_scan", "ios": "https://dc.lft.to/lastmile_qr_scan"}, "type": "electric_scooter", "lon": -77.032299, "name": "16da3b9f221da2d57d9ddaefb592a6ea", "bike_id": "16da3b9f221da2d57d9ddaefb592a6ea", "fusion_lat": 0.0, "is_reserved": 0, "lat": 38.921707166666664, "fusion_lon": 0.0, "is_disabled": 0}, {"rental_uris": {"android": "https://dc.lft.to/lastmile_qr_scan", "ios": "https://dc.lft.to/lastmile_qr_scan"}, "type": "electric_bike", "lon": -77.07250583333334, "name": "1d4aa63fa51a42d2413fc58943cc1abc", "bike_id": "1d4aa63fa51a42d2413fc58943cc1abc", "fusion_lat": 0.0, "is_reserved": 0, "lat": 38.9591135, "fusion_lon": 0.0, "is_disabled": 0}, {"rental_uris": {"android": "https://dc.lft.to/lastmile_qr_scan", "ios": "https://dc.lft.to/lastmile_qr_scan"}, "type": "electric_scooter", "lon": -76.9841135, "name": "e09b36e02289b100cf9f483f094367f1", "bike_id": "e09b36e02289b100cf9f483f094367f1", "fusion_lat": 0.0, "is_reserved": 0, "lat": 38.8597235, "fusion_lon": 0.0, "is_disabled": 0}, {"rental_uris": {"android": "https://dc.lft.to/lastmile_qr_scan", "ios": "https://dc.lft.to/lastmile_qr_scan"}, "type": "electric_bike", "lon": -77.100985, "name": "4e43bb74dfafeb88655de9fc3d1770d5", "bike_id": "4e43bb74dfafeb88655de9fc3d1770d5", "fusion_lat": 0.0, "is_reserved": 0, "lat": 38.858649666666665, "fusion_lon": 0.0, "is_disabled": 0}, {"rental_uris": {"android": "https://dc.lft.to/lastmile_qr_scan", "ios": "https://dc.lft.to/lastmile_qr_scan"}, "type": "electric_bike", "lon": -77.09548616666666, "name": "fbe57f67397e02e79a23e83617d80040", "bike_id": "fbe57f67397e02e79a23e83617d80040", "fusion_lat": 0.0, "is_reserved": 0, "lat": 38.83803566666667, "fusion_lon": 0.0, "is_disabled": 0}, {"rental_uris": {"android": "https://dc.lft.to/lastmile_qr_scan", "ios": "https://dc.lft.to/lastmile_qr_scan"}, "type": "electric_scooter", "lon": -77.02952866666666, "name": "b98fb0d1e8327f1d0f9c59e7be783ec8", "bike_id": "b98fb0d1e8327f1d0f9c59e7be783ec8", "fusion_lat": 0.0, "is_reserved": 0, "lat": 38.9078045, "fusion_lon": 0.0, "is_disabled": 0}, {"rental_uris": {"android": "https://dc.lft.to/lastmile_qr_scan", "ios": "https://dc.lft.to/lastmile_qr_scan"}, "type": "electric_scooter", "lon": -77.0275985, "name": "5a366d83c31f1b7b6ef17dd1c762b975", "bike_id": "5a366d83c31f1b7b6ef17dd1c762b975", "fusion_lat": 0.0, "is_reserved": 0, "lat": 38.94291583333333, "fusion_lon": 0.0, "is_disabled": 0}, {"rental_uris": {"android": "https://dc.lft.to/lastmile_qr_scan", "ios": "https://dc.lft.to/lastmile_qr_scan"}, "type": "electric_scooter", "lon": -77.04247716666667, "name": "3f7bc61f57f26dfb55a359ab55c5bb4d", "bike_id": "3f7bc61f57f26dfb55a359ab55c5bb4d", "fusion_lat": 0.0, "is_reserved": 0, "lat": 38.917745333333336, "fusion_lon": 0.0, "is_disabled": 0}, {"rental_uris": {"android": "https://dc.lft.to/lastmile_qr_scan", "ios": "https://dc.lft.to/lastmile_qr_scan"}, "type": "electric_scooter", "lon": -77.032629, "name": "3611cd1bbbac1a1738f6955cdfded2ad", "bike_id": "3611cd1bbbac1a1738f6955cdfded2ad", "fusion_lat": 0.0, "is_reserved": 0, "lat": 38.93252066666667, "fusion_lon": 0.0, "is_disabled": 0}, {"rental_uris": {"android": "https://dc.lft.to/lastmile_qr_scan", "ios": "https://dc.lft.to/lastmile_qr_scan"}, "type": "electric_scooter", "lon": -77.007101, "name": "657783582df42750315bda35976f4eba", "bike_id": "657783582df42750315bda35976f4eba", "fusion_lat": 0.0, "is_reserved": 0, "lat": 38.8848865, "fusion_lon": 0.0, "is_disabled": 0}, {"rental_uris": {"android": "https://dc.lft.to/lastmile_qr_scan", "ios": "https://dc.lft.to/lastmile_qr_scan"}, "type": "electric_scooter", "lon": -77.02254416666666, "name": "249940047994e0d94db6b20da3503667", "bike_id": "249940047994e0d94db6b20da3503667", "fusion_lat": 0.0, "is_reserved": 0, "lat": 38.928217833333335, "fusion_lon": 0.0, "is_disabled": 0}, {"rental_uris": {"android": "https://dc.lft.to/lastmile_qr_scan", "ios": "https://dc.lft.to/lastmile_qr_scan"}, "type": "electric_scooter", "lon": -77.02807366666667, "name": "94fdf115bb3854d86db33adb5c6d5c7d", "bike_id": "94fdf115bb3854d86db33adb5c6d5c7d", "fusion_lat": 0.0, "is_reserved": 0, "lat": 38.9306195, "fusion_lon": 0.0, "is_disabled": 0}, {"rental_uris": {"android": "https://dc.lft.to/lastmile_qr_scan", "ios": "https://dc.lft.to/lastmile_qr_scan"}, "type": "electric_scooter", "lon": -77.032503, "name": "8630f89a12611b16937cf002393bf1e3", "bike_id": "8630f89a12611b16937cf002393bf1e3", "fusion_lat": 0.0, "is_reserved": 0, "lat": 38.9289715, "fusion_lon": 0.0, "is_disabled": 0}, {"rental_uris": {"android": "https://dc.lft.to/lastmile_qr_scan", "ios": "https://dc.lft.to/lastmile_qr_scan"}, "type": "electric_scooter", "lon": -77.05298533333334, "name": "57c4cce3ac1e58277524e126df49cafd", "bike_id": "57c4cce3ac1e58277524e126df49cafd", "fusion_lat": 0.0, "is_reserved": 0, "lat": 38.916939, "fusion_lon": 0.0, "is_disabled": 0}, {"rental_uris": {"android": "https://dc.lft.to/lastmile_qr_scan", "ios": "https://dc.lft.to/lastmile_qr_scan"}, "type": "electric_scooter", "lon": -77.01196416666667, "name": "4724a50f55a784147ebd93040a522123", "bike_id": "4724a50f55a784147ebd93040a522123", "fusion_lat": 0.0, "is_reserved": 0, "lat": 38.896317833333335, "fusion_lon": 0.0, "is_disabled": 0}, {"rental_uris": {"android": "https://dc.lft.to/lastmile_qr_scan", "ios": "https://dc.lft.to/lastmile_qr_scan"}, "type": "electric_scooter", "lon": -77.02697816666667, "name": "fc0b4b2220b8ccebbce7211704b90264", "bike_id": "fc0b4b2220b8ccebbce7211704b90264", "fusion_lat": 0.0, "is_reserved": 0, "lat": 38.91814, "fusion_lon": 0.0, "is_disabled": 0}, {"rental_uris": {"android": "https://dc.lft.to/lastmile_qr_scan", "ios": "https://dc.lft.to/lastmile_qr_scan"}, "type": "electric_scooter", "lon": -77.03825183333333, "name": "80de8252478781afa9e96a8a273af102", "bike_id": "80de8252478781afa9e96a8a273af102", "fusion_lat": 0.0, "is_reserved": 0, "lat": 38.920673666666666, "fusion_lon": 0.0, "is_disabled": 0}, {"rental_uris": {"android": "https://dc.lft.to/lastmile_qr_scan", "ios": "https://dc.lft.to/lastmile_qr_scan"}, "type": "electric_bike", "lon": -77.005939, "name": "fb64c332c21c450fe67452dfcb027e76", "bike_id": "fb64c332c21c450fe67452dfcb027e76", "fusion_lat": 0.0, "is_reserved": 0, "lat": 38.898112, "fusion_lon": 0.0, "is_disabled": 0}, {"rental_uris": {"android": "https://dc.lft.to/lastmile_qr_scan", "ios": "https://dc.lft.to/lastmile_qr_scan"}, "type": "electric_scooter", "lon": -77.03192733333333, "name": "b2cf5889823b5f58ccd5cb9d2e3bde22", "bike_id": "b2cf5889823b5f58ccd5cb9d2e3bde22", "fusion_lat": 0.0, "is_reserved": 0, "lat": 38.9127145, "fusion_lon": 0.0, "is_disabled": 0}, {"rental_uris": {"android": "https://dc.lft.to/lastmile_qr_scan", "ios": "https://dc.lft.to/lastmile_qr_scan"}, "type": "electric_scooter", "lon": -76.91921466666666, "name": "684f4eab3b468dbf122da8f50722e480", "bike_id": "684f4eab3b468dbf122da8f50722e480", "fusion_lat": 0.0, "is_reserved": 0, "lat": 38.890733833333336, "fusion_lon": 0.0, "is_disabled": 0}, {"rental_uris": {"android": "https://dc.lft.to/lastmile_qr_scan", "ios": "https://dc.lft.to/lastmile_qr_scan"}, "type": "electric_scooter", "lon": -77.04708583333333, "name": "806ecfefdec1edc22bde0f2b1c786c7d", "bike_id": "806ecfefdec1edc22bde0f2b1c786c7d", "fusion_lat": 0.0, "is_reserved": 0, "lat": 38.912549, "fusion_lon": 0.0, "is_disabled": 0}, {"rental_uris": {"android": "https://dc.lft.to/lastmile_qr_scan", "ios": "https://dc.lft.to/lastmile_qr_scan"}, "type": "electric_scooter", "lon": -77.04470433333333, "name": "b19187b0e98c38d7353628ff53d083c4", "bike_id": "b19187b0e98c38d7353628ff53d083c4", "fusion_lat": 0.0, "is_reserved": 0, "lat": 38.90276583333333, "fusion_lon": 0.0, "is_disabled": 0}, {"rental_uris": {"android": "https://dc.lft.to/lastmile_qr_scan", "ios": "https://dc.lft.to/lastmile_qr_scan"}, "type": "electric_scooter", "lon": -77.03442133333333, "name": "d7a72e1a8a02e92dedb12a3ee2bf0e81", "bike_id": "d7a72e1a8a02e92dedb12a3ee2bf0e81", "fusion_lat": 0.0, "is_reserved": 0, "lat": 38.90430766666667, "fusion_lon": 0.0, "is_disabled": 0}, {"rental_uris": {"android": "https://dc.lft.to/lastmile_qr_scan", "ios": "https://dc.lft.to/lastmile_qr_scan"}, "type": "electric_scooter", "lon": -77.028301, "name": "ff910f6fb72d254f5553c81fad3da2ed", "bike_id": "ff910f6fb72d254f5553c81fad3da2ed", "fusion_lat": 0.0, "is_reserved": 0, "lat": 38.950854166666666, "fusion_lon": 0.0, "is_disabled": 0}, {"rental_uris": {"android": "https://dc.lft.to/lastmile_qr_scan", "ios": "https://dc.lft.to/lastmile_qr_scan"}, "type": "electric_scooter", "lon": -77.01651933333333, "name": "d8bbe71ad6916d4c3f9ba673bb855290", "bike_id": "d8bbe71ad6916d4c3f9ba673bb855290", "fusion_lat": 0.0, "is_reserved": 0, "lat": 38.87695316666667, "fusion_lon": 0.0, "is_disabled": 0}, {"rental_uris": {"android": "https://dc.lft.to/lastmile_qr_scan", "ios": "https://dc.lft.to/lastmile_qr_scan"}, "type": "electric_scooter", "lon": -76.99659966666667, "name": "b80e7352848c6cd87da3af94c9cc380d", "bike_id": "b80e7352848c6cd87da3af94c9cc380d", "fusion_lat": 0.0, "is_reserved": 0, "lat": 38.8988465, "fusion_lon": 0.0, "is_disabled": 0}, {"rental_uris": {"android": "https://dc.lft.to/lastmile_qr_scan", "ios": "https://dc.lft.to/lastmile_qr_scan"}, "type": "electric_bike", "lon": -77.06983733333334, "name": "9021895c3ceee9d7f6a3e4deab500c69", "bike_id": "9021895c3ceee9d7f6a3e4deab500c69", "fusion_lat": 0.0, "is_reserved": 0, "lat": 38.95269483333333, "fusion_lon": 0.0, "is_disabled": 0}, {"rental_uris": {"android": "https://dc.lft.to/lastmile_qr_scan", "ios": "https://dc.lft.to/lastmile_qr_scan"}, "type": "electric_bike", "lon": -76.99062116666667, "name": "d771ea0d0780d7b781fa5a4d940d935a", "bike_id": "d771ea0d0780d7b781fa5a4d940d935a", "fusion_lat": 0.0, "is_reserved": 0, "lat": 38.9369045, "fusion_lon": 0.0, "is_disabled": 0}, {"rental_uris": {"android": "https://dc.lft.to/lastmile_qr_scan", "ios": "https://dc.lft.to/lastmile_qr_scan"}, "type": "electric_scooter", "lon": -77.02466483333333, "name": "b00ad6cf86c826609f145b944ae97759", "bike_id": "b00ad6cf86c826609f145b944ae97759", "fusion_lat": 0.0, "is_reserved": 0, "lat": 38.938589, "fusion_lon": 0.0, "is_disabled": 0}, {"rental_uris": {"android": "https://dc.lft.to/lastmile_qr_scan", "ios": "https://dc.lft.to/lastmile_qr_scan"}, "type": "electric_scooter", "lon": -77.034318, "name": "93b91cb3efa4a61856adfc6470b3ca82", "bike_id": "93b91cb3efa4a61856adfc6470b3ca82", "fusion_lat": 0.0, "is_reserved": 0, "lat": 38.906214, "fusion_lon": 0.0, "is_disabled": 0}, {"rental_uris": {"android": "https://dc.lft.to/lastmile_qr_scan", "ios": "https://dc.lft.to/lastmile_qr_scan"}, "type": "electric_scooter", "lon": -77.01754233333334, "name": "7e89c467cf621e326361fedf7418e1be", "bike_id": "7e89c467cf621e326361fedf7418e1be", "fusion_lat": 0.0, "is_reserved": 0, "lat": 38.91355466666667, "fusion_lon": 0.0, "is_disabled": 0}, {"rental_uris": {"android": "https://dc.lft.to/lastmile_qr_scan", "ios": "https://dc.lft.to/lastmile_qr_scan"}, "type": "electric_scooter", "lon": -77.04833483333333, "name": "4bb1ad2dc747bb036169dba73b2a1c5c", "bike_id": "4bb1ad2dc747bb036169dba73b2a1c5c", "fusion_lat": 0.0, "is_reserved": 0, "lat": 38.9114245, "fusion_lon": 0.0, "is_disabled": 0}, {"rental_uris": {"android": "https://dc.lft.to/lastmile_qr_scan", "ios": "https://dc.lft.to/lastmile_qr_scan"}, "type": "electric_scooter", "lon": -77.00891283333333, "name": "7df7234678468f34a1e993c503eaf74e", "bike_id": "7df7234678468f34a1e993c503eaf74e", "fusion_lat": 0.0, "is_reserved": 0, "lat": 38.87358833333333, "fusion_lon": 0.0, "is_disabled": 0}, {"rental_uris": {"android": "https://dc.lft.to/lastmile_qr_scan", "ios": "https://dc.lft.to/lastmile_qr_scan"}, "type": "electric_scooter", "lon": -77.03211883333333, "name": "f8e05d93dcbc224eed1108e7fc669736", "bike_id": "f8e05d93dcbc224eed1108e7fc669736", "fusion_lat": 0.0, "is_reserved": 0, "lat": 38.913785, "fusion_lon": 0.0, "is_disabled": 0}, {"rental_uris": {"android": "https://dc.lft.to/lastmile_qr_scan", "ios": "https://dc.lft.to/lastmile_qr_scan"}, "type": "electric_scooter", "lon": -76.98686516666666, "name": "2d1939583c584801d1e9f569cf291733", "bike_id": "2d1939583c584801d1e9f569cf291733", "fusion_lat": 0.0, "is_reserved": 0, "lat": 38.90492866666666, "fusion_lon": 0.0, "is_disabled": 0}, {"rental_uris": {"android": "https://dc.lft.to/lastmile_qr_scan", "ios": "https://dc.lft.to/lastmile_qr_scan"}, "type": "electric_scooter", "lon": -77.01735366666666, "name": "274d81d00ad2233a2e1faf50f39899f3", "bike_id": "274d81d00ad2233a2e1faf50f39899f3", "fusion_lat": 0.0, "is_reserved": 0, "lat": 38.877021666666664, "fusion_lon": 0.0, "is_disabled": 0}, {"rental_uris": {"android": "https://dc.lft.to/lastmile_qr_scan", "ios": "https://dc.lft.to/lastmile_qr_scan"}, "type": "electric_scooter", "lon": -77.07108916666667, "name": "3ed7562ce67761a263b5401e485249fb", "bike_id": "3ed7562ce67761a263b5401e485249fb", "fusion_lat": 0.0, "is_reserved": 0, "lat": 38.919708166666666, "fusion_lon": 0.0, "is_disabled": 0}, {"rental_uris": {"android": "https://dc.lft.to/lastmile_qr_scan", "ios": "https://dc.lft.to/lastmile_qr_scan"}, "type": "electric_scooter", "lon": -76.97329383333333, "name": "dca2777895066f1c0037afd7e02d4025", "bike_id": "dca2777895066f1c0037afd7e02d4025", "fusion_lat": 0.0, "is_reserved": 0, "lat": 38.904776166666664, "fusion_lon": 0.0, "is_disabled": 0}, {"rental_uris": {"android": "https://dc.lft.to/lastmile_qr_scan", "ios": "https://dc.lft.to/lastmile_qr_scan"}, "type": "electric_scooter", "lon": -77.028807, "name": "df116dad5d8860fcd9224ba9d2b9f1ec", "bike_id": "df116dad5d8860fcd9224ba9d2b9f1ec", "fusion_lat": 0.0, "is_reserved": 0, "lat": 38.900165, "fusion_lon": 0.0, "is_disabled": 0}, {"rental_uris": {"android": "https://dc.lft.to/lastmile_qr_scan", "ios": "https://dc.lft.to/lastmile_qr_scan"}, "type": "electric_bike", "lon": -76.9502935, "name": "8313d1d385eaa5df4db7ecdec6a6b422", "bike_id": "8313d1d385eaa5df4db7ecdec6a6b422", "fusion_lat": 0.0, "is_reserved": 0, "lat": 38.891817, "fusion_lon": 0.0, "is_disabled": 0}, {"rental_uris": {"android": "https://dc.lft.to/lastmile_qr_scan", "ios": "https://dc.lft.to/lastmile_qr_scan"}, "type": "electric_scooter", "lon": -77.04973116666666, "name": "cb5e25bb449353a35553d9dc2b0e73b2", "bike_id": "cb5e25bb449353a35553d9dc2b0e73b2", "fusion_lat": 0.0, "is_reserved": 0, "lat": 38.9050155, "fusion_lon": 0.0, "is_disabled": 0}, {"rental_uris": {"android": "https://dc.lft.to/lastmile_qr_scan", "ios": "https://dc.lft.to/lastmile_qr_scan"}, "type": "electric_scooter", "lon": -77.04152966666666, "name": "62142bb1a76e78377b4165926386fc24", "bike_id": "62142bb1a76e78377b4165926386fc24", "fusion_lat": 0.0, "is_reserved": 0, "lat": 38.910203, "fusion_lon": 0.0, "is_disabled": 0}, {"rental_uris": {"android": "https://dc.lft.to/lastmile_qr_scan", "ios": "https://dc.lft.to/lastmile_qr_scan"}, "type": "electric_bike", "lon": -77.011048, "name": "2e8399667b2b78df30d23f2a8d305ee5", "bike_id": "2e8399667b2b78df30d23f2a8d305ee5", "fusion_lat": 0.0, "is_reserved": 0, "lat": 38.963077166666665, "fusion_lon": 0.0, "is_disabled": 0}, {"rental_uris": {"android": "https://dc.lft.to/lastmile_qr_scan", "ios": "https://dc.lft.to/lastmile_qr_scan"}, "type": "electric_scooter", "lon": -77.01618, "name": "52b5fd65f904ada9f2d28a0fc7181393", "bike_id": "52b5fd65f904ada9f2d28a0fc7181393", "fusion_lat": 0.0, "is_reserved": 0, "lat": 38.88305916666667, "fusion_lon": 0.0, "is_disabled": 0}, {"rental_uris": {"android": "https://dc.lft.to/lastmile_qr_scan", "ios": "https://dc.lft.to/lastmile_qr_scan"}, "type": "electric_scooter", "lon": -77.00364566666667, "name": "9da26934929b53297734023f0fd29aa8", "bike_id": "9da26934929b53297734023f0fd29aa8", "fusion_lat": 0.0, "is_reserved": 0, "lat": 38.90728816666667, "fusion_lon": 0.0, "is_disabled": 0}, {"rental_uris": {"android": "https://dc.lft.to/lastmile_qr_scan", "ios": "https://dc.lft.to/lastmile_qr_scan"}, "type": "electric_scooter", "lon": -77.05427083333333, "name": "52e72edcba32b96557d44c91e895ecfe", "bike_id": "52e72edcba32b96557d44c91e895ecfe", "fusion_lat": 0.0, "is_reserved": 0, "lat": 38.923126, "fusion_lon": 0.0, "is_disabled": 0}, {"rental_uris": {"android": "https://dc.lft.to/lastmile_qr_scan", "ios": "https://dc.lft.to/lastmile_qr_scan"}, "type": "electric_scooter", "lon": -77.027256, "name": "0865aa98a9e8c2f1cb4362b7096df555", "bike_id": "0865aa98a9e8c2f1cb4362b7096df555", "fusion_lat": 0.0, "is_reserved": 0, "lat": 38.95134266666667, "fusion_lon": 0.0, "is_disabled": 0}, {"rental_uris": {"android": "https://dc.lft.to/lastmile_qr_scan", "ios": "https://dc.lft.to/lastmile_qr_scan"}, "type": "electric_scooter", "lon": -77.04231816666666, "name": "0edd89019bac4cf9f21461a9163bed7f", "bike_id": "0edd89019bac4cf9f21461a9163bed7f", "fusion_lat": 0.0, "is_reserved": 0, "lat": 38.921959, "fusion_lon": 0.0, "is_disabled": 0}, {"rental_uris": {"android": "https://dc.lft.to/lastmile_qr_scan", "ios": "https://dc.lft.to/lastmile_qr_scan"}, "type": "electric_scooter", "lon": -77.0344, "name": "9b1c3995523bc4ca92e9132f77e7728e", "bike_id": "9b1c3995523bc4ca92e9132f77e7728e", "fusion_lat": 0.0, "is_reserved": 0, "lat": 38.902784833333335, "fusion_lon": 0.0, "is_disabled": 0}, {"rental_uris": {"android": "https://dc.lft.to/lastmile_qr_scan", "ios": "https://dc.lft.to/lastmile_qr_scan"}, "type": "electric_bike", "lon": -77.35306933333334, "name": "71603b76a11fad1ff6f4810033f864d6", "bike_id": "71603b76a11fad1ff6f4810033f864d6", "fusion_lat": 0.0, "is_reserved": 0, "lat": 38.949977, "fusion_lon": 0.0, "is_disabled": 0}, {"rental_uris": {"android": "https://dc.lft.to/lastmile_qr_scan", "ios": "https://dc.lft.to/lastmile_qr_scan"}, "type": "electric_scooter", "lon": -77.00926733333333, "name": "401b34f65b81b69cfbf077124e860cde", "bike_id": "401b34f65b81b69cfbf077124e860cde", "fusion_lat": 0.0, "is_reserved": 0, "lat": 38.896076, "fusion_lon": 0.0, "is_disabled": 0}, {"rental_uris": {"android": "https://dc.lft.to/lastmile_qr_scan", "ios": "https://dc.lft.to/lastmile_qr_scan"}, "type": "electric_bike", "lon": -77.01995666666667, "name": "ce240ca00d83cbaaa5252376fe3ace5f", "bike_id": "ce240ca00d83cbaaa5252376fe3ace5f", "fusion_lat": 0.0, "is_reserved": 0, "lat": 38.96017716666667, "fusion_lon": 0.0, "is_disabled": 0}, {"rental_uris": {"android": "https://dc.lft.to/lastmile_qr_scan", "ios": "https://dc.lft.to/lastmile_qr_scan"}, "type": "electric_scooter", "lon": -77.004903, "name": "9c92fc07b4dfeb456e0967c6bca94b86", "bike_id": "9c92fc07b4dfeb456e0967c6bca94b86", "fusion_lat": 0.0, "is_reserved": 0, "lat": 38.89669133333334, "fusion_lon": 0.0, "is_disabled": 0}, {"rental_uris": {"android": "https://dc.lft.to/lastmile_qr_scan", "ios": "https://dc.lft.to/lastmile_qr_scan"}, "type": "electric_scooter", "lon": -77.003169, "name": "3abd80983dd2d9e3d0904eed8d5346cd", "bike_id": "3abd80983dd2d9e3d0904eed8d5346cd", "fusion_lat": 0.0, "is_reserved": 0, "lat": 38.9059675, "fusion_lon": 0.0, "is_disabled": 0}, {"rental_uris": {"android": "https://dc.lft.to/lastmile_qr_scan", "ios": "https://dc.lft.to/lastmile_qr_scan"},