{"data": {"bikes": [{"is_reserved": 0, "type": "electric_scooter", "fusion_lat": 0.0, "is_disabled": 0, "rental_uris": {"ios": "https://dc.lft.to/lastmile_qr_scan", "android": "https://dc.lft.to/lastmile_qr_scan"}, "bike_id": "32071595290ff6b452566b6792122ba0", "lat": 38.917365833333335, "name": "32071595290ff6b452566b6792122ba0", "lon": -77.068889, "fusion_lon": 0.0}, {"is_reserved": 0, "type": "electric_bike", "fusion_lat": 0.0, "is_disabled": 0, "rental_uris": {"ios": "https://dc.lft.to/lastmile_qr_scan", "android": "https://dc.lft.to/lastmile_qr_scan"}, "bike_id": "7f371626b9fb7696f79cca46a80fe1c9", "lat": 38.92876416666667, "name": "7f371626b9fb7696f79cca46a80fe1c9", "lon": -76.961058, "fusion_lon": 0.0}, {"is_reserved": 0, "type": "electric_scooter", "fusion_lat": 0.0, "is_disabled": 0, "rental_uris": {"ios": "https://dc.lft.to/lastmile_qr_scan", "android": "https://dc.lft.to/lastmile_qr_scan"}, "bike_id": "88491b536c2a08d36f9b3a27ac05257d", "lat": 38.926428, "name": "88491b536c2a08d36f9b3a27ac05257d", "lon": -77.05307083333334, "fusion_lon": 0.0}, {"is_reserved": 0, "type": "electric_bike", "fusion_lat": 0.0, "is_disabled": 0, "rental_uris": {"ios": "https://dc.lft.to/lastmile_qr_scan", "android": "https://dc.lft.to/lastmile_qr_scan"}, "bike_id": "d1ea4cb69c1355963f804b2504c6fb0c", "lat": 38.80483516666666, "name": "d1ea4cb69c1355963f804b2504c6fb0c", "lon": -76.99109966666667, "fusion_lon": 0.0}, {"is_reserved": 0, "type": "electric_scooter", "fusion_lat": 0.0, "is_disabled": 0, "rental_uris": {"ios": "https://dc.lft.to/lastmile_qr_scan", "android": "https://dc.lft.to/lastmile_qr_scan"}, "bike_id": "092699f14345b57e7bc9df34c41b7329", "lat": 38.9126305, "name": "092699f14345b57e7bc9df34c41b7329", "lon": -77.0387935, "fusion_lon": 0.0}, {"is_reserved": 0, "type": "electric_scooter", "fusion_lat": 0.0, "is_disabled": 0, "rental_uris": {"ios": "https://dc.lft.to/lastmile_qr_scan", "android": "https://dc.lft.to/lastmile_qr_scan"}, "bike_id": "a7c60f5dc17e83aaff288d8c0a2863b8", "lat": 38.909692166666666, "name": "a7c60f5dc17e83aaff288d8c0a2863b8", "lon": -77.04598216666666, "fusion_lon": 0.0}, {"is_reserved": 0, "type": "electric_bike", "fusion_lat": 0.0, "is_disabled": 0, "rental_uris": {"ios": "https://dc.lft.to/lastmile_qr_scan", "android": "https://dc.lft.to/lastmile_qr_scan"}, "bike_id": "402ac712a1fa9957a6bdc8b9ab03d8ef", "lat": 38.92950716666667, "name": "402ac712a1fa9957a6bdc8b9ab03d8ef", "lon": -76.97566266666666, "fusion_lon": 0.0}, {"is_reserved": 0, "type": "electric_scooter", "fusion_lat": 0.0, "is_disabled": 0, "rental_uris": {"ios": "https://dc.lft.to/lastmile_qr_scan", "android": "https://dc.lft.to/lastmile_qr_scan"}, "bike_id": "d450d0e12cf26f5b6ec9ec540a46225d", "lat": 38.89415233333333, "name": "d450d0e12cf26f5b6ec9ec540a46225d", "lon": -77.01084583333333, "fusion_lon": 0.0}, {"is_reserved": 0, "type": "electric_scooter", "fusion_lat": 0.0, "is_disabled": 0, "rental_uris": {"ios": "https://dc.lft.to/lastmile_qr_scan", "android": "https://dc.lft.to/lastmile_qr_scan"}, "bike_id": "0264c51da534c7ee390e88c7c58126f1", "lat": 38.90788766666667, "name": "0264c51da534c7ee390e88c7c58126f1", "lon": -77.04318883333333, "fusion_lon": 0.0}, {"is_reserved": 0, "type": "electric_scooter", "fusion_lat": 0.0, "is_disabled": 0, "rental_uris": {"ios": "https://dc.lft.to/lastmile_qr_scan", "android": "https://dc.lft.to/lastmile_qr_scan"}, "bike_id": "da7b570b55585bf16a8c07845cff9888", "lat": 38.878502833333336, "name": "da7b570b55585bf16a8c07845cff9888", "lon": -77.0057955, "fusion_lon": 0.0}, {"is_reserved": 0, "type": "electric_scooter", "fusion_lat": 0.0, "is_disabled": 0, "rental_uris": {"ios": "https://dc.lft.to/lastmile_qr_scan", "android": "https://dc.lft.to/lastmile_qr_scan"}, "bike_id": "9c76deaa843b0f7a218c961e10f48f83", "lat": 38.903961833333334, "name": "9c76deaa843b0f7a218c961e10f48f83", "lon": -76.98945233333333, "fusion_lon": 0.0}, {"is_reserved": 0, "type": "electric_scooter", "fusion_lat": 0.0, "is_disabled": 0, "rental_uris": {"ios": "https://dc.lft.to/lastmile_qr_scan", "android": "https://dc.lft.to/lastmile_qr_scan"}, "bike_id": "373673c27ff9963e0b5f13ffb7948678", "lat": 38.94838433333334, "name": "373673c27ff9963e0b5f13ffb7948678", "lon": -77.0271, "fusion_lon": 0.0}, {"is_reserved": 0, "type": "electric_scooter", "fusion_lat": 0.0, "is_disabled": 0, "rental_uris": {"ios": "https://dc.lft.to/lastmile_qr_scan", "android": "https://dc.lft.to/lastmile_qr_scan"}, "bike_id": "dd5d2a677f77c6887cfe8856d1202c67", "lat": 38.901185, "name": "dd5d2a677f77c6887cfe8856d1202c67", "lon": -77.01631816666666, "fusion_lon": 0.0}, {"is_reserved": 0, "type": "electric_scooter", "fusion_lat": 0.0, "is_disabled": 0, "rental_uris": {"ios": "https://dc.lft.to/lastmile_qr_scan", "android": "https://dc.lft.to/lastmile_qr_scan"}, "bike_id": "577b62345abc9767efa1ad5fbe289a1f", "lat": 38.91631816666667, "name": "577b62345abc9767efa1ad5fbe289a1f", "lon": -77.0481435, "fusion_lon": 0.0}, {"is_reserved": 0, "type": "electric_scooter", "fusion_lat": 0.0, "is_disabled": 0, "rental_uris": {"ios": "https://dc.lft.to/lastmile_qr_scan", "android": "https://dc.lft.to/lastmile_qr_scan"}, "bike_id": "cc48588340ec179b2b538838ad24c8b7", "lat": 38.88244133333333, "name": "cc48588340ec179b2b538838ad24c8b7", "lon": -77.00636133333333, "fusion_lon": 0.0}, {"is_reserved": 0, "type": "electric_scooter", "fusion_lat": 0.0, "is_disabled": 0, "rental_uris": {"ios": "https://dc.lft.to/lastmile_qr_scan", "android": "https://dc.lft.to/lastmile_qr_scan"}, "bike_id": "0ee25c93f3dc1a59142fcbb0ab334041", "lat": 38.891954, "name": "0ee25c93f3dc1a59142fcbb0ab334041", "lon": -77.02220166666666, "fusion_lon": 0.0}, {"is_reserved": 0, "type": "electric_scooter", "fusion_lat": 0.0, "is_disabled": 0, "rental_uris": {"ios": "https://dc.lft.to/lastmile_qr_scan", "android": "https://dc.lft.to/lastmile_qr_scan"}, "bike_id": "b87ad8337e0584cba3bbe2bd2bc411e4", "lat": 38.93225916666667, "name": "b87ad8337e0584cba3bbe2bd2bc411e4", "lon": -77.02982166666666, "fusion_lon": 0.0}, {"is_reserved": 0, "type": "electric_bike", "fusion_lat": 0.0, "is_disabled": 0, "rental_uris": {"ios": "https://dc.lft.to/lastmile_qr_scan", "android": "https://dc.lft.to/lastmile_qr_scan"}, "bike_id": "4c0d9e8558ca9230c192c6d94e05c69b", "lat": 38.81939466666667, "name": "4c0d9e8558ca9230c192c6d94e05c69b", "lon": -77.00204266666667, "fusion_lon": 0.0}, {"is_reserved": 0, "type": "electric_scooter", "fusion_lat": 0.0, "is_disabled": 0, "rental_uris": {"ios": "https://dc.lft.to/lastmile_qr_scan", "android": "https://dc.lft.to/lastmile_qr_scan"}, "bike_id": "3099c6b7121701b818621935dd78c29e", "lat": 38.89818316666667, "name": "3099c6b7121701b818621935dd78c29e", "lon": -76.99836333333333, "fusion_lon": 0.0}, {"is_reserved": 0, "type": "electric_scooter", "fusion_lat": 0.0, "is_disabled": 0, "rental_uris": {"ios": "https://dc.lft.to/lastmile_qr_scan", "android": "https://dc.lft.to/lastmile_qr_scan"}, "bike_id": "38c1225d2109500163600126f6d1dce9", "lat": 38.896317333333336, "name": "38c1225d2109500163600126f6d1dce9", "lon": -77.01082566666666, "fusion_lon": 0.0}, {"is_reserved": 0, "type": "electric_scooter", "fusion_lat": 0.0, "is_disabled": 0, "rental_uris": {"ios": "https://dc.lft.to/lastmile_qr_scan", "android": "https://dc.lft.to/lastmile_qr_scan"}, "bike_id": "7d76ffbf581d9ef32eb566b4f8d5ddcf", "lat": 38.87829166666667, "name": "7d76ffbf581d9ef32eb566b4f8d5ddcf", "lon": -77.00862416666666, "fusion_lon": 0.0}, {"is_reserved": 0, "type": "electric_scooter", "fusion_lat": 0.0, "is_disabled": 0, "rental_uris": {"ios": "https://dc.lft.to/lastmile_qr_scan", "android": "https://dc.lft.to/lastmile_qr_scan"}, "bike_id": "1ca98154c761cddf43a5fd7746cac525", "lat": 38.92066166666667, "name": "1ca98154c761cddf43a5fd7746cac525", "lon": -77.00065433333333, "fusion_lon": 0.0}, {"is_reserved": 0, "type": "electric_scooter", "fusion_lat": 0.0, "is_disabled": 0, "rental_uris": {"ios": "https://dc.lft.to/lastmile_qr_scan", "android": "https://dc.lft.to/lastmile_qr_scan"}, "bike_id": "b24472d1e80a5857954061d5aa983188", "lat": 38.93534983333333, "name": "b24472d1e80a5857954061d5aa983188", "lon": -77.02355566666667, "fusion_lon": 0.0}, {"is_reserved": 0, "type": "electric_scooter", "fusion_lat": 0.0, "is_disabled": 0, "rental_uris": {"ios": "https://dc.lft.to/lastmile_qr_scan", "android": "https://dc.lft.to/lastmile_qr_scan"}, "bike_id": "579e8dffbbc744b146f4a5af3bc177ef", "lat": 38.896780666666665, "name": "579e8dffbbc744b146f4a5af3bc177ef", "lon": -77.0049105, "fusion_lon": 0.0}, {"is_reserved": 0, "type": "electric_scooter", "fusion_lat": 0.0, "is_disabled": 0, "rental_uris": {"ios": "https://dc.lft.to/lastmile_qr_scan", "android": "https://dc.lft.to/lastmile_qr_scan"}, "bike_id": "aeab9dc34588902d1319d8009c00e9f1", "lat": 38.92457916666667, "name": "aeab9dc34588902d1319d8009c00e9f1", "lon": -77.0203705, "fusion_lon": 0.0}, {"is_reserved": 0, "type": "electric_scooter", "fusion_lat": 0.0, "is_disabled": 0, "rental_uris": {"ios": "https://dc.lft.to/lastmile_qr_scan", "android": "https://dc.lft.to/lastmile_qr_scan"}, "bike_id": "8ed86cb25a39e9c8624b4d411d06f49a", "lat": 38.8920875, "name": "8ed86cb25a39e9c8624b4d411d06f49a", "lon": -76.99861483333333, "fusion_lon": 0.0}, {"is_reserved": 0, "type": "electric_scooter", "fusion_lat": 0.0, "is_disabled": 0, "rental_uris": {"ios": "https://dc.lft.to/lastmile_qr_scan", "android": "https://dc.lft.to/lastmile_qr_scan"}, "bike_id": "3fdebd0e8320f7d4deba1835098e03fd", "lat": 38.94467383333333, "name": "3fdebd0e8320f7d4deba1835098e03fd", "lon": -77.00658216666666, "fusion_lon": 0.0}, {"is_reserved": 0, "type": "electric_scooter", "fusion_lat": 0.0, "is_disabled": 0, "rental_uris": {"ios": "https://dc.lft.to/lastmile_qr_scan", "android": "https://dc.lft.to/lastmile_qr_scan"}, "bike_id": "c94627a4a1ffd7c8092f75cc3ff9caa5", "lat": 38.89731866666666, "name": "c94627a4a1ffd7c8092f75cc3ff9caa5", "lon": -77.01291483333334, "fusion_lon": 0.0}, {"is_reserved": 0, "type": "electric_scooter", "fusion_lat": 0.0, "is_disabled": 0, "rental_uris": {"ios": "https://dc.lft.to/lastmile_qr_scan", "android": "https://dc.lft.to/lastmile_qr_scan"}, "bike_id": "4bebbd76986e75261e3600c53428453f", "lat": 38.898595666666665, "name": "4bebbd76986e75261e3600c53428453f", "lon": -76.990374, "fusion_lon": 0.0}, {"is_reserved": 0, "type": "electric_scooter", "fusion_lat": 0.0, "is_disabled": 0, "rental_uris": {"ios": "https://dc.lft.to/lastmile_qr_scan", "android": "https://dc.lft.to/lastmile_qr_scan"}, "bike_id": "f0758dd657a0e8b2648439bfca870053", "lat": 38.92798716666667, "name": "f0758dd657a0e8b2648439bfca870053", "lon": -77.02389383333333, "fusion_lon": 0.0}, {"is_reserved": 0, "type": "electric_bike", "fusion_lat": 0.0, "is_disabled": 0, "rental_uris": {"ios": "https://dc.lft.to/lastmile_qr_scan", "android": "https://dc.lft.to/lastmile_qr_scan"}, "bike_id": "f5dbf0170624c9032f3c35bdf70d054b", "lat": 39.084328, "name": "f5dbf0170624c9032f3c35bdf70d054b", "lon": -76.95141966666667, "fusion_lon": 0.0}, {"is_reserved": 0, "type": "electric_scooter", "fusion_lat": 0.0, "is_disabled": 0, "rental_uris": {"ios": "https://dc.lft.to/lastmile_qr_scan", "android": "https://dc.lft.to/lastmile_qr_scan"}, "bike_id": "2ebb37014e7d36a9dbc7605f0b424740", "lat": 38.92683783333333, "name": "2ebb37014e7d36a9dbc7605f0b424740", "lon": -77.00876833333334, "fusion_lon": 0.0}, {"is_reserved": 0, "type": "electric_scooter", "fusion_lat": 0.0, "is_disabled": 0, "rental_uris": {"ios": "https://dc.lft.to/lastmile_qr_scan", "android": "https://dc.lft.to/lastmile_qr_scan"}, "bike_id": "ca44bf04f4f36bb86158c94f40b35848", "lat": 38.90126, "name": "ca44bf04f4f36bb86158c94f40b35848", "lon": -77.05154133333333, "fusion_lon": 0.0}, {"is_reserved": 0, "type": "electric_scooter", "fusion_lat": 0.0, "is_disabled": 0, "rental_uris": {"ios": "https://dc.lft.to/lastmile_qr_scan", "android": "https://dc.lft.to/lastmile_qr_scan"}, "bike_id": "1fdea82ad6d67c0ed05c952f60c1ba39", "lat": 38.9316395, "name": "1fdea82ad6d67c0ed05c952f60c1ba39", "lon": -77.05604416666667, "fusion_lon": 0.0}, {"is_reserved": 0, "type": "electric_scooter", "fusion_lat": 0.0, "is_disabled": 0, "rental_uris": {"ios": "https://dc.lft.to/lastmile_qr_scan", "android": "https://dc.lft.to/lastmile_qr_scan"}, "bike_id": "e9ce88fefb1711fd2f3e54cc9361bc31", "lat": 38.924199, "name": "e9ce88fefb1711fd2f3e54cc9361bc31", "lon": -77.0194885, "fusion_lon": 0.0}, {"is_reserved": 0, "type": "electric_bike", "fusion_lat": 0.0, "is_disabled": 0, "rental_uris": {"ios": "https://dc.lft.to/lastmile_qr_scan", "android": "https://dc.lft.to/lastmile_qr_scan"}, "bike_id": "dd04c0cad317f9b6300e0fc539ef8244", "lat": 38.88378733333333, "name": "dd04c0cad317f9b6300e0fc539ef8244", "lon": -76.92372783333333, "fusion_lon": 0.0}, {"is_reserved": 0, "type": "electric_scooter", "fusion_lat": 0.0, "is_disabled": 0, "rental_uris": {"ios": "https://dc.lft.to/lastmile_qr_scan", "android": "https://dc.lft.to/lastmile_qr_scan"}, "bike_id": "584d706c8d6fcec068ded3d211cd1540", "lat": 38.907511, "name": "584d706c8d6fcec068ded3d211cd1540", "lon": -77.04483266666666, "fusion_lon": 0.0}, {"is_reserved": 0, "type": "electric_scooter", "fusion_lat": 0.0, "is_disabled": 0, "rental_uris": {"ios": "https://dc.lft.to/lastmile_qr_scan", "android": "https://dc.lft.to/lastmile_qr_scan"}, "bike_id": "d002b3b791e46deb362ba61328662d0d", "lat": 38.884004, "name": "d002b3b791e46deb362ba61328662d0d", "lon": -76.930466, "fusion_lon": 0.0}, {"is_reserved": 0, "type": "electric_scooter", "fusion_lat": 0.0, "is_disabled": 0, "rental_uris": {"ios": "https://dc.lft.to/lastmile_qr_scan", "android": "https://dc.lft.to/lastmile_qr_scan"}, "bike_id": "f482bf2c23b19f2a30cf244f12983805", "lat": 38.9236985, "name": "f482bf2c23b19f2a30cf244f12983805", "lon": -77.02980166666667, "fusion_lon": 0.0}, {"is_reserved": 0, "type": "electric_scooter", "fusion_lat": 0.0, "is_disabled": 0, "rental_uris": {"ios": "https://dc.lft.to/lastmile_qr_scan", "android": "https://dc.lft.to/lastmile_qr_scan"}, "bike_id": "7fd3b534ad6808fe625e4adee9515e94", "lat": 38.903791166666664, "name": "7fd3b534ad6808fe625e4adee9515e94", "lon": -77.05083883333333, "fusion_lon": 0.0}, {"is_reserved": 0, "type": "electric_scooter", "fusion_lat": 0.0, "is_disabled": 0, "rental_uris": {"ios": "https://dc.lft.to/lastmile_qr_scan", "android": "https://dc.lft.to/lastmile_qr_scan"}, "bike_id": "33e1fe52ad1ed402655b16e563eabf98", "lat": 38.9036035, "name": "33e1fe52ad1ed402655b16e563eabf98", "lon": -77.005693, "fusion_lon": 0.0}, {"is_reserved": 0, "type": "electric_scooter", "fusion_lat": 0.0, "is_disabled": 0, "rental_uris": {"ios": "https://dc.lft.to/lastmile_qr_scan", "android": "https://dc.lft.to/lastmile_qr_scan"}, "bike_id": "10c6de0cc863a4214cf5b5ff901ff64e", "lat": 38.906742333333334, "name": "10c6de0cc863a4214cf5b5ff901ff64e", "lon": -77.02699766666667, "fusion_lon": 0.0}, {"is_reserved": 0, "type": "electric_bike", "fusion_lat": 0.0, "is_disabled": 0, "rental_uris": {"ios": "https://dc.lft.to/lastmile_qr_scan", "android": "https://dc.lft.to/lastmile_qr_scan"}, "bike_id": "8b4564c1562f1a1f801473e4260cf65d", "lat": 38.857949166666664, "name": "8b4564c1562f1a1f801473e4260cf65d", "lon": -77.0996555, "fusion_lon": 0.0}, {"is_reserved": 0, "type": "electric_scooter", "fusion_lat": 0.0, "is_disabled": 0, "rental_uris": {"ios": "https://dc.lft.to/lastmile_qr_scan", "android": "https://dc.lft.to/lastmile_qr_scan"}, "bike_id": "7d66b13212feea0905105eba8103dfa6", "lat": 38.9219375, "name": "7d66b13212feea0905105eba8103dfa6", "lon": -77.0211275, "fusion_lon": 0.0}, {"is_reserved": 0, "type": "electric_scooter", "fusion_lat": 0.0, "is_disabled": 0, "rental_uris": {"ios": "https://dc.lft.to/lastmile_qr_scan", "android": "https://dc.lft.to/lastmile_qr_scan"}, "bike_id": "d512e8ed729c1b0497f209d2500ab011", "lat": 38.89876683333333, "name": "d512e8ed729c1b0497f209d2500ab011", "lon": -76.93174083333334, "fusion_lon": 0.0}, {"is_reserved": 0, "type": "electric_scooter", "fusion_lat": 0.0, "is_disabled": 0, "rental_uris": {"ios": "https://dc.lft.to/lastmile_qr_scan", "android": "https://dc.lft.to/lastmile_qr_scan"}, "bike_id": "3e801164c530e6053fd4d2b4e9c616e4", "lat": 38.9102455, "name": "3e801164c530e6053fd4d2b4e9c616e4", "lon": -77.02002533333334, "fusion_lon": 0.0}, {"is_reserved": 0, "type": "electric_scooter", "fusion_lat": 0.0, "is_disabled": 0, "rental_uris": {"ios": "https://dc.lft.to/lastmile_qr_scan", "android": "https://dc.lft.to/lastmile_qr_scan"}, "bike_id": "fef945e0d7e394e9d14f122413e25815", "lat": 38.9236175, "name": "fef945e0d7e394e9d14f122413e25815", "lon": -77.01921133333333, "fusion_lon": 0.0}, {"is_reserved": 0, "type": "electric_scooter", "fusion_lat": 0.0, "is_disabled": 0, "rental_uris": {"ios": "https://dc.lft.to/lastmile_qr_scan", "android": "https://dc.lft.to/lastmile_qr_scan"}, "bike_id": "a4d4b979cdc91f4baecd2e772c8c76b1", "lat": 38.96426266666667, "name": "a4d4b979cdc91f4baecd2e772c8c76b1", "lon": -77.07427933333334, "fusion_lon": 0.0}, {"is_reserved": 0, "type": "electric_scooter", "fusion_lat": 0.0, "is_disabled": 0, "rental_uris": {"ios": "https://dc.lft.to/lastmile_qr_scan", "android": "https://dc.lft.to/lastmile_qr_scan"}, "bike_id": "2b072f53037eeeb1c6aaf13faa64b4cf", "lat": 38.903167333333336, "name": "2b072f53037eeeb1c6aaf13faa64b4cf", "lon": -76.9912915, "fusion_lon": 0.0}, {"is_reserved": 0, "type": "electric_scooter", "fusion_lat": 0.0, "is_disabled": 0, "rental_uris": {"ios": "https://dc.lft.to/lastmile_qr_scan", "android": "https://dc.lft.to/lastmile_qr_scan"}, "bike_id": "a1f21f0d11dd19afc6a31493e13088cf", "lat": 38.90223916666667, "name": "a1f21f0d11dd19afc6a31493e13088cf", "lon": -77.021914, "fusion_lon": 0.0}, {"is_reserved": 0, "type": "electric_scooter", "fusion_lat": 0.0, "is_disabled": 0, "rental_uris": {"ios": "https://dc.lft.to/lastmile_qr_scan", "android": "https://dc.lft.to/lastmile_qr_scan"}, "bike_id": "49d9dd2dc16a673d0c84e3c38041931d", "lat": 38.935502, "name": "49d9dd2dc16a673d0c84e3c38041931d", "lon": -77.07334183333333, "fusion_lon": 0.0}, {"is_reserved": 0, "type": "electric_scooter", "fusion_lat": 0.0, "is_disabled": 0, "rental_uris": {"ios": "https://dc.lft.to/lastmile_qr_scan", "android": "https://dc.lft.to/lastmile_qr_scan"}, "bike_id": "ad0dbb6bab571615f8de5f1f1014cd9b", "lat": 38.85721133333333, "name": "ad0dbb6bab571615f8de5f1f1014cd9b", "lon": -76.98094866666666, "fusion_lon": 0.0}, {"is_reserved": 0, "type": "electric_scooter", "fusion_lat": 0.0, "is_disabled": 0, "rental_uris": {"ios": "https://dc.lft.to/lastmile_qr_scan", "android": "https://dc.lft.to/lastmile_qr_scan"}, "bike_id": "87847db7c2ff2e8b2a4fbd4ae54202c9", "lat": 38.885435333333334, "name": "87847db7c2ff2e8b2a4fbd4ae54202c9", "lon": -76.98540916666667, "fusion_lon": 0.0}, {"is_reserved": 0, "type": "electric_scooter", "fusion_lat": 0.0, "is_disabled": 0, "rental_uris": {"ios": "https://dc.lft.to/lastmile_qr_scan", "android": "https://dc.lft.to/lastmile_qr_scan"}, "bike_id": "b96183c9b5596b43099ca9b4fe0d4a91", "lat": 38.94726716666667, "name": "b96183c9b5596b43099ca9b4fe0d4a91", "lon": -77.02669533333334, "fusion_lon": 0.0}, {"is_reserved": 0, "type": "electric_scooter", "fusion_lat": 0.0, "is_disabled": 0, "rental_uris": {"ios": "https://dc.lft.to/lastmile_qr_scan", "android": "https://dc.lft.to/lastmile_qr_scan"}, "bike_id": "900efe9ce16888a3701d30040d720196", "lat": 38.92752333333333, "name": "900efe9ce16888a3701d30040d720196", "lon": -77.03269883333333, "fusion_lon": 0.0}, {"is_reserved": 0, "type": "electric_scooter", "fusion_lat": 0.0, "is_disabled": 0, "rental_uris": {"ios": "https://dc.lft.to/lastmile_qr_scan", "android": "https://dc.lft.to/lastmile_qr_scan"}, "bike_id": "22fbe2f4b2ab1758d07973d1db14a9a8", "lat": 38.91701966666667, "name": "22fbe2f4b2ab1758d07973d1db14a9a8", "lon": -77.05299866666667, "fusion_lon": 0.0}, {"is_reserved": 0, "type": "electric_bike", "fusion_lat": 0.0, "is_disabled": 0, "rental_uris": {"ios": "https://dc.lft.to/lastmile_qr_scan", "android": "https://dc.lft.to/lastmile_qr_scan"}, "bike_id": "a50b84cd4de7608e4dee843bd2435515", "lat": 38.92801466666667, "name": "a50b84cd4de7608e4dee843bd2435515", "lon": -77.229433, "fusion_lon": 0.0}, {"is_reserved": 0, "type": "electric_bike", "fusion_lat": 0.0, "is_disabled": 0, "rental_uris": {"ios": "https://dc.lft.to/lastmile_qr_scan", "android": "https://dc.lft.to/lastmile_qr_scan"}, "bike_id": "551d4fdbad63e29658b9df7c301eb65d", "lat": 38.834109166666664, "name": "551d4fdbad63e29658b9df7c301eb65d", "lon": -77.04994666666667, "fusion_lon": 0.0}, {"is_reserved": 0, "type": "electric_scooter", "fusion_lat": 0.0, "is_disabled": 0, "rental_uris": {"ios": "https://dc.lft.to/lastmile_qr_scan", "android": "https://dc.lft.to/lastmile_qr_scan"}, "bike_id": "3d5b3c2265ac154f9af6fe2b6c3ae9f6", "lat": 38.90043466666667, "name": "3d5b3c2265ac154f9af6fe2b6c3ae9f6", "lon": -77.04337833333334, "fusion_lon": 0.0}, {"is_reserved": 0, "type": "electric_bike", "fusion_lat": 0.0, "is_disabled": 0, "rental_uris": {"ios": "https://dc.lft.to/lastmile_qr_scan", "android": "https://dc.lft.to/lastmile_qr_scan"}, "bike_id": "c7e18f3e45091280b2221a1e1d0e17d9", "lat": 38.8506555, "name": "c7e18f3e45091280b2221a1e1d0e17d9", "lon": -76.95831116666666, "fusion_lon": 0.0}, {"is_reserved": 0, "type": "electric_scooter", "fusion_lat": 0.0, "is_disabled": 0, "rental_uris": {"ios": "https://dc.lft.to/lastmile_qr_scan", "android": "https://dc.lft.to/lastmile_qr_scan"}, "bike_id": "7afabfd533f1fab47b62ea547fcb484d", "lat": 38.931055666666666, "name": "7afabfd533f1fab47b62ea547fcb484d", "lon": -77.024744, "fusion_lon": 0.0}, {"is_reserved": 0, "type": "electric_scooter", "fusion_lat": 0.0, "is_disabled": 0, "rental_uris": {"ios": "https://dc.lft.to/lastmile_qr_scan", "android": "https://dc.lft.to/lastmile_qr_scan"}, "bike_id": "550e090b317d57a4d92ef83b05d4bf1c", "lat": 38.860838666666666, "name": "550e090b317d57a4d92ef83b05d4bf1c", "lon": -76.983767, "fusion_lon": 0.0}, {"is_reserved": 0, "type": "electric_scooter", "fusion_lat": 0.0, "is_disabled": 0, "rental_uris": {"ios": "https://dc.lft.to/lastmile_qr_scan", "android": "https://dc.lft.to/lastmile_qr_scan"}, "bike_id": "0f15d72c460959f67fdf8f71f7e830f7", "lat": 38.885741833333334, "name": "0f15d72c460959f67fdf8f71f7e830f7", "lon": -77.0121125, "fusion_lon": 0.0}, {"is_reserved": 0, "type": "electric_scooter", "fusion_lat": 0.0, "is_disabled": 0, "rental_uris": {"ios": "https://dc.lft.to/lastmile_qr_scan", "android": "https://dc.lft.to/lastmile_qr_scan"}, "bike_id": "f4d4bf290cd1dfef08584afbf8b23ea2", "lat": 38.896350166666664, "name": "f4d4bf290cd1dfef08584afbf8b23ea2", "lon": -77.04660116666666, "fusion_lon": 0.0}, {"is_reserved": 0, "type": "electric_scooter", "fusion_lat": 0.0, "is_disabled": 0, "rental_uris": {"ios": "https://dc.lft.to/lastmile_qr_scan", "android": "https://dc.lft.to/lastmile_qr_scan"}, "bike_id": "9a29ba48c113fa4763c75f20734a3ae4", "lat": 38.90438533333333, "name": "9a29ba48c113fa4763c75f20734a3ae4", "lon": -76.9973065, "fusion_lon": 0.0}, {"is_reserved": 0, "type": "electric_bike", "fusion_lat": 0.0, "is_disabled": 0, "rental_uris": {"ios": "https://dc.lft.to/lastmile_qr_scan", "android": "https://dc.lft.to/lastmile_qr_scan"}, "bike_id": "daac7e84be9ab6865f8ee941edb2cec9", "lat": 38.904857166666666, "name": "daac7e84be9ab6865f8ee941edb2cec9", "lon": -77.02763233333333, "fusion_lon": 0.0}, {"is_reserved": 0, "type": "electric_scooter", "fusion_lat": 0.0, "is_disabled": 0, "rental_uris": {"ios": "https://dc.lft.to/lastmile_qr_scan", "android": "https://dc.lft.to/lastmile_qr_scan"}, "bike_id": "b25d635bf6438ac4af65a8d500b7ef30", "lat": 38.930135, "name": "b25d635bf6438ac4af65a8d500b7ef30", "lon": -77.04047233333333, "fusion_lon": 0.0}, {"is_reserved": 0, "type": "electric_scooter", "fusion_lat": 0.0, "is_disabled": 0, "rental_uris": {"ios": "https://dc.lft.to/lastmile_qr_scan", "android": "https://dc.lft.to/lastmile_qr_scan"}, "bike_id": "a82a1788a78c7efcceb615ae8b7fb705", "lat": 38.923796, "name": "a82a1788a78c7efcceb615ae8b7fb705", "lon": -77.04111233333333, "fusion_lon": 0.0}, {"is_reserved": 0, "type": "electric_scooter", "fusion_lat": 0.0, "is_disabled": 0, "rental_uris": {"ios": "https://dc.lft.to/lastmile_qr_scan", "android": "https://dc.lft.to/lastmile_qr_scan"}, "bike_id": "9ea1d057b8dc1d01e18184960472f0a3", "lat": 38.90954166666667, "name": "9ea1d057b8dc1d01e18184960472f0a3", "lon": -76.99576883333333, "fusion_lon": 0.0}, {"is_reserved": 0, "type": "electric_scooter", "fusion_lat": 0.0, "is_disabled": 0, "rental_uris": {"ios": "https://dc.lft.to/lastmile_qr_scan", "android": "https://dc.lft.to/lastmile_qr_scan"}, "bike_id": "e6adea6514d19633103d6759c9443174", "lat": 38.92490183333334, "name": "e6adea6514d19633103d6759c9443174", "lon": -77.02139566666666, "fusion_lon": 0.0}, {"is_reserved": 0, "type": "electric_scooter", "fusion_lat": 0.0, "is_disabled": 0, "rental_uris": {"ios": "https://dc.lft.to/lastmile_qr_scan", "android": "https://dc.lft.to/lastmile_qr_scan"}, "bike_id": "44681d91f8a08ce23f4104a0e8bac743", "lat": 38.908358, "name": "44681d91f8a08ce23f4104a0e8bac743", "lon": -77.0436335, "fusion_lon": 0.0}, {"is_reserved": 0, "type": "electric_scooter", "fusion_lat": 0.0, "is_disabled": 0, "rental_uris": {"ios": "https://dc.lft.to/lastmile_qr_scan", "android": "https://dc.lft.to/lastmile_qr_scan"}, "bike_id": "3c349fca25afe40419b62fd2ea1cf7f0", "lat": 38.90627533333333, "name": "3c349fca25afe40419b62fd2ea1cf7f0", "lon": -77.00878983333334, "fusion_lon": 0.0}, {"is_reserved": 0, "type": "electric_scooter", "fusion_lat": 0.0, "is_disabled": 0, "rental_uris": {"ios": "https://dc.lft.to/lastmile_qr_scan", "android": "https://dc.lft.to/lastmile_qr_scan"}, "bike_id": "532b022f49a8bb31b07ea2f0907a3ec4", "lat": 38.925743, "name": "532b022f49a8bb31b07ea2f0907a3ec4", "lon": -77.02987716666667, "fusion_lon": 0.0}, {"is_reserved": 0, "type": "electric_scooter", "fusion_lat": 0.0, "is_disabled": 0, "rental_uris": {"ios": "https://dc.lft.to/lastmile_qr_scan", "android": "https://dc.lft.to/lastmile_qr_scan"}, "bike_id": "e9fa26f02084d6b830b3b8ca2aba957b", "lat": 38.932633, "name": "e9fa26f02084d6b830b3b8ca2aba957b", "lon": -77.03271016666666, "fusion_lon": 0.0}, {"is_reserved": 0, "type": "electric_scooter", "fusion_lat": 0.0, "is_disabled": 0, "rental_uris": {"ios": "https://dc.lft.to/lastmile_qr_scan", "android": "https://dc.lft.to/lastmile_qr_scan"}, "bike_id": "901da04588a0735128daf9704e6ff377", "lat": 38.924636666666665, "name": "901da04588a0735128daf9704e6ff377", "lon": -77.0223675, "fusion_lon": 0.0}, {"is_reserved": 0, "type": "electric_bike", "fusion_lat": 0.0, "is_disabled": 0, "rental_uris": {"ios": "https://dc.lft.to/lastmile_qr_scan", "android": "https://dc.lft.to/lastmile_qr_scan"}, "bike_id": "89aced76611cf32f2047e3c3d33f1446", "lat": 38.936428666666664, "name": "89aced76611cf32f2047e3c3d33f1446", "lon": -76.954608, "fusion_lon": 0.0}, {"is_reserved": 0, "type": "electric_scooter", "fusion_lat": 0.0, "is_disabled": 0, "rental_uris": {"ios": "https://dc.lft.to/lastmile_qr_scan", "android": "https://dc.lft.to/lastmile_qr_scan"}, "bike_id": "8ac599d280dddada80263b04a1feecb9", "lat": 38.918750333333335, "name": "8ac599d280dddada80263b04a1feecb9", "lon": -77.03504816666667, "fusion_lon": 0.0}, {"is_reserved": 0, "type": "electric_scooter", "fusion_lat": 0.0, "is_disabled": 0, "rental_uris": {"ios": "https://dc.lft.to/lastmile_qr_scan", "android": "https://dc.lft.to/lastmile_qr_scan"}, "bike_id": "eb155aa4a23a758476bc5e3abd347b48", "lat": 38.935935, "name": "eb155aa4a23a758476bc5e3abd347b48", "lon": -77.03763883333333, "fusion_lon": 0.0}, {"is_reserved": 0, "type": "electric_scooter", "fusion_lat": 0.0, "is_disabled": 0, "rental_uris": {"ios": "https://dc.lft.to/lastmile_qr_scan", "android": "https://dc.lft.to/lastmile_qr_scan"}, "bike_id": "49932106b7e8921fd3e10b1b4f3717df", "lat": 38.91649, "name": "49932106b7e8921fd3e10b1b4f3717df", "lon": -77.010223, "fusion_lon": 0.0}, {"is_reserved": 0, "type": "electric_scooter", "fusion_lat": 0.0, "is_disabled": 0, "rental_uris": {"ios": "https://dc.lft.to/lastmile_qr_scan", "android": "https://dc.lft.to/lastmile_qr_scan"}, "bike_id": "0b5fccdf3399c85d09e3d728963ce0dc", "lat": 38.896446833333336, "name": "0b5fccdf3399c85d09e3d728963ce0dc", "lon": -77.02846466666666, "fusion_lon": 0.0}, {"is_reserved": 0, "type": "electric_scooter", "fusion_lat": 0.0, "is_disabled": 0, "rental_uris": {"ios": "https://dc.lft.to/lastmile_qr_scan", "android": "https://dc.lft.to/lastmile_qr_scan"}, "bike_id": "36b2b561f2d2326a1b17228aa1e8e506", "lat": 38.921576333333334, "name": "36b2b561f2d2326a1b17228aa1e8e506", "lon": -77.03387783333334, "fusion_lon": 0.0}, {"is_reserved": 0, "type": "electric_scooter", "fusion_lat": 0.0, "is_disabled": 0, "rental_uris": {"ios": "https://dc.lft.to/lastmile_qr_scan", "android": "https://dc.lft.to/lastmile_qr_scan"}, "bike_id": "6afef6a0ee26053a188763fa8b24f5a1", "lat": 38.944858833333335, "name": "6afef6a0ee26053a188763fa8b24f5a1", "lon": -77.095065, "fusion_lon": 0.0}, {"is_reserved": 0, "type": "electric_scooter", "fusion_lat": 0.0, "is_disabled": 0, "rental_uris": {"ios": "https://dc.lft.to/lastmile_qr_scan", "android": "https://dc.lft.to/lastmile_qr_scan"}, "bike_id": "8fb57f48977a520d5f18be492c7eefdb", "lat": 38.89832916666667, "name": "8fb57f48977a520d5f18be492c7eefdb", "lon": -76.93005933333333, "fusion_lon": 0.0}, {"is_reserved": 0, "type": "electric_scooter", "fusion_lat": 0.0, "is_disabled": 0, "rental_uris": {"ios": "https://dc.lft.to/lastmile_qr_scan", "android": "https://dc.lft.to/lastmile_qr_scan"}, "bike_id": "0c19a9ac1511417e1ba7e53c16d67020", "lat": 38.8922735, "name": "0c19a9ac1511417e1ba7e53c16d67020", "lon": -77.04641216666667, "fusion_lon": 0.0}, {"is_reserved": 0, "type": "electric_bike", "fusion_lat": 0.0, "is_disabled": 0, "rental_uris": {"ios": "https://dc.lft.to/lastmile_qr_scan", "android": "https://dc.lft.to/lastmile_qr_scan"}, "bike_id": "f732b4976a118c9a10440d8191e33719", "lat": 38.883061166666664, "name": "f732b4976a118c9a10440d8191e33719", "lon": -77.00208733333334, "fusion_lon": 0.0}, {"is_reserved": 0, "type": "electric_scooter", "fusion_lat": 0.0, "is_disabled": 0, "rental_uris": {"ios": "https://dc.lft.to/lastmile_qr_scan", "android": "https://dc.lft.to/lastmile_qr_scan"}, "bike_id": "44e6446f922777f0f094f3f5e55a9438", "lat": 38.9221385, "name": "44e6446f922777f0f094f3f5e55a9438", "lon": -77.04239783333334, "fusion_lon": 0.0}, {"is_reserved": 0, "type": "electric_scooter", "fusion_lat": 0.0, "is_disabled": 0, "rental_uris": {"ios": "https://dc.lft.to/lastmile_qr_scan", "android": "https://dc.lft.to/lastmile_qr_scan"}, "bike_id": "6d8f43cb93a56ef5b1051e92945ad432", "lat": 38.897766, "name": "6d8f43cb93a56ef5b1051e92945ad432", "lon": -77.047831, "fusion_lon": 0.0}, {"is_reserved": 0, "type": "electric_bike", "fusion_lat": 0.0, "is_disabled": 0, "rental_uris": {"ios": "https://dc.lft.to/lastmile_qr_scan", "android": "https://dc.lft.to/lastmile_qr_scan"}, "bike_id": "1a6ac6a561112affcb7baea57ed20b92", "lat": 38.80983883333333, "name": "1a6ac6a561112affcb7baea57ed20b92", "lon": -77.07660783333333, "fusion_lon": 0.0}, {"is_reserved": 0, "type": "electric_bike", "fusion_lat": 0.0, "is_disabled": 0, "rental_uris": {"ios": "https://dc.lft.to/lastmile_qr_scan", "android": "https://dc.lft.to/lastmile_qr_scan"}, "bike_id": "b68f7ae212f154fb72a28369149d54b5", "lat": 38.920276, "name": "b68f7ae212f154fb72a28369149d54b5", "lon": -77.0033525, "fusion_lon": 0.0}, {"is_reserved": 0, "type": "electric_scooter", "fusion_lat": 0.0, "is_disabled": 0, "rental_uris": {"ios": "https://dc.lft.to/lastmile_qr_scan", "android": "https://dc.lft.to/lastmile_qr_scan"}, "bike_id": "df653662b55681cef343db6f5bc5e7ac", "lat": 38.92667383333333, "name": "df653662b55681cef343db6f5bc5e7ac", "lon": -76.99541066666667, "fusion_lon": 0.0}, {"is_reserved": 0, "type": "electric_scooter", "fusion_lat": 0.0, "is_disabled": 0, "rental_uris": {"ios": "https://dc.lft.to/lastmile_qr_scan", "android": "https://dc.lft.to/lastmile_qr_scan"}, "bike_id": "60d6a69edd1db5cea04184d5dd75e9d5", "lat": 38.894429333333335, "name": "60d6a69edd1db5cea04184d5dd75e9d5", "lon": -76.98082533333333, "fusion_lon": 0.0}, {"is_reserved": 0, "type": "electric_scooter", "fusion_lat": 0.0, "is_disabled": 0, "rental_uris": {"ios": "https://dc.lft.to/lastmile_qr_scan", "android": "https://dc.lft.to/lastmile_qr_scan"}, "bike_id": "f826ab343f67dc900cbd0f36b6a646bf", "lat": 38.90730083333333, "name": "f826ab343f67dc900cbd0f36b6a646bf", "lon": -77.00762616666667, "fusion_lon": 0.0}, {"is_reserved": 0, "type": "electric_scooter", "fusion_lat": 0.0, "is_disabled": 0, "rental_uris": {"ios": "https://dc.lft.to/lastmile_qr_scan", "android": "https://dc.lft.to/lastmile_qr_scan"}, "bike_id": "b4df922a999449e8e00b3e4071af8aa9", "lat": 38.92830983333333, "name": "b4df922a999449e8e00b3e4071af8aa9", "lon": -77.03706333333334, "fusion_lon": 0.0}, {"is_reserved": 0, "type": "electric_scooter", "fusion_lat": 0.0, "is_disabled": 0, "rental_uris": {"ios": "https://dc.lft.to/lastmile_qr_scan", "android": "https://dc.lft.to/lastmile_qr_scan"}, "bike_id": "af64fe345f274995afa68bbd1f12388e", "lat": 38.9049, "name": "af64fe345f274995afa68bbd1f12388e", "lon": -77.02814516666666, "fusion_lon": 0.0}, {"is_reserved": 0, "type": "electric_scooter", "fusion_lat": 0.0, "is_disabled": 0, "rental_uris": {"ios": "https://dc.lft.to/lastmile_qr_scan", "android": "https://dc.lft.to/lastmile_qr_scan"}, "bike_id": "844616b01d8b66369ded0f302962bd56", "lat": 38.876335166666664, "name": "844616b01d8b66369ded0f302962bd56", "lon": -77.00965466666666, "fusion_lon": 0.0}, {"is_reserved": 0, "type": "electric_scooter", "fusion_lat": 0.0, "is_disabled": 0, "rental_uris": {"ios": "https://dc.lft.to/lastmile_qr_scan", "android": "https://dc.lft.to/lastmile_qr_scan"}, "bike_id": "e055820a5a3d90bc77f72e5f12d814af", "lat": 38.898591333333336, "name": "e055820a5a3d90bc77f72e5f12d814af", "lon": -77.03921866666667, "fusion_lon": 0.0}, {"is_reserved": 0, "type": "electric_scooter", "fusion_lat": 0.0, "is_disabled": 0, "rental_uris": {"ios": "https://dc.lft.to/lastmile_qr_scan", "android": "https://dc.lft.to/lastmile_qr_scan"}, "bike_id": "df425420a399562134996984201088f8", "lat": 38.90608683333333, "name": "df425420a399562134996984201088f8", "lon": -77.021095, "fusion_lon": 0.0}, {"is_reserved": 0, "type": "electric_scooter", "fusion_lat": 0.0, "is_disabled": 0, "rental_uris": {"ios": "https://dc.lft.to/lastmile_qr_scan", "android": "https://dc.lft.to/lastmile_qr_scan"}, "bike_id": "abcfd82b77f9e210a909dc92b982aeff", "lat": 38.914722, "name": "abcfd82b77f9e210a909dc92b982aeff", "lon": -77.00216633333334, "fusion_lon": 0.0}, {"is_reserved": 0, "type": "electric_scooter", "fusion_lat": 0.0, "is_disabled": 0, "rental_uris": {"ios": "https://dc.lft.to/lastmile_qr_scan", "android": "https://dc.lft.to/lastmile_qr_scan"}, "bike_id": "d5d7fc75a2d25d6d8f97ee998edd666e", "lat": 38.8866225, "name": "d5d7fc75a2d25d6d8f97ee998edd666e", "lon": -76.985646, "fusion_lon": 0.0}, {"is_reserved": 0, "type": "electric_scooter", "fusion_lat": 0.0, "is_disabled": 0, "rental_uris": {"ios": "https://dc.lft.to/lastmile_qr_scan", "android": "https://dc.lft.to/lastmile_qr_scan"}, "bike_id": "f24f6d9a0188514591976b65d41cbf61", "lat": 38.911088166666666, "name": "f24f6d9a0188514591976b65d41cbf61", "lon": -77.03847183333333, "fusion_lon": 0.0}, {"is_reserved": 0, "type": "electric_scooter", "fusion_lat": 0.0, "is_disabled": 0, "rental_uris": {"ios": "https://dc.lft.to/lastmile_qr_scan", "android": "https://dc.lft.to/lastmile_qr_scan"}, "bike_id": "aa98e8df2504ac43011c36c1d7cda03f", "lat": 38.85514516666667, "name": "aa98e8df2504ac43011c36c1d7cda03f", "lon": -76.991477, "fusion_lon": 0.0}, {"is_reserved": 0, "type": "electric_scooter", "fusion_lat": 0.0, "is_disabled": 0, "rental_uris": {"ios": "https://dc.lft.to/lastmile_qr_scan", "android": "https://dc.lft.to/lastmile_qr_scan"}, "bike_id": "b516f8b047afb0917f85f81a6936ce3e", "lat": 38.9228555, "name": "b516f8b047afb0917f85f81a6936ce3e", "lon": -77.01991533333333, "fusion_lon": 0.0}, {"is_reserved": 0, "type": "electric_scooter", "fusion_lat": 0.0, "is_disabled": 0, "rental_uris": {"ios": "https://dc.lft.to/lastmile_qr_scan", "android": "https://dc.lft.to/lastmile_qr_scan"}, "bike_id": "6642bb2df7b8254922823ca518c531ef", "lat": 38.894769833333335, "name": "6642bb2df7b8254922823ca518c531ef", "lon": -76.993621, "fusion_lon": 0.0}, {"is_reserved": 0, "type": "electric_scooter", "fusion_lat": 0.0, "is_disabled": 0, "rental_uris": {"ios": "https://dc.lft.to/lastmile_qr_scan", "android": "https://dc.lft.to/lastmile_qr_scan"}, "bike_id": "c712b8032e6f53c9cf1a8725552f2eeb", "lat": 38.881246, "name": "c712b8032e6f53c9cf1a8725552f2eeb", "lon": -76.99342666666666, "fusion_lon": 0.0}, {"is_reserved": 0, "type": "electric_scooter", "fusion_lat": 0.0, "is_disabled": 0, "rental_uris": {"ios": "https://dc.lft.to/lastmile_qr_scan", "android": "https://dc.lft.to/lastmile_qr_scan"}, "bike_id": "65d898afbac6a3aeb735e0d5349cb21b", "lat": 38.934181833333334, "name": "65d898afbac6a3aeb735e0d5349cb21b", "lon": -77.0440945, "fusion_lon": 0.0}, {"is_reserved": 0, "type": "electric_scooter", "fusion_lat": 0.0, "is_disabled": 0, "rental_uris": {"ios": "https://dc.lft.to/lastmile_qr_scan", "android": "https://dc.lft.to/lastmile_qr_scan"}, "bike_id": "72119195191350ad3e4d66867a511e33", "lat": 38.9020535, "name": "72119195191350ad3e4d66867a511e33", "lon": -77.02379866666666, "fusion_lon": 0.0}, {"is_reserved": 0, "type": "electric_scooter", "fusion_lat": 0.0, "is_disabled": 0, "rental_uris": {"ios": "https://dc.lft.to/lastmile_qr_scan", "android": "https://dc.lft.to/lastmile_qr_scan"}, "bike_id": "088bb56ab8ff94a02ce7dd3affd9bde8", "lat": 38.898338833333334, "name": "088bb56ab8ff94a02ce7dd3affd9bde8", "lon": -76.946363, "fusion_lon": 0.0}, {"is_reserved": 0, "type": "electric_scooter", "fusion_lat": 0.0, "is_disabled": 0, "rental_uris": {"ios": "https://dc.lft.to/lastmile_qr_scan", "android": "https://dc.lft.to/lastmile_qr_scan"}, "bike_id": "f2474ad6aaad25a9512067633ef85cb0", "lat": 38.92213233333333, "name": "f2474ad6aaad25a9512067633ef85cb0", "lon": -77.03296066666667, "fusion_lon": 0.0}, {"is_reserved": 0, "type": "electric_scooter", "fusion_lat": 0.0, "is_disabled": 0, "rental_uris": {"ios": "https://dc.lft.to/lastmile_qr_scan", "android": "https://dc.lft.to/lastmile_qr_scan"}, "bike_id": "f43a9838f63bf8236815ba7280e220fc", "lat": 38.92721, "name": "f43a9838f63bf8236815ba7280e220fc", "lon": -77.05994933333334, "fusion_lon": 0.0}, {"is_reserved": 0, "type": "electric_scooter", "fusion_lat": 0.0, "is_disabled": 0, "rental_uris": {"ios": "https://dc.lft.to/lastmile_qr_scan", "android": "https://dc.lft.to/lastmile_qr_scan"}, "bike_id": "006d0905acdbcfee8ac44f37fb579e99", "lat": 38.890411666666665, "name": "006d0905acdbcfee8ac44f37fb579e99", "lon": -76.98837516666667, "fusion_lon": 0.0}, {"is_reserved": 0, "type": "electric_scooter", "fusion_lat": 0.0, "is_disabled": 0, "rental_uris": {"ios": "https://dc.lft.to/lastmile_qr_scan", "android": "https://dc.lft.to/lastmile_qr_scan"}, "bike_id": "b7b53bb8dc3bc440bd00795019f81a8d", "lat": 38.93882883333333, "name": "b7b53bb8dc3bc440bd00795019f81a8d", "lon": -77.02832983333333, "fusion_lon": 0.0}, {"is_reserved": 0, "type": "electric_scooter", "fusion_lat": 0.0, "is_disabled": 0, "rental_uris": {"ios": "https://dc.lft.to/lastmile_qr_scan", "android": "https://dc.lft.to/lastmile_qr_scan"}, "bike_id": "7704cd0dfa53dfbb0d47d91c9a92b348", "lat": 38.906691, "name": "7704cd0dfa53dfbb0d47d91c9a92b348", "lon": -77.00923383333334, "fusion_lon": 0.0}, {"is_reserved": 0, "type": "electric_scooter", "fusion_lat": 0.0, "is_disabled": 0, "rental_uris": {"ios": "https://dc.lft.to/lastmile_qr_scan", "android": "https://dc.lft.to/lastmile_qr_scan"}, "bike_id": "df66a82ac40b45d793ab0e8889d1bbad", "lat": 38.90892933333333, "name": "df66a82ac40b45d793ab0e8889d1bbad", "lon": -77.044983, "fusion_lon": 0.0}, {"is_reserved": 0, "type": "electric_bike", "fusion_lat": 0.0, "is_disabled": 0, "rental_uris": {"ios": "https://dc.lft.to/lastmile_qr_scan", "android": "https://dc.lft.to/lastmile_qr_scan"}, "bike_id": "a8a5e50a7fce319683cf8e8f0d87059c", "lat": 38.9564105, "name": "a8a5e50a7fce319683cf8e8f0d87059c", "lon": -76.93876716666666, "fusion_lon": 0.0}, {"is_reserved": 0, "type": "electric_bike", "fusion_lat": 0.0, "is_disabled": 0, "rental_uris": {"ios": "https://dc.lft.to/lastmile_qr_scan", "android": "https://dc.lft.to/lastmile_qr_scan"}, "bike_id": "4aa37d914563b6e51ee4985dc4833cf8", "lat": 38.858001, "name": "4aa37d914563b6e51ee4985dc4833cf8", "lon": -76.98751483333334, "fusion_lon": 0.0}, {"is_reserved": 0, "type": "electric_bike", "fusion_lat": 0.0, "is_disabled": 0, "rental_uris": {"ios": "https://dc.lft.to/lastmile_qr_scan", "android": "https://dc.lft.to/lastmile_qr_scan"}, "bike_id": "e14bf02e62332d592f4dcb891240a011", "lat": 39.026224666666664, "name": "e14bf02e62332d592f4dcb891240a011", "lon": -77.038779, "fusion_lon": 0.0}, {"is_reserved": 0, "type": "electric_scooter", "fusion_lat": 0.0, "is_disabled": 0, "rental_uris": {"ios": "https://dc.lft.to/lastmile_qr_scan", "android": "https://dc.lft.to/lastmile_qr_scan"}, "bike_id": "b7b8b7b0541e4c86f3a19f32b7281754", "lat": 38.935158333333334, "name": "b7b8b7b0541e4c86f3a19f32b7281754", "lon": -77.03666616666666, "fusion_lon": 0.0}, {"is_reserved": 0, "type": "electric_scooter", "fusion_lat": 0.0, "is_disabled": 0, "rental_uris": {"ios": "https://dc.lft.to/lastmile_qr_scan", "android": "https://dc.lft.to/lastmile_qr_scan"}, "bike_id": "fab59d8d932975698671e66d40bd21da", "lat": 38.91955516666667, "name": "fab59d8d932975698671e66d40bd21da", "lon": -77.079839, "fusion_lon": 0.0}, {"is_reserved": 0, "type": "electric_scooter", "fusion_lat": 0.0, "is_disabled": 0, "rental_uris": {"ios": "https://dc.lft.to/lastmile_qr_scan", "android": "https://dc.lft.to/lastmile_qr_scan"}, "bike_id": "b2faa23b8905a66eb735c48580d57c6f", "lat": 38.932316, "name": "b2faa23b8905a66eb735c48580d57c6f", "lon": -77.02960483333334, "fusion_lon": 0.0}, {"is_reserved": 0, "type": "electric_scooter", "fusion_lat": 0.0, "is_disabled": 0, "rental_uris": {"ios": "https://dc.lft.to/lastmile_qr_scan", "android": "https://dc.lft.to/lastmile_qr_scan"}, "bike_id": "f7bf556bac4d08d8b81981d545990b2b", "lat": 38.9247015, "name": "f7bf556bac4d08d8b81981d545990b2b", "lon": -77.0222175, "fusion_lon": 0.0}, {"is_reserved": 0, "type": "electric_scooter", "fusion_lat": 0.0, "is_disabled": 0, "rental_uris": {"ios": "https://dc.lft.to/lastmile_qr_scan", "android": "https://dc.lft.to/lastmile_qr_scan"}, "bike_id": "e876ae599cb3c86b8f9b521129a8e6df", "lat": 38.88710583333334, "name": "e876ae599cb3c86b8f9b521129a8e6df", "lon": -76.98339133333333, "fusion_lon": 0.0}, {"is_reserved": 0, "type": "electric_scooter", "fusion_lat": 0.0, "is_disabled": 0, "rental_uris": {"ios": "https://dc.lft.to/lastmile_qr_scan", "android": "https://dc.lft.to/lastmile_qr_scan"}, "bike_id": "3158fddef9f458742f66508e9959e962", "lat": 38.9289545, "name": "3158fddef9f458742f66508e9959e962", "lon": -77.02742283333333, "fusion_lon": 0.0}, {"is_reserved": 0, "type": "electric_scooter", "fusion_lat": 0.0, "is_disabled": 0, "rental_uris": {"ios": "https://dc.lft.to/lastmile_qr_scan", "android": "https://dc.lft.to/lastmile_qr_scan"}, "bike_id": "57cc332597cdc71ec7197d17b913f5eb", "lat": 38.90121, "name": "57cc332597cdc71ec7197d17b913f5eb", "lon": -76.9950345, "fusion_lon": 0.0}, {"is_reserved": 0, "type": "electric_scooter", "fusion_lat": 0.0, "is_disabled": 0, "rental_uris": {"ios": "https://dc.lft.to/lastmile_qr_scan", "android": "https://dc.lft.to/lastmile_qr_scan"}, "bike_id": "cb43c98bea0cd82bc53224fec8d1f51f", "lat": 38.925934833333336, "name": "cb43c98bea0cd82bc53224fec8d1f51f", "lon": -77.02503783333333, "fusion_lon": 0.0}, {"is_reserved": 0, "type": "electric_scooter", "fusion_lat": 0.0, "is_disabled": 0, "rental_uris": {"ios": "https://dc.lft.to/lastmile_qr_scan", "android": "https://dc.lft.to/lastmile_qr_scan"}, "bike_id": "d9d4a5d1ff52b0f8e17112b22e39b102", "lat": 38.885782166666665, "name": "d9d4a5d1ff52b0f8e17112b22e39b102", "lon": -77.01212933333333, "fusion_lon": 0.0}, {"is_reserved": 0, "type": "electric_bike", "fusion_lat": 0.0, "is_disabled": 0, "rental_uris": {"ios": "https://dc.lft.to/lastmile_qr_scan", "android": "https://dc.lft.to/lastmile_qr_scan"}, "bike_id": "c9da7fdfea41b4d06d89f48287491597", "lat": 38.846161333333335, "name": "c9da7fdfea41b4d06d89f48287491597", "lon": -76.97840733333334, "fusion_lon": 0.0}, {"is_reserved": 0, "type": "electric_scooter", "fusion_lat": 0.0, "is_disabled": 0, "rental_uris": {"ios": "https://dc.lft.to/lastmile_qr_scan", "android": "https://dc.lft.to/lastmile_qr_scan"}, "bike_id": "e0b9ea2363248a8b99f51cafd5650ec1", "lat": 38.915599666666665, "name": "e0b9ea2363248a8b99f51cafd5650ec1", "lon": -77.03256966666666, "fusion_lon": 0.0}, {"is_reserved": 0, "type": "electric_scooter", "fusion_lat": 0.0, "is_disabled": 0, "rental_uris": {"ios": "https://dc.lft.to/lastmile_qr_scan", "android": "https://dc.lft.to/lastmile_qr_scan"}, "bike_id": "a68d0638de7f8f8d072bcfeb15901c9d", "lat": 38.90358766666667, "name": "a68d0638de7f8f8d072bcfeb15901c9d", "lon": -77.04034283333333, "fusion_lon": 0.0}, {"is_reserved": 0, "type": "electric_scooter", "fusion_lat": 0.0, "is_disabled": 0, "rental_uris": {"ios": "https://dc.lft.to/lastmile_qr_scan", "android": "https://dc.lft.to/lastmile_qr_scan"}, "bike_id": "8112b1939f6cd33583b7887d30c3b6b4", "lat": 38.91559216666667, "name": "8112b1939f6cd33583b7887d30c3b6b4", "lon": -76.9850465, "fusion_lon": 0.0}, {"is_reserved": 0, "type": "electric_scooter", "fusion_lat": 0.0, "is_disabled": 0, "rental_uris": {"ios": "https://dc.lft.to/lastmile_qr_scan", "android": "https://dc.lft.to/lastmile_qr_scan"}, "bike_id": "cc74fe606c7f6afd486008a8e6de4ad7", "lat": 38.90819616666667, "name": "cc74fe606c7f6afd486008a8e6de4ad7", "lon": -77.08433433333333, "fusion_lon": 0.0}, {"is_reserved": 0, "type": "electric_scooter", "fusion_lat": 0.0, "is_disabled": 0, "rental_uris": {"ios": "https://dc.lft.to/lastmile_qr_scan", "android": "https://dc.lft.to/lastmile_qr_scan"}, "bike_id": "7944a53d916bd27552fa50f89feec872", "lat": 38.90865133333333, "name": "7944a53d916bd27552fa50f89feec872", "lon": -77.02671, "fusion_lon": 0.0}, {"is_reserved": 0, "type": "electric_scooter", "fusion_lat": 0.0, "is_disabled": 0, "rental_uris": {"ios": "https://dc.lft.to/lastmile_qr_scan", "android": "https://dc.lft.to/lastmile_qr_scan"}, "bike_id": "3be7426dd20af82a274908d36e0fee2f", "lat": 38.89947266666667, "name": "3be7426dd20af82a274908d36e0fee2f", "lon": -77.0145045, "fusion_lon": 0.0}, {"is_reserved": 0, "type": "electric_scooter", "fusion_lat": 0.0, "is_disabled": 0, "rental_uris": {"ios": "https://dc.lft.to/lastmile_qr_scan", "android": "https://dc.lft.to/lastmile_qr_scan"}, "bike_id": "c44f8136170f4c6481215e999458dfb3", "lat": 38.90416416666667, "name": "c44f8136170f4c6481215e999458dfb3", "lon": -76.98536716666666, "fusion_lon": 0.0}, {"is_reserved": 0, "type": "electric_scooter", "fusion_lat": 0.0, "is_disabled": 0, "rental_uris": {"ios": "https://dc.lft.to/lastmile_qr_scan", "android": "https://dc.lft.to/lastmile_qr_scan"}, "bike_id": "b88310f2b60af52d49308f051c33b800", "lat": 38.949881166666664, "name": "b88310f2b60af52d49308f051c33b800", "lon": -77.0244935, "fusion_lon": 0.0}, {"is_reserved": 0, "type": "electric_scooter", "fusion_lat": 0.0, "is_disabled": 0, "rental_uris": {"ios": "https://dc.lft.to/lastmile_qr_scan", "android": "https://dc.lft.to/lastmile_qr_scan"}, "bike_id": "9d7bb5a51206d67f9c32c15759639af8", "lat": 38.899854, "name": "9d7bb5a51206d67f9c32c15759639af8", "lon": -77.0472405, "fusion_lon": 0.0}, {"is_reserved": 0, "type": "electric_scooter", "fusion_lat": 0.0, "is_disabled": 0, "rental_uris": {"ios": "https://dc.lft.to/lastmile_qr_scan", "android": "https://dc.lft.to/lastmile_qr_scan"}, "bike_id": "3df0dea4577809762f4f3206c297f786", "lat": 38.91487133333333, "name": "3df0dea4577809762f4f3206c297f786", "lon": -77.04089016666667, "fusion_lon": 0.0}, {"is_reserved": 0, "type": "electric_scooter", "fusion_lat": 0.0, "is_disabled": 0, "rental_uris": {"ios": "https://dc.lft.to/lastmile_qr_scan", "android": "https://dc.lft.to/lastmile_qr_scan"}, "bike_id": "a6c22aac81bf60dd948678d06c293004", "lat": 38.905794, "name": "a6c22aac81bf60dd948678d06c293004", "lon": -77.06286116666666, "fusion_lon": 0.0}, {"is_reserved": 0, "type": "electric_bike", "fusion_lat": 0.0, "is_disabled": 0, "rental_uris": {"ios": "https://dc.lft.to/lastmile_qr_scan", "android": "https://dc.lft.to/lastmile_qr_scan"}, "bike_id": "7b568563b1ef37021a21ec4740a28606", "lat": 38.99100383333333, "name": "7b568563b1ef37021a21ec4740a28606", "lon": -76.99375983333333, "fusion_lon": 0.0}, {"is_reserved": 0, "type": "electric_scooter", "fusion_lat": 0.0, "is_disabled": 0, "rental_uris": {"ios": "https://dc.lft.to/lastmile_qr_scan", "android": "https://dc.lft.to/lastmile_qr_scan"}, "bike_id": "b688cd5e87dcf09fe126e3aa3dc7c71e", "lat": 38.9247055, "name": "b688cd5e87dcf09fe126e3aa3dc7c71e", "lon": -77.03791, "fusion_lon": 0.0}, {"is_reserved": 0, "type": "electric_bike", "fusion_lat": 0.0, "is_disabled": 0, "rental_uris": {"ios": "https://dc.lft.to/lastmile_qr_scan", "android": "https://dc.lft.to/lastmile_qr_scan"}, "bike_id": "d8e227acb2dd4ed5cd86c42e0b50198b", "lat": 38.85450766666666, "name": "d8e227acb2dd4ed5cd86c42e0b50198b", "lon": -76.97239583333334, "fusion_lon": 0.0}, {"is_reserved": 0, "type": "electric_bike", "fusion_lat": 0.0, "is_disabled": 0, "rental_uris": {"ios": "https://dc.lft.to/lastmile_qr_scan", "android": "https://dc.lft.to/lastmile_qr_scan"}, "bike_id": "a7f3a0de7747b4ce19a0bc903cc6946e", "lat": 38.866330833333336, "name": "a7f3a0de7747b4ce19a0bc903cc6946e", "lon": -76.99004666666667, "fusion_lon": 0.0}, {"is_reserved": 0, "type": "electric_scooter", "fusion_lat": 0.0, "is_disabled": 0, "rental_uris": {"ios": "https://dc.lft.to/lastmile_qr_scan", "android": "https://dc.lft.to/lastmile_qr_scan"}, "bike_id": "2a37222ec0a4fa7c637ea530979e0e31", "lat": 38.914288666666664, "name": "2a37222ec0a4fa7c637ea530979e0e31", "lon": -77.0228985, "fusion_lon": 0.0}, {"is_reserved": 0, "type": "electric_scooter", "fusion_lat": 0.0, "is_disabled": 0, "rental_uris": {"ios": "https://dc.lft.to/lastmile_qr_scan", "android": "https://dc.lft.to/lastmile_qr_scan"}, "bike_id": "5360370b6482a6b18b5ef4683a112179", "lat": 38.915677333333335, "name": "5360370b6482a6b18b5ef4683a112179", "lon": -77.0367835, "fusion_lon": 0.0}, {"is_reserved": 0, "type": "electric_scooter", "fusion_lat": 0.0, "is_disabled": 0, "rental_uris": {"ios": "https://dc.lft.to/lastmile_qr_scan", "android": "https://dc.lft.to/lastmile_qr_scan"}, "bike_id": "4b43c8577819dfcc62dab2db253ad436", "lat": 38.87919683333333, "name": "4b43c8577819dfcc62dab2db253ad436", "lon": -76.94477, "fusion_lon": 0.0}, {"is_reserved": 0, "type": "electric_scooter", "fusion_lat": 0.0, "is_disabled": 0, "rental_uris": {"ios": "https://dc.lft.to/lastmile_qr_scan", "android": "https://dc.lft.to/lastmile_qr_scan"}, "bike_id": "9a2ab5c00fbe9391300728b32dfee803", "lat": 38.8940045, "name": "9a2ab5c00fbe9391300728b32dfee803", "lon": -77.04997066666667, "fusion_lon": 0.0}, {"is_reserved": 0, "type": "electric_scooter", "fusion_lat": 0.0, "is_disabled": 0, "rental_uris": {"ios": "https://dc.lft.to/lastmile_qr_scan", "android": "https://dc.lft.to/lastmile_qr_scan"}, "bike_id": "6b95a7e9bd98633bc0ccac94853527d9", "lat": 38.907843, "name": "6b95a7e9bd98633bc0ccac94853527d9", "lon": -77.04513633333333, "fusion_lon": 0.0}, {"is_reserved": 0, "type": "electric_scooter", "fusion_lat": 0.0, "is_disabled": 0, "rental_uris": {"ios": "https://dc.lft.to/lastmile_qr_scan", "android": "https://dc.lft.to/lastmile_qr_scan"}, "bike_id": "9f39ea5ff6d782612ef8f2d4882fa15f", "lat": 38.9061495, "name": "9f39ea5ff6d782612ef8f2d4882fa15f", "lon": -76.9898375, "fusion_lon": 0.0}, {"is_reserved": 0, "type": "electric_scooter", "fusion_lat": 0.0, "is_disabled": 0, "rental_uris": {"ios": "https://dc.lft.to/lastmile_qr_scan", "android": "https://dc.lft.to/lastmile_qr_scan"}, "bike_id": "19ce2647befe5e6ad69a4c20c02e87b1", "lat": 38.9204435, "name": "19ce2647befe5e6ad69a4c20c02e87b1", "lon": -77.016783, "fusion_lon": 0.0}, {"is_reserved": 0, "type": "electric_scooter", "fusion_lat": 0.0, "is_disabled": 0, "rental_uris": {"ios": "https://dc.lft.to/lastmile_qr_scan", "android": "https://dc.lft.to/lastmile_qr_scan"}, "bike_id": "6dfad985f29570fc48eeba733d1f0a57", "lat": 38.892297166666665, "name": "6dfad985f29570fc48eeba733d1f0a57", "lon": -77.04642566666666, "fusion_lon": 0.0}, {"is_reserved": 0, "type": "electric_scooter", "fusion_lat": 0.0, "is_disabled": 0, "rental_uris": {"ios": "https://dc.lft.to/lastmile_qr_scan", "android": "https://dc.lft.to/lastmile_qr_scan"}, "bike_id": "909f913f1ac28e2053ed2fd59bf5a7e0", "lat": 38.921674, "name": "909f913f1ac28e2053ed2fd59bf5a7e0", "lon": -77.04008833333333, "fusion_lon": 0.0}, {"is_reserved": 0, "type": "electric_scooter", "fusion_lat": 0.0, "is_disabled": 0, "rental_uris": {"ios": "https://dc.lft.to/lastmile_qr_scan", "android": "https://dc.lft.to/lastmile_qr_scan"}, "bike_id": "faf29c6c257313aba9b5e767a5886978", "lat": 38.90478366666667, "name": "faf29c6c257313aba9b5e767a5886978", "lon": -77.053394, "fusion_lon": 0.0}, {"is_reserved": 0, "type": "electric_scooter", "fusion_lat": 0.0, "is_disabled": 0, "rental_uris": {"ios": "https://dc.lft.to/lastmile_qr_scan", "android": "https://dc.lft.to/lastmile_qr_scan"}, "bike_id": "17eeaf7891ad158d89c01b755b51456e", "lat": 38.898652166666665, "name": "17eeaf7891ad158d89c01b755b51456e", "lon": -77.03925566666666, "fusion_lon": 0.0}, {"is_reserved": 0, "type": "electric_scooter", "fusion_lat": 0.0, "is_disabled": 0, "rental_uris": {"ios": "https://dc.lft.to/lastmile_qr_scan", "android": "https://dc.lft.to/lastmile_qr_scan"}, "bike_id": "be528b1a161dd775f2b8b71ebc11dd48", "lat": 38.9240045, "name": "be528b1a161dd775f2b8b71ebc11dd48", "lon": -77.0201025, "fusion_lon": 0.0}, {"is_reserved": 0, "type": "electric_scooter", "fusion_lat": 0.0, "is_disabled": 0, "rental_uris": {"ios": "https://dc.lft.to/lastmile_qr_scan", "android": "https://dc.lft.to/lastmile_qr_scan"}, "bike_id": "ac228a39569a222661858923c454647e", "lat": 38.88512516666667, "name": "ac228a39569a222661858923c454647e", "lon": -76.9244285, "fusion_lon": 0.0}, {"is_reserved": 0, "type": "electric_scooter", "fusion_lat": 0.0, "is_disabled": 0, "rental_uris": {"ios": "https://dc.lft.to/lastmile_qr_scan", "android": "https://dc.lft.to/lastmile_qr_scan"}, "bike_id": "3cf146e1867251a6865741cc4e85a84c", "lat": 38.9025995, "name": "3cf146e1867251a6865741cc4e85a84c", "lon": -77.03460016666666, "fusion_lon": 0.0}, {"is_reserved": 0, "type": "electric_bike", "fusion_lat": 0.0, "is_disabled": 0, "rental_uris": {"ios": "https://dc.lft.to/lastmile_qr_scan", "android": "https://dc.lft.to/lastmile_qr_scan"}, "bike_id": "9bc9af2e846ead457435be65dddbb281", "lat": 38.89622883333333, "name": "9bc9af2e846ead457435be65dddbb281", "lon": -76.9075375, "fusion_lon": 0.0}, {"is_reserved": 0, "type": "electric_scooter", "fusion_lat": 0.0, "is_disabled": 0, "rental_uris": {"ios": "https://dc.lft.to/lastmile_qr_scan", "android": "https://dc.lft.to/lastmile_qr_scan"}, "bike_id": "3ce7fda0aa42a4ab20308e1fcfe85e03", "lat": 38.95754866666667, "name": "3ce7fda0aa42a4ab20308e1fcfe85e03", "lon": -77.0221015, "fusion_lon": 0.0}, {"is_reserved": 0, "type": "electric_scooter", "fusion_lat": 0.0, "is_disabled": 0, "rental_uris": {"ios": "https://dc.lft.to/lastmile_qr_scan", "android": "https://dc.lft.to/lastmile_qr_scan"}, "bike_id": "ddba3c744de27f5c212e853cc21bb894", "lat": 38.956595, "name": "ddba3c744de27f5c212e853cc21bb894", "lon": -77.0239085, "fusion_lon": 0.0}, {"is_reserved": 0, "type": "electric_scooter", "fusion_lat": 0.0, "is_disabled": 0, "rental_uris": {"ios": "https://dc.lft.to/lastmile_qr_scan", "android": "https://dc.lft.to/lastmile_qr_scan"}, "bike_id": "98a523e96bfd69c9875e426a0bda8a62", "lat": 38.9010345, "name": "98a523e96bfd69c9875e426a0bda8a62", "lon": -77.02304633333334, "fusion_lon": 0.0}, {"is_reserved": 0, "type": "electric_scooter", "fusion_lat": 0.0, "is_disabled": 0, "rental_uris": {"ios": "https://dc.lft.to/lastmile_qr_scan", "android": "https://dc.lft.to/lastmile_qr_scan"}, "bike_id": "839e5866e75a193efa6348999d7f1017", "lat": 38.885395333333335, "name": "839e5866e75a193efa6348999d7f1017", "lon": -76.98057783333333, "fusion_lon": 0.0}, {"is_reserved": 0, "type": "electric_scooter", "fusion_lat": 0.0, "is_disabled": 0, "rental_uris": {"ios": "https://dc.lft.to/lastmile_qr_scan", "android": "https://dc.lft.to/lastmile_qr_scan"}, "bike_id": "ba4aac848f825ac4beceb1f846b4e235", "lat": 38.919633166666664, "name": "ba4aac848f825ac4beceb1f846b4e235", "lon": -77.0407735, "fusion_lon": 0.0}, {"is_reserved": 0, "type": "electric_scooter", "fusion_lat": 0.0, "is_disabled": 0, "rental_uris": {"ios": "https://dc.lft.to/lastmile_qr_scan", "android": "https://dc.lft.to/lastmile_qr_scan"}, "bike_id": "918d4ef3e8fe56996d8a644c943800eb", "lat": 38.9223995, "name": "918d4ef3e8fe56996d8a644c943800eb", "lon": -77.036652, "fusion_lon": 0.0}, {"is_reserved": 0, "type": "electric_bike", "fusion_lat": 0.0, "is_disabled": 0, "rental_uris": {"ios": "https://dc.lft.to/lastmile_qr_scan", "android": "https://dc.lft.to/lastmile_qr_scan"}, "bike_id": "5a263043940f80833f083a5c2250b2c1", "lat": 38.83586566666666, "name": "5a263043940f80833f083a5c2250b2c1", "lon": -76.99017983333333, "fusion_lon": 0.0}, {"is_reserved": 0, "type": "electric_scooter", "fusion_lat": 0.0, "is_disabled": 0, "rental_uris": {"ios": "https://dc.lft.to/lastmile_qr_scan", "android": "https://dc.lft.to/lastmile_qr_scan"}, "bike_id": "704a6902fdd19a03265a10230402dee0", "lat": 38.905299, "name": "704a6902fdd19a03265a10230402dee0", "lon": -77.02925416666666, "fusion_lon": 0.0}, {"is_reserved": 0, "type": "electric_scooter", "fusion_lat": 0.0, "is_disabled": 0, "rental_uris": {"ios": "https://dc.lft.to/lastmile_qr_scan", "android": "https://dc.lft.to/lastmile_qr_scan"}, "bike_id": "1ebc075ab4912f544d8607133cb69eb0", "lat": 38.896538166666666, "name": "1ebc075ab4912f544d8607133cb69eb0", "lon": -77.04334366666667, "fusion_lon": 0.0}, {"is_reserved": 0, "type": "electric_scooter", "fusion_lat": 0.0, "is_disabled": 0, "rental_uris": {"ios": "https://dc.lft.to/lastmile_qr_scan", "android": "https://dc.lft.to/lastmile_qr_scan"}, "bike_id": "a321621c2d475b9bce8a86d2bd82a9ab", "lat": 38.91045716666667, "name": "a321621c2d475b9bce8a86d2bd82a9ab", "lon": -76.9980645, "fusion_lon": 0.0}, {"is_reserved": 0, "type": "electric_scooter", "fusion_lat": 0.0, "is_disabled": 0, "rental_uris": {"ios": "https://dc.lft.to/lastmile_qr_scan", "android": "https://dc.lft.to/lastmile_qr_scan"}, "bike_id": "1b0028d1292e40c7de01ef7a7ed2739d", "lat": 38.89857816666667, "name": "1b0028d1292e40c7de01ef7a7ed2739d", "lon": -77.023005, "fusion_lon": 0.0}, {"is_reserved": 0, "type": "electric_scooter", "fusion_lat": 0.0, "is_disabled": 0, "rental_uris": {"ios": "https://dc.lft.to/lastmile_qr_scan", "android": "https://dc.lft.to/lastmile_qr_scan"}, "bike_id": "56e98b96188f806958d5326e8895edc7", "lat": 38.92740533333333, "name": "56e98b96188f806958d5326e8895edc7", "lon": -77.02144483333333, "fusion_lon": 0.0}, {"is_reserved": 0, "type": "electric_scooter", "fusion_lat": 0.0, "is_disabled": 0, "rental_uris": {"ios": "https://dc.lft.to/lastmile_qr_scan", "android": "https://dc.lft.to/lastmile_qr_scan"}, "bike_id": "3d5a425b710a4f49b1637d73c87ce935", "lat": 38.914845, "name": "3d5a425b710a4f49b1637d73c87ce935", "lon": -77.021927, "fusion_lon": 0.0}, {"is_reserved": 0, "type": "electric_scooter", "fusion_lat": 0.0, "is_disabled": 0, "rental_uris": {"ios": "https://dc.lft.to/lastmile_qr_scan", "android": "https://dc.lft.to/lastmile_qr_scan"}, "bike_id": "425c55dee9039cbc1d89bfc1328a909a", "lat": 38.92111233333333, "name": "425c55dee9039cbc1d89bfc1328a909a", "lon": -77.01770166666667, "fusion_lon": 0.0}, {"is_reserved": 0, "type": "electric_scooter", "fusion_lat": 0.0, "is_disabled": 0, "rental_uris": {"ios": "https://dc.lft.to/lastmile_qr_scan", "android": "https://dc.lft.to/lastmile_qr_scan"}, "bike_id": "e6c3756b46501874796a419ebc864c2c", "lat": 38.9096745, "name": "e6c3756b46501874796a419ebc864c2c", "lon": -77.02277233333334, "fusion_lon": 0.0}, {"is_reserved": 0, "type": "electric_scooter", "fusion_lat": 0.0, "is_disabled": 0, "rental_uris": {"ios": "https://dc.lft.to/lastmile_qr_scan", "android": "https://dc.lft.to/lastmile_qr_scan"}, "bike_id": "45f7d3d4d7a5dc9f6d8df65e3586428c", "lat": 38.920626166666665, "name": "45f7d3d4d7a5dc9f6d8df65e3586428c", "lon": -77.03460883333334, "fusion_lon": 0.0}, {"is_reserved": 0, "type": "electric_scooter", "fusion_lat": 0.0, "is_disabled": 0, "rental_uris": {"ios": "https://dc.lft.to/lastmile_qr_scan", "android": "https://dc.lft.to/lastmile_qr_scan"}, "bike_id": "5a4f8e81b523e0246324089d62ee0d6f", "lat": 38.938579833333336, "name": "5a4f8e81b523e0246324089d62ee0d6f", "lon": -77.07824183333334, "fusion_lon": 0.0}, {"is_reserved": 0, "type": "electric_scooter", "fusion_lat": 0.0, "is_disabled": 0, "rental_uris": {"ios": "https://dc.lft.to/lastmile_qr_scan", "android": "https://dc.lft.to/lastmile_qr_scan"}, "bike_id": "a1fe687259e246ed3b4221006c4031fd", "lat": 38.892211833333334, "name": "a1fe687259e246ed3b4221006c4031fd", "lon": -77.04367833333333, "fusion_lon": 0.0}, {"is_reserved": 0, "type": "electric_scooter", "fusion_lat": 0.0, "is_disabled": 0, "rental_uris": {"ios": "https://dc.lft.to/lastmile_qr_scan", "android": "https://dc.lft.to/lastmile_qr_scan"}, "bike_id": "1cf7fd6941d33d3a2a05d0f3fffde55e", "lat": 38.933845166666664, "name": "1cf7fd6941d33d3a2a05d0f3fffde55e", "lon": -77.0738545, "fusion_lon": 0.0}, {"is_reserved": 0, "type": "electric_scooter", "fusion_lat": 0.0, "is_disabled": 0, "rental_uris": {"ios": "https://dc.lft.to/lastmile_qr_scan", "android": "https://dc.lft.to/lastmile_qr_scan"}, "bike_id": "8e739a62685655b2c801e1265ce94885", "lat": 38.92230416666666, "name": "8e739a62685655b2c801e1265ce94885", "lon": -76.9753325, "fusion_lon": 0.0}, {"is_reserved": 0, "type": "electric_scooter", "fusion_lat": 0.0, "is_disabled": 0, "rental_uris": {"ios": "https://dc.lft.to/lastmile_qr_scan", "android": "https://dc.lft.to/lastmile_qr_scan"}, "bike_id": "6339abcef6916632a21bae0dfc2d9054", "lat": 38.90690283333333, "name": "6339abcef6916632a21bae0dfc2d9054", "lon": -77.04886183333333, "fusion_lon": 0.0}, {"is_reserved": 0, "type": "electric_scooter", "fusion_lat": 0.0, "is_disabled": 0, "rental_uris": {"ios": "https://dc.lft.to/lastmile_qr_scan", "android": "https://dc.lft.to/lastmile_qr_scan"}, "bike_id": "22ae797168cda7b5d311221269e3b68a", "lat": 38.926700333333336, "name": "22ae797168cda7b5d311221269e3b68a", "lon": -77.0271965, "fusion_lon": 0.0}, {"is_reserved": 0, "type": "electric_scooter", "fusion_lat": 0.0, "is_disabled": 0, "rental_uris": {"ios": "https://dc.lft.to/lastmile_qr_scan", "android": "https://dc.lft.to/lastmile_qr_scan"}, "bike_id": "996b31131f1462a5a56e933c5c15f83b", "lat": 38.900645, "name": "996b31131f1462a5a56e933c5c15f83b", "lon": -77.04352016666667, "fusion_lon": 0.0}, {"is_reserved": 0, "type": "electric_scooter", "fusion_lat": 0.0, "is_disabled": 0, "rental_uris": {"ios": "https://dc.lft.to/lastmile_qr_scan", "android": "https://dc.lft.to/lastmile_qr_scan"}, "bike_id": "d9995c02bc09b9e03d8c3487879b9b93", "lat": 38.921609333333336, "name": "d9995c02bc09b9e03d8c3487879b9b93", "lon": -77.04353283333333, "fusion_lon": 0.0}, {"is_reserved": 0, "type": "electric_bike", "fusion_lat": 0.0, "is_disabled": 0, "rental_uris": {"ios": "https://dc.lft.to/lastmile_qr_scan", "android": "https://dc.lft.to/lastmile_qr_scan"}, "bike_id": "00766ebd16a6303ff07e6e7463a66a44", "lat": 38.871799333333335, "name": "00766ebd16a6303ff07e6e7463a66a44", "lon": -77.2339605, "fusion_lon": 0.0}, {"is_reserved": 0, "type": "electric_bike", "fusion_lat": 0.0, "is_disabled": 0, "rental_uris": {"ios": "https://dc.lft.to/lastmile_qr_scan", "android": "https://dc.lft.to/lastmile_qr_scan"}, "bike_id": "a6b608fff252e2c69676d4fc497ddb46", "lat": 38.8073945, "name": "a6b608fff252e2c69676d4fc497ddb46", "lon": -77.0968395, "fusion_lon": 0.0}, {"is_reserved": 0, "type": "electric_bike", "fusion_lat": 0.0, "is_disabled": 0, "rental_uris": {"ios": "https://dc.lft.to/lastmile_qr_scan", "android": "https://dc.lft.to/lastmile_qr_scan"}, "bike_id": "0600c739db4f086f1cd9dda7de886b66", "lat": 39.00003916666667, "name": "0600c739db4f086f1cd9dda7de886b66", "lon": -76.9180695, "fusion_lon": 0.0}, {"is_reserved": 0, "type": "electric_scooter", "fusion_lat": 0.0, "is_disabled": 0, "rental_uris": {"ios": "https://dc.lft.to/lastmile_qr_scan", "android": "https://dc.lft.to/lastmile_qr_scan"}, "bike_id": "02e224b762f3b616c2366e13c1ce1d5e", "lat": 38.90602, "name": "02e224b762f3b616c2366e13c1ce1d5e", "lon": -77.05836183333334, "fusion_lon": 0.0}, {"is_reserved": 0, "type": "electric_scooter", "fusion_lat": 0.0, "is_disabled": 0, "rental_uris": {"ios": "https://dc.lft.to/lastmile_qr_scan", "android": "https://dc.lft.to/lastmile_qr_scan"}, "bike_id": "cab128952bc5eda8f1f55828a914198a", "lat": 38.91443433333333, "name": "cab128952bc5eda8f1f55828a914198a", "lon": -77.00356283333333, "fusion_lon": 0.0}, {"is_reserved": 0, "type": "electric_bike", "fusion_lat": 0.0, "is_disabled": 0, "rental_uris": {"ios": "https://dc.lft.to/lastmile_qr_scan", "android": "https://dc.lft.to/lastmile_qr_scan"}, "bike_id": "accbba6eccb5ef19567b7f25686a1752", "lat": 38.95091016666667, "name": "accbba6eccb5ef19567b7f25686a1752", "lon": -77.012299, "fusion_lon": 0.0}, {"is_reserved": 0, "type": "electric_scooter", "fusion_lat": 0.0, "is_disabled": 0, "rental_uris": {"ios": "https://dc.lft.to/lastmile_qr_scan", "android": "https://dc.lft.to/lastmile_qr_scan"}, "bike_id": "43c4db9b921c4215707a281b71891b48", "lat": 38.901268, "name": "43c4db9b921c4215707a281b71891b48", "lon": -77.03206583333333, "fusion_lon": 0.0}, {"is_reserved": 0, "type": "electric_scooter", "fusion_lat": 0.0, "is_disabled": 0, "rental_uris": {"ios": "https://dc.lft.to/lastmile_qr_scan", "android": "https://dc.lft.to/lastmile_qr_scan"}, "bike_id": "1f6448aceb1d7e5e463b045539d238a5", "lat": 38.89543616666667, "name": "1f6448aceb1d7e5e463b045539d238a5", "lon": -76.98339833333333, "fusion_lon": 0.0}, {"is_reserved": 0, "type": "electric_scooter", "fusion_lat": 0.0, "is_disabled": 0, "rental_uris": {"ios": "https://dc.lft.to/lastmile_qr_scan", "android": "https://dc.lft.to/lastmile_qr_scan"}, "bike_id": "2fd6bb8b51795738228d5d6dfdcf9733", "lat": 38.91802466666667, "name": "2fd6bb8b51795738228d5d6dfdcf9733", "lon": -77.03435483333334, "fusion_lon": 0.0}, {"is_reserved": 0, "type": "electric_scooter", "fusion_lat": 0.0, "is_disabled": 0, "rental_uris": {"ios": "https://dc.lft.to/lastmile_qr_scan", "android": "https://dc.lft.to/lastmile_qr_scan"}, "bike_id": "23a1db1f2fec240f1fdc717ae0f03f6a", "lat": 38.90872066666667, "name": "23a1db1f2fec240f1fdc717ae0f03f6a", "lon": -77.07155266666666, "fusion_lon": 0.0}, {"is_reserved": 0, "type": "electric_scooter", "fusion_lat": 0.0, "is_disabled": 0, "rental_uris": {"ios": "https://dc.lft.to/lastmile_qr_scan", "android": "https://dc.lft.to/lastmile_qr_scan"}, "bike_id": "7e994e05fcc1405ad2b96a8af3f6bd0d", "lat": 38.905973833333334, "name": "7e994e05fcc1405ad2b96a8af3f6bd0d", "lon": -77.047052, "fusion_lon": 0.0}, {"is_reserved": 0, "type": "electric_scooter", "fusion_lat": 0.0, "is_disabled": 0, "rental_uris": {"ios": "https://dc.lft.to/lastmile_qr_scan", "android": "https://dc.lft.to/lastmile_qr_scan"}, "bike_id": "7156858d6d467417d2cac9cfa915c96b", "lat": 38.893663833333335, "name": "7156858d6d467417d2cac9cfa915c96b", "lon": -76.94110833333333, "fusion_lon": 0.0}, {"is_reserved": 0, "type": "electric_scooter", "fusion_lat": 0.0, "is_disabled": 0, "rental_uris": {"ios": "https://dc.lft.to/lastmile_qr_scan", "android": "https://dc.lft.to/lastmile_qr_scan"}, "bike_id": "98d91bb41c4e1ddf2d1b1f216eadd433", "lat": 38.926282, "name": "98d91bb41c4e1ddf2d1b1f216eadd433", "lon": -77.04144483333333, "fusion_lon": 0.0}, {"is_reserved": 0, "type": "electric_scooter", "fusion_lat": 0.0, "is_disabled": 0, "rental_uris": {"ios": "https://dc.lft.to/lastmile_qr_scan", "android": "https://dc.lft.to/lastmile_qr_scan"}, "bike_id": "4f8093bdc3423488d5f599ad19c0ef15", "lat": 38.91864966666667, "name": "4f8093bdc3423488d5f599ad19c0ef15", "lon": -77.01538083333334, "fusion_lon": 0.0}, {"is_reserved": 0, "type": "electric_scooter", "fusion_lat": 0.0, "is_disabled": 0, "rental_uris": {"ios": "https://dc.lft.to/lastmile_qr_scan", "android": "https://dc.lft.to/lastmile_qr_scan"}, "bike_id": "bffb40dc04d51b85dd91ccf28af8355a", "lat": 38.8737, "name": "bffb40dc04d51b85dd91ccf28af8355a", "lon": -77.001886, "fusion_lon": 0.0}, {"is_reserved": 0, "type": "electric_scooter", "fusion_lat": 0.0, "is_disabled": 0, "rental_uris": {"ios": "https://dc.lft.to/lastmile_qr_scan", "android": "https://dc.lft.to/lastmile_qr_scan"}, "bike_id": "ef9419fd269e3c2f763928150a517623", "lat": 38.92248433333334, "name": "ef9419fd269e3c2f763928150a517623", "lon": -77.03666583333333, "fusion_lon": 0.0}, {"is_reserved": 0, "type": "electric_scooter", "fusion_lat": 0.0, "is_disabled": 0, "rental_uris": {"ios": "https://dc.lft.to/lastmile_qr_scan", "android": "https://dc.lft.to/lastmile_qr_scan"}, "bike_id": "01d10b14eb46a7e4dca25f5a9a8909e7", "lat": 38.878447333333334, "name": "01d10b14eb46a7e4dca25f5a9a8909e7", "lon": -76.93122716666667, "fusion_lon": 0.0}, {"is_reserved": 0, "type": "electric_scooter", "fusion_lat": 0.0, "is_disabled": 0, "rental_uris": {"ios": "https://dc.lft.to/lastmile_qr_scan", "android": "https://dc.lft.to/lastmile_qr_scan"}, "bike_id": "1112ae5045b4e95eb4dd074fda4f77aa", "lat": 38.9018415, "name": "1112ae5045b4e95eb4dd074fda4f77aa", "lon": -76.9883995, "fusion_lon": 0.0}, {"is_reserved": 0, "type": "electric_scooter", "fusion_lat": 0.0, "is_disabled": 0, "rental_uris": {"ios": "https://dc.lft.to/lastmile_qr_scan", "android": "https://dc.lft.to/lastmile_qr_scan"}, "bike_id": "153b78da85a4439b729d5e649aacc527", "lat": 38.907242833333335, "name": "153b78da85a4439b729d5e649aacc527", "lon": -77.04763766666666, "fusion_lon": 0.0}, {"is_reserved": 0, "type": "electric_scooter", "fusion_lat": 0.0, "is_disabled": 0, "rental_uris": {"ios": "https://dc.lft.to/lastmile_qr_scan", "android": "https://dc.lft.to/lastmile_qr_scan"}, "bike_id": "3bc45ec1547923e8d02477d20a81b7e7", "lat": 38.897348666666666, "name": "3bc45ec1547923e8d02477d20a81b7e7", "lon": -77.00756116666666, "fusion_lon": 0.0}, {"is_reserved": 0, "type": "electric_bike", "fusion_lat": 0.0, "is_disabled": 0, "rental_uris": {"ios": "https://dc.lft.to/lastmile_qr_scan", "android": "https://dc.lft.to/lastmile_qr_scan"}, "bike_id": "06b87dba82411035ac19969ae8f22251", "lat": 39.01071666666667, "name": "06b87dba82411035ac19969ae8f22251", "lon": -76.9224435, "fusion_lon": 0.0}, {"is_reserved": 0, "type": "electric_scooter", "fusion_lat": 0.0, "is_disabled": 0, "rental_uris": {"ios": "https://dc.lft.to/lastmile_qr_scan", "android": "https://dc.lft.to/lastmile_qr_scan"}, "bike_id": "9589117a6df6b83210625b110db8a400", "lat": 38.9313435, "name": "9589117a6df6b83210625b110db8a400", "lon": -77.02194916666667, "fusion_lon": 0.0}, {"is_reserved": 0, "type": "electric_scooter", "fusion_lat": 0.0, "is_disabled": 0, "rental_uris": {"ios": "https://dc.lft.to/lastmile_qr_scan", "android": "https://dc.lft.to/lastmile_qr_scan"}, "bike_id": "c2c6a1b02959379ae34befc3c3e3720e", "lat": 38.898338, "name": "c2c6a1b02959379ae34befc3c3e3720e", "lon": -76.94634, "fusion_lon": 0.0}, {"is_reserved": 0, "type": "electric_bike", "fusion_lat": 0.0, "is_disabled": 0, "rental_uris": {"ios": "https://dc.lft.to/lastmile_qr_scan", "android": "https://dc.lft.to/lastmile_qr_scan"}, "bike_id": "36f433c24a2628175395732c9808dd59", "lat": 38.83068883333333, "name": "36f433c24a2628175395732c9808dd59", "lon": -77.04080116666667, "fusion_lon": 0.0}, {"is_reserved": 0, "type": "electric_scooter", "fusion_lat": 0.0, "is_disabled": 0, "rental_uris": {"ios": "https://dc.lft.to/lastmile_qr_scan", "android": "https://dc.lft.to/lastmile_qr_scan"}, "bike_id": "65fd262cf6c25e2bd1c5ed7227745b49", "lat": 38.9065385, "name": "65fd262cf6c25e2bd1c5ed7227745b49", "lon": -77.01850683333333, "fusion_lon": 0.0}, {"is_reserved": 0, "type": "electric_scooter", "fusion_lat": 0.0, "is_disabled": 0, "rental_uris": {"ios": "https://dc.lft.to/lastmile_qr_scan", "android": "https://dc.lft.to/lastmile_qr_scan"}, "bike_id": "ef37d512c332ada7c005fc33912ede47", "lat": 38.89221216666667, "name": "ef37d512c332ada7c005fc33912ede47", "lon": -77.044852, "fusion_lon": 0.0}, {"is_reserved": 0, "type": "electric_scooter", "fusion_lat": 0.0, "is_disabled": 0, "rental_uris": {"ios": "https://dc.lft.to/lastmile_qr_scan", "android": "https://dc.lft.to/lastmile_qr_scan"}, "bike_id": "46ee8a02e4981063938efe51f7a99aa6", "lat": 38.898607166666665, "name": "46ee8a02e4981063938efe51f7a99aa6", "lon": -76.94641066666667, "fusion_lon": 0.0}, {"is_reserved": 0, "type": "electric_scooter", "fusion_lat": 0.0, "is_disabled": 0, "rental_uris": {"ios": "https://dc.lft.to/lastmile_qr_scan", "android": "https://dc.lft.to/lastmile_qr_scan"}, "bike_id": "acf1b6fc52fd8a8251daf7eb4530afb0", "lat": 38.9356325, "name": "acf1b6fc52fd8a8251daf7eb4530afb0", "lon": -77.02856316666667, "fusion_lon": 0.0}, {"is_reserved": 0, "type": "electric_scooter", "fusion_lat": 0.0, "is_disabled": 0, "rental_uris": {"ios": "https://dc.lft.to/lastmile_qr_scan", "android": "https://dc.lft.to/lastmile_qr_scan"}, "bike_id": "2497219547f1dc6b25f7184b5c196038", "lat": 38.870700166666666, "name": "2497219547f1dc6b25f7184b5c196038", "lon": -76.97945466666667, "fusion_lon": 0.0}, {"is_reserved": 0, "type": "electric_scooter", "fusion_lat": 0.0, "is_disabled": 0, "rental_uris": {"ios": "https://dc.lft.to/lastmile_qr_scan", "android": "https://dc.lft.to/lastmile_qr_scan"}, "bike_id": "e07dd123e4cb40a261bb87b6d1b8e368", "lat": 38.9036805, "name": "e07dd123e4cb40a261bb87b6d1b8e368", "lon": -77.02612233333333, "fusion_lon": 0.0}, {"is_reserved": 0, "type": "electric_scooter", "fusion_lat": 0.0, "is_disabled": 0, "rental_uris": {"ios": "https://dc.lft.to/lastmile_qr_scan", "android": "https://dc.lft.to/lastmile_qr_scan"}, "bike_id": "8a83a2c230356fe097daec5811c6ffb6", "lat": 38.8967795, "name": "8a83a2c230356fe097daec5811c6ffb6", "lon": -77.05038166666667, "fusion_lon": 0.0}, {"is_reserved": 0, "type": "electric_bike", "fusion_lat": 0.0, "is_disabled": 0, "rental_uris": {"ios": "https://dc.lft.to/lastmile_qr_scan", "android": "https://dc.lft.to/lastmile_qr_scan"}, "bike_id": "5d5cf2cc93a8ebfeca1c6c4e1a3b0aa1", "lat": 39.0038045, "name": "5d5cf2cc93a8ebfeca1c6c4e1a3b0aa1", "lon": -77.01292183333334, "fusion_lon": 0.0}, {"is_reserved": 0, "type": "electric_scooter", "fusion_lat": 0.0, "is_disabled": 0, "rental_uris": {"ios": "https://dc.lft.to/lastmile_qr_scan", "android": "https://dc.lft.to/lastmile_qr_scan"}, "bike_id": "07ce0f2dbc80963154a8d93465d730a0", "lat": 38.897442833333336, "name": "07ce0f2dbc80963154a8d93465d730a0", "lon": -77.048169, "fusion_lon": 0.0}, {"is_reserved": 0, "type": "electric_scooter", "fusion_lat": 0.0, "is_disabled": 0, "rental_uris": {"ios": "https://dc.lft.to/lastmile_qr_scan", "android": "https://dc.lft.to/lastmile_qr_scan"}, "bike_id": "3b98d27e9dbff0adcbce5ad0c619dd92", "lat": 38.907497166666666, "name": "3b98d27e9dbff0adcbce5ad0c619dd92", "lon": -77.04488333333333, "fusion_lon": 0.0}, {"is_reserved": 0, "type": "electric_scooter", "fusion_lat": 0.0, "is_disabled": 0, "rental_uris": {"ios": "https://dc.lft.to/lastmile_qr_scan", "android": "https://dc.lft.to/lastmile_qr_scan"}, "bike_id": "4d210f7dabc2ad1ce51e66d767583a4c", "lat": 38.93540683333333, "name": "4d210f7dabc2ad1ce51e66d767583a4c", "lon": -77.03481066666667, "fusion_lon": 0.0}, {"is_reserved": 0, "type": "electric_scooter", "fusion_lat": 0.0, "is_disabled": 0, "rental_uris": {"ios": "https://dc.lft.to/lastmile_qr_scan", "android": "https://dc.lft.to/lastmile_qr_scan"}, "bike_id": "985935960228e441fb5a4e46c69a20d9", "lat": 38.87718983333333, "name": "985935960228e441fb5a4e46c69a20d9", "lon": -77.00603333333333, "fusion_lon": 0.0}, {"is_reserved": 0, "type": "electric_scooter", "fusion_lat": 0.0, "is_disabled": 0, "rental_uris": {"ios": "https://dc.lft.to/lastmile_qr_scan", "android": "https://dc.lft.to/lastmile_qr_scan"}, "bike_id": "c93d83d81051d531e7d8f299fa526e92", "lat": 38.9280705, "name": "c93d83d81051d531e7d8f299fa526e92", "lon": -77.03692183333334, "fusion_lon": 0.0}, {"is_reserved": 0, "type": "electric_scooter", "fusion_lat": 0.0, "is_disabled": 0, "rental_uris": {"ios": "https://dc.lft.to/lastmile_qr_scan", "android": "https://dc.lft.to/lastmile_qr_scan"}, "bike_id": "88b4ec8f2863451f2dfc2f5bc5e712ab", "lat": 38.916953166666666, "name": "88b4ec8f2863451f2dfc2f5bc5e712ab", "lon": -77.04038, "fusion_lon": 0.0}, {"is_reserved": 0, "type": "electric_scooter", "fusion_lat": 0.0, "is_disabled": 0, "rental_uris": {"ios": "https://dc.lft.to/lastmile_qr_scan", "android": "https://dc.lft.to/lastmile_qr_scan"}, "bike_id": "46508c45982e20c28944e2720991f824", "lat": 38.918534333333334, "name": "46508c45982e20c28944e2720991f824", "lon": -77.0354245, "fusion_lon": 0.0}, {"is_reserved": 0, "type": "electric_scooter", "fusion_lat": 0.0, "is_disabled": 0, "rental_uris": {"ios": "https://dc.lft.to/lastmile_qr_scan", "android": "https://dc.lft.to/lastmile_qr_scan"}, "bike_id": "a5e9caeed5032aeaf19587cd4c7c8a4f", "lat": 38.93591466666667, "name": "a5e9caeed5032aeaf19587cd4c7c8a4f", "lon": -77.07423516666667, "fusion_lon": 0.0}, {"is_reserved": 0, "type": "electric_scooter", "fusion_lat": 0.0, "is_disabled": 0, "rental_uris": {"ios": "https://dc.lft.to/lastmile_qr_scan", "android": "https://dc.lft.to/lastmile_qr_scan"}, "bike_id": "d9459285ec5fdfad5ad3b70c158c13b7", "lat": 38.89343316666667, "name": "d9459285ec5fdfad5ad3b70c158c13b7", "lon": -76.98561283333333, "fusion_lon": 0.0}, {"is_reserved": 0, "type": "electric_scooter", "fusion_lat": 0.0, "is_disabled": 0, "rental_uris": {"ios": "https://dc.lft.to/lastmile_qr_scan", "android": "https://dc.lft.to/lastmile_qr_scan"}, "bike_id": "090c1b93ee39af5902d8370002aa8ea9", "lat": 38.90658083333334, "name": "090c1b93ee39af5902d8370002aa8ea9", "lon": -77.01625016666667, "fusion_lon": 0.0}, {"is_reserved": 0, "type": "electric_bike", "fusion_lat": 0.0, "is_disabled": 0, "rental_uris": {"ios": "https://dc.lft.to/lastmile_qr_scan", "android": "https://dc.lft.to/lastmile_qr_scan"}, "bike_id": "fb85086f30a0c53082288c18b5db14d3", "lat": 38.89427416666667, "name": "fb85086f30a0c53082288c18b5db14d3", "lon": -77.0945, "fusion_lon": 0.0}, {"is_reserved": 0, "type": "electric_scooter", "fusion_lat": 0.0, "is_disabled": 0, "rental_uris": {"ios": "https://dc.lft.to/lastmile_qr_scan", "android": "https://dc.lft.to/lastmile_qr_scan"}, "bike_id": "7fc965f9e6a430dc83d9e679ed7932eb", "lat": 38.8983095, "name": "7fc965f9e6a430dc83d9e679ed7932eb", "lon": -77.01877633333334, "fusion_lon": 0.0}, {"is_reserved": 0, "type": "electric_bike", "fusion_lat": 0.0, "is_disabled": 0, "rental_uris": {"ios": "https://dc.lft.to/lastmile_qr_scan", "android": "https://dc.lft.to/lastmile_qr_scan"}, "bike_id": "9dd8d9a8edc4ff24d49b83fa623a9fea", "lat": 38.930420166666664, "name": "9dd8d9a8edc4ff24d49b83fa623a9fea", "lon": -77.07771633333333, "fusion_lon": 0.0}, {"is_reserved": 0, "type": "electric_bike", "fusion_lat": 0.0, "is_disabled": 0, "rental_uris": {"ios": "https://dc.lft.to/lastmile_qr_scan", "android": "https://dc.lft.to/lastmile_qr_scan"}, "bike_id": "b6794665fe4799b4e78a46c661f1f19f", "lat": 38.840998666666664, "name": "b6794665fe4799b4e78a46c661f1f19f", "lon": -76.97030516666666, "fusion_lon": 0.0}, {"is_reserved": 0, "type": "electric_bike", "fusion_lat": 0.0, "is_disabled": 0, "rental_uris": {"ios": "https://dc.lft.to/lastmile_qr_scan", "android": "https://dc.lft.to/lastmile_qr_scan"}, "bike_id": "a32d9defb062b4c323c38fafca8b3a30", "lat": 38.982237, "name": "a32d9defb062b4c323c38fafca8b3a30", "lon": -77.09580916666667, "fusion_lon": 0.0}, {"is_reserved": 0, "type": "electric_scooter", "fusion_lat": 0.0, "is_disabled": 0, "rental_uris": {"ios": "https://dc.lft.to/lastmile_qr_scan", "android": "https://dc.lft.to/lastmile_qr_scan"}, "bike_id": "b374aa066db20246a78055135e06e7b0", "lat": 38.91213666666667, "name": "b374aa066db20246a78055135e06e7b0", "lon": -77.038381, "fusion_lon": 0.0}, {"is_reserved": 0, "type": "electric_scooter", "fusion_lat": 0.0, "is_disabled": 0, "rental_uris": {"ios": "https://dc.lft.to/lastmile_qr_scan", "android": "https://dc.lft.to/lastmile_qr_scan"}, "bike_id": "2e43509e0559793b25b6490e451fa376", "lat": 38.90797583333333, "name": "2e43509e0559793b25b6490e451fa376", "lon": -77.00218216666667, "fusion_lon": 0.0}, {"is_reserved": 0, "type": "electric_scooter", "fusion_lat": 0.0, "is_disabled": 0, "rental_uris": {"ios": "https://dc.lft.to/lastmile_qr_scan", "android": "https://dc.lft.to/lastmile_qr_scan"}, "bike_id": "a25ec97d987010b83b83b5adb082da0e", "lat": 38.89952566666667, "name": "a25ec97d987010b83b83b5adb082da0e", "lon": -77.04751916666666, "fusion_lon": 0.0}, {"is_reserved": 0, "type": "electric_bike", "fusion_lat": 0.0, "is_disabled": 0, "rental_uris": {"ios": "https://dc.lft.to/lastmile_qr_scan", "android": "https://dc.lft.to/lastmile_qr_scan"}, "bike_id": "ab967996ccc88a4d64a20cb7abad0a7c", "lat": 39.022982666666664, "name": "ab967996ccc88a4d64a20cb7abad0a7c", "lon": -77.02108116666666, "fusion_lon": 0.0}, {"is_reserved": 0, "type": "electric_bike", "fusion_lat": 0.0, "is_disabled": 0, "rental_uris": {"ios": "https://dc.lft.to/lastmile_qr_scan", "android": "https://dc.lft.to/lastmile_qr_scan"}, "bike_id": "e66637e08d4b2f634a86696b7748a0cf", "lat": 38.97481616666666, "name": "e66637e08d4b2f634a86696b7748a0cf", "lon": -76.9867015, "fusion_lon": 0.0}, {"is_reserved": 0, "type": "electric_scooter", "fusion_lat": 0.0, "is_disabled": 0, "rental_uris": {"ios": "https://dc.lft.to/lastmile_qr_scan", "android": "https://dc.lft.to/lastmile_qr_scan"}, "bike_id": "ea470fa7f73795ff18627a5c20a86f24", "lat": 38.883743333333335, "name": "ea470fa7f73795ff18627a5c20a86f24", "lon": -76.99519833333333, "fusion_lon": 0.0}, {"is_reserved": 0, "type": "electric_scooter", "fusion_lat": 0.0, "is_disabled": 0, "rental_uris": {"ios": "https://dc.lft.to/lastmile_qr_scan", "android": "https://dc.lft.to/lastmile_qr_scan"}, "bike_id": "e6d856c60729c1997c0f9282d4a35e72", "lat": 38.9023405, "name": "e6d856c60729c1997c0f9282d4a35e72", "lon": -77.00062116666666, "fusion_lon": 0.0}, {"is_reserved": 0, "type": "electric_scooter", "fusion_lat": 0.0, "is_disabled": 0, "rental_uris": {"ios": "https://dc.lft.to/lastmile_qr_scan", "android": "https://dc.lft.to/lastmile_qr_scan"}, "bike_id": "6c8774059344165c7b86b6a25955f30d", "lat": 38.924104666666665, "name": "6c8774059344165c7b86b6a25955f30d", "lon": -77.021255, "fusion_lon": 0.0}, {"is_reserved": 0, "type": "electric_scooter", "fusion_lat": 0.0, "is_disabled": 0, "rental_uris": {"ios": "https://dc.lft.to/lastmile_qr_scan", "android": "https://dc.lft.to/lastmile_qr_scan"}, "bike_id": "19d8b7e36f8d23f118a8f7dd3dad957c", "lat": 38.89968616666667, "name": "19d8b7e36f8d23f118a8f7dd3dad957c", "lon": -77.04495183333333, "fusion_lon": 0.0}, {"is_reserved": 0, "type": "electric_scooter", "fusion_lat": 0.0, "is_disabled": 0, "rental_uris": {"ios": "https://dc.lft.to/lastmile_qr_scan", "android": "https://dc.lft.to/lastmile_qr_scan"}, "bike_id": "bd699d27d681add6c2b8648fe00bb263", "lat": 38.94828416666667, "name": "bd699d27d681add6c2b8648fe00bb263", "lon": -77.02615766666666, "fusion_lon": 0.0}, {"is_reserved": 0, "type": "electric_scooter", "fusion_lat": 0.0, "is_disabled": 0, "rental_uris": {"ios": "https://dc.lft.to/lastmile_qr_scan", "android": "https://dc.lft.to/lastmile_qr_scan"}, "bike_id": "19bd4f7116dd5ae7501ebe995b28969e", "lat": 38.876390666666666, "name": "19bd4f7116dd5ae7501ebe995b28969e", "lon": -77.0008075, "fusion_lon": 0.0}, {"is_reserved": 0, "type": "electric_scooter", "fusion_lat": 0.0, "is_disabled": 0, "rental_uris": {"ios": "https://dc.lft.to/lastmile_qr_scan", "android": "https://dc.lft.to/lastmile_qr_scan"}, "bike_id": "ac26a41e6d94be33e0cbd44a1b363595", "lat": 38.88137183333333, "name": "ac26a41e6d94be33e0cbd44a1b363595", "lon": -77.02011433333334, "fusion_lon": 0.0}, {"is_reserved": 0, "type": "electric_scooter", "fusion_lat": 0.0, "is_disabled": 0, "rental_uris": {"ios": "https://dc.lft.to/lastmile_qr_scan", "android": "https://dc.lft.to/lastmile_qr_scan"}, "bike_id": "ae88340335a131f8199d016aaf0eedd6", "lat": 38.892013, "name": "ae88340335a131f8199d016aaf0eedd6", "lon": -77.01548883333334, "fusion_lon": 0.0}, {"is_reserved": 0, "type": "electric_bike", "fusion_lat": 0.0, "is_disabled": 0, "rental_uris": {"ios": "https://dc.lft.to/lastmile_qr_scan", "android": "https://dc.lft.to/lastmile_qr_scan"}, "bike_id": "1906052b12fb5ffc1173316c47339477", "lat": 38.813340833333335, "name": "1906052b12fb5ffc1173316c47339477", "lon": -77.05116566666666, "fusion_lon": 0.0}, {"is_reserved": 0, "type": "electric_scooter", "fusion_lat": 0.0, "is_disabled": 0, "rental_uris": {"ios": "https://dc.lft.to/lastmile_qr_scan", "android": "https://dc.lft.to/lastmile_qr_scan"}, "bike_id": "073b5dd5596fd5918e15629f8df80ccf", "lat": 38.9179575, "name": "073b5dd5596fd5918e15629f8df80ccf", "lon": -77.04443566666667, "fusion_lon": 0.0}, {"is_reserved": 0, "type": "electric_scooter", "fusion_lat": 0.0, "is_disabled": 0, "rental_uris": {"ios": "https://dc.lft.to/lastmile_qr_scan", "android": "https://dc.lft.to/lastmile_qr_scan"}, "bike_id": "02a96ee998439f6347fc1c58b8a1562a", "lat": 38.923687, "name": "02a96ee998439f6347fc1c58b8a1562a", "lon": -77.04317, "fusion_lon": 0.0}, {"is_reserved": 0, "type": "electric_bike", "fusion_lat": 0.0, "is_disabled": 0, "rental_uris": {"ios": "https://dc.lft.to/lastmile_qr_scan", "android": "https://dc.lft.to/lastmile_qr_scan"}, "bike_id": "e80dd24c4c38377c9aa71ff0ade7b863", "lat": 38.8887295, "name": "e80dd24c4c38377c9aa71ff0ade7b863", "lon": -76.956997, "fusion_lon": 0.0}, {"is_reserved": 0, "type": "electric_scooter", "fusion_lat": 0.0, "is_disabled": 0, "rental_uris": {"ios": "https://dc.lft.to/lastmile_qr_scan", "android": "https://dc.lft.to/lastmile_qr_scan"}, "bike_id": "9b45d0a303d93c8aa00c38521c1605c3", "lat": 38.90762516666667, "name": "9b45d0a303d93c8aa00c38521c1605c3", "lon": -77.01898033333333, "fusion_lon": 0.0}, {"is_reserved": 0, "type": "electric_scooter", "fusion_lat": 0.0, "is_disabled": 0, "rental_uris": {"ios": "https://dc.lft.to/lastmile_qr_scan", "android": "https://dc.lft.to/lastmile_qr_scan"}, "bike_id": "739c8efffacf524010dc06801b75b8af", "lat": 38.907869, "name": "739c8efffacf524010dc06801b75b8af", "lon": -77.0431635, "fusion_lon": 0.0}, {"is_reserved": 0, "type": "electric_scooter", "fusion_lat": 0.0, "is_disabled": 0, "rental_uris": {"ios": "https://dc.lft.to/lastmile_qr_scan", "android": "https://dc.lft.to/lastmile_qr_scan"}, "bike_id": "1bc4d8da06e0f03bb77d6f78440bec96", "lat": 38.903747333333335, "name": "1bc4d8da06e0f03bb77d6f78440bec96", "lon": -77.01766233333333, "fusion_lon": 0.0}, {"is_reserved": 0, "type": "electric_bike", "fusion_lat": 0.0, "is_disabled": 0, "rental_uris": {"ios": "https://dc.lft.to/lastmile_qr_scan", "android": "https://dc.lft.to/lastmile_qr_scan"}, "bike_id": "cf2524aa7bf6d00a108104ef31bcc354", "lat": 38.87953, "name": "cf2524aa7bf6d00a108104ef31bcc354", "lon": -76.9319355, "fusion_lon": 0.0}, {"is_reserved": 0, "type": "electric_scooter", "fusion_lat": 0.0, "is_disabled": 0, "rental_uris": {"ios": "https://dc.lft.to/lastmile_qr_scan", "android": "https://dc.lft.to/lastmile_qr_scan"}, "bike_id": "d747a0f298968c4f67b660309925218d", "lat": 38.902521166666666, "name": "d747a0f298968c4f67b660309925218d", "lon": -77.06160216666666, "fusion_lon": 0.0}, {"is_reserved": 0, "type": "electric_scooter", "fusion_lat": 0.0, "is_disabled": 0, "rental_uris": {"ios": "https://dc.lft.to/lastmile_qr_scan", "android": "https://dc.lft.to/lastmile_qr_scan"}, "bike_id": "3c1dd58208a36a66b1a03c7745e79bfd", "lat": 38.8954785, "name": "3c1dd58208a36a66b1a03c7745e79bfd", "lon": -77.00927566666667, "fusion_lon": 0.0}, {"is_reserved": 0, "type": "electric_scooter", "fusion_lat": 0.0, "is_disabled": 0, "rental_uris": {"ios": "https://dc.lft.to/lastmile_qr_scan", "android": "https://dc.lft.to/lastmile_qr_scan"}, "bike_id": "96eae8e32e69a12a1d8fb96c4833dbd2", "lat": 38.920367, "name": "96eae8e32e69a12a1d8fb96c4833dbd2", "lon": -77.0409095, "fusion_lon": 0.0}, {"is_reserved": 0, "type": "electric_scooter", "fusion_lat": 0.0, "is_disabled": 0, "rental_uris": {"ios": "https://dc.lft.to/lastmile_qr_scan", "android": "https://dc.lft.to/lastmile_qr_scan"}, "bike_id": "67becc7bef789a65eccb5fa59a5a961e", "lat": 38.915214666666664, "name": "67becc7bef789a65eccb5fa59a5a961e", "lon": -77.07276733333333, "fusion_lon": 0.0}, {"is_reserved": 0, "type": "electric_bike", "fusion_lat": 0.0, "is_disabled": 0, "rental_uris": {"ios": "https://dc.lft.to/lastmile_qr_scan", "android": "https://dc.lft.to/lastmile_qr_scan"}, "bike_id": "e68fa856bb521939edaa22105fefd3bc", "lat": 38.9296835, "name": "e68fa856bb521939edaa22105fefd3bc", "lon": -77.01960216666667, "fusion_lon": 0.0}, {"is_reserved": 0, "type": "electric_scooter", "fusion_lat": 0.0, "is_disabled": 0, "rental_uris": {"ios": "https://dc.lft.to/lastmile_qr_scan", "android": "https://dc.lft.to/lastmile_qr_scan"}, "bike_id": "3f099a3ef608c9ff6fade3d5054b65a0", "lat": 38.90397566666667, "name": "3f099a3ef608c9ff6fade3d5054b65a0", "lon": -77.05150116666667, "fusion_lon": 0.0}, {"is_reserved": 0, "type": "electric_scooter", "fusion_lat": 0.0, "is_disabled": 0, "rental_uris": {"ios": "https://dc.lft.to/lastmile_qr_scan", "android": "https://dc.lft.to/lastmile_qr_scan"}, "bike_id": "56a87e11d3686b1a4f84ab58c96c61d8", "lat": 38.91056233333333, "name": "56a87e11d3686b1a4f84ab58c96c61d8", "lon": -76.99791816666666, "fusion_lon": 0.0}, {"is_reserved": 0, "type": "electric_scooter", "fusion_lat": 0.0, "is_disabled": 0, "rental_uris": {"ios": "https://dc.lft.to/lastmile_qr_scan", "android": "https://dc.lft.to/lastmile_qr_scan"}, "bike_id": "33d4cafc5b97f98e565c0f9140d65ada", "lat": 38.902605333333334, "name": "33d4cafc5b97f98e565c0f9140d65ada", "lon": -77.02655216666666, "fusion_lon": 0.0}, {"is_reserved": 0, "type": "electric_scooter", "fusion_lat": 0.0, "is_disabled": 0, "rental_uris": {"ios": "https://dc.lft.to/lastmile_qr_scan", "android": "https://dc.lft.to/lastmile_qr_scan"}, "bike_id": "cc1efb115884e2da43cb465118437f5a", "lat": 38.9182945, "name": "cc1efb115884e2da43cb465118437f5a", "lon": -77.04519, "fusion_lon": 0.0}, {"is_reserved": 0, "type": "electric_scooter", "fusion_lat": 0.0, "is_disabled": 0, "rental_uris": {"ios": "https://dc.lft.to/lastmile_qr_scan", "android": "https://dc.lft.to/lastmile_qr_scan"}, "bike_id": "94f7998f21bd8c3c72d8abb28ce4320b", "lat": 38.911009, "name": "94f7998f21bd8c3c72d8abb28ce4320b", "lon": -77.01099966666666, "fusion_lon": 0.0}, {"is_reserved": 0, "type": "electric_scooter", "fusion_lat": 0.0, "is_disabled": 0, "rental_uris": {"ios": "https://dc.lft.to/lastmile_qr_scan", "android": "https://dc.lft.to/lastmile_qr_scan"}, "bike_id": "acc437bc4ad75802ca38ed7f9b4685b1", "lat": 38.923322, "name": "acc437bc4ad75802ca38ed7f9b4685b1", "lon": -77.00891366666667, "fusion_lon": 0.0}, {"is_reserved": 0, "type": "electric_scooter", "fusion_lat": 0.0, "is_disabled": 0, "rental_uris": {"ios": "https://dc.lft.to/lastmile_qr_scan", "android": "https://dc.lft.to/lastmile_qr_scan"}, "bike_id": "4696afde25cc390c083de54feeaf106e", "lat": 38.91822583333333, "name": "4696afde25cc390c083de54feeaf106e", "lon": -77.0269265, "fusion_lon": 0.0}, {"is_reserved": 0, "type": "electric_scooter", "fusion_lat": 0.0, "is_disabled": 0, "rental_uris": {"ios": "https://dc.lft.to/lastmile_qr_scan", "android": "https://dc.lft.to/lastmile_qr_scan"}, "bike_id": "b46bb36fc5d359fea2dad158d2e043d6", "lat": 38.908960666666665, "name": "b46bb36fc5d359fea2dad158d2e043d6", "lon": -77.0028065, "fusion_lon": 0.0}, {"is_reserved": 0, "type": "electric_bike", "fusion_lat": 0.0, "is_disabled": 0, "rental_uris": {"ios": "https://dc.lft.to/lastmile_qr_scan", "android": "https://dc.lft.to/lastmile_qr_scan"}, "bike_id": "88f071bab48271e5339d2d55c42bf8f9", "lat": 38.922926, "name": "88f071bab48271e5339d2d55c42bf8f9", "lon": -76.997711, "fusion_lon": 0.0}, {"is_reserved": 0, "type": "electric_scooter", "fusion_lat": 0.0, "is_disabled": 0, "rental_uris": {"ios": "https://dc.lft.to/lastmile_qr_scan", "android": "https://dc.lft.to/lastmile_qr_scan"}, "bike_id": "9f6a3b9e9a858525b49e66fb70743e34", "lat": 38.89526383333333, "name": "9f6a3b9e9a858525b49e66fb70743e34", "lon": -76.97729783333334, "fusion_lon": 0.0}, {"is_reserved": 0, "type": "electric_scooter", "fusion_lat": 0.0, "is_disabled": 0, "rental_uris": {"ios": "https://dc.lft.to/lastmile_qr_scan", "android": "https://dc.lft.to/lastmile_qr_scan"}, "bike_id": "eb12cdfc22396b25f842321463be6b3e", "lat": 38.88112, "name": "eb12cdfc22396b25f842321463be6b3e", "lon": -77.02631783333334, "fusion_lon": 0.0}, {"is_reserved": 0, "type": "electric_scooter", "fusion_lat": 0.0, "is_disabled": 0, "rental_uris": {"ios": "https://dc.lft.to/lastmile_qr_scan", "android": "https://dc.lft.to/lastmile_qr_scan"}, "bike_id": "6886a2fbb6ad38bfdddbd5ceb010f11e", "lat": 38.89995533333333, "name": "6886a2fbb6ad38bfdddbd5ceb010f11e", "lon": -77.04192116666667, "fusion_lon": 0.0}, {"is_reserved": 0, "type": "electric_scooter", "fusion_lat": 0.0, "is_disabled": 0, "rental_uris": {"ios": "https://dc.lft.to/lastmile_qr_scan", "android": "https://dc.lft.to/lastmile_qr_scan"}, "bike_id": "5eaa61d249a7ce0549b8509e56e56b99", "lat": 38.9234005, "name": "5eaa61d249a7ce0549b8509e56e56b99", "lon": -77.03528983333334, "fusion_lon": 0.0}, {"is_reserved": 0, "type": "electric_scooter", "fusion_lat": 0.0, "is_disabled": 0, "rental_uris": {"ios": "https://dc.lft.to/lastmile_qr_scan", "android": "https://dc.lft.to/lastmile_qr_scan"}, "bike_id": "cc7c1be257e1fdfdc90ffff7015b4899", "lat": 38.933327166666665, "name": "cc7c1be257e1fdfdc90ffff7015b4899", "lon": -77.0387545, "fusion_lon": 0.0}, {"is_reserved": 0, "type": "electric_scooter", "fusion_lat": 0.0, "is_disabled": 0, "rental_uris": {"ios": "https://dc.lft.to/lastmile_qr_scan", "android": "https://dc.lft.to/lastmile_qr_scan"}, "bike_id": "540e5cf1c7390b3f3699c440ad7da46e", "lat": 38.92337583333333, "name": "540e5cf1c7390b3f3699c440ad7da46e", "lon": -77.0403235, "fusion_lon": 0.0}, {"is_reserved": 0, "type": "electric_scooter", "fusion_lat": 0.0, "is_disabled": 0, "rental_uris": {"ios": "https://dc.lft.to/lastmile_qr_scan", "android": "https://dc.lft.to/lastmile_qr_scan"}, "bike_id": "527918a4171ebff768275783bf1668b8", "lat": 38.925691, "name": "527918a4171ebff768275783bf1668b8", "lon": -77.05248083333333, "fusion_lon": 0.0}, {"is_reserved": 0, "type": "electric_scooter", "fusion_lat": 0.0, "is_disabled": 0, "rental_uris": {"ios": "https://dc.lft.to/lastmile_qr_scan", "android": "https://dc.lft.to/lastmile_qr_scan"}, "bike_id": "dff6e021d2a3c1ce7191866f64c005be", "lat": 38.924777666666664, "name": "dff6e021d2a3c1ce7191866f64c005be", "lon": -77.0284635, "fusion_lon": 0.0}, {"is_reserved": 0, "type": "electric_scooter", "fusion_lat": 0.0, "is_disabled": 0, "rental_uris": {"ios": "https://dc.lft.to/lastmile_qr_scan", "android": "https://dc.lft.to/lastmile_qr_scan"}, "bike_id": "d209f043c36534128425cc6511635d07", "lat": 38.92052066666667, "name": "d209f043c36534128425cc6511635d07", "lon": -77.01796266666666, "fusion_lon": 0.0}, {"is_reserved": 0, "type": "electric_bike", "fusion_lat": 0.0, "is_disabled": 0, "rental_uris": {"ios": "https://dc.lft.to/lastmile_qr_scan", "android": "https://dc.lft.to/lastmile_qr_scan"}, "bike_id": "269dea32fefbaf0c8396b7b290219c66", "lat": 38.96386416666667, "name": "269dea32fefbaf0c8396b7b290219c66", "lon": -77.01981083333334, "fusion_lon": 0.0}, {"is_reserved": 0, "type": "electric_scooter", "fusion_lat": 0.0, "is_disabled": 0, "rental_uris": {"ios": "https://dc.lft.to/lastmile_qr_scan", "android": "https://dc.lft.to/lastmile_qr_scan"}, "bike_id": "af3b2ffc4d21afef8990472151c3e2c3", "lat": 38.89543666666667, "name": "af3b2ffc4d21afef8990472151c3e2c3", "lon": -76.983371, "fusion_lon": 0.0}, {"is_reserved": 0, "type": "electric_scooter", "fusion_lat": 0.0, "is_disabled": 0, "rental_uris": {"ios": "https://dc.lft.to/lastmile_qr_scan", "android": "https://dc.lft.to/lastmile_qr_scan"}, "bike_id": "581c3470d98a149527871467113d0d48", "lat": 38.92844983333333, "name": "581c3470d98a149527871467113d0d48", "lon": -77.01412216666667, "fusion_lon": 0.0}, {"is_reserved": 0, "type": "electric_scooter", "fusion_lat": 0.0, "is_disabled": 0, "rental_uris": {"ios": "https://dc.lft.to/lastmile_qr_scan", "android": "https://dc.lft.to/lastmile_qr_scan"}, "bike_id": "ce16774b99a610053e6542ecedba4b4f", "lat": 38.88443683333333, "name": "ce16774b99a610053e6542ecedba4b4f", "lon": -77.0246775, "fusion_lon": 0.0}, {"is_reserved": 0, "type": "electric_scooter", "fusion_lat": 0.0, "is_disabled": 0, "rental_uris": {"ios": "https://dc.lft.to/lastmile_qr_scan", "android": "https://dc.lft.to/lastmile_qr_scan"}, "bike_id": "7a12990a196b4e98eb431b45d91b9463", "lat": 38.909381333333336, "name": "7a12990a196b4e98eb431b45d91b9463", "lon": -76.9991885, "fusion_lon": 0.0}, {"is_reserved": 0, "type": "electric_scooter", "fusion_lat": 0.0, "is_disabled": 0, "rental_uris": {"ios": "https://dc.lft.to/lastmile_qr_scan", "android": "https://dc.lft.to/lastmile_qr_scan"}, "bike_id": "50831198d1c53c53ff1a01060d52aba2", "lat": 38.88728283333333, "name": "50831198d1c53c53ff1a01060d52aba2", "lon": -76.98374733333333, "fusion_lon": 0.0}, {"is_reserved": 0, "type": "electric_scooter", "fusion_lat": 0.0, "is_disabled": 0, "rental_uris": {"ios": "https://dc.lft.to/lastmile_qr_scan", "android": "https://dc.lft.to/lastmile_qr_scan"}, "bike_id": "093634e064f17c0ea172e3bf8020e71f", "lat": 38.8994585, "name": "093634e064f17c0ea172e3bf8020e71f", "lon": -77.047517, "fusion_lon": 0.0}, {"is_reserved": 0, "type": "electric_scooter", "fusion_lat": 0.0, "is_disabled": 0, "rental_uris": {"ios": "https://dc.lft.to/lastmile_qr_scan", "android": "https://dc.lft.to/lastmile_qr_scan"}, "bike_id": "df62446ce1cd99d09c27ce8be8e470cb", "lat": 38.95629133333333, "name": "df62446ce1cd99d09c27ce8be8e470cb", "lon": -77.02236283333333, "fusion_lon": 0.0}, {"is_reserved": 0, "type": "electric_scooter", "fusion_lat": 0.0, "is_disabled": 0, "rental_uris": {"ios": "https://dc.lft.to/lastmile_qr_scan", "android": "https://dc.lft.to/lastmile_qr_scan"}, "bike_id": "0acb75dd0e98f0f3bdcddaf2b7922a23", "lat": 38.91814183333334, "name": "0acb75dd0e98f0f3bdcddaf2b7922a23", "lon": -77.03339816666667, "fusion_lon": 0.0}, {"is_reserved": 0, "type": "electric_scooter", "fusion_lat": 0.0, "is_disabled": 0, "rental_uris": {"ios": "https://dc.lft.to/lastmile_qr_scan", "android": "https://dc.lft.to/lastmile_qr_scan"}, "bike_id": "528252992354c0140326d635309ed71a", "lat": 38.907901, "name": "528252992354c0140326d635309ed71a", "lon": -77.0096325, "fusion_lon": 0.0}, {"is_reserved": 0, "type": "electric_scooter", "fusion_lat": 0.0, "is_disabled": 0, "rental_uris": {"ios": "https://dc.lft.to/lastmile_qr_scan", "android": "https://dc.lft.to/lastmile_qr_scan"}, "bike_id": "3bda729dfe102d0804e3a7ce499e2c56", "lat": 38.8792475, "name": "3bda729dfe102d0804e3a7ce499e2c56", "lon": -77.00608783333334, "fusion_lon": 0.0}, {"is_reserved": 0, "type": "electric_scooter", "fusion_lat": 0.0, "is_disabled": 0, "rental_uris": {"ios": "https://dc.lft.to/lastmile_qr_scan", "android": "https://dc.lft.to/lastmile_qr_scan"},