{"data": {"bikes": [{"lat": 38.884269833333335, "fusion_lat": 0.0, "type": "electric_scooter", "bike_id": "c0a94d5f599f08e9af68c384e974cca7", "rental_uris": {"ios": "https://dc.lft.to/lastmile_qr_scan", "android": "https://dc.lft.to/lastmile_qr_scan"}, "fusion_lon": 0.0, "lon": -76.9575315, "name": "c0a94d5f599f08e9af68c384e974cca7", "is_reserved": 0, "is_disabled": 0}, {"lat": 38.919033, "fusion_lat": 0.0, "type": "electric_scooter", "bike_id": "45ebefbd8d571f3c6102a53353f2668a", "rental_uris": {"ios": "https://dc.lft.to/lastmile_qr_scan", "android": "https://dc.lft.to/lastmile_qr_scan"}, "fusion_lon": 0.0, "lon": -77.0204865, "name": "45ebefbd8d571f3c6102a53353f2668a", "is_reserved": 0, "is_disabled": 0}, {"lat": 38.912663333333334, "fusion_lat": 0.0, "type": "electric_scooter", "bike_id": "c8c6107880c2187512200ee7ee44fa71", "rental_uris": {"ios": "https://dc.lft.to/lastmile_qr_scan", "android": "https://dc.lft.to/lastmile_qr_scan"}, "fusion_lon": 0.0, "lon": -77.03863033333333, "name": "c8c6107880c2187512200ee7ee44fa71", "is_reserved": 0, "is_disabled": 0}, {"lat": 38.903872166666666, "fusion_lat": 0.0, "type": "electric_scooter", "bike_id": "28a11573900d61047027413476e987d1", "rental_uris": {"ios": "https://dc.lft.to/lastmile_qr_scan", "android": "https://dc.lft.to/lastmile_qr_scan"}, "fusion_lon": 0.0, "lon": -77.0506735, "name": "28a11573900d61047027413476e987d1", "is_reserved": 0, "is_disabled": 0}, {"lat": 38.88725383333333, "fusion_lat": 0.0, "type": "electric_scooter", "bike_id": "40c0b735f13b9a2f396e650f5acd1cb6", "rental_uris": {"ios": "https://dc.lft.to/lastmile_qr_scan", "android": "https://dc.lft.to/lastmile_qr_scan"}, "fusion_lon": 0.0, "lon": -76.98359033333334, "name": "40c0b735f13b9a2f396e650f5acd1cb6", "is_reserved": 0, "is_disabled": 0}, {"lat": 38.923160833333334, "fusion_lat": 0.0, "type": "electric_scooter", "bike_id": "8d31be705835e17df51055b1006cdc88", "rental_uris": {"ios": "https://dc.lft.to/lastmile_qr_scan", "android": "https://dc.lft.to/lastmile_qr_scan"}, "fusion_lon": 0.0, "lon": -77.03642533333333, "name": "8d31be705835e17df51055b1006cdc88", "is_reserved": 0, "is_disabled": 0}, {"lat": 38.94191133333333, "fusion_lat": 0.0, "type": "electric_scooter", "bike_id": "9608fdf9ac34d708b94a0581e3eaba1a", "rental_uris": {"ios": "https://dc.lft.to/lastmile_qr_scan", "android": "https://dc.lft.to/lastmile_qr_scan"}, "fusion_lon": 0.0, "lon": -77.0384245, "name": "9608fdf9ac34d708b94a0581e3eaba1a", "is_reserved": 0, "is_disabled": 0}, {"lat": 38.89792766666667, "fusion_lat": 0.0, "type": "electric_scooter", "bike_id": "e270f6d75a3c9e0ef245ded1fd1da071", "rental_uris": {"ios": "https://dc.lft.to/lastmile_qr_scan", "android": "https://dc.lft.to/lastmile_qr_scan"}, "fusion_lon": 0.0, "lon": -77.0107785, "name": "e270f6d75a3c9e0ef245ded1fd1da071", "is_reserved": 0, "is_disabled": 0}, {"lat": 38.9097425, "fusion_lat": 0.0, "type": "electric_scooter", "bike_id": "4475a18915316783565557ba6fcb44b6", "rental_uris": {"ios": "https://dc.lft.to/lastmile_qr_scan", "android": "https://dc.lft.to/lastmile_qr_scan"}, "fusion_lon": 0.0, "lon": -77.03853983333333, "name": "4475a18915316783565557ba6fcb44b6", "is_reserved": 0, "is_disabled": 0}, {"lat": 38.87534, "fusion_lat": 0.0, "type": "electric_scooter", "bike_id": "618d954a9d077c804c77cdf34c00791c", "rental_uris": {"ios": "https://dc.lft.to/lastmile_qr_scan", "android": "https://dc.lft.to/lastmile_qr_scan"}, "fusion_lon": 0.0, "lon": -77.00507666666667, "name": "618d954a9d077c804c77cdf34c00791c", "is_reserved": 0, "is_disabled": 0}, {"lat": 38.91182533333333, "fusion_lat": 0.0, "type": "electric_scooter", "bike_id": "b3191545e4189e2765f53a93cdced946", "rental_uris": {"ios": "https://dc.lft.to/lastmile_qr_scan", "android": "https://dc.lft.to/lastmile_qr_scan"}, "fusion_lon": 0.0, "lon": -77.0200075, "name": "b3191545e4189e2765f53a93cdced946", "is_reserved": 0, "is_disabled": 0}, {"lat": 38.908274166666665, "fusion_lat": 0.0, "type": "electric_scooter", "bike_id": "f1b34fa0c4ee09b167cab170d6be3f94", "rental_uris": {"ios": "https://dc.lft.to/lastmile_qr_scan", "android": "https://dc.lft.to/lastmile_qr_scan"}, "fusion_lon": 0.0, "lon": -77.04326133333333, "name": "f1b34fa0c4ee09b167cab170d6be3f94", "is_reserved": 0, "is_disabled": 0}, {"lat": 38.89221366666666, "fusion_lat": 0.0, "type": "electric_scooter", "bike_id": "ef1eee7dca4c0715b4d23bb48ea7d7f7", "rental_uris": {"ios": "https://dc.lft.to/lastmile_qr_scan", "android": "https://dc.lft.to/lastmile_qr_scan"}, "fusion_lon": 0.0, "lon": -77.04198966666667, "name": "ef1eee7dca4c0715b4d23bb48ea7d7f7", "is_reserved": 0, "is_disabled": 0}, {"lat": 38.895446166666666, "fusion_lat": 0.0, "type": "electric_scooter", "bike_id": "6fd1c0d9f3169daa99997117b2c782bb", "rental_uris": {"ios": "https://dc.lft.to/lastmile_qr_scan", "android": "https://dc.lft.to/lastmile_qr_scan"}, "fusion_lon": 0.0, "lon": -76.949514, "name": "6fd1c0d9f3169daa99997117b2c782bb", "is_reserved": 0, "is_disabled": 0}, {"lat": 38.898287833333335, "fusion_lat": 0.0, "type": "electric_scooter", "bike_id": "3128f40f5a385c8e5625105bd6c23772", "rental_uris": {"ios": "https://dc.lft.to/lastmile_qr_scan", "android": "https://dc.lft.to/lastmile_qr_scan"}, "fusion_lon": 0.0, "lon": -76.94652683333334, "name": "3128f40f5a385c8e5625105bd6c23772", "is_reserved": 0, "is_disabled": 0}, {"lat": 38.904166833333335, "fusion_lat": 0.0, "type": "electric_scooter", "bike_id": "24e396717f30006d26ec6c52df465b61", "rental_uris": {"ios": "https://dc.lft.to/lastmile_qr_scan", "android": "https://dc.lft.to/lastmile_qr_scan"}, "fusion_lon": 0.0, "lon": -77.029633, "name": "24e396717f30006d26ec6c52df465b61", "is_reserved": 0, "is_disabled": 0}, {"lat": 38.90826166666667, "fusion_lat": 0.0, "type": "electric_scooter", "bike_id": "4742d8465663849631453c29e526b1de", "rental_uris": {"ios": "https://dc.lft.to/lastmile_qr_scan", "android": "https://dc.lft.to/lastmile_qr_scan"}, "fusion_lon": 0.0, "lon": -77.03547766666667, "name": "4742d8465663849631453c29e526b1de", "is_reserved": 0, "is_disabled": 0}, {"lat": 38.881782333333334, "fusion_lat": 0.0, "type": "electric_scooter", "bike_id": "06140631d4f34bd011361bab84c2ec6e", "rental_uris": {"ios": "https://dc.lft.to/lastmile_qr_scan", "android": "https://dc.lft.to/lastmile_qr_scan"}, "fusion_lon": 0.0, "lon": -76.9926025, "name": "06140631d4f34bd011361bab84c2ec6e", "is_reserved": 0, "is_disabled": 0}, {"lat": 38.8781375, "fusion_lat": 0.0, "type": "electric_scooter", "bike_id": "03548c2372f667d15c8b1121974b6f1e", "rental_uris": {"ios": "https://dc.lft.to/lastmile_qr_scan", "android": "https://dc.lft.to/lastmile_qr_scan"}, "fusion_lon": 0.0, "lon": -77.02235716666667, "name": "03548c2372f667d15c8b1121974b6f1e", "is_reserved": 0, "is_disabled": 0}, {"lat": 38.9086125, "fusion_lat": 0.0, "type": "electric_scooter", "bike_id": "b46400a5da328f211c0137297c57d1ec", "rental_uris": {"ios": "https://dc.lft.to/lastmile_qr_scan", "android": "https://dc.lft.to/lastmile_qr_scan"}, "fusion_lon": 0.0, "lon": -77.0235285, "name": "b46400a5da328f211c0137297c57d1ec", "is_reserved": 0, "is_disabled": 0}, {"lat": 38.904140166666664, "fusion_lat": 0.0, "type": "electric_scooter", "bike_id": "3bdc471e5239a825aee59f39b1db2902", "rental_uris": {"ios": "https://dc.lft.to/lastmile_qr_scan", "android": "https://dc.lft.to/lastmile_qr_scan"}, "fusion_lon": 0.0, "lon": -77.01979583333333, "name": "3bdc471e5239a825aee59f39b1db2902", "is_reserved": 0, "is_disabled": 0}, {"lat": 38.924834, "fusion_lat": 0.0, "type": "electric_scooter", "bike_id": "79a663651d1967694533c61872449cb9", "rental_uris": {"ios": "https://dc.lft.to/lastmile_qr_scan", "android": "https://dc.lft.to/lastmile_qr_scan"}, "fusion_lon": 0.0, "lon": -77.03013683333333, "name": "79a663651d1967694533c61872449cb9", "is_reserved": 0, "is_disabled": 0}, {"lat": 38.911740333333334, "fusion_lat": 0.0, "type": "electric_scooter", "bike_id": "5de9f9b0de4b69ac4d4abdcf456e69ae", "rental_uris": {"ios": "https://dc.lft.to/lastmile_qr_scan", "android": "https://dc.lft.to/lastmile_qr_scan"}, "fusion_lon": 0.0, "lon": -77.02830216666666, "name": "5de9f9b0de4b69ac4d4abdcf456e69ae", "is_reserved": 0, "is_disabled": 0}, {"lat": 38.91657083333333, "fusion_lat": 0.0, "type": "electric_scooter", "bike_id": "50be5e3793a1d12be1b567f2eb4744d7", "rental_uris": {"ios": "https://dc.lft.to/lastmile_qr_scan", "android": "https://dc.lft.to/lastmile_qr_scan"}, "fusion_lon": 0.0, "lon": -77.03853366666667, "name": "50be5e3793a1d12be1b567f2eb4744d7", "is_reserved": 0, "is_disabled": 0}, {"lat": 38.933192, "fusion_lat": 0.0, "type": "electric_scooter", "bike_id": "a1cdb7faebe8e740b62e77a6c20f511f", "rental_uris": {"ios": "https://dc.lft.to/lastmile_qr_scan", "android": "https://dc.lft.to/lastmile_qr_scan"}, "fusion_lon": 0.0, "lon": -77.023995, "name": "a1cdb7faebe8e740b62e77a6c20f511f", "is_reserved": 0, "is_disabled": 0}, {"lat": 38.91107866666667, "fusion_lat": 0.0, "type": "electric_scooter", "bike_id": "b5a0372f251678d5f3c4e4316d26e235", "rental_uris": {"ios": "https://dc.lft.to/lastmile_qr_scan", "android": "https://dc.lft.to/lastmile_qr_scan"}, "fusion_lon": 0.0, "lon": -77.045386, "name": "b5a0372f251678d5f3c4e4316d26e235", "is_reserved": 0, "is_disabled": 0}, {"lat": 38.80757166666667, "fusion_lat": 0.0, "type": "electric_bike", "bike_id": "fb55d3a49cc508c9888ce2ca53a91d55", "rental_uris": {"ios": "https://dc.lft.to/lastmile_qr_scan", "android": "https://dc.lft.to/lastmile_qr_scan"}, "fusion_lon": 0.0, "lon": -77.12988066666666, "name": "fb55d3a49cc508c9888ce2ca53a91d55", "is_reserved": 0, "is_disabled": 0}, {"lat": 38.89558233333333, "fusion_lat": 0.0, "type": "electric_scooter", "bike_id": "f9bb75d9d4611d45dd03853d20db7c6d", "rental_uris": {"ios": "https://dc.lft.to/lastmile_qr_scan", "android": "https://dc.lft.to/lastmile_qr_scan"}, "fusion_lon": 0.0, "lon": -76.9487765, "name": "f9bb75d9d4611d45dd03853d20db7c6d", "is_reserved": 0, "is_disabled": 0}, {"lat": 38.924645166666664, "fusion_lat": 0.0, "type": "electric_scooter", "bike_id": "110953ee140f59b023ce76617d32b8b2", "rental_uris": {"ios": "https://dc.lft.to/lastmile_qr_scan", "android": "https://dc.lft.to/lastmile_qr_scan"}, "fusion_lon": 0.0, "lon": -77.0523765, "name": "110953ee140f59b023ce76617d32b8b2", "is_reserved": 0, "is_disabled": 0}, {"lat": 38.90571716666667, "fusion_lat": 0.0, "type": "electric_bike", "bike_id": "b680e81e68016cc540bbf7ab379618b9", "rental_uris": {"ios": "https://dc.lft.to/lastmile_qr_scan", "android": "https://dc.lft.to/lastmile_qr_scan"}, "fusion_lon": 0.0, "lon": -77.01427016666666, "name": "b680e81e68016cc540bbf7ab379618b9", "is_reserved": 0, "is_disabled": 0}, {"lat": 38.88673416666666, "fusion_lat": 0.0, "type": "electric_bike", "bike_id": "0ae5a12267e7828ba19cb4f913d281ef", "rental_uris": {"ios": "https://dc.lft.to/lastmile_qr_scan", "android": "https://dc.lft.to/lastmile_qr_scan"}, "fusion_lon": 0.0, "lon": -77.16241383333333, "name": "0ae5a12267e7828ba19cb4f913d281ef", "is_reserved": 0, "is_disabled": 0}, {"lat": 38.92494266666667, "fusion_lat": 0.0, "type": "electric_scooter", "bike_id": "a67d0e9ad42a2fe077e4e3742da92f86", "rental_uris": {"ios": "https://dc.lft.to/lastmile_qr_scan", "android": "https://dc.lft.to/lastmile_qr_scan"}, "fusion_lon": 0.0, "lon": -77.03918566666667, "name": "a67d0e9ad42a2fe077e4e3742da92f86", "is_reserved": 0, "is_disabled": 0}, {"lat": 38.906411166666665, "fusion_lat": 0.0, "type": "electric_scooter", "bike_id": "7c328040be8b27cc6dd8a4562641c1fd", "rental_uris": {"ios": "https://dc.lft.to/lastmile_qr_scan", "android": "https://dc.lft.to/lastmile_qr_scan"}, "fusion_lon": 0.0, "lon": -77.06896016666667, "name": "7c328040be8b27cc6dd8a4562641c1fd", "is_reserved": 0, "is_disabled": 0}, {"lat": 38.907292166666664, "fusion_lat": 0.0, "type": "electric_scooter", "bike_id": "5d3a205b83024c4c33761893444842c5", "rental_uris": {"ios": "https://dc.lft.to/lastmile_qr_scan", "android": "https://dc.lft.to/lastmile_qr_scan"}, "fusion_lon": 0.0, "lon": -77.02602916666666, "name": "5d3a205b83024c4c33761893444842c5", "is_reserved": 0, "is_disabled": 0}, {"lat": 38.92316683333333, "fusion_lat": 0.0, "type": "electric_scooter", "bike_id": "9bcfcc089b069e67f198a91a434e301f", "rental_uris": {"ios": "https://dc.lft.to/lastmile_qr_scan", "android": "https://dc.lft.to/lastmile_qr_scan"}, "fusion_lon": 0.0, "lon": -77.03866083333334, "name": "9bcfcc089b069e67f198a91a434e301f", "is_reserved": 0, "is_disabled": 0}, {"lat": 38.909416666666665, "fusion_lat": 0.0, "type": "electric_scooter", "bike_id": "af321417e0f577d6f5dfb6fcbf061365", "rental_uris": {"ios": "https://dc.lft.to/lastmile_qr_scan", "android": "https://dc.lft.to/lastmile_qr_scan"}, "fusion_lon": 0.0, "lon": -77.02309233333334, "name": "af321417e0f577d6f5dfb6fcbf061365", "is_reserved": 0, "is_disabled": 0}, {"lat": 38.87547133333333, "fusion_lat": 0.0, "type": "electric_scooter", "bike_id": "eb1b1b80c1045a7deca6123af4a5a889", "rental_uris": {"ios": "https://dc.lft.to/lastmile_qr_scan", "android": "https://dc.lft.to/lastmile_qr_scan"}, "fusion_lon": 0.0, "lon": -77.00539583333334, "name": "eb1b1b80c1045a7deca6123af4a5a889", "is_reserved": 0, "is_disabled": 0}, {"lat": 38.873814333333335, "fusion_lat": 0.0, "type": "electric_scooter", "bike_id": "72e944b70f8f75d099d6689b38e921ec", "rental_uris": {"ios": "https://dc.lft.to/lastmile_qr_scan", "android": "https://dc.lft.to/lastmile_qr_scan"}, "fusion_lon": 0.0, "lon": -77.00144116666667, "name": "72e944b70f8f75d099d6689b38e921ec", "is_reserved": 0, "is_disabled": 0}, {"lat": 39.01418966666667, "fusion_lat": 0.0, "type": "electric_bike", "bike_id": "0cd11aec306bdf4aa3e0df309b6e8485", "rental_uris": {"ios": "https://dc.lft.to/lastmile_qr_scan", "android": "https://dc.lft.to/lastmile_qr_scan"}, "fusion_lon": 0.0, "lon": -77.04497816666667, "name": "0cd11aec306bdf4aa3e0df309b6e8485", "is_reserved": 0, "is_disabled": 0}, {"lat": 38.921447, "fusion_lat": 0.0, "type": "electric_bike", "bike_id": "3e6e9e1f629469c1b024c0e344eb53b3", "rental_uris": {"ios": "https://dc.lft.to/lastmile_qr_scan", "android": "https://dc.lft.to/lastmile_qr_scan"}, "fusion_lon": 0.0, "lon": -77.07405066666666, "name": "3e6e9e1f629469c1b024c0e344eb53b3", "is_reserved": 0, "is_disabled": 0}, {"lat": 38.916965166666664, "fusion_lat": 0.0, "type": "electric_scooter", "bike_id": "f452a2bd215e5fa331e322c9d08b98db", "rental_uris": {"ios": "https://dc.lft.to/lastmile_qr_scan", "android": "https://dc.lft.to/lastmile_qr_scan"}, "fusion_lon": 0.0, "lon": -77.041093, "name": "f452a2bd215e5fa331e322c9d08b98db", "is_reserved": 0, "is_disabled": 0}, {"lat": 38.88333016666667, "fusion_lat": 0.0, "type": "electric_scooter", "bike_id": "9e67d5bb34eb21e129bc9545bbbf4ed3", "rental_uris": {"ios": "https://dc.lft.to/lastmile_qr_scan", "android": "https://dc.lft.to/lastmile_qr_scan"}, "fusion_lon": 0.0, "lon": -77.01145166666667, "name": "9e67d5bb34eb21e129bc9545bbbf4ed3", "is_reserved": 0, "is_disabled": 0}, {"lat": 38.981531333333336, "fusion_lat": 0.0, "type": "electric_scooter", "bike_id": "4562b9a99dc7b64630a0c4ff0ecbc83d", "rental_uris": {"ios": "https://dc.lft.to/lastmile_qr_scan", "android": "https://dc.lft.to/lastmile_qr_scan"}, "fusion_lon": 0.0, "lon": -77.02641216666666, "name": "4562b9a99dc7b64630a0c4ff0ecbc83d", "is_reserved": 0, "is_disabled": 0}, {"lat": 38.91682433333333, "fusion_lat": 0.0, "type": "electric_scooter", "bike_id": "2d96bd8b6bb2c67ebf95e059da305efb", "rental_uris": {"ios": "https://dc.lft.to/lastmile_qr_scan", "android": "https://dc.lft.to/lastmile_qr_scan"}, "fusion_lon": 0.0, "lon": -77.02973916666667, "name": "2d96bd8b6bb2c67ebf95e059da305efb", "is_reserved": 0, "is_disabled": 0}, {"lat": 38.90676716666667, "fusion_lat": 0.0, "type": "electric_scooter", "bike_id": "038160ab7df529d1bd641bbdf52697a8", "rental_uris": {"ios": "https://dc.lft.to/lastmile_qr_scan", "android": "https://dc.lft.to/lastmile_qr_scan"}, "fusion_lon": 0.0, "lon": -77.03798433333333, "name": "038160ab7df529d1bd641bbdf52697a8", "is_reserved": 0, "is_disabled": 0}, {"lat": 38.9179365, "fusion_lat": 0.0, "type": "electric_scooter", "bike_id": "d5da2755898a5deaf14de0267381e04a", "rental_uris": {"ios": "https://dc.lft.to/lastmile_qr_scan", "android": "https://dc.lft.to/lastmile_qr_scan"}, "fusion_lon": 0.0, "lon": -77.04017316666666, "name": "d5da2755898a5deaf14de0267381e04a", "is_reserved": 0, "is_disabled": 0}, {"lat": 38.839695166666665, "fusion_lat": 0.0, "type": "electric_bike", "bike_id": "9982d478c78489c7120cac8239dd8498", "rental_uris": {"ios": "https://dc.lft.to/lastmile_qr_scan", "android": "https://dc.lft.to/lastmile_qr_scan"}, "fusion_lon": 0.0, "lon": -76.97736566666667, "name": "9982d478c78489c7120cac8239dd8498", "is_reserved": 0, "is_disabled": 0}, {"lat": 38.92234783333333, "fusion_lat": 0.0, "type": "electric_scooter", "bike_id": "dbd7a5a35348b740737d91adc7573657", "rental_uris": {"ios": "https://dc.lft.to/lastmile_qr_scan", "android": "https://dc.lft.to/lastmile_qr_scan"}, "fusion_lon": 0.0, "lon": -77.04493166666667, "name": "dbd7a5a35348b740737d91adc7573657", "is_reserved": 0, "is_disabled": 0}, {"lat": 38.8953385, "fusion_lat": 0.0, "type": "electric_scooter", "bike_id": "1b8e37fcad86ddf159b48ebf1b725465", "rental_uris": {"ios": "https://dc.lft.to/lastmile_qr_scan", "android": "https://dc.lft.to/lastmile_qr_scan"}, "fusion_lon": 0.0, "lon": -77.0465045, "name": "1b8e37fcad86ddf159b48ebf1b725465", "is_reserved": 0, "is_disabled": 0}, {"lat": 38.919282833333334, "fusion_lat": 0.0, "type": "electric_scooter", "bike_id": "0af542dc2f3db24069e815d8c12a3e00", "rental_uris": {"ios": "https://dc.lft.to/lastmile_qr_scan", "android": "https://dc.lft.to/lastmile_qr_scan"}, "fusion_lon": 0.0, "lon": -76.999487, "name": "0af542dc2f3db24069e815d8c12a3e00", "is_reserved": 0, "is_disabled": 0}, {"lat": 38.89249683333333, "fusion_lat": 0.0, "type": "electric_scooter", "bike_id": "85e6424444b012f197256cdd6768029c", "rental_uris": {"ios": "https://dc.lft.to/lastmile_qr_scan", "android": "https://dc.lft.to/lastmile_qr_scan"}, "fusion_lon": 0.0, "lon": -76.98842966666666, "name": "85e6424444b012f197256cdd6768029c", "is_reserved": 0, "is_disabled": 0}, {"lat": 38.91026466666667, "fusion_lat": 0.0, "type": "electric_scooter", "bike_id": "26df13731f4aeee42c32c515d536e8e1", "rental_uris": {"ios": "https://dc.lft.to/lastmile_qr_scan", "android": "https://dc.lft.to/lastmile_qr_scan"}, "fusion_lon": 0.0, "lon": -77.02936333333334, "name": "26df13731f4aeee42c32c515d536e8e1", "is_reserved": 0, "is_disabled": 0}, {"lat": 39.0048065, "fusion_lat": 0.0, "type": "electric_bike", "bike_id": "5c0611ae72f4c7074de15c8b5c0a2310", "rental_uris": {"ios": "https://dc.lft.to/lastmile_qr_scan", "android": "https://dc.lft.to/lastmile_qr_scan"}, "fusion_lon": 0.0, "lon": -77.02190783333333, "name": "5c0611ae72f4c7074de15c8b5c0a2310", "is_reserved": 0, "is_disabled": 0}, {"lat": 38.90175333333333, "fusion_lat": 0.0, "type": "electric_scooter", "bike_id": "28435fce3c0d6d6e8ec45bcb021ddc8c", "rental_uris": {"ios": "https://dc.lft.to/lastmile_qr_scan", "android": "https://dc.lft.to/lastmile_qr_scan"}, "fusion_lon": 0.0, "lon": -77.01624683333333, "name": "28435fce3c0d6d6e8ec45bcb021ddc8c", "is_reserved": 0, "is_disabled": 0}, {"lat": 38.910875, "fusion_lat": 0.0, "type": "electric_scooter", "bike_id": "2165bf7f3c49db5f799b2eadbc3ca1f0", "rental_uris": {"ios": "https://dc.lft.to/lastmile_qr_scan", "android": "https://dc.lft.to/lastmile_qr_scan"}, "fusion_lon": 0.0, "lon": -77.04485783333334, "name": "2165bf7f3c49db5f799b2eadbc3ca1f0", "is_reserved": 0, "is_disabled": 0}, {"lat": 38.90370566666667, "fusion_lat": 0.0, "type": "electric_scooter", "bike_id": "cbcd2953a03761a0d5e79ce27c4675d8", "rental_uris": {"ios": "https://dc.lft.to/lastmile_qr_scan", "android": "https://dc.lft.to/lastmile_qr_scan"}, "fusion_lon": 0.0, "lon": -77.0386545, "name": "cbcd2953a03761a0d5e79ce27c4675d8", "is_reserved": 0, "is_disabled": 0}, {"lat": 38.870921833333334, "fusion_lat": 0.0, "type": "electric_scooter", "bike_id": "8f73a169e389d4381d6609c2d8948d99", "rental_uris": {"ios": "https://dc.lft.to/lastmile_qr_scan", "android": "https://dc.lft.to/lastmile_qr_scan"}, "fusion_lon": 0.0, "lon": -76.94208533333334, "name": "8f73a169e389d4381d6609c2d8948d99", "is_reserved": 0, "is_disabled": 0}, {"lat": 38.9399025, "fusion_lat": 0.0, "type": "electric_scooter", "bike_id": "04a41d5b579f81d5671d52deafd21919", "rental_uris": {"ios": "https://dc.lft.to/lastmile_qr_scan", "android": "https://dc.lft.to/lastmile_qr_scan"}, "fusion_lon": 0.0, "lon": -77.02545583333334, "name": "04a41d5b579f81d5671d52deafd21919", "is_reserved": 0, "is_disabled": 0}, {"lat": 38.862671, "fusion_lat": 0.0, "type": "electric_scooter", "bike_id": "300a92c700ea566db7e3f406c44ac495", "rental_uris": {"ios": "https://dc.lft.to/lastmile_qr_scan", "android": "https://dc.lft.to/lastmile_qr_scan"}, "fusion_lon": 0.0, "lon": -76.99535966666667, "name": "300a92c700ea566db7e3f406c44ac495", "is_reserved": 0, "is_disabled": 0}, {"lat": 38.87869633333333, "fusion_lat": 0.0, "type": "electric_scooter", "bike_id": "e693011f71eeca5266d710f5fd790554", "rental_uris": {"ios": "https://dc.lft.to/lastmile_qr_scan", "android": "https://dc.lft.to/lastmile_qr_scan"}, "fusion_lon": 0.0, "lon": -76.99680866666667, "name": "e693011f71eeca5266d710f5fd790554", "is_reserved": 0, "is_disabled": 0}, {"lat": 38.897591166666665, "fusion_lat": 0.0, "type": "electric_scooter", "bike_id": "2e7e4e9763f5a1d47053e58a02c8366c", "rental_uris": {"ios": "https://dc.lft.to/lastmile_qr_scan", "android": "https://dc.lft.to/lastmile_qr_scan"}, "fusion_lon": 0.0, "lon": -77.02712816666667, "name": "2e7e4e9763f5a1d47053e58a02c8366c", "is_reserved": 0, "is_disabled": 0}, {"lat": 38.918047666666666, "fusion_lat": 0.0, "type": "electric_scooter", "bike_id": "37783e532788d8b3c5394ffe8bd0de9d", "rental_uris": {"ios": "https://dc.lft.to/lastmile_qr_scan", "android": "https://dc.lft.to/lastmile_qr_scan"}, "fusion_lon": 0.0, "lon": -77.03435966666666, "name": "37783e532788d8b3c5394ffe8bd0de9d", "is_reserved": 0, "is_disabled": 0}, {"lat": 38.9177025, "fusion_lat": 0.0, "type": "electric_scooter", "bike_id": "533510377b1bbc09e951e0fcc38ef65b", "rental_uris": {"ios": "https://dc.lft.to/lastmile_qr_scan", "android": "https://dc.lft.to/lastmile_qr_scan"}, "fusion_lon": 0.0, "lon": -77.02813666666667, "name": "533510377b1bbc09e951e0fcc38ef65b", "is_reserved": 0, "is_disabled": 0}, {"lat": 38.92408866666667, "fusion_lat": 0.0, "type": "electric_scooter", "bike_id": "62b656eee64068195af6efc6dead8502", "rental_uris": {"ios": "https://dc.lft.to/lastmile_qr_scan", "android": "https://dc.lft.to/lastmile_qr_scan"}, "fusion_lon": 0.0, "lon": -77.05065416666666, "name": "62b656eee64068195af6efc6dead8502", "is_reserved": 0, "is_disabled": 0}, {"lat": 38.871369, "fusion_lat": 0.0, "type": "electric_scooter", "bike_id": "67ea8bc70104ebb84e26bab1cc6820a6", "rental_uris": {"ios": "https://dc.lft.to/lastmile_qr_scan", "android": "https://dc.lft.to/lastmile_qr_scan"}, "fusion_lon": 0.0, "lon": -77.00704516666667, "name": "67ea8bc70104ebb84e26bab1cc6820a6", "is_reserved": 0, "is_disabled": 0}, {"lat": 38.9217445, "fusion_lat": 0.0, "type": "electric_scooter", "bike_id": "4057408d3538c5bf9ce70d1314500c96", "rental_uris": {"ios": "https://dc.lft.to/lastmile_qr_scan", "android": "https://dc.lft.to/lastmile_qr_scan"}, "fusion_lon": 0.0, "lon": -77.03836216666667, "name": "4057408d3538c5bf9ce70d1314500c96", "is_reserved": 0, "is_disabled": 0}, {"lat": 38.900122333333336, "fusion_lat": 0.0, "type": "electric_scooter", "bike_id": "7c72c1e19c5aee399e6bb8e5924a7290", "rental_uris": {"ios": "https://dc.lft.to/lastmile_qr_scan", "android": "https://dc.lft.to/lastmile_qr_scan"}, "fusion_lon": 0.0, "lon": -77.04663466666666, "name": "7c72c1e19c5aee399e6bb8e5924a7290", "is_reserved": 0, "is_disabled": 0}, {"lat": 38.86929083333333, "fusion_lat": 0.0, "type": "electric_scooter", "bike_id": "265f5a98883df8099ca42bab4c31afba", "rental_uris": {"ios": "https://dc.lft.to/lastmile_qr_scan", "android": "https://dc.lft.to/lastmile_qr_scan"}, "fusion_lon": 0.0, "lon": -77.013742, "name": "265f5a98883df8099ca42bab4c31afba", "is_reserved": 0, "is_disabled": 0}, {"lat": 38.91299216666667, "fusion_lat": 0.0, "type": "electric_scooter", "bike_id": "4cbedc54710f7bf10d96883365b2d1b8", "rental_uris": {"ios": "https://dc.lft.to/lastmile_qr_scan", "android": "https://dc.lft.to/lastmile_qr_scan"}, "fusion_lon": 0.0, "lon": -77.026966, "name": "4cbedc54710f7bf10d96883365b2d1b8", "is_reserved": 0, "is_disabled": 0}, {"lat": 38.920245666666666, "fusion_lat": 0.0, "type": "electric_scooter", "bike_id": "8e16a9ca18ab0d99db9fb952cab6d837", "rental_uris": {"ios": "https://dc.lft.to/lastmile_qr_scan", "android": "https://dc.lft.to/lastmile_qr_scan"}, "fusion_lon": 0.0, "lon": -77.0305585, "name": "8e16a9ca18ab0d99db9fb952cab6d837", "is_reserved": 0, "is_disabled": 0}, {"lat": 38.8903955, "fusion_lat": 0.0, "type": "electric_scooter", "bike_id": "cea2be6bd01bac38a976c6c64802ee04", "rental_uris": {"ios": "https://dc.lft.to/lastmile_qr_scan", "android": "https://dc.lft.to/lastmile_qr_scan"}, "fusion_lon": 0.0, "lon": -76.93757216666667, "name": "cea2be6bd01bac38a976c6c64802ee04", "is_reserved": 0, "is_disabled": 0}, {"lat": 38.8935395, "fusion_lat": 0.0, "type": "electric_scooter", "bike_id": "acb8fe7d81f5669e4949f50067a6f0cd", "rental_uris": {"ios": "https://dc.lft.to/lastmile_qr_scan", "android": "https://dc.lft.to/lastmile_qr_scan"}, "fusion_lon": 0.0, "lon": -77.00338233333333, "name": "acb8fe7d81f5669e4949f50067a6f0cd", "is_reserved": 0, "is_disabled": 0}, {"lat": 38.89608366666667, "fusion_lat": 0.0, "type": "electric_scooter", "bike_id": "27ec3b2cd65c5eea9d02af01780a7fc4", "rental_uris": {"ios": "https://dc.lft.to/lastmile_qr_scan", "android": "https://dc.lft.to/lastmile_qr_scan"}, "fusion_lon": 0.0, "lon": -77.04280733333333, "name": "27ec3b2cd65c5eea9d02af01780a7fc4", "is_reserved": 0, "is_disabled": 0}, {"lat": 38.86974933333333, "fusion_lat": 0.0, "type": "electric_scooter", "bike_id": "d506280bec21f243f26f94c77bd09c40", "rental_uris": {"ios": "https://dc.lft.to/lastmile_qr_scan", "android": "https://dc.lft.to/lastmile_qr_scan"}, "fusion_lon": 0.0, "lon": -77.01228283333333, "name": "d506280bec21f243f26f94c77bd09c40", "is_reserved": 0, "is_disabled": 0}, {"lat": 38.922497, "fusion_lat": 0.0, "type": "electric_scooter", "bike_id": "70cd70884310ef3a931482b068b19d62", "rental_uris": {"ios": "https://dc.lft.to/lastmile_qr_scan", "android": "https://dc.lft.to/lastmile_qr_scan"}, "fusion_lon": 0.0, "lon": -77.01950716666667, "name": "70cd70884310ef3a931482b068b19d62", "is_reserved": 0, "is_disabled": 0}, {"lat": 38.932828666666666, "fusion_lat": 0.0, "type": "electric_scooter", "bike_id": "d060787376efc2c52cc14ce82c8d05e6", "rental_uris": {"ios": "https://dc.lft.to/lastmile_qr_scan", "android": "https://dc.lft.to/lastmile_qr_scan"}, "fusion_lon": 0.0, "lon": -77.0250455, "name": "d060787376efc2c52cc14ce82c8d05e6", "is_reserved": 0, "is_disabled": 0}, {"lat": 38.901312833333336, "fusion_lat": 0.0, "type": "electric_scooter", "bike_id": "6d8faab80f8c2983702df5b02210ce30", "rental_uris": {"ios": "https://dc.lft.to/lastmile_qr_scan", "android": "https://dc.lft.to/lastmile_qr_scan"}, "fusion_lon": 0.0, "lon": -77.02198016666667, "name": "6d8faab80f8c2983702df5b02210ce30", "is_reserved": 0, "is_disabled": 0}, {"lat": 38.89263033333334, "fusion_lat": 0.0, "type": "electric_scooter", "bike_id": "c556dade408390eafebc47defb5bd5da", "rental_uris": {"ios": "https://dc.lft.to/lastmile_qr_scan", "android": "https://dc.lft.to/lastmile_qr_scan"}, "fusion_lon": 0.0, "lon": -77.04676183333333, "name": "c556dade408390eafebc47defb5bd5da", "is_reserved": 0, "is_disabled": 0}, {"lat": 38.9230405, "fusion_lat": 0.0, "type": "electric_bike", "bike_id": "0f21606a199e1690e5324263b5242c37", "rental_uris": {"ios": "https://dc.lft.to/lastmile_qr_scan", "android": "https://dc.lft.to/lastmile_qr_scan"}, "fusion_lon": 0.0, "lon": -76.9978635, "name": "0f21606a199e1690e5324263b5242c37", "is_reserved": 0, "is_disabled": 0}, {"lat": 38.887437166666665, "fusion_lat": 0.0, "type": "electric_scooter", "bike_id": "433c071e3a859bc2edf5a8070e4cbe6b", "rental_uris": {"ios": "https://dc.lft.to/lastmile_qr_scan", "android": "https://dc.lft.to/lastmile_qr_scan"}, "fusion_lon": 0.0, "lon": -77.02131916666667, "name": "433c071e3a859bc2edf5a8070e4cbe6b", "is_reserved": 0, "is_disabled": 0}, {"lat": 38.96665983333333, "fusion_lat": 0.0, "type": "electric_bike", "bike_id": "957efbaf07a5861068a1bbd475a76a90", "rental_uris": {"ios": "https://dc.lft.to/lastmile_qr_scan", "android": "https://dc.lft.to/lastmile_qr_scan"}, "fusion_lon": 0.0, "lon": -76.97447566666666, "name": "957efbaf07a5861068a1bbd475a76a90", "is_reserved": 0, "is_disabled": 0}, {"lat": 38.900990166666666, "fusion_lat": 0.0, "type": "electric_scooter", "bike_id": "22c1ec1cd0e4dc047d837a8aeaec508e", "rental_uris": {"ios": "https://dc.lft.to/lastmile_qr_scan", "android": "https://dc.lft.to/lastmile_qr_scan"}, "fusion_lon": 0.0, "lon": -77.04536983333334, "name": "22c1ec1cd0e4dc047d837a8aeaec508e", "is_reserved": 0, "is_disabled": 0}, {"lat": 38.887465, "fusion_lat": 0.0, "type": "electric_scooter", "bike_id": "730b37ada1cd9887f390d65c830193f8", "rental_uris": {"ios": "https://dc.lft.to/lastmile_qr_scan", "android": "https://dc.lft.to/lastmile_qr_scan"}, "fusion_lon": 0.0, "lon": -77.01405866666667, "name": "730b37ada1cd9887f390d65c830193f8", "is_reserved": 0, "is_disabled": 0}, {"lat": 38.90563366666667, "fusion_lat": 0.0, "type": "electric_scooter", "bike_id": "c66f03351ed64adb1e782e76d004757c", "rental_uris": {"ios": "https://dc.lft.to/lastmile_qr_scan", "android": "https://dc.lft.to/lastmile_qr_scan"}, "fusion_lon": 0.0, "lon": -77.04947883333334, "name": "c66f03351ed64adb1e782e76d004757c", "is_reserved": 0, "is_disabled": 0}, {"lat": 38.88730433333333, "fusion_lat": 0.0, "type": "electric_scooter", "bike_id": "e1aa7b02de577fc495a95e6bd99a3caa", "rental_uris": {"ios": "https://dc.lft.to/lastmile_qr_scan", "android": "https://dc.lft.to/lastmile_qr_scan"}, "fusion_lon": 0.0, "lon": -77.03179216666666, "name": "e1aa7b02de577fc495a95e6bd99a3caa", "is_reserved": 0, "is_disabled": 0}, {"lat": 38.887333166666664, "fusion_lat": 0.0, "type": "electric_scooter", "bike_id": "6fb7c8be732dafe517457224bd21c148", "rental_uris": {"ios": "https://dc.lft.to/lastmile_qr_scan", "android": "https://dc.lft.to/lastmile_qr_scan"}, "fusion_lon": 0.0, "lon": -77.0139025, "name": "6fb7c8be732dafe517457224bd21c148", "is_reserved": 0, "is_disabled": 0}, {"lat": 38.90273833333333, "fusion_lat": 0.0, "type": "electric_scooter", "bike_id": "4bbab935e66168b8f465b38f5eb87ed1", "rental_uris": {"ios": "https://dc.lft.to/lastmile_qr_scan", "android": "https://dc.lft.to/lastmile_qr_scan"}, "fusion_lon": 0.0, "lon": -77.04618716666667, "name": "4bbab935e66168b8f465b38f5eb87ed1", "is_reserved": 0, "is_disabled": 0}, {"lat": 38.92589483333333, "fusion_lat": 0.0, "type": "electric_scooter", "bike_id": "15d0d4c74a3921a37b67d1aeb8cef1bd", "rental_uris": {"ios": "https://dc.lft.to/lastmile_qr_scan", "android": "https://dc.lft.to/lastmile_qr_scan"}, "fusion_lon": 0.0, "lon": -77.036409, "name": "15d0d4c74a3921a37b67d1aeb8cef1bd", "is_reserved": 0, "is_disabled": 0}, {"lat": 38.9621945, "fusion_lat": 0.0, "type": "electric_bike", "bike_id": "1ae6bf43e974a86007f2e4a41d8a173f", "rental_uris": {"ios": "https://dc.lft.to/lastmile_qr_scan", "android": "https://dc.lft.to/lastmile_qr_scan"}, "fusion_lon": 0.0, "lon": -77.0263165, "name": "1ae6bf43e974a86007f2e4a41d8a173f", "is_reserved": 0, "is_disabled": 0}, {"lat": 38.91501816666667, "fusion_lat": 0.0, "type": "electric_scooter", "bike_id": "be33590fbda5638d0882466580d8c38d", "rental_uris": {"ios": "https://dc.lft.to/lastmile_qr_scan", "android": "https://dc.lft.to/lastmile_qr_scan"}, "fusion_lon": 0.0, "lon": -77.03258616666666, "name": "be33590fbda5638d0882466580d8c38d", "is_reserved": 0, "is_disabled": 0}, {"lat": 38.88016733333333, "fusion_lat": 0.0, "type": "electric_scooter", "bike_id": "d7c6626c0b3d1a524b734267f2b5e6c5", "rental_uris": {"ios": "https://dc.lft.to/lastmile_qr_scan", "android": "https://dc.lft.to/lastmile_qr_scan"}, "fusion_lon": 0.0, "lon": -76.980706, "name": "d7c6626c0b3d1a524b734267f2b5e6c5", "is_reserved": 0, "is_disabled": 0}, {"lat": 38.90243233333333, "fusion_lat": 0.0, "type": "electric_scooter", "bike_id": "4d81d55e87b8efa13f2cfd2517350150", "rental_uris": {"ios": "https://dc.lft.to/lastmile_qr_scan", "android": "https://dc.lft.to/lastmile_qr_scan"}, "fusion_lon": 0.0, "lon": -76.99921983333333, "name": "4d81d55e87b8efa13f2cfd2517350150", "is_reserved": 0, "is_disabled": 0}, {"lat": 38.909691333333335, "fusion_lat": 0.0, "type": "electric_scooter", "bike_id": "62d08a3bc7235a775742e676ce991321", "rental_uris": {"ios": "https://dc.lft.to/lastmile_qr_scan", "android": "https://dc.lft.to/lastmile_qr_scan"}, "fusion_lon": 0.0, "lon": -77.0326435, "name": "62d08a3bc7235a775742e676ce991321", "is_reserved": 0, "is_disabled": 0}, {"lat": 38.92482916666667, "fusion_lat": 0.0, "type": "electric_scooter", "bike_id": "c58de7e578a3ccffc7b9f2b633d12682", "rental_uris": {"ios": "https://dc.lft.to/lastmile_qr_scan", "android": "https://dc.lft.to/lastmile_qr_scan"}, "fusion_lon": 0.0, "lon": -77.05220283333334, "name": "c58de7e578a3ccffc7b9f2b633d12682", "is_reserved": 0, "is_disabled": 0}, {"lat": 38.81908883333333, "fusion_lat": 0.0, "type": "electric_bike", "bike_id": "5022d993fbb5329934d878f6aa29e764", "rental_uris": {"ios": "https://dc.lft.to/lastmile_qr_scan", "android": "https://dc.lft.to/lastmile_qr_scan"}, "fusion_lon": 0.0, "lon": -77.12655966666667, "name": "5022d993fbb5329934d878f6aa29e764", "is_reserved": 0, "is_disabled": 0}, {"lat": 38.91600066666667, "fusion_lat": 0.0, "type": "electric_scooter", "bike_id": "d9f491c948a2ac505e08164ffe75e146", "rental_uris": {"ios": "https://dc.lft.to/lastmile_qr_scan", "android": "https://dc.lft.to/lastmile_qr_scan"}, "fusion_lon": 0.0, "lon": -77.03378216666667, "name": "d9f491c948a2ac505e08164ffe75e146", "is_reserved": 0, "is_disabled": 0}, {"lat": 38.89780783333333, "fusion_lat": 0.0, "type": "electric_scooter", "bike_id": "4d8a5c1cc1fd28bafe1a56c00e186366", "rental_uris": {"ios": "https://dc.lft.to/lastmile_qr_scan", "android": "https://dc.lft.to/lastmile_qr_scan"}, "fusion_lon": 0.0, "lon": -77.02213216666667, "name": "4d8a5c1cc1fd28bafe1a56c00e186366", "is_reserved": 0, "is_disabled": 0}, {"lat": 38.897974166666664, "fusion_lat": 0.0, "type": "electric_scooter", "bike_id": "fe5680f4171aab0a11c1c8215892bb57", "rental_uris": {"ios": "https://dc.lft.to/lastmile_qr_scan", "android": "https://dc.lft.to/lastmile_qr_scan"}, "fusion_lon": 0.0, "lon": -77.02806516666666, "name": "fe5680f4171aab0a11c1c8215892bb57", "is_reserved": 0, "is_disabled": 0}, {"lat": 38.922500666666664, "fusion_lat": 0.0, "type": "electric_scooter", "bike_id": "51c1ec78b84983cf9fc2dfd45482c271", "rental_uris": {"ios": "https://dc.lft.to/lastmile_qr_scan", "android": "https://dc.lft.to/lastmile_qr_scan"}, "fusion_lon": 0.0, "lon": -77.01952283333334, "name": "51c1ec78b84983cf9fc2dfd45482c271", "is_reserved": 0, "is_disabled": 0}, {"lat": 38.923292000000004, "fusion_lat": 0.0, "type": "electric_scooter", "bike_id": "ce860f450a76f390798d39da82e7b0e6", "rental_uris": {"ios": "https://dc.lft.to/lastmile_qr_scan", "android": "https://dc.lft.to/lastmile_qr_scan"}, "fusion_lon": 0.0, "lon": -77.04616133333333, "name": "ce860f450a76f390798d39da82e7b0e6", "is_reserved": 0, "is_disabled": 0}, {"lat": 38.93604883333333, "fusion_lat": 0.0, "type": "electric_scooter", "bike_id": "c44e203bb14975b4840f3903d71a63f4", "rental_uris": {"ios": "https://dc.lft.to/lastmile_qr_scan", "android": "https://dc.lft.to/lastmile_qr_scan"}, "fusion_lon": 0.0, "lon": -77.08217933333333, "name": "c44e203bb14975b4840f3903d71a63f4", "is_reserved": 0, "is_disabled": 0}, {"lat": 38.924167, "fusion_lat": 0.0, "type": "electric_scooter", "bike_id": "b76080ff128db17ab9073019890aa3ee", "rental_uris": {"ios": "https://dc.lft.to/lastmile_qr_scan", "android": "https://dc.lft.to/lastmile_qr_scan"}, "fusion_lon": 0.0, "lon": -77.01946033333333, "name": "b76080ff128db17ab9073019890aa3ee", "is_reserved": 0, "is_disabled": 0}, {"lat": 38.92416216666667, "fusion_lat": 0.0, "type": "electric_scooter", "bike_id": "99d168ee18c70a0b79d1efe6e089c171", "rental_uris": {"ios": "https://dc.lft.to/lastmile_qr_scan", "android": "https://dc.lft.to/lastmile_qr_scan"}, "fusion_lon": 0.0, "lon": -77.06520016666667, "name": "99d168ee18c70a0b79d1efe6e089c171", "is_reserved": 0, "is_disabled": 0}, {"lat": 38.9644135, "fusion_lat": 0.0, "type": "electric_bike", "bike_id": "7752c2e9cb7d5d43dcaa2992a28c3bcf", "rental_uris": {"ios": "https://dc.lft.to/lastmile_qr_scan", "android": "https://dc.lft.to/lastmile_qr_scan"}, "fusion_lon": 0.0, "lon": -77.02238333333334, "name": "7752c2e9cb7d5d43dcaa2992a28c3bcf", "is_reserved": 0, "is_disabled": 0}, {"lat": 38.91407233333334, "fusion_lat": 0.0, "type": "electric_scooter", "bike_id": "fcb33e05e9aa1651867739282f87fa42", "rental_uris": {"ios": "https://dc.lft.to/lastmile_qr_scan", "android": "https://dc.lft.to/lastmile_qr_scan"}, "fusion_lon": 0.0, "lon": -77.03170183333333, "name": "fcb33e05e9aa1651867739282f87fa42", "is_reserved": 0, "is_disabled": 0}, {"lat": 38.909918166666664, "fusion_lat": 0.0, "type": "electric_scooter", "bike_id": "914f5549466ffb0bc7c46a7fcd42a829", "rental_uris": {"ios": "https://dc.lft.to/lastmile_qr_scan", "android": "https://dc.lft.to/lastmile_qr_scan"}, "fusion_lon": 0.0, "lon": -77.032042, "name": "914f5549466ffb0bc7c46a7fcd42a829", "is_reserved": 0, "is_disabled": 0}, {"lat": 38.89737866666667, "fusion_lat": 0.0, "type": "electric_scooter", "bike_id": "67a15fe1745b40112ef9a86c88de60c5", "rental_uris": {"ios": "https://dc.lft.to/lastmile_qr_scan", "android": "https://dc.lft.to/lastmile_qr_scan"}, "fusion_lon": 0.0, "lon": -77.00930066666666, "name": "67a15fe1745b40112ef9a86c88de60c5", "is_reserved": 0, "is_disabled": 0}, {"lat": 38.87845216666667, "fusion_lat": 0.0, "type": "electric_scooter", "bike_id": "b79a29da461f811df1db70d536781908", "rental_uris": {"ios": "https://dc.lft.to/lastmile_qr_scan", "android": "https://dc.lft.to/lastmile_qr_scan"}, "fusion_lon": 0.0, "lon": -77.0074135, "name": "b79a29da461f811df1db70d536781908", "is_reserved": 0, "is_disabled": 0}, {"lat": 38.907171166666664, "fusion_lat": 0.0, "type": "electric_scooter", "bike_id": "351b489cee011b5a3b8c73e3c028b971", "rental_uris": {"ios": "https://dc.lft.to/lastmile_qr_scan", "android": "https://dc.lft.to/lastmile_qr_scan"}, "fusion_lon": 0.0, "lon": -77.03545866666667, "name": "351b489cee011b5a3b8c73e3c028b971", "is_reserved": 0, "is_disabled": 0}, {"lat": 38.900713333333336, "fusion_lat": 0.0, "type": "electric_scooter", "bike_id": "49a7e3f310eb89d8ee1c0c949e4a9800", "rental_uris": {"ios": "https://dc.lft.to/lastmile_qr_scan", "android": "https://dc.lft.to/lastmile_qr_scan"}, "fusion_lon": 0.0, "lon": -77.0269345, "name": "49a7e3f310eb89d8ee1c0c949e4a9800", "is_reserved": 0, "is_disabled": 0}, {"lat": 38.90050766666667, "fusion_lat": 0.0, "type": "electric_scooter", "bike_id": "0bff3926539c3feebda79338ce64a211", "rental_uris": {"ios": "https://dc.lft.to/lastmile_qr_scan", "android": "https://dc.lft.to/lastmile_qr_scan"}, "fusion_lon": 0.0, "lon": -76.99672066666666, "name": "0bff3926539c3feebda79338ce64a211", "is_reserved": 0, "is_disabled": 0}, {"lat": 38.8682375, "fusion_lat": 0.0, "type": "electric_scooter", "bike_id": "a4d440b724707888f5ff032d4fabbc89", "rental_uris": {"ios": "https://dc.lft.to/lastmile_qr_scan", "android": "https://dc.lft.to/lastmile_qr_scan"}, "fusion_lon": 0.0, "lon": -77.0098345, "name": "a4d440b724707888f5ff032d4fabbc89", "is_reserved": 0, "is_disabled": 0}, {"lat": 38.92667866666667, "fusion_lat": 0.0, "type": "electric_scooter", "bike_id": "b780735f08081b0b89ba57467765f968", "rental_uris": {"ios": "https://dc.lft.to/lastmile_qr_scan", "android": "https://dc.lft.to/lastmile_qr_scan"}, "fusion_lon": 0.0, "lon": -77.015131, "name": "b780735f08081b0b89ba57467765f968", "is_reserved": 0, "is_disabled": 0}, {"lat": 38.89901416666667, "fusion_lat": 0.0, "type": "electric_scooter", "bike_id": "61f2bd0952c1d7f14d88408288f353cf", "rental_uris": {"ios": "https://dc.lft.to/lastmile_qr_scan", "android": "https://dc.lft.to/lastmile_qr_scan"}, "fusion_lon": 0.0, "lon": -77.021755, "name": "61f2bd0952c1d7f14d88408288f353cf", "is_reserved": 0, "is_disabled": 0}, {"lat": 38.97827783333334, "fusion_lat": 0.0, "type": "electric_bike", "bike_id": "5d3e8f80ef6b704337d912fcef7ba531", "rental_uris": {"ios": "https://dc.lft.to/lastmile_qr_scan", "android": "https://dc.lft.to/lastmile_qr_scan"}, "fusion_lon": 0.0, "lon": -76.92895483333334, "name": "5d3e8f80ef6b704337d912fcef7ba531", "is_reserved": 0, "is_disabled": 0}, {"lat": 38.99225366666667, "fusion_lat": 0.0, "type": "electric_bike", "bike_id": "88d9e64021e2d3a10e1d17b197f94061", "rental_uris": {"ios": "https://dc.lft.to/lastmile_qr_scan", "android": "https://dc.lft.to/lastmile_qr_scan"}, "fusion_lon": 0.0, "lon": -77.03585716666667, "name": "88d9e64021e2d3a10e1d17b197f94061", "is_reserved": 0, "is_disabled": 0}, {"lat": 38.918927333333336, "fusion_lat": 0.0, "type": "electric_scooter", "bike_id": "e56dbf27e087b4fa1739234f59929dbe", "rental_uris": {"ios": "https://dc.lft.to/lastmile_qr_scan", "android": "https://dc.lft.to/lastmile_qr_scan"}, "fusion_lon": 0.0, "lon": -77.029518, "name": "e56dbf27e087b4fa1739234f59929dbe", "is_reserved": 0, "is_disabled": 0}, {"lat": 38.88457116666667, "fusion_lat": 0.0, "type": "electric_bike", "bike_id": "d1ae2a217d54c2e5ae3bcc2595182359", "rental_uris": {"ios": "https://dc.lft.to/lastmile_qr_scan", "android": "https://dc.lft.to/lastmile_qr_scan"}, "fusion_lon": 0.0, "lon": -76.952392, "name": "d1ae2a217d54c2e5ae3bcc2595182359", "is_reserved": 0, "is_disabled": 0}, {"lat": 38.91905333333333, "fusion_lat": 0.0, "type": "electric_scooter", "bike_id": "00ea3ae8208004cd5a91d23fd52ff766", "rental_uris": {"ios": "https://dc.lft.to/lastmile_qr_scan", "android": "https://dc.lft.to/lastmile_qr_scan"}, "fusion_lon": 0.0, "lon": -77.02499833333333, "name": "00ea3ae8208004cd5a91d23fd52ff766", "is_reserved": 0, "is_disabled": 0}, {"lat": 38.9168445, "fusion_lat": 0.0, "type": "electric_scooter", "bike_id": "7f1b3aca887e0357a2087374c99d212e", "rental_uris": {"ios": "https://dc.lft.to/lastmile_qr_scan", "android": "https://dc.lft.to/lastmile_qr_scan"}, "fusion_lon": 0.0, "lon": -77.02948466666666, "name": "7f1b3aca887e0357a2087374c99d212e", "is_reserved": 0, "is_disabled": 0}, {"lat": 38.915526166666666, "fusion_lat": 0.0, "type": "electric_scooter", "bike_id": "d3e2a11813b8cbc73a0c165dc7b59e62", "rental_uris": {"ios": "https://dc.lft.to/lastmile_qr_scan", "android": "https://dc.lft.to/lastmile_qr_scan"}, "fusion_lon": 0.0, "lon": -77.0317165, "name": "d3e2a11813b8cbc73a0c165dc7b59e62", "is_reserved": 0, "is_disabled": 0}, {"lat": 38.921761833333335, "fusion_lat": 0.0, "type": "electric_scooter", "bike_id": "8093636a58877b68c852d016035917af", "rental_uris": {"ios": "https://dc.lft.to/lastmile_qr_scan", "android": "https://dc.lft.to/lastmile_qr_scan"}, "fusion_lon": 0.0, "lon": -77.03836883333334, "name": "8093636a58877b68c852d016035917af", "is_reserved": 0, "is_disabled": 0}, {"lat": 38.9192385, "fusion_lat": 0.0, "type": "electric_scooter", "bike_id": "c9c683a339227289c3dbc20bc0eb0a9e", "rental_uris": {"ios": "https://dc.lft.to/lastmile_qr_scan", "android": "https://dc.lft.to/lastmile_qr_scan"}, "fusion_lon": 0.0, "lon": -77.03360166666667, "name": "c9c683a339227289c3dbc20bc0eb0a9e", "is_reserved": 0, "is_disabled": 0}, {"lat": 38.94919733333333, "fusion_lat": 0.0, "type": "electric_bike", "bike_id": "cdc6ce891d351a415559913873eab76b", "rental_uris": {"ios": "https://dc.lft.to/lastmile_qr_scan", "android": "https://dc.lft.to/lastmile_qr_scan"}, "fusion_lon": 0.0, "lon": -77.0080055, "name": "cdc6ce891d351a415559913873eab76b", "is_reserved": 0, "is_disabled": 0}, {"lat": 38.919284, "fusion_lat": 0.0, "type": "electric_scooter", "bike_id": "cb18948b00e7b5a84dc86f8720b6361e", "rental_uris": {"ios": "https://dc.lft.to/lastmile_qr_scan", "android": "https://dc.lft.to/lastmile_qr_scan"}, "fusion_lon": 0.0, "lon": -77.02503066666667, "name": "cb18948b00e7b5a84dc86f8720b6361e", "is_reserved": 0, "is_disabled": 0}, {"lat": 38.84272933333333, "fusion_lat": 0.0, "type": "electric_bike", "bike_id": "4d4e960ae802b1e78b8d78ec1d27f869", "rental_uris": {"ios": "https://dc.lft.to/lastmile_qr_scan", "android": "https://dc.lft.to/lastmile_qr_scan"}, "fusion_lon": 0.0, "lon": -76.98841783333333, "name": "4d4e960ae802b1e78b8d78ec1d27f869", "is_reserved": 0, "is_disabled": 0}, {"lat": 38.92309016666667, "fusion_lat": 0.0, "type": "electric_scooter", "bike_id": "12256eabb530d26ff71a8f1412052383", "rental_uris": {"ios": "https://dc.lft.to/lastmile_qr_scan", "android": "https://dc.lft.to/lastmile_qr_scan"}, "fusion_lon": 0.0, "lon": -77.02907516666667, "name": "12256eabb530d26ff71a8f1412052383", "is_reserved": 0, "is_disabled": 0}, {"lat": 38.95741533333333, "fusion_lat": 0.0, "type": "electric_scooter", "bike_id": "bf588b0a8a539f9ea1d20b77b7d560a9", "rental_uris": {"ios": "https://dc.lft.to/lastmile_qr_scan", "android": "https://dc.lft.to/lastmile_qr_scan"}, "fusion_lon": 0.0, "lon": -77.0023035, "name": "bf588b0a8a539f9ea1d20b77b7d560a9", "is_reserved": 0, "is_disabled": 0}, {"lat": 38.9146655, "fusion_lat": 0.0, "type": "electric_scooter", "bike_id": "f5a20eb6a488ef9bdebecc0ea32e8f8c", "rental_uris": {"ios": "https://dc.lft.to/lastmile_qr_scan", "android": "https://dc.lft.to/lastmile_qr_scan"}, "fusion_lon": 0.0, "lon": -77.015584, "name": "f5a20eb6a488ef9bdebecc0ea32e8f8c", "is_reserved": 0, "is_disabled": 0}, {"lat": 38.9210015, "fusion_lat": 0.0, "type": "electric_scooter", "bike_id": "d0e389f84376f27b852eab2b43db1b4e", "rental_uris": {"ios": "https://dc.lft.to/lastmile_qr_scan", "android": "https://dc.lft.to/lastmile_qr_scan"}, "fusion_lon": 0.0, "lon": -77.02215716666667, "name": "d0e389f84376f27b852eab2b43db1b4e", "is_reserved": 0, "is_disabled": 0}, {"lat": 38.873796166666665, "fusion_lat": 0.0, "type": "electric_scooter", "bike_id": "fa225a5a693e7403be27b1093cafd4b4", "rental_uris": {"ios": "https://dc.lft.to/lastmile_qr_scan", "android": "https://dc.lft.to/lastmile_qr_scan"}, "fusion_lon": 0.0, "lon": -77.00166166666666, "name": "fa225a5a693e7403be27b1093cafd4b4", "is_reserved": 0, "is_disabled": 0}, {"lat": 38.887350833333336, "fusion_lat": 0.0, "type": "electric_scooter", "bike_id": "dae31c6c3f827bb009556ffb98ff69e5", "rental_uris": {"ios": "https://dc.lft.to/lastmile_qr_scan", "android": "https://dc.lft.to/lastmile_qr_scan"}, "fusion_lon": 0.0, "lon": -77.01530366666667, "name": "dae31c6c3f827bb009556ffb98ff69e5", "is_reserved": 0, "is_disabled": 0}, {"lat": 38.9426525, "fusion_lat": 0.0, "type": "electric_bike", "bike_id": "e75e58cc884df81651e61005b142f09c", "rental_uris": {"ios": "https://dc.lft.to/lastmile_qr_scan", "android": "https://dc.lft.to/lastmile_qr_scan"}, "fusion_lon": 0.0, "lon": -77.028364, "name": "e75e58cc884df81651e61005b142f09c", "is_reserved": 0, "is_disabled": 0}, {"lat": 38.91707866666667, "fusion_lat": 0.0, "type": "electric_scooter", "bike_id": "338acc227f0f1fa5b489dfd94e1664fa", "rental_uris": {"ios": "https://dc.lft.to/lastmile_qr_scan", "android": "https://dc.lft.to/lastmile_qr_scan"}, "fusion_lon": 0.0, "lon": -77.0250645, "name": "338acc227f0f1fa5b489dfd94e1664fa", "is_reserved": 0, "is_disabled": 0}, {"lat": 38.85089116666666, "fusion_lat": 0.0, "type": "electric_bike", "bike_id": "aa506cd7e21d4db4e137e8b372ca9cd5", "rental_uris": {"ios": "https://dc.lft.to/lastmile_qr_scan", "android": "https://dc.lft.to/lastmile_qr_scan"}, "fusion_lon": 0.0, "lon": -76.9570275, "name": "aa506cd7e21d4db4e137e8b372ca9cd5", "is_reserved": 0, "is_disabled": 0}, {"lat": 38.926191, "fusion_lat": 0.0, "type": "electric_scooter", "bike_id": "4be30b410b7caad8f5c48e4351d250ec", "rental_uris": {"ios": "https://dc.lft.to/lastmile_qr_scan", "android": "https://dc.lft.to/lastmile_qr_scan"}, "fusion_lon": 0.0, "lon": -77.04198883333333, "name": "4be30b410b7caad8f5c48e4351d250ec", "is_reserved": 0, "is_disabled": 0}, {"lat": 38.898905, "fusion_lat": 0.0, "type": "electric_scooter", "bike_id": "f9dde511e632d53dac0a2e0e07ea171f", "rental_uris": {"ios": "https://dc.lft.to/lastmile_qr_scan", "android": "https://dc.lft.to/lastmile_qr_scan"}, "fusion_lon": 0.0, "lon": -77.04347433333334, "name": "f9dde511e632d53dac0a2e0e07ea171f", "is_reserved": 0, "is_disabled": 0}, {"lat": 38.918192833333336, "fusion_lat": 0.0, "type": "electric_scooter", "bike_id": "115928ad6f86950996add3d0f89f1353", "rental_uris": {"ios": "https://dc.lft.to/lastmile_qr_scan", "android": "https://dc.lft.to/lastmile_qr_scan"}, "fusion_lon": 0.0, "lon": -77.04178733333333, "name": "115928ad6f86950996add3d0f89f1353", "is_reserved": 0, "is_disabled": 0}, {"lat": 38.89809116666667, "fusion_lat": 0.0, "type": "electric_scooter", "bike_id": "0c4a61e1c3b7cd810912d6b3b05e2668", "rental_uris": {"ios": "https://dc.lft.to/lastmile_qr_scan", "android": "https://dc.lft.to/lastmile_qr_scan"}, "fusion_lon": 0.0, "lon": -77.031507, "name": "0c4a61e1c3b7cd810912d6b3b05e2668", "is_reserved": 0, "is_disabled": 0}, {"lat": 38.96440466666667, "fusion_lat": 0.0, "type": "electric_scooter", "bike_id": "46ad63cba365e2ab12f8753cce9773d6", "rental_uris": {"ios": "https://dc.lft.to/lastmile_qr_scan", "android": "https://dc.lft.to/lastmile_qr_scan"}, "fusion_lon": 0.0, "lon": -77.01998466666667, "name": "46ad63cba365e2ab12f8753cce9773d6", "is_reserved": 0, "is_disabled": 0}, {"lat": 38.921602166666666, "fusion_lat": 0.0, "type": "electric_scooter", "bike_id": "0931ed7691b2854c5f6bff530d152877", "rental_uris": {"ios": "https://dc.lft.to/lastmile_qr_scan", "android": "https://dc.lft.to/lastmile_qr_scan"}, "fusion_lon": 0.0, "lon": -77.03464633333333, "name": "0931ed7691b2854c5f6bff530d152877", "is_reserved": 0, "is_disabled": 0}, {"lat": 38.873416666666664, "fusion_lat": 0.0, "type": "electric_scooter", "bike_id": "0bfaac476319ab111f9c8c4c778d0c98", "rental_uris": {"ios": "https://dc.lft.to/lastmile_qr_scan", "android": "https://dc.lft.to/lastmile_qr_scan"}, "fusion_lon": 0.0, "lon": -76.991664, "name": "0bfaac476319ab111f9c8c4c778d0c98", "is_reserved": 0, "is_disabled": 0}, {"lat": 38.96128366666667, "fusion_lat": 0.0, "type": "electric_scooter", "bike_id": "b47011c56fd2d23ccfa290b94d0afeb3", "rental_uris": {"ios": "https://dc.lft.to/lastmile_qr_scan", "android": "https://dc.lft.to/lastmile_qr_scan"}, "fusion_lon": 0.0, "lon": -77.02821566666667, "name": "b47011c56fd2d23ccfa290b94d0afeb3", "is_reserved": 0, "is_disabled": 0}, {"lat": 38.91889, "fusion_lat": 0.0, "type": "electric_scooter", "bike_id": "14f1bbcc1b2c80b0219989c2a07f74b0", "rental_uris": {"ios": "https://dc.lft.to/lastmile_qr_scan", "android": "https://dc.lft.to/lastmile_qr_scan"}, "fusion_lon": 0.0, "lon": -77.01219083333334, "name": "14f1bbcc1b2c80b0219989c2a07f74b0", "is_reserved": 0, "is_disabled": 0}, {"lat": 38.98039983333334, "fusion_lat": 0.0, "type": "electric_bike", "bike_id": "af274a63f7c16262b893403c4f414370", "rental_uris": {"ios": "https://dc.lft.to/lastmile_qr_scan", "android": "https://dc.lft.to/lastmile_qr_scan"}, "fusion_lon": 0.0, "lon": -76.957931, "name": "af274a63f7c16262b893403c4f414370", "is_reserved": 0, "is_disabled": 0}, {"lat": 38.9159035, "fusion_lat": 0.0, "type": "electric_scooter", "bike_id": "52eff625e115c5f7694e723938bfafae", "rental_uris": {"ios": "https://dc.lft.to/lastmile_qr_scan", "android": "https://dc.lft.to/lastmile_qr_scan"}, "fusion_lon": 0.0, "lon": -77.03204716666667, "name": "52eff625e115c5f7694e723938bfafae", "is_reserved": 0, "is_disabled": 0}, {"lat": 38.910387, "fusion_lat": 0.0, "type": "electric_scooter", "bike_id": "0e33eac3bfd0e18152f1be618c8c38dd", "rental_uris": {"ios": "https://dc.lft.to/lastmile_qr_scan", "android": "https://dc.lft.to/lastmile_qr_scan"}, "fusion_lon": 0.0, "lon": -77.02815883333334, "name": "0e33eac3bfd0e18152f1be618c8c38dd", "is_reserved": 0, "is_disabled": 0}, {"lat": 38.963885, "fusion_lat": 0.0, "type": "electric_scooter", "bike_id": "6f307009dbef2136c3169348e3b7df6a", "rental_uris": {"ios": "https://dc.lft.to/lastmile_qr_scan", "android": "https://dc.lft.to/lastmile_qr_scan"}, "fusion_lon": 0.0, "lon": -77.02589216666667, "name": "6f307009dbef2136c3169348e3b7df6a", "is_reserved": 0, "is_disabled": 0}, {"lat": 38.917369666666666, "fusion_lat": 0.0, "type": "electric_scooter", "bike_id": "7d2bad13478db7061830e48cd2f36aa2", "rental_uris": {"ios": "https://dc.lft.to/lastmile_qr_scan", "android": "https://dc.lft.to/lastmile_qr_scan"}, "fusion_lon": 0.0, "lon": -77.03190566666666, "name": "7d2bad13478db7061830e48cd2f36aa2", "is_reserved": 0, "is_disabled": 0}, {"lat": 38.90582583333333, "fusion_lat": 0.0, "type": "electric_bike", "bike_id": "d98d72fb76a16719d8344d47b614c0c9", "rental_uris": {"ios": "https://dc.lft.to/lastmile_qr_scan", "android": "https://dc.lft.to/lastmile_qr_scan"}, "fusion_lon": 0.0, "lon": -77.00882483333334, "name": "d98d72fb76a16719d8344d47b614c0c9", "is_reserved": 0, "is_disabled": 0}, {"lat": 38.876523666666664, "fusion_lat": 0.0, "type": "electric_scooter", "bike_id": "8e0d594f37f1ca621b8d99fdb1815c43", "rental_uris": {"ios": "https://dc.lft.to/lastmile_qr_scan", "android": "https://dc.lft.to/lastmile_qr_scan"}, "fusion_lon": 0.0, "lon": -77.00070816666667, "name": "8e0d594f37f1ca621b8d99fdb1815c43", "is_reserved": 0, "is_disabled": 0}, {"lat": 38.92834216666667, "fusion_lat": 0.0, "type": "electric_scooter", "bike_id": "11a4dc05a734766a78df106273a96641", "rental_uris": {"ios": "https://dc.lft.to/lastmile_qr_scan", "android": "https://dc.lft.to/lastmile_qr_scan"}, "fusion_lon": 0.0, "lon": -77.03700566666667, "name": "11a4dc05a734766a78df106273a96641", "is_reserved": 0, "is_disabled": 0}, {"lat": 38.89701866666667, "fusion_lat": 0.0, "type": "electric_scooter", "bike_id": "951f7b75011ff800348cbd0e7ad0d6c7", "rental_uris": {"ios": "https://dc.lft.to/lastmile_qr_scan", "android": "https://dc.lft.to/lastmile_qr_scan"}, "fusion_lon": 0.0, "lon": -77.028033, "name": "951f7b75011ff800348cbd0e7ad0d6c7", "is_reserved": 0, "is_disabled": 0}, {"lat": 38.89924833333333, "fusion_lat": 0.0, "type": "electric_scooter", "bike_id": "fdbc1077d8b730bdefdd8993c41de830", "rental_uris": {"ios": "https://dc.lft.to/lastmile_qr_scan", "android": "https://dc.lft.to/lastmile_qr_scan"}, "fusion_lon": 0.0, "lon": -77.01275566666666, "name": "fdbc1077d8b730bdefdd8993c41de830", "is_reserved": 0, "is_disabled": 0}, {"lat": 38.910106999999996, "fusion_lat": 0.0, "type": "electric_scooter", "bike_id": "027fe95080d8715201057f5e1a21613b", "rental_uris": {"ios": "https://dc.lft.to/lastmile_qr_scan", "android": "https://dc.lft.to/lastmile_qr_scan"}, "fusion_lon": 0.0, "lon": -77.04448933333333, "name": "027fe95080d8715201057f5e1a21613b", "is_reserved": 0, "is_disabled": 0}, {"lat": 38.8962695, "fusion_lat": 0.0, "type": "electric_scooter", "bike_id": "98c439b2199acb154e3940ab7974be32", "rental_uris": {"ios": "https://dc.lft.to/lastmile_qr_scan", "android": "https://dc.lft.to/lastmile_qr_scan"}, "fusion_lon": 0.0, "lon": -77.02954366666667, "name": "98c439b2199acb154e3940ab7974be32", "is_reserved": 0, "is_disabled": 0}, {"lat": 38.907665333333334, "fusion_lat": 0.0, "type": "electric_scooter", "bike_id": "a16163202d0b64a40e51f14f3ca42097", "rental_uris": {"ios": "https://dc.lft.to/lastmile_qr_scan", "android": "https://dc.lft.to/lastmile_qr_scan"}, "fusion_lon": 0.0, "lon": -77.04222566666667, "name": "a16163202d0b64a40e51f14f3ca42097", "is_reserved": 0, "is_disabled": 0}, {"lat": 38.93457466666667, "fusion_lat": 0.0, "type": "electric_scooter", "bike_id": "c51dde4d40c7206bfccf32f8940a7b69", "rental_uris": {"ios": "https://dc.lft.to/lastmile_qr_scan", "android": "https://dc.lft.to/lastmile_qr_scan"}, "fusion_lon": 0.0, "lon": -77.02918666666666, "name": "c51dde4d40c7206bfccf32f8940a7b69", "is_reserved": 0, "is_disabled": 0}, {"lat": 38.897063, "fusion_lat": 0.0, "type": "electric_scooter", "bike_id": "6f7b1b36308b6cd408410b24167633b2", "rental_uris": {"ios": "https://dc.lft.to/lastmile_qr_scan", "android": "https://dc.lft.to/lastmile_qr_scan"}, "fusion_lon": 0.0, "lon": -76.93577116666667, "name": "6f7b1b36308b6cd408410b24167633b2", "is_reserved": 0, "is_disabled": 0}, {"lat": 38.86216, "fusion_lat": 0.0, "type": "electric_scooter", "bike_id": "68fecfd6ca2e05b7bb602f0ab1739562", "rental_uris": {"ios": "https://dc.lft.to/lastmile_qr_scan", "android": "https://dc.lft.to/lastmile_qr_scan"}, "fusion_lon": 0.0, "lon": -76.99486966666667, "name": "68fecfd6ca2e05b7bb602f0ab1739562", "is_reserved": 0, "is_disabled": 0}, {"lat": 38.9139755, "fusion_lat": 0.0, "type": "electric_scooter", "bike_id": "9959fea1f2daa91b8491b47549489ac7", "rental_uris": {"ios": "https://dc.lft.to/lastmile_qr_scan", "android": "https://dc.lft.to/lastmile_qr_scan"}, "fusion_lon": 0.0, "lon": -77.0320865, "name": "9959fea1f2daa91b8491b47549489ac7", "is_reserved": 0, "is_disabled": 0}, {"lat": 38.8752425, "fusion_lat": 0.0, "type": "electric_scooter", "bike_id": "efa5fb106ed0f4e92cfeac9421ea5127", "rental_uris": {"ios": "https://dc.lft.to/lastmile_qr_scan", "android": "https://dc.lft.to/lastmile_qr_scan"}, "fusion_lon": 0.0, "lon": -77.00043816666667, "name": "efa5fb106ed0f4e92cfeac9421ea5127", "is_reserved": 0, "is_disabled": 0}, {"lat": 38.90126516666667, "fusion_lat": 0.0, "type": "electric_scooter", "bike_id": "d08c7fe9bda6fddf7c6e7e30d88b7eca", "rental_uris": {"ios": "https://dc.lft.to/lastmile_qr_scan", "android": "https://dc.lft.to/lastmile_qr_scan"}, "fusion_lon": 0.0, "lon": -77.04416566666667, "name": "d08c7fe9bda6fddf7c6e7e30d88b7eca", "is_reserved": 0, "is_disabled": 0}, {"lat": 38.924700666666666, "fusion_lat": 0.0, "type": "electric_scooter", "bike_id": "4d49e78bf7237b44074e3cff1e390033", "rental_uris": {"ios": "https://dc.lft.to/lastmile_qr_scan", "android": "https://dc.lft.to/lastmile_qr_scan"}, "fusion_lon": 0.0, "lon": -77.0393825, "name": "4d49e78bf7237b44074e3cff1e390033", "is_reserved": 0, "is_disabled": 0}, {"lat": 38.876752833333335, "fusion_lat": 0.0, "type": "electric_scooter", "bike_id": "19252e60a0a0f598e28f52c6091df6d0", "rental_uris": {"ios": "https://dc.lft.to/lastmile_qr_scan", "android": "https://dc.lft.to/lastmile_qr_scan"}, "fusion_lon": 0.0, "lon": -77.006806, "name": "19252e60a0a0f598e28f52c6091df6d0", "is_reserved": 0, "is_disabled": 0}, {"lat": 38.8812095, "fusion_lat": 0.0, "type": "electric_scooter", "bike_id": "fb70b351ec2e37f354d80580fce5988a", "rental_uris": {"ios": "https://dc.lft.to/lastmile_qr_scan", "android": "https://dc.lft.to/lastmile_qr_scan"}, "fusion_lon": 0.0, "lon": -77.01742583333333, "name": "fb70b351ec2e37f354d80580fce5988a", "is_reserved": 0, "is_disabled": 0}, {"lat": 38.902014, "fusion_lat": 0.0, "type": "electric_scooter", "bike_id": "be594db8c3610ea30953fd55aa041b1a", "rental_uris": {"ios": "https://dc.lft.to/lastmile_qr_scan", "android": "https://dc.lft.to/lastmile_qr_scan"}, "fusion_lon": 0.0, "lon": -77.02130516666666, "name": "be594db8c3610ea30953fd55aa041b1a", "is_reserved": 0, "is_disabled": 0}, {"lat": 38.887663333333336, "fusion_lat": 0.0, "type": "electric_scooter", "bike_id": "ba2d49dcdf2b58f2cccbea09b67069e4", "rental_uris": {"ios": "https://dc.lft.to/lastmile_qr_scan", "android": "https://dc.lft.to/lastmile_qr_scan"}, "fusion_lon": 0.0, "lon": -77.02236933333333, "name": "ba2d49dcdf2b58f2cccbea09b67069e4", "is_reserved": 0, "is_disabled": 0}, {"lat": 38.92264433333333, "fusion_lat": 0.0, "type": "electric_scooter", "bike_id": "3fb01bf58a748e5d662a26361be652d4", "rental_uris": {"ios": "https://dc.lft.to/lastmile_qr_scan", "android": "https://dc.lft.to/lastmile_qr_scan"}, "fusion_lon": 0.0, "lon": -77.02441466666667, "name": "3fb01bf58a748e5d662a26361be652d4", "is_reserved": 0, "is_disabled": 0}, {"lat": 38.914933, "fusion_lat": 0.0, "type": "electric_scooter", "bike_id": "3708462f75d42da10dcbba3d89b30a63", "rental_uris": {"ios": "https://dc.lft.to/lastmile_qr_scan", "android": "https://dc.lft.to/lastmile_qr_scan"}, "fusion_lon": 0.0, "lon": -76.98370533333333, "name": "3708462f75d42da10dcbba3d89b30a63", "is_reserved": 0, "is_disabled": 0}, {"lat": 38.91554166666667, "fusion_lat": 0.0, "type": "electric_scooter", "bike_id": "13183acb8affddb1b75c6f7f04ade2e8", "rental_uris": {"ios": "https://dc.lft.to/lastmile_qr_scan", "android": "https://dc.lft.to/lastmile_qr_scan"}, "fusion_lon": 0.0, "lon": -77.02847716666666, "name": "13183acb8affddb1b75c6f7f04ade2e8", "is_reserved": 0, "is_disabled": 0}, {"lat": 38.90134233333333, "fusion_lat": 0.0, "type": "electric_scooter", "bike_id": "f09f65b0278a89feaa32f1ae2a9a586c", "rental_uris": {"ios": "https://dc.lft.to/lastmile_qr_scan", "android": "https://dc.lft.to/lastmile_qr_scan"}, "fusion_lon": 0.0, "lon": -77.016618, "name": "f09f65b0278a89feaa32f1ae2a9a586c", "is_reserved": 0, "is_disabled": 0}, {"lat": 38.9112535, "fusion_lat": 0.0, "type": "electric_scooter", "bike_id": "58820ef4ac154ab5e20800d99505c720", "rental_uris": {"ios": "https://dc.lft.to/lastmile_qr_scan", "android": "https://dc.lft.to/lastmile_qr_scan"}, "fusion_lon": 0.0, "lon": -77.02198516666667, "name": "58820ef4ac154ab5e20800d99505c720", "is_reserved": 0, "is_disabled": 0}, {"lat": 38.905483, "fusion_lat": 0.0, "type": "electric_scooter", "bike_id": "43e266ff6cad506caa52c72959507cfe", "rental_uris": {"ios": "https://dc.lft.to/lastmile_qr_scan", "android": "https://dc.lft.to/lastmile_qr_scan"}, "fusion_lon": 0.0, "lon": -77.050162, "name": "43e266ff6cad506caa52c72959507cfe", "is_reserved": 0, "is_disabled": 0}, {"lat": 38.90393316666667, "fusion_lat": 0.0, "type": "electric_scooter", "bike_id": "c948eb18fe4818b5da0bab881d90697d", "rental_uris": {"ios": "https://dc.lft.to/lastmile_qr_scan", "android": "https://dc.lft.to/lastmile_qr_scan"}, "fusion_lon": 0.0, "lon": -77.06302883333333, "name": "c948eb18fe4818b5da0bab881d90697d", "is_reserved": 0, "is_disabled": 0}, {"lat": 38.90034033333333, "fusion_lat": 0.0, "type": "electric_scooter", "bike_id": "7c68e5526b17d74048b9852d6e6ef2c5", "rental_uris": {"ios": "https://dc.lft.to/lastmile_qr_scan", "android": "https://dc.lft.to/lastmile_qr_scan"}, "fusion_lon": 0.0, "lon": -77.00203816666667, "name": "7c68e5526b17d74048b9852d6e6ef2c5", "is_reserved": 0, "is_disabled": 0}, {"lat": 38.92134, "fusion_lat": 0.0, "type": "electric_scooter", "bike_id": "979e6457b9a67bc28399fede21308e6a", "rental_uris": {"ios": "https://dc.lft.to/lastmile_qr_scan", "android": "https://dc.lft.to/lastmile_qr_scan"}, "fusion_lon": 0.0, "lon": -77.04129033333334, "name": "979e6457b9a67bc28399fede21308e6a", "is_reserved": 0, "is_disabled": 0}, {"lat": 38.89002083333333, "fusion_lat": 0.0, "type": "electric_scooter", "bike_id": "4dd96d43db31b61e6ac7dc56a6d3000f", "rental_uris": {"ios": "https://dc.lft.to/lastmile_qr_scan", "android": "https://dc.lft.to/lastmile_qr_scan"}, "fusion_lon": 0.0, "lon": -76.97738283333334, "name": "4dd96d43db31b61e6ac7dc56a6d3000f", "is_reserved": 0, "is_disabled": 0}, {"lat": 38.92014966666667, "fusion_lat": 0.0, "type": "electric_scooter", "bike_id": "72aca68b5ca1f0cbaf1b79eacbea7c26", "rental_uris": {"ios": "https://dc.lft.to/lastmile_qr_scan", "android": "https://dc.lft.to/lastmile_qr_scan"}, "fusion_lon": 0.0, "lon": -77.02182883333333, "name": "72aca68b5ca1f0cbaf1b79eacbea7c26", "is_reserved": 0, "is_disabled": 0}, {"lat": 38.899563, "fusion_lat": 0.0, "type": "electric_scooter", "bike_id": "70e45515a079ac5f416492a12ef7a659", "rental_uris": {"ios": "https://dc.lft.to/lastmile_qr_scan", "android": "https://dc.lft.to/lastmile_qr_scan"}, "fusion_lon": 0.0, "lon": -77.04651883333334, "name": "70e45515a079ac5f416492a12ef7a659", "is_reserved": 0, "is_disabled": 0}, {"lat": 38.922086666666665, "fusion_lat": 0.0, "type": "electric_scooter", "bike_id": "94ed53085f738720e7edf98eaa61a329", "rental_uris": {"ios": "https://dc.lft.to/lastmile_qr_scan", "android": "https://dc.lft.to/lastmile_qr_scan"}, "fusion_lon": 0.0, "lon": -77.03658166666666, "name": "94ed53085f738720e7edf98eaa61a329", "is_reserved": 0, "is_disabled": 0}, {"lat": 38.935545166666664, "fusion_lat": 0.0, "type": "electric_scooter", "bike_id": "b0471fe54a59b8747c6a1c570c8dd08f", "rental_uris": {"ios": "https://dc.lft.to/lastmile_qr_scan", "android": "https://dc.lft.to/lastmile_qr_scan"}, "fusion_lon": 0.0, "lon": -77.07463866666667, "name": "b0471fe54a59b8747c6a1c570c8dd08f", "is_reserved": 0, "is_disabled": 0}, {"lat": 38.92581883333333, "fusion_lat": 0.0, "type": "electric_scooter", "bike_id": "79a093a4b1b70fc2f9889cd4eb37f923", "rental_uris": {"ios": "https://dc.lft.to/lastmile_qr_scan", "android": "https://dc.lft.to/lastmile_qr_scan"}, "fusion_lon": 0.0, "lon": -77.031948, "name": "79a093a4b1b70fc2f9889cd4eb37f923", "is_reserved": 0, "is_disabled": 0}, {"lat": 38.9057005, "fusion_lat": 0.0, "type": "electric_scooter", "bike_id": "09e6156dfdf7665b39cded95d5b32442", "rental_uris": {"ios": "https://dc.lft.to/lastmile_qr_scan", "android": "https://dc.lft.to/lastmile_qr_scan"}, "fusion_lon": 0.0, "lon": -77.0033275, "name": "09e6156dfdf7665b39cded95d5b32442", "is_reserved": 0, "is_disabled": 0}, {"lat": 38.9025435, "fusion_lat": 0.0, "type": "electric_scooter", "bike_id": "20951f57abb12069dff4ebd9baf98c16", "rental_uris": {"ios": "https://dc.lft.to/lastmile_qr_scan", "android": "https://dc.lft.to/lastmile_qr_scan"}, "fusion_lon": 0.0, "lon": -77.046622, "name": "20951f57abb12069dff4ebd9baf98c16", "is_reserved": 0, "is_disabled": 0}, {"lat": 38.931607166666666, "fusion_lat": 0.0, "type": "electric_scooter", "bike_id": "b634b511d43068bd7b82f0d79927e09e", "rental_uris": {"ios": "https://dc.lft.to/lastmile_qr_scan", "android": "https://dc.lft.to/lastmile_qr_scan"}, "fusion_lon": 0.0, "lon": -77.03503383333333, "name": "b634b511d43068bd7b82f0d79927e09e", "is_reserved": 0, "is_disabled": 0}, {"lat": 38.932011333333335, "fusion_lat": 0.0, "type": "electric_scooter", "bike_id": "0516c4a82090b70d09be8a9dd6ffe745", "rental_uris": {"ios": "https://dc.lft.to/lastmile_qr_scan", "android": "https://dc.lft.to/lastmile_qr_scan"}, "fusion_lon": 0.0, "lon": -77.03505216666667, "name": "0516c4a82090b70d09be8a9dd6ffe745", "is_reserved": 0, "is_disabled": 0}, {"lat": 38.79983716666667, "fusion_lat": 0.0, "type": "electric_bike", "bike_id": "0ea928107440e44cf3a2158cbd2b1d41", "rental_uris": {"ios": "https://dc.lft.to/lastmile_qr_scan", "android": "https://dc.lft.to/lastmile_qr_scan"}, "fusion_lon": 0.0, "lon": -77.12983516666667, "name": "0ea928107440e44cf3a2158cbd2b1d41", "is_reserved": 0, "is_disabled": 0}, {"lat": 38.91251716666667, "fusion_lat": 0.0, "type": "electric_scooter", "bike_id": "6ed60063f58529af9e04791f08406c86", "rental_uris": {"ios": "https://dc.lft.to/lastmile_qr_scan", "android": "https://dc.lft.to/lastmile_qr_scan"}, "fusion_lon": 0.0, "lon": -77.04466216666667, "name": "6ed60063f58529af9e04791f08406c86", "is_reserved": 0, "is_disabled": 0}, {"lat": 38.921923, "fusion_lat": 0.0, "type": "electric_scooter", "bike_id": "c62ac9b5de2a806b5e11a72b0e34b46b", "rental_uris": {"ios": "https://dc.lft.to/lastmile_qr_scan", "android": "https://dc.lft.to/lastmile_qr_scan"}, "fusion_lon": 0.0, "lon": -77.04189166666667, "name": "c62ac9b5de2a806b5e11a72b0e34b46b", "is_reserved": 0, "is_disabled": 0}, {"lat": 38.91711, "fusion_lat": 0.0, "type": "electric_scooter", "bike_id": "5b6e5347a760ebb37cefb1a42bc8d17b", "rental_uris": {"ios": "https://dc.lft.to/lastmile_qr_scan", "android": "https://dc.lft.to/lastmile_qr_scan"}, "fusion_lon": 0.0, "lon": -77.0385935, "name": "5b6e5347a760ebb37cefb1a42bc8d17b", "is_reserved": 0, "is_disabled": 0}, {"lat": 38.93036816666667, "fusion_lat": 0.0, "type": "electric_scooter", "bike_id": "7a689ecca031edff25beec02d7aa98b6", "rental_uris": {"ios": "https://dc.lft.to/lastmile_qr_scan", "android": "https://dc.lft.to/lastmile_qr_scan"}, "fusion_lon": 0.0, "lon": -77.03478033333333, "name": "7a689ecca031edff25beec02d7aa98b6", "is_reserved": 0, "is_disabled": 0}, {"lat": 38.86329166666667, "fusion_lat": 0.0, "type": "electric_bike", "bike_id": "7379e71d923dd832ac0587f72760b1d5", "rental_uris": {"ios": "https://dc.lft.to/lastmile_qr_scan", "android": "https://dc.lft.to/lastmile_qr_scan"}, "fusion_lon": 0.0, "lon": -76.98721116666667, "name": "7379e71d923dd832ac0587f72760b1d5", "is_reserved": 0, "is_disabled": 0}, {"lat": 38.90066216666666, "fusion_lat": 0.0, "type": "electric_scooter", "bike_id": "750a40617cebcc1247ef092ee8a04dca", "rental_uris": {"ios": "https://dc.lft.to/lastmile_qr_scan", "android": "https://dc.lft.to/lastmile_qr_scan"}, "fusion_lon": 0.0, "lon": -77.04533283333333, "name": "750a40617cebcc1247ef092ee8a04dca", "is_reserved": 0, "is_disabled": 0}, {"lat": 38.84857083333333, "fusion_lat": 0.0, "type": "electric_bike", "bike_id": "1856aabc891eee55855ad8851422d932", "rental_uris": {"ios": "https://dc.lft.to/lastmile_qr_scan", "android": "https://dc.lft.to/lastmile_qr_scan"}, "fusion_lon": 0.0, "lon": -77.09905866666666, "name": "1856aabc891eee55855ad8851422d932", "is_reserved": 0, "is_disabled": 0}, {"lat": 38.899611, "fusion_lat": 0.0, "type": "electric_bike", "bike_id": "5bf99b9f286f644efdffb9d0f5607918", "rental_uris": {"ios": "https://dc.lft.to/lastmile_qr_scan", "android": "https://dc.lft.to/lastmile_qr_scan"}, "fusion_lon": 0.0, "lon": -76.98680583333334, "name": "5bf99b9f286f644efdffb9d0f5607918", "is_reserved": 0, "is_disabled": 0}, {"lat": 38.9246565, "fusion_lat": 0.0, "type": "electric_scooter", "bike_id": "6a238e3b3879edb2a6746bf684b72954", "rental_uris": {"ios": "https://dc.lft.to/lastmile_qr_scan", "android": "https://dc.lft.to/lastmile_qr_scan"}, "fusion_lon": 0.0, "lon": -77.05230833333333, "name": "6a238e3b3879edb2a6746bf684b72954", "is_reserved": 0, "is_disabled": 0}, {"lat": 38.88646633333333, "fusion_lat": 0.0, "type": "electric_scooter", "bike_id": "a3ebc4d500c911c7b4c7bf04ed4c432d", "rental_uris": {"ios": "https://dc.lft.to/lastmile_qr_scan", "android": "https://dc.lft.to/lastmile_qr_scan"}, "fusion_lon": 0.0, "lon": -77.01996616666666, "name": "a3ebc4d500c911c7b4c7bf04ed4c432d", "is_reserved": 0, "is_disabled": 0}, {"lat": 38.9030465, "fusion_lat": 0.0, "type": "electric_scooter", "bike_id": "489e97041fb937d793eb343a3c2f4008", "rental_uris": {"ios": "https://dc.lft.to/lastmile_qr_scan", "android": "https://dc.lft.to/lastmile_qr_scan"}, "fusion_lon": 0.0, "lon": -77.04333816666667, "name": "489e97041fb937d793eb343a3c2f4008", "is_reserved": 0, "is_disabled": 0}, {"lat": 38.916776, "fusion_lat": 0.0, "type": "electric_scooter", "bike_id": "63bd9a4aff50513c4b6d5df6ee591695", "rental_uris": {"ios": "https://dc.lft.to/lastmile_qr_scan", "android": "https://dc.lft.to/lastmile_qr_scan"}, "fusion_lon": 0.0, "lon": -76.98035516666667, "name": "63bd9a4aff50513c4b6d5df6ee591695", "is_reserved": 0, "is_disabled": 0}, {"lat": 38.90221583333334, "fusion_lat": 0.0, "type": "electric_scooter", "bike_id": "a85ec4d2c661a9030ccf02af042c39bd", "rental_uris": {"ios": "https://dc.lft.to/lastmile_qr_scan", "android": "https://dc.lft.to/lastmile_qr_scan"}, "fusion_lon": 0.0, "lon": -77.03205716666666, "name": "a85ec4d2c661a9030ccf02af042c39bd", "is_reserved": 0, "is_disabled": 0}, {"lat": 38.901168166666665, "fusion_lat": 0.0, "type": "electric_scooter", "bike_id": "47b4a80a94d2c7e984ac9cf78c8ab088", "rental_uris": {"ios": "https://dc.lft.to/lastmile_qr_scan", "android": "https://dc.lft.to/lastmile_qr_scan"}, "fusion_lon": 0.0, "lon": -77.05004533333333, "name": "47b4a80a94d2c7e984ac9cf78c8ab088", "is_reserved": 0, "is_disabled": 0}, {"lat": 38.9241585, "fusion_lat": 0.0, "type": "electric_scooter", "bike_id": "60b6ee5d9dc476d4b83bd0b3b612f3ce", "rental_uris": {"ios": "https://dc.lft.to/lastmile_qr_scan", "android": "https://dc.lft.to/lastmile_qr_scan"}, "fusion_lon": 0.0, "lon": -77.057568, "name": "60b6ee5d9dc476d4b83bd0b3b612f3ce", "is_reserved": 0, "is_disabled": 0}, {"lat": 38.899455333333336, "fusion_lat": 0.0, "type": "electric_scooter", "bike_id": "778d6dd8ab1b42be434aeb4ab1abc624", "rental_uris": {"ios": "https://dc.lft.to/lastmile_qr_scan", "android": "https://dc.lft.to/lastmile_qr_scan"}, "fusion_lon": 0.0, "lon": -77.01445966666667, "name": "778d6dd8ab1b42be434aeb4ab1abc624", "is_reserved": 0, "is_disabled": 0}, {"lat": 38.918541166666664, "fusion_lat": 0.0, "type": "electric_scooter", "bike_id": "654e1f98b73797238c6d1f73f8518829", "rental_uris": {"ios": "https://dc.lft.to/lastmile_qr_scan", "android": "https://dc.lft.to/lastmile_qr_scan"}, "fusion_lon": 0.0, "lon": -77.04158766666667, "name": "654e1f98b73797238c6d1f73f8518829", "is_reserved": 0, "is_disabled": 0}, {"lat": 38.89757083333333, "fusion_lat": 0.0, "type": "electric_scooter", "bike_id": "d819467fc974dc6214f79f4d4a97c84c", "rental_uris": {"ios": "https://dc.lft.to/lastmile_qr_scan", "android": "https://dc.lft.to/lastmile_qr_scan"}, "fusion_lon": 0.0, "lon": -77.020944, "name": "d819467fc974dc6214f79f4d4a97c84c", "is_reserved": 0, "is_disabled": 0}, {"lat": 38.9132405, "fusion_lat": 0.0, "type": "electric_scooter", "bike_id": "cedcb33a1844a13956c863034bc1297c", "rental_uris": {"ios": "https://dc.lft.to/lastmile_qr_scan", "android": "https://dc.lft.to/lastmile_qr_scan"}, "fusion_lon": 0.0, "lon": -77.045374, "name": "cedcb33a1844a13956c863034bc1297c", "is_reserved": 0, "is_disabled": 0}, {"lat": 38.91812566666667, "fusion_lat": 0.0, "type": "electric_scooter", "bike_id": "18b396ef6ec0c2b4e41d25c31874156d", "rental_uris": {"ios": "https://dc.lft.to/lastmile_qr_scan", "android": "https://dc.lft.to/lastmile_qr_scan"}, "fusion_lon": 0.0, "lon": -77.02681483333333, "name": "18b396ef6ec0c2b4e41d25c31874156d", "is_reserved": 0, "is_disabled": 0}, {"lat": 38.915988166666665, "fusion_lat": 0.0, "type": "electric_scooter", "bike_id": "1ea217bdb71f5cea8bbb226465bcede4", "rental_uris": {"ios": "https://dc.lft.to/lastmile_qr_scan", "android": "https://dc.lft.to/lastmile_qr_scan"}, "fusion_lon": 0.0, "lon": -77.02403116666666, "name": "1ea217bdb71f5cea8bbb226465bcede4", "is_reserved": 0, "is_disabled": 0}, {"lat": 38.891972833333334, "fusion_lat": 0.0, "type": "electric_scooter", "bike_id": "235d93cd3c51eb5bdff9f3a6780ed144", "rental_uris": {"ios": "https://dc.lft.to/lastmile_qr_scan", "android": "https://dc.lft.to/lastmile_qr_scan"}, "fusion_lon": 0.0, "lon": -76.99384883333333, "name": "235d93cd3c51eb5bdff9f3a6780ed144", "is_reserved": 0, "is_disabled": 0}, {"lat": 38.9001355, "fusion_lat": 0.0, "type": "electric_scooter", "bike_id": "598363d368966a6e2fffdf112d38b95a", "rental_uris": {"ios": "https://dc.lft.to/lastmile_qr_scan", "android": "https://dc.lft.to/lastmile_qr_scan"}, "fusion_lon": 0.0, "lon": -77.012547, "name": "598363d368966a6e2fffdf112d38b95a", "is_reserved": 0, "is_disabled": 0}, {"lat": 38.923716166666665, "fusion_lat": 0.0, "type": "electric_scooter", "bike_id": "83cc6bbd058fee7d1964ed20297a3a36", "rental_uris": {"ios": "https://dc.lft.to/lastmile_qr_scan", "android": "https://dc.lft.to/lastmile_qr_scan"}, "fusion_lon": 0.0, "lon": -77.01939566666667, "name": "83cc6bbd058fee7d1964ed20297a3a36", "is_reserved": 0, "is_disabled": 0}, {"lat": 38.876410666666665, "fusion_lat": 0.0, "type": "electric_scooter", "bike_id": "9ac19eb2fa8b19534929fe1a75514c83", "rental_uris": {"ios": "https://dc.lft.to/lastmile_qr_scan", "android": "https://dc.lft.to/lastmile_qr_scan"}, "fusion_lon": 0.0, "lon": -77.00130116666666, "name": "9ac19eb2fa8b19534929fe1a75514c83", "is_reserved": 0, "is_disabled": 0}, {"lat": 39.01071666666667, "fusion_lat": 0.0, "type": "electric_bike", "bike_id": "c7cd555d6443785b399a3c4e25925a27", "rental_uris": {"ios": "https://dc.lft.to/lastmile_qr_scan", "android": "https://dc.lft.to/lastmile_qr_scan"}, "fusion_lon": 0.0, "lon": -76.91054666666666, "name": "c7cd555d6443785b399a3c4e25925a27", "is_reserved": 0, "is_disabled": 0}, {"lat": 38.91329366666667, "fusion_lat": 0.0, "type": "electric_scooter", "bike_id": "c88baf493dc6671e5a48712d7e78d9fd", "rental_uris": {"ios": "https://dc.lft.to/lastmile_qr_scan", "android": "https://dc.lft.to/lastmile_qr_scan"}, "fusion_lon": 0.0, "lon": -77.01626216666666, "name": "c88baf493dc6671e5a48712d7e78d9fd", "is_reserved": 0, "is_disabled": 0}, {"lat": 38.9097295, "fusion_lat": 0.0, "type": "electric_scooter", "bike_id": "595a6f4f0d1a80f5aa2be62e2b91e6bc", "rental_uris": {"ios": "https://dc.lft.to/lastmile_qr_scan", "android": "https://dc.lft.to/lastmile_qr_scan"}, "fusion_lon": 0.0, "lon": -77.0245505, "name": "595a6f4f0d1a80f5aa2be62e2b91e6bc", "is_reserved": 0, "is_disabled": 0}, {"lat": 38.9328455, "fusion_lat": 0.0, "type": "electric_scooter", "bike_id": "f9220764f3be1dbe85b44b4569873ff2", "rental_uris": {"ios": "https://dc.lft.to/lastmile_qr_scan", "android": "https://dc.lft.to/lastmile_qr_scan"}, "fusion_lon": 0.0, "lon": -77.02545783333333, "name": "f9220764f3be1dbe85b44b4569873ff2", "is_reserved": 0, "is_disabled": 0}, {"lat": 38.892214, "fusion_lat": 0.0, "type": "electric_scooter", "bike_id": "58600a53e3f118f7c179b45aa0971829", "rental_uris": {"ios": "https://dc.lft.to/lastmile_qr_scan", "android": "https://dc.lft.to/lastmile_qr_scan"}, "fusion_lon": 0.0, "lon": -77.04199383333334, "name": "58600a53e3f118f7c179b45aa0971829", "is_reserved": 0, "is_disabled": 0}, {"lat": 38.89926833333333, "fusion_lat": 0.0, "type": "electric_scooter", "bike_id": "a106755c0b6eb698469007dcefa5c985", "rental_uris": {"ios": "https://dc.lft.to/lastmile_qr_scan", "android": "https://dc.lft.to/lastmile_qr_scan"}, "fusion_lon": 0.0, "lon": -77.02812683333333, "name": "a106755c0b6eb698469007dcefa5c985", "is_reserved": 0, "is_disabled": 0}, {"lat": 38.913308, "fusion_lat": 0.0, "type": "electric_scooter", "bike_id": "278d1a5e14fefbc2f02e05f90198960b", "rental_uris": {"ios": "https://dc.lft.to/lastmile_qr_scan", "android": "https://dc.lft.to/lastmile_qr_scan"}, "fusion_lon": 0.0, "lon": -77.0486875, "name": "278d1a5e14fefbc2f02e05f90198960b", "is_reserved": 0, "is_disabled": 0}, {"lat": 38.91775283333333, "fusion_lat": 0.0, "type": "electric_scooter", "bike_id": "7d4d2b3633c978b4f99869b96f77fdc1", "rental_uris": {"ios": "https://dc.lft.to/lastmile_qr_scan", "android": "https://dc.lft.to/lastmile_qr_scan"}, "fusion_lon": 0.0, "lon": -77.04061716666666, "name": "7d4d2b3633c978b4f99869b96f77fdc1", "is_reserved": 0, "is_disabled": 0}, {"lat": 38.927642666666664, "fusion_lat": 0.0, "type": "electric_scooter", "bike_id": "ac4e8c3cb3951eee12233688519e9182", "rental_uris": {"ios": "https://dc.lft.to/lastmile_qr_scan", "android": "https://dc.lft.to/lastmile_qr_scan"}, "fusion_lon": 0.0, "lon": -77.03246683333333, "name": "ac4e8c3cb3951eee12233688519e9182", "is_reserved": 0, "is_disabled": 0}, {"lat": 38.92238566666666, "fusion_lat": 0.0, "type": "electric_scooter", "bike_id": "2a09002fd7d0932e6e61cbdb04dcdfdf", "rental_uris": {"ios": "https://dc.lft.to/lastmile_qr_scan", "android": "https://dc.lft.to/lastmile_qr_scan"}, "fusion_lon": 0.0, "lon": -77.07315283333334, "name": "2a09002fd7d0932e6e61cbdb04dcdfdf", "is_reserved": 0, "is_disabled": 0}, {"lat": 38.89219583333333, "fusion_lat": 0.0, "type": "electric_scooter", "bike_id": "3ea5ca6a8335810cafc0382bd2f17c0a", "rental_uris": {"ios": "https://dc.lft.to/lastmile_qr_scan", "android": "https://dc.lft.to/lastmile_qr_scan"}, "fusion_lon": 0.0, "lon": -77.02790616666667, "name": "3ea5ca6a8335810cafc0382bd2f17c0a", "is_reserved": 0, "is_disabled": 0}, {"lat": 38.902126833333334, "fusion_lat": 0.0, "type": "electric_scooter", "bike_id": "97218cc5c5356ce5247f59dc6f012417", "rental_uris": {"ios": "https://dc.lft.to/lastmile_qr_scan", "android": "https://dc.lft.to/lastmile_qr_scan"}, "fusion_lon": 0.0, "lon": -77.02380666666667, "name": "97218cc5c5356ce5247f59dc6f012417", "is_reserved": 0, "is_disabled": 0}, {"lat": 38.92879033333333, "fusion_lat": 0.0, "type": "electric_scooter", "bike_id": "0f97a37dee39c2d05ce15c215b1806ee", "rental_uris": {"ios": "https://dc.lft.to/lastmile_qr_scan", "android": "https://dc.lft.to/lastmile_qr_scan"}, "fusion_lon": 0.0, "lon": -77.03288733333333, "name": "0f97a37dee39c2d05ce15c215b1806ee", "is_reserved": 0, "is_disabled": 0}, {"lat": 38.887279166666666, "fusion_lat": 0.0, "type": "electric_scooter", "bike_id": "3f8dbcb633dab3051f356c5cb8a5c331", "rental_uris": {"ios": "https://dc.lft.to/lastmile_qr_scan", "android": "https://dc.lft.to/lastmile_qr_scan"}, "fusion_lon": 0.0, "lon": -77.02384666666667, "name": "3f8dbcb633dab3051f356c5cb8a5c331", "is_reserved": 0, "is_disabled": 0}, {"lat": 38.9004595, "fusion_lat": 0.0, "type": "electric_scooter", "bike_id": "003554556e3106aa4e60a80b8f8b6226", "rental_uris": {"ios": "https://dc.lft.to/lastmile_qr_scan", "android": "https://dc.lft.to/lastmile_qr_scan"}, "fusion_lon": 0.0, "lon": -77.02202866666667, "name": "003554556e3106aa4e60a80b8f8b6226", "is_reserved": 0, "is_disabled": 0}, {"lat": 38.956723333333336, "fusion_lat": 0.0, "type": "electric_scooter", "bike_id": "5a2aece41dcc8f518555f921423ecde3", "rental_uris": {"ios": "https://dc.lft.to/lastmile_qr_scan", "android": "https://dc.lft.to/lastmile_qr_scan"}, "fusion_lon": 0.0, "lon": -77.0135965, "name": "5a2aece41dcc8f518555f921423ecde3", "is_reserved": 0, "is_disabled": 0}, {"lat": 38.95648666666666, "fusion_lat": 0.0, "type": "electric_scooter", "bike_id": "2426fb0d39b6b4f0f3dd46ecb2751abc", "rental_uris": {"ios": "https://dc.lft.to/lastmile_qr_scan", "android": "https://dc.lft.to/lastmile_qr_scan"}, "fusion_lon": 0.0, "lon": -77.01973666666666, "name": "2426fb0d39b6b4f0f3dd46ecb2751abc", "is_reserved": 0, "is_disabled": 0}, {"lat": 38.91800516666667, "fusion_lat": 0.0, "type": "electric_scooter", "bike_id": "4153bcf7002254636e1cdbd48fa5653d", "rental_uris": {"ios": "https://dc.lft.to/lastmile_qr_scan", "android": "https://dc.lft.to/lastmile_qr_scan"}, "fusion_lon": 0.0, "lon": -77.02706316666666, "name": "4153bcf7002254636e1cdbd48fa5653d", "is_reserved": 0, "is_disabled": 0}, {"lat": 38.897832333333334, "fusion_lat": 0.0, "type": "electric_scooter", "bike_id": "2c04f0fd09ba44c5eeeb346c984a174c", "rental_uris": {"ios": "https://dc.lft.to/lastmile_qr_scan", "android": "https://dc.lft.to/lastmile_qr_scan"}, "fusion_lon": 0.0, "lon": -77.05491416666666, "name": "2c04f0fd09ba44c5eeeb346c984a174c", "is_reserved": 0, "is_disabled": 0}, {"lat": 38.910499, "fusion_lat": 0.0, "type": "electric_scooter", "bike_id": "aa0305ab8092faffb2b397a931c20756", "rental_uris": {"ios": "https://dc.lft.to/lastmile_qr_scan", "android": "https://dc.lft.to/lastmile_qr_scan"}, "fusion_lon": 0.0, "lon": -77.04351483333333, "name": "aa0305ab8092faffb2b397a931c20756", "is_reserved": 0, "is_disabled": 0}, {"lat": 38.9169025, "fusion_lat": 0.0, "type": "electric_scooter", "bike_id": "052a7b9e895a3beaa6c1691826611df2", "rental_uris": {"ios": "https://dc.lft.to/lastmile_qr_scan", "android": "https://dc.lft.to/lastmile_qr_scan"}, "fusion_lon": 0.0, "lon": -77.02996216666666, "name": "052a7b9e895a3beaa6c1691826611df2", "is_reserved": 0, "is_disabled": 0}, {"lat": 38.896047, "fusion_lat": 0.0, "type": "electric_scooter", "bike_id": "c11ed989443cf66325a59b649e06dcfa", "rental_uris": {"ios": "https://dc.lft.to/lastmile_qr_scan", "android": "https://dc.lft.to/lastmile_qr_scan"}, "fusion_lon": 0.0, "lon": -77.00928683333333, "name": "c11ed989443cf66325a59b649e06dcfa", "is_reserved": 0, "is_disabled": 0}, {"lat": 38.932748833333335, "fusion_lat": 0.0, "type": "electric_scooter", "bike_id": "ab1b6cd6f41be24b8471cb8750f9b74e", "rental_uris": {"ios": "https://dc.lft.to/lastmile_qr_scan", "android": "https://dc.lft.to/lastmile_qr_scan"}, "fusion_lon": 0.0, "lon": -77.028328, "name": "ab1b6cd6f41be24b8471cb8750f9b74e", "is_reserved": 0, "is_disabled": 0}, {"lat": 38.92029, "fusion_lat": 0.0, "type": "electric_scooter", "bike_id": "72e60520a0f21f291efb42abf4ad9914", "rental_uris": {"ios": "https://dc.lft.to/lastmile_qr_scan", "android": "https://dc.lft.to/lastmile_qr_scan"}, "fusion_lon": 0.0, "lon": -77.07144583333333, "name": "72e60520a0f21f291efb42abf4ad9914", "is_reserved": 0, "is_disabled": 0}, {"lat": 38.884926, "fusion_lat": 0.0, "type": "electric_scooter", "bike_id": "ad2ed6944d6ac4e9cd1144ba11d8d084", "rental_uris": {"ios": "https://dc.lft.to/lastmile_qr_scan", "android": "https://dc.lft.to/lastmile_qr_scan"}, "fusion_lon": 0.0, "lon": -76.98066233333333, "name": "ad2ed6944d6ac4e9cd1144ba11d8d084", "is_reserved": 0, "is_disabled": 0}, {"lat": 38.943077833333334, "fusion_lat": 0.0, "type": "electric_scooter", "bike_id": "bd429a7b9f89a99b8b0424111eb95bae", "rental_uris": {"ios": "https://dc.lft.to/lastmile_qr_scan", "android": "https://dc.lft.to/lastmile_qr_scan"}, "fusion_lon": 0.0, "lon": -77.0249045, "name": "bd429a7b9f89a99b8b0424111eb95bae", "is_reserved": 0, "is_disabled": 0}, {"lat": 38.9181505, "fusion_lat": 0.0, "type": "electric_scooter", "bike_id": "6b4a2f780badb5d99ced5546af594914", "rental_uris": {"ios": "https://dc.lft.to/lastmile_qr_scan", "android": "https://dc.lft.to/lastmile_qr_scan"}, "fusion_lon": 0.0, "lon": -77.03471166666667, "name": "6b4a2f780badb5d99ced5546af594914", "is_reserved": 0, "is_disabled": 0}, {"lat": 38.961817833333335, "fusion_lat": 0.0, "type": "electric_bike", "bike_id": "14e1b1f0248f4dc0189f0a08a4786bd8", "rental_uris": {"ios": "https://dc.lft.to/lastmile_qr_scan", "android": "https://dc.lft.to/lastmile_qr_scan"}, "fusion_lon": 0.0, "lon": -77.05269916666667, "name": "14e1b1f0248f4dc0189f0a08a4786bd8", "is_reserved": 0, "is_disabled": 0}, {"lat": 38.87398116666667, "fusion_lat": 0.0, "type": "electric_scooter", "bike_id": "7c7c99b3f96921bef309b36392e9f2d5", "rental_uris": {"ios": "https://dc.lft.to/lastmile_qr_scan", "android": "https://dc.lft.to/lastmile_qr_scan"}, "fusion_lon": 0.0, "lon": -77.00110866666667, "name": "7c7c99b3f96921bef309b36392e9f2d5", "is_reserved": 0, "is_disabled": 0}, {"lat": 38.917184666666664, "fusion_lat": 0.0, "type": "electric_scooter", "bike_id": "1c4860a85086efffa3e79e56af73d6fb", "rental_uris": {"ios": "https://dc.lft.to/lastmile_qr_scan", "android": "https://dc.lft.to/lastmile_qr_scan"}, "fusion_lon": 0.0, "lon": -77.02704083333333, "name": "1c4860a85086efffa3e79e56af73d6fb", "is_reserved": 0, "is_disabled": 0}, {"lat": 38.920634666666665, "fusion_lat": 0.0, "type": "electric_scooter", "bike_id": "49bb4dfd7758c0a2d3c95534d022eeac", "rental_uris": {"ios": "https://dc.lft.to/lastmile_qr_scan", "android": "https://dc.lft.to/lastmile_qr_scan"}, "fusion_lon": 0.0, "lon": -77.02497516666666, "name": "49bb4dfd7758c0a2d3c95534d022eeac", "is_reserved": 0, "is_disabled": 0}, {"lat": 38.93432933333333, "fusion_lat": 0.0, "type": "electric_scooter", "bike_id": "cb02b180a8392f4adbcb9806db2bbfd0", "rental_uris": {"ios": "https://dc.lft.to/lastmile_qr_scan", "android": "https://dc.lft.to/lastmile_qr_scan"}, "fusion_lon": 0.0, "lon": -76.99711416666666, "name": "cb02b180a8392f4adbcb9806db2bbfd0", "is_reserved": 0, "is_disabled": 0}, {"lat": 38.90485416666667, "fusion_lat": 0.0, "type": "electric_scooter", "bike_id": "f2fdefbc2dc8780516d5db89f401fce2", "rental_uris": {"ios": "https://dc.lft.to/lastmile_qr_scan", "android": "https://dc.lft.to/lastmile_qr_scan"}, "fusion_lon": 0.0, "lon": -77.02114, "name": "f2fdefbc2dc8780516d5db89f401fce2", "is_reserved": 0, "is_disabled": 0}, {"lat": 38.9241735, "fusion_lat": 0.0, "type": "electric_scooter", "bike_id": "ad6c487f939400eb49f71c0954c8a410", "rental_uris": {"ios": "https://dc.lft.to/lastmile_qr_scan", "android": "https://dc.lft.to/lastmile_qr_scan"}, "fusion_lon": 0.0, "lon": -77.05747466666666, "name": "ad6c487f939400eb49f71c0954c8a410", "is_reserved": 0, "is_disabled": 0}, {"lat": 38.92390016666667, "fusion_lat": 0.0, "type": "electric_scooter", "bike_id": "160063010ffd2ab204cc6e83913f5358", "rental_uris": {"ios": "https://dc.lft.to/lastmile_qr_scan", "android": "https://dc.lft.to/lastmile_qr_scan"}, "fusion_lon": 0.0, "lon": -77.0298045, "name": "160063010ffd2ab204cc6e83913f5358", "is_reserved": 0, "is_disabled": 0}, {"lat": 38.9245645, "fusion_lat": 0.0, "type": "electric_scooter", "bike_id": "e1f47797a6d9e475596d54b5e44c5238", "rental_uris": {"ios": "https://dc.lft.to/lastmile_qr_scan", "android": "https://dc.lft.to/lastmile_qr_scan"}, "fusion_lon": 0.0, "lon": -77.04032033333333, "name": "e1f47797a6d9e475596d54b5e44c5238", "is_reserved": 0, "is_disabled": 0}, {"lat": 38.8771495, "fusion_lat": 0.0, "type": "electric_scooter", "bike_id": "06416cc1963a066ec392c0d4f93b1ad4", "rental_uris": {"ios": "https://dc.lft.to/lastmile_qr_scan", "android": "https://dc.lft.to/lastmile_qr_scan"}, "fusion_lon": 0.0, "lon": -77.01835116666666, "name": "06416cc1963a066ec392c0d4f93b1ad4", "is_reserved": 0, "is_disabled": 0}, {"lat": 38.92313333333333, "fusion_lat": 0.0, "type": "electric_scooter", "bike_id": "75b6d5a5cc4917fef3b67e2bd8bf1b1c", "rental_uris": {"ios": "https://dc.lft.to/lastmile_qr_scan", "android": "https://dc.lft.to/lastmile_qr_scan"}, "fusion_lon": 0.0, "lon": -77.0195405, "name": "75b6d5a5cc4917fef3b67e2bd8bf1b1c", "is_reserved": 0, "is_disabled": 0}, {"lat": 38.897283, "fusion_lat": 0.0, "type": "electric_scooter", "bike_id": "bcb4a7435e166e70b966785ab2509926", "rental_uris": {"ios": "https://dc.lft.to/lastmile_qr_scan", "android": "https://dc.lft.to/lastmile_qr_scan"}, "fusion_lon": 0.0, "lon": -77.049297, "name": "bcb4a7435e166e70b966785ab2509926", "is_reserved": 0, "is_disabled": 0}, {"lat": 38.907021666666665, "fusion_lat": 0.0, "type": "electric_scooter", "bike_id": "c56658f2c5fb6b87c8c3b5ef46767fa0", "rental_uris": {"ios": "https://dc.lft.to/lastmile_qr_scan", "android": "https://dc.lft.to/lastmile_qr_scan"}, "fusion_lon": 0.0, "lon": -76.98693666666667, "name": "c56658f2c5fb6b87c8c3b5ef46767fa0", "is_reserved": 0, "is_disabled": 0}, {"lat": 38.93342283333333, "fusion_lat": 0.0, "type": "electric_scooter", "bike_id": "6b4794d10cffbcb89a90b5d185fee31d", "rental_uris": {"ios": "https://dc.lft.to/lastmile_qr_scan", "android": "https://dc.lft.to/lastmile_qr_scan"}, "fusion_lon": 0.0, "lon": -77.073461, "name": "6b4794d10cffbcb89a90b5d185fee31d", "is_reserved": 0, "is_disabled": 0}, {"lat": 38.925111666666666, "fusion_lat": 0.0, "type": "electric_scooter", "bike_id": "c6f6f22d20d5854b74ec36d7c87d25f0", "rental_uris": {"ios": "https://dc.lft.to/lastmile_qr_scan", "android": "https://dc.lft.to/lastmile_qr_scan"}, "fusion_lon": 0.0, "lon": -77.022868, "name": "c6f6f22d20d5854b74ec36d7c87d25f0", "is_reserved": 0, "is_disabled": 0}, {"lat": 38.91912266666667, "fusion_lat": 0.0, "type": "electric_scooter", "bike_id": "5168f7b5dd4ed6000cd4133ab3a5da32", "rental_uris": {"ios": "https://dc.lft.to/lastmile_qr_scan", "android": "https://dc.lft.to/lastmile_qr_scan"}, "fusion_lon": 0.0, "lon": -77.033406, "name": "5168f7b5dd4ed6000cd4133ab3a5da32", "is_reserved": 0, "is_disabled": 0}, {"lat": 38.91096983333333, "fusion_lat": 0.0, "type": "electric_scooter", "bike_id": "b597b176fb9abf667b5d39f9d0107f54", "rental_uris": {"ios": "https://dc.lft.to/lastmile_qr_scan", "android": "https://dc.lft.to/lastmile_qr_scan"}, "fusion_lon": 0.0, "lon": -77.031823, "name": "b597b176fb9abf667b5d39f9d0107f54", "is_reserved": 0, "is_disabled": 0}, {"lat": 38.9207205, "fusion_lat": 0.0, "type": "electric_scooter", "bike_id": "a57449c885d7176966263cf0c44ecda8", "rental_uris": {"ios": "https://dc.lft.to/lastmile_qr_scan", "android": "https://dc.lft.to/lastmile_qr_scan"}, "fusion_lon": 0.0, "lon": -77.02539333333333, "name": "a57449c885d7176966263cf0c44ecda8", "is_reserved": 0, "is_disabled": 0}, {"lat": 38.90517583333333, "fusion_lat": 0.0, "type": "electric_scooter", "bike_id": "98950c97d6233170e605c4775dba25ac", "rental_uris": {"ios": "https://dc.lft.to/lastmile_qr_scan", "android": "https://dc.lft.to/lastmile_qr_scan"}, "fusion_lon": 0.0, "lon": -77.06630866666667, "name": "98950c97d6233170e605c4775dba25ac", "is_reserved": 0, "is_disabled": 0}, {"lat": 38.924746666666664, "fusion_lat": 0.0, "type": "electric_scooter", "bike_id": "0683c6b109b6566b293100101ac7b227", "rental_uris": {"ios": "https://dc.lft.to/lastmile_qr_scan", "android": "https://dc.lft.to/lastmile_qr_scan"}, "fusion_lon": 0.0, "lon": -77.0258925, "name": "0683c6b109b6566b293100101ac7b227", "is_reserved": 0, "is_disabled": 0}, {"lat": 38.921446833333334, "fusion_lat": 0.0, "type": "electric_scooter", "bike_id": "d8b2fe36cbe356a795abfdca1a1bf3ca", "rental_uris": {"ios": "https://dc.lft.to/lastmile_qr_scan", "android": "https://dc.lft.to/lastmile_qr_scan"}, "fusion_lon": 0.0, "lon": -77.0350425, "name": "d8b2fe36cbe356a795abfdca1a1bf3ca", "is_reserved": 0, "is_disabled": 0}, {"lat": 38.8953025, "fusion_lat": 0.0, "type": "electric_scooter", "bike_id": "c9cd6ef72083fa3552c3820a76f4d00a", "rental_uris": {"ios": "https://dc.lft.to/lastmile_qr_scan", "android": "https://dc.lft.to/lastmile_qr_scan"}, "fusion_lon": 0.0, "lon": -77.03211533333334, "name": "c9cd6ef72083fa3552c3820a76f4d00a", "is_reserved": 0, "is_disabled": 0}, {"lat": 38.925083666666666, "fusion_lat": 0.0, "type": "electric_scooter", "bike_id": "ef7920e2eef48e139e18c389c25cfa6a", "rental_uris": {"ios": "https://dc.lft.to/lastmile_qr_scan", "android": "https://dc.lft.to/lastmile_qr_scan"}, "fusion_lon": 0.0, "lon": -77.0236735, "name": "ef7920e2eef48e139e18c389c25cfa6a", "is_reserved": 0, "is_disabled": 0}, {"lat": 38.90124433333333, "fusion_lat": 0.0, "type": "electric_scooter", "bike_id": "5b018bc238d406c16786848eb326eacb", "rental_uris": {"ios": "https://dc.lft.to/lastmile_qr_scan", "android": "https://dc.lft.to/lastmile_qr_scan"}, "fusion_lon": 0.0, "lon": -77.03492466666667, "name": "5b018bc238d406c16786848eb326eacb", "is_reserved": 0, "is_disabled": 0}, {"lat": 38.90731383333333, "fusion_lat": 0.0, "type": "electric_scooter", "bike_id": "659d18f4539da34c23e1e2875f731a97", "rental_uris": {"ios": "https://dc.lft.to/lastmile_qr_scan", "android": "https://dc.lft.to/lastmile_qr_scan"}, "fusion_lon": 0.0, "lon": -77.04503483333333, "name": "659d18f4539da34c23e1e2875f731a97", "is_reserved": 0, "is_disabled": 0}, {"lat": 38.941758666666665, "fusion_lat": 0.0, "type": "electric_scooter", "bike_id": "94d5c91c1ba0531201db1d83cbdc7d48", "rental_uris": {"ios": "https://dc.lft.to/lastmile_qr_scan", "android": "https://dc.lft.to/lastmile_qr_scan"}, "fusion_lon": 0.0, "lon": -77.0279475, "name": "94d5c91c1ba0531201db1d83cbdc7d48", "is_reserved": 0, "is_disabled": 0}, {"lat": 38.96141083333333, "fusion_lat": 0.0, "type": "electric_scooter", "bike_id": "26178ff3a5e2b588ab4c4709a8ddd64b", "rental_uris": {"ios": "https://dc.lft.to/lastmile_qr_scan", "android": "https://dc.lft.to/lastmile_qr_scan"}, "fusion_lon": 0.0, "lon": -77.027864, "name": "26178ff3a5e2b588ab4c4709a8ddd64b", "is_reserved": 0, "is_disabled": 0}, {"lat": 38.920479, "fusion_lat": 0.0, "type": "electric_scooter", "bike_id": "2007edeff95bc4520d5efbf0fa752029", "rental_uris": {"ios": "https://dc.lft.to/lastmile_qr_scan", "android": "https://dc.lft.to/lastmile_qr_scan"}, "fusion_lon": 0.0, "lon": -77.00063016666667, "name": "2007edeff95bc4520d5efbf0fa752029", "is_reserved": 0, "is_disabled": 0}, {"lat": 38.91365833333333, "fusion_lat": 0.0, "type": "electric_scooter", "bike_id": "5793ad3b91538eb233e7e98629a94e87", "rental_uris": {"ios": "https://dc.lft.to/lastmile_qr_scan", "android": "https://dc.lft.to/lastmile_qr_scan"}, "fusion_lon": 0.0, "lon": -77.02000566666666, "name": "5793ad3b91538eb233e7e98629a94e87", "is_reserved": 0, "is_disabled": 0}, {"lat": 38.9094285, "fusion_lat": 0.0, "type": "electric_scooter", "bike_id": "fcee145e2cd1e680e103e6623cd7b2b9", "rental_uris": {"ios": "https://dc.lft.to/lastmile_qr_scan", "android": "https://dc.lft.to/lastmile_qr_scan"}, "fusion_lon": 0.0, "lon": -77.04491316666666, "name": "fcee145e2cd1e680e103e6623cd7b2b9", "is_reserved": 0, "is_disabled": 0}, {"lat": 38.9039825, "fusion_lat": 0.0, "type": "electric_scooter", "bike_id": "4117485884e30363590ae7caa07380b2", "rental_uris": {"ios": "https://dc.lft.to/lastmile_qr_scan", "android": "https://dc.lft.to/lastmile_qr_scan"}, "fusion_lon": 0.0, "lon": -77.00572716666667, "name": "4117485884e30363590ae7caa07380b2", "is_reserved": 0, "is_disabled": 0}, {"lat": 38.897932, "fusion_lat": 0.0, "type": "electric_scooter", "bike_id": "7d270eca69caf27a2dd73d56ac35d0b8", "rental_uris": {"ios": "https://dc.lft.to/lastmile_qr_scan", "android": "https://dc.lft.to/lastmile_qr_scan"}, "fusion_lon": 0.0, "lon": -77.01189966666666, "name": "7d270eca69caf27a2dd73d56ac35d0b8", "is_reserved": 0, "is_disabled": 0}, {"lat": 38.92866733333334, "fusion_lat": 0.0, "type": "electric_scooter", "bike_id": "6a5fb9244016e23d09c8f51873791e56", "rental_uris": {"ios": "https://dc.lft.to/lastmile_qr_scan", "android": "https://dc.lft.to/lastmile_qr_scan"}, "fusion_lon": 0.0, "lon": -77.0324065, "name": "6a5fb9244016e23d09c8f51873791e56", "is_reserved": 0, "is_disabled": 0}, {"lat": 38.894817833333335, "fusion_lat": 0.0, "type": "electric_scooter", "bike_id": "9f786af7621f1f35239b3bc8a78d7e1f", "rental_uris": {"ios": "https://dc.lft.to/lastmile_qr_scan", "android": "https://dc.lft.to/lastmile_qr_scan"}, "fusion_lon": 0.0, "lon": -77.01081066666667, "name": "9f786af7621f1f35239b3bc8a78d7e1f", "is_reserved": 0, "is_disabled": 0}, {"lat": 38.930991666666664, "fusion_lat": 0.0, "type": "electric_scooter", "bike_id": "50aa5ff980b329da3e86a29d9b2d484f", "rental_uris": {"ios": "https://dc.lft.to/lastmile_qr_scan", "android": "https://dc.lft.to/lastmile_qr_scan"}, "fusion_lon": 0.0, "lon": -77.0245715, "name": "50aa5ff980b329da3e86a29d9b2d484f", "is_reserved": 0, "is_disabled": 0}, {"lat": 38.90993233333333, "fusion_lat": 0.0, "type": "electric_scooter", "bike_id": "35c5f7835dde4173e6a4fb2349c205b0", "rental_uris": {"ios": "https://dc.lft.to/lastmile_qr_scan", "android": "https://dc.lft.to/lastmile_qr_scan"}, "fusion_lon": 0.0, "lon": -77.073359, "name": "35c5f7835dde4173e6a4fb2349c205b0", "is_reserved": 0, "is_disabled": 0}, {"lat": 38.88729133333333, "fusion_lat": 0.0, "type": "electric_scooter", "bike_id": "be89c7598f81e2604619b7a4fac6020a", "rental_uris": {"ios": "https://dc.lft.to/lastmile_qr_scan", "android": "https://dc.lft.to/lastmile_qr_scan"}, "fusion_lon": 0.0, "lon": -77.031763, "name": "be89c7598f81e2604619b7a4fac6020a", "is_reserved": 0, "is_disabled": 0}, {"lat": 38.9149545, "fusion_lat": 0.0, "type": "electric_scooter", "bike_id": "1d9ad0f7b181e8def7e8eab3e0078b3c", "rental_uris": {"ios": "https://dc.lft.to/lastmile_qr_scan", "android": "https://dc.lft.to/lastmile_qr_scan"}, "fusion_lon": 0.0, "lon": -76.98363133333334, "name": "1d9ad0f7b181e8def7e8eab3e0078b3c", "is_reserved": 0, "is_disabled": 0}, {"lat": 38.89734516666667, "fusion_lat": 0.0, "type": "electric_scooter", "bike_id": "5f2c04cf9f9056cb6286812e03b7493f", "rental_uris": {"ios": "https://dc.lft.to/lastmile_qr_scan", "android": "https://dc.lft.to/lastmile_qr_scan"}, "fusion_lon": 0.0, "lon": -77.02489716666666, "name": "5f2c04cf9f9056cb6286812e03b7493f", "is_reserved": 0, "is_disabled": 0}, {"lat": 38.99776416666667, "fusion_lat": 0.0, "type": "electric_bike", "bike_id": "0347068dd2a7a189b09da2aaf13a087b", "rental_uris": {"ios": "https://dc.lft.to/lastmile_qr_scan", "android": "https://dc.lft.to/lastmile_qr_scan"}, "fusion_lon": 0.0, "lon": -77.04716083333334, "name": "0347068dd2a7a189b09da2aaf13a087b", "is_reserved": 0, "is_disabled": 0}, {"lat": 38.94405416666667, "fusion_lat": 0.0, "type": "electric_bike", "bike_id": "8529bbc1c78608bee5cc77cc74b681d1", "rental_uris": {"ios": "https://dc.lft.to/lastmile_qr_scan", "android": "https://dc.lft.to/lastmile_qr_scan"}, "fusion_lon": 0.0, "lon": -77.0552055, "name": "8529bbc1c78608bee5cc77cc74b681d1", "is_reserved": 0, "is_disabled": 0}, {"lat": 38.920236833333334, "fusion_lat": 0.0, "type": "electric_scooter", "bike_id": "a34ea6a0f2bd6c2779cecc7de4dc0f71", "rental_uris": {"ios": "https://dc.lft.to/lastmile_qr_scan", "android": "https://dc.lft.to/lastmile_qr_scan"},