{"data": {"bikes": [{"lat": 38.91356866666667, "is_disabled": 0, "type": "electric_scooter", "lon": -77.015325, "bike_id": "84669d7a2f0ecfa4a371e56251423008", "fusion_lat": 0.0, "name": "84669d7a2f0ecfa4a371e56251423008", "is_reserved": 0, "rental_uris": {"android": "https://dc.lft.to/lastmile_qr_scan", "ios": "https://dc.lft.to/lastmile_qr_scan"}, "fusion_lon": 0.0}, {"lat": 38.91695333333333, "is_disabled": 0, "type": "electric_scooter", "lon": -77.03491783333334, "bike_id": "69924a2c637eb4cb6d250ca1e011f2a4", "fusion_lat": 0.0, "name": "69924a2c637eb4cb6d250ca1e011f2a4", "is_reserved": 0, "rental_uris": {"android": "https://dc.lft.to/lastmile_qr_scan", "ios": "https://dc.lft.to/lastmile_qr_scan"}, "fusion_lon": 0.0}, {"lat": 38.903634833333335, "is_disabled": 0, "type": "electric_scooter", "lon": -77.06278766666667, "bike_id": "1b7239163d556251522ca6e9fb81c5d3", "fusion_lat": 0.0, "name": "1b7239163d556251522ca6e9fb81c5d3", "is_reserved": 0, "rental_uris": {"android": "https://dc.lft.to/lastmile_qr_scan", "ios": "https://dc.lft.to/lastmile_qr_scan"}, "fusion_lon": 0.0}, {"lat": 38.846083166666666, "is_disabled": 0, "type": "electric_bike", "lon": -76.96905116666667, "bike_id": "577dd7e1578cee016ccd2d31504651b0", "fusion_lat": 0.0, "name": "577dd7e1578cee016ccd2d31504651b0", "is_reserved": 0, "rental_uris": {"android": "https://dc.lft.to/lastmile_qr_scan", "ios": "https://dc.lft.to/lastmile_qr_scan"}, "fusion_lon": 0.0}, {"lat": 38.91978833333334, "is_disabled": 0, "type": "electric_scooter", "lon": -77.00020283333333, "bike_id": "25cb23ab72a42ff3034b34784b3d6271", "fusion_lat": 0.0, "name": "25cb23ab72a42ff3034b34784b3d6271", "is_reserved": 0, "rental_uris": {"android": "https://dc.lft.to/lastmile_qr_scan", "ios": "https://dc.lft.to/lastmile_qr_scan"}, "fusion_lon": 0.0}, {"lat": 38.93107716666667, "is_disabled": 0, "type": "electric_scooter", "lon": -77.03025, "bike_id": "1216a5e13fdf3e1031d770feddae31d8", "fusion_lat": 0.0, "name": "1216a5e13fdf3e1031d770feddae31d8", "is_reserved": 0, "rental_uris": {"android": "https://dc.lft.to/lastmile_qr_scan", "ios": "https://dc.lft.to/lastmile_qr_scan"}, "fusion_lon": 0.0}, {"lat": 38.9177985, "is_disabled": 0, "type": "electric_scooter", "lon": -77.02309683333333, "bike_id": "b982daed10d72af21814690386dc6389", "fusion_lat": 0.0, "name": "b982daed10d72af21814690386dc6389", "is_reserved": 0, "rental_uris": {"android": "https://dc.lft.to/lastmile_qr_scan", "ios": "https://dc.lft.to/lastmile_qr_scan"}, "fusion_lon": 0.0}, {"lat": 38.8900785, "is_disabled": 0, "type": "electric_scooter", "lon": -76.937448, "bike_id": "37d9596ad4f7c1b26445de92c2fda6e5", "fusion_lat": 0.0, "name": "37d9596ad4f7c1b26445de92c2fda6e5", "is_reserved": 0, "rental_uris": {"android": "https://dc.lft.to/lastmile_qr_scan", "ios": "https://dc.lft.to/lastmile_qr_scan"}, "fusion_lon": 0.0}, {"lat": 38.90960883333333, "is_disabled": 0, "type": "electric_scooter", "lon": -77.02682716666666, "bike_id": "22e4778dd8a735409027068c088084c3", "fusion_lat": 0.0, "name": "22e4778dd8a735409027068c088084c3", "is_reserved": 0, "rental_uris": {"android": "https://dc.lft.to/lastmile_qr_scan", "ios": "https://dc.lft.to/lastmile_qr_scan"}, "fusion_lon": 0.0}, {"lat": 38.90142916666667, "is_disabled": 0, "type": "electric_scooter", "lon": -76.98051466666666, "bike_id": "0940000f4a1479c63d0b67b1d06a9c85", "fusion_lat": 0.0, "name": "0940000f4a1479c63d0b67b1d06a9c85", "is_reserved": 0, "rental_uris": {"android": "https://dc.lft.to/lastmile_qr_scan", "ios": "https://dc.lft.to/lastmile_qr_scan"}, "fusion_lon": 0.0}, {"lat": 38.90403383333334, "is_disabled": 0, "type": "electric_scooter", "lon": -77.04331416666666, "bike_id": "996d4a31089b1e34dd6f67df8e904002", "fusion_lat": 0.0, "name": "996d4a31089b1e34dd6f67df8e904002", "is_reserved": 0, "rental_uris": {"android": "https://dc.lft.to/lastmile_qr_scan", "ios": "https://dc.lft.to/lastmile_qr_scan"}, "fusion_lon": 0.0}, {"lat": 38.879547, "is_disabled": 0, "type": "electric_scooter", "lon": -77.00574266666666, "bike_id": "05ee0c77310accf62b4fcd83f3cde844", "fusion_lat": 0.0, "name": "05ee0c77310accf62b4fcd83f3cde844", "is_reserved": 0, "rental_uris": {"android": "https://dc.lft.to/lastmile_qr_scan", "ios": "https://dc.lft.to/lastmile_qr_scan"}, "fusion_lon": 0.0}, {"lat": 38.907614333333335, "is_disabled": 0, "type": "electric_scooter", "lon": -77.00093366666667, "bike_id": "a7848f6afae8c23a7ba7200a248377a8", "fusion_lat": 0.0, "name": "a7848f6afae8c23a7ba7200a248377a8", "is_reserved": 0, "rental_uris": {"android": "https://dc.lft.to/lastmile_qr_scan", "ios": "https://dc.lft.to/lastmile_qr_scan"}, "fusion_lon": 0.0}, {"lat": 38.9198025, "is_disabled": 0, "type": "electric_scooter", "lon": -77.000178, "bike_id": "d61bbe65859e532fba37eca63b57cfb0", "fusion_lat": 0.0, "name": "d61bbe65859e532fba37eca63b57cfb0", "is_reserved": 0, "rental_uris": {"android": "https://dc.lft.to/lastmile_qr_scan", "ios": "https://dc.lft.to/lastmile_qr_scan"}, "fusion_lon": 0.0}, {"lat": 38.904180333333336, "is_disabled": 0, "type": "electric_scooter", "lon": -76.99075533333334, "bike_id": "e4dc02dcf405687725ae94554870a3d9", "fusion_lat": 0.0, "name": "e4dc02dcf405687725ae94554870a3d9", "is_reserved": 0, "rental_uris": {"android": "https://dc.lft.to/lastmile_qr_scan", "ios": "https://dc.lft.to/lastmile_qr_scan"}, "fusion_lon": 0.0}, {"lat": 38.89374433333333, "is_disabled": 0, "type": "electric_scooter", "lon": -76.94991, "bike_id": "8d9de35e5bafa3007ea8a56db606d032", "fusion_lat": 0.0, "name": "8d9de35e5bafa3007ea8a56db606d032", "is_reserved": 0, "rental_uris": {"android": "https://dc.lft.to/lastmile_qr_scan", "ios": "https://dc.lft.to/lastmile_qr_scan"}, "fusion_lon": 0.0}, {"lat": 38.88092133333333, "is_disabled": 0, "type": "electric_scooter", "lon": -76.92721466666667, "bike_id": "48efa2531357ec0f138b7c0eb5135d70", "fusion_lat": 0.0, "name": "48efa2531357ec0f138b7c0eb5135d70", "is_reserved": 0, "rental_uris": {"android": "https://dc.lft.to/lastmile_qr_scan", "ios": "https://dc.lft.to/lastmile_qr_scan"}, "fusion_lon": 0.0}, {"lat": 38.8393545, "is_disabled": 0, "type": "electric_bike", "lon": -77.07903416666667, "bike_id": "b9dbe73fca508631d09419379b3bcc06", "fusion_lat": 0.0, "name": "b9dbe73fca508631d09419379b3bcc06", "is_reserved": 0, "rental_uris": {"android": "https://dc.lft.to/lastmile_qr_scan", "ios": "https://dc.lft.to/lastmile_qr_scan"}, "fusion_lon": 0.0}, {"lat": 38.90973666666667, "is_disabled": 0, "type": "electric_scooter", "lon": -77.03864733333333, "bike_id": "f5510d3398a3f3b354e0a8e5c454f7be", "fusion_lat": 0.0, "name": "f5510d3398a3f3b354e0a8e5c454f7be", "is_reserved": 0, "rental_uris": {"android": "https://dc.lft.to/lastmile_qr_scan", "ios": "https://dc.lft.to/lastmile_qr_scan"}, "fusion_lon": 0.0}, {"lat": 38.902408666666666, "is_disabled": 0, "type": "electric_scooter", "lon": -77.002034, "bike_id": "e8240834581a2879dbb705ab4dd76938", "fusion_lat": 0.0, "name": "e8240834581a2879dbb705ab4dd76938", "is_reserved": 0, "rental_uris": {"android": "https://dc.lft.to/lastmile_qr_scan", "ios": "https://dc.lft.to/lastmile_qr_scan"}, "fusion_lon": 0.0}, {"lat": 38.898374, "is_disabled": 0, "type": "electric_scooter", "lon": -77.02513966666666, "bike_id": "5f21c2a187e46a4894ef503b4c3a159b", "fusion_lat": 0.0, "name": "5f21c2a187e46a4894ef503b4c3a159b", "is_reserved": 0, "rental_uris": {"android": "https://dc.lft.to/lastmile_qr_scan", "ios": "https://dc.lft.to/lastmile_qr_scan"}, "fusion_lon": 0.0}, {"lat": 38.9223545, "is_disabled": 0, "type": "electric_scooter", "lon": -77.03885316666667, "bike_id": "d71d75acb5c152eab3b3dbd963bf7886", "fusion_lat": 0.0, "name": "d71d75acb5c152eab3b3dbd963bf7886", "is_reserved": 0, "rental_uris": {"android": "https://dc.lft.to/lastmile_qr_scan", "ios": "https://dc.lft.to/lastmile_qr_scan"}, "fusion_lon": 0.0}, {"lat": 38.9046215, "is_disabled": 0, "type": "electric_scooter", "lon": -77.01456683333333, "bike_id": "67598f596f44dfd31a5599f38a26f575", "fusion_lat": 0.0, "name": "67598f596f44dfd31a5599f38a26f575", "is_reserved": 0, "rental_uris": {"android": "https://dc.lft.to/lastmile_qr_scan", "ios": "https://dc.lft.to/lastmile_qr_scan"}, "fusion_lon": 0.0}, {"lat": 38.903764833333334, "is_disabled": 0, "type": "electric_scooter", "lon": -77.04458483333333, "bike_id": "f0165241b8b55d6d95cb033588fb501b", "fusion_lat": 0.0, "name": "f0165241b8b55d6d95cb033588fb501b", "is_reserved": 0, "rental_uris": {"android": "https://dc.lft.to/lastmile_qr_scan", "ios": "https://dc.lft.to/lastmile_qr_scan"}, "fusion_lon": 0.0}, {"lat": 38.93098883333333, "is_disabled": 0, "type": "electric_scooter", "lon": -77.0246975, "bike_id": "495dd4a443fb7480e84e2b840c638e96", "fusion_lat": 0.0, "name": "495dd4a443fb7480e84e2b840c638e96", "is_reserved": 0, "rental_uris": {"android": "https://dc.lft.to/lastmile_qr_scan", "ios": "https://dc.lft.to/lastmile_qr_scan"}, "fusion_lon": 0.0}, {"lat": 38.92499266666667, "is_disabled": 0, "type": "electric_scooter", "lon": -77.00891733333333, "bike_id": "a24025f185d1f8d60b733634b2cb2794", "fusion_lat": 0.0, "name": "a24025f185d1f8d60b733634b2cb2794", "is_reserved": 0, "rental_uris": {"android": "https://dc.lft.to/lastmile_qr_scan", "ios": "https://dc.lft.to/lastmile_qr_scan"}, "fusion_lon": 0.0}, {"lat": 38.874184166666666, "is_disabled": 0, "type": "electric_scooter", "lon": -76.97162716666666, "bike_id": "9c7ca21104066b22d66b3fc3965296ad", "fusion_lat": 0.0, "name": "9c7ca21104066b22d66b3fc3965296ad", "is_reserved": 0, "rental_uris": {"android": "https://dc.lft.to/lastmile_qr_scan", "ios": "https://dc.lft.to/lastmile_qr_scan"}, "fusion_lon": 0.0}, {"lat": 38.900619666666664, "is_disabled": 0, "type": "electric_scooter", "lon": -76.93388483333334, "bike_id": "072f335569e76638c4861fb85e3b402e", "fusion_lat": 0.0, "name": "072f335569e76638c4861fb85e3b402e", "is_reserved": 0, "rental_uris": {"android": "https://dc.lft.to/lastmile_qr_scan", "ios": "https://dc.lft.to/lastmile_qr_scan"}, "fusion_lon": 0.0}, {"lat": 38.999995, "is_disabled": 0, "type": "electric_bike", "lon": -76.92494766666667, "bike_id": "614cf1ec9f6b8c70c5a4ecbaa943e5bf", "fusion_lat": 0.0, "name": "614cf1ec9f6b8c70c5a4ecbaa943e5bf", "is_reserved": 0, "rental_uris": {"android": "https://dc.lft.to/lastmile_qr_scan", "ios": "https://dc.lft.to/lastmile_qr_scan"}, "fusion_lon": 0.0}, {"lat": 38.89225033333334, "is_disabled": 0, "type": "electric_scooter", "lon": -77.03185066666667, "bike_id": "631c56ea4c845dcbee05df57846faf6b", "fusion_lat": 0.0, "name": "631c56ea4c845dcbee05df57846faf6b", "is_reserved": 0, "rental_uris": {"android": "https://dc.lft.to/lastmile_qr_scan", "ios": "https://dc.lft.to/lastmile_qr_scan"}, "fusion_lon": 0.0}, {"lat": 38.916888666666665, "is_disabled": 0, "type": "electric_scooter", "lon": -77.029685, "bike_id": "5a84143a6f8623666b3208b4fb79bf4b", "fusion_lat": 0.0, "name": "5a84143a6f8623666b3208b4fb79bf4b", "is_reserved": 0, "rental_uris": {"android": "https://dc.lft.to/lastmile_qr_scan", "ios": "https://dc.lft.to/lastmile_qr_scan"}, "fusion_lon": 0.0}, {"lat": 38.9318865, "is_disabled": 0, "type": "electric_scooter", "lon": -77.02827583333334, "bike_id": "9d17ea2bed9dce022c679966cc14d0d7", "fusion_lat": 0.0, "name": "9d17ea2bed9dce022c679966cc14d0d7", "is_reserved": 0, "rental_uris": {"android": "https://dc.lft.to/lastmile_qr_scan", "ios": "https://dc.lft.to/lastmile_qr_scan"}, "fusion_lon": 0.0}, {"lat": 38.9365535, "is_disabled": 0, "type": "electric_scooter", "lon": -77.02390216666667, "bike_id": "d496cc5ae110692e6c3d208168fdb2e5", "fusion_lat": 0.0, "name": "d496cc5ae110692e6c3d208168fdb2e5", "is_reserved": 0, "rental_uris": {"android": "https://dc.lft.to/lastmile_qr_scan", "ios": "https://dc.lft.to/lastmile_qr_scan"}, "fusion_lon": 0.0}, {"lat": 38.899602, "is_disabled": 0, "type": "electric_scooter", "lon": -77.05134083333333, "bike_id": "2e6a7bdea54aa1ab7e35a2fdcc3943e6", "fusion_lat": 0.0, "name": "2e6a7bdea54aa1ab7e35a2fdcc3943e6", "is_reserved": 0, "rental_uris": {"android": "https://dc.lft.to/lastmile_qr_scan", "ios": "https://dc.lft.to/lastmile_qr_scan"}, "fusion_lon": 0.0}, {"lat": 38.900769833333335, "is_disabled": 0, "type": "electric_scooter", "lon": -77.0499465, "bike_id": "68b99d5fcff432f9ff93b4db6ae58767", "fusion_lat": 0.0, "name": "68b99d5fcff432f9ff93b4db6ae58767", "is_reserved": 0, "rental_uris": {"android": "https://dc.lft.to/lastmile_qr_scan", "ios": "https://dc.lft.to/lastmile_qr_scan"}, "fusion_lon": 0.0}, {"lat": 38.891036166666666, "is_disabled": 0, "type": "electric_scooter", "lon": -76.95239283333333, "bike_id": "9760b106e76c49357255277ee2cf1c6b", "fusion_lat": 0.0, "name": "9760b106e76c49357255277ee2cf1c6b", "is_reserved": 0, "rental_uris": {"android": "https://dc.lft.to/lastmile_qr_scan", "ios": "https://dc.lft.to/lastmile_qr_scan"}, "fusion_lon": 0.0}, {"lat": 38.94295016666667, "is_disabled": 0, "type": "electric_scooter", "lon": -77.077066, "bike_id": "238a2144bd16b230f395966082e34836", "fusion_lat": 0.0, "name": "238a2144bd16b230f395966082e34836", "is_reserved": 0, "rental_uris": {"android": "https://dc.lft.to/lastmile_qr_scan", "ios": "https://dc.lft.to/lastmile_qr_scan"}, "fusion_lon": 0.0}, {"lat": 38.915914, "is_disabled": 0, "type": "electric_scooter", "lon": -77.04660833333334, "bike_id": "0909a8674cb0964c86af46a0dbd00098", "fusion_lat": 0.0, "name": "0909a8674cb0964c86af46a0dbd00098", "is_reserved": 0, "rental_uris": {"android": "https://dc.lft.to/lastmile_qr_scan", "ios": "https://dc.lft.to/lastmile_qr_scan"}, "fusion_lon": 0.0}, {"lat": 38.8888865, "is_disabled": 0, "type": "electric_scooter", "lon": -76.93154566666666, "bike_id": "cb90dd1f5836be60e26f59a720c48c66", "fusion_lat": 0.0, "name": "cb90dd1f5836be60e26f59a720c48c66", "is_reserved": 0, "rental_uris": {"android": "https://dc.lft.to/lastmile_qr_scan", "ios": "https://dc.lft.to/lastmile_qr_scan"}, "fusion_lon": 0.0}, {"lat": 38.944327, "is_disabled": 0, "type": "electric_scooter", "lon": -77.06305016666667, "bike_id": "20476c3e35c191da658cf2b7eb6c75cc", "fusion_lat": 0.0, "name": "20476c3e35c191da658cf2b7eb6c75cc", "is_reserved": 0, "rental_uris": {"android": "https://dc.lft.to/lastmile_qr_scan", "ios": "https://dc.lft.to/lastmile_qr_scan"}, "fusion_lon": 0.0}, {"lat": 38.914040666666665, "is_disabled": 0, "type": "electric_scooter", "lon": -77.03225216666667, "bike_id": "72485df1a293970bcc087961f02f9bdf", "fusion_lat": 0.0, "name": "72485df1a293970bcc087961f02f9bdf", "is_reserved": 0, "rental_uris": {"android": "https://dc.lft.to/lastmile_qr_scan", "ios": "https://dc.lft.to/lastmile_qr_scan"}, "fusion_lon": 0.0}, {"lat": 38.915, "is_disabled": 0, "type": "electric_scooter", "lon": -76.98360433333333, "bike_id": "5877764e9af985dc252c48467b54a418", "fusion_lat": 0.0, "name": "5877764e9af985dc252c48467b54a418", "is_reserved": 0, "rental_uris": {"android": "https://dc.lft.to/lastmile_qr_scan", "ios": "https://dc.lft.to/lastmile_qr_scan"}, "fusion_lon": 0.0}, {"lat": 38.95223466666667, "is_disabled": 0, "type": "electric_bike", "lon": -77.00239383333333, "bike_id": "a661e875836e28f104192db675fbf239", "fusion_lat": 0.0, "name": "a661e875836e28f104192db675fbf239", "is_reserved": 0, "rental_uris": {"android": "https://dc.lft.to/lastmile_qr_scan", "ios": "https://dc.lft.to/lastmile_qr_scan"}, "fusion_lon": 0.0}, {"lat": 38.93581566666667, "is_disabled": 0, "type": "electric_bike", "lon": -77.10682383333334, "bike_id": "3a7bd4694692034b08a9367aa721ff79", "fusion_lat": 0.0, "name": "3a7bd4694692034b08a9367aa721ff79", "is_reserved": 0, "rental_uris": {"android": "https://dc.lft.to/lastmile_qr_scan", "ios": "https://dc.lft.to/lastmile_qr_scan"}, "fusion_lon": 0.0}, {"lat": 38.907036, "is_disabled": 0, "type": "electric_scooter", "lon": -77.04336616666667, "bike_id": "4c9daf5c0ea07c672b8a8f655d975fa3", "fusion_lat": 0.0, "name": "4c9daf5c0ea07c672b8a8f655d975fa3", "is_reserved": 0, "rental_uris": {"android": "https://dc.lft.to/lastmile_qr_scan", "ios": "https://dc.lft.to/lastmile_qr_scan"}, "fusion_lon": 0.0}, {"lat": 38.90239583333333, "is_disabled": 0, "type": "electric_scooter", "lon": -77.020733, "bike_id": "8bf068571ca82455578a2d8a0f8dcf5d", "fusion_lat": 0.0, "name": "8bf068571ca82455578a2d8a0f8dcf5d", "is_reserved": 0, "rental_uris": {"android": "https://dc.lft.to/lastmile_qr_scan", "ios": "https://dc.lft.to/lastmile_qr_scan"}, "fusion_lon": 0.0}, {"lat": 38.90514783333333, "is_disabled": 0, "type": "electric_scooter", "lon": -77.06453633333334, "bike_id": "8791dd4296937d9f41e57a1467412e3f", "fusion_lat": 0.0, "name": "8791dd4296937d9f41e57a1467412e3f", "is_reserved": 0, "rental_uris": {"android": "https://dc.lft.to/lastmile_qr_scan", "ios": "https://dc.lft.to/lastmile_qr_scan"}, "fusion_lon": 0.0}, {"lat": 38.927501666666664, "is_disabled": 0, "type": "electric_scooter", "lon": -77.02307166666667, "bike_id": "027ec40444f76e901e6cdcf554d15110", "fusion_lat": 0.0, "name": "027ec40444f76e901e6cdcf554d15110", "is_reserved": 0, "rental_uris": {"android": "https://dc.lft.to/lastmile_qr_scan", "ios": "https://dc.lft.to/lastmile_qr_scan"}, "fusion_lon": 0.0}, {"lat": 38.941378, "is_disabled": 0, "type": "electric_scooter", "lon": -77.07616816666666, "bike_id": "8d1713c3c7175ff2e4cb79478b5ac03b", "fusion_lat": 0.0, "name": "8d1713c3c7175ff2e4cb79478b5ac03b", "is_reserved": 0, "rental_uris": {"android": "https://dc.lft.to/lastmile_qr_scan", "ios": "https://dc.lft.to/lastmile_qr_scan"}, "fusion_lon": 0.0}, {"lat": 38.92363816666666, "is_disabled": 0, "type": "electric_scooter", "lon": -77.0509585, "bike_id": "b7e34e5245675f2c31b5106402ad135f", "fusion_lat": 0.0, "name": "b7e34e5245675f2c31b5106402ad135f", "is_reserved": 0, "rental_uris": {"android": "https://dc.lft.to/lastmile_qr_scan", "ios": "https://dc.lft.to/lastmile_qr_scan"}, "fusion_lon": 0.0}, {"lat": 38.871512833333334, "is_disabled": 0, "type": "electric_bike", "lon": -76.93669683333333, "bike_id": "0c1185aa955c5d53b123aa809c4022ab", "fusion_lat": 0.0, "name": "0c1185aa955c5d53b123aa809c4022ab", "is_reserved": 0, "rental_uris": {"android": "https://dc.lft.to/lastmile_qr_scan", "ios": "https://dc.lft.to/lastmile_qr_scan"}, "fusion_lon": 0.0}, {"lat": 38.931718333333336, "is_disabled": 0, "type": "electric_scooter", "lon": -77.02815, "bike_id": "c4daa6067b46bb22276bdfb4e505c926", "fusion_lat": 0.0, "name": "c4daa6067b46bb22276bdfb4e505c926", "is_reserved": 0, "rental_uris": {"android": "https://dc.lft.to/lastmile_qr_scan", "ios": "https://dc.lft.to/lastmile_qr_scan"}, "fusion_lon": 0.0}, {"lat": 38.96625266666667, "is_disabled": 0, "type": "electric_bike", "lon": -76.97669583333334, "bike_id": "7cb92d831eca7f4b43f18c6909439fac", "fusion_lat": 0.0, "name": "7cb92d831eca7f4b43f18c6909439fac", "is_reserved": 0, "rental_uris": {"android": "https://dc.lft.to/lastmile_qr_scan", "ios": "https://dc.lft.to/lastmile_qr_scan"}, "fusion_lon": 0.0}, {"lat": 38.9081605, "is_disabled": 0, "type": "electric_scooter", "lon": -76.997123, "bike_id": "b383ba1d687ed8d4cb8b164d7e978533", "fusion_lat": 0.0, "name": "b383ba1d687ed8d4cb8b164d7e978533", "is_reserved": 0, "rental_uris": {"android": "https://dc.lft.to/lastmile_qr_scan", "ios": "https://dc.lft.to/lastmile_qr_scan"}, "fusion_lon": 0.0}, {"lat": 38.919800333333335, "is_disabled": 0, "type": "electric_scooter", "lon": -77.01207333333333, "bike_id": "73ddb52f9a28be9996cc496b23d0c566", "fusion_lat": 0.0, "name": "73ddb52f9a28be9996cc496b23d0c566", "is_reserved": 0, "rental_uris": {"android": "https://dc.lft.to/lastmile_qr_scan", "ios": "https://dc.lft.to/lastmile_qr_scan"}, "fusion_lon": 0.0}, {"lat": 38.922509833333336, "is_disabled": 0, "type": "electric_scooter", "lon": -77.01967633333334, "bike_id": "aa6d1cd70f4a69949a0f9eace23773d1", "fusion_lat": 0.0, "name": "aa6d1cd70f4a69949a0f9eace23773d1", "is_reserved": 0, "rental_uris": {"android": "https://dc.lft.to/lastmile_qr_scan", "ios": "https://dc.lft.to/lastmile_qr_scan"}, "fusion_lon": 0.0}, {"lat": 38.9341155, "is_disabled": 0, "type": "electric_scooter", "lon": -77.02040266666667, "bike_id": "31fcea167936e7e0bcf189b8db861dd1", "fusion_lat": 0.0, "name": "31fcea167936e7e0bcf189b8db861dd1", "is_reserved": 0, "rental_uris": {"android": "https://dc.lft.to/lastmile_qr_scan", "ios": "https://dc.lft.to/lastmile_qr_scan"}, "fusion_lon": 0.0}, {"lat": 38.902443833333336, "is_disabled": 0, "type": "electric_scooter", "lon": -77.01755316666667, "bike_id": "233d21de9443e23e12d3c76f6fee0e1a", "fusion_lat": 0.0, "name": "233d21de9443e23e12d3c76f6fee0e1a", "is_reserved": 0, "rental_uris": {"android": "https://dc.lft.to/lastmile_qr_scan", "ios": "https://dc.lft.to/lastmile_qr_scan"}, "fusion_lon": 0.0}, {"lat": 38.902738, "is_disabled": 0, "type": "electric_scooter", "lon": -77.0343455, "bike_id": "48b7072ff8ba916b96c802d347899a4e", "fusion_lat": 0.0, "name": "48b7072ff8ba916b96c802d347899a4e", "is_reserved": 0, "rental_uris": {"android": "https://dc.lft.to/lastmile_qr_scan", "ios": "https://dc.lft.to/lastmile_qr_scan"}, "fusion_lon": 0.0}, {"lat": 38.8904975, "is_disabled": 0, "type": "electric_scooter", "lon": -76.93753133333334, "bike_id": "6d08812de3ac8668d0882f046301b52e", "fusion_lat": 0.0, "name": "6d08812de3ac8668d0882f046301b52e", "is_reserved": 0, "rental_uris": {"android": "https://dc.lft.to/lastmile_qr_scan", "ios": "https://dc.lft.to/lastmile_qr_scan"}, "fusion_lon": 0.0}, {"lat": 38.902748333333335, "is_disabled": 0, "type": "electric_scooter", "lon": -77.0403695, "bike_id": "28c45d3228829d10150c2a583891db74", "fusion_lat": 0.0, "name": "28c45d3228829d10150c2a583891db74", "is_reserved": 0, "rental_uris": {"android": "https://dc.lft.to/lastmile_qr_scan", "ios": "https://dc.lft.to/lastmile_qr_scan"}, "fusion_lon": 0.0}, {"lat": 38.8381, "is_disabled": 0, "type": "electric_bike", "lon": -77.09525516666666, "bike_id": "d3fdb5ee1cdbe0de9543cd01c884b7d9", "fusion_lat": 0.0, "name": "d3fdb5ee1cdbe0de9543cd01c884b7d9", "is_reserved": 0, "rental_uris": {"android": "https://dc.lft.to/lastmile_qr_scan", "ios": "https://dc.lft.to/lastmile_qr_scan"}, "fusion_lon": 0.0}, {"lat": 38.86528166666667, "is_disabled": 0, "type": "electric_scooter", "lon": -76.99032266666667, "bike_id": "2fcee6aee6498565a4bc92c33857339c", "fusion_lat": 0.0, "name": "2fcee6aee6498565a4bc92c33857339c", "is_reserved": 0, "rental_uris": {"android": "https://dc.lft.to/lastmile_qr_scan", "ios": "https://dc.lft.to/lastmile_qr_scan"}, "fusion_lon": 0.0}, {"lat": 38.8762775, "is_disabled": 0, "type": "electric_scooter", "lon": -76.96526666666666, "bike_id": "4310d2e6557e0c7cf335dab5b0db8169", "fusion_lat": 0.0, "name": "4310d2e6557e0c7cf335dab5b0db8169", "is_reserved": 0, "rental_uris": {"android": "https://dc.lft.to/lastmile_qr_scan", "ios": "https://dc.lft.to/lastmile_qr_scan"}, "fusion_lon": 0.0}, {"lat": 38.90959483333334, "is_disabled": 0, "type": "electric_scooter", "lon": -77.03259233333333, "bike_id": "376c473c0b5775e7fb6b067145868698", "fusion_lat": 0.0, "name": "376c473c0b5775e7fb6b067145868698", "is_reserved": 0, "rental_uris": {"android": "https://dc.lft.to/lastmile_qr_scan", "ios": "https://dc.lft.to/lastmile_qr_scan"}, "fusion_lon": 0.0}, {"lat": 38.859307666666666, "is_disabled": 0, "type": "electric_scooter", "lon": -76.99717666666666, "bike_id": "723e22a87007b0f998093634fd0ca33e", "fusion_lat": 0.0, "name": "723e22a87007b0f998093634fd0ca33e", "is_reserved": 0, "rental_uris": {"android": "https://dc.lft.to/lastmile_qr_scan", "ios": "https://dc.lft.to/lastmile_qr_scan"}, "fusion_lon": 0.0}, {"lat": 38.89709633333333, "is_disabled": 0, "type": "electric_scooter", "lon": -77.003455, "bike_id": "3aabd08ce0f1649a035c42d11d37e192", "fusion_lat": 0.0, "name": "3aabd08ce0f1649a035c42d11d37e192", "is_reserved": 0, "rental_uris": {"android": "https://dc.lft.to/lastmile_qr_scan", "ios": "https://dc.lft.to/lastmile_qr_scan"}, "fusion_lon": 0.0}, {"lat": 38.91661333333333, "is_disabled": 0, "type": "electric_scooter", "lon": -77.01916116666666, "bike_id": "62fa140d890b02a085e7a2636addba50", "fusion_lat": 0.0, "name": "62fa140d890b02a085e7a2636addba50", "is_reserved": 0, "rental_uris": {"android": "https://dc.lft.to/lastmile_qr_scan", "ios": "https://dc.lft.to/lastmile_qr_scan"}, "fusion_lon": 0.0}, {"lat": 38.946292666666665, "is_disabled": 0, "type": "electric_scooter", "lon": -77.01844416666667, "bike_id": "c199335797d400ae1024a0a21e902904", "fusion_lat": 0.0, "name": "c199335797d400ae1024a0a21e902904", "is_reserved": 0, "rental_uris": {"android": "https://dc.lft.to/lastmile_qr_scan", "ios": "https://dc.lft.to/lastmile_qr_scan"}, "fusion_lon": 0.0}, {"lat": 38.92411883333333, "is_disabled": 0, "type": "electric_scooter", "lon": -77.02745083333333, "bike_id": "b4fd16f11ce21bda77a318cb379d531d", "fusion_lat": 0.0, "name": "b4fd16f11ce21bda77a318cb379d531d", "is_reserved": 0, "rental_uris": {"android": "https://dc.lft.to/lastmile_qr_scan", "ios": "https://dc.lft.to/lastmile_qr_scan"}, "fusion_lon": 0.0}, {"lat": 38.9035775, "is_disabled": 0, "type": "electric_scooter", "lon": -77.042535, "bike_id": "443c6701eab7b06a5c85ce0d81cec389", "fusion_lat": 0.0, "name": "443c6701eab7b06a5c85ce0d81cec389", "is_reserved": 0, "rental_uris": {"android": "https://dc.lft.to/lastmile_qr_scan", "ios": "https://dc.lft.to/lastmile_qr_scan"}, "fusion_lon": 0.0}, {"lat": 38.95403833333334, "is_disabled": 0, "type": "electric_scooter", "lon": -77.02752533333333, "bike_id": "fbe4211e6c0a048d99264eab080df129", "fusion_lat": 0.0, "name": "fbe4211e6c0a048d99264eab080df129", "is_reserved": 0, "rental_uris": {"android": "https://dc.lft.to/lastmile_qr_scan", "ios": "https://dc.lft.to/lastmile_qr_scan"}, "fusion_lon": 0.0}, {"lat": 38.91676283333334, "is_disabled": 0, "type": "electric_scooter", "lon": -77.02956433333334, "bike_id": "7d490ef7b4d3a977190e322160a30f7d", "fusion_lat": 0.0, "name": "7d490ef7b4d3a977190e322160a30f7d", "is_reserved": 0, "rental_uris": {"android": "https://dc.lft.to/lastmile_qr_scan", "ios": "https://dc.lft.to/lastmile_qr_scan"}, "fusion_lon": 0.0}, {"lat": 38.892905999999996, "is_disabled": 0, "type": "electric_bike", "lon": -77.0014205, "bike_id": "440a3af1937b4914e3847d75dedb03f4", "fusion_lat": 0.0, "name": "440a3af1937b4914e3847d75dedb03f4", "is_reserved": 0, "rental_uris": {"android": "https://dc.lft.to/lastmile_qr_scan", "ios": "https://dc.lft.to/lastmile_qr_scan"}, "fusion_lon": 0.0}, {"lat": 38.90607716666667, "is_disabled": 0, "type": "electric_scooter", "lon": -77.058581, "bike_id": "b6297c8fc467fdc30b3fe708a6c3ef5e", "fusion_lat": 0.0, "name": "b6297c8fc467fdc30b3fe708a6c3ef5e", "is_reserved": 0, "rental_uris": {"android": "https://dc.lft.to/lastmile_qr_scan", "ios": "https://dc.lft.to/lastmile_qr_scan"}, "fusion_lon": 0.0}, {"lat": 38.90451633333333, "is_disabled": 0, "type": "electric_scooter", "lon": -77.028897, "bike_id": "2aedd409eaafea612d4b3363ef236a23", "fusion_lat": 0.0, "name": "2aedd409eaafea612d4b3363ef236a23", "is_reserved": 0, "rental_uris": {"android": "https://dc.lft.to/lastmile_qr_scan", "ios": "https://dc.lft.to/lastmile_qr_scan"}, "fusion_lon": 0.0}, {"lat": 38.89522233333334, "is_disabled": 0, "type": "electric_scooter", "lon": -77.01102783333333, "bike_id": "c20cd522cb6ab37e07d763ecb1a4151d", "fusion_lat": 0.0, "name": "c20cd522cb6ab37e07d763ecb1a4151d", "is_reserved": 0, "rental_uris": {"android": "https://dc.lft.to/lastmile_qr_scan", "ios": "https://dc.lft.to/lastmile_qr_scan"}, "fusion_lon": 0.0}, {"lat": 38.88661783333333, "is_disabled": 0, "type": "electric_scooter", "lon": -76.996118, "bike_id": "da214883334b721bb1dc282e2d6e90ce", "fusion_lat": 0.0, "name": "da214883334b721bb1dc282e2d6e90ce", "is_reserved": 0, "rental_uris": {"android": "https://dc.lft.to/lastmile_qr_scan", "ios": "https://dc.lft.to/lastmile_qr_scan"}, "fusion_lon": 0.0}, {"lat": 38.92367933333333, "is_disabled": 0, "type": "electric_scooter", "lon": -77.076836, "bike_id": "45adb44d242bacf8f435d10549c9fee2", "fusion_lat": 0.0, "name": "45adb44d242bacf8f435d10549c9fee2", "is_reserved": 0, "rental_uris": {"android": "https://dc.lft.to/lastmile_qr_scan", "ios": "https://dc.lft.to/lastmile_qr_scan"}, "fusion_lon": 0.0}, {"lat": 38.91861516666667, "is_disabled": 0, "type": "electric_scooter", "lon": -77.0742075, "bike_id": "8ed09808f759793023fc793a1ccbad53", "fusion_lat": 0.0, "name": "8ed09808f759793023fc793a1ccbad53", "is_reserved": 0, "rental_uris": {"android": "https://dc.lft.to/lastmile_qr_scan", "ios": "https://dc.lft.to/lastmile_qr_scan"}, "fusion_lon": 0.0}, {"lat": 38.884245, "is_disabled": 0, "type": "electric_bike", "lon": -76.980871, "bike_id": "c42c0b0c39af31e30ec726fb56567a99", "fusion_lat": 0.0, "name": "c42c0b0c39af31e30ec726fb56567a99", "is_reserved": 0, "rental_uris": {"android": "https://dc.lft.to/lastmile_qr_scan", "ios": "https://dc.lft.to/lastmile_qr_scan"}, "fusion_lon": 0.0}, {"lat": 38.90505366666667, "is_disabled": 0, "type": "electric_scooter", "lon": -77.050531, "bike_id": "c93ccbc02c9d100fbcf563589950ceaa", "fusion_lat": 0.0, "name": "c93ccbc02c9d100fbcf563589950ceaa", "is_reserved": 0, "rental_uris": {"android": "https://dc.lft.to/lastmile_qr_scan", "ios": "https://dc.lft.to/lastmile_qr_scan"}, "fusion_lon": 0.0}, {"lat": 38.914675333333335, "is_disabled": 0, "type": "electric_scooter", "lon": -77.01893366666667, "bike_id": "78d8d433f03df30ee10a1d6f8751b157", "fusion_lat": 0.0, "name": "78d8d433f03df30ee10a1d6f8751b157", "is_reserved": 0, "rental_uris": {"android": "https://dc.lft.to/lastmile_qr_scan", "ios": "https://dc.lft.to/lastmile_qr_scan"}, "fusion_lon": 0.0}, {"lat": 38.93053916666667, "is_disabled": 0, "type": "electric_scooter", "lon": -77.03245566666666, "bike_id": "816ee7303908e9e0f307907db3d949df", "fusion_lat": 0.0, "name": "816ee7303908e9e0f307907db3d949df", "is_reserved": 0, "rental_uris": {"android": "https://dc.lft.to/lastmile_qr_scan", "ios": "https://dc.lft.to/lastmile_qr_scan"}, "fusion_lon": 0.0}, {"lat": 38.89201716666667, "is_disabled": 0, "type": "electric_bike", "lon": -76.970484, "bike_id": "1a5735d7dd9f56126d13402592487421", "fusion_lat": 0.0, "name": "1a5735d7dd9f56126d13402592487421", "is_reserved": 0, "rental_uris": {"android": "https://dc.lft.to/lastmile_qr_scan", "ios": "https://dc.lft.to/lastmile_qr_scan"}, "fusion_lon": 0.0}, {"lat": 38.8634745, "is_disabled": 0, "type": "electric_scooter", "lon": -76.990012, "bike_id": "2eb6a101cc6fec676c56f6d1e9c992fe", "fusion_lat": 0.0, "name": "2eb6a101cc6fec676c56f6d1e9c992fe", "is_reserved": 0, "rental_uris": {"android": "https://dc.lft.to/lastmile_qr_scan", "ios": "https://dc.lft.to/lastmile_qr_scan"}, "fusion_lon": 0.0}, {"lat": 38.90442566666667, "is_disabled": 0, "type": "electric_scooter", "lon": -77.06111383333334, "bike_id": "3c9f6bba2833bc103305e07b959c588d", "fusion_lat": 0.0, "name": "3c9f6bba2833bc103305e07b959c588d", "is_reserved": 0, "rental_uris": {"android": "https://dc.lft.to/lastmile_qr_scan", "ios": "https://dc.lft.to/lastmile_qr_scan"}, "fusion_lon": 0.0}, {"lat": 38.957818, "is_disabled": 0, "type": "electric_scooter", "lon": -77.024647, "bike_id": "ae0b771bb5fbf549d13a7701642ed78b", "fusion_lat": 0.0, "name": "ae0b771bb5fbf549d13a7701642ed78b", "is_reserved": 0, "rental_uris": {"android": "https://dc.lft.to/lastmile_qr_scan", "ios": "https://dc.lft.to/lastmile_qr_scan"}, "fusion_lon": 0.0}, {"lat": 38.926777333333334, "is_disabled": 0, "type": "electric_scooter", "lon": -77.051031, "bike_id": "3aaa1851e37bda752a1f0a7d8aa2d72d", "fusion_lat": 0.0, "name": "3aaa1851e37bda752a1f0a7d8aa2d72d", "is_reserved": 0, "rental_uris": {"android": "https://dc.lft.to/lastmile_qr_scan", "ios": "https://dc.lft.to/lastmile_qr_scan"}, "fusion_lon": 0.0}, {"lat": 38.899179, "is_disabled": 0, "type": "electric_scooter", "lon": -76.93381566666666, "bike_id": "3a8df09098680d87edd7d749571e318c", "fusion_lat": 0.0, "name": "3a8df09098680d87edd7d749571e318c", "is_reserved": 0, "rental_uris": {"android": "https://dc.lft.to/lastmile_qr_scan", "ios": "https://dc.lft.to/lastmile_qr_scan"}, "fusion_lon": 0.0}, {"lat": 38.90244366666667, "is_disabled": 0, "type": "electric_scooter", "lon": -77.016325, "bike_id": "d836c3e3809e847a6af5b7973d3f8b0d", "fusion_lat": 0.0, "name": "d836c3e3809e847a6af5b7973d3f8b0d", "is_reserved": 0, "rental_uris": {"android": "https://dc.lft.to/lastmile_qr_scan", "ios": "https://dc.lft.to/lastmile_qr_scan"}, "fusion_lon": 0.0}, {"lat": 38.84294916666666, "is_disabled": 0, "type": "electric_scooter", "lon": -76.99950683333333, "bike_id": "a1f32c3436860dd0886f6303bbd2cec9", "fusion_lat": 0.0, "name": "a1f32c3436860dd0886f6303bbd2cec9", "is_reserved": 0, "rental_uris": {"android": "https://dc.lft.to/lastmile_qr_scan", "ios": "https://dc.lft.to/lastmile_qr_scan"}, "fusion_lon": 0.0}, {"lat": 38.955595333333335, "is_disabled": 0, "type": "electric_bike", "lon": -76.93545966666667, "bike_id": "5dc72628f4a66c3d4815c53e19d0cab2", "fusion_lat": 0.0, "name": "5dc72628f4a66c3d4815c53e19d0cab2", "is_reserved": 0, "rental_uris": {"android": "https://dc.lft.to/lastmile_qr_scan", "ios": "https://dc.lft.to/lastmile_qr_scan"}, "fusion_lon": 0.0}, {"lat": 38.9370895, "is_disabled": 0, "type": "electric_bike", "lon": -77.02531216666667, "bike_id": "37f2a04cb6a67527973c2ddf0351a982", "fusion_lat": 0.0, "name": "37f2a04cb6a67527973c2ddf0351a982", "is_reserved": 0, "rental_uris": {"android": "https://dc.lft.to/lastmile_qr_scan", "ios": "https://dc.lft.to/lastmile_qr_scan"}, "fusion_lon": 0.0}, {"lat": 38.912652, "is_disabled": 0, "type": "electric_scooter", "lon": -77.01304133333333, "bike_id": "3497d4aa9a3c467cc00779f0aacdf894", "fusion_lat": 0.0, "name": "3497d4aa9a3c467cc00779f0aacdf894", "is_reserved": 0, "rental_uris": {"android": "https://dc.lft.to/lastmile_qr_scan", "ios": "https://dc.lft.to/lastmile_qr_scan"}, "fusion_lon": 0.0}, {"lat": 38.896655333333335, "is_disabled": 0, "type": "electric_scooter", "lon": -77.01970966666667, "bike_id": "858b3cf54d4f506619718f00a6be966a", "fusion_lat": 0.0, "name": "858b3cf54d4f506619718f00a6be966a", "is_reserved": 0, "rental_uris": {"android": "https://dc.lft.to/lastmile_qr_scan", "ios": "https://dc.lft.to/lastmile_qr_scan"}, "fusion_lon": 0.0}, {"lat": 38.881497333333336, "is_disabled": 0, "type": "electric_bike", "lon": -77.02706816666667, "bike_id": "0208a5049d547a410a31246458a9a2f6", "fusion_lat": 0.0, "name": "0208a5049d547a410a31246458a9a2f6", "is_reserved": 0, "rental_uris": {"android": "https://dc.lft.to/lastmile_qr_scan", "ios": "https://dc.lft.to/lastmile_qr_scan"}, "fusion_lon": 0.0}, {"lat": 38.911207166666664, "is_disabled": 0, "type": "electric_scooter", "lon": -77.03834116666667, "bike_id": "22ac88d34d7ee55fdf4139ddd552383d", "fusion_lat": 0.0, "name": "22ac88d34d7ee55fdf4139ddd552383d", "is_reserved": 0, "rental_uris": {"android": "https://dc.lft.to/lastmile_qr_scan", "ios": "https://dc.lft.to/lastmile_qr_scan"}, "fusion_lon": 0.0}, {"lat": 38.93141833333333, "is_disabled": 0, "type": "electric_scooter", "lon": -77.02825666666666, "bike_id": "b92671972542ac5b7cdf762d2820a818", "fusion_lat": 0.0, "name": "b92671972542ac5b7cdf762d2820a818", "is_reserved": 0, "rental_uris": {"android": "https://dc.lft.to/lastmile_qr_scan", "ios": "https://dc.lft.to/lastmile_qr_scan"}, "fusion_lon": 0.0}, {"lat": 38.902456666666666, "is_disabled": 0, "type": "electric_scooter", "lon": -77.01750333333334, "bike_id": "1e5be9a485867342d810e25f17b7bd46", "fusion_lat": 0.0, "name": "1e5be9a485867342d810e25f17b7bd46", "is_reserved": 0, "rental_uris": {"android": "https://dc.lft.to/lastmile_qr_scan", "ios": "https://dc.lft.to/lastmile_qr_scan"}, "fusion_lon": 0.0}, {"lat": 38.921722333333335, "is_disabled": 0, "type": "electric_scooter", "lon": -77.04242983333333, "bike_id": "87bb0d86309bea7d1808d80145a5c474", "fusion_lat": 0.0, "name": "87bb0d86309bea7d1808d80145a5c474", "is_reserved": 0, "rental_uris": {"android": "https://dc.lft.to/lastmile_qr_scan", "ios": "https://dc.lft.to/lastmile_qr_scan"}, "fusion_lon": 0.0}, {"lat": 38.91711983333333, "is_disabled": 0, "type": "electric_scooter", "lon": -77.03220616666667, "bike_id": "5def8dd284b358acf2c919e53b586ab0", "fusion_lat": 0.0, "name": "5def8dd284b358acf2c919e53b586ab0", "is_reserved": 0, "rental_uris": {"android": "https://dc.lft.to/lastmile_qr_scan", "ios": "https://dc.lft.to/lastmile_qr_scan"}, "fusion_lon": 0.0}, {"lat": 38.862777666666666, "is_disabled": 0, "type": "electric_scooter", "lon": -76.99249433333334, "bike_id": "9dbc2ee40050ba82f7eba86217d81fd1", "fusion_lat": 0.0, "name": "9dbc2ee40050ba82f7eba86217d81fd1", "is_reserved": 0, "rental_uris": {"android": "https://dc.lft.to/lastmile_qr_scan", "ios": "https://dc.lft.to/lastmile_qr_scan"}, "fusion_lon": 0.0}, {"lat": 38.91963666666667, "is_disabled": 0, "type": "electric_scooter", "lon": -77.03202883333333, "bike_id": "04baeb84cf4a1f2a70399fd3de0c2d29", "fusion_lat": 0.0, "name": "04baeb84cf4a1f2a70399fd3de0c2d29", "is_reserved": 0, "rental_uris": {"android": "https://dc.lft.to/lastmile_qr_scan", "ios": "https://dc.lft.to/lastmile_qr_scan"}, "fusion_lon": 0.0}, {"lat": 38.9131575, "is_disabled": 0, "type": "electric_scooter", "lon": -77.03194883333333, "bike_id": "122d389fc432682b9859900202fd52d5", "fusion_lat": 0.0, "name": "122d389fc432682b9859900202fd52d5", "is_reserved": 0, "rental_uris": {"android": "https://dc.lft.to/lastmile_qr_scan", "ios": "https://dc.lft.to/lastmile_qr_scan"}, "fusion_lon": 0.0}, {"lat": 38.90537466666667, "is_disabled": 0, "type": "electric_scooter", "lon": -77.00550916666667, "bike_id": "fa810c5a45bf32fd3bec77e1414b2a05", "fusion_lat": 0.0, "name": "fa810c5a45bf32fd3bec77e1414b2a05", "is_reserved": 0, "rental_uris": {"android": "https://dc.lft.to/lastmile_qr_scan", "ios": "https://dc.lft.to/lastmile_qr_scan"}, "fusion_lon": 0.0}, {"lat": 38.94947066666667, "is_disabled": 0, "type": "electric_scooter", "lon": -77.02023683333333, "bike_id": "6d05453b45933d24084dc36baf5bc882", "fusion_lat": 0.0, "name": "6d05453b45933d24084dc36baf5bc882", "is_reserved": 0, "rental_uris": {"android": "https://dc.lft.to/lastmile_qr_scan", "ios": "https://dc.lft.to/lastmile_qr_scan"}, "fusion_lon": 0.0}, {"lat": 38.9357225, "is_disabled": 0, "type": "electric_scooter", "lon": -77.03262766666667, "bike_id": "3cae60bbc12f509b320ad9ec099ea3f3", "fusion_lat": 0.0, "name": "3cae60bbc12f509b320ad9ec099ea3f3", "is_reserved": 0, "rental_uris": {"android": "https://dc.lft.to/lastmile_qr_scan", "ios": "https://dc.lft.to/lastmile_qr_scan"}, "fusion_lon": 0.0}, {"lat": 38.89648433333333, "is_disabled": 0, "type": "electric_scooter", "lon": -77.00786883333333, "bike_id": "10338569ce9812e8acf79e7fd7439af8", "fusion_lat": 0.0, "name": "10338569ce9812e8acf79e7fd7439af8", "is_reserved": 0, "rental_uris": {"android": "https://dc.lft.to/lastmile_qr_scan", "ios": "https://dc.lft.to/lastmile_qr_scan"}, "fusion_lon": 0.0}, {"lat": 38.904870333333335, "is_disabled": 0, "type": "electric_scooter", "lon": -77.05735033333333, "bike_id": "a0dfbaba1fcc8f4de8578a6340f4445f", "fusion_lat": 0.0, "name": "a0dfbaba1fcc8f4de8578a6340f4445f", "is_reserved": 0, "rental_uris": {"android": "https://dc.lft.to/lastmile_qr_scan", "ios": "https://dc.lft.to/lastmile_qr_scan"}, "fusion_lon": 0.0}, {"lat": 38.872114333333336, "is_disabled": 0, "type": "electric_bike", "lon": -77.01526933333334, "bike_id": "51fc422310598cf7f32e7004f5b3af81", "fusion_lat": 0.0, "name": "51fc422310598cf7f32e7004f5b3af81", "is_reserved": 0, "rental_uris": {"android": "https://dc.lft.to/lastmile_qr_scan", "ios": "https://dc.lft.to/lastmile_qr_scan"}, "fusion_lon": 0.0}, {"lat": 38.924205666666666, "is_disabled": 0, "type": "electric_scooter", "lon": -77.03552133333334, "bike_id": "004c7ec21c146524f5dd07bdd873c1fb", "fusion_lat": 0.0, "name": "004c7ec21c146524f5dd07bdd873c1fb", "is_reserved": 0, "rental_uris": {"android": "https://dc.lft.to/lastmile_qr_scan", "ios": "https://dc.lft.to/lastmile_qr_scan"}, "fusion_lon": 0.0}, {"lat": 38.900179, "is_disabled": 0, "type": "electric_scooter", "lon": -76.9986565, "bike_id": "2056e8efbbd37e010a1b37655aca26d3", "fusion_lat": 0.0, "name": "2056e8efbbd37e010a1b37655aca26d3", "is_reserved": 0, "rental_uris": {"android": "https://dc.lft.to/lastmile_qr_scan", "ios": "https://dc.lft.to/lastmile_qr_scan"}, "fusion_lon": 0.0}, {"lat": 38.886632166666665, "is_disabled": 0, "type": "electric_bike", "lon": -77.16234733333333, "bike_id": "0098e20530b4bad586dba7c087d33850", "fusion_lat": 0.0, "name": "0098e20530b4bad586dba7c087d33850", "is_reserved": 0, "rental_uris": {"android": "https://dc.lft.to/lastmile_qr_scan", "ios": "https://dc.lft.to/lastmile_qr_scan"}, "fusion_lon": 0.0}, {"lat": 38.93350216666666, "is_disabled": 0, "type": "electric_scooter", "lon": -77.057021, "bike_id": "ff0571d50904371a5f2a85103b2e6719", "fusion_lat": 0.0, "name": "ff0571d50904371a5f2a85103b2e6719", "is_reserved": 0, "rental_uris": {"android": "https://dc.lft.to/lastmile_qr_scan", "ios": "https://dc.lft.to/lastmile_qr_scan"}, "fusion_lon": 0.0}, {"lat": 38.920180333333334, "is_disabled": 0, "type": "electric_scooter", "lon": -77.03168866666667, "bike_id": "82fc0a2ad2f818b4d559a92c9bf56b59", "fusion_lat": 0.0, "name": "82fc0a2ad2f818b4d559a92c9bf56b59", "is_reserved": 0, "rental_uris": {"android": "https://dc.lft.to/lastmile_qr_scan", "ios": "https://dc.lft.to/lastmile_qr_scan"}, "fusion_lon": 0.0}, {"lat": 38.89614366666667, "is_disabled": 0, "type": "electric_scooter", "lon": -76.95601166666667, "bike_id": "3f2b2f730901f195719aeaf280575ec3", "fusion_lat": 0.0, "name": "3f2b2f730901f195719aeaf280575ec3", "is_reserved": 0, "rental_uris": {"android": "https://dc.lft.to/lastmile_qr_scan", "ios": "https://dc.lft.to/lastmile_qr_scan"}, "fusion_lon": 0.0}, {"lat": 38.91889416666667, "is_disabled": 0, "type": "electric_scooter", "lon": -77.03905366666666, "bike_id": "ede10866c12caec701d4db594ba30336", "fusion_lat": 0.0, "name": "ede10866c12caec701d4db594ba30336", "is_reserved": 0, "rental_uris": {"android": "https://dc.lft.to/lastmile_qr_scan", "ios": "https://dc.lft.to/lastmile_qr_scan"}, "fusion_lon": 0.0}, {"lat": 38.9170585, "is_disabled": 0, "type": "electric_scooter", "lon": -77.038645, "bike_id": "b5bb7c80bfd7b2b7955c394140a31605", "fusion_lat": 0.0, "name": "b5bb7c80bfd7b2b7955c394140a31605", "is_reserved": 0, "rental_uris": {"android": "https://dc.lft.to/lastmile_qr_scan", "ios": "https://dc.lft.to/lastmile_qr_scan"}, "fusion_lon": 0.0}, {"lat": 38.91397583333333, "is_disabled": 0, "type": "electric_scooter", "lon": -77.03062833333334, "bike_id": "60c0a04b93f4f1945e387967f548adc1", "fusion_lat": 0.0, "name": "60c0a04b93f4f1945e387967f548adc1", "is_reserved": 0, "rental_uris": {"android": "https://dc.lft.to/lastmile_qr_scan", "ios": "https://dc.lft.to/lastmile_qr_scan"}, "fusion_lon": 0.0}, {"lat": 38.902470666666666, "is_disabled": 0, "type": "electric_scooter", "lon": -77.01751833333333, "bike_id": "bb0ecb568e0d0d8a86c90ab5e30f7b8e", "fusion_lat": 0.0, "name": "bb0ecb568e0d0d8a86c90ab5e30f7b8e", "is_reserved": 0, "rental_uris": {"android": "https://dc.lft.to/lastmile_qr_scan", "ios": "https://dc.lft.to/lastmile_qr_scan"}, "fusion_lon": 0.0}, {"lat": 38.904774833333335, "is_disabled": 0, "type": "electric_scooter", "lon": -77.007784, "bike_id": "24007650b9c286010500ce22e9b8afe3", "fusion_lat": 0.0, "name": "24007650b9c286010500ce22e9b8afe3", "is_reserved": 0, "rental_uris": {"android": "https://dc.lft.to/lastmile_qr_scan", "ios": "https://dc.lft.to/lastmile_qr_scan"}, "fusion_lon": 0.0}, {"lat": 38.90230183333333, "is_disabled": 0, "type": "electric_scooter", "lon": -77.04699766666667, "bike_id": "7ba8d1c13c81a29c45dfeba9438abfe7", "fusion_lat": 0.0, "name": "7ba8d1c13c81a29c45dfeba9438abfe7", "is_reserved": 0, "rental_uris": {"android": "https://dc.lft.to/lastmile_qr_scan", "ios": "https://dc.lft.to/lastmile_qr_scan"}, "fusion_lon": 0.0}, {"lat": 38.910611, "is_disabled": 0, "type": "electric_scooter", "lon": -77.04583383333333, "bike_id": "fbf163e2a9b55e4067ebe28d91abb155", "fusion_lat": 0.0, "name": "fbf163e2a9b55e4067ebe28d91abb155", "is_reserved": 0, "rental_uris": {"android": "https://dc.lft.to/lastmile_qr_scan", "ios": "https://dc.lft.to/lastmile_qr_scan"}, "fusion_lon": 0.0}, {"lat": 38.901552333333335, "is_disabled": 0, "type": "electric_scooter", "lon": -77.04162133333334, "bike_id": "8ed2e3da96f98e487d9f07f509998658", "fusion_lat": 0.0, "name": "8ed2e3da96f98e487d9f07f509998658", "is_reserved": 0, "rental_uris": {"android": "https://dc.lft.to/lastmile_qr_scan", "ios": "https://dc.lft.to/lastmile_qr_scan"}, "fusion_lon": 0.0}, {"lat": 38.926265, "is_disabled": 0, "type": "electric_scooter", "lon": -77.036178, "bike_id": "468286f7050b30762a750253115bd459", "fusion_lat": 0.0, "name": "468286f7050b30762a750253115bd459", "is_reserved": 0, "rental_uris": {"android": "https://dc.lft.to/lastmile_qr_scan", "ios": "https://dc.lft.to/lastmile_qr_scan"}, "fusion_lon": 0.0}, {"lat": 38.9388815, "is_disabled": 0, "type": "electric_scooter", "lon": -77.032197, "bike_id": "290528d6a46a34263385b7bcd68b1826", "fusion_lat": 0.0, "name": "290528d6a46a34263385b7bcd68b1826", "is_reserved": 0, "rental_uris": {"android": "https://dc.lft.to/lastmile_qr_scan", "ios": "https://dc.lft.to/lastmile_qr_scan"}, "fusion_lon": 0.0}, {"lat": 38.91751266666667, "is_disabled": 0, "type": "electric_scooter", "lon": -77.036587, "bike_id": "e84b95aad6e324022351f5970ee6717e", "fusion_lat": 0.0, "name": "e84b95aad6e324022351f5970ee6717e", "is_reserved": 0, "rental_uris": {"android": "https://dc.lft.to/lastmile_qr_scan", "ios": "https://dc.lft.to/lastmile_qr_scan"}, "fusion_lon": 0.0}, {"lat": 39.052034666666664, "is_disabled": 0, "type": "electric_bike", "lon": -77.10919633333333, "bike_id": "627d037adda82dfefd7d1a5bfaf9e737", "fusion_lat": 0.0, "name": "627d037adda82dfefd7d1a5bfaf9e737", "is_reserved": 0, "rental_uris": {"android": "https://dc.lft.to/lastmile_qr_scan", "ios": "https://dc.lft.to/lastmile_qr_scan"}, "fusion_lon": 0.0}, {"lat": 38.89011383333333, "is_disabled": 0, "type": "electric_scooter", "lon": -76.9374345, "bike_id": "0e657fec8ff538d1038687cf9eedda2e", "fusion_lat": 0.0, "name": "0e657fec8ff538d1038687cf9eedda2e", "is_reserved": 0, "rental_uris": {"android": "https://dc.lft.to/lastmile_qr_scan", "ios": "https://dc.lft.to/lastmile_qr_scan"}, "fusion_lon": 0.0}, {"lat": 38.89223233333333, "is_disabled": 0, "type": "electric_scooter", "lon": -77.04366033333334, "bike_id": "047b7167ad459127fb244574c14f76b9", "fusion_lat": 0.0, "name": "047b7167ad459127fb244574c14f76b9", "is_reserved": 0, "rental_uris": {"android": "https://dc.lft.to/lastmile_qr_scan", "ios": "https://dc.lft.to/lastmile_qr_scan"}, "fusion_lon": 0.0}, {"lat": 38.9079985, "is_disabled": 0, "type": "electric_scooter", "lon": -77.03410766666667, "bike_id": "f0f00a839da7c902d7a470cc9bbeff54", "fusion_lat": 0.0, "name": "f0f00a839da7c902d7a470cc9bbeff54", "is_reserved": 0, "rental_uris": {"android": "https://dc.lft.to/lastmile_qr_scan", "ios": "https://dc.lft.to/lastmile_qr_scan"}, "fusion_lon": 0.0}, {"lat": 38.909575833333335, "is_disabled": 0, "type": "electric_scooter", "lon": -77.04797283333333, "bike_id": "a31350a69ad86de454bf06bc2aaecadd", "fusion_lat": 0.0, "name": "a31350a69ad86de454bf06bc2aaecadd", "is_reserved": 0, "rental_uris": {"android": "https://dc.lft.to/lastmile_qr_scan", "ios": "https://dc.lft.to/lastmile_qr_scan"}, "fusion_lon": 0.0}, {"lat": 38.9294125, "is_disabled": 0, "type": "electric_scooter", "lon": -77.01891233333333, "bike_id": "13200fb32fe62f03a7bf4db9cdd0b14d", "fusion_lat": 0.0, "name": "13200fb32fe62f03a7bf4db9cdd0b14d", "is_reserved": 0, "rental_uris": {"android": "https://dc.lft.to/lastmile_qr_scan", "ios": "https://dc.lft.to/lastmile_qr_scan"}, "fusion_lon": 0.0}, {"lat": 38.90017133333333, "is_disabled": 0, "type": "electric_scooter", "lon": -77.0447355, "bike_id": "021cd08643dcd99ba4f50e1d6dfcf01e", "fusion_lat": 0.0, "name": "021cd08643dcd99ba4f50e1d6dfcf01e", "is_reserved": 0, "rental_uris": {"android": "https://dc.lft.to/lastmile_qr_scan", "ios": "https://dc.lft.to/lastmile_qr_scan"}, "fusion_lon": 0.0}, {"lat": 38.90903983333333, "is_disabled": 0, "type": "electric_scooter", "lon": -77.036472, "bike_id": "bdb409780c7316791127d6504e1ca12d", "fusion_lat": 0.0, "name": "bdb409780c7316791127d6504e1ca12d", "is_reserved": 0, "rental_uris": {"android": "https://dc.lft.to/lastmile_qr_scan", "ios": "https://dc.lft.to/lastmile_qr_scan"}, "fusion_lon": 0.0}, {"lat": 38.919730333333334, "is_disabled": 0, "type": "electric_scooter", "lon": -77.0135145, "bike_id": "40acaa9577876fb61389b69984ad26e3", "fusion_lat": 0.0, "name": "40acaa9577876fb61389b69984ad26e3", "is_reserved": 0, "rental_uris": {"android": "https://dc.lft.to/lastmile_qr_scan", "ios": "https://dc.lft.to/lastmile_qr_scan"}, "fusion_lon": 0.0}, {"lat": 38.91553316666667, "is_disabled": 0, "type": "electric_scooter", "lon": -77.03239833333333, "bike_id": "553ddb3a197a0af8d0b6f6bfc997564e", "fusion_lat": 0.0, "name": "553ddb3a197a0af8d0b6f6bfc997564e", "is_reserved": 0, "rental_uris": {"android": "https://dc.lft.to/lastmile_qr_scan", "ios": "https://dc.lft.to/lastmile_qr_scan"}, "fusion_lon": 0.0}, {"lat": 38.917768833333334, "is_disabled": 0, "type": "electric_scooter", "lon": -77.02307116666667, "bike_id": "db5af1bf18b225775b6ba4513b9f2341", "fusion_lat": 0.0, "name": "db5af1bf18b225775b6ba4513b9f2341", "is_reserved": 0, "rental_uris": {"android": "https://dc.lft.to/lastmile_qr_scan", "ios": "https://dc.lft.to/lastmile_qr_scan"}, "fusion_lon": 0.0}, {"lat": 38.903917166666666, "is_disabled": 0, "type": "electric_scooter", "lon": -77.05379116666667, "bike_id": "ccf540662344b5c0b46d742f5bd1dd85", "fusion_lat": 0.0, "name": "ccf540662344b5c0b46d742f5bd1dd85", "is_reserved": 0, "rental_uris": {"android": "https://dc.lft.to/lastmile_qr_scan", "ios": "https://dc.lft.to/lastmile_qr_scan"}, "fusion_lon": 0.0}, {"lat": 38.900815333333334, "is_disabled": 0, "type": "electric_scooter", "lon": -77.02593233333333, "bike_id": "2dc5e3d31c1e02edd66eca69219bcfb3", "fusion_lat": 0.0, "name": "2dc5e3d31c1e02edd66eca69219bcfb3", "is_reserved": 0, "rental_uris": {"android": "https://dc.lft.to/lastmile_qr_scan", "ios": "https://dc.lft.to/lastmile_qr_scan"}, "fusion_lon": 0.0}, {"lat": 38.846272166666665, "is_disabled": 0, "type": "electric_bike", "lon": -77.06942533333333, "bike_id": "6617b16bd84dfa5b3c4090e3301632d4", "fusion_lat": 0.0, "name": "6617b16bd84dfa5b3c4090e3301632d4", "is_reserved": 0, "rental_uris": {"android": "https://dc.lft.to/lastmile_qr_scan", "ios": "https://dc.lft.to/lastmile_qr_scan"}, "fusion_lon": 0.0}, {"lat": 38.918074833333336, "is_disabled": 0, "type": "electric_scooter", "lon": -77.03179, "bike_id": "a2eb87ecaf016023da8cfae115865291", "fusion_lat": 0.0, "name": "a2eb87ecaf016023da8cfae115865291", "is_reserved": 0, "rental_uris": {"android": "https://dc.lft.to/lastmile_qr_scan", "ios": "https://dc.lft.to/lastmile_qr_scan"}, "fusion_lon": 0.0}, {"lat": 38.89008316666666, "is_disabled": 0, "type": "electric_scooter", "lon": -76.937467, "bike_id": "2ff69aa1b57017c2d635ade058eff21e", "fusion_lat": 0.0, "name": "2ff69aa1b57017c2d635ade058eff21e", "is_reserved": 0, "rental_uris": {"android": "https://dc.lft.to/lastmile_qr_scan", "ios": "https://dc.lft.to/lastmile_qr_scan"}, "fusion_lon": 0.0}, {"lat": 38.8949495, "is_disabled": 0, "type": "electric_scooter", "lon": -77.02751333333333, "bike_id": "a0803e849fd9228a6ca433403e493be1", "fusion_lat": 0.0, "name": "a0803e849fd9228a6ca433403e493be1", "is_reserved": 0, "rental_uris": {"android": "https://dc.lft.to/lastmile_qr_scan", "ios": "https://dc.lft.to/lastmile_qr_scan"}, "fusion_lon": 0.0}, {"lat": 38.909802, "is_disabled": 0, "type": "electric_scooter", "lon": -77.03185466666666, "bike_id": "90e533feaa1e68ca886eb24fb7f66748", "fusion_lat": 0.0, "name": "90e533feaa1e68ca886eb24fb7f66748", "is_reserved": 0, "rental_uris": {"android": "https://dc.lft.to/lastmile_qr_scan", "ios": "https://dc.lft.to/lastmile_qr_scan"}, "fusion_lon": 0.0}, {"lat": 38.9171495, "is_disabled": 0, "type": "electric_scooter", "lon": -77.03456133333333, "bike_id": "09afa07df1a660eec759c794026dcc2e", "fusion_lat": 0.0, "name": "09afa07df1a660eec759c794026dcc2e", "is_reserved": 0, "rental_uris": {"android": "https://dc.lft.to/lastmile_qr_scan", "ios": "https://dc.lft.to/lastmile_qr_scan"}, "fusion_lon": 0.0}, {"lat": 38.91221816666667, "is_disabled": 0, "type": "electric_scooter", "lon": -77.043474, "bike_id": "78934dc8824557bfe9136eb40fb505e2", "fusion_lat": 0.0, "name": "78934dc8824557bfe9136eb40fb505e2", "is_reserved": 0, "rental_uris": {"android": "https://dc.lft.to/lastmile_qr_scan", "ios": "https://dc.lft.to/lastmile_qr_scan"}, "fusion_lon": 0.0}, {"lat": 38.91782716666667, "is_disabled": 0, "type": "electric_scooter", "lon": -77.02308966666666, "bike_id": "08222e78933bae7e76315c8326e2ab16", "fusion_lat": 0.0, "name": "08222e78933bae7e76315c8326e2ab16", "is_reserved": 0, "rental_uris": {"android": "https://dc.lft.to/lastmile_qr_scan", "ios": "https://dc.lft.to/lastmile_qr_scan"}, "fusion_lon": 0.0}, {"lat": 38.89280183333333, "is_disabled": 0, "type": "electric_scooter", "lon": -77.0503455, "bike_id": "8d7610587c8aea1d818fb6d279d47da4", "fusion_lat": 0.0, "name": "8d7610587c8aea1d818fb6d279d47da4", "is_reserved": 0, "rental_uris": {"android": "https://dc.lft.to/lastmile_qr_scan", "ios": "https://dc.lft.to/lastmile_qr_scan"}, "fusion_lon": 0.0}, {"lat": 38.923813, "is_disabled": 0, "type": "electric_scooter", "lon": -77.03076833333333, "bike_id": "d5965e2932fc4b991ea55503019bf0ba", "fusion_lat": 0.0, "name": "d5965e2932fc4b991ea55503019bf0ba", "is_reserved": 0, "rental_uris": {"android": "https://dc.lft.to/lastmile_qr_scan", "ios": "https://dc.lft.to/lastmile_qr_scan"}, "fusion_lon": 0.0}, {"lat": 38.918365, "is_disabled": 0, "type": "electric_scooter", "lon": -76.96543116666666, "bike_id": "7c72cd8f97ffdafeeda3c5d8e97c2dc3", "fusion_lat": 0.0, "name": "7c72cd8f97ffdafeeda3c5d8e97c2dc3", "is_reserved": 0, "rental_uris": {"android": "https://dc.lft.to/lastmile_qr_scan", "ios": "https://dc.lft.to/lastmile_qr_scan"}, "fusion_lon": 0.0}, {"lat": 38.893234, "is_disabled": 0, "type": "electric_bike", "lon": -77.0222515, "bike_id": "9930fe42976b861f0eb37d74a563d071", "fusion_lat": 0.0, "name": "9930fe42976b861f0eb37d74a563d071", "is_reserved": 0, "rental_uris": {"android": "https://dc.lft.to/lastmile_qr_scan", "ios": "https://dc.lft.to/lastmile_qr_scan"}, "fusion_lon": 0.0}, {"lat": 38.901470333333336, "is_disabled": 0, "type": "electric_scooter", "lon": -77.041343, "bike_id": "019d8b6cb22bf2f5181541c6c45633e1", "fusion_lat": 0.0, "name": "019d8b6cb22bf2f5181541c6c45633e1", "is_reserved": 0, "rental_uris": {"android": "https://dc.lft.to/lastmile_qr_scan", "ios": "https://dc.lft.to/lastmile_qr_scan"}, "fusion_lon": 0.0}, {"lat": 38.9181475, "is_disabled": 0, "type": "electric_scooter", "lon": -77.0247645, "bike_id": "22322198b86efc9bce48510af4b8896a", "fusion_lat": 0.0, "name": "22322198b86efc9bce48510af4b8896a", "is_reserved": 0, "rental_uris": {"android": "https://dc.lft.to/lastmile_qr_scan", "ios": "https://dc.lft.to/lastmile_qr_scan"}, "fusion_lon": 0.0}, {"lat": 38.903732833333336, "is_disabled": 0, "type": "electric_scooter", "lon": -77.017711, "bike_id": "6aee054007f487af12813611caeab2d6", "fusion_lat": 0.0, "name": "6aee054007f487af12813611caeab2d6", "is_reserved": 0, "rental_uris": {"android": "https://dc.lft.to/lastmile_qr_scan", "ios": "https://dc.lft.to/lastmile_qr_scan"}, "fusion_lon": 0.0}, {"lat": 38.944391333333336, "is_disabled": 0, "type": "electric_scooter", "lon": -77.0234075, "bike_id": "99e969588dc8704ee984fa9c8e28e9b2", "fusion_lat": 0.0, "name": "99e969588dc8704ee984fa9c8e28e9b2", "is_reserved": 0, "rental_uris": {"android": "https://dc.lft.to/lastmile_qr_scan", "ios": "https://dc.lft.to/lastmile_qr_scan"}, "fusion_lon": 0.0}, {"lat": 38.857361166666664, "is_disabled": 0, "type": "electric_scooter", "lon": -76.99434716666667, "bike_id": "f5a0e88374f2221c80e8f22541a8473c", "fusion_lat": 0.0, "name": "f5a0e88374f2221c80e8f22541a8473c", "is_reserved": 0, "rental_uris": {"android": "https://dc.lft.to/lastmile_qr_scan", "ios": "https://dc.lft.to/lastmile_qr_scan"}, "fusion_lon": 0.0}, {"lat": 38.909647166666666, "is_disabled": 0, "type": "electric_scooter", "lon": -77.04791516666667, "bike_id": "347db1a1cfbac5e3e0d3de72f3c9f728", "fusion_lat": 0.0, "name": "347db1a1cfbac5e3e0d3de72f3c9f728", "is_reserved": 0, "rental_uris": {"android": "https://dc.lft.to/lastmile_qr_scan", "ios": "https://dc.lft.to/lastmile_qr_scan"}, "fusion_lon": 0.0}, {"lat": 38.916938333333334, "is_disabled": 0, "type": "electric_scooter", "lon": -77.02914483333333, "bike_id": "3777fbc4aafe7565b294dad73359eea9", "fusion_lat": 0.0, "name": "3777fbc4aafe7565b294dad73359eea9", "is_reserved": 0, "rental_uris": {"android": "https://dc.lft.to/lastmile_qr_scan", "ios": "https://dc.lft.to/lastmile_qr_scan"}, "fusion_lon": 0.0}, {"lat": 38.90970183333334, "is_disabled": 0, "type": "electric_scooter", "lon": -77.02401583333334, "bike_id": "92223b113e6861d8a1d10acc0a7b7bf6", "fusion_lat": 0.0, "name": "92223b113e6861d8a1d10acc0a7b7bf6", "is_reserved": 0, "rental_uris": {"android": "https://dc.lft.to/lastmile_qr_scan", "ios": "https://dc.lft.to/lastmile_qr_scan"}, "fusion_lon": 0.0}, {"lat": 38.896753, "is_disabled": 0, "type": "electric_scooter", "lon": -77.00515416666667, "bike_id": "fba63f18af01c6100088b01e82ceeac8", "fusion_lat": 0.0, "name": "fba63f18af01c6100088b01e82ceeac8", "is_reserved": 0, "rental_uris": {"android": "https://dc.lft.to/lastmile_qr_scan", "ios": "https://dc.lft.to/lastmile_qr_scan"}, "fusion_lon": 0.0}, {"lat": 38.863738166666664, "is_disabled": 0, "type": "electric_scooter", "lon": -76.99049833333333, "bike_id": "827db1e46b811689cd97d3b95db4c701", "fusion_lat": 0.0, "name": "827db1e46b811689cd97d3b95db4c701", "is_reserved": 0, "rental_uris": {"android": "https://dc.lft.to/lastmile_qr_scan", "ios": "https://dc.lft.to/lastmile_qr_scan"}, "fusion_lon": 0.0}, {"lat": 38.951858666666666, "is_disabled": 0, "type": "electric_bike", "lon": -76.9354415, "bike_id": "6cbb49ae4664a404904502806479bd54", "fusion_lat": 0.0, "name": "6cbb49ae4664a404904502806479bd54", "is_reserved": 0, "rental_uris": {"android": "https://dc.lft.to/lastmile_qr_scan", "ios": "https://dc.lft.to/lastmile_qr_scan"}, "fusion_lon": 0.0}, {"lat": 38.907338, "is_disabled": 0, "type": "electric_scooter", "lon": -77.03456733333333, "bike_id": "2794ecc5b4d3362150e5f8b32212a43e", "fusion_lat": 0.0, "name": "2794ecc5b4d3362150e5f8b32212a43e", "is_reserved": 0, "rental_uris": {"android": "https://dc.lft.to/lastmile_qr_scan", "ios": "https://dc.lft.to/lastmile_qr_scan"}, "fusion_lon": 0.0}, {"lat": 38.892186, "is_disabled": 0, "type": "electric_scooter", "lon": -77.0216415, "bike_id": "ee462acc2284ce7290fbcc5804e55571", "fusion_lat": 0.0, "name": "ee462acc2284ce7290fbcc5804e55571", "is_reserved": 0, "rental_uris": {"android": "https://dc.lft.to/lastmile_qr_scan", "ios": "https://dc.lft.to/lastmile_qr_scan"}, "fusion_lon": 0.0}, {"lat": 38.91112316666667, "is_disabled": 0, "type": "electric_scooter", "lon": -77.03260683333333, "bike_id": "6d6bfb0482f7527a202a2dd62b42fff2", "fusion_lat": 0.0, "name": "6d6bfb0482f7527a202a2dd62b42fff2", "is_reserved": 0, "rental_uris": {"android": "https://dc.lft.to/lastmile_qr_scan", "ios": "https://dc.lft.to/lastmile_qr_scan"}, "fusion_lon": 0.0}, {"lat": 38.87735583333333, "is_disabled": 0, "type": "electric_bike", "lon": -77.118465, "bike_id": "82cc4e2c3b4bc90ec682907a2d03de86", "fusion_lat": 0.0, "name": "82cc4e2c3b4bc90ec682907a2d03de86", "is_reserved": 0, "rental_uris": {"android": "https://dc.lft.to/lastmile_qr_scan", "ios": "https://dc.lft.to/lastmile_qr_scan"}, "fusion_lon": 0.0}, {"lat": 38.870861, "is_disabled": 0, "type": "electric_scooter", "lon": -77.01195433333334, "bike_id": "abb151fa68599244641707bc930db7d1", "fusion_lat": 0.0, "name": "abb151fa68599244641707bc930db7d1", "is_reserved": 0, "rental_uris": {"android": "https://dc.lft.to/lastmile_qr_scan", "ios": "https://dc.lft.to/lastmile_qr_scan"}, "fusion_lon": 0.0}, {"lat": 38.9077645, "is_disabled": 0, "type": "electric_scooter", "lon": -77.04355616666666, "bike_id": "1df0fb14eafc112bf3a9ab75376c9ad7", "fusion_lat": 0.0, "name": "1df0fb14eafc112bf3a9ab75376c9ad7", "is_reserved": 0, "rental_uris": {"android": "https://dc.lft.to/lastmile_qr_scan", "ios": "https://dc.lft.to/lastmile_qr_scan"}, "fusion_lon": 0.0}, {"lat": 38.900345333333334, "is_disabled": 0, "type": "electric_scooter", "lon": -77.00581733333334, "bike_id": "6fd29900a654c96218cf4c8e4f917e15", "fusion_lat": 0.0, "name": "6fd29900a654c96218cf4c8e4f917e15", "is_reserved": 0, "rental_uris": {"android": "https://dc.lft.to/lastmile_qr_scan", "ios": "https://dc.lft.to/lastmile_qr_scan"}, "fusion_lon": 0.0}, {"lat": 38.858087, "is_disabled": 0, "type": "electric_scooter", "lon": -76.98655033333333, "bike_id": "686b0f2f752a3b231cc9f6f6b8804dce", "fusion_lat": 0.0, "name": "686b0f2f752a3b231cc9f6f6b8804dce", "is_reserved": 0, "rental_uris": {"android": "https://dc.lft.to/lastmile_qr_scan", "ios": "https://dc.lft.to/lastmile_qr_scan"}, "fusion_lon": 0.0}, {"lat": 38.944592666666665, "is_disabled": 0, "type": "electric_scooter", "lon": -77.06027583333334, "bike_id": "ffe55abd5eeda8346ee767f1ba52a240", "fusion_lat": 0.0, "name": "ffe55abd5eeda8346ee767f1ba52a240", "is_reserved": 0, "rental_uris": {"android": "https://dc.lft.to/lastmile_qr_scan", "ios": "https://dc.lft.to/lastmile_qr_scan"}, "fusion_lon": 0.0}, {"lat": 38.8925135, "is_disabled": 0, "type": "electric_scooter", "lon": -77.03956333333333, "bike_id": "f25f0c616314a476cbb06433ba0ebc4f", "fusion_lat": 0.0, "name": "f25f0c616314a476cbb06433ba0ebc4f", "is_reserved": 0, "rental_uris": {"android": "https://dc.lft.to/lastmile_qr_scan", "ios": "https://dc.lft.to/lastmile_qr_scan"}, "fusion_lon": 0.0}, {"lat": 38.890894833333334, "is_disabled": 0, "type": "electric_scooter", "lon": -76.94302483333334, "bike_id": "b54c857a132170c11dafb2f4c0c48fa0", "fusion_lat": 0.0, "name": "b54c857a132170c11dafb2f4c0c48fa0", "is_reserved": 0, "rental_uris": {"android": "https://dc.lft.to/lastmile_qr_scan", "ios": "https://dc.lft.to/lastmile_qr_scan"}, "fusion_lon": 0.0}, {"lat": 38.9527905, "is_disabled": 0, "type": "electric_scooter", "lon": -77.036533, "bike_id": "87c2a1fc4a6fd9a93f51a1196a16218c", "fusion_lat": 0.0, "name": "87c2a1fc4a6fd9a93f51a1196a16218c", "is_reserved": 0, "rental_uris": {"android": "https://dc.lft.to/lastmile_qr_scan", "ios": "https://dc.lft.to/lastmile_qr_scan"}, "fusion_lon": 0.0}, {"lat": 38.9160085, "is_disabled": 0, "type": "electric_scooter", "lon": -77.07559733333333, "bike_id": "92b1fdcccf309634571658a5b9a8c86f", "fusion_lat": 0.0, "name": "92b1fdcccf309634571658a5b9a8c86f", "is_reserved": 0, "rental_uris": {"android": "https://dc.lft.to/lastmile_qr_scan", "ios": "https://dc.lft.to/lastmile_qr_scan"}, "fusion_lon": 0.0}, {"lat": 38.924618833333334, "is_disabled": 0, "type": "electric_bike", "lon": -77.20837233333333, "bike_id": "5ffdccbcbd9eb1e74e79fd91dc039d48", "fusion_lat": 0.0, "name": "5ffdccbcbd9eb1e74e79fd91dc039d48", "is_reserved": 0, "rental_uris": {"android": "https://dc.lft.to/lastmile_qr_scan", "ios": "https://dc.lft.to/lastmile_qr_scan"}, "fusion_lon": 0.0}, {"lat": 38.92951733333334, "is_disabled": 0, "type": "electric_scooter", "lon": -77.070361, "bike_id": "e56fcb32f89f1c4b3e62453447a9e7da", "fusion_lat": 0.0, "name": "e56fcb32f89f1c4b3e62453447a9e7da", "is_reserved": 0, "rental_uris": {"android": "https://dc.lft.to/lastmile_qr_scan", "ios": "https://dc.lft.to/lastmile_qr_scan"}, "fusion_lon": 0.0}, {"lat": 38.963961166666664, "is_disabled": 0, "type": "electric_scooter", "lon": -77.02588016666667, "bike_id": "3157d4030cb2976086ffc2ea7322491f", "fusion_lat": 0.0, "name": "3157d4030cb2976086ffc2ea7322491f", "is_reserved": 0, "rental_uris": {"android": "https://dc.lft.to/lastmile_qr_scan", "ios": "https://dc.lft.to/lastmile_qr_scan"}, "fusion_lon": 0.0}, {"lat": 38.902382333333335, "is_disabled": 0, "type": "electric_scooter", "lon": -77.00533966666667, "bike_id": "9c6c58450f50eec659b8f7c72866a084", "fusion_lat": 0.0, "name": "9c6c58450f50eec659b8f7c72866a084", "is_reserved": 0, "rental_uris": {"android": "https://dc.lft.to/lastmile_qr_scan", "ios": "https://dc.lft.to/lastmile_qr_scan"}, "fusion_lon": 0.0}, {"lat": 38.92928066666666, "is_disabled": 0, "type": "electric_scooter", "lon": -77.03266666666667, "bike_id": "2fded3e420bf48fd8f9ca523144e754f", "fusion_lat": 0.0, "name": "2fded3e420bf48fd8f9ca523144e754f", "is_reserved": 0, "rental_uris": {"android": "https://dc.lft.to/lastmile_qr_scan", "ios": "https://dc.lft.to/lastmile_qr_scan"}, "fusion_lon": 0.0}, {"lat": 38.87747133333333, "is_disabled": 0, "type": "electric_bike", "lon": -76.995158, "bike_id": "538b6dabc461857eb74fb8d910e7fb33", "fusion_lat": 0.0, "name": "538b6dabc461857eb74fb8d910e7fb33", "is_reserved": 0, "rental_uris": {"android": "https://dc.lft.to/lastmile_qr_scan", "ios": "https://dc.lft.to/lastmile_qr_scan"}, "fusion_lon": 0.0}, {"lat": 38.9270695, "is_disabled": 0, "type": "electric_scooter", "lon": -77.020865, "bike_id": "7dc928b2f54ab12fde5914e1221d8b43", "fusion_lat": 0.0, "name": "7dc928b2f54ab12fde5914e1221d8b43", "is_reserved": 0, "rental_uris": {"android": "https://dc.lft.to/lastmile_qr_scan", "ios": "https://dc.lft.to/lastmile_qr_scan"}, "fusion_lon": 0.0}, {"lat": 38.885174666666664, "is_disabled": 0, "type": "electric_scooter", "lon": -77.03347833333333, "bike_id": "a3bee5f61de1fa6d003205761b02c496", "fusion_lat": 0.0, "name": "a3bee5f61de1fa6d003205761b02c496", "is_reserved": 0, "rental_uris": {"android": "https://dc.lft.to/lastmile_qr_scan", "ios": "https://dc.lft.to/lastmile_qr_scan"}, "fusion_lon": 0.0}, {"lat": 38.8580825, "is_disabled": 0, "type": "electric_scooter", "lon": -76.98991066666666, "bike_id": "a48c9320d401558d855a7a1c4855c37c", "fusion_lat": 0.0, "name": "a48c9320d401558d855a7a1c4855c37c", "is_reserved": 0, "rental_uris": {"android": "https://dc.lft.to/lastmile_qr_scan", "ios": "https://dc.lft.to/lastmile_qr_scan"}, "fusion_lon": 0.0}, {"lat": 38.906754166666666, "is_disabled": 0, "type": "electric_scooter", "lon": -77.02700666666667, "bike_id": "cf81ebcc4cfd543711cd2ed5d39cd9e3", "fusion_lat": 0.0, "name": "cf81ebcc4cfd543711cd2ed5d39cd9e3", "is_reserved": 0, "rental_uris": {"android": "https://dc.lft.to/lastmile_qr_scan", "ios": "https://dc.lft.to/lastmile_qr_scan"}, "fusion_lon": 0.0}, {"lat": 38.89749, "is_disabled": 0, "type": "electric_scooter", "lon": -77.032628, "bike_id": "ad13dbcc3db49dbc6aef377285ea7888", "fusion_lat": 0.0, "name": "ad13dbcc3db49dbc6aef377285ea7888", "is_reserved": 0, "rental_uris": {"android": "https://dc.lft.to/lastmile_qr_scan", "ios": "https://dc.lft.to/lastmile_qr_scan"}, "fusion_lon": 0.0}, {"lat": 38.939909166666666, "is_disabled": 0, "type": "electric_scooter", "lon": -77.07178666666667, "bike_id": "a818fcca7a953c4b5ef0e9ec817e593e", "fusion_lat": 0.0, "name": "a818fcca7a953c4b5ef0e9ec817e593e", "is_reserved": 0, "rental_uris": {"android": "https://dc.lft.to/lastmile_qr_scan", "ios": "https://dc.lft.to/lastmile_qr_scan"}, "fusion_lon": 0.0}, {"lat": 38.91543516666667, "is_disabled": 0, "type": "electric_scooter", "lon": -77.03182183333334, "bike_id": "a64a128b36e24137f36e02459b277cba", "fusion_lat": 0.0, "name": "a64a128b36e24137f36e02459b277cba", "is_reserved": 0, "rental_uris": {"android": "https://dc.lft.to/lastmile_qr_scan", "ios": "https://dc.lft.to/lastmile_qr_scan"}, "fusion_lon": 0.0}, {"lat": 38.8926095, "is_disabled": 0, "type": "electric_scooter", "lon": -76.941542, "bike_id": "b9d0c5f58553a5ec9c36963242e9b01d", "fusion_lat": 0.0, "name": "b9d0c5f58553a5ec9c36963242e9b01d", "is_reserved": 0, "rental_uris": {"android": "https://dc.lft.to/lastmile_qr_scan", "ios": "https://dc.lft.to/lastmile_qr_scan"}, "fusion_lon": 0.0}, {"lat": 38.89744533333333, "is_disabled": 0, "type": "electric_scooter", "lon": -77.04539583333333, "bike_id": "d7c8110630745bec61bcd8818f1d9c85", "fusion_lat": 0.0, "name": "d7c8110630745bec61bcd8818f1d9c85", "is_reserved": 0, "rental_uris": {"android": "https://dc.lft.to/lastmile_qr_scan", "ios": "https://dc.lft.to/lastmile_qr_scan"}, "fusion_lon": 0.0}, {"lat": 38.91221383333333, "is_disabled": 0, "type": "electric_scooter", "lon": -77.021831, "bike_id": "604f9ec4d979809946bf901f30b2e87b", "fusion_lat": 0.0, "name": "604f9ec4d979809946bf901f30b2e87b", "is_reserved": 0, "rental_uris": {"android": "https://dc.lft.to/lastmile_qr_scan", "ios": "https://dc.lft.to/lastmile_qr_scan"}, "fusion_lon": 0.0}, {"lat": 38.805596333333334, "is_disabled": 0, "type": "electric_bike", "lon": -77.132458, "bike_id": "2a89f651fd9e439d4394a358d9157054", "fusion_lat": 0.0, "name": "2a89f651fd9e439d4394a358d9157054", "is_reserved": 0, "rental_uris": {"android": "https://dc.lft.to/lastmile_qr_scan", "ios": "https://dc.lft.to/lastmile_qr_scan"}, "fusion_lon": 0.0}, {"lat": 38.927983, "is_disabled": 0, "type": "electric_scooter", "lon": -77.0432035, "bike_id": "b8bea545bbf5496da3216790f91696ad", "fusion_lat": 0.0, "name": "b8bea545bbf5496da3216790f91696ad", "is_reserved": 0, "rental_uris": {"android": "https://dc.lft.to/lastmile_qr_scan", "ios": "https://dc.lft.to/lastmile_qr_scan"}, "fusion_lon": 0.0}, {"lat": 38.897430666666665, "is_disabled": 0, "type": "electric_scooter", "lon": -77.00862083333334, "bike_id": "3bf7469212740332d935dec9937e2408", "fusion_lat": 0.0, "name": "3bf7469212740332d935dec9937e2408", "is_reserved": 0, "rental_uris": {"android": "https://dc.lft.to/lastmile_qr_scan", "ios": "https://dc.lft.to/lastmile_qr_scan"}, "fusion_lon": 0.0}, {"lat": 38.89902216666667, "is_disabled": 0, "type": "electric_scooter", "lon": -76.99016583333334, "bike_id": "79bb36a3c522cc2fec27954f51efa261", "fusion_lat": 0.0, "name": "79bb36a3c522cc2fec27954f51efa261", "is_reserved": 0, "rental_uris": {"android": "https://dc.lft.to/lastmile_qr_scan", "ios": "https://dc.lft.to/lastmile_qr_scan"}, "fusion_lon": 0.0}, {"lat": 38.9000325, "is_disabled": 0, "type": "electric_scooter", "lon": -76.9880445, "bike_id": "9289b91c0c63efc1aa58932d76886261", "fusion_lat": 0.0, "name": "9289b91c0c63efc1aa58932d76886261", "is_reserved": 0, "rental_uris": {"android": "https://dc.lft.to/lastmile_qr_scan", "ios": "https://dc.lft.to/lastmile_qr_scan"}, "fusion_lon": 0.0}, {"lat": 38.873416, "is_disabled": 0, "type": "electric_scooter", "lon": -76.9916395, "bike_id": "8c5e94f1cc769842d00f31b32f75865f", "fusion_lat": 0.0, "name": "8c5e94f1cc769842d00f31b32f75865f", "is_reserved": 0, "rental_uris": {"android": "https://dc.lft.to/lastmile_qr_scan", "ios": "https://dc.lft.to/lastmile_qr_scan"}, "fusion_lon": 0.0}, {"lat": 38.90425616666667, "is_disabled": 0, "type": "electric_scooter", "lon": -77.05295966666667, "bike_id": "2d968ad71176056f05f7db9412ea98cd", "fusion_lat": 0.0, "name": "2d968ad71176056f05f7db9412ea98cd", "is_reserved": 0, "rental_uris": {"android": "https://dc.lft.to/lastmile_qr_scan", "ios": "https://dc.lft.to/lastmile_qr_scan"}, "fusion_lon": 0.0}, {"lat": 38.899068166666666, "is_disabled": 0, "type": "electric_scooter", "lon": -76.9335405, "bike_id": "88074ce573b4d4c42c33084985fe5aaf", "fusion_lat": 0.0, "name": "88074ce573b4d4c42c33084985fe5aaf", "is_reserved": 0, "rental_uris": {"android": "https://dc.lft.to/lastmile_qr_scan", "ios": "https://dc.lft.to/lastmile_qr_scan"}, "fusion_lon": 0.0}, {"lat": 38.91677633333333, "is_disabled": 0, "type": "electric_scooter", "lon": -77.02963266666667, "bike_id": "a174e5c2a3d45ac19eaf1eedffebf09f", "fusion_lat": 0.0, "name": "a174e5c2a3d45ac19eaf1eedffebf09f", "is_reserved": 0, "rental_uris": {"android": "https://dc.lft.to/lastmile_qr_scan", "ios": "https://dc.lft.to/lastmile_qr_scan"}, "fusion_lon": 0.0}, {"lat": 38.904054, "is_disabled": 0, "type": "electric_scooter", "lon": -77.02093316666667, "bike_id": "a304b7ca4f2f8af300312c732aa5d516", "fusion_lat": 0.0, "name": "a304b7ca4f2f8af300312c732aa5d516", "is_reserved": 0, "rental_uris": {"android": "https://dc.lft.to/lastmile_qr_scan", "ios": "https://dc.lft.to/lastmile_qr_scan"}, "fusion_lon": 0.0}, {"lat": 38.897685333333335, "is_disabled": 0, "type": "electric_scooter", "lon": -77.03205483333333, "bike_id": "a5af8a3be3437b3d9e72b7d8fd7e6ae0", "fusion_lat": 0.0, "name": "a5af8a3be3437b3d9e72b7d8fd7e6ae0", "is_reserved": 0, "rental_uris": {"android": "https://dc.lft.to/lastmile_qr_scan", "ios": "https://dc.lft.to/lastmile_qr_scan"}, "fusion_lon": 0.0}, {"lat": 38.918214, "is_disabled": 0, "type": "electric_scooter", "lon": -77.0127225, "bike_id": "a86428511a999688a37baee2488944a9", "fusion_lat": 0.0, "name": "a86428511a999688a37baee2488944a9", "is_reserved": 0, "rental_uris": {"android": "https://dc.lft.to/lastmile_qr_scan", "ios": "https://dc.lft.to/lastmile_qr_scan"}, "fusion_lon": 0.0}, {"lat": 38.87065833333333, "is_disabled": 0, "type": "electric_scooter", "lon": -77.0083985, "bike_id": "de9d5e0e5aa07a3c5af83610c8d8aa8c", "fusion_lat": 0.0, "name": "de9d5e0e5aa07a3c5af83610c8d8aa8c", "is_reserved": 0, "rental_uris": {"android": "https://dc.lft.to/lastmile_qr_scan", "ios": "https://dc.lft.to/lastmile_qr_scan"}, "fusion_lon": 0.0}, {"lat": 38.897118166666665, "is_disabled": 0, "type": "electric_scooter", "lon": -77.02132416666667, "bike_id": "09ac0671d64ca619c22d9f1e484b28e7", "fusion_lat": 0.0, "name": "09ac0671d64ca619c22d9f1e484b28e7", "is_reserved": 0, "rental_uris": {"android": "https://dc.lft.to/lastmile_qr_scan", "ios": "https://dc.lft.to/lastmile_qr_scan"}, "fusion_lon": 0.0}, {"lat": 38.917306833333335, "is_disabled": 0, "type": "electric_scooter", "lon": -77.03654916666666, "bike_id": "cb2bb2a6aa74c392838d8d075d3b080e", "fusion_lat": 0.0, "name": "cb2bb2a6aa74c392838d8d075d3b080e", "is_reserved": 0, "rental_uris": {"android": "https://dc.lft.to/lastmile_qr_scan", "ios": "https://dc.lft.to/lastmile_qr_scan"}, "fusion_lon": 0.0}, {"lat": 38.918898666666664, "is_disabled": 0, "type": "electric_scooter", "lon": -77.041262, "bike_id": "aae17d202d59ebb8bf05d7e7405d020b", "fusion_lat": 0.0, "name": "aae17d202d59ebb8bf05d7e7405d020b", "is_reserved": 0, "rental_uris": {"android": "https://dc.lft.to/lastmile_qr_scan", "ios": "https://dc.lft.to/lastmile_qr_scan"}, "fusion_lon": 0.0}, {"lat": 38.9197785, "is_disabled": 0, "type": "electric_scooter", "lon": -77.023898, "bike_id": "8f76228ecc50100f683e4f13d1a2aaa4", "fusion_lat": 0.0, "name": "8f76228ecc50100f683e4f13d1a2aaa4", "is_reserved": 0, "rental_uris": {"android": "https://dc.lft.to/lastmile_qr_scan", "ios": "https://dc.lft.to/lastmile_qr_scan"}, "fusion_lon": 0.0}, {"lat": 38.9142, "is_disabled": 0, "type": "electric_scooter", "lon": -77.03173516666666, "bike_id": "678125b05d1f5161916badec5dd61c4e", "fusion_lat": 0.0, "name": "678125b05d1f5161916badec5dd61c4e", "is_reserved": 0, "rental_uris": {"android": "https://dc.lft.to/lastmile_qr_scan", "ios": "https://dc.lft.to/lastmile_qr_scan"}, "fusion_lon": 0.0}, {"lat": 38.917761666666664, "is_disabled": 0, "type": "electric_scooter", "lon": -77.02263583333334, "bike_id": "3472932e5797035cb6ac0575242b7a46", "fusion_lat": 0.0, "name": "3472932e5797035cb6ac0575242b7a46", "is_reserved": 0, "rental_uris": {"android": "https://dc.lft.to/lastmile_qr_scan", "ios": "https://dc.lft.to/lastmile_qr_scan"}, "fusion_lon": 0.0}, {"lat": 38.903769833333335, "is_disabled": 0, "type": "electric_scooter", "lon": -77.04458066666666, "bike_id": "c61f63d87f1c61eb338f6d835a3772b7", "fusion_lat": 0.0, "name": "c61f63d87f1c61eb338f6d835a3772b7", "is_reserved": 0, "rental_uris": {"android": "https://dc.lft.to/lastmile_qr_scan", "ios": "https://dc.lft.to/lastmile_qr_scan"}, "fusion_lon": 0.0}, {"lat": 38.90975783333333, "is_disabled": 0, "type": "electric_scooter", "lon": -77.02255666666667, "bike_id": "7e502897846208503e708a20d88442b7", "fusion_lat": 0.0, "name": "7e502897846208503e708a20d88442b7", "is_reserved": 0, "rental_uris": {"android": "https://dc.lft.to/lastmile_qr_scan", "ios": "https://dc.lft.to/lastmile_qr_scan"}, "fusion_lon": 0.0}, {"lat": 38.9027485, "is_disabled": 0, "type": "electric_scooter", "lon": -76.97408033333333, "bike_id": "e18cccedb91d5f170ff09bb9c3dbc273", "fusion_lat": 0.0, "name": "e18cccedb91d5f170ff09bb9c3dbc273", "is_reserved": 0, "rental_uris": {"android": "https://dc.lft.to/lastmile_qr_scan", "ios": "https://dc.lft.to/lastmile_qr_scan"}, "fusion_lon": 0.0}, {"lat": 38.917207833333336, "is_disabled": 0, "type": "electric_scooter", "lon": -77.0312015, "bike_id": "ec7bf4fba2fd5202281fc6e8b6c95cda", "fusion_lat": 0.0, "name": "ec7bf4fba2fd5202281fc6e8b6c95cda", "is_reserved": 0, "rental_uris": {"android": "https://dc.lft.to/lastmile_qr_scan", "ios": "https://dc.lft.to/lastmile_qr_scan"}, "fusion_lon": 0.0}, {"lat": 38.8747015, "is_disabled": 0, "type": "electric_scooter", "lon": -77.00935583333333, "bike_id": "f83ed2ef07e345ac84ce70a0d085fc8c", "fusion_lat": 0.0, "name": "f83ed2ef07e345ac84ce70a0d085fc8c", "is_reserved": 0, "rental_uris": {"android": "https://dc.lft.to/lastmile_qr_scan", "ios": "https://dc.lft.to/lastmile_qr_scan"}, "fusion_lon": 0.0}, {"lat": 38.902410333333336, "is_disabled": 0, "type": "electric_scooter", "lon": -77.02684166666667, "bike_id": "79f64e658023877f3e1194e053d767fb", "fusion_lat": 0.0, "name": "79f64e658023877f3e1194e053d767fb", "is_reserved": 0, "rental_uris": {"android": "https://dc.lft.to/lastmile_qr_scan", "ios": "https://dc.lft.to/lastmile_qr_scan"}, "fusion_lon": 0.0}, {"lat": 38.89707933333333, "is_disabled": 0, "type": "electric_scooter", "lon": -77.02403333333334, "bike_id": "a7d7bd0038a2d480edf73e24d0ffce42", "fusion_lat": 0.0, "name": "a7d7bd0038a2d480edf73e24d0ffce42", "is_reserved": 0, "rental_uris": {"android": "https://dc.lft.to/lastmile_qr_scan", "ios": "https://dc.lft.to/lastmile_qr_scan"}, "fusion_lon": 0.0}, {"lat": 38.950925, "is_disabled": 0, "type": "electric_scooter", "lon": -77.023369, "bike_id": "c8ba8ea55351345df016719a999f6e4b", "fusion_lat": 0.0, "name": "c8ba8ea55351345df016719a999f6e4b", "is_reserved": 0, "rental_uris": {"android": "https://dc.lft.to/lastmile_qr_scan", "ios": "https://dc.lft.to/lastmile_qr_scan"}, "fusion_lon": 0.0}, {"lat": 38.87232766666666, "is_disabled": 0, "type": "electric_bike", "lon": -77.01181083333333, "bike_id": "c7cd4551b9d5ca6177b4724e6e242fa0", "fusion_lat": 0.0, "name": "c7cd4551b9d5ca6177b4724e6e242fa0", "is_reserved": 0, "rental_uris": {"android": "https://dc.lft.to/lastmile_qr_scan", "ios": "https://dc.lft.to/lastmile_qr_scan"}, "fusion_lon": 0.0}, {"lat": 38.92153833333333, "is_disabled": 0, "type": "electric_scooter", "lon": -77.03383066666666, "bike_id": "0bf36d801e1fffeb9f54df27f4b08d12", "fusion_lat": 0.0, "name": "0bf36d801e1fffeb9f54df27f4b08d12", "is_reserved": 0, "rental_uris": {"android": "https://dc.lft.to/lastmile_qr_scan", "ios": "https://dc.lft.to/lastmile_qr_scan"}, "fusion_lon": 0.0}, {"lat": 38.924594666666664, "is_disabled": 0, "type": "electric_bike", "lon": -76.97560583333333, "bike_id": "6e5446c8554ad3f2ff28aa5ebeef3e04", "fusion_lat": 0.0, "name": "6e5446c8554ad3f2ff28aa5ebeef3e04", "is_reserved": 0, "rental_uris": {"android": "https://dc.lft.to/lastmile_qr_scan", "ios": "https://dc.lft.to/lastmile_qr_scan"}, "fusion_lon": 0.0}, {"lat": 38.910114, "is_disabled": 0, "type": "electric_scooter", "lon": -77.08895133333333, "bike_id": "8960a3c4610344c4f6bd910348e8cde6", "fusion_lat": 0.0, "name": "8960a3c4610344c4f6bd910348e8cde6", "is_reserved": 0, "rental_uris": {"android": "https://dc.lft.to/lastmile_qr_scan", "ios": "https://dc.lft.to/lastmile_qr_scan"}, "fusion_lon": 0.0}, {"lat": 38.90096316666666, "is_disabled": 0, "type": "electric_scooter", "lon": -77.0034485, "bike_id": "b0625630c02c28b74e36b402a8c32672", "fusion_lat": 0.0, "name": "b0625630c02c28b74e36b402a8c32672", "is_reserved": 0, "rental_uris": {"android": "https://dc.lft.to/lastmile_qr_scan", "ios": "https://dc.lft.to/lastmile_qr_scan"}, "fusion_lon": 0.0}, {"lat": 38.903135, "is_disabled": 0, "type": "electric_scooter", "lon": -76.97800683333334, "bike_id": "f299265d731d85981f0cd62d60aee6e7", "fusion_lat": 0.0, "name": "f299265d731d85981f0cd62d60aee6e7", "is_reserved": 0, "rental_uris": {"android": "https://dc.lft.to/lastmile_qr_scan", "ios": "https://dc.lft.to/lastmile_qr_scan"}, "fusion_lon": 0.0}, {"lat": 38.86171233333334, "is_disabled": 0, "type": "electric_bike", "lon": -77.13145316666666, "bike_id": "52cc340e76bb019ed60d1f2ecef6de0d", "fusion_lat": 0.0, "name": "52cc340e76bb019ed60d1f2ecef6de0d", "is_reserved": 0, "rental_uris": {"android": "https://dc.lft.to/lastmile_qr_scan", "ios": "https://dc.lft.to/lastmile_qr_scan"}, "fusion_lon": 0.0}, {"lat": 38.89621666666667, "is_disabled": 0, "type": "electric_scooter", "lon": -77.04487833333333, "bike_id": "9d04810db8f8afa9527d0ef252663b78", "fusion_lat": 0.0, "name": "9d04810db8f8afa9527d0ef252663b78", "is_reserved": 0, "rental_uris": {"android": "https://dc.lft.to/lastmile_qr_scan", "ios": "https://dc.lft.to/lastmile_qr_scan"}, "fusion_lon": 0.0}, {"lat": 38.909737666666665, "is_disabled": 0, "type": "electric_scooter", "lon": -77.03865883333333, "bike_id": "e27f1122f23b15e90a5dd7dcc13e76f5", "fusion_lat": 0.0, "name": "e27f1122f23b15e90a5dd7dcc13e76f5", "is_reserved": 0, "rental_uris": {"android": "https://dc.lft.to/lastmile_qr_scan", "ios": "https://dc.lft.to/lastmile_qr_scan"}, "fusion_lon": 0.0}, {"lat": 38.896288, "is_disabled": 0, "type": "electric_scooter", "lon": -77.032989, "bike_id": "d5964ed8318c699a7a10107bc42f5508", "fusion_lat": 0.0, "name": "d5964ed8318c699a7a10107bc42f5508", "is_reserved": 0, "rental_uris": {"android": "https://dc.lft.to/lastmile_qr_scan", "ios": "https://dc.lft.to/lastmile_qr_scan"}, "fusion_lon": 0.0}, {"lat": 38.883666833333336, "is_disabled": 0, "type": "electric_scooter", "lon": -76.99499416666667, "bike_id": "be3112d56861653a3cf93a2dc96322c3", "fusion_lat": 0.0, "name": "be3112d56861653a3cf93a2dc96322c3", "is_reserved": 0, "rental_uris": {"android": "https://dc.lft.to/lastmile_qr_scan", "ios": "https://dc.lft.to/lastmile_qr_scan"}, "fusion_lon": 0.0}, {"lat": 38.8968775, "is_disabled": 0, "type": "electric_scooter", "lon": -77.027735, "bike_id": "96b85b6605cae43db8f9eeb232f3f77f", "fusion_lat": 0.0, "name": "96b85b6605cae43db8f9eeb232f3f77f", "is_reserved": 0, "rental_uris": {"android": "https://dc.lft.to/lastmile_qr_scan", "ios": "https://dc.lft.to/lastmile_qr_scan"}, "fusion_lon": 0.0}, {"lat": 38.887949166666665, "is_disabled": 0, "type": "electric_scooter", "lon": -76.93362683333334, "bike_id": "046e89f60b1c826a8ceb42c6be35db33", "fusion_lat": 0.0, "name": "046e89f60b1c826a8ceb42c6be35db33", "is_reserved": 0, "rental_uris": {"android": "https://dc.lft.to/lastmile_qr_scan", "ios": "https://dc.lft.to/lastmile_qr_scan"}, "fusion_lon": 0.0}, {"lat": 38.88091033333333, "is_disabled": 0, "type": "electric_scooter", "lon": -76.99256933333334, "bike_id": "f4d5bec8b4c0fe56507661f2131bc24b", "fusion_lat": 0.0, "name": "f4d5bec8b4c0fe56507661f2131bc24b", "is_reserved": 0, "rental_uris": {"android": "https://dc.lft.to/lastmile_qr_scan", "ios": "https://dc.lft.to/lastmile_qr_scan"}, "fusion_lon": 0.0}, {"lat": 38.96608033333333, "is_disabled": 0, "type": "electric_scooter", "lon": -77.0232215, "bike_id": "0793d9994d0184049f462e0ead0453c8", "fusion_lat": 0.0, "name": "0793d9994d0184049f462e0ead0453c8", "is_reserved": 0, "rental_uris": {"android": "https://dc.lft.to/lastmile_qr_scan", "ios": "https://dc.lft.to/lastmile_qr_scan"}, "fusion_lon": 0.0}, {"lat": 38.938918666666666, "is_disabled": 0, "type": "electric_scooter", "lon": -77.0330585, "bike_id": "095e7c4e4526e2d22cf08fc58de76e28", "fusion_lat": 0.0, "name": "095e7c4e4526e2d22cf08fc58de76e28", "is_reserved": 0, "rental_uris": {"android": "https://dc.lft.to/lastmile_qr_scan", "ios": "https://dc.lft.to/lastmile_qr_scan"}, "fusion_lon": 0.0}, {"lat": 38.98428466666667, "is_disabled": 0, "type": "electric_scooter", "lon": -77.02671933333333, "bike_id": "a5464003a917e479b9cdcf380222237c", "fusion_lat": 0.0, "name": "a5464003a917e479b9cdcf380222237c", "is_reserved": 0, "rental_uris": {"android": "https://dc.lft.to/lastmile_qr_scan", "ios": "https://dc.lft.to/lastmile_qr_scan"}, "fusion_lon": 0.0}, {"lat": 38.92243466666667, "is_disabled": 0, "type": "electric_scooter", "lon": -77.01972216666667, "bike_id": "550fced250ae24cc30bbd9fb6551517e", "fusion_lat": 0.0, "name": "550fced250ae24cc30bbd9fb6551517e", "is_reserved": 0, "rental_uris": {"android": "https://dc.lft.to/lastmile_qr_scan", "ios": "https://dc.lft.to/lastmile_qr_scan"}, "fusion_lon": 0.0}, {"lat": 38.9319155, "is_disabled": 0, "type": "electric_scooter", "lon": -77.02564116666667, "bike_id": "d895bffd42dc1f4afe3efc0c75541f6f", "fusion_lat": 0.0, "name": "d895bffd42dc1f4afe3efc0c75541f6f", "is_reserved": 0, "rental_uris": {"android": "https://dc.lft.to/lastmile_qr_scan", "ios": "https://dc.lft.to/lastmile_qr_scan"}, "fusion_lon": 0.0}, {"lat": 38.900503666666665, "is_disabled": 0, "type": "electric_scooter", "lon": -77.00733233333334, "bike_id": "2dc2304de372de9a3005992d36fbcc56", "fusion_lat": 0.0, "name": "2dc2304de372de9a3005992d36fbcc56", "is_reserved": 0, "rental_uris": {"android": "https://dc.lft.to/lastmile_qr_scan", "ios": "https://dc.lft.to/lastmile_qr_scan"}, "fusion_lon": 0.0}, {"lat": 38.827833, "is_disabled": 0, "type": "electric_bike", "lon": -77.009185, "bike_id": "ced62d8e7c0cb4c5bac69fc1e6845a9d", "fusion_lat": 0.0, "name": "ced62d8e7c0cb4c5bac69fc1e6845a9d", "is_reserved": 0, "rental_uris": {"android": "https://dc.lft.to/lastmile_qr_scan", "ios": "https://dc.lft.to/lastmile_qr_scan"}, "fusion_lon": 0.0}, {"lat": 38.90719566666667, "is_disabled": 0, "type": "electric_scooter", "lon": -77.0400805, "bike_id": "1b44d507a4a24f6ae47d28bfc6ec8a39", "fusion_lat": 0.0, "name": "1b44d507a4a24f6ae47d28bfc6ec8a39", "is_reserved": 0, "rental_uris": {"android": "https://dc.lft.to/lastmile_qr_scan", "ios": "https://dc.lft.to/lastmile_qr_scan"}, "fusion_lon": 0.0}, {"lat": 38.90838183333334, "is_disabled": 0, "type": "electric_scooter", "lon": -77.02951816666666, "bike_id": "6d41abfa53d880c8aa4ba413d1add37c", "fusion_lat": 0.0, "name": "6d41abfa53d880c8aa4ba413d1add37c", "is_reserved": 0, "rental_uris": {"android": "https://dc.lft.to/lastmile_qr_scan", "ios": "https://dc.lft.to/lastmile_qr_scan"}, "fusion_lon": 0.0}, {"lat": 38.906357666666665, "is_disabled": 0, "type": "electric_scooter", "lon": -77.01368, "bike_id": "26256c57535dcedb51d6ed33f777cc64", "fusion_lat": 0.0, "name": "26256c57535dcedb51d6ed33f777cc64", "is_reserved": 0, "rental_uris": {"android": "https://dc.lft.to/lastmile_qr_scan", "ios": "https://dc.lft.to/lastmile_qr_scan"}, "fusion_lon": 0.0}, {"lat": 38.9404505, "is_disabled": 0, "type": "electric_scooter", "lon": -77.02904766666667, "bike_id": "7a8dfa00c547f3b32079852084ce446f", "fusion_lat": 0.0, "name": "7a8dfa00c547f3b32079852084ce446f", "is_reserved": 0, "rental_uris": {"android": "https://dc.lft.to/lastmile_qr_scan", "ios": "https://dc.lft.to/lastmile_qr_scan"}, "fusion_lon": 0.0}, {"lat": 38.87663116666667, "is_disabled": 0, "type": "electric_scooter", "lon": -77.0041045, "bike_id": "27054a1abf039c0dad8e7d72319b395f", "fusion_lat": 0.0, "name": "27054a1abf039c0dad8e7d72319b395f", "is_reserved": 0, "rental_uris": {"android": "https://dc.lft.to/lastmile_qr_scan", "ios": "https://dc.lft.to/lastmile_qr_scan"}, "fusion_lon": 0.0}, {"lat": 38.905150666666664, "is_disabled": 0, "type": "electric_scooter", "lon": -77.06454416666666, "bike_id": "372fa1082b498b47bd1e6f5794772ee4", "fusion_lat": 0.0, "name": "372fa1082b498b47bd1e6f5794772ee4", "is_reserved": 0, "rental_uris": {"android": "https://dc.lft.to/lastmile_qr_scan", "ios": "https://dc.lft.to/lastmile_qr_scan"}, "fusion_lon": 0.0}, {"lat": 38.8459155, "is_disabled": 0, "type": "electric_bike", "lon": -77.0767755, "bike_id": "f73089b351f251deef8aca621e7a0eb1", "fusion_lat": 0.0, "name": "f73089b351f251deef8aca621e7a0eb1", "is_reserved": 0, "rental_uris": {"android": "https://dc.lft.to/lastmile_qr_scan", "ios": "https://dc.lft.to/lastmile_qr_scan"}, "fusion_lon": 0.0}, {"lat": 38.81433, "is_disabled": 0, "type": "electric_bike", "lon": -77.1189075, "bike_id": "b27f137926d43d26d79321097d6654f8", "fusion_lat": 0.0, "name": "b27f137926d43d26d79321097d6654f8", "is_reserved": 0, "rental_uris": {"android": "https://dc.lft.to/lastmile_qr_scan", "ios": "https://dc.lft.to/lastmile_qr_scan"}, "fusion_lon": 0.0}, {"lat": 38.880347, "is_disabled": 0, "type": "electric_scooter", "lon": -77.00561316666666, "bike_id": "37e82a0d3de31461104be38e96d2b86a", "fusion_lat": 0.0, "name": "37e82a0d3de31461104be38e96d2b86a", "is_reserved": 0, "rental_uris": {"android": "https://dc.lft.to/lastmile_qr_scan", "ios": "https://dc.lft.to/lastmile_qr_scan"}, "fusion_lon": 0.0}, {"lat": 38.86620816666667, "is_disabled": 0, "type": "electric_scooter", "lon": -76.98664383333333, "bike_id": "37d3d11cf025b8d3032aef0cda094a6c", "fusion_lat": 0.0, "name": "37d3d11cf025b8d3032aef0cda094a6c", "is_reserved": 0, "rental_uris": {"android": "https://dc.lft.to/lastmile_qr_scan", "ios": "https://dc.lft.to/lastmile_qr_scan"}, "fusion_lon": 0.0}, {"lat": 38.905967, "is_disabled": 0, "type": "electric_scooter", "lon": -77.0239925, "bike_id": "1dbbbecd8c3c44ba5fe599ebcaf21abe", "fusion_lat": 0.0, "name": "1dbbbecd8c3c44ba5fe599ebcaf21abe", "is_reserved": 0, "rental_uris": {"android": "https://dc.lft.to/lastmile_qr_scan", "ios": "https://dc.lft.to/lastmile_qr_scan"}, "fusion_lon": 0.0}, {"lat": 38.934835166666666, "is_disabled": 0, "type": "electric_scooter", "lon": -77.03603916666667, "bike_id": "eb2668e7d209c5b42d4b15a669f61061", "fusion_lat": 0.0, "name": "eb2668e7d209c5b42d4b15a669f61061", "is_reserved": 0, "rental_uris": {"android": "https://dc.lft.to/lastmile_qr_scan", "ios": "https://dc.lft.to/lastmile_qr_scan"}, "fusion_lon": 0.0}, {"lat": 38.91977516666667, "is_disabled": 0, "type": "electric_scooter", "lon": -77.02389816666667, "bike_id": "ee3b44ad96b76467afe019d9a044ced3", "fusion_lat": 0.0, "name": "ee3b44ad96b76467afe019d9a044ced3", "is_reserved": 0, "rental_uris": {"android": "https://dc.lft.to/lastmile_qr_scan", "ios": "https://dc.lft.to/lastmile_qr_scan"}, "fusion_lon": 0.0}, {"lat": 38.93658333333333, "is_disabled": 0, "type": "electric_bike", "lon": -76.95217983333333, "bike_id": "6a4220fd4d7fbf7db663ca7d4e208d14", "fusion_lat": 0.0, "name": "6a4220fd4d7fbf7db663ca7d4e208d14", "is_reserved": 0, "rental_uris": {"android": "https://dc.lft.to/lastmile_qr_scan", "ios": "https://dc.lft.to/lastmile_qr_scan"}, "fusion_lon": 0.0}, {"lat": 38.906408666666664, "is_disabled": 0, "type": "electric_scooter", "lon": -77.0345465, "bike_id": "9baa3bf7f457c9d87327c0783c6e51b4", "fusion_lat": 0.0, "name": "9baa3bf7f457c9d87327c0783c6e51b4", "is_reserved": 0, "rental_uris": {"android": "https://dc.lft.to/lastmile_qr_scan", "ios": "https://dc.lft.to/lastmile_qr_scan"}, "fusion_lon": 0.0}, {"lat": 38.90972, "is_disabled": 0, "type": "electric_scooter", "lon": -77.04030633333333, "bike_id": "edbe90005dd71e52862ba60014f2e3c2", "fusion_lat": 0.0, "name": "edbe90005dd71e52862ba60014f2e3c2", "is_reserved": 0, "rental_uris": {"android": "https://dc.lft.to/lastmile_qr_scan", "ios": "https://dc.lft.to/lastmile_qr_scan"}, "fusion_lon": 0.0}, {"lat": 39.034239666666664, "is_disabled": 0, "type": "electric_bike", "lon": -77.04328933333333, "bike_id": "81759bcf500556f5a913445039428f16", "fusion_lat": 0.0, "name": "81759bcf500556f5a913445039428f16", "is_reserved": 0, "rental_uris": {"android": "https://dc.lft.to/lastmile_qr_scan", "ios": "https://dc.lft.to/lastmile_qr_scan"}, "fusion_lon": 0.0}, {"lat": 38.88745433333333, "is_disabled": 0, "type": "electric_scooter", "lon": -77.0283295, "bike_id": "41a9f1cd9fc3b592fb2a3594a504cdb0", "fusion_lat": 0.0, "name": "41a9f1cd9fc3b592fb2a3594a504cdb0", "is_reserved": 0, "rental_uris": {"android": "https://dc.lft.to/lastmile_qr_scan", "ios": "https://dc.lft.to/lastmile_qr_scan"}, "fusion_lon": 0.0}, {"lat": 38.9279535, "is_disabled": 0, "type": "electric_scooter", "lon": -77.02601533333333, "bike_id": "b12fc70165f614483f3cef2a01aa3603", "fusion_lat": 0.0, "name": "b12fc70165f614483f3cef2a01aa3603", "is_reserved": 0, "rental_uris": {"android": "https://dc.lft.to/lastmile_qr_scan", "ios": "https://dc.lft.to/lastmile_qr_scan"}, "fusion_lon": 0.0}, {"lat": 38.91544116666667, "is_disabled": 0, "type": "electric_scooter", "lon": -77.0220415, "bike_id": "ed026baaa731e30fbe0cbcbcf09a42f5", "fusion_lat": 0.0, "name": "ed026baaa731e30fbe0cbcbcf09a42f5", "is_reserved": 0, "rental_uris": {"android": "https://dc.lft.to/lastmile_qr_scan", "ios": "https://dc.lft.to/lastmile_qr_scan"}, "fusion_lon": 0.0}, {"lat": 38.92438816666667, "is_disabled": 0, "type": "electric_scooter", "lon": -77.03399983333334, "bike_id": "d3edf051423c9688be3a23b1383088e2", "fusion_lat": 0.0, "name": "d3edf051423c9688be3a23b1383088e2", "is_reserved": 0, "rental_uris": {"android": "https://dc.lft.to/lastmile_qr_scan", "ios": "https://dc.lft.to/lastmile_qr_scan"}, "fusion_lon": 0.0}, {"lat": 38.879468333333335, "is_disabled": 0, "type": "electric_bike", "lon": -76.98382183333334, "bike_id": "39af6054593950c2edcf7f4a6ac3ee27", "fusion_lat": 0.0, "name": "39af6054593950c2edcf7f4a6ac3ee27", "is_reserved": 0, "rental_uris": {"android": "https://dc.lft.to/lastmile_qr_scan", "ios": "https://dc.lft.to/lastmile_qr_scan"}, "fusion_lon": 0.0}, {"lat": 38.881260833333336, "is_disabled": 0, "type": "electric_scooter", "lon": -77.000972, "bike_id": "c0ffbaeb96220510d65420302fd3e791", "fusion_lat": 0.0, "name": "c0ffbaeb96220510d65420302fd3e791", "is_reserved": 0, "rental_uris": {"android": "https://dc.lft.to/lastmile_qr_scan", "ios": "https://dc.lft.to/lastmile_qr_scan"}, "fusion_lon": 0.0}, {"lat": 38.885097333333334, "is_disabled": 0, "type": "electric_scooter", "lon": -77.00571016666666, "bike_id": "ed3165c5f6614447111402c1dcc205cd", "fusion_lat": 0.0, "name": "ed3165c5f6614447111402c1dcc205cd", "is_reserved": 0, "rental_uris": {"android": "https://dc.lft.to/lastmile_qr_scan", "ios": "https://dc.lft.to/lastmile_qr_scan"}, "fusion_lon": 0.0}, {"lat": 38.9002625, "is_disabled": 0, "type": "electric_scooter", "lon": -76.996136, "bike_id": "c5671743b31d1d06caef76b8e7a718fb", "fusion_lat": 0.0, "name": "c5671743b31d1d06caef76b8e7a718fb", "is_reserved": 0, "rental_uris": {"android": "https://dc.lft.to/lastmile_qr_scan", "ios": "https://dc.lft.to/lastmile_qr_scan"}, "fusion_lon": 0.0}, {"lat": 38.97327133333334, "is_disabled": 0, "type": "electric_bike", "lon": -77.02149166666666, "bike_id": "3aba69a180aab4004445eac48290d20f", "fusion_lat": 0.0, "name": "3aba69a180aab4004445eac48290d20f", "is_reserved": 0, "rental_uris": {"android": "https://dc.lft.to/lastmile_qr_scan", "ios": "https://dc.lft.to/lastmile_qr_scan"}, "fusion_lon": 0.0}, {"lat": 38.911121666666666, "is_disabled": 0, "type": "electric_scooter", "lon": -77.04502883333333, "bike_id": "a271c130e9a33fc8a85b3f7dd64479ef", "fusion_lat": 0.0, "name": "a271c130e9a33fc8a85b3f7dd64479ef", "is_reserved": 0, "rental_uris": {"android": "https://dc.lft.to/lastmile_qr_scan", "ios": "https://dc.lft.to/lastmile_qr_scan"}, "fusion_lon": 0.0}, {"lat": 38.89768866666667, "is_disabled": 0, "type": "electric_scooter", "lon": -77.0320385, "bike_id": "6c3ee9c7ea7d32ab44b84ccc24864e21", "fusion_lat": 0.0, "name": "6c3ee9c7ea7d32ab44b84ccc24864e21", "is_reserved": 0, "rental_uris": {"android": "https://dc.lft.to/lastmile_qr_scan", "ios": "https://dc.lft.to/lastmile_qr_scan"}, "fusion_lon": 0.0}, {"lat": 38.8442585, "is_disabled": 0, "type": "electric_scooter", "lon": -76.9977615, "bike_id": "973e0dfbb4d2d7668337b5a770772276", "fusion_lat": 0.0, "name": "973e0dfbb4d2d7668337b5a770772276", "is_reserved": 0, "rental_uris": {"android": "https://dc.lft.to/lastmile_qr_scan", "ios": "https://dc.lft.to/lastmile_qr_scan"}, "fusion_lon": 0.0}, {"lat": 38.9027285, "is_disabled": 0, "type": "electric_scooter", "lon": -77.03378416666666, "bike_id": "84a08a8607f3cd08c639559ffaed2330", "fusion_lat": 0.0, "name": "84a08a8607f3cd08c639559ffaed2330", "is_reserved": 0, "rental_uris": {"android": "https://dc.lft.to/lastmile_qr_scan", "ios": "https://dc.lft.to/lastmile_qr_scan"}, "fusion_lon": 0.0}, {"lat": 38.905776, "is_disabled": 0, "type": "electric_scooter", "lon": -77.0487525, "bike_id": "5223df3128ee0a7bae06b44e344df634", "fusion_lat": 0.0, "name": "5223df3128ee0a7bae06b44e344df634", "is_reserved": 0, "rental_uris": {"android": "https://dc.lft.to/lastmile_qr_scan", "ios": "https://dc.lft.to/lastmile_qr_scan"}, "fusion_lon": 0.0}, {"lat": 38.911851666666664, "is_disabled": 0, "type": "electric_scooter", "lon": -77.0383235, "bike_id": "c1f724f44dfebee018399f157d7c35ae", "fusion_lat": 0.0, "name": "c1f724f44dfebee018399f157d7c35ae", "is_reserved": 0, "rental_uris": {"android": "https://dc.lft.to/lastmile_qr_scan", "ios": "https://dc.lft.to/lastmile_qr_scan"}, "fusion_lon": 0.0}, {"lat": 38.8764145, "is_disabled": 0, "type": "electric_scooter", "lon": -77.00740266666666, "bike_id": "23e6b6cd571d0e9b71045669d0e1172d", "fusion_lat": 0.0, "name": "23e6b6cd571d0e9b71045669d0e1172d", "is_reserved": 0, "rental_uris": {"android": "https://dc.lft.to/lastmile_qr_scan", "ios": "https://dc.lft.to/lastmile_qr_scan"}, "fusion_lon": 0.0}, {"lat": 38.914937, "is_disabled": 0, "type": "electric_scooter", "lon": -77.018638, "bike_id": "552a6b033151116ce01af3ca2d2d2bc4", "fusion_lat": 0.0, "name": "552a6b033151116ce01af3ca2d2d2bc4", "is_reserved": 0, "rental_uris": {"android": "https://dc.lft.to/lastmile_qr_scan", "ios": "https://dc.lft.to/lastmile_qr_scan"}, "fusion_lon": 0.0}, {"lat": 38.88764066666667, "is_disabled": 0, "type": "electric_scooter", "lon": -76.9559745, "bike_id": "2065e050e9adb2cbf0d1862cd6b72aed", "fusion_lat": 0.0, "name": "2065e050e9adb2cbf0d1862cd6b72aed", "is_reserved": 0, "rental_uris": {"android": "https://dc.lft.to/lastmile_qr_scan", "ios": "https://dc.lft.to/lastmile_qr_scan"}, "fusion_lon": 0.0}, {"lat": 38.903648833333335, "is_disabled": 0, "type": "electric_scooter", "lon": -77.0656845, "bike_id": "5739dfefd6d38efc4727d6c40c444109", "fusion_lat": 0.0, "name": "5739dfefd6d38efc4727d6c40c444109", "is_reserved": 0, "rental_uris": {"android": "https://dc.lft.to/lastmile_qr_scan", "ios": "https://dc.lft.to/lastmile_qr_scan"}, "fusion_lon": 0.0}, {"lat": 38.91773666666667, "is_disabled": 0, "type": "electric_scooter", "lon": -77.0149125, "bike_id": "f1e801c5ca0aad33f4561af7ea247ae5", "fusion_lat": 0.0, "name": "f1e801c5ca0aad33f4561af7ea247ae5", "is_reserved": 0, "rental_uris": {"android": "https://dc.lft.to/lastmile_qr_scan", "ios": "https://dc.lft.to/lastmile_qr_scan"}, "fusion_lon": 0.0}, {"lat": 38.91195066666667, "is_disabled": 0, "type": "electric_scooter", "lon": -77.00477216666667, "bike_id": "171f27fb8d45e32de9589c2aea356b1b", "fusion_lat": 0.0, "name": "171f27fb8d45e32de9589c2aea356b1b", "is_reserved": 0, "rental_uris": {"android": "https://dc.lft.to/lastmile_qr_scan", "ios": "https://dc.lft.to/lastmile_qr_scan"}, "fusion_lon": 0.0}, {"lat": 38.90564783333333, "is_disabled": 0, "type": "electric_bike", "lon": -77.00396433333333, "bike_id": "ff2dc6d89936b9ce53a824575527e7bf", "fusion_lat": 0.0, "name": "ff2dc6d89936b9ce53a824575527e7bf", "is_reserved": 0, "rental_uris": {"android": "https://dc.lft.to/lastmile_qr_scan", "ios": "https://dc.lft.to/lastmile_qr_scan"}, "fusion_lon": 0.0}, {"lat": 38.935681, "is_disabled": 0, "type": "electric_scooter", "lon": -77.08765516666666, "bike_id": "9a61c65e02a0eb107079977f87793279", "fusion_lat": 0.0, "name": "9a61c65e02a0eb107079977f87793279", "is_reserved": 0, "rental_uris": {"android": "https://dc.lft.to/lastmile_qr_scan", "ios": "https://dc.lft.to/lastmile_qr_scan"}, "fusion_lon": 0.0}, {"lat": 38.89219416666667, "is_disabled": 0, "type": "electric_scooter", "lon": -77.04868016666667, "bike_id": "9ff8cc1fc055a2a5f4486ef9855adf02", "fusion_lat": 0.0, "name": "9ff8cc1fc055a2a5f4486ef9855adf02", "is_reserved": 0, "rental_uris": {"android": "https://dc.lft.to/lastmile_qr_scan", "ios": "https://dc.lft.to/lastmile_qr_scan"}, "fusion_lon": 0.0},