{"data": {"bikes": [{"rental_uris": {"ios": "https://dc.lft.to/lastmile_qr_scan", "android": "https://dc.lft.to/lastmile_qr_scan"}, "type": "electric_scooter", "name": "62ff5179e415b4cebe52d8ffe24f296a", "is_reserved": 0, "lon": -77.0418905, "is_disabled": 0, "fusion_lat": 0.0, "lat": 38.90622366666667, "bike_id": "62ff5179e415b4cebe52d8ffe24f296a", "fusion_lon": 0.0}, {"rental_uris": {"ios": "https://dc.lft.to/lastmile_qr_scan", "android": "https://dc.lft.to/lastmile_qr_scan"}, "type": "electric_scooter", "name": "989b13bf105863cd0b14984591fe634b", "is_reserved": 0, "lon": -77.03583933333333, "is_disabled": 0, "fusion_lat": 0.0, "lat": 38.9103835, "bike_id": "989b13bf105863cd0b14984591fe634b", "fusion_lon": 0.0}, {"rental_uris": {"ios": "https://dc.lft.to/lastmile_qr_scan", "android": "https://dc.lft.to/lastmile_qr_scan"}, "type": "electric_scooter", "name": "866ef8c2b384de1d5dec7752a594e7f4", "is_reserved": 0, "lon": -77.02594283333333, "is_disabled": 0, "fusion_lat": 0.0, "lat": 38.88393583333333, "bike_id": "866ef8c2b384de1d5dec7752a594e7f4", "fusion_lon": 0.0}, {"rental_uris": {"ios": "https://dc.lft.to/lastmile_qr_scan", "android": "https://dc.lft.to/lastmile_qr_scan"}, "type": "electric_scooter", "name": "f63c4e95d6429551c1264c23786195fe", "is_reserved": 0, "lon": -77.0522985, "is_disabled": 0, "fusion_lat": 0.0, "lat": 38.89848633333333, "bike_id": "f63c4e95d6429551c1264c23786195fe", "fusion_lon": 0.0}, {"rental_uris": {"ios": "https://dc.lft.to/lastmile_qr_scan", "android": "https://dc.lft.to/lastmile_qr_scan"}, "type": "electric_scooter", "name": "4eb2a542973c093f9d88d58b010b56c8", "is_reserved": 0, "lon": -77.038405, "is_disabled": 0, "fusion_lat": 0.0, "lat": 38.9155855, "bike_id": "4eb2a542973c093f9d88d58b010b56c8", "fusion_lon": 0.0}, {"rental_uris": {"ios": "https://dc.lft.to/lastmile_qr_scan", "android": "https://dc.lft.to/lastmile_qr_scan"}, "type": "electric_bike", "name": "3183e64636983aaa4b08967afbd366ab", "is_reserved": 0, "lon": -76.98818466666667, "is_disabled": 0, "fusion_lat": 0.0, "lat": 38.8427465, "bike_id": "3183e64636983aaa4b08967afbd366ab", "fusion_lon": 0.0}, {"rental_uris": {"ios": "https://dc.lft.to/lastmile_qr_scan", "android": "https://dc.lft.to/lastmile_qr_scan"}, "type": "electric_bike", "name": "6e921b1ec645159fac14e5fac3050ac5", "is_reserved": 0, "lon": -77.040694, "is_disabled": 0, "fusion_lat": 0.0, "lat": 38.9938025, "bike_id": "6e921b1ec645159fac14e5fac3050ac5", "fusion_lon": 0.0}, {"rental_uris": {"ios": "https://dc.lft.to/lastmile_qr_scan", "android": "https://dc.lft.to/lastmile_qr_scan"}, "type": "electric_scooter", "name": "f84abe455b38aea500671e3cc0a78027", "is_reserved": 0, "lon": -77.03826916666667, "is_disabled": 0, "fusion_lat": 0.0, "lat": 38.91690966666667, "bike_id": "f84abe455b38aea500671e3cc0a78027", "fusion_lon": 0.0}, {"rental_uris": {"ios": "https://dc.lft.to/lastmile_qr_scan", "android": "https://dc.lft.to/lastmile_qr_scan"}, "type": "electric_scooter", "name": "c58dca5cec2425b354e5c4a632841ec4", "is_reserved": 0, "lon": -77.035158, "is_disabled": 0, "fusion_lat": 0.0, "lat": 38.90962416666667, "bike_id": "c58dca5cec2425b354e5c4a632841ec4", "fusion_lon": 0.0}, {"rental_uris": {"ios": "https://dc.lft.to/lastmile_qr_scan", "android": "https://dc.lft.to/lastmile_qr_scan"}, "type": "electric_scooter", "name": "5ac6839edf5edd61321b1103750ad1c1", "is_reserved": 0, "lon": -77.0458665, "is_disabled": 0, "fusion_lat": 0.0, "lat": 38.91861316666667, "bike_id": "5ac6839edf5edd61321b1103750ad1c1", "fusion_lon": 0.0}, {"rental_uris": {"ios": "https://dc.lft.to/lastmile_qr_scan", "android": "https://dc.lft.to/lastmile_qr_scan"}, "type": "electric_scooter", "name": "68702361d1dc46b800e8c3b62abcfdd0", "is_reserved": 0, "lon": -77.0281545, "is_disabled": 0, "fusion_lat": 0.0, "lat": 38.92373116666667, "bike_id": "68702361d1dc46b800e8c3b62abcfdd0", "fusion_lon": 0.0}, {"rental_uris": {"ios": "https://dc.lft.to/lastmile_qr_scan", "android": "https://dc.lft.to/lastmile_qr_scan"}, "type": "electric_scooter", "name": "23e63defb737e9fa36077b7969012a90", "is_reserved": 0, "lon": -77.00301333333333, "is_disabled": 0, "fusion_lat": 0.0, "lat": 38.877185, "bike_id": "23e63defb737e9fa36077b7969012a90", "fusion_lon": 0.0}, {"rental_uris": {"ios": "https://dc.lft.to/lastmile_qr_scan", "android": "https://dc.lft.to/lastmile_qr_scan"}, "type": "electric_scooter", "name": "5d99e4cfeb983d857f65f92196a492ab", "is_reserved": 0, "lon": -77.09030633333333, "is_disabled": 0, "fusion_lat": 0.0, "lat": 38.956035, "bike_id": "5d99e4cfeb983d857f65f92196a492ab", "fusion_lon": 0.0}, {"rental_uris": {"ios": "https://dc.lft.to/lastmile_qr_scan", "android": "https://dc.lft.to/lastmile_qr_scan"}, "type": "electric_scooter", "name": "10aad36660622c616100be8379e89f19", "is_reserved": 0, "lon": -77.03418916666666, "is_disabled": 0, "fusion_lat": 0.0, "lat": 38.922093, "bike_id": "10aad36660622c616100be8379e89f19", "fusion_lon": 0.0}, {"rental_uris": {"ios": "https://dc.lft.to/lastmile_qr_scan", "android": "https://dc.lft.to/lastmile_qr_scan"}, "type": "electric_scooter", "name": "4c60ff04b1792073cc6d0723a5bd20ad", "is_reserved": 0, "lon": -76.96975833333333, "is_disabled": 0, "fusion_lat": 0.0, "lat": 38.86145416666667, "bike_id": "4c60ff04b1792073cc6d0723a5bd20ad", "fusion_lon": 0.0}, {"rental_uris": {"ios": "https://dc.lft.to/lastmile_qr_scan", "android": "https://dc.lft.to/lastmile_qr_scan"}, "type": "electric_scooter", "name": "fedd57719e9b009e6aa25cf6823c57b9", "is_reserved": 0, "lon": -77.0404715, "is_disabled": 0, "fusion_lat": 0.0, "lat": 38.90400433333333, "bike_id": "fedd57719e9b009e6aa25cf6823c57b9", "fusion_lon": 0.0}, {"rental_uris": {"ios": "https://dc.lft.to/lastmile_qr_scan", "android": "https://dc.lft.to/lastmile_qr_scan"}, "type": "electric_scooter", "name": "5521ccd64e2f78b0e5da2601d9fbd63f", "is_reserved": 0, "lon": -77.05921633333334, "is_disabled": 0, "fusion_lat": 0.0, "lat": 38.90272066666667, "bike_id": "5521ccd64e2f78b0e5da2601d9fbd63f", "fusion_lon": 0.0}, {"rental_uris": {"ios": "https://dc.lft.to/lastmile_qr_scan", "android": "https://dc.lft.to/lastmile_qr_scan"}, "type": "electric_scooter", "name": "90e8456971db6e8780f845657342da70", "is_reserved": 0, "lon": -77.00601883333333, "is_disabled": 0, "fusion_lat": 0.0, "lat": 38.87568266666667, "bike_id": "90e8456971db6e8780f845657342da70", "fusion_lon": 0.0}, {"rental_uris": {"ios": "https://dc.lft.to/lastmile_qr_scan", "android": "https://dc.lft.to/lastmile_qr_scan"}, "type": "electric_scooter", "name": "62f6d0c06f9f5edb1676f63c38eb7925", "is_reserved": 0, "lon": -77.03705733333334, "is_disabled": 0, "fusion_lat": 0.0, "lat": 38.92655716666667, "bike_id": "62f6d0c06f9f5edb1676f63c38eb7925", "fusion_lon": 0.0}, {"rental_uris": {"ios": "https://dc.lft.to/lastmile_qr_scan", "android": "https://dc.lft.to/lastmile_qr_scan"}, "type": "electric_scooter", "name": "b7d4f48ba1482780feb2bdaf4ddb0b33", "is_reserved": 0, "lon": -77.03576066666666, "is_disabled": 0, "fusion_lat": 0.0, "lat": 38.9178835, "bike_id": "b7d4f48ba1482780feb2bdaf4ddb0b33", "fusion_lon": 0.0}, {"rental_uris": {"ios": "https://dc.lft.to/lastmile_qr_scan", "android": "https://dc.lft.to/lastmile_qr_scan"}, "type": "electric_scooter", "name": "ff648fab945cff0dfe8f5d9459f55243", "is_reserved": 0, "lon": -77.03253916666667, "is_disabled": 0, "fusion_lat": 0.0, "lat": 38.927611666666664, "bike_id": "ff648fab945cff0dfe8f5d9459f55243", "fusion_lon": 0.0}, {"rental_uris": {"ios": "https://dc.lft.to/lastmile_qr_scan", "android": "https://dc.lft.to/lastmile_qr_scan"}, "type": "electric_bike", "name": "a6ad11665c91eaa9259fb577dae8ca03", "is_reserved": 0, "lon": -77.12650133333334, "is_disabled": 0, "fusion_lat": 0.0, "lat": 38.819140166666664, "bike_id": "a6ad11665c91eaa9259fb577dae8ca03", "fusion_lon": 0.0}, {"rental_uris": {"ios": "https://dc.lft.to/lastmile_qr_scan", "android": "https://dc.lft.to/lastmile_qr_scan"}, "type": "electric_scooter", "name": "11e778fbd9a713d08dfb1039ecb956bf", "is_reserved": 0, "lon": -77.04167433333333, "is_disabled": 0, "fusion_lat": 0.0, "lat": 38.90144083333333, "bike_id": "11e778fbd9a713d08dfb1039ecb956bf", "fusion_lon": 0.0}, {"rental_uris": {"ios": "https://dc.lft.to/lastmile_qr_scan", "android": "https://dc.lft.to/lastmile_qr_scan"}, "type": "electric_bike", "name": "158e1898bc063235ec0be3bff682dbe9", "is_reserved": 0, "lon": -77.085268, "is_disabled": 0, "fusion_lat": 0.0, "lat": 38.856512333333335, "bike_id": "158e1898bc063235ec0be3bff682dbe9", "fusion_lon": 0.0}, {"rental_uris": {"ios": "https://dc.lft.to/lastmile_qr_scan", "android": "https://dc.lft.to/lastmile_qr_scan"}, "type": "electric_scooter", "name": "86c4dfe7fa9de7a85e89e4a3d384f42f", "is_reserved": 0, "lon": -77.0383965, "is_disabled": 0, "fusion_lat": 0.0, "lat": 38.915512666666665, "bike_id": "86c4dfe7fa9de7a85e89e4a3d384f42f", "fusion_lon": 0.0}, {"rental_uris": {"ios": "https://dc.lft.to/lastmile_qr_scan", "android": "https://dc.lft.to/lastmile_qr_scan"}, "type": "electric_scooter", "name": "d8eb8d0362e5efe455fba385adf00786", "is_reserved": 0, "lon": -77.02203416666667, "is_disabled": 0, "fusion_lat": 0.0, "lat": 38.951539333333336, "bike_id": "d8eb8d0362e5efe455fba385adf00786", "fusion_lon": 0.0}, {"rental_uris": {"ios": "https://dc.lft.to/lastmile_qr_scan", "android": "https://dc.lft.to/lastmile_qr_scan"}, "type": "electric_scooter", "name": "250a6f66b4e3419e3d7e1468f44b1223", "is_reserved": 0, "lon": -77.02111833333333, "is_disabled": 0, "fusion_lat": 0.0, "lat": 38.909370833333334, "bike_id": "250a6f66b4e3419e3d7e1468f44b1223", "fusion_lon": 0.0}, {"rental_uris": {"ios": "https://dc.lft.to/lastmile_qr_scan", "android": "https://dc.lft.to/lastmile_qr_scan"}, "type": "electric_scooter", "name": "7c5be0e88500ab4a2b999d2e5224d73e", "is_reserved": 0, "lon": -77.0215365, "is_disabled": 0, "fusion_lat": 0.0, "lat": 38.92604983333333, "bike_id": "7c5be0e88500ab4a2b999d2e5224d73e", "fusion_lon": 0.0}, {"rental_uris": {"ios": "https://dc.lft.to/lastmile_qr_scan", "android": "https://dc.lft.to/lastmile_qr_scan"}, "type": "electric_scooter", "name": "6dadb25c54d8a7e94dfc5fc6d32cd673", "is_reserved": 0, "lon": -77.07881533333334, "is_disabled": 0, "fusion_lat": 0.0, "lat": 38.94613483333333, "bike_id": "6dadb25c54d8a7e94dfc5fc6d32cd673", "fusion_lon": 0.0}, {"rental_uris": {"ios": "https://dc.lft.to/lastmile_qr_scan", "android": "https://dc.lft.to/lastmile_qr_scan"}, "type": "electric_scooter", "name": "e82dcf380e45563341a22ee615ea985a", "is_reserved": 0, "lon": -77.0068405, "is_disabled": 0, "fusion_lat": 0.0, "lat": 38.871483833333336, "bike_id": "e82dcf380e45563341a22ee615ea985a", "fusion_lon": 0.0}, {"rental_uris": {"ios": "https://dc.lft.to/lastmile_qr_scan", "android": "https://dc.lft.to/lastmile_qr_scan"}, "type": "electric_scooter", "name": "76516c38dba0e06507ab62849bc7db93", "is_reserved": 0, "lon": -77.03474683333333, "is_disabled": 0, "fusion_lat": 0.0, "lat": 38.9026035, "bike_id": "76516c38dba0e06507ab62849bc7db93", "fusion_lon": 0.0}, {"rental_uris": {"ios": "https://dc.lft.to/lastmile_qr_scan", "android": "https://dc.lft.to/lastmile_qr_scan"}, "type": "electric_scooter", "name": "c2d94d1f4654b4cd7ffd40bcb0e0593b", "is_reserved": 0, "lon": -77.0214835, "is_disabled": 0, "fusion_lat": 0.0, "lat": 38.915535166666665, "bike_id": "c2d94d1f4654b4cd7ffd40bcb0e0593b", "fusion_lon": 0.0}, {"rental_uris": {"ios": "https://dc.lft.to/lastmile_qr_scan", "android": "https://dc.lft.to/lastmile_qr_scan"}, "type": "electric_bike", "name": "8ba5792438601d0f0281e01cafbbe6c7", "is_reserved": 0, "lon": -77.09452933333333, "is_disabled": 0, "fusion_lat": 0.0, "lat": 38.807519166666665, "bike_id": "8ba5792438601d0f0281e01cafbbe6c7", "fusion_lon": 0.0}, {"rental_uris": {"ios": "https://dc.lft.to/lastmile_qr_scan", "android": "https://dc.lft.to/lastmile_qr_scan"}, "type": "electric_scooter", "name": "691bf95b64131441a9eab0da9dd09fa6", "is_reserved": 0, "lon": -77.03428933333333, "is_disabled": 0, "fusion_lat": 0.0, "lat": 38.90231333333333, "bike_id": "691bf95b64131441a9eab0da9dd09fa6", "fusion_lon": 0.0}, {"rental_uris": {"ios": "https://dc.lft.to/lastmile_qr_scan", "android": "https://dc.lft.to/lastmile_qr_scan"}, "type": "electric_scooter", "name": "883668e616fd5e9f17415732b9d8972e", "is_reserved": 0, "lon": -77.04046533333333, "is_disabled": 0, "fusion_lat": 0.0, "lat": 38.9300515, "bike_id": "883668e616fd5e9f17415732b9d8972e", "fusion_lon": 0.0}, {"rental_uris": {"ios": "https://dc.lft.to/lastmile_qr_scan", "android": "https://dc.lft.to/lastmile_qr_scan"}, "type": "electric_scooter", "name": "d7c577b2b50f6ddf103fcbdd902e4fea", "is_reserved": 0, "lon": -77.0522195, "is_disabled": 0, "fusion_lat": 0.0, "lat": 38.909744833333335, "bike_id": "d7c577b2b50f6ddf103fcbdd902e4fea", "fusion_lon": 0.0}, {"rental_uris": {"ios": "https://dc.lft.to/lastmile_qr_scan", "android": "https://dc.lft.to/lastmile_qr_scan"}, "type": "electric_scooter", "name": "ace92096b2d4b6ad5b3cea5e2e03e33a", "is_reserved": 0, "lon": -77.0172705, "is_disabled": 0, "fusion_lat": 0.0, "lat": 38.943153, "bike_id": "ace92096b2d4b6ad5b3cea5e2e03e33a", "fusion_lon": 0.0}, {"rental_uris": {"ios": "https://dc.lft.to/lastmile_qr_scan", "android": "https://dc.lft.to/lastmile_qr_scan"}, "type": "electric_scooter", "name": "576b9fff42152fa4a3ee26ef09d55fe9", "is_reserved": 0, "lon": -77.025485, "is_disabled": 0, "fusion_lat": 0.0, "lat": 38.9517495, "bike_id": "576b9fff42152fa4a3ee26ef09d55fe9", "fusion_lon": 0.0}, {"rental_uris": {"ios": "https://dc.lft.to/lastmile_qr_scan", "android": "https://dc.lft.to/lastmile_qr_scan"}, "type": "electric_scooter", "name": "c85edf6803d40d209ae0b93624bb5602", "is_reserved": 0, "lon": -77.04141716666666, "is_disabled": 0, "fusion_lat": 0.0, "lat": 38.9056095, "bike_id": "c85edf6803d40d209ae0b93624bb5602", "fusion_lon": 0.0}, {"rental_uris": {"ios": "https://dc.lft.to/lastmile_qr_scan", "android": "https://dc.lft.to/lastmile_qr_scan"}, "type": "electric_scooter", "name": "f382b0db85f758a38344a81d96883d4b", "is_reserved": 0, "lon": -76.99159983333334, "is_disabled": 0, "fusion_lat": 0.0, "lat": 38.89015666666667, "bike_id": "f382b0db85f758a38344a81d96883d4b", "fusion_lon": 0.0}, {"rental_uris": {"ios": "https://dc.lft.to/lastmile_qr_scan", "android": "https://dc.lft.to/lastmile_qr_scan"}, "type": "electric_scooter", "name": "8e13dacd4f7cbaa3fc24162ed88b69f6", "is_reserved": 0, "lon": -77.04333316666667, "is_disabled": 0, "fusion_lat": 0.0, "lat": 38.9083295, "bike_id": "8e13dacd4f7cbaa3fc24162ed88b69f6", "fusion_lon": 0.0}, {"rental_uris": {"ios": "https://dc.lft.to/lastmile_qr_scan", "android": "https://dc.lft.to/lastmile_qr_scan"}, "type": "electric_scooter", "name": "3052adf88c7e16c47fe69bb64fff029a", "is_reserved": 0, "lon": -77.04317666666667, "is_disabled": 0, "fusion_lat": 0.0, "lat": 38.93421416666666, "bike_id": "3052adf88c7e16c47fe69bb64fff029a", "fusion_lon": 0.0}, {"rental_uris": {"ios": "https://dc.lft.to/lastmile_qr_scan", "android": "https://dc.lft.to/lastmile_qr_scan"}, "type": "electric_scooter", "name": "52920be57072d6eb827cfe349de2cccc", "is_reserved": 0, "lon": -77.05015233333333, "is_disabled": 0, "fusion_lat": 0.0, "lat": 38.896908, "bike_id": "52920be57072d6eb827cfe349de2cccc", "fusion_lon": 0.0}, {"rental_uris": {"ios": "https://dc.lft.to/lastmile_qr_scan", "android": "https://dc.lft.to/lastmile_qr_scan"}, "type": "electric_scooter", "name": "a64c0587571edf6ba9d00c19d7cada5e", "is_reserved": 0, "lon": -76.983499, "is_disabled": 0, "fusion_lat": 0.0, "lat": 38.91477066666667, "bike_id": "a64c0587571edf6ba9d00c19d7cada5e", "fusion_lon": 0.0}, {"rental_uris": {"ios": "https://dc.lft.to/lastmile_qr_scan", "android": "https://dc.lft.to/lastmile_qr_scan"}, "type": "electric_scooter", "name": "70d9aad90eeab0c5f5560eca55006608", "is_reserved": 0, "lon": -77.0419485, "is_disabled": 0, "fusion_lat": 0.0, "lat": 38.920104, "bike_id": "70d9aad90eeab0c5f5560eca55006608", "fusion_lon": 0.0}, {"rental_uris": {"ios": "https://dc.lft.to/lastmile_qr_scan", "android": "https://dc.lft.to/lastmile_qr_scan"}, "type": "electric_scooter", "name": "d051136aaebad51ac56eef3d33ff1618", "is_reserved": 0, "lon": -77.045434, "is_disabled": 0, "fusion_lat": 0.0, "lat": 38.9177255, "bike_id": "d051136aaebad51ac56eef3d33ff1618", "fusion_lon": 0.0}, {"rental_uris": {"ios": "https://dc.lft.to/lastmile_qr_scan", "android": "https://dc.lft.to/lastmile_qr_scan"}, "type": "electric_scooter", "name": "64cfc9aea8e55bc5a63532cd55d70cdb", "is_reserved": 0, "lon": -76.985084, "is_disabled": 0, "fusion_lat": 0.0, "lat": 38.8808545, "bike_id": "64cfc9aea8e55bc5a63532cd55d70cdb", "fusion_lon": 0.0}, {"rental_uris": {"ios": "https://dc.lft.to/lastmile_qr_scan", "android": "https://dc.lft.to/lastmile_qr_scan"}, "type": "electric_scooter", "name": "e638821e0b9897d3602743e684583b7e", "is_reserved": 0, "lon": -77.0275385, "is_disabled": 0, "fusion_lat": 0.0, "lat": 38.9122225, "bike_id": "e638821e0b9897d3602743e684583b7e", "fusion_lon": 0.0}, {"rental_uris": {"ios": "https://dc.lft.to/lastmile_qr_scan", "android": "https://dc.lft.to/lastmile_qr_scan"}, "type": "electric_scooter", "name": "363f1d9184ad8186311046fc22adcd58", "is_reserved": 0, "lon": -77.04672966666666, "is_disabled": 0, "fusion_lat": 0.0, "lat": 38.89233266666667, "bike_id": "363f1d9184ad8186311046fc22adcd58", "fusion_lon": 0.0}, {"rental_uris": {"ios": "https://dc.lft.to/lastmile_qr_scan", "android": "https://dc.lft.to/lastmile_qr_scan"}, "type": "electric_scooter", "name": "9b654a29582f9f189f3e5cf684650b38", "is_reserved": 0, "lon": -77.02813233333333, "is_disabled": 0, "fusion_lat": 0.0, "lat": 38.90618033333333, "bike_id": "9b654a29582f9f189f3e5cf684650b38", "fusion_lon": 0.0}, {"rental_uris": {"ios": "https://dc.lft.to/lastmile_qr_scan", "android": "https://dc.lft.to/lastmile_qr_scan"}, "type": "electric_scooter", "name": "1acaf1d0f2ceb763caab334b15cc3c3e", "is_reserved": 0, "lon": -77.04248616666666, "is_disabled": 0, "fusion_lat": 0.0, "lat": 38.922217333333336, "bike_id": "1acaf1d0f2ceb763caab334b15cc3c3e", "fusion_lon": 0.0}, {"rental_uris": {"ios": "https://dc.lft.to/lastmile_qr_scan", "android": "https://dc.lft.to/lastmile_qr_scan"}, "type": "electric_scooter", "name": "2b4666645edb83225bc62a7048741503", "is_reserved": 0, "lon": -77.04290966666667, "is_disabled": 0, "fusion_lat": 0.0, "lat": 38.92241666666666, "bike_id": "2b4666645edb83225bc62a7048741503", "fusion_lon": 0.0}, {"rental_uris": {"ios": "https://dc.lft.to/lastmile_qr_scan", "android": "https://dc.lft.to/lastmile_qr_scan"}, "type": "electric_scooter", "name": "3565d8adb5277ec9ef05f3b4aa2e81ef", "is_reserved": 0, "lon": -77.02829433333333, "is_disabled": 0, "fusion_lat": 0.0, "lat": 38.88627866666667, "bike_id": "3565d8adb5277ec9ef05f3b4aa2e81ef", "fusion_lon": 0.0}, {"rental_uris": {"ios": "https://dc.lft.to/lastmile_qr_scan", "android": "https://dc.lft.to/lastmile_qr_scan"}, "type": "electric_scooter", "name": "f88dbc70c9c2735a8f1e70f72a70d579", "is_reserved": 0, "lon": -77.03477, "is_disabled": 0, "fusion_lat": 0.0, "lat": 38.905317333333336, "bike_id": "f88dbc70c9c2735a8f1e70f72a70d579", "fusion_lon": 0.0}, {"rental_uris": {"ios": "https://dc.lft.to/lastmile_qr_scan", "android": "https://dc.lft.to/lastmile_qr_scan"}, "type": "electric_scooter", "name": "392dfa19880cfc9fb2e8ef63222b35a1", "is_reserved": 0, "lon": -77.0384005, "is_disabled": 0, "fusion_lat": 0.0, "lat": 38.93112466666667, "bike_id": "392dfa19880cfc9fb2e8ef63222b35a1", "fusion_lon": 0.0}, {"rental_uris": {"ios": "https://dc.lft.to/lastmile_qr_scan", "android": "https://dc.lft.to/lastmile_qr_scan"}, "type": "electric_scooter", "name": "6f518e8e7f1013a56f899903826d93ab", "is_reserved": 0, "lon": -77.00427183333333, "is_disabled": 0, "fusion_lat": 0.0, "lat": 38.8851575, "bike_id": "6f518e8e7f1013a56f899903826d93ab", "fusion_lon": 0.0}, {"rental_uris": {"ios": "https://dc.lft.to/lastmile_qr_scan", "android": "https://dc.lft.to/lastmile_qr_scan"}, "type": "electric_scooter", "name": "08b17a3f754277d2ffbdc86c851cd743", "is_reserved": 0, "lon": -77.04534766666667, "is_disabled": 0, "fusion_lat": 0.0, "lat": 38.9007015, "bike_id": "08b17a3f754277d2ffbdc86c851cd743", "fusion_lon": 0.0}, {"rental_uris": {"ios": "https://dc.lft.to/lastmile_qr_scan", "android": "https://dc.lft.to/lastmile_qr_scan"}, "type": "electric_scooter", "name": "86812ddb904aeeb34f1f3683e558847e", "is_reserved": 0, "lon": -77.0381635, "is_disabled": 0, "fusion_lat": 0.0, "lat": 38.915190333333335, "bike_id": "86812ddb904aeeb34f1f3683e558847e", "fusion_lon": 0.0}, {"rental_uris": {"ios": "https://dc.lft.to/lastmile_qr_scan", "android": "https://dc.lft.to/lastmile_qr_scan"}, "type": "electric_scooter", "name": "02becae9829b72425f479446990984e4", "is_reserved": 0, "lon": -77.0269315, "is_disabled": 0, "fusion_lat": 0.0, "lat": 38.92670433333333, "bike_id": "02becae9829b72425f479446990984e4", "fusion_lon": 0.0}, {"rental_uris": {"ios": "https://dc.lft.to/lastmile_qr_scan", "android": "https://dc.lft.to/lastmile_qr_scan"}, "type": "electric_bike", "name": "6748abfe89c4f995a70b8938431d371f", "is_reserved": 0, "lon": -77.04955016666666, "is_disabled": 0, "fusion_lat": 0.0, "lat": 38.90072216666667, "bike_id": "6748abfe89c4f995a70b8938431d371f", "fusion_lon": 0.0}, {"rental_uris": {"ios": "https://dc.lft.to/lastmile_qr_scan", "android": "https://dc.lft.to/lastmile_qr_scan"}, "type": "electric_scooter", "name": "fda3352a40f9c268cf4a0894b6d1c480", "is_reserved": 0, "lon": -77.03999, "is_disabled": 0, "fusion_lat": 0.0, "lat": 38.90295066666667, "bike_id": "fda3352a40f9c268cf4a0894b6d1c480", "fusion_lon": 0.0}, {"rental_uris": {"ios": "https://dc.lft.to/lastmile_qr_scan", "android": "https://dc.lft.to/lastmile_qr_scan"}, "type": "electric_scooter", "name": "ffc65de7122e1ddaefb41b09812c7df3", "is_reserved": 0, "lon": -77.008241, "is_disabled": 0, "fusion_lat": 0.0, "lat": 38.91370833333333, "bike_id": "ffc65de7122e1ddaefb41b09812c7df3", "fusion_lon": 0.0}, {"rental_uris": {"ios": "https://dc.lft.to/lastmile_qr_scan", "android": "https://dc.lft.to/lastmile_qr_scan"}, "type": "electric_scooter", "name": "238a0b376e84d8d23f5f97d60138979b", "is_reserved": 0, "lon": -77.0405215, "is_disabled": 0, "fusion_lat": 0.0, "lat": 38.904044999999996, "bike_id": "238a0b376e84d8d23f5f97d60138979b", "fusion_lon": 0.0}, {"rental_uris": {"ios": "https://dc.lft.to/lastmile_qr_scan", "android": "https://dc.lft.to/lastmile_qr_scan"}, "type": "electric_scooter", "name": "43dc9e429d7f282ce15a7b861efa0f43", "is_reserved": 0, "lon": -76.98773016666667, "is_disabled": 0, "fusion_lat": 0.0, "lat": 38.91199066666667, "bike_id": "43dc9e429d7f282ce15a7b861efa0f43", "fusion_lon": 0.0}, {"rental_uris": {"ios": "https://dc.lft.to/lastmile_qr_scan", "android": "https://dc.lft.to/lastmile_qr_scan"}, "type": "electric_scooter", "name": "1356e9529e8400050958d905b784aede", "is_reserved": 0, "lon": -77.047573, "is_disabled": 0, "fusion_lat": 0.0, "lat": 38.940946, "bike_id": "1356e9529e8400050958d905b784aede", "fusion_lon": 0.0}, {"rental_uris": {"ios": "https://dc.lft.to/lastmile_qr_scan", "android": "https://dc.lft.to/lastmile_qr_scan"}, "type": "electric_scooter", "name": "297b99cb1fa4d19ed9fa655ab43cd86c", "is_reserved": 0, "lon": -77.02189116666666, "is_disabled": 0, "fusion_lat": 0.0, "lat": 38.903611166666664, "bike_id": "297b99cb1fa4d19ed9fa655ab43cd86c", "fusion_lon": 0.0}, {"rental_uris": {"ios": "https://dc.lft.to/lastmile_qr_scan", "android": "https://dc.lft.to/lastmile_qr_scan"}, "type": "electric_scooter", "name": "9e52edb3133f256c3a75445e27b54d31", "is_reserved": 0, "lon": -77.03063183333333, "is_disabled": 0, "fusion_lat": 0.0, "lat": 38.924676, "bike_id": "9e52edb3133f256c3a75445e27b54d31", "fusion_lon": 0.0}, {"rental_uris": {"ios": "https://dc.lft.to/lastmile_qr_scan", "android": "https://dc.lft.to/lastmile_qr_scan"}, "type": "electric_bike", "name": "b075cf2871c92cc2fa4ce333f8a478df", "is_reserved": 0, "lon": -76.907352, "is_disabled": 0, "fusion_lat": 0.0, "lat": 38.89615966666667, "bike_id": "b075cf2871c92cc2fa4ce333f8a478df", "fusion_lon": 0.0}, {"rental_uris": {"ios": "https://dc.lft.to/lastmile_qr_scan", "android": "https://dc.lft.to/lastmile_qr_scan"}, "type": "electric_scooter", "name": "ea9cac60792e613dda450bc83cefadea", "is_reserved": 0, "lon": -77.05326933333333, "is_disabled": 0, "fusion_lat": 0.0, "lat": 38.902602333333334, "bike_id": "ea9cac60792e613dda450bc83cefadea", "fusion_lon": 0.0}, {"rental_uris": {"ios": "https://dc.lft.to/lastmile_qr_scan", "android": "https://dc.lft.to/lastmile_qr_scan"}, "type": "electric_scooter", "name": "32a96bab5de9cf9d0a7c97dace55585a", "is_reserved": 0, "lon": -77.05624333333333, "is_disabled": 0, "fusion_lat": 0.0, "lat": 38.906849333333334, "bike_id": "32a96bab5de9cf9d0a7c97dace55585a", "fusion_lon": 0.0}, {"rental_uris": {"ios": "https://dc.lft.to/lastmile_qr_scan", "android": "https://dc.lft.to/lastmile_qr_scan"}, "type": "electric_scooter", "name": "d8f93a1c094482441a1b0bdb43bba66d", "is_reserved": 0, "lon": -77.02403216666667, "is_disabled": 0, "fusion_lat": 0.0, "lat": 38.9067525, "bike_id": "d8f93a1c094482441a1b0bdb43bba66d", "fusion_lon": 0.0}, {"rental_uris": {"ios": "https://dc.lft.to/lastmile_qr_scan", "android": "https://dc.lft.to/lastmile_qr_scan"}, "type": "electric_scooter", "name": "ecd42cec183ed56d008b63580d18df58", "is_reserved": 0, "lon": -76.996071, "is_disabled": 0, "fusion_lat": 0.0, "lat": 38.885194166666665, "bike_id": "ecd42cec183ed56d008b63580d18df58", "fusion_lon": 0.0}, {"rental_uris": {"ios": "https://dc.lft.to/lastmile_qr_scan", "android": "https://dc.lft.to/lastmile_qr_scan"}, "type": "electric_scooter", "name": "44642627d8436f5e140f3e40e15b57a0", "is_reserved": 0, "lon": -76.99231583333334, "is_disabled": 0, "fusion_lat": 0.0, "lat": 38.8875145, "bike_id": "44642627d8436f5e140f3e40e15b57a0", "fusion_lon": 0.0}, {"rental_uris": {"ios": "https://dc.lft.to/lastmile_qr_scan", "android": "https://dc.lft.to/lastmile_qr_scan"}, "type": "electric_scooter", "name": "8f9fe7eb54173f8282eca18e1e9ef17c", "is_reserved": 0, "lon": -77.0386265, "is_disabled": 0, "fusion_lat": 0.0, "lat": 38.901339, "bike_id": "8f9fe7eb54173f8282eca18e1e9ef17c", "fusion_lon": 0.0}, {"rental_uris": {"ios": "https://dc.lft.to/lastmile_qr_scan", "android": "https://dc.lft.to/lastmile_qr_scan"}, "type": "electric_bike", "name": "5db970e476d9079adb26471116b84908", "is_reserved": 0, "lon": -77.0206465, "is_disabled": 0, "fusion_lat": 0.0, "lat": 38.964459833333336, "bike_id": "5db970e476d9079adb26471116b84908", "fusion_lon": 0.0}, {"rental_uris": {"ios": "https://dc.lft.to/lastmile_qr_scan", "android": "https://dc.lft.to/lastmile_qr_scan"}, "type": "electric_scooter", "name": "cd3667b673b6c01368cc0227ae629ac7", "is_reserved": 0, "lon": -77.0075155, "is_disabled": 0, "fusion_lat": 0.0, "lat": 38.911239, "bike_id": "cd3667b673b6c01368cc0227ae629ac7", "fusion_lon": 0.0}, {"rental_uris": {"ios": "https://dc.lft.to/lastmile_qr_scan", "android": "https://dc.lft.to/lastmile_qr_scan"}, "type": "electric_scooter", "name": "579886a7df74a3dcc23fbb5f75c28f9a", "is_reserved": 0, "lon": -77.051792, "is_disabled": 0, "fusion_lat": 0.0, "lat": 38.923454, "bike_id": "579886a7df74a3dcc23fbb5f75c28f9a", "fusion_lon": 0.0}, {"rental_uris": {"ios": "https://dc.lft.to/lastmile_qr_scan", "android": "https://dc.lft.to/lastmile_qr_scan"}, "type": "electric_bike", "name": "b54dab997a6bc045fd553129e92e8b80", "is_reserved": 0, "lon": -76.99366716666667, "is_disabled": 0, "fusion_lat": 0.0, "lat": 38.927267666666665, "bike_id": "b54dab997a6bc045fd553129e92e8b80", "fusion_lon": 0.0}, {"rental_uris": {"ios": "https://dc.lft.to/lastmile_qr_scan", "android": "https://dc.lft.to/lastmile_qr_scan"}, "type": "electric_scooter", "name": "247eb5dd481a39481fd1398b777b6c35", "is_reserved": 0, "lon": -76.985304, "is_disabled": 0, "fusion_lat": 0.0, "lat": 38.91443533333333, "bike_id": "247eb5dd481a39481fd1398b777b6c35", "fusion_lon": 0.0}, {"rental_uris": {"ios": "https://dc.lft.to/lastmile_qr_scan", "android": "https://dc.lft.to/lastmile_qr_scan"}, "type": "electric_scooter", "name": "b336a681a6b150ff213361d3542a5de4", "is_reserved": 0, "lon": -77.03425333333334, "is_disabled": 0, "fusion_lat": 0.0, "lat": 38.906108833333334, "bike_id": "b336a681a6b150ff213361d3542a5de4", "fusion_lon": 0.0}, {"rental_uris": {"ios": "https://dc.lft.to/lastmile_qr_scan", "android": "https://dc.lft.to/lastmile_qr_scan"}, "type": "electric_scooter", "name": "86d54423ad71084f2f439f496de7b6ac", "is_reserved": 0, "lon": -76.9915395, "is_disabled": 0, "fusion_lat": 0.0, "lat": 38.90037616666667, "bike_id": "86d54423ad71084f2f439f496de7b6ac", "fusion_lon": 0.0}, {"rental_uris": {"ios": "https://dc.lft.to/lastmile_qr_scan", "android": "https://dc.lft.to/lastmile_qr_scan"}, "type": "electric_scooter", "name": "b15b29c834e3e596682b836a95f6d5d8", "is_reserved": 0, "lon": -77.016691, "is_disabled": 0, "fusion_lat": 0.0, "lat": 38.9166935, "bike_id": "b15b29c834e3e596682b836a95f6d5d8", "fusion_lon": 0.0}, {"rental_uris": {"ios": "https://dc.lft.to/lastmile_qr_scan", "android": "https://dc.lft.to/lastmile_qr_scan"}, "type": "electric_scooter", "name": "1d0631032e963e1847bbb56762aaea8d", "is_reserved": 0, "lon": -77.03183733333333, "is_disabled": 0, "fusion_lat": 0.0, "lat": 38.90823616666667, "bike_id": "1d0631032e963e1847bbb56762aaea8d", "fusion_lon": 0.0}, {"rental_uris": {"ios": "https://dc.lft.to/lastmile_qr_scan", "android": "https://dc.lft.to/lastmile_qr_scan"}, "type": "electric_scooter", "name": "6e92e6b7ac4ac28d324e17c373a78d98", "is_reserved": 0, "lon": -77.0362015, "is_disabled": 0, "fusion_lat": 0.0, "lat": 38.942915666666664, "bike_id": "6e92e6b7ac4ac28d324e17c373a78d98", "fusion_lon": 0.0}, {"rental_uris": {"ios": "https://dc.lft.to/lastmile_qr_scan", "android": "https://dc.lft.to/lastmile_qr_scan"}, "type": "electric_bike", "name": "f5b5d7bf776ac1cc09f86415325f0080", "is_reserved": 0, "lon": -77.01912366666667, "is_disabled": 0, "fusion_lat": 0.0, "lat": 38.97686916666667, "bike_id": "f5b5d7bf776ac1cc09f86415325f0080", "fusion_lon": 0.0}, {"rental_uris": {"ios": "https://dc.lft.to/lastmile_qr_scan", "android": "https://dc.lft.to/lastmile_qr_scan"}, "type": "electric_scooter", "name": "c3e8dd0dcdab8dae68205be4489bf378", "is_reserved": 0, "lon": -77.02102366666666, "is_disabled": 0, "fusion_lat": 0.0, "lat": 38.96676766666667, "bike_id": "c3e8dd0dcdab8dae68205be4489bf378", "fusion_lon": 0.0}, {"rental_uris": {"ios": "https://dc.lft.to/lastmile_qr_scan", "android": "https://dc.lft.to/lastmile_qr_scan"}, "type": "electric_scooter", "name": "cf063cea557f9a8c4642986fd8d85610", "is_reserved": 0, "lon": -77.03008766666666, "is_disabled": 0, "fusion_lat": 0.0, "lat": 38.917164666666665, "bike_id": "cf063cea557f9a8c4642986fd8d85610", "fusion_lon": 0.0}, {"rental_uris": {"ios": "https://dc.lft.to/lastmile_qr_scan", "android": "https://dc.lft.to/lastmile_qr_scan"}, "type": "electric_scooter", "name": "e0b37ee2bb8807ce4a537e5689b1da62", "is_reserved": 0, "lon": -76.990323, "is_disabled": 0, "fusion_lat": 0.0, "lat": 38.8888245, "bike_id": "e0b37ee2bb8807ce4a537e5689b1da62", "fusion_lon": 0.0}, {"rental_uris": {"ios": "https://dc.lft.to/lastmile_qr_scan", "android": "https://dc.lft.to/lastmile_qr_scan"}, "type": "electric_scooter", "name": "b8e1946ba8fd9969c595c131c9e053e3", "is_reserved": 0, "lon": -76.988079, "is_disabled": 0, "fusion_lat": 0.0, "lat": 38.900357166666666, "bike_id": "b8e1946ba8fd9969c595c131c9e053e3", "fusion_lon": 0.0}, {"rental_uris": {"ios": "https://dc.lft.to/lastmile_qr_scan", "android": "https://dc.lft.to/lastmile_qr_scan"}, "type": "electric_scooter", "name": "225c0fd20505384e4671a0279460c0ac", "is_reserved": 0, "lon": -77.03872383333334, "is_disabled": 0, "fusion_lat": 0.0, "lat": 38.911172, "bike_id": "225c0fd20505384e4671a0279460c0ac", "fusion_lon": 0.0}, {"rental_uris": {"ios": "https://dc.lft.to/lastmile_qr_scan", "android": "https://dc.lft.to/lastmile_qr_scan"}, "type": "electric_scooter", "name": "31854ef93c7470c7a26ec6555988d026", "is_reserved": 0, "lon": -77.040719, "is_disabled": 0, "fusion_lat": 0.0, "lat": 38.914171, "bike_id": "31854ef93c7470c7a26ec6555988d026", "fusion_lon": 0.0}, {"rental_uris": {"ios": "https://dc.lft.to/lastmile_qr_scan", "android": "https://dc.lft.to/lastmile_qr_scan"}, "type": "electric_scooter", "name": "780867b2dc60e71645d5f13ae990a16e", "is_reserved": 0, "lon": -77.04499983333334, "is_disabled": 0, "fusion_lat": 0.0, "lat": 38.89622683333333, "bike_id": "780867b2dc60e71645d5f13ae990a16e", "fusion_lon": 0.0}, {"rental_uris": {"ios": "https://dc.lft.to/lastmile_qr_scan", "android": "https://dc.lft.to/lastmile_qr_scan"}, "type": "electric_scooter", "name": "da540950eaf394e0dd46782c4e6af8f5", "is_reserved": 0, "lon": -77.04268083333334, "is_disabled": 0, "fusion_lat": 0.0, "lat": 38.922441, "bike_id": "da540950eaf394e0dd46782c4e6af8f5", "fusion_lon": 0.0}, {"rental_uris": {"ios": "https://dc.lft.to/lastmile_qr_scan", "android": "https://dc.lft.to/lastmile_qr_scan"}, "type": "electric_scooter", "name": "c57ac68aa505ad899c1ad3bcffcb3d82", "is_reserved": 0, "lon": -76.98401866666667, "is_disabled": 0, "fusion_lat": 0.0, "lat": 38.925161333333335, "bike_id": "c57ac68aa505ad899c1ad3bcffcb3d82", "fusion_lon": 0.0}, {"rental_uris": {"ios": "https://dc.lft.to/lastmile_qr_scan", "android": "https://dc.lft.to/lastmile_qr_scan"}, "type": "electric_scooter", "name": "538a1fe2da38c77b0260f699496e8a65", "is_reserved": 0, "lon": -77.008717, "is_disabled": 0, "fusion_lat": 0.0, "lat": 38.912588, "bike_id": "538a1fe2da38c77b0260f699496e8a65", "fusion_lon": 0.0}, {"rental_uris": {"ios": "https://dc.lft.to/lastmile_qr_scan", "android": "https://dc.lft.to/lastmile_qr_scan"}, "type": "electric_scooter", "name": "b9afaae717a16632924ec1eb3188ea08", "is_reserved": 0, "lon": -76.99128333333333, "is_disabled": 0, "fusion_lat": 0.0, "lat": 38.90872816666667, "bike_id": "b9afaae717a16632924ec1eb3188ea08", "fusion_lon": 0.0}, {"rental_uris": {"ios": "https://dc.lft.to/lastmile_qr_scan", "android": "https://dc.lft.to/lastmile_qr_scan"}, "type": "electric_scooter", "name": "0396196734b85cac7fff53a225beba8d", "is_reserved": 0, "lon": -77.02053583333333, "is_disabled": 0, "fusion_lat": 0.0, "lat": 38.9224575, "bike_id": "0396196734b85cac7fff53a225beba8d", "fusion_lon": 0.0}, {"rental_uris": {"ios": "https://dc.lft.to/lastmile_qr_scan", "android": "https://dc.lft.to/lastmile_qr_scan"}, "type": "electric_scooter", "name": "3cb6ba8474a1e829c329a88656177a94", "is_reserved": 0, "lon": -77.03474583333333, "is_disabled": 0, "fusion_lat": 0.0, "lat": 38.93024666666667, "bike_id": "3cb6ba8474a1e829c329a88656177a94", "fusion_lon": 0.0}, {"rental_uris": {"ios": "https://dc.lft.to/lastmile_qr_scan", "android": "https://dc.lft.to/lastmile_qr_scan"}, "type": "electric_scooter", "name": "479bf6e623da48ce99fbb0781d61339b", "is_reserved": 0, "lon": -76.9941035, "is_disabled": 0, "fusion_lat": 0.0, "lat": 38.877862666666665, "bike_id": "479bf6e623da48ce99fbb0781d61339b", "fusion_lon": 0.0}, {"rental_uris": {"ios": "https://dc.lft.to/lastmile_qr_scan", "android": "https://dc.lft.to/lastmile_qr_scan"}, "type": "electric_bike", "name": "bc05be9f0f119b83274c9346148c1789", "is_reserved": 0, "lon": -76.88974966666666, "is_disabled": 0, "fusion_lat": 0.0, "lat": 39.0078385, "bike_id": "bc05be9f0f119b83274c9346148c1789", "fusion_lon": 0.0}, {"rental_uris": {"ios": "https://dc.lft.to/lastmile_qr_scan", "android": "https://dc.lft.to/lastmile_qr_scan"}, "type": "electric_scooter", "name": "27053ecc590cd22586f72e0a57b466f0", "is_reserved": 0, "lon": -77.038413, "is_disabled": 0, "fusion_lat": 0.0, "lat": 38.91092783333333, "bike_id": "27053ecc590cd22586f72e0a57b466f0", "fusion_lon": 0.0}, {"rental_uris": {"ios": "https://dc.lft.to/lastmile_qr_scan", "android": "https://dc.lft.to/lastmile_qr_scan"}, "type": "electric_scooter", "name": "13e928e942b4970b393c86de53060953", "is_reserved": 0, "lon": -77.03470116666666, "is_disabled": 0, "fusion_lat": 0.0, "lat": 38.9083005, "bike_id": "13e928e942b4970b393c86de53060953", "fusion_lon": 0.0}, {"rental_uris": {"ios": "https://dc.lft.to/lastmile_qr_scan", "android": "https://dc.lft.to/lastmile_qr_scan"}, "type": "electric_scooter", "name": "9f360355381595d9f56306cb3d77af11", "is_reserved": 0, "lon": -77.02875033333333, "is_disabled": 0, "fusion_lat": 0.0, "lat": 38.896552666666665, "bike_id": "9f360355381595d9f56306cb3d77af11", "fusion_lon": 0.0}, {"rental_uris": {"ios": "https://dc.lft.to/lastmile_qr_scan", "android": "https://dc.lft.to/lastmile_qr_scan"}, "type": "electric_scooter", "name": "c28d3802c0b6772c651f84e58fa2ea37", "is_reserved": 0, "lon": -77.0176815, "is_disabled": 0, "fusion_lat": 0.0, "lat": 38.887272333333335, "bike_id": "c28d3802c0b6772c651f84e58fa2ea37", "fusion_lon": 0.0}, {"rental_uris": {"ios": "https://dc.lft.to/lastmile_qr_scan", "android": "https://dc.lft.to/lastmile_qr_scan"}, "type": "electric_scooter", "name": "9ce424f03fb7676da947e3c0fe501d84", "is_reserved": 0, "lon": -77.0447955, "is_disabled": 0, "fusion_lat": 0.0, "lat": 38.900540166666666, "bike_id": "9ce424f03fb7676da947e3c0fe501d84", "fusion_lon": 0.0}, {"rental_uris": {"ios": "https://dc.lft.to/lastmile_qr_scan", "android": "https://dc.lft.to/lastmile_qr_scan"}, "type": "electric_scooter", "name": "31b70c83e877ce47b9d7b15467242f47", "is_reserved": 0, "lon": -77.06767166666667, "is_disabled": 0, "fusion_lat": 0.0, "lat": 38.904025833333336, "bike_id": "31b70c83e877ce47b9d7b15467242f47", "fusion_lon": 0.0}, {"rental_uris": {"ios": "https://dc.lft.to/lastmile_qr_scan", "android": "https://dc.lft.to/lastmile_qr_scan"}, "type": "electric_scooter", "name": "2390271125936739771af28fde9bae34", "is_reserved": 0, "lon": -77.04494716666666, "is_disabled": 0, "fusion_lat": 0.0, "lat": 38.914431, "bike_id": "2390271125936739771af28fde9bae34", "fusion_lon": 0.0}, {"rental_uris": {"ios": "https://dc.lft.to/lastmile_qr_scan", "android": "https://dc.lft.to/lastmile_qr_scan"}, "type": "electric_scooter", "name": "cbc453ee87d133b818ddf23fb419cda2", "is_reserved": 0, "lon": -77.05023066666666, "is_disabled": 0, "fusion_lat": 0.0, "lat": 38.92355, "bike_id": "cbc453ee87d133b818ddf23fb419cda2", "fusion_lon": 0.0}, {"rental_uris": {"ios": "https://dc.lft.to/lastmile_qr_scan", "android": "https://dc.lft.to/lastmile_qr_scan"}, "type": "electric_scooter", "name": "56ae582197da73faebe2794af828bcc3", "is_reserved": 0, "lon": -77.0626035, "is_disabled": 0, "fusion_lat": 0.0, "lat": 38.905133166666666, "bike_id": "56ae582197da73faebe2794af828bcc3", "fusion_lon": 0.0}, {"rental_uris": {"ios": "https://dc.lft.to/lastmile_qr_scan", "android": "https://dc.lft.to/lastmile_qr_scan"}, "type": "electric_scooter", "name": "f0a42054c8826451dba3e0f155199643", "is_reserved": 0, "lon": -77.00045216666666, "is_disabled": 0, "fusion_lat": 0.0, "lat": 38.87499066666667, "bike_id": "f0a42054c8826451dba3e0f155199643", "fusion_lon": 0.0}, {"rental_uris": {"ios": "https://dc.lft.to/lastmile_qr_scan", "android": "https://dc.lft.to/lastmile_qr_scan"}, "type": "electric_scooter", "name": "7ff885732e5d9a4cb9bacf514af65722", "is_reserved": 0, "lon": -77.0588295, "is_disabled": 0, "fusion_lat": 0.0, "lat": 38.90446633333333, "bike_id": "7ff885732e5d9a4cb9bacf514af65722", "fusion_lon": 0.0}, {"rental_uris": {"ios": "https://dc.lft.to/lastmile_qr_scan", "android": "https://dc.lft.to/lastmile_qr_scan"}, "type": "electric_scooter", "name": "4a98dabb4d7530320c4cba88439aa2ee", "is_reserved": 0, "lon": -77.0609635, "is_disabled": 0, "fusion_lat": 0.0, "lat": 38.902477166666664, "bike_id": "4a98dabb4d7530320c4cba88439aa2ee", "fusion_lon": 0.0}, {"rental_uris": {"ios": "https://dc.lft.to/lastmile_qr_scan", "android": "https://dc.lft.to/lastmile_qr_scan"}, "type": "electric_scooter", "name": "a9a40ba9f5399cd208a0369d6b24e3fb", "is_reserved": 0, "lon": -77.0092885, "is_disabled": 0, "fusion_lat": 0.0, "lat": 38.896372, "bike_id": "a9a40ba9f5399cd208a0369d6b24e3fb", "fusion_lon": 0.0}, {"rental_uris": {"ios": "https://dc.lft.to/lastmile_qr_scan", "android": "https://dc.lft.to/lastmile_qr_scan"}, "type": "electric_scooter", "name": "e23302c11012fe583c35591612f41b56", "is_reserved": 0, "lon": -77.028759, "is_disabled": 0, "fusion_lat": 0.0, "lat": 38.90367033333333, "bike_id": "e23302c11012fe583c35591612f41b56", "fusion_lon": 0.0}, {"rental_uris": {"ios": "https://dc.lft.to/lastmile_qr_scan", "android": "https://dc.lft.to/lastmile_qr_scan"}, "type": "electric_scooter", "name": "7f40e6aa277bcdd490fbc34c8f7b67a1", "is_reserved": 0, "lon": -77.01123216666667, "is_disabled": 0, "fusion_lat": 0.0, "lat": 38.916149, "bike_id": "7f40e6aa277bcdd490fbc34c8f7b67a1", "fusion_lon": 0.0}, {"rental_uris": {"ios": "https://dc.lft.to/lastmile_qr_scan", "android": "https://dc.lft.to/lastmile_qr_scan"}, "type": "electric_scooter", "name": "4281138d8b5c0fc18d464c5b5cd7fb45", "is_reserved": 0, "lon": -77.04347983333334, "is_disabled": 0, "fusion_lat": 0.0, "lat": 38.91048333333333, "bike_id": "4281138d8b5c0fc18d464c5b5cd7fb45", "fusion_lon": 0.0}, {"rental_uris": {"ios": "https://dc.lft.to/lastmile_qr_scan", "android": "https://dc.lft.to/lastmile_qr_scan"}, "type": "electric_scooter", "name": "593260ad849475ab3cf4e43604fd51ef", "is_reserved": 0, "lon": -77.029372, "is_disabled": 0, "fusion_lat": 0.0, "lat": 38.915503666666666, "bike_id": "593260ad849475ab3cf4e43604fd51ef", "fusion_lon": 0.0}, {"rental_uris": {"ios": "https://dc.lft.to/lastmile_qr_scan", "android": "https://dc.lft.to/lastmile_qr_scan"}, "type": "electric_scooter", "name": "4dd2ae6e7b78298495c5da8f292f49d8", "is_reserved": 0, "lon": -77.01451, "is_disabled": 0, "fusion_lat": 0.0, "lat": 38.926584166666665, "bike_id": "4dd2ae6e7b78298495c5da8f292f49d8", "fusion_lon": 0.0}, {"rental_uris": {"ios": "https://dc.lft.to/lastmile_qr_scan", "android": "https://dc.lft.to/lastmile_qr_scan"}, "type": "electric_scooter", "name": "71825a2cccdebc653bb5b295bdaf341d", "is_reserved": 0, "lon": -77.03841716666666, "is_disabled": 0, "fusion_lat": 0.0, "lat": 38.910903166666664, "bike_id": "71825a2cccdebc653bb5b295bdaf341d", "fusion_lon": 0.0}, {"rental_uris": {"ios": "https://dc.lft.to/lastmile_qr_scan", "android": "https://dc.lft.to/lastmile_qr_scan"}, "type": "electric_scooter", "name": "c7632a251d4241321a73e4f4cfa0076d", "is_reserved": 0, "lon": -77.01218333333334, "is_disabled": 0, "fusion_lat": 0.0, "lat": 38.876661, "bike_id": "c7632a251d4241321a73e4f4cfa0076d", "fusion_lon": 0.0}, {"rental_uris": {"ios": "https://dc.lft.to/lastmile_qr_scan", "android": "https://dc.lft.to/lastmile_qr_scan"}, "type": "electric_scooter", "name": "b247fdbcfaaf81dbd99abaf10d59fbe5", "is_reserved": 0, "lon": -77.0078445, "is_disabled": 0, "fusion_lat": 0.0, "lat": 38.878976, "bike_id": "b247fdbcfaaf81dbd99abaf10d59fbe5", "fusion_lon": 0.0}, {"rental_uris": {"ios": "https://dc.lft.to/lastmile_qr_scan", "android": "https://dc.lft.to/lastmile_qr_scan"}, "type": "electric_scooter", "name": "9da085092f830401a47ea919f538bd1c", "is_reserved": 0, "lon": -77.03845, "is_disabled": 0, "fusion_lat": 0.0, "lat": 38.911765, "bike_id": "9da085092f830401a47ea919f538bd1c", "fusion_lon": 0.0}, {"rental_uris": {"ios": "https://dc.lft.to/lastmile_qr_scan", "android": "https://dc.lft.to/lastmile_qr_scan"}, "type": "electric_scooter", "name": "968ef759aaf1eade1850d86007278e49", "is_reserved": 0, "lon": -77.03341983333334, "is_disabled": 0, "fusion_lat": 0.0, "lat": 38.91707433333333, "bike_id": "968ef759aaf1eade1850d86007278e49", "fusion_lon": 0.0}, {"rental_uris": {"ios": "https://dc.lft.to/lastmile_qr_scan", "android": "https://dc.lft.to/lastmile_qr_scan"}, "type": "electric_scooter", "name": "540c9b24aac9023d31ee08bae94d3d69", "is_reserved": 0, "lon": -77.03271083333334, "is_disabled": 0, "fusion_lat": 0.0, "lat": 38.898857, "bike_id": "540c9b24aac9023d31ee08bae94d3d69", "fusion_lon": 0.0}, {"rental_uris": {"ios": "https://dc.lft.to/lastmile_qr_scan", "android": "https://dc.lft.to/lastmile_qr_scan"}, "type": "electric_scooter", "name": "3a7ca9e893df362cc448a873c42731bb", "is_reserved": 0, "lon": -77.06527233333334, "is_disabled": 0, "fusion_lat": 0.0, "lat": 38.90516916666667, "bike_id": "3a7ca9e893df362cc448a873c42731bb", "fusion_lon": 0.0}, {"rental_uris": {"ios": "https://dc.lft.to/lastmile_qr_scan", "android": "https://dc.lft.to/lastmile_qr_scan"}, "type": "electric_scooter", "name": "1a8d030671d74e3eb421ce6ea5af38ed", "is_reserved": 0, "lon": -77.02971783333334, "is_disabled": 0, "fusion_lat": 0.0, "lat": 38.91911133333333, "bike_id": "1a8d030671d74e3eb421ce6ea5af38ed", "fusion_lon": 0.0}, {"rental_uris": {"ios": "https://dc.lft.to/lastmile_qr_scan", "android": "https://dc.lft.to/lastmile_qr_scan"}, "type": "electric_bike", "name": "74163b053d8e6f96307bd83d1bcabfa9", "is_reserved": 0, "lon": -77.22189133333333, "is_disabled": 0, "fusion_lat": 0.0, "lat": 38.8717385, "bike_id": "74163b053d8e6f96307bd83d1bcabfa9", "fusion_lon": 0.0}, {"rental_uris": {"ios": "https://dc.lft.to/lastmile_qr_scan", "android": "https://dc.lft.to/lastmile_qr_scan"}, "type": "electric_scooter", "name": "64618fafff4cd08e8f91f947f21d452e", "is_reserved": 0, "lon": -77.03816383333333, "is_disabled": 0, "fusion_lat": 0.0, "lat": 38.91420083333333, "bike_id": "64618fafff4cd08e8f91f947f21d452e", "fusion_lon": 0.0}, {"rental_uris": {"ios": "https://dc.lft.to/lastmile_qr_scan", "android": "https://dc.lft.to/lastmile_qr_scan"}, "type": "electric_scooter", "name": "9fbcfbddf13084f598c4e86d243d181c", "is_reserved": 0, "lon": -76.99157483333333, "is_disabled": 0, "fusion_lat": 0.0, "lat": 38.9004195, "bike_id": "9fbcfbddf13084f598c4e86d243d181c", "fusion_lon": 0.0}, {"rental_uris": {"ios": "https://dc.lft.to/lastmile_qr_scan", "android": "https://dc.lft.to/lastmile_qr_scan"}, "type": "electric_scooter", "name": "97477df72b142e8f61425773e0121492", "is_reserved": 0, "lon": -77.00385166666666, "is_disabled": 0, "fusion_lat": 0.0, "lat": 38.9075275, "bike_id": "97477df72b142e8f61425773e0121492", "fusion_lon": 0.0}, {"rental_uris": {"ios": "https://dc.lft.to/lastmile_qr_scan", "android": "https://dc.lft.to/lastmile_qr_scan"}, "type": "electric_scooter", "name": "193f0584de3f698b36f36a2c3c246bdb", "is_reserved": 0, "lon": -77.01017366666666, "is_disabled": 0, "fusion_lat": 0.0, "lat": 38.91409066666667, "bike_id": "193f0584de3f698b36f36a2c3c246bdb", "fusion_lon": 0.0}, {"rental_uris": {"ios": "https://dc.lft.to/lastmile_qr_scan", "android": "https://dc.lft.to/lastmile_qr_scan"}, "type": "electric_scooter", "name": "1b78f16e8e9227dd383fc71696975542", "is_reserved": 0, "lon": -77.02693433333333, "is_disabled": 0, "fusion_lat": 0.0, "lat": 38.91151133333334, "bike_id": "1b78f16e8e9227dd383fc71696975542", "fusion_lon": 0.0}, {"rental_uris": {"ios": "https://dc.lft.to/lastmile_qr_scan", "android": "https://dc.lft.to/lastmile_qr_scan"}, "type": "electric_scooter", "name": "e60eb382ff0e4a298b571f337c58d8c3", "is_reserved": 0, "lon": -77.02005966666667, "is_disabled": 0, "fusion_lat": 0.0, "lat": 38.898255, "bike_id": "e60eb382ff0e4a298b571f337c58d8c3", "fusion_lon": 0.0}, {"rental_uris": {"ios": "https://dc.lft.to/lastmile_qr_scan", "android": "https://dc.lft.to/lastmile_qr_scan"}, "type": "electric_scooter", "name": "49ac27eedec4bd9bc840dd7843ed4942", "is_reserved": 0, "lon": -77.04235033333333, "is_disabled": 0, "fusion_lat": 0.0, "lat": 38.92197616666667, "bike_id": "49ac27eedec4bd9bc840dd7843ed4942", "fusion_lon": 0.0}, {"rental_uris": {"ios": "https://dc.lft.to/lastmile_qr_scan", "android": "https://dc.lft.to/lastmile_qr_scan"}, "type": "electric_scooter", "name": "1ed5c98decab23875d70052cebee63ef", "is_reserved": 0, "lon": -77.03354783333333, "is_disabled": 0, "fusion_lat": 0.0, "lat": 38.93051216666667, "bike_id": "1ed5c98decab23875d70052cebee63ef", "fusion_lon": 0.0}, {"rental_uris": {"ios": "https://dc.lft.to/lastmile_qr_scan", "android": "https://dc.lft.to/lastmile_qr_scan"}, "type": "electric_scooter", "name": "8e4cff21761d9a0a8f0f7b39c003cbef", "is_reserved": 0, "lon": -77.055958, "is_disabled": 0, "fusion_lat": 0.0, "lat": 38.894268, "bike_id": "8e4cff21761d9a0a8f0f7b39c003cbef", "fusion_lon": 0.0}, {"rental_uris": {"ios": "https://dc.lft.to/lastmile_qr_scan", "android": "https://dc.lft.to/lastmile_qr_scan"}, "type": "electric_scooter", "name": "d524421f37b571be1608758f52cc7bdd", "is_reserved": 0, "lon": -77.03289933333333, "is_disabled": 0, "fusion_lat": 0.0, "lat": 38.924441333333334, "bike_id": "d524421f37b571be1608758f52cc7bdd", "fusion_lon": 0.0}, {"rental_uris": {"ios": "https://dc.lft.to/lastmile_qr_scan", "android": "https://dc.lft.to/lastmile_qr_scan"}, "type": "electric_scooter", "name": "6e032019eba97e48a3879fdcd7e96c3e", "is_reserved": 0, "lon": -77.0209235, "is_disabled": 0, "fusion_lat": 0.0, "lat": 38.9271945, "bike_id": "6e032019eba97e48a3879fdcd7e96c3e", "fusion_lon": 0.0}, {"rental_uris": {"ios": "https://dc.lft.to/lastmile_qr_scan", "android": "https://dc.lft.to/lastmile_qr_scan"}, "type": "electric_scooter", "name": "6b02a50c688f36521f717f5973a67e39", "is_reserved": 0, "lon": -77.02145366666667, "is_disabled": 0, "fusion_lat": 0.0, "lat": 38.9132615, "bike_id": "6b02a50c688f36521f717f5973a67e39", "fusion_lon": 0.0}, {"rental_uris": {"ios": "https://dc.lft.to/lastmile_qr_scan", "android": "https://dc.lft.to/lastmile_qr_scan"}, "type": "electric_scooter", "name": "016fe8771bb61b018dd35aad739dc03b", "is_reserved": 0, "lon": -77.03056766666667, "is_disabled": 0, "fusion_lat": 0.0, "lat": 38.90959983333333, "bike_id": "016fe8771bb61b018dd35aad739dc03b", "fusion_lon": 0.0}, {"rental_uris": {"ios": "https://dc.lft.to/lastmile_qr_scan", "android": "https://dc.lft.to/lastmile_qr_scan"}, "type": "electric_scooter", "name": "6e2f81407edfd53ef5296e0003899f00", "is_reserved": 0, "lon": -77.0135445, "is_disabled": 0, "fusion_lat": 0.0, "lat": 38.919421666666665, "bike_id": "6e2f81407edfd53ef5296e0003899f00", "fusion_lon": 0.0}, {"rental_uris": {"ios": "https://dc.lft.to/lastmile_qr_scan", "android": "https://dc.lft.to/lastmile_qr_scan"}, "type": "electric_scooter", "name": "c8a30b6b8f35fc88673f38aef7dd8ef9", "is_reserved": 0, "lon": -76.99419516666667, "is_disabled": 0, "fusion_lat": 0.0, "lat": 38.91693333333333, "bike_id": "c8a30b6b8f35fc88673f38aef7dd8ef9", "fusion_lon": 0.0}, {"rental_uris": {"ios": "https://dc.lft.to/lastmile_qr_scan", "android": "https://dc.lft.to/lastmile_qr_scan"}, "type": "electric_scooter", "name": "7cbbaaa368010056121fb62e2100ef8e", "is_reserved": 0, "lon": -77.0473455, "is_disabled": 0, "fusion_lat": 0.0, "lat": 38.895534166666664, "bike_id": "7cbbaaa368010056121fb62e2100ef8e", "fusion_lon": 0.0}, {"rental_uris": {"ios": "https://dc.lft.to/lastmile_qr_scan", "android": "https://dc.lft.to/lastmile_qr_scan"}, "type": "electric_scooter", "name": "f29326becf3f0c793e3d976d845644dd", "is_reserved": 0, "lon": -77.03826133333334, "is_disabled": 0, "fusion_lat": 0.0, "lat": 38.96261616666666, "bike_id": "f29326becf3f0c793e3d976d845644dd", "fusion_lon": 0.0}, {"rental_uris": {"ios": "https://dc.lft.to/lastmile_qr_scan", "android": "https://dc.lft.to/lastmile_qr_scan"}, "type": "electric_scooter", "name": "353044f5d2cf9421ab6e23de06014f8a", "is_reserved": 0, "lon": -77.02512433333334, "is_disabled": 0, "fusion_lat": 0.0, "lat": 38.91797066666667, "bike_id": "353044f5d2cf9421ab6e23de06014f8a", "fusion_lon": 0.0}, {"rental_uris": {"ios": "https://dc.lft.to/lastmile_qr_scan", "android": "https://dc.lft.to/lastmile_qr_scan"}, "type": "electric_scooter", "name": "18536cc50da39c41c9b18709ec8d6303", "is_reserved": 0, "lon": -77.03847483333334, "is_disabled": 0, "fusion_lat": 0.0, "lat": 38.9131395, "bike_id": "18536cc50da39c41c9b18709ec8d6303", "fusion_lon": 0.0}, {"rental_uris": {"ios": "https://dc.lft.to/lastmile_qr_scan", "android": "https://dc.lft.to/lastmile_qr_scan"}, "type": "electric_scooter", "name": "077d06c58228b6493a8ed2ebf64bc912", "is_reserved": 0, "lon": -77.04668183333334, "is_disabled": 0, "fusion_lat": 0.0, "lat": 38.921216666666666, "bike_id": "077d06c58228b6493a8ed2ebf64bc912", "fusion_lon": 0.0}, {"rental_uris": {"ios": "https://dc.lft.to/lastmile_qr_scan", "android": "https://dc.lft.to/lastmile_qr_scan"}, "type": "electric_scooter", "name": "0b657d8864a8f61f259f996d44640eff", "is_reserved": 0, "lon": -77.02644816666667, "is_disabled": 0, "fusion_lat": 0.0, "lat": 38.88123016666667, "bike_id": "0b657d8864a8f61f259f996d44640eff", "fusion_lon": 0.0}, {"rental_uris": {"ios": "https://dc.lft.to/lastmile_qr_scan", "android": "https://dc.lft.to/lastmile_qr_scan"}, "type": "electric_scooter", "name": "a12956448fd21ade0692e920032c9345", "is_reserved": 0, "lon": -77.01884716666666, "is_disabled": 0, "fusion_lat": 0.0, "lat": 38.90708583333333, "bike_id": "a12956448fd21ade0692e920032c9345", "fusion_lon": 0.0}, {"rental_uris": {"ios": "https://dc.lft.to/lastmile_qr_scan", "android": "https://dc.lft.to/lastmile_qr_scan"}, "type": "electric_scooter", "name": "17af9ebccd735c603805e17ab04102ee", "is_reserved": 0, "lon": -77.00346416666666, "is_disabled": 0, "fusion_lat": 0.0, "lat": 38.896441333333335, "bike_id": "17af9ebccd735c603805e17ab04102ee", "fusion_lon": 0.0}, {"rental_uris": {"ios": "https://dc.lft.to/lastmile_qr_scan", "android": "https://dc.lft.to/lastmile_qr_scan"}, "type": "electric_scooter", "name": "5cf945e2ba7053ae003d41dde3be672e", "is_reserved": 0, "lon": -77.01223383333334, "is_disabled": 0, "fusion_lat": 0.0, "lat": 38.90158483333333, "bike_id": "5cf945e2ba7053ae003d41dde3be672e", "fusion_lon": 0.0}, {"rental_uris": {"ios": "https://dc.lft.to/lastmile_qr_scan", "android": "https://dc.lft.to/lastmile_qr_scan"}, "type": "electric_scooter", "name": "f240e9150c1d2ad571dba84da17529af", "is_reserved": 0, "lon": -76.97355933333333, "is_disabled": 0, "fusion_lat": 0.0, "lat": 38.8500545, "bike_id": "f240e9150c1d2ad571dba84da17529af", "fusion_lon": 0.0}, {"rental_uris": {"ios": "https://dc.lft.to/lastmile_qr_scan", "android": "https://dc.lft.to/lastmile_qr_scan"}, "type": "electric_scooter", "name": "4c63416f79a728f5b24768bae8e3afa5", "is_reserved": 0, "lon": -76.98321833333333, "is_disabled": 0, "fusion_lat": 0.0, "lat": 38.878343, "bike_id": "4c63416f79a728f5b24768bae8e3afa5", "fusion_lon": 0.0}, {"rental_uris": {"ios": "https://dc.lft.to/lastmile_qr_scan", "android": "https://dc.lft.to/lastmile_qr_scan"}, "type": "electric_scooter", "name": "fc4f73e015b0f225be18d28e818b5234", "is_reserved": 0, "lon": -77.03842383333334, "is_disabled": 0, "fusion_lat": 0.0, "lat": 38.90381, "bike_id": "fc4f73e015b0f225be18d28e818b5234", "fusion_lon": 0.0}, {"rental_uris": {"ios": "https://dc.lft.to/lastmile_qr_scan", "android": "https://dc.lft.to/lastmile_qr_scan"}, "type": "electric_scooter", "name": "c5e1b411a7065146fca4c6da1ec7d17b", "is_reserved": 0, "lon": -77.017686, "is_disabled": 0, "fusion_lat": 0.0, "lat": 38.88725683333333, "bike_id": "c5e1b411a7065146fca4c6da1ec7d17b", "fusion_lon": 0.0}, {"rental_uris": {"ios": "https://dc.lft.to/lastmile_qr_scan", "android": "https://dc.lft.to/lastmile_qr_scan"}, "type": "electric_scooter", "name": "6f68875faaefb4fb53f596c389b3a593", "is_reserved": 0, "lon": -76.98911183333334, "is_disabled": 0, "fusion_lat": 0.0, "lat": 38.900098, "bike_id": "6f68875faaefb4fb53f596c389b3a593", "fusion_lon": 0.0}, {"rental_uris": {"ios": "https://dc.lft.to/lastmile_qr_scan", "android": "https://dc.lft.to/lastmile_qr_scan"}, "type": "electric_scooter", "name": "618c5d66b1fb710f2551829490700578", "is_reserved": 0, "lon": -76.987028, "is_disabled": 0, "fusion_lat": 0.0, "lat": 38.85961, "bike_id": "618c5d66b1fb710f2551829490700578", "fusion_lon": 0.0}, {"rental_uris": {"ios": "https://dc.lft.to/lastmile_qr_scan", "android": "https://dc.lft.to/lastmile_qr_scan"}, "type": "electric_scooter", "name": "e9e12188b28967a55521cd6bd6b64460", "is_reserved": 0, "lon": -77.02716466666666, "is_disabled": 0, "fusion_lat": 0.0, "lat": 38.91017766666667, "bike_id": "e9e12188b28967a55521cd6bd6b64460", "fusion_lon": 0.0}, {"rental_uris": {"ios": "https://dc.lft.to/lastmile_qr_scan", "android": "https://dc.lft.to/lastmile_qr_scan"}, "type": "electric_bike", "name": "59e63bd94633a2ae9d64c82e0cd3675e", "is_reserved": 0, "lon": -77.05498866666667, "is_disabled": 0, "fusion_lat": 0.0, "lat": 38.90849466666667, "bike_id": "59e63bd94633a2ae9d64c82e0cd3675e", "fusion_lon": 0.0}, {"rental_uris": {"ios": "https://dc.lft.to/lastmile_qr_scan", "android": "https://dc.lft.to/lastmile_qr_scan"}, "type": "electric_scooter", "name": "344f12512a6e9f8746a84ede20cb2ff3", "is_reserved": 0, "lon": -77.04135033333333, "is_disabled": 0, "fusion_lat": 0.0, "lat": 38.93047083333333, "bike_id": "344f12512a6e9f8746a84ede20cb2ff3", "fusion_lon": 0.0}, {"rental_uris": {"ios": "https://dc.lft.to/lastmile_qr_scan", "android": "https://dc.lft.to/lastmile_qr_scan"}, "type": "electric_scooter", "name": "593e4d8fedddaa338cb7785b76baf1b1", "is_reserved": 0, "lon": -77.0425015, "is_disabled": 0, "fusion_lat": 0.0, "lat": 38.922363, "bike_id": "593e4d8fedddaa338cb7785b76baf1b1", "fusion_lon": 0.0}, {"rental_uris": {"ios": "https://dc.lft.to/lastmile_qr_scan", "android": "https://dc.lft.to/lastmile_qr_scan"}, "type": "electric_scooter", "name": "2422eff0caabdf832ce218ff3ae7a72a", "is_reserved": 0, "lon": -77.03022116666666, "is_disabled": 0, "fusion_lat": 0.0, "lat": 38.8785, "bike_id": "2422eff0caabdf832ce218ff3ae7a72a", "fusion_lon": 0.0}, {"rental_uris": {"ios": "https://dc.lft.to/lastmile_qr_scan", "android": "https://dc.lft.to/lastmile_qr_scan"}, "type": "electric_scooter", "name": "090bed0c8e2d1a59a4849350285d2dd6", "is_reserved": 0, "lon": -77.00736666666667, "is_disabled": 0, "fusion_lat": 0.0, "lat": 38.898855833333336, "bike_id": "090bed0c8e2d1a59a4849350285d2dd6", "fusion_lon": 0.0}, {"rental_uris": {"ios": "https://dc.lft.to/lastmile_qr_scan", "android": "https://dc.lft.to/lastmile_qr_scan"}, "type": "electric_scooter", "name": "01514f36d04a88d4e66a7d6507dadf1f", "is_reserved": 0, "lon": -77.0578995, "is_disabled": 0, "fusion_lat": 0.0, "lat": 38.934803, "bike_id": "01514f36d04a88d4e66a7d6507dadf1f", "fusion_lon": 0.0}, {"rental_uris": {"ios": "https://dc.lft.to/lastmile_qr_scan", "android": "https://dc.lft.to/lastmile_qr_scan"}, "type": "electric_bike", "name": "8c7bdf357ff4d95e578436659e87eacc", "is_reserved": 0, "lon": -76.99494633333333, "is_disabled": 0, "fusion_lat": 0.0, "lat": 38.862209, "bike_id": "8c7bdf357ff4d95e578436659e87eacc", "fusion_lon": 0.0}, {"rental_uris": {"ios": "https://dc.lft.to/lastmile_qr_scan", "android": "https://dc.lft.to/lastmile_qr_scan"}, "type": "electric_scooter", "name": "799191584d5e54c23273df66fae1c257", "is_reserved": 0, "lon": -77.0257925, "is_disabled": 0, "fusion_lat": 0.0, "lat": 38.88727633333333, "bike_id": "799191584d5e54c23273df66fae1c257", "fusion_lon": 0.0}, {"rental_uris": {"ios": "https://dc.lft.to/lastmile_qr_scan", "android": "https://dc.lft.to/lastmile_qr_scan"}, "type": "electric_scooter", "name": "4329617549b1aa528835b1e330654c24", "is_reserved": 0, "lon": -77.011651, "is_disabled": 0, "fusion_lat": 0.0, "lat": 38.9073165, "bike_id": "4329617549b1aa528835b1e330654c24", "fusion_lon": 0.0}, {"rental_uris": {"ios": "https://dc.lft.to/lastmile_qr_scan", "android": "https://dc.lft.to/lastmile_qr_scan"}, "type": "electric_scooter", "name": "92dda5c06a564414945941a3456b9672", "is_reserved": 0, "lon": -77.013754, "is_disabled": 0, "fusion_lat": 0.0, "lat": 38.886764, "bike_id": "92dda5c06a564414945941a3456b9672", "fusion_lon": 0.0}, {"rental_uris": {"ios": "https://dc.lft.to/lastmile_qr_scan", "android": "https://dc.lft.to/lastmile_qr_scan"}, "type": "electric_scooter", "name": "2db20f50552b96336291fcd253b97ea6", "is_reserved": 0, "lon": -77.03235916666667, "is_disabled": 0, "fusion_lat": 0.0, "lat": 38.915600833333336, "bike_id": "2db20f50552b96336291fcd253b97ea6", "fusion_lon": 0.0}, {"rental_uris": {"ios": "https://dc.lft.to/lastmile_qr_scan", "android": "https://dc.lft.to/lastmile_qr_scan"}, "type": "electric_scooter", "name": "fd456e1780fc9d2f8ff200b0b26d120e", "is_reserved": 0, "lon": -77.0456525, "is_disabled": 0, "fusion_lat": 0.0, "lat": 38.91409083333333, "bike_id": "fd456e1780fc9d2f8ff200b0b26d120e", "fusion_lon": 0.0}, {"rental_uris": {"ios": "https://dc.lft.to/lastmile_qr_scan", "android": "https://dc.lft.to/lastmile_qr_scan"}, "type": "electric_bike", "name": "1fd409bd5ee224e7c240ba077a840bbe", "is_reserved": 0, "lon": -76.907407, "is_disabled": 0, "fusion_lat": 0.0, "lat": 38.89619, "bike_id": "1fd409bd5ee224e7c240ba077a840bbe", "fusion_lon": 0.0}, {"rental_uris": {"ios": "https://dc.lft.to/lastmile_qr_scan", "android": "https://dc.lft.to/lastmile_qr_scan"}, "type": "electric_scooter", "name": "fec516f8e016a82a16ce9eef63105ec6", "is_reserved": 0, "lon": -77.0505415, "is_disabled": 0, "fusion_lat": 0.0, "lat": 38.92582983333333, "bike_id": "fec516f8e016a82a16ce9eef63105ec6", "fusion_lon": 0.0}, {"rental_uris": {"ios": "https://dc.lft.to/lastmile_qr_scan", "android": "https://dc.lft.to/lastmile_qr_scan"}, "type": "electric_scooter", "name": "99d2adba2e21e8e97a02b08dec30e6b2", "is_reserved": 0, "lon": -77.03156783333333, "is_disabled": 0, "fusion_lat": 0.0, "lat": 38.916121833333335, "bike_id": "99d2adba2e21e8e97a02b08dec30e6b2", "fusion_lon": 0.0}, {"rental_uris": {"ios": "https://dc.lft.to/lastmile_qr_scan", "android": "https://dc.lft.to/lastmile_qr_scan"}, "type": "electric_scooter", "name": "e6d205910c07882830eff0bc1c4ac568", "is_reserved": 0, "lon": -77.03214883333334, "is_disabled": 0, "fusion_lat": 0.0, "lat": 38.892330333333334, "bike_id": "e6d205910c07882830eff0bc1c4ac568", "fusion_lon": 0.0}, {"rental_uris": {"ios": "https://dc.lft.to/lastmile_qr_scan", "android": "https://dc.lft.to/lastmile_qr_scan"}, "type": "electric_scooter", "name": "c4a7b579661754ccd2b112c174f879dd", "is_reserved": 0, "lon": -77.02094516666666, "is_disabled": 0, "fusion_lat": 0.0, "lat": 38.88740833333333, "bike_id": "c4a7b579661754ccd2b112c174f879dd", "fusion_lon": 0.0}, {"rental_uris": {"ios": "https://dc.lft.to/lastmile_qr_scan", "android": "https://dc.lft.to/lastmile_qr_scan"}, "type": "electric_scooter", "name": "d9e6ef513cb2ea098c368ecc794b4866", "is_reserved": 0, "lon": -76.92988483333333, "is_disabled": 0, "fusion_lat": 0.0, "lat": 38.89294066666667, "bike_id": "d9e6ef513cb2ea098c368ecc794b4866", "fusion_lon": 0.0}, {"rental_uris": {"ios": "https://dc.lft.to/lastmile_qr_scan", "android": "https://dc.lft.to/lastmile_qr_scan"}, "type": "electric_scooter", "name": "bd1b2fd288d70eb4617b5cef5940904f", "is_reserved": 0, "lon": -76.97410216666667, "is_disabled": 0, "fusion_lat": 0.0, "lat": 38.901419, "bike_id": "bd1b2fd288d70eb4617b5cef5940904f", "fusion_lon": 0.0}, {"rental_uris": {"ios": "https://dc.lft.to/lastmile_qr_scan", "android": "https://dc.lft.to/lastmile_qr_scan"}, "type": "electric_bike", "name": "e87c98a603196784e7d153db0519ae7a", "is_reserved": 0, "lon": -77.08415566666666, "is_disabled": 0, "fusion_lat": 0.0, "lat": 38.86361683333333, "bike_id": "e87c98a603196784e7d153db0519ae7a", "fusion_lon": 0.0}, {"rental_uris": {"ios": "https://dc.lft.to/lastmile_qr_scan", "android": "https://dc.lft.to/lastmile_qr_scan"}, "type": "electric_scooter", "name": "16fe64aeda5dd60ee0a442e2a0720c58", "is_reserved": 0, "lon": -77.02790283333333, "is_disabled": 0, "fusion_lat": 0.0, "lat": 38.924813, "bike_id": "16fe64aeda5dd60ee0a442e2a0720c58", "fusion_lon": 0.0}, {"rental_uris": {"ios": "https://dc.lft.to/lastmile_qr_scan", "android": "https://dc.lft.to/lastmile_qr_scan"}, "type": "electric_bike", "name": "5490d0343dcb9d620ab0fca5dfed8037", "is_reserved": 0, "lon": -77.004961, "is_disabled": 0, "fusion_lat": 0.0, "lat": 38.9110325, "bike_id": "5490d0343dcb9d620ab0fca5dfed8037", "fusion_lon": 0.0}, {"rental_uris": {"ios": "https://dc.lft.to/lastmile_qr_scan", "android": "https://dc.lft.to/lastmile_qr_scan"}, "type": "electric_scooter", "name": "4670034ee3501605e77fd7397d0c3094", "is_reserved": 0, "lon": -77.00729783333334, "is_disabled": 0, "fusion_lat": 0.0, "lat": 38.8970795, "bike_id": "4670034ee3501605e77fd7397d0c3094", "fusion_lon": 0.0}, {"rental_uris": {"ios": "https://dc.lft.to/lastmile_qr_scan", "android": "https://dc.lft.to/lastmile_qr_scan"}, "type": "electric_scooter", "name": "f68924bb0089556990ed25a001c97f14", "is_reserved": 0, "lon": -77.00671816666667, "is_disabled": 0, "fusion_lat": 0.0, "lat": 38.89991083333334, "bike_id": "f68924bb0089556990ed25a001c97f14", "fusion_lon": 0.0}, {"rental_uris": {"ios": "https://dc.lft.to/lastmile_qr_scan", "android": "https://dc.lft.to/lastmile_qr_scan"}, "type": "electric_scooter", "name": "3953552f8867935120580daf69c28e47", "is_reserved": 0, "lon": -77.02195283333333, "is_disabled": 0, "fusion_lat": 0.0, "lat": 38.89431883333334, "bike_id": "3953552f8867935120580daf69c28e47", "fusion_lon": 0.0}, {"rental_uris": {"ios": "https://dc.lft.to/lastmile_qr_scan", "android": "https://dc.lft.to/lastmile_qr_scan"}, "type": "electric_scooter", "name": "e3db6d04ef1d1ba59f437aa6e2053b07", "is_reserved": 0, "lon": -77.04653316666666, "is_disabled": 0, "fusion_lat": 0.0, "lat": 38.9055, "bike_id": "e3db6d04ef1d1ba59f437aa6e2053b07", "fusion_lon": 0.0}, {"rental_uris": {"ios": "https://dc.lft.to/lastmile_qr_scan", "android": "https://dc.lft.to/lastmile_qr_scan"}, "type": "electric_scooter", "name": "c594f28609e199325d7e032610913334", "is_reserved": 0, "lon": -77.02222216666667, "is_disabled": 0, "fusion_lat": 0.0, "lat": 38.92468616666667, "bike_id": "c594f28609e199325d7e032610913334", "fusion_lon": 0.0}, {"rental_uris": {"ios": "https://dc.lft.to/lastmile_qr_scan", "android": "https://dc.lft.to/lastmile_qr_scan"}, "type": "electric_scooter", "name": "d8b9d6694e5175de3950c53166728d87", "is_reserved": 0, "lon": -77.02679233333333, "is_disabled": 0, "fusion_lat": 0.0, "lat": 38.900472666666666, "bike_id": "d8b9d6694e5175de3950c53166728d87", "fusion_lon": 0.0}, {"rental_uris": {"ios": "https://dc.lft.to/lastmile_qr_scan", "android": "https://dc.lft.to/lastmile_qr_scan"}, "type": "electric_scooter", "name": "c046804f7a73eed83d144c285cb2511e", "is_reserved": 0, "lon": -77.02298066666667, "is_disabled": 0, "fusion_lat": 0.0, "lat": 38.9612675, "bike_id": "c046804f7a73eed83d144c285cb2511e", "fusion_lon": 0.0}, {"rental_uris": {"ios": "https://dc.lft.to/lastmile_qr_scan", "android": "https://dc.lft.to/lastmile_qr_scan"}, "type": "electric_scooter", "name": "d1c7da902eee1cf502499c7d6e30b283", "is_reserved": 0, "lon": -77.00595733333333, "is_disabled": 0, "fusion_lat": 0.0, "lat": 38.8756915, "bike_id": "d1c7da902eee1cf502499c7d6e30b283", "fusion_lon": 0.0}, {"rental_uris": {"ios": "https://dc.lft.to/lastmile_qr_scan", "android": "https://dc.lft.to/lastmile_qr_scan"}, "type": "electric_scooter", "name": "8b9427c899305f473eaad10a5303d3bc", "is_reserved": 0, "lon": -77.03378016666667, "is_disabled": 0, "fusion_lat": 0.0, "lat": 38.91034883333333, "bike_id": "8b9427c899305f473eaad10a5303d3bc", "fusion_lon": 0.0}, {"rental_uris": {"ios": "https://dc.lft.to/lastmile_qr_scan", "android": "https://dc.lft.to/lastmile_qr_scan"}, "type": "electric_scooter", "name": "cf9c03c81021cd26eebe1ff1f4bf3a94", "is_reserved": 0, "lon": -77.0414005, "is_disabled": 0, "fusion_lat": 0.0, "lat": 38.934766, "bike_id": "cf9c03c81021cd26eebe1ff1f4bf3a94", "fusion_lon": 0.0}, {"rental_uris": {"ios": "https://dc.lft.to/lastmile_qr_scan", "android": "https://dc.lft.to/lastmile_qr_scan"}, "type": "electric_scooter", "name": "81f0b2ae1c49ba879169ff76bc38a57c", "is_reserved": 0, "lon": -77.02199266666666, "is_disabled": 0, "fusion_lat": 0.0, "lat": 38.91761283333334, "bike_id": "81f0b2ae1c49ba879169ff76bc38a57c", "fusion_lon": 0.0}, {"rental_uris": {"ios": "https://dc.lft.to/lastmile_qr_scan", "android": "https://dc.lft.to/lastmile_qr_scan"}, "type": "electric_scooter", "name": "66ec3c2b22b576f87f8f620b60f8a8ef", "is_reserved": 0, "lon": -77.02284616666667, "is_disabled": 0, "fusion_lat": 0.0, "lat": 38.907930666666665, "bike_id": "66ec3c2b22b576f87f8f620b60f8a8ef", "fusion_lon": 0.0}, {"rental_uris": {"ios": "https://dc.lft.to/lastmile_qr_scan", "android": "https://dc.lft.to/lastmile_qr_scan"}, "type": "electric_scooter", "name": "e7baf0fe3a78fe3529c7865a0bb12480", "is_reserved": 0, "lon": -77.02339733333334, "is_disabled": 0, "fusion_lat": 0.0, "lat": 38.929651166666666, "bike_id": "e7baf0fe3a78fe3529c7865a0bb12480", "fusion_lon": 0.0}, {"rental_uris": {"ios": "https://dc.lft.to/lastmile_qr_scan", "android": "https://dc.lft.to/lastmile_qr_scan"}, "type": "electric_scooter", "name": "452a2df137268471097159cdab03eba0", "is_reserved": 0, "lon": -76.94853983333333, "is_disabled": 0, "fusion_lat": 0.0, "lat": 38.883023666666666, "bike_id": "452a2df137268471097159cdab03eba0", "fusion_lon": 0.0}, {"rental_uris": {"ios": "https://dc.lft.to/lastmile_qr_scan", "android": "https://dc.lft.to/lastmile_qr_scan"}, "type": "electric_scooter", "name": "55dbd888557db4b89b91f009cd445b5b", "is_reserved": 0, "lon": -77.020867, "is_disabled": 0, "fusion_lat": 0.0, "lat": 38.923962, "bike_id": "55dbd888557db4b89b91f009cd445b5b", "fusion_lon": 0.0}, {"rental_uris": {"ios": "https://dc.lft.to/lastmile_qr_scan", "android": "https://dc.lft.to/lastmile_qr_scan"}, "type": "electric_scooter", "name": "7063ed89796effd8eee18c51899ca8d4", "is_reserved": 0, "lon": -77.02388133333334, "is_disabled": 0, "fusion_lat": 0.0, "lat": 38.932009, "bike_id": "7063ed89796effd8eee18c51899ca8d4", "fusion_lon": 0.0}, {"rental_uris": {"ios": "https://dc.lft.to/lastmile_qr_scan", "android": "https://dc.lft.to/lastmile_qr_scan"}, "type": "electric_scooter", "name": "cdc7aa377c0e56cba47f739876e89462", "is_reserved": 0, "lon": -77.00363733333333, "is_disabled": 0, "fusion_lat": 0.0, "lat": 38.892649, "bike_id": "cdc7aa377c0e56cba47f739876e89462", "fusion_lon": 0.0}, {"rental_uris": {"ios": "https://dc.lft.to/lastmile_qr_scan", "android": "https://dc.lft.to/lastmile_qr_scan"}, "type": "electric_scooter", "name": "98b9b0e107a5d1a7da45d710c41ce79c", "is_reserved": 0, "lon": -77.02127283333333, "is_disabled": 0, "fusion_lat": 0.0, "lat": 38.92378633333333, "bike_id": "98b9b0e107a5d1a7da45d710c41ce79c", "fusion_lon": 0.0}, {"rental_uris": {"ios": "https://dc.lft.to/lastmile_qr_scan", "android": "https://dc.lft.to/lastmile_qr_scan"}, "type": "electric_scooter", "name": "46422e53ce0c653034020d49d30c318c", "is_reserved": 0, "lon": -77.03853916666667, "is_disabled": 0, "fusion_lat": 0.0, "lat": 38.915499, "bike_id": "46422e53ce0c653034020d49d30c318c", "fusion_lon": 0.0}, {"rental_uris": {"ios": "https://dc.lft.to/lastmile_qr_scan", "android": "https://dc.lft.to/lastmile_qr_scan"}, "type": "electric_scooter", "name": "2e2ebdb5800749b5cfe3c377ff4178ec", "is_reserved": 0, "lon": -77.04060716666666, "is_disabled": 0, "fusion_lat": 0.0, "lat": 38.917499, "bike_id": "2e2ebdb5800749b5cfe3c377ff4178ec", "fusion_lon": 0.0}, {"rental_uris": {"ios": "https://dc.lft.to/lastmile_qr_scan", "android": "https://dc.lft.to/lastmile_qr_scan"}, "type": "electric_scooter", "name": "ecf12141338af153a768e100f4e00f3e", "is_reserved": 0, "lon": -76.98096783333334, "is_disabled": 0, "fusion_lat": 0.0, "lat": 38.9039815, "bike_id": "ecf12141338af153a768e100f4e00f3e", "fusion_lon": 0.0}, {"rental_uris": {"ios": "https://dc.lft.to/lastmile_qr_scan", "android": "https://dc.lft.to/lastmile_qr_scan"}, "type": "electric_scooter", "name": "2034431f9d1bee5a831d957b02a905de", "is_reserved": 0, "lon": -77.02660716666666, "is_disabled": 0, "fusion_lat": 0.0, "lat": 38.938582833333335, "bike_id": "2034431f9d1bee5a831d957b02a905de", "fusion_lon": 0.0}, {"rental_uris": {"ios": "https://dc.lft.to/lastmile_qr_scan", "android": "https://dc.lft.to/lastmile_qr_scan"}, "type": "electric_scooter", "name": "740bcebf0f5601bca2f35893340e2b4e", "is_reserved": 0, "lon": -77.01205016666667, "is_disabled": 0, "fusion_lat": 0.0, "lat": 38.89693333333334, "bike_id": "740bcebf0f5601bca2f35893340e2b4e", "fusion_lon": 0.0}, {"rental_uris": {"ios": "https://dc.lft.to/lastmile_qr_scan", "android": "https://dc.lft.to/lastmile_qr_scan"}, "type": "electric_scooter", "name": "4b9c86e54e7e09d89c77b6b10797ca4a", "is_reserved": 0, "lon": -77.03874666666667, "is_disabled": 0, "fusion_lat": 0.0, "lat": 38.91880966666667, "bike_id": "4b9c86e54e7e09d89c77b6b10797ca4a", "fusion_lon": 0.0}, {"rental_uris": {"ios": "https://dc.lft.to/lastmile_qr_scan", "android": "https://dc.lft.to/lastmile_qr_scan"}, "type": "electric_bike", "name": "070bb2f21cd1182d7ac2189113ae0680", "is_reserved": 0, "lon": -76.95825716666667, "is_disabled": 0, "fusion_lat": 0.0, "lat": 38.9200535, "bike_id": "070bb2f21cd1182d7ac2189113ae0680", "fusion_lon": 0.0}, {"rental_uris": {"ios": "https://dc.lft.to/lastmile_qr_scan", "android": "https://dc.lft.to/lastmile_qr_scan"}, "type": "electric_scooter", "name": "1d466fb98118123a0e6b86c5d922e1d3", "is_reserved": 0, "lon": -77.021318, "is_disabled": 0, "fusion_lat": 0.0, "lat": 38.924180166666666, "bike_id": "1d466fb98118123a0e6b86c5d922e1d3", "fusion_lon": 0.0}, {"rental_uris": {"ios": "https://dc.lft.to/lastmile_qr_scan", "android": "https://dc.lft.to/lastmile_qr_scan"}, "type": "electric_scooter", "name": "c0bfad62843d92ef508e1506c94dc2d5", "is_reserved": 0, "lon": -77.0216755, "is_disabled": 0, "fusion_lat": 0.0, "lat": 38.894739, "bike_id": "c0bfad62843d92ef508e1506c94dc2d5", "fusion_lon": 0.0}, {"rental_uris": {"ios": "https://dc.lft.to/lastmile_qr_scan", "android": "https://dc.lft.to/lastmile_qr_scan"}, "type": "electric_scooter", "name": "809e14d76bcedadc62b33e9b929bbca6", "is_reserved": 0, "lon": -77.02146183333333, "is_disabled": 0, "fusion_lat": 0.0, "lat": 38.903087166666666, "bike_id": "809e14d76bcedadc62b33e9b929bbca6", "fusion_lon": 0.0}, {"rental_uris": {"ios": "https://dc.lft.to/lastmile_qr_scan", "android": "https://dc.lft.to/lastmile_qr_scan"}, "type": "electric_scooter", "name": "04ee92ba3f66b97a890240df0fcf153c", "is_reserved": 0, "lon": -77.07558933333334, "is_disabled": 0, "fusion_lat": 0.0, "lat": 38.92081683333333, "bike_id": "04ee92ba3f66b97a890240df0fcf153c", "fusion_lon": 0.0}, {"rental_uris": {"ios": "https://dc.lft.to/lastmile_qr_scan", "android": "https://dc.lft.to/lastmile_qr_scan"}, "type": "electric_scooter", "name": "9826038e67382c52a5f470b203c3ecca", "is_reserved": 0, "lon": -77.032646, "is_disabled": 0, "fusion_lat": 0.0, "lat": 38.9056445, "bike_id": "9826038e67382c52a5f470b203c3ecca", "fusion_lon": 0.0}, {"rental_uris": {"ios": "https://dc.lft.to/lastmile_qr_scan", "android": "https://dc.lft.to/lastmile_qr_scan"}, "type": "electric_scooter", "name": "191f15628b13a1a8549bcb1f52ca6c6b", "is_reserved": 0, "lon": -77.02129933333333, "is_disabled": 0, "fusion_lat": 0.0, "lat": 38.92411716666667, "bike_id": "191f15628b13a1a8549bcb1f52ca6c6b", "fusion_lon": 0.0}, {"rental_uris": {"ios": "https://dc.lft.to/lastmile_qr_scan", "android": "https://dc.lft.to/lastmile_qr_scan"}, "type": "electric_scooter", "name": "1796e548aedae01b9bbce1de96ab2746", "is_reserved": 0, "lon": -77.00199216666667, "is_disabled": 0, "fusion_lat": 0.0, "lat": 38.902416833333334, "bike_id": "1796e548aedae01b9bbce1de96ab2746", "fusion_lon": 0.0}, {"rental_uris": {"ios": "https://dc.lft.to/lastmile_qr_scan", "android": "https://dc.lft.to/lastmile_qr_scan"}, "type": "electric_scooter", "name": "eb1cae4f9f7fb07ab3c9ecec62700189", "is_reserved": 0, "lon": -76.9946155, "is_disabled": 0, "fusion_lat": 0.0, "lat": 38.905524666666665, "bike_id": "eb1cae4f9f7fb07ab3c9ecec62700189", "fusion_lon": 0.0}, {"rental_uris": {"ios": "https://dc.lft.to/lastmile_qr_scan", "android": "https://dc.lft.to/lastmile_qr_scan"}, "type": "electric_scooter", "name": "711c6412fe1caba5dffb9b6f16fc35de", "is_reserved": 0, "lon": -77.06004816666666, "is_disabled": 0, "fusion_lat": 0.0, "lat": 38.90401133333334, "bike_id": "711c6412fe1caba5dffb9b6f16fc35de", "fusion_lon": 0.0}, {"rental_uris": {"ios": "https://dc.lft.to/lastmile_qr_scan", "android": "https://dc.lft.to/lastmile_qr_scan"}, "type": "electric_scooter", "name": "ae87c7611fc3b2fa1fe8d43dcfb23324", "is_reserved": 0, "lon": -77.03222583333333, "is_disabled": 0, "fusion_lat": 0.0, "lat": 38.91705966666667, "bike_id": "ae87c7611fc3b2fa1fe8d43dcfb23324", "fusion_lon": 0.0}, {"rental_uris": {"ios": "https://dc.lft.to/lastmile_qr_scan", "android": "https://dc.lft.to/lastmile_qr_scan"}, "type": "electric_scooter", "name": "8df09dd96c06ffbbef764e25eab8a430", "is_reserved": 0, "lon": -77.02197633333333, "is_disabled": 0, "fusion_lat": 0.0, "lat": 38.894027333333334, "bike_id": "8df09dd96c06ffbbef764e25eab8a430", "fusion_lon": 0.0}, {"rental_uris": {"ios": "https://dc.lft.to/lastmile_qr_scan", "android": "https://dc.lft.to/lastmile_qr_scan"}, "type": "electric_scooter", "name": "007aa0fcddb74cd31740a1dd7d99735d", "is_reserved": 0, "lon": -77.01154266666667, "is_disabled": 0, "fusion_lat": 0.0, "lat": 38.95685733333333, "bike_id": "007aa0fcddb74cd31740a1dd7d99735d", "fusion_lon": 0.0}, {"rental_uris": {"ios": "https://dc.lft.to/lastmile_qr_scan", "android": "https://dc.lft.to/lastmile_qr_scan"}, "type": "electric_scooter", "name": "cd8e8d4da9af4a845831f33e6fe1aef8", "is_reserved": 0, "lon": -77.02336416666667, "is_disabled": 0, "fusion_lat": 0.0, "lat": 38.92969983333333, "bike_id": "cd8e8d4da9af4a845831f33e6fe1aef8", "fusion_lon": 0.0}, {"rental_uris": {"ios": "https://dc.lft.to/lastmile_qr_scan", "android": "https://dc.lft.to/lastmile_qr_scan"}, "type": "electric_scooter", "name": "89e5c2440b9a1bbd915db39f07101085", "is_reserved": 0, "lon": -76.9419585, "is_disabled": 0, "fusion_lat": 0.0, "lat": 38.902287666666666, "bike_id": "89e5c2440b9a1bbd915db39f07101085", "fusion_lon": 0.0}, {"rental_uris": {"ios": "https://dc.lft.to/lastmile_qr_scan", "android": "https://dc.lft.to/lastmile_qr_scan"}, "type": "electric_scooter", "name": "ed19a5a029573f1c34f09e95e94a11b4", "is_reserved": 0, "lon": -77.04071416666666, "is_disabled": 0, "fusion_lat": 0.0, "lat": 38.904509833333336, "bike_id": "ed19a5a029573f1c34f09e95e94a11b4", "fusion_lon": 0.0}, {"rental_uris": {"ios": "https://dc.lft.to/lastmile_qr_scan", "android": "https://dc.lft.to/lastmile_qr_scan"}, "type": "electric_scooter", "name": "ac15e598a250d475d7943b68a334d0d5", "is_reserved": 0, "lon": -77.03245766666667, "is_disabled": 0, "fusion_lat": 0.0, "lat": 38.90549133333333, "bike_id": "ac15e598a250d475d7943b68a334d0d5", "fusion_lon": 0.0}, {"rental_uris": {"ios": "https://dc.lft.to/lastmile_qr_scan", "android": "https://dc.lft.to/lastmile_qr_scan"}, "type": "electric_scooter", "name": "ba46844c10f0ae016c5661f3752d28ce", "is_reserved": 0, "lon": -77.067478, "is_disabled": 0, "fusion_lat": 0.0, "lat": 38.905095333333335, "bike_id": "ba46844c10f0ae016c5661f3752d28ce", "fusion_lon": 0.0}, {"rental_uris": {"ios": "https://dc.lft.to/lastmile_qr_scan", "android": "https://dc.lft.to/lastmile_qr_scan"}, "type": "electric_scooter", "name": "0cc2440a15e7a30a7998b548c9c15bba", "is_reserved": 0, "lon": -77.03176833333333, "is_disabled": 0, "fusion_lat": 0.0, "lat": 38.90122266666667, "bike_id": "0cc2440a15e7a30a7998b548c9c15bba", "fusion_lon": 0.0}, {"rental_uris": {"ios": "https://dc.lft.to/lastmile_qr_scan", "android": "https://dc.lft.to/lastmile_qr_scan"}, "type": "electric_scooter", "name": "a00b9e67d284e41a970e01126174c3ab", "is_reserved": 0, "lon": -77.03226, "is_disabled": 0, "fusion_lat": 0.0, "lat": 38.938719166666665, "bike_id": "a00b9e67d284e41a970e01126174c3ab", "fusion_lon": 0.0}, {"rental_uris": {"ios": "https://dc.lft.to/lastmile_qr_scan", "android": "https://dc.lft.to/lastmile_qr_scan"}, "type": "electric_scooter", "name": "3a26fb7ec2a9d609c02d280fa49b8188", "is_reserved": 0, "lon": -77.03850766666666, "is_disabled": 0, "fusion_lat": 0.0, "lat": 38.91549933333334, "bike_id": "3a26fb7ec2a9d609c02d280fa49b8188", "fusion_lon": 0.0}, {"rental_uris": {"ios": "https://dc.lft.to/lastmile_qr_scan", "android": "https://dc.lft.to/lastmile_qr_scan"}, "type": "electric_scooter", "name": "9b3a8b84d92c22927b580a02f2fc1c71", "is_reserved": 0, "lon": -77.01361216666666, "is_disabled": 0, "fusion_lat": 0.0, "lat": 38.919289166666665, "bike_id": "9b3a8b84d92c22927b580a02f2fc1c71", "fusion_lon": 0.0}, {"rental_uris": {"ios": "https://dc.lft.to/lastmile_qr_scan", "android": "https://dc.lft.to/lastmile_qr_scan"}, "type": "electric_scooter", "name": "465af99d666361e60f18b512d6cb346c", "is_reserved": 0, "lon": -77.02640966666667, "is_disabled": 0, "fusion_lat": 0.0, "lat": 38.89621266666666, "bike_id": "465af99d666361e60f18b512d6cb346c", "fusion_lon": 0.0}, {"rental_uris": {"ios": "https://dc.lft.to/lastmile_qr_scan", "android": "https://dc.lft.to/lastmile_qr_scan"}, "type": "electric_scooter", "name": "d06e813b593b5545794faed97bdb91e7", "is_reserved": 0, "lon": -76.99686433333333, "is_disabled": 0, "fusion_lat": 0.0, "lat": 38.92185466666667, "bike_id": "d06e813b593b5545794faed97bdb91e7", "fusion_lon": 0.0}, {"rental_uris": {"ios": "https://dc.lft.to/lastmile_qr_scan", "android": "https://dc.lft.to/lastmile_qr_scan"}, "type": "electric_bike", "name": "23dacfa864572bec64857ab3fd675f65", "is_reserved": 0, "lon": -77.08366583333333, "is_disabled": 0, "fusion_lat": 0.0, "lat": 38.854166166666666, "bike_id": "23dacfa864572bec64857ab3fd675f65", "fusion_lon": 0.0}, {"rental_uris": {"ios": "https://dc.lft.to/lastmile_qr_scan", "android": "https://dc.lft.to/lastmile_qr_scan"}, "type": "electric_scooter", "name": "50e303c94777121f95f6794f44e3886e", "is_reserved": 0, "lon": -76.965434, "is_disabled": 0, "fusion_lat": 0.0, "lat": 38.87890383333333, "bike_id": "50e303c94777121f95f6794f44e3886e", "fusion_lon": 0.0}, {"rental_uris": {"ios": "https://dc.lft.to/lastmile_qr_scan", "android": "https://dc.lft.to/lastmile_qr_scan"}, "type": "electric_scooter", "name": "61d570e70acbb0060145574b6219644d", "is_reserved": 0, "lon": -77.000456, "is_disabled": 0, "fusion_lat": 0.0, "lat": 38.8762645, "bike_id": "61d570e70acbb0060145574b6219644d", "fusion_lon": 0.0}, {"rental_uris": {"ios": "https://dc.lft.to/lastmile_qr_scan", "android": "https://dc.lft.to/lastmile_qr_scan"}, "type": "electric_scooter", "name": "b552cb11cd72cc081e394ef32aacfc6a", "is_reserved": 0, "lon": -77.024024, "is_disabled": 0, "fusion_lat": 0.0, "lat": 38.89235983333333, "bike_id": "b552cb11cd72cc081e394ef32aacfc6a", "fusion_lon": 0.0}, {"rental_uris": {"ios": "https://dc.lft.to/lastmile_qr_scan", "android": "https://dc.lft.to/lastmile_qr_scan"}, "type": "electric_scooter", "name": "5044d4b8d9a28053e086f8ce1b14b6b1", "is_reserved": 0, "lon": -76.997394, "is_disabled": 0, "fusion_lat": 0.0, "lat": 38.920420166666666, "bike_id": "5044d4b8d9a28053e086f8ce1b14b6b1", "fusion_lon": 0.0}, {"rental_uris": {"ios": "https://dc.lft.to/lastmile_qr_scan", "android": "https://dc.lft.to/lastmile_qr_scan"}, "type": "electric_scooter", "name": "433c94270985719da90c1bab3246ce40", "is_reserved": 0, "lon": -77.0215085, "is_disabled": 0, "fusion_lat": 0.0, "lat": 38.902967333333336, "bike_id": "433c94270985719da90c1bab3246ce40", "fusion_lon": 0.0}, {"rental_uris": {"ios": "https://dc.lft.to/lastmile_qr_scan", "android": "https://dc.lft.to/lastmile_qr_scan"}, "type": "electric_scooter", "name": "8f921b8f7c19d54325db9c7ce5c9ac4b", "is_reserved": 0, "lon": -77.029552, "is_disabled": 0, "fusion_lat": 0.0, "lat": 38.916877666666664, "bike_id": "8f921b8f7c19d54325db9c7ce5c9ac4b", "fusion_lon": 0.0}, {"rental_uris": {"ios": "https://dc.lft.to/lastmile_qr_scan", "android": "https://dc.lft.to/lastmile_qr_scan"}, "type": "electric_scooter", "name": "4d7398c81ad9530d893664176289c196", "is_reserved": 0, "lon": -77.04327633333334, "is_disabled": 0, "fusion_lat": 0.0, "lat": 38.90881733333333, "bike_id": "4d7398c81ad9530d893664176289c196", "fusion_lon": 0.0}, {"rental_uris": {"ios": "https://dc.lft.to/lastmile_qr_scan", "android": "https://dc.lft.to/lastmile_qr_scan"}, "type": "electric_scooter", "name": "ecd0fa68be6e14d3583b769c90d6e5a5", "is_reserved": 0, "lon": -77.04655516666666, "is_disabled": 0, "fusion_lat": 0.0, "lat": 38.910490333333335, "bike_id": "ecd0fa68be6e14d3583b769c90d6e5a5", "fusion_lon": 0.0}, {"rental_uris": {"ios": "https://dc.lft.to/lastmile_qr_scan", "android": "https://dc.lft.to/lastmile_qr_scan"}, "type": "electric_scooter", "name": "63a9cf3ea2f6658d6ed1d872a7358a48", "is_reserved": 0, "lon": -77.04633, "is_disabled": 0, "fusion_lat": 0.0, "lat": 38.89739266666667, "bike_id": "63a9cf3ea2f6658d6ed1d872a7358a48", "fusion_lon": 0.0}, {"rental_uris": {"ios": "https://dc.lft.to/lastmile_qr_scan", "android": "https://dc.lft.to/lastmile_qr_scan"}, "type": "electric_scooter", "name": "8fde60420e27c37431b778b0999169cb", "is_reserved": 0, "lon": -77.03805033333333, "is_disabled": 0, "fusion_lat": 0.0, "lat": 38.932217333333334, "bike_id": "8fde60420e27c37431b778b0999169cb", "fusion_lon": 0.0}, {"rental_uris": {"ios": "https://dc.lft.to/lastmile_qr_scan", "android": "https://dc.lft.to/lastmile_qr_scan"}, "type": "electric_scooter", "name": "0c0269b95a346d489fb9ebc89debb354", "is_reserved": 0, "lon": -77.05130066666666, "is_disabled": 0, "fusion_lat": 0.0, "lat": 38.923653, "bike_id": "0c0269b95a346d489fb9ebc89debb354", "fusion_lon": 0.0}, {"rental_uris": {"ios": "https://dc.lft.to/lastmile_qr_scan", "android": "https://dc.lft.to/lastmile_qr_scan"}, "type": "electric_scooter", "name": "5b8407df17f4feb1b6f5c070d231a3fa", "is_reserved": 0, "lon": -77.01367866666666, "is_disabled": 0, "fusion_lat": 0.0, "lat": 38.894879, "bike_id": "5b8407df17f4feb1b6f5c070d231a3fa", "fusion_lon": 0.0}, {"rental_uris": {"ios": "https://dc.lft.to/lastmile_qr_scan", "android": "https://dc.lft.to/lastmile_qr_scan"}, "type": "electric_scooter", "name": "2024595d7c042c5c6bafbecefd793122", "is_reserved": 0, "lon": -77.0386975, "is_disabled": 0, "fusion_lat": 0.0, "lat": 38.911216833333334, "bike_id": "2024595d7c042c5c6bafbecefd793122", "fusion_lon": 0.0}, {"rental_uris": {"ios": "https://dc.lft.to/lastmile_qr_scan", "android": "https://dc.lft.to/lastmile_qr_scan"}, "type": "electric_scooter", "name": "c253233b1f57ccb7312ee186558dfa70", "is_reserved": 0, "lon": -77.04656866666667, "is_disabled": 0, "fusion_lat": 0.0, "lat": 38.907599833333336, "bike_id": "c253233b1f57ccb7312ee186558dfa70", "fusion_lon": 0.0}, {"rental_uris": {"ios": "https://dc.lft.to/lastmile_qr_scan", "android": "https://dc.lft.to/lastmile_qr_scan"}, "type": "electric_scooter", "name": "bb948395fbac2bdb5c2a428328a182ba", "is_reserved": 0, "lon": -77.03548966666666, "is_disabled": 0, "fusion_lat": 0.0, "lat": 38.9241425, "bike_id": "bb948395fbac2bdb5c2a428328a182ba", "fusion_lon": 0.0}, {"rental_uris": {"ios": "https://dc.lft.to/lastmile_qr_scan", "android": "https://dc.lft.to/lastmile_qr_scan"}, "type": "electric_scooter", "name": "6559fe54fe8240196a14ec7bb5c74f1b", "is_reserved": 0, "lon": -76.92830466666666, "is_disabled": 0, "fusion_lat": 0.0, "lat": 38.901834666666666, "bike_id": "6559fe54fe8240196a14ec7bb5c74f1b", "fusion_lon": 0.0}, {"rental_uris": {"ios": "https://dc.lft.to/lastmile_qr_scan", "android": "https://dc.lft.to/lastmile_qr_scan"}, "type": "electric_bike", "name": "f07751d963d448a8d314290a63cc3d3b", "is_reserved": 0, "lon": -76.95254466666667, "is_disabled": 0, "fusion_lat": 0.0, "lat": 38.906971, "bike_id": "f07751d963d448a8d314290a63cc3d3b", "fusion_lon": 0.0}, {"rental_uris": {"ios": "https://dc.lft.to/lastmile_qr_scan", "android": "https://dc.lft.to/lastmile_qr_scan"}, "type": "electric_scooter", "name": "bed840550ae0ad96f0cb429f499895f1", "is_reserved": 0, "lon": -77.06371716666666, "is_disabled": 0, "fusion_lat": 0.0, "lat": 38.935603666666665, "bike_id": "bed840550ae0ad96f0cb429f499895f1", "fusion_lon": 0.0}, {"rental_uris": {"ios": "https://dc.lft.to/lastmile_qr_scan", "android": "https://dc.lft.to/lastmile_qr_scan"}, "type": "electric_scooter", "name": "1b17dad39f01c4c948aa2bb7898c873c", "is_reserved": 0, "lon": -77.045116, "is_disabled": 0, "fusion_lat": 0.0, "lat": 38.915892, "bike_id": "1b17dad39f01c4c948aa2bb7898c873c", "fusion_lon": 0.0}, {"rental_uris": {"ios": "https://dc.lft.to/lastmile_qr_scan", "android": "https://dc.lft.to/lastmile_qr_scan"}, "type": "electric_scooter", "name": "9bd57ac12ee5d430337f9d766352bf07", "is_reserved": 0, "lon": -76.947064, "is_disabled": 0, "fusion_lat": 0.0, "lat": 38.89302283333333, "bike_id": "9bd57ac12ee5d430337f9d766352bf07", "fusion_lon": 0.0}, {"rental_uris": {"ios": "https://dc.lft.to/lastmile_qr_scan", "android": "https://dc.lft.to/lastmile_qr_scan"}, "type": "electric_bike", "name": "125e52dd8c934fa7e425f0fbf52517d5", "is_reserved": 0, "lon": -77.12649583333334, "is_disabled": 0, "fusion_lat": 0.0, "lat": 38.8190965, "bike_id": "125e52dd8c934fa7e425f0fbf52517d5", "fusion_lon": 0.0}, {"rental_uris": {"ios": "https://dc.lft.to/lastmile_qr_scan", "android": "https://dc.lft.to/lastmile_qr_scan"}, "type": "electric_scooter", "name": "d68bebd1d6801efbf574c9dc94deb0a6", "is_reserved": 0, "lon": -77.06395766666667, "is_disabled": 0, "fusion_lat": 0.0, "lat": 38.908551833333334, "bike_id": "d68bebd1d6801efbf574c9dc94deb0a6", "fusion_lon": 0.0}, {"rental_uris": {"ios": "https://dc.lft.to/lastmile_qr_scan", "android": "https://dc.lft.to/lastmile_qr_scan"}, "type": "electric_scooter", "name": "f26eb1a8c8d63dc3a15d5029c8911fd4", "is_reserved": 0, "lon": -77.03832483333333, "is_disabled": 0, "fusion_lat": 0.0, "lat": 38.91184283333333, "bike_id": "f26eb1a8c8d63dc3a15d5029c8911fd4", "fusion_lon": 0.0}, {"rental_uris": {"ios": "https://dc.lft.to/lastmile_qr_scan", "android": "https://dc.lft.to/lastmile_qr_scan"}, "type": "electric_bike", "name": "e09409f2be5f7c6d306203a4060cf09c", "is_reserved": 0, "lon": -77.00003966666667, "is_disabled": 0, "fusion_lat": 0.0, "lat": 38.92395, "bike_id": "e09409f2be5f7c6d306203a4060cf09c", "fusion_lon": 0.0}, {"rental_uris": {"ios": "https://dc.lft.to/lastmile_qr_scan", "android": "https://dc.lft.to/lastmile_qr_scan"}, "type": "electric_scooter", "name": "c206022b3055881b9c8dd8e62de9a49a", "is_reserved": 0, "lon": -77.04507066666666, "is_disabled": 0, "fusion_lat": 0.0, "lat": 38.900942, "bike_id": "c206022b3055881b9c8dd8e62de9a49a", "fusion_lon": 0.0}, {"rental_uris": {"ios": "https://dc.lft.to/lastmile_qr_scan", "android": "https://dc.lft.to/lastmile_qr_scan"}, "type": "electric_scooter", "name": "c24aa26c4a4e51939721a9cae0fdad12", "is_reserved": 0, "lon": -77.04684283333333, "is_disabled": 0, "fusion_lat": 0.0, "lat": 38.892238166666665, "bike_id": "c24aa26c4a4e51939721a9cae0fdad12", "fusion_lon": 0.0}, {"rental_uris": {"ios": "https://dc.lft.to/lastmile_qr_scan", "android": "https://dc.lft.to/lastmile_qr_scan"}, "type": "electric_scooter", "name": "336b0dac3564324737589c95dee846f7", "is_reserved": 0, "lon": -77.02722616666667, "is_disabled": 0, "fusion_lat": 0.0, "lat": 38.90595, "bike_id": "336b0dac3564324737589c95dee846f7", "fusion_lon": 0.0}, {"rental_uris": {"ios": "https://dc.lft.to/lastmile_qr_scan", "android": "https://dc.lft.to/lastmile_qr_scan"}, "type": "electric_bike", "name": "f5d4a2f61dc42f2463282d4b54adc03d", "is_reserved": 0, "lon": -77.0122545, "is_disabled": 0, "fusion_lat": 0.0, "lat": 38.95089883333333, "bike_id": "f5d4a2f61dc42f2463282d4b54adc03d", "fusion_lon": 0.0}, {"rental_uris": {"ios": "https://dc.lft.to/lastmile_qr_scan", "android": "https://dc.lft.to/lastmile_qr_scan"}, "type": "electric_scooter", "name": "ac0bf8e818708e090fe8f2f06af03a6a", "is_reserved": 0, "lon": -77.03198216666667, "is_disabled": 0, "fusion_lat": 0.0, "lat": 38.91637766666667, "bike_id": "ac0bf8e818708e090fe8f2f06af03a6a", "fusion_lon": 0.0}, {"rental_uris": {"ios": "https://dc.lft.to/lastmile_qr_scan", "android": "https://dc.lft.to/lastmile_qr_scan"}, "type": "electric_scooter", "name": "91c82b01ae443b47ad1a70c6e753b34c", "is_reserved": 0, "lon": -77.033911, "is_disabled": 0, "fusion_lat": 0.0, "lat": 38.92045133333333, "bike_id": "91c82b01ae443b47ad1a70c6e753b34c", "fusion_lon": 0.0}, {"rental_uris": {"ios": "https://dc.lft.to/lastmile_qr_scan", "android": "https://dc.lft.to/lastmile_qr_scan"}, "type": "electric_scooter", "name": "81ce2b86c4165905eb8a2b92477d772b", "is_reserved": 0, "lon": -77.0411965, "is_disabled": 0, "fusion_lat": 0.0, "lat": 38.930998, "bike_id": "81ce2b86c4165905eb8a2b92477d772b", "fusion_lon": 0.0}, {"rental_uris": {"ios": "https://dc.lft.to/lastmile_qr_scan", "android": "https://dc.lft.to/lastmile_qr_scan"}, "type": "electric_scooter", "name": "2e6ac25c1eefeea25f4b071b8e235fd6", "is_reserved": 0, "lon": -76.98578866666666, "is_disabled": 0, "fusion_lat": 0.0, "lat": 38.854458666666666, "bike_id": "2e6ac25c1eefeea25f4b071b8e235fd6", "fusion_lon": 0.0}, {"rental_uris": {"ios": "https://dc.lft.to/lastmile_qr_scan", "android": "https://dc.lft.to/lastmile_qr_scan"}, "type": "electric_scooter", "name": "1088b08bc052f0dc61cdc1998ff3fbd8", "is_reserved": 0, "lon": -77.03419133333334, "is_disabled": 0, "fusion_lat": 0.0, "lat": 38.90966066666667, "bike_id": "1088b08bc052f0dc61cdc1998ff3fbd8", "fusion_lon": 0.0}, {"rental_uris": {"ios": "https://dc.lft.to/lastmile_qr_scan", "android": "https://dc.lft.to/lastmile_qr_scan"}, "type": "electric_scooter", "name": "d7fd697bde54b9462ed5d51c4658c9ba", "is_reserved": 0, "lon": -77.03073666666667, "is_disabled": 0, "fusion_lat": 0.0, "lat": 38.938733166666665, "bike_id": "d7fd697bde54b9462ed5d51c4658c9ba", "fusion_lon": 0.0}, {"rental_uris": {"ios": "https://dc.lft.to/lastmile_qr_scan", "android": "https://dc.lft.to/lastmile_qr_scan"}, "type": "electric_scooter", "name": "46ff2a9df30878fa951adc5469edd86b", "is_reserved": 0, "lon": -77.04379716666666, "is_disabled": 0, "fusion_lat": 0.0, "lat": 38.920736, "bike_id": "46ff2a9df30878fa951adc5469edd86b", "fusion_lon": 0.0}, {"rental_uris": {"ios": "https://dc.lft.to/lastmile_qr_scan", "android": "https://dc.lft.to/lastmile_qr_scan"}, "type": "electric_scooter", "name": "ba8b3145e3d410f5b36cf425cacfd65e", "is_reserved": 0, "lon": -76.99594433333333, "is_disabled": 0, "fusion_lat": 0.0, "lat": 38.900334666666666, "bike_id": "ba8b3145e3d410f5b36cf425cacfd65e", "fusion_lon": 0.0}, {"rental_uris": {"ios": "https://dc.lft.to/lastmile_qr_scan", "android": "https://dc.lft.to/lastmile_qr_scan"}, "type": "electric_scooter", "name": "a8e75a5e8a04947deacdf306cf681f63", "is_reserved": 0, "lon": -77.0382565, "is_disabled": 0, "fusion_lat": 0.0, "lat": 38.91040816666667, "bike_id": "a8e75a5e8a04947deacdf306cf681f63", "fusion_lon": 0.0}, {"rental_uris": {"ios": "https://dc.lft.to/lastmile_qr_scan", "android": "https://dc.lft.to/lastmile_qr_scan"}, "type": "electric_scooter", "name": "aa1d31fb63ea053914b5396c94467287", "is_reserved": 0, "lon": -77.0451935, "is_disabled": 0, "fusion_lat": 0.0, "lat": 38.909744333333336, "bike_id": "aa1d31fb63ea053914b5396c94467287", "fusion_lon": 0.0}, {"rental_uris": {"ios": "https://dc.lft.to/lastmile_qr_scan", "android": "https://dc.lft.to/lastmile_qr_scan"}, "type": "electric_scooter", "name": "8f1c453a8bf2c287f2c1ecd2361972d5", "is_reserved": 0, "lon": -77.02683416666666, "is_disabled": 0, "fusion_lat": 0.0, "lat": 38.9024115, "bike_id": "8f1c453a8bf2c287f2c1ecd2361972d5", "fusion_lon": 0.0}, {"rental_uris": {"ios": "https://dc.lft.to/lastmile_qr_scan", "android": "https://dc.lft.to/lastmile_qr_scan"}, "type": "electric_scooter", "name": "e0363c25dd9752d6a1527bb7c02d0423", "is_reserved": 0, "lon": -77.02963716666666, "is_disabled": 0, "fusion_lat": 0.0, "lat": 38.9169145, "bike_id": "e0363c25dd9752d6a1527bb7c02d0423", "fusion_lon": 0.0}, {"rental_uris": {"ios": "https://dc.lft.to/lastmile_qr_scan", "android": "https://dc.lft.to/lastmile_qr_scan"}, "type": "electric_bike", "name": "dbc8d5e30d4146bf53d65a9d1fe89314", "is_reserved": 0, "lon": -76.99857083333333, "is_disabled": 0, "fusion_lat": 0.0, "lat": 38.8999825, "bike_id": "dbc8d5e30d4146bf53d65a9d1fe89314", "fusion_lon": 0.0}, {"rental_uris": {"ios": "https://dc.lft.to/lastmile_qr_scan", "android": "https://dc.lft.to/lastmile_qr_scan"}, "type": "electric_scooter", "name": "8d76713bf979b231df2f5f9974bea911", "is_reserved": 0, "lon": -77.04027483333333, "is_disabled": 0, "fusion_lat": 0.0, "lat": 38.91837, "bike_id": "8d76713bf979b231df2f5f9974bea911", "fusion_lon": 0.0}, {"rental_uris": {"ios": "https://dc.lft.to/lastmile_qr_scan", "android": "https://dc.lft.to/lastmile_qr_scan"}, "type": "electric_scooter", "name": "ebb775e3abc46afecb74947f3e6e6e7c", "is_reserved": 0, "lon": -76.99411866666667, "is_disabled": 0, "fusion_lat": 0.0, "lat": 38.920959, "bike_id": "ebb775e3abc46afecb74947f3e6e6e7c", "fusion_lon": 0.0}, {"rental_uris": {"ios": "https://dc.lft.to/lastmile_qr_scan", "android": "https://dc.lft.to/lastmile_qr_scan"}, "type": "electric_scooter", "name": "f2789d506a5c1ac46f14112fa8e9bafb", "is_reserved": 0, "lon": -77.00734033333333, "is_disabled": 0, "fusion_lat": 0.0, "lat": 38.876422833333336, "bike_id": "f2789d506a5c1ac46f14112fa8e9bafb", "fusion_lon": 0.0}, {"rental_uris": {"ios": "https://dc.lft.to/lastmile_qr_scan", "android": "https://dc.lft.to/lastmile_qr_scan"}, "type": "electric_scooter", "name": "4dd1618b02d0e60f4542f3bf79776a49", "is_reserved": 0, "lon": -77.050212, "is_disabled": 0, "fusion_lat": 0.0, "lat": 38.923551333333336, "bike_id": "4dd1618b02d0e60f4542f3bf79776a49", "fusion_lon": 0.0}, {"rental_uris": {"ios": "https://dc.lft.to/lastmile_qr_scan", "android": "https://dc.lft.to/lastmile_qr_scan"}, "type": "electric_scooter", "name": "1b9dcdfd5a98c521f82b61e427098705", "is_reserved": 0, "lon": -77.032121, "is_disabled": 0, "fusion_lat": 0.0, "lat": 38.892345, "bike_id": "1b9dcdfd5a98c521f82b61e427098705", "fusion_lon": 0.0}, {"rental_uris": {"ios": "https://dc.lft.to/lastmile_qr_scan", "android": "https://dc.lft.to/lastmile_qr_scan"}, "type": "electric_scooter", "name": "92114506f57019adbc87853b55bee1a4", "is_reserved": 0, "lon": -77.03179383333334, "is_disabled": 0, "fusion_lat": 0.0, "lat": 38.91186033333334, "bike_id": "92114506f57019adbc87853b55bee1a4", "fusion_lon": 0.0}, {"rental_uris": {"ios": "https://dc.lft.to/lastmile_qr_scan", "android": "https://dc.lft.to/lastmile_qr_scan"}, "type": "electric_scooter", "name": "bed4c7e674693a24c41641a83787f2d7", "is_reserved": 0, "lon": -77.03843333333333, "is_disabled": 0, "fusion_lat": 0.0, "lat": 38.910773666666664, "bike_id": "bed4c7e674693a24c41641a83787f2d7", "fusion_lon": 0.0}, {"rental_uris": {"ios": "https://dc.lft.to/lastmile_qr_scan", "android": "https://dc.lft.to/lastmile_qr_scan"}, "type": "electric_scooter", "name": "00a7f49e8b9c91a1d27d1ad747be7f91", "is_reserved": 0, "lon": -77.035489, "is_disabled": 0, "fusion_lat": 0.0, "lat": 38.90468583333333, "bike_id": "00a7f49e8b9c91a1d27d1ad747be7f91", "fusion_lon": 0.0}, {"rental_uris": {"ios": "https://dc.lft.to/lastmile_qr_scan", "android": "https://dc.lft.to/lastmile_qr_scan"}, "type": "electric_scooter", "name": "79ce498e48f00d9123c7cf3fc22571d0", "is_reserved": 0, "lon": -77.044895, "is_disabled": 0, "fusion_lat": 0.0, "lat": 38.89338033333333, "bike_id": "79ce498e48f00d9123c7cf3fc22571d0", "fusion_lon": 0.0}, {"rental_uris": {"ios": "https://dc.lft.to/lastmile_qr_scan", "android": "https://dc.lft.to/lastmile_qr_scan"}, "type": "electric_scooter", "name": "5a49e36d3b9f6befb508d3118e0453de", "is_reserved": 0, "lon": -77.00952216666667, "is_disabled": 0, "fusion_lat": 0.0, "lat": 38.87633733333333, "bike_id": "5a49e36d3b9f6befb508d3118e0453de", "fusion_lon": 0.0}, {"rental_uris": {"ios": "https://dc.lft.to/lastmile_qr_scan", "android": "https://dc.lft.to/lastmile_qr_scan"}, "type": "electric_scooter", "name": "418c81f0d3e05ab01ed7b41e7532706d", "is_reserved": 0, "lon": -77.01080633333333, "is_disabled": 0, "fusion_lat": 0.0, "lat": 38.903322833333334, "bike_id": "418c81f0d3e05ab01ed7b41e7532706d", "fusion_lon": 0.0}, {"rental_uris": {"ios": "https://dc.lft.to/lastmile_qr_scan", "android": "https://dc.lft.to/lastmile_qr_scan"}, "type": "electric_scooter", "name": "ea27bf627fc2453b5331a2f926af674d", "is_reserved": 0, "lon": -77.01224233333333, "is_disabled": 0, "fusion_lat": 0.0, "lat": 38.920337, "bike_id": "ea27bf627fc2453b5331a2f926af674d", "fusion_lon": 0.0}, {"rental_uris": {"ios": "https://dc.lft.to/lastmile_qr_scan", "android": "https://dc.lft.to/lastmile_qr_scan"},