{"data": {"bikes": [{"is_disabled": 0, "fusion_lat": 0.0, "lat": 38.89035366666667, "type": "electric_scooter", "lon": -77.0297625, "is_reserved": 0, "fusion_lon": 0.0, "bike_id": "626f590d645da70671c2107052d486ce", "name": "626f590d645da70671c2107052d486ce", "rental_uris": {"ios": "https://dc.lft.to/lastmile_qr_scan", "android": "https://dc.lft.to/lastmile_qr_scan"}}, {"is_disabled": 0, "fusion_lat": 0.0, "lat": 38.914440666666664, "type": "electric_scooter", "lon": -77.03843633333334, "is_reserved": 0, "fusion_lon": 0.0, "bike_id": "0579a7d96fd3210327d18f69b83d3e33", "name": "0579a7d96fd3210327d18f69b83d3e33", "rental_uris": {"ios": "https://dc.lft.to/lastmile_qr_scan", "android": "https://dc.lft.to/lastmile_qr_scan"}}, {"is_disabled": 0, "fusion_lat": 0.0, "lat": 38.908943, "type": "electric_scooter", "lon": -77.08615333333333, "is_reserved": 0, "fusion_lon": 0.0, "bike_id": "054b1672007b16314a2cc2c9244b3c63", "name": "054b1672007b16314a2cc2c9244b3c63", "rental_uris": {"ios": "https://dc.lft.to/lastmile_qr_scan", "android": "https://dc.lft.to/lastmile_qr_scan"}}, {"is_disabled": 0, "fusion_lat": 0.0, "lat": 38.90712083333333, "type": "electric_scooter", "lon": -77.04401316666667, "is_reserved": 0, "fusion_lon": 0.0, "bike_id": "2bd066219eae0bc1dc50f9c95aaaeeb3", "name": "2bd066219eae0bc1dc50f9c95aaaeeb3", "rental_uris": {"ios": "https://dc.lft.to/lastmile_qr_scan", "android": "https://dc.lft.to/lastmile_qr_scan"}}, {"is_disabled": 0, "fusion_lat": 0.0, "lat": 38.934938, "type": "electric_scooter", "lon": -77.07273533333333, "is_reserved": 0, "fusion_lon": 0.0, "bike_id": "efd6560b0310ae25bae96cc50cfb55fb", "name": "efd6560b0310ae25bae96cc50cfb55fb", "rental_uris": {"ios": "https://dc.lft.to/lastmile_qr_scan", "android": "https://dc.lft.to/lastmile_qr_scan"}}, {"is_disabled": 0, "fusion_lat": 0.0, "lat": 38.91741716666667, "type": "electric_scooter", "lon": -77.01097316666667, "is_reserved": 0, "fusion_lon": 0.0, "bike_id": "b86df90a6c94007724d2b14a929e71b6", "name": "b86df90a6c94007724d2b14a929e71b6", "rental_uris": {"ios": "https://dc.lft.to/lastmile_qr_scan", "android": "https://dc.lft.to/lastmile_qr_scan"}}, {"is_disabled": 0, "fusion_lat": 0.0, "lat": 38.884257, "type": "electric_bike", "lon": -76.98085116666667, "is_reserved": 0, "fusion_lon": 0.0, "bike_id": "a9c18b5ae18b63693693478b7fe58f54", "name": "a9c18b5ae18b63693693478b7fe58f54", "rental_uris": {"ios": "https://dc.lft.to/lastmile_qr_scan", "android": "https://dc.lft.to/lastmile_qr_scan"}}, {"is_disabled": 0, "fusion_lat": 0.0, "lat": 38.906015333333336, "type": "electric_scooter", "lon": -77.05863416666666, "is_reserved": 0, "fusion_lon": 0.0, "bike_id": "9d2326671c941743f5ad11c11c390061", "name": "9d2326671c941743f5ad11c11c390061", "rental_uris": {"ios": "https://dc.lft.to/lastmile_qr_scan", "android": "https://dc.lft.to/lastmile_qr_scan"}}, {"is_disabled": 0, "fusion_lat": 0.0, "lat": 38.90814366666667, "type": "electric_scooter", "lon": -77.039372, "is_reserved": 0, "fusion_lon": 0.0, "bike_id": "3303121921127479b7abe9d92c5127aa", "name": "3303121921127479b7abe9d92c5127aa", "rental_uris": {"ios": "https://dc.lft.to/lastmile_qr_scan", "android": "https://dc.lft.to/lastmile_qr_scan"}}, {"is_disabled": 0, "fusion_lat": 0.0, "lat": 38.92123566666667, "type": "electric_scooter", "lon": -77.0182785, "is_reserved": 0, "fusion_lon": 0.0, "bike_id": "debbdb0f8ca4762a53594aecd829b115", "name": "debbdb0f8ca4762a53594aecd829b115", "rental_uris": {"ios": "https://dc.lft.to/lastmile_qr_scan", "android": "https://dc.lft.to/lastmile_qr_scan"}}, {"is_disabled": 0, "fusion_lat": 0.0, "lat": 38.88705266666667, "type": "electric_scooter", "lon": -77.028282, "is_reserved": 0, "fusion_lon": 0.0, "bike_id": "703cdd3543bbbe0207af6195a1e9713a", "name": "703cdd3543bbbe0207af6195a1e9713a", "rental_uris": {"ios": "https://dc.lft.to/lastmile_qr_scan", "android": "https://dc.lft.to/lastmile_qr_scan"}}, {"is_disabled": 0, "fusion_lat": 0.0, "lat": 38.872353833333335, "type": "electric_bike", "lon": -77.01185433333333, "is_reserved": 0, "fusion_lon": 0.0, "bike_id": "4d698149f0f288dd25794cda8df46dee", "name": "4d698149f0f288dd25794cda8df46dee", "rental_uris": {"ios": "https://dc.lft.to/lastmile_qr_scan", "android": "https://dc.lft.to/lastmile_qr_scan"}}, {"is_disabled": 0, "fusion_lat": 0.0, "lat": 38.89615766666667, "type": "electric_scooter", "lon": -76.98120116666666, "is_reserved": 0, "fusion_lon": 0.0, "bike_id": "5c7c5ae5c292e07f5cf04f693b154704", "name": "5c7c5ae5c292e07f5cf04f693b154704", "rental_uris": {"ios": "https://dc.lft.to/lastmile_qr_scan", "android": "https://dc.lft.to/lastmile_qr_scan"}}, {"is_disabled": 0, "fusion_lat": 0.0, "lat": 38.913771833333335, "type": "electric_scooter", "lon": -77.00446333333333, "is_reserved": 0, "fusion_lon": 0.0, "bike_id": "182dacd5572231ddc266722e12bb3f1d", "name": "182dacd5572231ddc266722e12bb3f1d", "rental_uris": {"ios": "https://dc.lft.to/lastmile_qr_scan", "android": "https://dc.lft.to/lastmile_qr_scan"}}, {"is_disabled": 0, "fusion_lat": 0.0, "lat": 38.894734, "type": "electric_scooter", "lon": -76.984042, "is_reserved": 0, "fusion_lon": 0.0, "bike_id": "4b4c93330d01784c120fdcf5679c8322", "name": "4b4c93330d01784c120fdcf5679c8322", "rental_uris": {"ios": "https://dc.lft.to/lastmile_qr_scan", "android": "https://dc.lft.to/lastmile_qr_scan"}}, {"is_disabled": 0, "fusion_lat": 0.0, "lat": 38.95096433333333, "type": "electric_scooter", "lon": -77.02338733333333, "is_reserved": 0, "fusion_lon": 0.0, "bike_id": "6ffa638c7d8919d507faa71f60402803", "name": "6ffa638c7d8919d507faa71f60402803", "rental_uris": {"ios": "https://dc.lft.to/lastmile_qr_scan", "android": "https://dc.lft.to/lastmile_qr_scan"}}, {"is_disabled": 0, "fusion_lat": 0.0, "lat": 38.89197083333333, "type": "electric_scooter", "lon": -77.031099, "is_reserved": 0, "fusion_lon": 0.0, "bike_id": "0a27a3ee6906986a0b2a3c4a6e7e3c60", "name": "0a27a3ee6906986a0b2a3c4a6e7e3c60", "rental_uris": {"ios": "https://dc.lft.to/lastmile_qr_scan", "android": "https://dc.lft.to/lastmile_qr_scan"}}, {"is_disabled": 0, "fusion_lat": 0.0, "lat": 38.921479166666664, "type": "electric_scooter", "lon": -77.03880283333334, "is_reserved": 0, "fusion_lon": 0.0, "bike_id": "85fae28f22b8e85063f59c780bcbb300", "name": "85fae28f22b8e85063f59c780bcbb300", "rental_uris": {"ios": "https://dc.lft.to/lastmile_qr_scan", "android": "https://dc.lft.to/lastmile_qr_scan"}}, {"is_disabled": 0, "fusion_lat": 0.0, "lat": 38.910106999999996, "type": "electric_scooter", "lon": -77.08897783333333, "is_reserved": 0, "fusion_lon": 0.0, "bike_id": "a9cd540e71d2544c16de77932538947d", "name": "a9cd540e71d2544c16de77932538947d", "rental_uris": {"ios": "https://dc.lft.to/lastmile_qr_scan", "android": "https://dc.lft.to/lastmile_qr_scan"}}, {"is_disabled": 0, "fusion_lat": 0.0, "lat": 38.865734833333335, "type": "electric_scooter", "lon": -76.98951466666666, "is_reserved": 0, "fusion_lon": 0.0, "bike_id": "207eefddc6d382a6d000764340c28c61", "name": "207eefddc6d382a6d000764340c28c61", "rental_uris": {"ios": "https://dc.lft.to/lastmile_qr_scan", "android": "https://dc.lft.to/lastmile_qr_scan"}}, {"is_disabled": 0, "fusion_lat": 0.0, "lat": 38.89194366666667, "type": "electric_scooter", "lon": -77.02456983333333, "is_reserved": 0, "fusion_lon": 0.0, "bike_id": "856f2a798253e5bb88bb7af9b2bf4936", "name": "856f2a798253e5bb88bb7af9b2bf4936", "rental_uris": {"ios": "https://dc.lft.to/lastmile_qr_scan", "android": "https://dc.lft.to/lastmile_qr_scan"}}, {"is_disabled": 0, "fusion_lat": 0.0, "lat": 38.916842333333335, "type": "electric_scooter", "lon": -77.02289833333333, "is_reserved": 0, "fusion_lon": 0.0, "bike_id": "c10f920ed3d21d855902078647e31b64", "name": "c10f920ed3d21d855902078647e31b64", "rental_uris": {"ios": "https://dc.lft.to/lastmile_qr_scan", "android": "https://dc.lft.to/lastmile_qr_scan"}}, {"is_disabled": 0, "fusion_lat": 0.0, "lat": 38.9363, "type": "electric_scooter", "lon": -77.058795, "is_reserved": 0, "fusion_lon": 0.0, "bike_id": "2fc0e4b097bcf09cd850bacfb424b68a", "name": "2fc0e4b097bcf09cd850bacfb424b68a", "rental_uris": {"ios": "https://dc.lft.to/lastmile_qr_scan", "android": "https://dc.lft.to/lastmile_qr_scan"}}, {"is_disabled": 0, "fusion_lat": 0.0, "lat": 38.89832666666667, "type": "electric_scooter", "lon": -76.94635366666667, "is_reserved": 0, "fusion_lon": 0.0, "bike_id": "026aff6d2db9b5e59c5cd1b987f7281e", "name": "026aff6d2db9b5e59c5cd1b987f7281e", "rental_uris": {"ios": "https://dc.lft.to/lastmile_qr_scan", "android": "https://dc.lft.to/lastmile_qr_scan"}}, {"is_disabled": 0, "fusion_lat": 0.0, "lat": 38.858075166666666, "type": "electric_scooter", "lon": -76.98654233333333, "is_reserved": 0, "fusion_lon": 0.0, "bike_id": "7d4a99f1f904df95701910b969147416", "name": "7d4a99f1f904df95701910b969147416", "rental_uris": {"ios": "https://dc.lft.to/lastmile_qr_scan", "android": "https://dc.lft.to/lastmile_qr_scan"}}, {"is_disabled": 0, "fusion_lat": 0.0, "lat": 38.90138016666667, "type": "electric_scooter", "lon": -77.04030783333333, "is_reserved": 0, "fusion_lon": 0.0, "bike_id": "50057dd221ec61977bb957e635a51d2d", "name": "50057dd221ec61977bb957e635a51d2d", "rental_uris": {"ios": "https://dc.lft.to/lastmile_qr_scan", "android": "https://dc.lft.to/lastmile_qr_scan"}}, {"is_disabled": 0, "fusion_lat": 0.0, "lat": 38.848658, "type": "electric_bike", "lon": -77.20041916666666, "is_reserved": 0, "fusion_lon": 0.0, "bike_id": "d53a35433d40b3d8e4905ff307ece7ed", "name": "d53a35433d40b3d8e4905ff307ece7ed", "rental_uris": {"ios": "https://dc.lft.to/lastmile_qr_scan", "android": "https://dc.lft.to/lastmile_qr_scan"}}, {"is_disabled": 0, "fusion_lat": 0.0, "lat": 38.9086895, "type": "electric_scooter", "lon": -77.08593533333334, "is_reserved": 0, "fusion_lon": 0.0, "bike_id": "ff5f315cac711489bd4f00b4ef657910", "name": "ff5f315cac711489bd4f00b4ef657910", "rental_uris": {"ios": "https://dc.lft.to/lastmile_qr_scan", "android": "https://dc.lft.to/lastmile_qr_scan"}}, {"is_disabled": 0, "fusion_lat": 0.0, "lat": 38.90254733333333, "type": "electric_scooter", "lon": -77.01748983333333, "is_reserved": 0, "fusion_lon": 0.0, "bike_id": "644e5fd5b3a470d97d2a5833bc9da30b", "name": "644e5fd5b3a470d97d2a5833bc9da30b", "rental_uris": {"ios": "https://dc.lft.to/lastmile_qr_scan", "android": "https://dc.lft.to/lastmile_qr_scan"}}, {"is_disabled": 0, "fusion_lat": 0.0, "lat": 38.87460316666667, "type": "electric_scooter", "lon": -77.00928083333334, "is_reserved": 0, "fusion_lon": 0.0, "bike_id": "b1040dd9c93bf1d7d17a650aa3a0d3a8", "name": "b1040dd9c93bf1d7d17a650aa3a0d3a8", "rental_uris": {"ios": "https://dc.lft.to/lastmile_qr_scan", "android": "https://dc.lft.to/lastmile_qr_scan"}}, {"is_disabled": 0, "fusion_lat": 0.0, "lat": 38.9037365, "type": "electric_scooter", "lon": -77.0479755, "is_reserved": 0, "fusion_lon": 0.0, "bike_id": "3ec99c4cc65e290e13d71e29bb437935", "name": "3ec99c4cc65e290e13d71e29bb437935", "rental_uris": {"ios": "https://dc.lft.to/lastmile_qr_scan", "android": "https://dc.lft.to/lastmile_qr_scan"}}, {"is_disabled": 0, "fusion_lat": 0.0, "lat": 38.90125916666667, "type": "electric_scooter", "lon": -77.04389883333333, "is_reserved": 0, "fusion_lon": 0.0, "bike_id": "cb640e067058866929bed8edffb7e829", "name": "cb640e067058866929bed8edffb7e829", "rental_uris": {"ios": "https://dc.lft.to/lastmile_qr_scan", "android": "https://dc.lft.to/lastmile_qr_scan"}}, {"is_disabled": 0, "fusion_lat": 0.0, "lat": 38.930596666666666, "type": "electric_scooter", "lon": -77.04180383333333, "is_reserved": 0, "fusion_lon": 0.0, "bike_id": "842e67711c61ba10df5d51c8e24d3312", "name": "842e67711c61ba10df5d51c8e24d3312", "rental_uris": {"ios": "https://dc.lft.to/lastmile_qr_scan", "android": "https://dc.lft.to/lastmile_qr_scan"}}, {"is_disabled": 0, "fusion_lat": 0.0, "lat": 38.92044716666667, "type": "electric_scooter", "lon": -77.03374516666666, "is_reserved": 0, "fusion_lon": 0.0, "bike_id": "f4459037a69d424767b0ff09b20bfa8e", "name": "f4459037a69d424767b0ff09b20bfa8e", "rental_uris": {"ios": "https://dc.lft.to/lastmile_qr_scan", "android": "https://dc.lft.to/lastmile_qr_scan"}}, {"is_disabled": 0, "fusion_lat": 0.0, "lat": 38.920487666666666, "type": "electric_scooter", "lon": -77.04184383333333, "is_reserved": 0, "fusion_lon": 0.0, "bike_id": "0c72a44132b9c1bda8ecf8d2366fa844", "name": "0c72a44132b9c1bda8ecf8d2366fa844", "rental_uris": {"ios": "https://dc.lft.to/lastmile_qr_scan", "android": "https://dc.lft.to/lastmile_qr_scan"}}, {"is_disabled": 0, "fusion_lat": 0.0, "lat": 38.917225, "type": "electric_scooter", "lon": -77.03836816666667, "is_reserved": 0, "fusion_lon": 0.0, "bike_id": "053dce3e0d31ed2bd79475b458a7afa5", "name": "053dce3e0d31ed2bd79475b458a7afa5", "rental_uris": {"ios": "https://dc.lft.to/lastmile_qr_scan", "android": "https://dc.lft.to/lastmile_qr_scan"}}, {"is_disabled": 0, "fusion_lat": 0.0, "lat": 38.899051166666666, "type": "electric_scooter", "lon": -76.93353833333333, "is_reserved": 0, "fusion_lon": 0.0, "bike_id": "d643e6507b92e786cf44e30155635759", "name": "d643e6507b92e786cf44e30155635759", "rental_uris": {"ios": "https://dc.lft.to/lastmile_qr_scan", "android": "https://dc.lft.to/lastmile_qr_scan"}}, {"is_disabled": 0, "fusion_lat": 0.0, "lat": 38.90702566666667, "type": "electric_scooter", "lon": -77.0218175, "is_reserved": 0, "fusion_lon": 0.0, "bike_id": "39f90323decbb235cd2e256733518e42", "name": "39f90323decbb235cd2e256733518e42", "rental_uris": {"ios": "https://dc.lft.to/lastmile_qr_scan", "android": "https://dc.lft.to/lastmile_qr_scan"}}, {"is_disabled": 0, "fusion_lat": 0.0, "lat": 38.890434666666664, "type": "electric_scooter", "lon": -76.937512, "is_reserved": 0, "fusion_lon": 0.0, "bike_id": "31cf471cfb7f4e5f8dd9a2d6099faa23", "name": "31cf471cfb7f4e5f8dd9a2d6099faa23", "rental_uris": {"ios": "https://dc.lft.to/lastmile_qr_scan", "android": "https://dc.lft.to/lastmile_qr_scan"}}, {"is_disabled": 0, "fusion_lat": 0.0, "lat": 38.9048755, "type": "electric_scooter", "lon": -77.043317, "is_reserved": 0, "fusion_lon": 0.0, "bike_id": "e7738235b2e434fdd3c5a46d1f080f01", "name": "e7738235b2e434fdd3c5a46d1f080f01", "rental_uris": {"ios": "https://dc.lft.to/lastmile_qr_scan", "android": "https://dc.lft.to/lastmile_qr_scan"}}, {"is_disabled": 0, "fusion_lat": 0.0, "lat": 38.930426833333335, "type": "electric_scooter", "lon": -77.03217083333334, "is_reserved": 0, "fusion_lon": 0.0, "bike_id": "33c4ef21849417a515265c8e2ba7e4e7", "name": "33c4ef21849417a515265c8e2ba7e4e7", "rental_uris": {"ios": "https://dc.lft.to/lastmile_qr_scan", "android": "https://dc.lft.to/lastmile_qr_scan"}}, {"is_disabled": 0, "fusion_lat": 0.0, "lat": 38.92322433333333, "type": "electric_scooter", "lon": -77.03900466666667, "is_reserved": 0, "fusion_lon": 0.0, "bike_id": "93f1561f05cfe11f0c5bfda05ffe840d", "name": "93f1561f05cfe11f0c5bfda05ffe840d", "rental_uris": {"ios": "https://dc.lft.to/lastmile_qr_scan", "android": "https://dc.lft.to/lastmile_qr_scan"}}, {"is_disabled": 0, "fusion_lat": 0.0, "lat": 38.88433833333333, "type": "electric_scooter", "lon": -76.9576045, "is_reserved": 0, "fusion_lon": 0.0, "bike_id": "a76887e0a232144234be61604984491b", "name": "a76887e0a232144234be61604984491b", "rental_uris": {"ios": "https://dc.lft.to/lastmile_qr_scan", "android": "https://dc.lft.to/lastmile_qr_scan"}}, {"is_disabled": 0, "fusion_lat": 0.0, "lat": 38.89630366666667, "type": "electric_scooter", "lon": -77.039565, "is_reserved": 0, "fusion_lon": 0.0, "bike_id": "e8ab1d1e3f83369ec441ff0b4ed6fea6", "name": "e8ab1d1e3f83369ec441ff0b4ed6fea6", "rental_uris": {"ios": "https://dc.lft.to/lastmile_qr_scan", "android": "https://dc.lft.to/lastmile_qr_scan"}}, {"is_disabled": 0, "fusion_lat": 0.0, "lat": 38.96494216666667, "type": "electric_bike", "lon": -77.06491333333334, "is_reserved": 0, "fusion_lon": 0.0, "bike_id": "92ebd41d44f6d9e88f4fc77f98584f69", "name": "92ebd41d44f6d9e88f4fc77f98584f69", "rental_uris": {"ios": "https://dc.lft.to/lastmile_qr_scan", "android": "https://dc.lft.to/lastmile_qr_scan"}}, {"is_disabled": 0, "fusion_lat": 0.0, "lat": 38.90440266666667, "type": "electric_scooter", "lon": -77.04035466666667, "is_reserved": 0, "fusion_lon": 0.0, "bike_id": "7dfc0c03a290874ae9ba2af7dcc479a7", "name": "7dfc0c03a290874ae9ba2af7dcc479a7", "rental_uris": {"ios": "https://dc.lft.to/lastmile_qr_scan", "android": "https://dc.lft.to/lastmile_qr_scan"}}, {"is_disabled": 0, "fusion_lat": 0.0, "lat": 38.924165333333335, "type": "electric_scooter", "lon": -77.0506375, "is_reserved": 0, "fusion_lon": 0.0, "bike_id": "03bcbff8d16f69eac7eca58a358887a5", "name": "03bcbff8d16f69eac7eca58a358887a5", "rental_uris": {"ios": "https://dc.lft.to/lastmile_qr_scan", "android": "https://dc.lft.to/lastmile_qr_scan"}}, {"is_disabled": 0, "fusion_lat": 0.0, "lat": 38.898320166666664, "type": "electric_scooter", "lon": -76.94635099999999, "is_reserved": 0, "fusion_lon": 0.0, "bike_id": "15366b7f628f74e28f00adbad06c880b", "name": "15366b7f628f74e28f00adbad06c880b", "rental_uris": {"ios": "https://dc.lft.to/lastmile_qr_scan", "android": "https://dc.lft.to/lastmile_qr_scan"}}, {"is_disabled": 0, "fusion_lat": 0.0, "lat": 38.91469266666667, "type": "electric_scooter", "lon": -77.02388183333333, "is_reserved": 0, "fusion_lon": 0.0, "bike_id": "d7a9830c57c73ee5df9c665d25c4c516", "name": "d7a9830c57c73ee5df9c665d25c4c516", "rental_uris": {"ios": "https://dc.lft.to/lastmile_qr_scan", "android": "https://dc.lft.to/lastmile_qr_scan"}}, {"is_disabled": 0, "fusion_lat": 0.0, "lat": 38.909462833333336, "type": "electric_scooter", "lon": -77.04662816666666, "is_reserved": 0, "fusion_lon": 0.0, "bike_id": "00b8d7f36e73ea9ef7142a1c6f4aaec5", "name": "00b8d7f36e73ea9ef7142a1c6f4aaec5", "rental_uris": {"ios": "https://dc.lft.to/lastmile_qr_scan", "android": "https://dc.lft.to/lastmile_qr_scan"}}, {"is_disabled": 0, "fusion_lat": 0.0, "lat": 38.86657183333333, "type": "electric_scooter", "lon": -76.98906816666667, "is_reserved": 0, "fusion_lon": 0.0, "bike_id": "b4526cb08134ea16761f3cf499b39b47", "name": "b4526cb08134ea16761f3cf499b39b47", "rental_uris": {"ios": "https://dc.lft.to/lastmile_qr_scan", "android": "https://dc.lft.to/lastmile_qr_scan"}}, {"is_disabled": 0, "fusion_lat": 0.0, "lat": 38.916318833333335, "type": "electric_scooter", "lon": -77.0137155, "is_reserved": 0, "fusion_lon": 0.0, "bike_id": "7468a5d1ed80069b8a9e30d7894bf90b", "name": "7468a5d1ed80069b8a9e30d7894bf90b", "rental_uris": {"ios": "https://dc.lft.to/lastmile_qr_scan", "android": "https://dc.lft.to/lastmile_qr_scan"}}, {"is_disabled": 0, "fusion_lat": 0.0, "lat": 38.914109833333335, "type": "electric_scooter", "lon": -77.0256535, "is_reserved": 0, "fusion_lon": 0.0, "bike_id": "2e95f4312696c0b0c4052934e0c85914", "name": "2e95f4312696c0b0c4052934e0c85914", "rental_uris": {"ios": "https://dc.lft.to/lastmile_qr_scan", "android": "https://dc.lft.to/lastmile_qr_scan"}}, {"is_disabled": 0, "fusion_lat": 0.0, "lat": 38.945950833333335, "type": "electric_scooter", "lon": -77.02980716666667, "is_reserved": 0, "fusion_lon": 0.0, "bike_id": "f6ec6cd3ffee8ad7cddee21ad8185dcb", "name": "f6ec6cd3ffee8ad7cddee21ad8185dcb", "rental_uris": {"ios": "https://dc.lft.to/lastmile_qr_scan", "android": "https://dc.lft.to/lastmile_qr_scan"}}, {"is_disabled": 0, "fusion_lat": 0.0, "lat": 38.8897085, "type": "electric_scooter", "lon": -76.937391, "is_reserved": 0, "fusion_lon": 0.0, "bike_id": "02a130fcf95330513e1ed962d3375686", "name": "02a130fcf95330513e1ed962d3375686", "rental_uris": {"ios": "https://dc.lft.to/lastmile_qr_scan", "android": "https://dc.lft.to/lastmile_qr_scan"}}, {"is_disabled": 0, "fusion_lat": 0.0, "lat": 38.9160905, "type": "electric_scooter", "lon": -77.0212835, "is_reserved": 0, "fusion_lon": 0.0, "bike_id": "84c6673d1acb0aa5cbfb81add2fae499", "name": "84c6673d1acb0aa5cbfb81add2fae499", "rental_uris": {"ios": "https://dc.lft.to/lastmile_qr_scan", "android": "https://dc.lft.to/lastmile_qr_scan"}}, {"is_disabled": 0, "fusion_lat": 0.0, "lat": 38.924702, "type": "electric_scooter", "lon": -77.03542366666667, "is_reserved": 0, "fusion_lon": 0.0, "bike_id": "e7979be90714d6d719bb08ac84449632", "name": "e7979be90714d6d719bb08ac84449632", "rental_uris": {"ios": "https://dc.lft.to/lastmile_qr_scan", "android": "https://dc.lft.to/lastmile_qr_scan"}}, {"is_disabled": 0, "fusion_lat": 0.0, "lat": 38.87459466666667, "type": "electric_scooter", "lon": -77.00493266666666, "is_reserved": 0, "fusion_lon": 0.0, "bike_id": "e3018808960cc8dfc92db70b8be9d09e", "name": "e3018808960cc8dfc92db70b8be9d09e", "rental_uris": {"ios": "https://dc.lft.to/lastmile_qr_scan", "android": "https://dc.lft.to/lastmile_qr_scan"}}, {"is_disabled": 0, "fusion_lat": 0.0, "lat": 38.892281833333335, "type": "electric_scooter", "lon": -77.02206866666667, "is_reserved": 0, "fusion_lon": 0.0, "bike_id": "f1866d58aabd8c5667b0e42fdc33498c", "name": "f1866d58aabd8c5667b0e42fdc33498c", "rental_uris": {"ios": "https://dc.lft.to/lastmile_qr_scan", "android": "https://dc.lft.to/lastmile_qr_scan"}}, {"is_disabled": 0, "fusion_lat": 0.0, "lat": 38.913361333333334, "type": "electric_scooter", "lon": -77.01065166666666, "is_reserved": 0, "fusion_lon": 0.0, "bike_id": "8c8105d155daea9e83eef43d81d85630", "name": "8c8105d155daea9e83eef43d81d85630", "rental_uris": {"ios": "https://dc.lft.to/lastmile_qr_scan", "android": "https://dc.lft.to/lastmile_qr_scan"}}, {"is_disabled": 0, "fusion_lat": 0.0, "lat": 38.91715266666667, "type": "electric_scooter", "lon": -77.029515, "is_reserved": 0, "fusion_lon": 0.0, "bike_id": "a77b9daac770c9693b89ecee6afe7a13", "name": "a77b9daac770c9693b89ecee6afe7a13", "rental_uris": {"ios": "https://dc.lft.to/lastmile_qr_scan", "android": "https://dc.lft.to/lastmile_qr_scan"}}, {"is_disabled": 0, "fusion_lat": 0.0, "lat": 38.90673983333333, "type": "electric_scooter", "lon": -77.03830266666667, "is_reserved": 0, "fusion_lon": 0.0, "bike_id": "4c4d709bc13211b354a3fd7266c67496", "name": "4c4d709bc13211b354a3fd7266c67496", "rental_uris": {"ios": "https://dc.lft.to/lastmile_qr_scan", "android": "https://dc.lft.to/lastmile_qr_scan"}}, {"is_disabled": 0, "fusion_lat": 0.0, "lat": 38.891959666666665, "type": "electric_scooter", "lon": -77.02382833333333, "is_reserved": 0, "fusion_lon": 0.0, "bike_id": "d2705e0aa5bc66050c86a568dc75149b", "name": "d2705e0aa5bc66050c86a568dc75149b", "rental_uris": {"ios": "https://dc.lft.to/lastmile_qr_scan", "android": "https://dc.lft.to/lastmile_qr_scan"}}, {"is_disabled": 0, "fusion_lat": 0.0, "lat": 38.917557, "type": "electric_bike", "lon": -76.98953116666667, "is_reserved": 0, "fusion_lon": 0.0, "bike_id": "16a7fb4bbdb847dd56d380348fa088d9", "name": "16a7fb4bbdb847dd56d380348fa088d9", "rental_uris": {"ios": "https://dc.lft.to/lastmile_qr_scan", "android": "https://dc.lft.to/lastmile_qr_scan"}}, {"is_disabled": 0, "fusion_lat": 0.0, "lat": 38.93863483333333, "type": "electric_scooter", "lon": -77.03049366666667, "is_reserved": 0, "fusion_lon": 0.0, "bike_id": "5d91cb99f00330d99f04574a3ef9b837", "name": "5d91cb99f00330d99f04574a3ef9b837", "rental_uris": {"ios": "https://dc.lft.to/lastmile_qr_scan", "android": "https://dc.lft.to/lastmile_qr_scan"}}, {"is_disabled": 0, "fusion_lat": 0.0, "lat": 38.93611083333333, "type": "electric_scooter", "lon": -77.05721783333334, "is_reserved": 0, "fusion_lon": 0.0, "bike_id": "cc060e4745fc01cc9d6adf57d19eaf00", "name": "cc060e4745fc01cc9d6adf57d19eaf00", "rental_uris": {"ios": "https://dc.lft.to/lastmile_qr_scan", "android": "https://dc.lft.to/lastmile_qr_scan"}}, {"is_disabled": 0, "fusion_lat": 0.0, "lat": 38.8870675, "type": "electric_scooter", "lon": -77.02827816666667, "is_reserved": 0, "fusion_lon": 0.0, "bike_id": "a3bd07ea3709457c887598a4556e7ab3", "name": "a3bd07ea3709457c887598a4556e7ab3", "rental_uris": {"ios": "https://dc.lft.to/lastmile_qr_scan", "android": "https://dc.lft.to/lastmile_qr_scan"}}, {"is_disabled": 0, "fusion_lat": 0.0, "lat": 38.89959316666667, "type": "electric_scooter", "lon": -77.04778733333333, "is_reserved": 0, "fusion_lon": 0.0, "bike_id": "369fead90fdb3ea1693067f7de21cecf", "name": "369fead90fdb3ea1693067f7de21cecf", "rental_uris": {"ios": "https://dc.lft.to/lastmile_qr_scan", "android": "https://dc.lft.to/lastmile_qr_scan"}}, {"is_disabled": 0, "fusion_lat": 0.0, "lat": 38.922297, "type": "electric_scooter", "lon": -77.03346183333333, "is_reserved": 0, "fusion_lon": 0.0, "bike_id": "239a86095b7fb2619fb36320d5d048e7", "name": "239a86095b7fb2619fb36320d5d048e7", "rental_uris": {"ios": "https://dc.lft.to/lastmile_qr_scan", "android": "https://dc.lft.to/lastmile_qr_scan"}}, {"is_disabled": 0, "fusion_lat": 0.0, "lat": 38.923632, "type": "electric_scooter", "lon": -77.05131316666667, "is_reserved": 0, "fusion_lon": 0.0, "bike_id": "73b185d94b3caa6e501187da92a62d16", "name": "73b185d94b3caa6e501187da92a62d16", "rental_uris": {"ios": "https://dc.lft.to/lastmile_qr_scan", "android": "https://dc.lft.to/lastmile_qr_scan"}}, {"is_disabled": 0, "fusion_lat": 0.0, "lat": 38.920625666666666, "type": "electric_scooter", "lon": -77.031786, "is_reserved": 0, "fusion_lon": 0.0, "bike_id": "d18e0813cadbbe37709ce823624965f9", "name": "d18e0813cadbbe37709ce823624965f9", "rental_uris": {"ios": "https://dc.lft.to/lastmile_qr_scan", "android": "https://dc.lft.to/lastmile_qr_scan"}}, {"is_disabled": 0, "fusion_lat": 0.0, "lat": 38.93149983333333, "type": "electric_scooter", "lon": -77.0383645, "is_reserved": 0, "fusion_lon": 0.0, "bike_id": "e0ec65d167704704de055f31ef1e3148", "name": "e0ec65d167704704de055f31ef1e3148", "rental_uris": {"ios": "https://dc.lft.to/lastmile_qr_scan", "android": "https://dc.lft.to/lastmile_qr_scan"}}, {"is_disabled": 0, "fusion_lat": 0.0, "lat": 38.929716666666664, "type": "electric_scooter", "lon": -77.028247, "is_reserved": 0, "fusion_lon": 0.0, "bike_id": "000b85b97055d4dc4a528551472ac924", "name": "000b85b97055d4dc4a528551472ac924", "rental_uris": {"ios": "https://dc.lft.to/lastmile_qr_scan", "android": "https://dc.lft.to/lastmile_qr_scan"}}, {"is_disabled": 0, "fusion_lat": 0.0, "lat": 38.9054995, "type": "electric_scooter", "lon": -77.03840683333334, "is_reserved": 0, "fusion_lon": 0.0, "bike_id": "771c847211b7a6697037a267358155d6", "name": "771c847211b7a6697037a267358155d6", "rental_uris": {"ios": "https://dc.lft.to/lastmile_qr_scan", "android": "https://dc.lft.to/lastmile_qr_scan"}}, {"is_disabled": 0, "fusion_lat": 0.0, "lat": 38.881972833333336, "type": "electric_scooter", "lon": -77.0059965, "is_reserved": 0, "fusion_lon": 0.0, "bike_id": "72cb1eea56e1f604f1e7479d0fdb6ecf", "name": "72cb1eea56e1f604f1e7479d0fdb6ecf", "rental_uris": {"ios": "https://dc.lft.to/lastmile_qr_scan", "android": "https://dc.lft.to/lastmile_qr_scan"}}, {"is_disabled": 0, "fusion_lat": 0.0, "lat": 38.90716783333333, "type": "electric_scooter", "lon": -77.0435515, "is_reserved": 0, "fusion_lon": 0.0, "bike_id": "4ac36183462ab9bf39ffdad0be923d29", "name": "4ac36183462ab9bf39ffdad0be923d29", "rental_uris": {"ios": "https://dc.lft.to/lastmile_qr_scan", "android": "https://dc.lft.to/lastmile_qr_scan"}}, {"is_disabled": 0, "fusion_lat": 0.0, "lat": 38.926663166666664, "type": "electric_scooter", "lon": -77.0954635, "is_reserved": 0, "fusion_lon": 0.0, "bike_id": "928659aa8d9180936ee22eeda6d30a03", "name": "928659aa8d9180936ee22eeda6d30a03", "rental_uris": {"ios": "https://dc.lft.to/lastmile_qr_scan", "android": "https://dc.lft.to/lastmile_qr_scan"}}, {"is_disabled": 0, "fusion_lat": 0.0, "lat": 38.94635133333333, "type": "electric_scooter", "lon": -77.02520816666667, "is_reserved": 0, "fusion_lon": 0.0, "bike_id": "24aa375c6297ec7eb7ba1bfe8371ccf5", "name": "24aa375c6297ec7eb7ba1bfe8371ccf5", "rental_uris": {"ios": "https://dc.lft.to/lastmile_qr_scan", "android": "https://dc.lft.to/lastmile_qr_scan"}}, {"is_disabled": 0, "fusion_lat": 0.0, "lat": 38.91958283333334, "type": "electric_scooter", "lon": -77.03960183333334, "is_reserved": 0, "fusion_lon": 0.0, "bike_id": "5c2a6230ebcfbc6be2e99f832c81f255", "name": "5c2a6230ebcfbc6be2e99f832c81f255", "rental_uris": {"ios": "https://dc.lft.to/lastmile_qr_scan", "android": "https://dc.lft.to/lastmile_qr_scan"}}, {"is_disabled": 0, "fusion_lat": 0.0, "lat": 38.90133266666667, "type": "electric_scooter", "lon": -77.0488305, "is_reserved": 0, "fusion_lon": 0.0, "bike_id": "3702b9c6f9d2a6b2b0b9efbb029868c4", "name": "3702b9c6f9d2a6b2b0b9efbb029868c4", "rental_uris": {"ios": "https://dc.lft.to/lastmile_qr_scan", "android": "https://dc.lft.to/lastmile_qr_scan"}}, {"is_disabled": 0, "fusion_lat": 0.0, "lat": 38.89558516666666, "type": "electric_scooter", "lon": -76.93080383333333, "is_reserved": 0, "fusion_lon": 0.0, "bike_id": "b3e4a5c26c0be8dddb3857e9acc69cbb", "name": "b3e4a5c26c0be8dddb3857e9acc69cbb", "rental_uris": {"ios": "https://dc.lft.to/lastmile_qr_scan", "android": "https://dc.lft.to/lastmile_qr_scan"}}, {"is_disabled": 0, "fusion_lat": 0.0, "lat": 38.91916333333333, "type": "electric_scooter", "lon": -77.03181516666666, "is_reserved": 0, "fusion_lon": 0.0, "bike_id": "68d7b600c7ae9b953fe8f61891c59410", "name": "68d7b600c7ae9b953fe8f61891c59410", "rental_uris": {"ios": "https://dc.lft.to/lastmile_qr_scan", "android": "https://dc.lft.to/lastmile_qr_scan"}}, {"is_disabled": 0, "fusion_lat": 0.0, "lat": 38.895579, "type": "electric_scooter", "lon": -77.04676433333333, "is_reserved": 0, "fusion_lon": 0.0, "bike_id": "261e1014d8d4be03f16d7bb796517af0", "name": "261e1014d8d4be03f16d7bb796517af0", "rental_uris": {"ios": "https://dc.lft.to/lastmile_qr_scan", "android": "https://dc.lft.to/lastmile_qr_scan"}}, {"is_disabled": 0, "fusion_lat": 0.0, "lat": 38.923289, "type": "electric_scooter", "lon": -77.05469533333333, "is_reserved": 0, "fusion_lon": 0.0, "bike_id": "7bb0f20d8631fa359bb7b6e997b5c041", "name": "7bb0f20d8631fa359bb7b6e997b5c041", "rental_uris": {"ios": "https://dc.lft.to/lastmile_qr_scan", "android": "https://dc.lft.to/lastmile_qr_scan"}}, {"is_disabled": 0, "fusion_lat": 0.0, "lat": 38.87497966666667, "type": "electric_scooter", "lon": -77.0174845, "is_reserved": 0, "fusion_lon": 0.0, "bike_id": "e071a16ad4d614e29a34e3cd18e7e21a", "name": "e071a16ad4d614e29a34e3cd18e7e21a", "rental_uris": {"ios": "https://dc.lft.to/lastmile_qr_scan", "android": "https://dc.lft.to/lastmile_qr_scan"}}, {"is_disabled": 0, "fusion_lat": 0.0, "lat": 38.927459666666664, "type": "electric_scooter", "lon": -77.02485683333333, "is_reserved": 0, "fusion_lon": 0.0, "bike_id": "3ea60a5e686b81699e6ff7bfbac9e7f5", "name": "3ea60a5e686b81699e6ff7bfbac9e7f5", "rental_uris": {"ios": "https://dc.lft.to/lastmile_qr_scan", "android": "https://dc.lft.to/lastmile_qr_scan"}}, {"is_disabled": 0, "fusion_lat": 0.0, "lat": 38.93965933333333, "type": "electric_bike", "lon": -77.36094083333333, "is_reserved": 0, "fusion_lon": 0.0, "bike_id": "0dfe1e0109a6e0ba5de0cbc4c6b957fd", "name": "0dfe1e0109a6e0ba5de0cbc4c6b957fd", "rental_uris": {"ios": "https://dc.lft.to/lastmile_qr_scan", "android": "https://dc.lft.to/lastmile_qr_scan"}}, {"is_disabled": 0, "fusion_lat": 0.0, "lat": 38.953084, "type": "electric_bike", "lon": -77.06871916666667, "is_reserved": 0, "fusion_lon": 0.0, "bike_id": "9abc07fc7b4b2506e4e481be07bf8978", "name": "9abc07fc7b4b2506e4e481be07bf8978", "rental_uris": {"ios": "https://dc.lft.to/lastmile_qr_scan", "android": "https://dc.lft.to/lastmile_qr_scan"}}, {"is_disabled": 0, "fusion_lat": 0.0, "lat": 38.900333333333336, "type": "electric_scooter", "lon": -77.0021255, "is_reserved": 0, "fusion_lon": 0.0, "bike_id": "49d13ae97700dd1cf933d05cab06b40c", "name": "49d13ae97700dd1cf933d05cab06b40c", "rental_uris": {"ios": "https://dc.lft.to/lastmile_qr_scan", "android": "https://dc.lft.to/lastmile_qr_scan"}}, {"is_disabled": 0, "fusion_lat": 0.0, "lat": 38.925505, "type": "electric_scooter", "lon": -77.0376715, "is_reserved": 0, "fusion_lon": 0.0, "bike_id": "e73b63285db5a33f4a6032ba4aa48383", "name": "e73b63285db5a33f4a6032ba4aa48383", "rental_uris": {"ios": "https://dc.lft.to/lastmile_qr_scan", "android": "https://dc.lft.to/lastmile_qr_scan"}}, {"is_disabled": 0, "fusion_lat": 0.0, "lat": 38.90039083333333, "type": "electric_scooter", "lon": -76.98835433333333, "is_reserved": 0, "fusion_lon": 0.0, "bike_id": "586000dd6420b1434b8e9e9d3cc2d01a", "name": "586000dd6420b1434b8e9e9d3cc2d01a", "rental_uris": {"ios": "https://dc.lft.to/lastmile_qr_scan", "android": "https://dc.lft.to/lastmile_qr_scan"}}, {"is_disabled": 0, "fusion_lat": 0.0, "lat": 38.961434, "type": "electric_scooter", "lon": -77.02782983333333, "is_reserved": 0, "fusion_lon": 0.0, "bike_id": "937a08d27428881df12a11114fe66b34", "name": "937a08d27428881df12a11114fe66b34", "rental_uris": {"ios": "https://dc.lft.to/lastmile_qr_scan", "android": "https://dc.lft.to/lastmile_qr_scan"}}, {"is_disabled": 0, "fusion_lat": 0.0, "lat": 38.90979383333333, "type": "electric_scooter", "lon": -77.03427266666667, "is_reserved": 0, "fusion_lon": 0.0, "bike_id": "ea4bca17d4604062e1b7bf479d8aac42", "name": "ea4bca17d4604062e1b7bf479d8aac42", "rental_uris": {"ios": "https://dc.lft.to/lastmile_qr_scan", "android": "https://dc.lft.to/lastmile_qr_scan"}}, {"is_disabled": 0, "fusion_lat": 0.0, "lat": 38.9155535, "type": "electric_scooter", "lon": -77.033747, "is_reserved": 0, "fusion_lon": 0.0, "bike_id": "dac482cc2d475efa3dc64f23de017409", "name": "dac482cc2d475efa3dc64f23de017409", "rental_uris": {"ios": "https://dc.lft.to/lastmile_qr_scan", "android": "https://dc.lft.to/lastmile_qr_scan"}}, {"is_disabled": 0, "fusion_lat": 0.0, "lat": 38.926486833333335, "type": "electric_scooter", "lon": -77.03712166666666, "is_reserved": 0, "fusion_lon": 0.0, "bike_id": "26b60824901066c9b6a05dd78f363d86", "name": "26b60824901066c9b6a05dd78f363d86", "rental_uris": {"ios": "https://dc.lft.to/lastmile_qr_scan", "android": "https://dc.lft.to/lastmile_qr_scan"}}, {"is_disabled": 0, "fusion_lat": 0.0, "lat": 38.884405, "type": "electric_scooter", "lon": -77.0303825, "is_reserved": 0, "fusion_lon": 0.0, "bike_id": "91d83f1b111b2122f58e458153b1d320", "name": "91d83f1b111b2122f58e458153b1d320", "rental_uris": {"ios": "https://dc.lft.to/lastmile_qr_scan", "android": "https://dc.lft.to/lastmile_qr_scan"}}, {"is_disabled": 0, "fusion_lat": 0.0, "lat": 38.89744116666667, "type": "electric_scooter", "lon": -77.00031766666666, "is_reserved": 0, "fusion_lon": 0.0, "bike_id": "342f88a0f9d13656baaf0160e84eedc6", "name": "342f88a0f9d13656baaf0160e84eedc6", "rental_uris": {"ios": "https://dc.lft.to/lastmile_qr_scan", "android": "https://dc.lft.to/lastmile_qr_scan"}}, {"is_disabled": 0, "fusion_lat": 0.0, "lat": 38.8921985, "type": "electric_scooter", "lon": -77.02223316666667, "is_reserved": 0, "fusion_lon": 0.0, "bike_id": "b4ba70f4888db2743493b774bd342324", "name": "b4ba70f4888db2743493b774bd342324", "rental_uris": {"ios": "https://dc.lft.to/lastmile_qr_scan", "android": "https://dc.lft.to/lastmile_qr_scan"}}, {"is_disabled": 0, "fusion_lat": 0.0, "lat": 38.88489366666667, "type": "electric_scooter", "lon": -77.02188116666666, "is_reserved": 0, "fusion_lon": 0.0, "bike_id": "44950c2f68f54a28a7ef30d3355ed3c0", "name": "44950c2f68f54a28a7ef30d3355ed3c0", "rental_uris": {"ios": "https://dc.lft.to/lastmile_qr_scan", "android": "https://dc.lft.to/lastmile_qr_scan"}}, {"is_disabled": 0, "fusion_lat": 0.0, "lat": 38.905552166666666, "type": "electric_scooter", "lon": -77.05691283333333, "is_reserved": 0, "fusion_lon": 0.0, "bike_id": "cf63e403769b90e28ed93c60a21c5250", "name": "cf63e403769b90e28ed93c60a21c5250", "rental_uris": {"ios": "https://dc.lft.to/lastmile_qr_scan", "android": "https://dc.lft.to/lastmile_qr_scan"}}, {"is_disabled": 0, "fusion_lat": 0.0, "lat": 38.90518516666667, "type": "electric_scooter", "lon": -77.0511415, "is_reserved": 0, "fusion_lon": 0.0, "bike_id": "cd7958a992112dd4cc784af3f531c46f", "name": "cd7958a992112dd4cc784af3f531c46f", "rental_uris": {"ios": "https://dc.lft.to/lastmile_qr_scan", "android": "https://dc.lft.to/lastmile_qr_scan"}}, {"is_disabled": 0, "fusion_lat": 0.0, "lat": 38.89220783333333, "type": "electric_scooter", "lon": -77.02632666666666, "is_reserved": 0, "fusion_lon": 0.0, "bike_id": "906aaa2253628b94c40cd0ad2f62695c", "name": "906aaa2253628b94c40cd0ad2f62695c", "rental_uris": {"ios": "https://dc.lft.to/lastmile_qr_scan", "android": "https://dc.lft.to/lastmile_qr_scan"}}, {"is_disabled": 0, "fusion_lat": 0.0, "lat": 38.844671, "type": "electric_scooter", "lon": -76.99865433333333, "is_reserved": 0, "fusion_lon": 0.0, "bike_id": "36ca6aab3bcf4a4ac672448a71bf2902", "name": "36ca6aab3bcf4a4ac672448a71bf2902", "rental_uris": {"ios": "https://dc.lft.to/lastmile_qr_scan", "android": "https://dc.lft.to/lastmile_qr_scan"}}, {"is_disabled": 0, "fusion_lat": 0.0, "lat": 38.888723, "type": "electric_scooter", "lon": -76.9903675, "is_reserved": 0, "fusion_lon": 0.0, "bike_id": "90c78812cfddf295ca7ff979e7cc9061", "name": "90c78812cfddf295ca7ff979e7cc9061", "rental_uris": {"ios": "https://dc.lft.to/lastmile_qr_scan", "android": "https://dc.lft.to/lastmile_qr_scan"}}, {"is_disabled": 0, "fusion_lat": 0.0, "lat": 38.912712166666665, "type": "electric_scooter", "lon": -77.03139666666667, "is_reserved": 0, "fusion_lon": 0.0, "bike_id": "cab130829c682dc183e31d11d4be92e0", "name": "cab130829c682dc183e31d11d4be92e0", "rental_uris": {"ios": "https://dc.lft.to/lastmile_qr_scan", "android": "https://dc.lft.to/lastmile_qr_scan"}}, {"is_disabled": 0, "fusion_lat": 0.0, "lat": 38.860611166666665, "type": "electric_bike", "lon": -77.05643916666666, "is_reserved": 0, "fusion_lon": 0.0, "bike_id": "6e1e472d81fada74d2e0934f7a2276a9", "name": "6e1e472d81fada74d2e0934f7a2276a9", "rental_uris": {"ios": "https://dc.lft.to/lastmile_qr_scan", "android": "https://dc.lft.to/lastmile_qr_scan"}}, {"is_disabled": 0, "fusion_lat": 0.0, "lat": 38.959535833333334, "type": "electric_bike", "lon": -77.10090766666667, "is_reserved": 0, "fusion_lon": 0.0, "bike_id": "5f08f25d2e6decc63c410062f0363637", "name": "5f08f25d2e6decc63c410062f0363637", "rental_uris": {"ios": "https://dc.lft.to/lastmile_qr_scan", "android": "https://dc.lft.to/lastmile_qr_scan"}}, {"is_disabled": 0, "fusion_lat": 0.0, "lat": 38.935695833333334, "type": "electric_scooter", "lon": -77.03261816666667, "is_reserved": 0, "fusion_lon": 0.0, "bike_id": "a33685cc1e953452915ea3ef4957f423", "name": "a33685cc1e953452915ea3ef4957f423", "rental_uris": {"ios": "https://dc.lft.to/lastmile_qr_scan", "android": "https://dc.lft.to/lastmile_qr_scan"}}, {"is_disabled": 0, "fusion_lat": 0.0, "lat": 38.88504016666667, "type": "electric_scooter", "lon": -77.0056205, "is_reserved": 0, "fusion_lon": 0.0, "bike_id": "7b00a9b0c3c4571fc688e27af41328dc", "name": "7b00a9b0c3c4571fc688e27af41328dc", "rental_uris": {"ios": "https://dc.lft.to/lastmile_qr_scan", "android": "https://dc.lft.to/lastmile_qr_scan"}}, {"is_disabled": 0, "fusion_lat": 0.0, "lat": 38.9319415, "type": "electric_scooter", "lon": -77.03859033333333, "is_reserved": 0, "fusion_lon": 0.0, "bike_id": "982ded38ee979785a260deb310e75658", "name": "982ded38ee979785a260deb310e75658", "rental_uris": {"ios": "https://dc.lft.to/lastmile_qr_scan", "android": "https://dc.lft.to/lastmile_qr_scan"}}, {"is_disabled": 0, "fusion_lat": 0.0, "lat": 38.85946716666667, "type": "electric_scooter", "lon": -76.99095233333334, "is_reserved": 0, "fusion_lon": 0.0, "bike_id": "ccb0a1c61ee06353ad093c9d5830ae35", "name": "ccb0a1c61ee06353ad093c9d5830ae35", "rental_uris": {"ios": "https://dc.lft.to/lastmile_qr_scan", "android": "https://dc.lft.to/lastmile_qr_scan"}}, {"is_disabled": 0, "fusion_lat": 0.0, "lat": 38.9181175, "type": "electric_scooter", "lon": -77.03297533333334, "is_reserved": 0, "fusion_lon": 0.0, "bike_id": "8641d2b52103afbd328a1d69d2928763", "name": "8641d2b52103afbd328a1d69d2928763", "rental_uris": {"ios": "https://dc.lft.to/lastmile_qr_scan", "android": "https://dc.lft.to/lastmile_qr_scan"}}, {"is_disabled": 0, "fusion_lat": 0.0, "lat": 38.89223466666667, "type": "electric_scooter", "lon": -77.04655283333334, "is_reserved": 0, "fusion_lon": 0.0, "bike_id": "3e1b29320a0239037dde0d5abaf0cab7", "name": "3e1b29320a0239037dde0d5abaf0cab7", "rental_uris": {"ios": "https://dc.lft.to/lastmile_qr_scan", "android": "https://dc.lft.to/lastmile_qr_scan"}}, {"is_disabled": 0, "fusion_lat": 0.0, "lat": 38.93972733333333, "type": "electric_scooter", "lon": -77.02893016666667, "is_reserved": 0, "fusion_lon": 0.0, "bike_id": "4a79a64ad4d39ab93792b4057dd2d128", "name": "4a79a64ad4d39ab93792b4057dd2d128", "rental_uris": {"ios": "https://dc.lft.to/lastmile_qr_scan", "android": "https://dc.lft.to/lastmile_qr_scan"}}, {"is_disabled": 0, "fusion_lat": 0.0, "lat": 38.924751, "type": "electric_scooter", "lon": -77.0263065, "is_reserved": 0, "fusion_lon": 0.0, "bike_id": "57d027eb1db54248edf8e88f7b37a22f", "name": "57d027eb1db54248edf8e88f7b37a22f", "rental_uris": {"ios": "https://dc.lft.to/lastmile_qr_scan", "android": "https://dc.lft.to/lastmile_qr_scan"}}, {"is_disabled": 0, "fusion_lat": 0.0, "lat": 38.91298616666667, "type": "electric_scooter", "lon": -77.01965233333334, "is_reserved": 0, "fusion_lon": 0.0, "bike_id": "910549bb1fb59c65c55997c0ebdd560b", "name": "910549bb1fb59c65c55997c0ebdd560b", "rental_uris": {"ios": "https://dc.lft.to/lastmile_qr_scan", "android": "https://dc.lft.to/lastmile_qr_scan"}}, {"is_disabled": 0, "fusion_lat": 0.0, "lat": 38.917184666666664, "type": "electric_scooter", "lon": -77.03838, "is_reserved": 0, "fusion_lon": 0.0, "bike_id": "c7a969e287a3f3e26dd2db64611c47c8", "name": "c7a969e287a3f3e26dd2db64611c47c8", "rental_uris": {"ios": "https://dc.lft.to/lastmile_qr_scan", "android": "https://dc.lft.to/lastmile_qr_scan"}}, {"is_disabled": 0, "fusion_lat": 0.0, "lat": 38.91968516666667, "type": "electric_bike", "lon": -77.0701195, "is_reserved": 0, "fusion_lon": 0.0, "bike_id": "320227262635eb125f6bcd21df98c146", "name": "320227262635eb125f6bcd21df98c146", "rental_uris": {"ios": "https://dc.lft.to/lastmile_qr_scan", "android": "https://dc.lft.to/lastmile_qr_scan"}}, {"is_disabled": 0, "fusion_lat": 0.0, "lat": 38.916955333333334, "type": "electric_scooter", "lon": -77.045981, "is_reserved": 0, "fusion_lon": 0.0, "bike_id": "744fa39b012900b426cd39825bb6f4f4", "name": "744fa39b012900b426cd39825bb6f4f4", "rental_uris": {"ios": "https://dc.lft.to/lastmile_qr_scan", "android": "https://dc.lft.to/lastmile_qr_scan"}}, {"is_disabled": 0, "fusion_lat": 0.0, "lat": 38.887396833333334, "type": "electric_scooter", "lon": -77.02576316666666, "is_reserved": 0, "fusion_lon": 0.0, "bike_id": "d326797df0804c338b72e7e34ebfb5b1", "name": "d326797df0804c338b72e7e34ebfb5b1", "rental_uris": {"ios": "https://dc.lft.to/lastmile_qr_scan", "android": "https://dc.lft.to/lastmile_qr_scan"}}, {"is_disabled": 0, "fusion_lat": 0.0, "lat": 38.902150666666664, "type": "electric_scooter", "lon": -76.9458905, "is_reserved": 0, "fusion_lon": 0.0, "bike_id": "a72c8448dcdabad7b632469fc02ff289", "name": "a72c8448dcdabad7b632469fc02ff289", "rental_uris": {"ios": "https://dc.lft.to/lastmile_qr_scan", "android": "https://dc.lft.to/lastmile_qr_scan"}}, {"is_disabled": 0, "fusion_lat": 0.0, "lat": 38.9588075, "type": "electric_bike", "lon": -77.0103865, "is_reserved": 0, "fusion_lon": 0.0, "bike_id": "78d49b62d389f6709d251ebfab8bf1cd", "name": "78d49b62d389f6709d251ebfab8bf1cd", "rental_uris": {"ios": "https://dc.lft.to/lastmile_qr_scan", "android": "https://dc.lft.to/lastmile_qr_scan"}}, {"is_disabled": 0, "fusion_lat": 0.0, "lat": 38.994141, "type": "electric_bike", "lon": -77.03126166666667, "is_reserved": 0, "fusion_lon": 0.0, "bike_id": "121fac9871e78824638b0a01154b113e", "name": "121fac9871e78824638b0a01154b113e", "rental_uris": {"ios": "https://dc.lft.to/lastmile_qr_scan", "android": "https://dc.lft.to/lastmile_qr_scan"}}, {"is_disabled": 0, "fusion_lat": 0.0, "lat": 38.924721, "type": "electric_scooter", "lon": -77.03915266666667, "is_reserved": 0, "fusion_lon": 0.0, "bike_id": "1a392227005809b4fdfef4edcdec1776", "name": "1a392227005809b4fdfef4edcdec1776", "rental_uris": {"ios": "https://dc.lft.to/lastmile_qr_scan", "android": "https://dc.lft.to/lastmile_qr_scan"}}, {"is_disabled": 0, "fusion_lat": 0.0, "lat": 38.967836166666665, "type": "electric_bike", "lon": -76.95781283333334, "is_reserved": 0, "fusion_lon": 0.0, "bike_id": "98d877f350e5d93444ae9d5f21bf0c44", "name": "98d877f350e5d93444ae9d5f21bf0c44", "rental_uris": {"ios": "https://dc.lft.to/lastmile_qr_scan", "android": "https://dc.lft.to/lastmile_qr_scan"}}, {"is_disabled": 0, "fusion_lat": 0.0, "lat": 38.8962405, "type": "electric_scooter", "lon": -77.00919116666667, "is_reserved": 0, "fusion_lon": 0.0, "bike_id": "601a44df56aa0e3714fa2bf8d933b848", "name": "601a44df56aa0e3714fa2bf8d933b848", "rental_uris": {"ios": "https://dc.lft.to/lastmile_qr_scan", "android": "https://dc.lft.to/lastmile_qr_scan"}}, {"is_disabled": 0, "fusion_lat": 0.0, "lat": 38.892234333333334, "type": "electric_scooter", "lon": -77.0437295, "is_reserved": 0, "fusion_lon": 0.0, "bike_id": "5a8a220c98c02a7a9921658e5d529d44", "name": "5a8a220c98c02a7a9921658e5d529d44", "rental_uris": {"ios": "https://dc.lft.to/lastmile_qr_scan", "android": "https://dc.lft.to/lastmile_qr_scan"}}, {"is_disabled": 0, "fusion_lat": 0.0, "lat": 38.9182465, "type": "electric_scooter", "lon": -77.036462, "is_reserved": 0, "fusion_lon": 0.0, "bike_id": "79153b5ac41d184c29b5afa0a18c5ced", "name": "79153b5ac41d184c29b5afa0a18c5ced", "rental_uris": {"ios": "https://dc.lft.to/lastmile_qr_scan", "android": "https://dc.lft.to/lastmile_qr_scan"}}, {"is_disabled": 0, "fusion_lat": 0.0, "lat": 38.919594833333335, "type": "electric_bike", "lon": -76.972665, "is_reserved": 0, "fusion_lon": 0.0, "bike_id": "f8ac8f6d69dc381d0720657f460ec1f5", "name": "f8ac8f6d69dc381d0720657f460ec1f5", "rental_uris": {"ios": "https://dc.lft.to/lastmile_qr_scan", "android": "https://dc.lft.to/lastmile_qr_scan"}}, {"is_disabled": 0, "fusion_lat": 0.0, "lat": 38.902692, "type": "electric_scooter", "lon": -77.03357733333333, "is_reserved": 0, "fusion_lon": 0.0, "bike_id": "f3ef1c11689c23737f591812013cad9d", "name": "f3ef1c11689c23737f591812013cad9d", "rental_uris": {"ios": "https://dc.lft.to/lastmile_qr_scan", "android": "https://dc.lft.to/lastmile_qr_scan"}}, {"is_disabled": 0, "fusion_lat": 0.0, "lat": 38.86213216666667, "type": "electric_scooter", "lon": -76.99447383333333, "is_reserved": 0, "fusion_lon": 0.0, "bike_id": "ec624fea7e673e25e87f1ad260728c29", "name": "ec624fea7e673e25e87f1ad260728c29", "rental_uris": {"ios": "https://dc.lft.to/lastmile_qr_scan", "android": "https://dc.lft.to/lastmile_qr_scan"}}, {"is_disabled": 0, "fusion_lat": 0.0, "lat": 38.915632333333335, "type": "electric_scooter", "lon": -77.04673366666667, "is_reserved": 0, "fusion_lon": 0.0, "bike_id": "6c7c61bda713b097580d5e56a6dcc95b", "name": "6c7c61bda713b097580d5e56a6dcc95b", "rental_uris": {"ios": "https://dc.lft.to/lastmile_qr_scan", "android": "https://dc.lft.to/lastmile_qr_scan"}}, {"is_disabled": 0, "fusion_lat": 0.0, "lat": 38.930129, "type": "electric_bike", "lon": -77.2164885, "is_reserved": 0, "fusion_lon": 0.0, "bike_id": "e0009bf561d00fd85d340783c6fbd058", "name": "e0009bf561d00fd85d340783c6fbd058", "rental_uris": {"ios": "https://dc.lft.to/lastmile_qr_scan", "android": "https://dc.lft.to/lastmile_qr_scan"}}, {"is_disabled": 0, "fusion_lat": 0.0, "lat": 38.9014835, "type": "electric_scooter", "lon": -77.02858833333333, "is_reserved": 0, "fusion_lon": 0.0, "bike_id": "e2dc0c41e588ba141d3178869d6cd463", "name": "e2dc0c41e588ba141d3178869d6cd463", "rental_uris": {"ios": "https://dc.lft.to/lastmile_qr_scan", "android": "https://dc.lft.to/lastmile_qr_scan"}}, {"is_disabled": 0, "fusion_lat": 0.0, "lat": 38.92146866666667, "type": "electric_scooter", "lon": -77.02428516666667, "is_reserved": 0, "fusion_lon": 0.0, "bike_id": "d1faf5d0c26395fed68255948e73998e", "name": "d1faf5d0c26395fed68255948e73998e", "rental_uris": {"ios": "https://dc.lft.to/lastmile_qr_scan", "android": "https://dc.lft.to/lastmile_qr_scan"}}, {"is_disabled": 0, "fusion_lat": 0.0, "lat": 38.936285, "type": "electric_scooter", "lon": -77.05880416666666, "is_reserved": 0, "fusion_lon": 0.0, "bike_id": "3f35a487f6281960e03eddf7f0c1d7a3", "name": "3f35a487f6281960e03eddf7f0c1d7a3", "rental_uris": {"ios": "https://dc.lft.to/lastmile_qr_scan", "android": "https://dc.lft.to/lastmile_qr_scan"}}, {"is_disabled": 0, "fusion_lat": 0.0, "lat": 38.92149033333333, "type": "electric_scooter", "lon": -77.04223733333333, "is_reserved": 0, "fusion_lon": 0.0, "bike_id": "3dbec28045ffdd344488a7052d6aaa65", "name": "3dbec28045ffdd344488a7052d6aaa65", "rental_uris": {"ios": "https://dc.lft.to/lastmile_qr_scan", "android": "https://dc.lft.to/lastmile_qr_scan"}}, {"is_disabled": 0, "fusion_lat": 0.0, "lat": 38.91892166666667, "type": "electric_scooter", "lon": -77.0391545, "is_reserved": 0, "fusion_lon": 0.0, "bike_id": "66409b95ac2a49bdadfb124576f8a5d6", "name": "66409b95ac2a49bdadfb124576f8a5d6", "rental_uris": {"ios": "https://dc.lft.to/lastmile_qr_scan", "android": "https://dc.lft.to/lastmile_qr_scan"}}, {"is_disabled": 0, "fusion_lat": 0.0, "lat": 38.9173805, "type": "electric_scooter", "lon": -77.02116383333333, "is_reserved": 0, "fusion_lon": 0.0, "bike_id": "f1cba804feb9ddda921e1cada65786c0", "name": "f1cba804feb9ddda921e1cada65786c0", "rental_uris": {"ios": "https://dc.lft.to/lastmile_qr_scan", "android": "https://dc.lft.to/lastmile_qr_scan"}}, {"is_disabled": 0, "fusion_lat": 0.0, "lat": 38.8961005, "type": "electric_scooter", "lon": -76.95592083333334, "is_reserved": 0, "fusion_lon": 0.0, "bike_id": "465e8aedb96351c683c3ee3c47cfd8f0", "name": "465e8aedb96351c683c3ee3c47cfd8f0", "rental_uris": {"ios": "https://dc.lft.to/lastmile_qr_scan", "android": "https://dc.lft.to/lastmile_qr_scan"}}, {"is_disabled": 0, "fusion_lat": 0.0, "lat": 38.917193, "type": "electric_scooter", "lon": -77.03836333333334, "is_reserved": 0, "fusion_lon": 0.0, "bike_id": "9dc7ea1463ef609abbb91adab765efce", "name": "9dc7ea1463ef609abbb91adab765efce", "rental_uris": {"ios": "https://dc.lft.to/lastmile_qr_scan", "android": "https://dc.lft.to/lastmile_qr_scan"}}, {"is_disabled": 0, "fusion_lat": 0.0, "lat": 38.90568433333333, "type": "electric_scooter", "lon": -77.034749, "is_reserved": 0, "fusion_lon": 0.0, "bike_id": "d356994cdeff3b66d63adc252a8bbd2a", "name": "d356994cdeff3b66d63adc252a8bbd2a", "rental_uris": {"ios": "https://dc.lft.to/lastmile_qr_scan", "android": "https://dc.lft.to/lastmile_qr_scan"}}, {"is_disabled": 0, "fusion_lat": 0.0, "lat": 38.88740983333334, "type": "electric_scooter", "lon": -77.02167483333334, "is_reserved": 0, "fusion_lon": 0.0, "bike_id": "99146434fc5451b67f79af7dd827bea6", "name": "99146434fc5451b67f79af7dd827bea6", "rental_uris": {"ios": "https://dc.lft.to/lastmile_qr_scan", "android": "https://dc.lft.to/lastmile_qr_scan"}}, {"is_disabled": 0, "fusion_lat": 0.0, "lat": 38.895619333333336, "type": "electric_bike", "lon": -77.12731516666666, "is_reserved": 0, "fusion_lon": 0.0, "bike_id": "656a565f5a2b3eeba527774ded98e1d9", "name": "656a565f5a2b3eeba527774ded98e1d9", "rental_uris": {"ios": "https://dc.lft.to/lastmile_qr_scan", "android": "https://dc.lft.to/lastmile_qr_scan"}}, {"is_disabled": 0, "fusion_lat": 0.0, "lat": 38.91400383333333, "type": "electric_scooter", "lon": -77.03059766666667, "is_reserved": 0, "fusion_lon": 0.0, "bike_id": "b597146c61dd46534ed0767e31008336", "name": "b597146c61dd46534ed0767e31008336", "rental_uris": {"ios": "https://dc.lft.to/lastmile_qr_scan", "android": "https://dc.lft.to/lastmile_qr_scan"}}, {"is_disabled": 0, "fusion_lat": 0.0, "lat": 38.914152, "type": "electric_scooter", "lon": -77.01956633333333, "is_reserved": 0, "fusion_lon": 0.0, "bike_id": "42fc8479328024b4ec7678e94cc445f9", "name": "42fc8479328024b4ec7678e94cc445f9", "rental_uris": {"ios": "https://dc.lft.to/lastmile_qr_scan", "android": "https://dc.lft.to/lastmile_qr_scan"}}, {"is_disabled": 0, "fusion_lat": 0.0, "lat": 38.896265666666665, "type": "electric_scooter", "lon": -77.04412916666666, "is_reserved": 0, "fusion_lon": 0.0, "bike_id": "26bfc022929926551a0990dd6ea77e19", "name": "26bfc022929926551a0990dd6ea77e19", "rental_uris": {"ios": "https://dc.lft.to/lastmile_qr_scan", "android": "https://dc.lft.to/lastmile_qr_scan"}}, {"is_disabled": 0, "fusion_lat": 0.0, "lat": 38.919071333333335, "type": "electric_scooter", "lon": -77.0416335, "is_reserved": 0, "fusion_lon": 0.0, "bike_id": "5a05fff4a18384d4619ac25f2dc20fe4", "name": "5a05fff4a18384d4619ac25f2dc20fe4", "rental_uris": {"ios": "https://dc.lft.to/lastmile_qr_scan", "android": "https://dc.lft.to/lastmile_qr_scan"}}, {"is_disabled": 0, "fusion_lat": 0.0, "lat": 38.92314233333333, "type": "electric_scooter", "lon": -77.03953383333334, "is_reserved": 0, "fusion_lon": 0.0, "bike_id": "c0bf61dcc19aae79946b06d71d071ab6", "name": "c0bf61dcc19aae79946b06d71d071ab6", "rental_uris": {"ios": "https://dc.lft.to/lastmile_qr_scan", "android": "https://dc.lft.to/lastmile_qr_scan"}}, {"is_disabled": 0, "fusion_lat": 0.0, "lat": 38.90372583333333, "type": "electric_scooter", "lon": -77.04448583333334, "is_reserved": 0, "fusion_lon": 0.0, "bike_id": "3f8c0cb0974f27d14d31019f78b7e85d", "name": "3f8c0cb0974f27d14d31019f78b7e85d", "rental_uris": {"ios": "https://dc.lft.to/lastmile_qr_scan", "android": "https://dc.lft.to/lastmile_qr_scan"}}, {"is_disabled": 0, "fusion_lat": 0.0, "lat": 38.901798166666666, "type": "electric_scooter", "lon": -77.000032, "is_reserved": 0, "fusion_lon": 0.0, "bike_id": "7cd9e088980cadd62cd926505243a22c", "name": "7cd9e088980cadd62cd926505243a22c", "rental_uris": {"ios": "https://dc.lft.to/lastmile_qr_scan", "android": "https://dc.lft.to/lastmile_qr_scan"}}, {"is_disabled": 0, "fusion_lat": 0.0, "lat": 38.90321, "type": "electric_scooter", "lon": -77.03460733333333, "is_reserved": 0, "fusion_lon": 0.0, "bike_id": "c8c28eda9e0ea37638534e11266dbf05", "name": "c8c28eda9e0ea37638534e11266dbf05", "rental_uris": {"ios": "https://dc.lft.to/lastmile_qr_scan", "android": "https://dc.lft.to/lastmile_qr_scan"}}, {"is_disabled": 0, "fusion_lat": 0.0, "lat": 38.925819833333335, "type": "electric_scooter", "lon": -77.057554, "is_reserved": 0, "fusion_lon": 0.0, "bike_id": "df6fd12c3eeab1cec683885cdc0ec52a", "name": "df6fd12c3eeab1cec683885cdc0ec52a", "rental_uris": {"ios": "https://dc.lft.to/lastmile_qr_scan", "android": "https://dc.lft.to/lastmile_qr_scan"}}, {"is_disabled": 0, "fusion_lat": 0.0, "lat": 38.87228366666667, "type": "electric_scooter", "lon": -77.01764116666666, "is_reserved": 0, "fusion_lon": 0.0, "bike_id": "1dc61ad4c8b921b24e628a211b878ac9", "name": "1dc61ad4c8b921b24e628a211b878ac9", "rental_uris": {"ios": "https://dc.lft.to/lastmile_qr_scan", "android": "https://dc.lft.to/lastmile_qr_scan"}}, {"is_disabled": 0, "fusion_lat": 0.0, "lat": 38.909778, "type": "electric_scooter", "lon": -77.03424, "is_reserved": 0, "fusion_lon": 0.0, "bike_id": "e3447fd53b996332fbbe6cf113c44fa7", "name": "e3447fd53b996332fbbe6cf113c44fa7", "rental_uris": {"ios": "https://dc.lft.to/lastmile_qr_scan", "android": "https://dc.lft.to/lastmile_qr_scan"}}, {"is_disabled": 0, "fusion_lat": 0.0, "lat": 38.89621316666667, "type": "electric_scooter", "lon": -77.02957033333334, "is_reserved": 0, "fusion_lon": 0.0, "bike_id": "4988edea9697457ee5457f4116d34d81", "name": "4988edea9697457ee5457f4116d34d81", "rental_uris": {"ios": "https://dc.lft.to/lastmile_qr_scan", "android": "https://dc.lft.to/lastmile_qr_scan"}}, {"is_disabled": 0, "fusion_lat": 0.0, "lat": 38.884378166666664, "type": "electric_scooter", "lon": -77.03037666666667, "is_reserved": 0, "fusion_lon": 0.0, "bike_id": "dc3f44d39c4c94b81128b94b0f209166", "name": "dc3f44d39c4c94b81128b94b0f209166", "rental_uris": {"ios": "https://dc.lft.to/lastmile_qr_scan", "android": "https://dc.lft.to/lastmile_qr_scan"}}, {"is_disabled": 0, "fusion_lat": 0.0, "lat": 38.92362966666666, "type": "electric_scooter", "lon": -77.05752983333333, "is_reserved": 0, "fusion_lon": 0.0, "bike_id": "0a7c39bae99beee6fdca334fdb4552eb", "name": "0a7c39bae99beee6fdca334fdb4552eb", "rental_uris": {"ios": "https://dc.lft.to/lastmile_qr_scan", "android": "https://dc.lft.to/lastmile_qr_scan"}}, {"is_disabled": 0, "fusion_lat": 0.0, "lat": 38.9285735, "type": "electric_scooter", "lon": -77.01377916666667, "is_reserved": 0, "fusion_lon": 0.0, "bike_id": "13ff894704084fc25c17ad6ac0752723", "name": "13ff894704084fc25c17ad6ac0752723", "rental_uris": {"ios": "https://dc.lft.to/lastmile_qr_scan", "android": "https://dc.lft.to/lastmile_qr_scan"}}, {"is_disabled": 0, "fusion_lat": 0.0, "lat": 38.93206166666667, "type": "electric_bike", "lon": -76.9742525, "is_reserved": 0, "fusion_lon": 0.0, "bike_id": "db138f1b0ad5ad0d473a91c456b840e6", "name": "db138f1b0ad5ad0d473a91c456b840e6", "rental_uris": {"ios": "https://dc.lft.to/lastmile_qr_scan", "android": "https://dc.lft.to/lastmile_qr_scan"}}, {"is_disabled": 0, "fusion_lat": 0.0, "lat": 38.89806033333333, "type": "electric_scooter", "lon": -77.02191016666667, "is_reserved": 0, "fusion_lon": 0.0, "bike_id": "2076c0b80a84c2d4f84c6752db99daed", "name": "2076c0b80a84c2d4f84c6752db99daed", "rental_uris": {"ios": "https://dc.lft.to/lastmile_qr_scan", "android": "https://dc.lft.to/lastmile_qr_scan"}}, {"is_disabled": 0, "fusion_lat": 0.0, "lat": 38.90349283333333, "type": "electric_scooter", "lon": -77.01636033333334, "is_reserved": 0, "fusion_lon": 0.0, "bike_id": "6508746478836fb1516458ddfb7d5ea8", "name": "6508746478836fb1516458ddfb7d5ea8", "rental_uris": {"ios": "https://dc.lft.to/lastmile_qr_scan", "android": "https://dc.lft.to/lastmile_qr_scan"}}, {"is_disabled": 0, "fusion_lat": 0.0, "lat": 38.92093166666667, "type": "electric_scooter", "lon": -77.02518516666666, "is_reserved": 0, "fusion_lon": 0.0, "bike_id": "d49cfde9dfebb663c7704c61c19c91e0", "name": "d49cfde9dfebb663c7704c61c19c91e0", "rental_uris": {"ios": "https://dc.lft.to/lastmile_qr_scan", "android": "https://dc.lft.to/lastmile_qr_scan"}}, {"is_disabled": 0, "fusion_lat": 0.0, "lat": 38.98504283333333, "type": "electric_bike", "lon": -76.98197016666667, "is_reserved": 0, "fusion_lon": 0.0, "bike_id": "962f3447f1b05f5accccb78ad2913242", "name": "962f3447f1b05f5accccb78ad2913242", "rental_uris": {"ios": "https://dc.lft.to/lastmile_qr_scan", "android": "https://dc.lft.to/lastmile_qr_scan"}}, {"is_disabled": 0, "fusion_lat": 0.0, "lat": 38.89742833333333, "type": "electric_scooter", "lon": -77.04682383333333, "is_reserved": 0, "fusion_lon": 0.0, "bike_id": "c0d2f361475626d7b470a3370b6f3a91", "name": "c0d2f361475626d7b470a3370b6f3a91", "rental_uris": {"ios": "https://dc.lft.to/lastmile_qr_scan", "android": "https://dc.lft.to/lastmile_qr_scan"}}, {"is_disabled": 0, "fusion_lat": 0.0, "lat": 38.916935333333335, "type": "electric_scooter", "lon": -77.03625983333333, "is_reserved": 0, "fusion_lon": 0.0, "bike_id": "f11e1b9fa1a4dfa0ae32946d6cf453ef", "name": "f11e1b9fa1a4dfa0ae32946d6cf453ef", "rental_uris": {"ios": "https://dc.lft.to/lastmile_qr_scan", "android": "https://dc.lft.to/lastmile_qr_scan"}}, {"is_disabled": 0, "fusion_lat": 0.0, "lat": 38.90792716666667, "type": "electric_scooter", "lon": -77.03666283333334, "is_reserved": 0, "fusion_lon": 0.0, "bike_id": "ad2179abd96fb45ec5c3c2e77bdb1af6", "name": "ad2179abd96fb45ec5c3c2e77bdb1af6", "rental_uris": {"ios": "https://dc.lft.to/lastmile_qr_scan", "android": "https://dc.lft.to/lastmile_qr_scan"}}, {"is_disabled": 0, "fusion_lat": 0.0, "lat": 38.941660666666664, "type": "electric_scooter", "lon": -77.0253385, "is_reserved": 0, "fusion_lon": 0.0, "bike_id": "5d875d3712df738683fb4b7e8a740d72", "name": "5d875d3712df738683fb4b7e8a740d72", "rental_uris": {"ios": "https://dc.lft.to/lastmile_qr_scan", "android": "https://dc.lft.to/lastmile_qr_scan"}}, {"is_disabled": 0, "fusion_lat": 0.0, "lat": 38.916969333333334, "type": "electric_scooter", "lon": -77.03337633333334, "is_reserved": 0, "fusion_lon": 0.0, "bike_id": "6f7493bad668ccd8b339c5b38a45f134", "name": "6f7493bad668ccd8b339c5b38a45f134", "rental_uris": {"ios": "https://dc.lft.to/lastmile_qr_scan", "android": "https://dc.lft.to/lastmile_qr_scan"}}, {"is_disabled": 0, "fusion_lat": 0.0, "lat": 38.8817895, "type": "electric_scooter", "lon": -77.02084966666666, "is_reserved": 0, "fusion_lon": 0.0, "bike_id": "5a9343babdb734632343a8e5dc290a97", "name": "5a9343babdb734632343a8e5dc290a97", "rental_uris": {"ios": "https://dc.lft.to/lastmile_qr_scan", "android": "https://dc.lft.to/lastmile_qr_scan"}}, {"is_disabled": 0, "fusion_lat": 0.0, "lat": 38.930120333333335, "type": "electric_scooter", "lon": -77.0208685, "is_reserved": 0, "fusion_lon": 0.0, "bike_id": "008860f1f62f93106f1ef123d625ccf2", "name": "008860f1f62f93106f1ef123d625ccf2", "rental_uris": {"ios": "https://dc.lft.to/lastmile_qr_scan", "android": "https://dc.lft.to/lastmile_qr_scan"}}, {"is_disabled": 0, "fusion_lat": 0.0, "lat": 38.89564433333334, "type": "electric_scooter", "lon": -77.0217405, "is_reserved": 0, "fusion_lon": 0.0, "bike_id": "cb95a08e520c1736d46957831a38c823", "name": "cb95a08e520c1736d46957831a38c823", "rental_uris": {"ios": "https://dc.lft.to/lastmile_qr_scan", "android": "https://dc.lft.to/lastmile_qr_scan"}}, {"is_disabled": 0, "fusion_lat": 0.0, "lat": 38.869878666666665, "type": "electric_bike", "lon": -76.95984233333333, "is_reserved": 0, "fusion_lon": 0.0, "bike_id": "483dbed564550cb89cc8b54aad2cc701", "name": "483dbed564550cb89cc8b54aad2cc701", "rental_uris": {"ios": "https://dc.lft.to/lastmile_qr_scan", "android": "https://dc.lft.to/lastmile_qr_scan"}}, {"is_disabled": 0, "fusion_lat": 0.0, "lat": 38.892208333333336, "type": "electric_scooter", "lon": -77.0263335, "is_reserved": 0, "fusion_lon": 0.0, "bike_id": "b68cc8feceb381a320e1a07ecbdcbf38", "name": "b68cc8feceb381a320e1a07ecbdcbf38", "rental_uris": {"ios": "https://dc.lft.to/lastmile_qr_scan", "android": "https://dc.lft.to/lastmile_qr_scan"}}, {"is_disabled": 0, "fusion_lat": 0.0, "lat": 38.8791655, "type": "electric_scooter", "lon": -77.005781, "is_reserved": 0, "fusion_lon": 0.0, "bike_id": "56db9d8e638c45d0d3802210c1267cbb", "name": "56db9d8e638c45d0d3802210c1267cbb", "rental_uris": {"ios": "https://dc.lft.to/lastmile_qr_scan", "android": "https://dc.lft.to/lastmile_qr_scan"}}, {"is_disabled": 0, "fusion_lat": 0.0, "lat": 38.898049, "type": "electric_scooter", "lon": -77.03145816666667, "is_reserved": 0, "fusion_lon": 0.0, "bike_id": "776ca82d707172cf48ab72b9f7a864a9", "name": "776ca82d707172cf48ab72b9f7a864a9", "rental_uris": {"ios": "https://dc.lft.to/lastmile_qr_scan", "android": "https://dc.lft.to/lastmile_qr_scan"}}, {"is_disabled": 0, "fusion_lat": 0.0, "lat": 38.910418666666665, "type": "electric_scooter", "lon": -77.010095, "is_reserved": 0, "fusion_lon": 0.0, "bike_id": "7e21e014e63fdfd2740b74cd91f11273", "name": "7e21e014e63fdfd2740b74cd91f11273", "rental_uris": {"ios": "https://dc.lft.to/lastmile_qr_scan", "android": "https://dc.lft.to/lastmile_qr_scan"}}, {"is_disabled": 0, "fusion_lat": 0.0, "lat": 38.857956333333334, "type": "electric_scooter", "lon": -76.98651283333334, "is_reserved": 0, "fusion_lon": 0.0, "bike_id": "cfdd95f6750293b5872ba0882bcab185", "name": "cfdd95f6750293b5872ba0882bcab185", "rental_uris": {"ios": "https://dc.lft.to/lastmile_qr_scan", "android": "https://dc.lft.to/lastmile_qr_scan"}}, {"is_disabled": 0, "fusion_lat": 0.0, "lat": 38.93238783333334, "type": "electric_scooter", "lon": -77.03279833333333, "is_reserved": 0, "fusion_lon": 0.0, "bike_id": "b6cf493cd18d1d5d96f2c1cb7d3a0e0c", "name": "b6cf493cd18d1d5d96f2c1cb7d3a0e0c", "rental_uris": {"ios": "https://dc.lft.to/lastmile_qr_scan", "android": "https://dc.lft.to/lastmile_qr_scan"}}, {"is_disabled": 0, "fusion_lat": 0.0, "lat": 38.884941833333336, "type": "electric_scooter", "lon": -77.00714483333333, "is_reserved": 0, "fusion_lon": 0.0, "bike_id": "8158a8a9f7150e58f97aab817159076d", "name": "8158a8a9f7150e58f97aab817159076d", "rental_uris": {"ios": "https://dc.lft.to/lastmile_qr_scan", "android": "https://dc.lft.to/lastmile_qr_scan"}}, {"is_disabled": 0, "fusion_lat": 0.0, "lat": 38.806186333333336, "type": "electric_bike", "lon": -77.063481, "is_reserved": 0, "fusion_lon": 0.0, "bike_id": "96c1788e244db30b6f512643ee01d41b", "name": "96c1788e244db30b6f512643ee01d41b", "rental_uris": {"ios": "https://dc.lft.to/lastmile_qr_scan", "android": "https://dc.lft.to/lastmile_qr_scan"}}, {"is_disabled": 0, "fusion_lat": 0.0, "lat": 38.89455016666667, "type": "electric_scooter", "lon": -77.046766, "is_reserved": 0, "fusion_lon": 0.0, "bike_id": "05fa2f0b931e545f126ba5fb0d7401f2", "name": "05fa2f0b931e545f126ba5fb0d7401f2", "rental_uris": {"ios": "https://dc.lft.to/lastmile_qr_scan", "android": "https://dc.lft.to/lastmile_qr_scan"}}, {"is_disabled": 0, "fusion_lat": 0.0, "lat": 38.91104933333333, "type": "electric_scooter", "lon": -77.02222933333333, "is_reserved": 0, "fusion_lon": 0.0, "bike_id": "76587432ef7c5a6dc504c8e1507dcf18", "name": "76587432ef7c5a6dc504c8e1507dcf18", "rental_uris": {"ios": "https://dc.lft.to/lastmile_qr_scan", "android": "https://dc.lft.to/lastmile_qr_scan"}}, {"is_disabled": 0, "fusion_lat": 0.0, "lat": 38.892450833333335, "type": "electric_scooter", "lon": -77.02814716666667, "is_reserved": 0, "fusion_lon": 0.0, "bike_id": "705e2aca464b838c93d1d04e89bfc1ed", "name": "705e2aca464b838c93d1d04e89bfc1ed", "rental_uris": {"ios": "https://dc.lft.to/lastmile_qr_scan", "android": "https://dc.lft.to/lastmile_qr_scan"}}, {"is_disabled": 0, "fusion_lat": 0.0, "lat": 38.8904, "type": "electric_scooter", "lon": -76.9375255, "is_reserved": 0, "fusion_lon": 0.0, "bike_id": "e258e975a6285f086ba00af162caf797", "name": "e258e975a6285f086ba00af162caf797", "rental_uris": {"ios": "https://dc.lft.to/lastmile_qr_scan", "android": "https://dc.lft.to/lastmile_qr_scan"}}, {"is_disabled": 0, "fusion_lat": 0.0, "lat": 38.90008383333333, "type": "electric_scooter", "lon": -77.03344866666667, "is_reserved": 0, "fusion_lon": 0.0, "bike_id": "0b5f9e3ca4faa5ecc944922504095018", "name": "0b5f9e3ca4faa5ecc944922504095018", "rental_uris": {"ios": "https://dc.lft.to/lastmile_qr_scan", "android": "https://dc.lft.to/lastmile_qr_scan"}}, {"is_disabled": 0, "fusion_lat": 0.0, "lat": 38.89756916666666, "type": "electric_scooter", "lon": -76.94183766666667, "is_reserved": 0, "fusion_lon": 0.0, "bike_id": "f6e3e7dff867ed74e8d6062261e4f173", "name": "f6e3e7dff867ed74e8d6062261e4f173", "rental_uris": {"ios": "https://dc.lft.to/lastmile_qr_scan", "android": "https://dc.lft.to/lastmile_qr_scan"}}, {"is_disabled": 0, "fusion_lat": 0.0, "lat": 38.903521, "type": "electric_scooter", "lon": -77.04529616666666, "is_reserved": 0, "fusion_lon": 0.0, "bike_id": "6bc11c539552b8b466fd782915a8981d", "name": "6bc11c539552b8b466fd782915a8981d", "rental_uris": {"ios": "https://dc.lft.to/lastmile_qr_scan", "android": "https://dc.lft.to/lastmile_qr_scan"}}, {"is_disabled": 0, "fusion_lat": 0.0, "lat": 38.906057, "type": "electric_scooter", "lon": -77.04346316666667, "is_reserved": 0, "fusion_lon": 0.0, "bike_id": "28f1583bf4bcc416e344cebea17841ca", "name": "28f1583bf4bcc416e344cebea17841ca", "rental_uris": {"ios": "https://dc.lft.to/lastmile_qr_scan", "android": "https://dc.lft.to/lastmile_qr_scan"}}, {"is_disabled": 0, "fusion_lat": 0.0, "lat": 38.92580533333334, "type": "electric_scooter", "lon": -77.050565, "is_reserved": 0, "fusion_lon": 0.0, "bike_id": "b966e1b0efa6c7824d1a02183d9fd841", "name": "b966e1b0efa6c7824d1a02183d9fd841", "rental_uris": {"ios": "https://dc.lft.to/lastmile_qr_scan", "android": "https://dc.lft.to/lastmile_qr_scan"}}, {"is_disabled": 0, "fusion_lat": 0.0, "lat": 38.85520483333333, "type": "electric_bike", "lon": -76.98433383333334, "is_reserved": 0, "fusion_lon": 0.0, "bike_id": "cfcc30b852af31f0bcb2b91c31e33952", "name": "cfcc30b852af31f0bcb2b91c31e33952", "rental_uris": {"ios": "https://dc.lft.to/lastmile_qr_scan", "android": "https://dc.lft.to/lastmile_qr_scan"}}, {"is_disabled": 0, "fusion_lat": 0.0, "lat": 38.88430483333333, "type": "electric_scooter", "lon": -76.95760283333334, "is_reserved": 0, "fusion_lon": 0.0, "bike_id": "371f0dc0c2fed1d58a9427234d67bb69", "name": "371f0dc0c2fed1d58a9427234d67bb69", "rental_uris": {"ios": "https://dc.lft.to/lastmile_qr_scan", "android": "https://dc.lft.to/lastmile_qr_scan"}}, {"is_disabled": 0, "fusion_lat": 0.0, "lat": 38.91156433333333, "type": "electric_scooter", "lon": -77.01997183333333, "is_reserved": 0, "fusion_lon": 0.0, "bike_id": "28013c95215ac3ed3bf9134023c4b3e8", "name": "28013c95215ac3ed3bf9134023c4b3e8", "rental_uris": {"ios": "https://dc.lft.to/lastmile_qr_scan", "android": "https://dc.lft.to/lastmile_qr_scan"}}, {"is_disabled": 0, "fusion_lat": 0.0, "lat": 38.8976805, "type": "electric_scooter", "lon": -77.0320075, "is_reserved": 0, "fusion_lon": 0.0, "bike_id": "28ddf98c883bb29a08ae753c66592a3e", "name": "28ddf98c883bb29a08ae753c66592a3e", "rental_uris": {"ios": "https://dc.lft.to/lastmile_qr_scan", "android": "https://dc.lft.to/lastmile_qr_scan"}}, {"is_disabled": 0, "fusion_lat": 0.0, "lat": 38.90561483333333, "type": "electric_scooter", "lon": -77.04659066666666, "is_reserved": 0, "fusion_lon": 0.0, "bike_id": "02e5362b31ca5bd0119bb0118524ed2a", "name": "02e5362b31ca5bd0119bb0118524ed2a", "rental_uris": {"ios": "https://dc.lft.to/lastmile_qr_scan", "android": "https://dc.lft.to/lastmile_qr_scan"}}, {"is_disabled": 0, "fusion_lat": 0.0, "lat": 38.9166485, "type": "electric_scooter", "lon": -77.02702216666667, "is_reserved": 0, "fusion_lon": 0.0, "bike_id": "c18a35f9bf54f68174d1d5594332fb67", "name": "c18a35f9bf54f68174d1d5594332fb67", "rental_uris": {"ios": "https://dc.lft.to/lastmile_qr_scan", "android": "https://dc.lft.to/lastmile_qr_scan"}}, {"is_disabled": 0, "fusion_lat": 0.0, "lat": 38.85785966666667, "type": "electric_bike", "lon": -77.0995985, "is_reserved": 0, "fusion_lon": 0.0, "bike_id": "c3e94d8d7c69f2bb04548acd86e76922", "name": "c3e94d8d7c69f2bb04548acd86e76922", "rental_uris": {"ios": "https://dc.lft.to/lastmile_qr_scan", "android": "https://dc.lft.to/lastmile_qr_scan"}}, {"is_disabled": 0, "fusion_lat": 0.0, "lat": 38.8749555, "type": "electric_scooter", "lon": -77.0033395, "is_reserved": 0, "fusion_lon": 0.0, "bike_id": "4e9d3d80d3672cecdf56d94f1e9993e3", "name": "4e9d3d80d3672cecdf56d94f1e9993e3", "rental_uris": {"ios": "https://dc.lft.to/lastmile_qr_scan", "android": "https://dc.lft.to/lastmile_qr_scan"}}, {"is_disabled": 0, "fusion_lat": 0.0, "lat": 38.84625316666666, "type": "electric_bike", "lon": -77.069414, "is_reserved": 0, "fusion_lon": 0.0, "bike_id": "fa883c09bce9a56f58e554e13f0c97e0", "name": "fa883c09bce9a56f58e554e13f0c97e0", "rental_uris": {"ios": "https://dc.lft.to/lastmile_qr_scan", "android": "https://dc.lft.to/lastmile_qr_scan"}}, {"is_disabled": 0, "fusion_lat": 0.0, "lat": 38.90268566666667, "type": "electric_scooter", "lon": -77.06005183333333, "is_reserved": 0, "fusion_lon": 0.0, "bike_id": "cd28b12599ac5639f0ba507a4bc88583", "name": "cd28b12599ac5639f0ba507a4bc88583", "rental_uris": {"ios": "https://dc.lft.to/lastmile_qr_scan", "android": "https://dc.lft.to/lastmile_qr_scan"}}, {"is_disabled": 0, "fusion_lat": 0.0, "lat": 38.94296033333333, "type": "electric_scooter", "lon": -77.03264683333333, "is_reserved": 0, "fusion_lon": 0.0, "bike_id": "577569f7b81e253b6cbfd5ac7937bdf5", "name": "577569f7b81e253b6cbfd5ac7937bdf5", "rental_uris": {"ios": "https://dc.lft.to/lastmile_qr_scan", "android": "https://dc.lft.to/lastmile_qr_scan"}}, {"is_disabled": 0, "fusion_lat": 0.0, "lat": 38.8927465, "type": "electric_scooter", "lon": -77.05031583333333, "is_reserved": 0, "fusion_lon": 0.0, "bike_id": "fdbfe10912005d21423d29dbe4c94d62", "name": "fdbfe10912005d21423d29dbe4c94d62", "rental_uris": {"ios": "https://dc.lft.to/lastmile_qr_scan", "android": "https://dc.lft.to/lastmile_qr_scan"}}, {"is_disabled": 0, "fusion_lat": 0.0, "lat": 38.9148805, "type": "electric_scooter", "lon": -77.03240316666667, "is_reserved": 0, "fusion_lon": 0.0, "bike_id": "67cf4413a12d30e260be7b6cf7c33da6", "name": "67cf4413a12d30e260be7b6cf7c33da6", "rental_uris": {"ios": "https://dc.lft.to/lastmile_qr_scan", "android": "https://dc.lft.to/lastmile_qr_scan"}}, {"is_disabled": 0, "fusion_lat": 0.0, "lat": 38.923622333333334, "type": "electric_scooter", "lon": -77.05092166666667, "is_reserved": 0, "fusion_lon": 0.0, "bike_id": "556cf0f3b8b4c4bfbc73cd6d4f50d11a", "name": "556cf0f3b8b4c4bfbc73cd6d4f50d11a", "rental_uris": {"ios": "https://dc.lft.to/lastmile_qr_scan", "android": "https://dc.lft.to/lastmile_qr_scan"}}, {"is_disabled": 0, "fusion_lat": 0.0, "lat": 38.96141183333334, "type": "electric_bike", "lon": -77.03234666666667, "is_reserved": 0, "fusion_lon": 0.0, "bike_id": "cdb36cc6ad693663fdd92c2b8bb4a430", "name": "cdb36cc6ad693663fdd92c2b8bb4a430", "rental_uris": {"ios": "https://dc.lft.to/lastmile_qr_scan", "android": "https://dc.lft.to/lastmile_qr_scan"}}, {"is_disabled": 0, "fusion_lat": 0.0, "lat": 38.9005755, "type": "electric_scooter", "lon": -77.04792933333333, "is_reserved": 0, "fusion_lon": 0.0, "bike_id": "e42e74e07e0acd2cb7327b3f73047ed0", "name": "e42e74e07e0acd2cb7327b3f73047ed0", "rental_uris": {"ios": "https://dc.lft.to/lastmile_qr_scan", "android": "https://dc.lft.to/lastmile_qr_scan"}}, {"is_disabled": 0, "fusion_lat": 0.0, "lat": 38.89216966666667, "type": "electric_scooter", "lon": -77.02842083333333, "is_reserved": 0, "fusion_lon": 0.0, "bike_id": "82dd625554d501e1b69a38e9ed466cfc", "name": "82dd625554d501e1b69a38e9ed466cfc", "rental_uris": {"ios": "https://dc.lft.to/lastmile_qr_scan", "android": "https://dc.lft.to/lastmile_qr_scan"}}, {"is_disabled": 0, "fusion_lat": 0.0, "lat": 38.89035666666667, "type": "electric_scooter", "lon": -76.93753583333333, "is_reserved": 0, "fusion_lon": 0.0, "bike_id": "ddc0ffc21c37c96b91d7aa96b4500f28", "name": "ddc0ffc21c37c96b91d7aa96b4500f28", "rental_uris": {"ios": "https://dc.lft.to/lastmile_qr_scan", "android": "https://dc.lft.to/lastmile_qr_scan"}}, {"is_disabled": 0, "fusion_lat": 0.0, "lat": 38.903411, "type": "electric_scooter", "lon": -76.972426, "is_reserved": 0, "fusion_lon": 0.0, "bike_id": "26025151fed9372aa892db1f3bf731c2", "name": "26025151fed9372aa892db1f3bf731c2", "rental_uris": {"ios": "https://dc.lft.to/lastmile_qr_scan", "android": "https://dc.lft.to/lastmile_qr_scan"}}, {"is_disabled": 0, "fusion_lat": 0.0, "lat": 38.90446883333333, "type": "electric_scooter", "lon": -77.05914033333333, "is_reserved": 0, "fusion_lon": 0.0, "bike_id": "ed34c2e9005eb0cf010e978a5e659f18", "name": "ed34c2e9005eb0cf010e978a5e659f18", "rental_uris": {"ios": "https://dc.lft.to/lastmile_qr_scan", "android": "https://dc.lft.to/lastmile_qr_scan"}}, {"is_disabled": 0, "fusion_lat": 0.0, "lat": 38.91257183333333, "type": "electric_scooter", "lon": -77.03496866666667, "is_reserved": 0, "fusion_lon": 0.0, "bike_id": "1cd47fbed4b3f1e042d33745b1e9abd3", "name": "1cd47fbed4b3f1e042d33745b1e9abd3", "rental_uris": {"ios": "https://dc.lft.to/lastmile_qr_scan", "android": "https://dc.lft.to/lastmile_qr_scan"}}, {"is_disabled": 0, "fusion_lat": 0.0, "lat": 38.90910616666667, "type": "electric_scooter", "lon": -77.04205733333333, "is_reserved": 0, "fusion_lon": 0.0, "bike_id": "d2e8bfc9f158eaf256b82f41e8bb9cb6", "name": "d2e8bfc9f158eaf256b82f41e8bb9cb6", "rental_uris": {"ios": "https://dc.lft.to/lastmile_qr_scan", "android": "https://dc.lft.to/lastmile_qr_scan"}}, {"is_disabled": 0, "fusion_lat": 0.0, "lat": 38.8858995, "type": "electric_scooter", "lon": -77.00062233333334, "is_reserved": 0, "fusion_lon": 0.0, "bike_id": "9bbb7528cbb3642d4c9db7270cf7a8ce", "name": "9bbb7528cbb3642d4c9db7270cf7a8ce", "rental_uris": {"ios": "https://dc.lft.to/lastmile_qr_scan", "android": "https://dc.lft.to/lastmile_qr_scan"}}, {"is_disabled": 0, "fusion_lat": 0.0, "lat": 38.89561616666667, "type": "electric_scooter", "lon": -77.02933566666667, "is_reserved": 0, "fusion_lon": 0.0, "bike_id": "f89cf61c0cf1ddf8f5cddbe9dbcf0fd8", "name": "f89cf61c0cf1ddf8f5cddbe9dbcf0fd8", "rental_uris": {"ios": "https://dc.lft.to/lastmile_qr_scan", "android": "https://dc.lft.to/lastmile_qr_scan"}}, {"is_disabled": 0, "fusion_lat": 0.0, "lat": 38.89678466666667, "type": "electric_scooter", "lon": -76.93532483333334, "is_reserved": 0, "fusion_lon": 0.0, "bike_id": "7195aadd93185b0e2b9d866d4ef09408", "name": "7195aadd93185b0e2b9d866d4ef09408", "rental_uris": {"ios": "https://dc.lft.to/lastmile_qr_scan", "android": "https://dc.lft.to/lastmile_qr_scan"}}, {"is_disabled": 0, "fusion_lat": 0.0, "lat": 38.915198833333335, "type": "electric_scooter", "lon": -77.0449225, "is_reserved": 0, "fusion_lon": 0.0, "bike_id": "415b97fa4c21f749195a16d327eb6a91", "name": "415b97fa4c21f749195a16d327eb6a91", "rental_uris": {"ios": "https://dc.lft.to/lastmile_qr_scan", "android": "https://dc.lft.to/lastmile_qr_scan"}}, {"is_disabled": 0, "fusion_lat": 0.0, "lat": 38.91985116666667, "type": "electric_scooter", "lon": -77.02370983333333, "is_reserved": 0, "fusion_lon": 0.0, "bike_id": "3879e4463ffefa5d15d35018e01a1c3f", "name": "3879e4463ffefa5d15d35018e01a1c3f", "rental_uris": {"ios": "https://dc.lft.to/lastmile_qr_scan", "android": "https://dc.lft.to/lastmile_qr_scan"}}, {"is_disabled": 0, "fusion_lat": 0.0, "lat": 38.881198, "type": "electric_bike", "lon": -77.01663633333334, "is_reserved": 0, "fusion_lon": 0.0, "bike_id": "4bf9fdc1ae6d4f87b599da604fee1743", "name": "4bf9fdc1ae6d4f87b599da604fee1743", "rental_uris": {"ios": "https://dc.lft.to/lastmile_qr_scan", "android": "https://dc.lft.to/lastmile_qr_scan"}}, {"is_disabled": 0, "fusion_lat": 0.0, "lat": 38.8661925, "type": "electric_scooter", "lon": -76.98667633333334, "is_reserved": 0, "fusion_lon": 0.0, "bike_id": "56342c12eb84f1a09ad238b60058a572", "name": "56342c12eb84f1a09ad238b60058a572", "rental_uris": {"ios": "https://dc.lft.to/lastmile_qr_scan", "android": "https://dc.lft.to/lastmile_qr_scan"}}, {"is_disabled": 0, "fusion_lat": 0.0, "lat": 38.901872833333336, "type": "electric_scooter", "lon": -77.02179016666666, "is_reserved": 0, "fusion_lon": 0.0, "bike_id": "0f1f20b1cce067eb7601dd66236315bd", "name": "0f1f20b1cce067eb7601dd66236315bd", "rental_uris": {"ios": "https://dc.lft.to/lastmile_qr_scan", "android": "https://dc.lft.to/lastmile_qr_scan"}}, {"is_disabled": 0, "fusion_lat": 0.0, "lat": 38.910093833333335, "type": "electric_scooter", "lon": -76.99391266666666, "is_reserved": 0, "fusion_lon": 0.0, "bike_id": "7f7dbe1ca890fabea7e244e5632bb872", "name": "7f7dbe1ca890fabea7e244e5632bb872", "rental_uris": {"ios": "https://dc.lft.to/lastmile_qr_scan", "android": "https://dc.lft.to/lastmile_qr_scan"}}, {"is_disabled": 0, "fusion_lat": 0.0, "lat": 38.892221, "type": "electric_scooter", "lon": -77.04373316666667, "is_reserved": 0, "fusion_lon": 0.0, "bike_id": "362f88739a942dc3621b79372e7831bb", "name": "362f88739a942dc3621b79372e7831bb", "rental_uris": {"ios": "https://dc.lft.to/lastmile_qr_scan", "android": "https://dc.lft.to/lastmile_qr_scan"}}, {"is_disabled": 0, "fusion_lat": 0.0, "lat": 38.924705333333335, "type": "electric_scooter", "lon": -77.05258183333333, "is_reserved": 0, "fusion_lon": 0.0, "bike_id": "6d929bebc874d4b9f417c33d85764aef", "name": "6d929bebc874d4b9f417c33d85764aef", "rental_uris": {"ios": "https://dc.lft.to/lastmile_qr_scan", "android": "https://dc.lft.to/lastmile_qr_scan"}}, {"is_disabled": 0, "fusion_lat": 0.0, "lat": 38.92065366666667, "type": "electric_scooter", "lon": -77.0468955, "is_reserved": 0, "fusion_lon": 0.0, "bike_id": "ad2ee12150f502de6bd9b5d11e3d99c6", "name": "ad2ee12150f502de6bd9b5d11e3d99c6", "rental_uris": {"ios": "https://dc.lft.to/lastmile_qr_scan", "android": "https://dc.lft.to/lastmile_qr_scan"}}, {"is_disabled": 0, "fusion_lat": 0.0, "lat": 38.884827, "type": "electric_scooter", "lon": -77.03356233333334, "is_reserved": 0, "fusion_lon": 0.0, "bike_id": "f5aa4429f5d6b8c1fbcd78325949b4a6", "name": "f5aa4429f5d6b8c1fbcd78325949b4a6", "rental_uris": {"ios": "https://dc.lft.to/lastmile_qr_scan", "android": "https://dc.lft.to/lastmile_qr_scan"}}, {"is_disabled": 0, "fusion_lat": 0.0, "lat": 38.874138, "type": "electric_scooter", "lon": -77.0004645, "is_reserved": 0, "fusion_lon": 0.0, "bike_id": "215fcaf7baa0ba95d64ac7f509344297", "name": "215fcaf7baa0ba95d64ac7f509344297", "rental_uris": {"ios": "https://dc.lft.to/lastmile_qr_scan", "android": "https://dc.lft.to/lastmile_qr_scan"}}, {"is_disabled": 0, "fusion_lat": 0.0, "lat": 38.8273155, "type": "electric_bike", "lon": -77.0086285, "is_reserved": 0, "fusion_lon": 0.0, "bike_id": "902cba0cb2fe311e47f26edac7a9e9c7", "name": "902cba0cb2fe311e47f26edac7a9e9c7", "rental_uris": {"ios": "https://dc.lft.to/lastmile_qr_scan", "android": "https://dc.lft.to/lastmile_qr_scan"}}, {"is_disabled": 0, "fusion_lat": 0.0, "lat": 38.92660566666667, "type": "electric_scooter", "lon": -77.05596316666667, "is_reserved": 0, "fusion_lon": 0.0, "bike_id": "09f925313f8a01c8c02fbc98d3130c73", "name": "09f925313f8a01c8c02fbc98d3130c73", "rental_uris": {"ios": "https://dc.lft.to/lastmile_qr_scan", "android": "https://dc.lft.to/lastmile_qr_scan"}}, {"is_disabled": 0, "fusion_lat": 0.0, "lat": 38.880157, "type": "electric_scooter", "lon": -76.93126816666667, "is_reserved": 0, "fusion_lon": 0.0, "bike_id": "c1074257c6f7510ee1b1e38cd5156966", "name": "c1074257c6f7510ee1b1e38cd5156966", "rental_uris": {"ios": "https://dc.lft.to/lastmile_qr_scan", "android": "https://dc.lft.to/lastmile_qr_scan"}}, {"is_disabled": 0, "fusion_lat": 0.0, "lat": 38.917833, "type": "electric_scooter", "lon": -77.02315933333334, "is_reserved": 0, "fusion_lon": 0.0, "bike_id": "7da3ca1958aba4077fd03605e83cdb3a", "name": "7da3ca1958aba4077fd03605e83cdb3a", "rental_uris": {"ios": "https://dc.lft.to/lastmile_qr_scan", "android": "https://dc.lft.to/lastmile_qr_scan"}}, {"is_disabled": 0, "fusion_lat": 0.0, "lat": 38.88069733333333, "type": "electric_bike", "lon": -77.08631966666667, "is_reserved": 0, "fusion_lon": 0.0, "bike_id": "e959acaa3ab21648c0a0aabbb64023fd", "name": "e959acaa3ab21648c0a0aabbb64023fd", "rental_uris": {"ios": "https://dc.lft.to/lastmile_qr_scan", "android": "https://dc.lft.to/lastmile_qr_scan"}}, {"is_disabled": 0, "fusion_lat": 0.0, "lat": 38.900382666666665, "type": "electric_scooter", "lon": -77.00536833333334, "is_reserved": 0, "fusion_lon": 0.0, "bike_id": "ea8d609208c22d1936785ed9c29922ac", "name": "ea8d609208c22d1936785ed9c29922ac", "rental_uris": {"ios": "https://dc.lft.to/lastmile_qr_scan", "android": "https://dc.lft.to/lastmile_qr_scan"}}, {"is_disabled": 0, "fusion_lat": 0.0, "lat": 38.8955485, "type": "electric_scooter", "lon": -76.93375883333333, "is_reserved": 0, "fusion_lon": 0.0, "bike_id": "877d05cc432b2385e12141444c538d8b", "name": "877d05cc432b2385e12141444c538d8b", "rental_uris": {"ios": "https://dc.lft.to/lastmile_qr_scan", "android": "https://dc.lft.to/lastmile_qr_scan"}}, {"is_disabled": 0, "fusion_lat": 0.0, "lat": 38.922265, "type": "electric_scooter", "lon": -77.04384583333334, "is_reserved": 0, "fusion_lon": 0.0, "bike_id": "02645feaa62803fc4526a87ededebd8f", "name": "02645feaa62803fc4526a87ededebd8f", "rental_uris": {"ios": "https://dc.lft.to/lastmile_qr_scan", "android": "https://dc.lft.to/lastmile_qr_scan"}}, {"is_disabled": 0, "fusion_lat": 0.0, "lat": 38.886603, "type": "electric_scooter", "lon": -77.03391133333334, "is_reserved": 0, "fusion_lon": 0.0, "bike_id": "6959e03dd193152956676008b3c62677", "name": "6959e03dd193152956676008b3c62677", "rental_uris": {"ios": "https://dc.lft.to/lastmile_qr_scan", "android": "https://dc.lft.to/lastmile_qr_scan"}}, {"is_disabled": 0, "fusion_lat": 0.0, "lat": 38.89858233333333, "type": "electric_scooter", "lon": -77.04272766666666, "is_reserved": 0, "fusion_lon": 0.0, "bike_id": "86119f5c8fafa10d86f02c75f996c289", "name": "86119f5c8fafa10d86f02c75f996c289", "rental_uris": {"ios": "https://dc.lft.to/lastmile_qr_scan", "android": "https://dc.lft.to/lastmile_qr_scan"}}, {"is_disabled": 0, "fusion_lat": 0.0, "lat": 38.89704533333333, "type": "electric_scooter", "lon": -76.917699, "is_reserved": 0, "fusion_lon": 0.0, "bike_id": "67eca781f697d56fe1a8fd8874ebbddd", "name": "67eca781f697d56fe1a8fd8874ebbddd", "rental_uris": {"ios": "https://dc.lft.to/lastmile_qr_scan", "android": "https://dc.lft.to/lastmile_qr_scan"}}, {"is_disabled": 0, "fusion_lat": 0.0, "lat": 38.91371516666667, "type": "electric_scooter", "lon": -77.019998, "is_reserved": 0, "fusion_lon": 0.0, "bike_id": "0e69a1696b5d9223d1912fd5e789070c", "name": "0e69a1696b5d9223d1912fd5e789070c", "rental_uris": {"ios": "https://dc.lft.to/lastmile_qr_scan", "android": "https://dc.lft.to/lastmile_qr_scan"}}, {"is_disabled": 0, "fusion_lat": 0.0, "lat": 38.9034885, "type": "electric_scooter", "lon": -77.021884, "is_reserved": 0, "fusion_lon": 0.0, "bike_id": "31f023978a1d8683b2422a0bcbae96de", "name": "31f023978a1d8683b2422a0bcbae96de", "rental_uris": {"ios": "https://dc.lft.to/lastmile_qr_scan", "android": "https://dc.lft.to/lastmile_qr_scan"}}, {"is_disabled": 0, "fusion_lat": 0.0, "lat": 38.900397166666664, "type": "electric_scooter", "lon": -76.9883185, "is_reserved": 0, "fusion_lon": 0.0, "bike_id": "021ed1f8188d824a29d363f466de99b5", "name": "021ed1f8188d824a29d363f466de99b5", "rental_uris": {"ios": "https://dc.lft.to/lastmile_qr_scan", "android": "https://dc.lft.to/lastmile_qr_scan"}}, {"is_disabled": 0, "fusion_lat": 0.0, "lat": 38.90441033333333, "type": "electric_scooter", "lon": -77.04345516666666, "is_reserved": 0, "fusion_lon": 0.0, "bike_id": "190caf46c8b37cc0a49649dccd9aff00", "name": "190caf46c8b37cc0a49649dccd9aff00", "rental_uris": {"ios": "https://dc.lft.to/lastmile_qr_scan", "android": "https://dc.lft.to/lastmile_qr_scan"}}, {"is_disabled": 0, "fusion_lat": 0.0, "lat": 38.89219633333333, "type": "electric_scooter", "lon": -77.0213975, "is_reserved": 0, "fusion_lon": 0.0, "bike_id": "fa4a34fb54692d828774b0335ca99375", "name": "fa4a34fb54692d828774b0335ca99375", "rental_uris": {"ios": "https://dc.lft.to/lastmile_qr_scan", "android": "https://dc.lft.to/lastmile_qr_scan"}}, {"is_disabled": 0, "fusion_lat": 0.0, "lat": 38.902836, "type": "electric_scooter", "lon": -77.060004, "is_reserved": 0, "fusion_lon": 0.0, "bike_id": "5d633f75df0dbe080bbb951520d97310", "name": "5d633f75df0dbe080bbb951520d97310", "rental_uris": {"ios": "https://dc.lft.to/lastmile_qr_scan", "android": "https://dc.lft.to/lastmile_qr_scan"}}, {"is_disabled": 0, "fusion_lat": 0.0, "lat": 38.865085666666666, "type": "electric_bike", "lon": -76.97341083333333, "is_reserved": 0, "fusion_lon": 0.0, "bike_id": "5b933f764ed075ccd76d5c8b876aaa09", "name": "5b933f764ed075ccd76d5c8b876aaa09", "rental_uris": {"ios": "https://dc.lft.to/lastmile_qr_scan", "android": "https://dc.lft.to/lastmile_qr_scan"}}, {"is_disabled": 0, "fusion_lat": 0.0, "lat": 38.903614166666664, "type": "electric_scooter", "lon": -77.02646016666667, "is_reserved": 0, "fusion_lon": 0.0, "bike_id": "5f4eb591903343f9313c151f9186070d", "name": "5f4eb591903343f9313c151f9186070d", "rental_uris": {"ios": "https://dc.lft.to/lastmile_qr_scan", "android": "https://dc.lft.to/lastmile_qr_scan"}}, {"is_disabled": 0, "fusion_lat": 0.0, "lat": 38.9056895, "type": "electric_scooter", "lon": -77.04868066666667, "is_reserved": 0, "fusion_lon": 0.0, "bike_id": "0082509da796db98f7f2b3d671264b3f", "name": "0082509da796db98f7f2b3d671264b3f", "rental_uris": {"ios": "https://dc.lft.to/lastmile_qr_scan", "android": "https://dc.lft.to/lastmile_qr_scan"}}, {"is_disabled": 0, "fusion_lat": 0.0, "lat": 38.89282566666667, "type": "electric_scooter", "lon": -77.02589916666666, "is_reserved": 0, "fusion_lon": 0.0, "bike_id": "799f23eb8593449003bda311ff6e8714", "name": "799f23eb8593449003bda311ff6e8714", "rental_uris": {"ios": "https://dc.lft.to/lastmile_qr_scan", "android": "https://dc.lft.to/lastmile_qr_scan"}}, {"is_disabled": 0, "fusion_lat": 0.0, "lat": 38.9393925, "type": "electric_scooter", "lon": -77.06114566666666, "is_reserved": 0, "fusion_lon": 0.0, "bike_id": "ba333f6b33d9c5fa750a153aea614984", "name": "ba333f6b33d9c5fa750a153aea614984", "rental_uris": {"ios": "https://dc.lft.to/lastmile_qr_scan", "android": "https://dc.lft.to/lastmile_qr_scan"}}, {"is_disabled": 0, "fusion_lat": 0.0, "lat": 38.892206, "type": "electric_scooter", "lon": -77.04635283333333, "is_reserved": 0, "fusion_lon": 0.0, "bike_id": "3401259fd9e3cc3e3c51357fd001eb81", "name": "3401259fd9e3cc3e3c51357fd001eb81", "rental_uris": {"ios": "https://dc.lft.to/lastmile_qr_scan", "android": "https://dc.lft.to/lastmile_qr_scan"}}, {"is_disabled": 0, "fusion_lat": 0.0, "lat": 38.8652135, "type": "electric_scooter", "lon": -76.9904235, "is_reserved": 0, "fusion_lon": 0.0, "bike_id": "729df9bf18b012303d730b0ffa9d22f4", "name": "729df9bf18b012303d730b0ffa9d22f4", "rental_uris": {"ios": "https://dc.lft.to/lastmile_qr_scan", "android": "https://dc.lft.to/lastmile_qr_scan"}}, {"is_disabled": 0, "fusion_lat": 0.0, "lat": 38.89223283333333, "type": "electric_scooter", "lon": -77.0487045, "is_reserved": 0, "fusion_lon": 0.0, "bike_id": "719dbcabb6e824b1fc9401a282d37ea6", "name": "719dbcabb6e824b1fc9401a282d37ea6", "rental_uris": {"ios": "https://dc.lft.to/lastmile_qr_scan", "android": "https://dc.lft.to/lastmile_qr_scan"}}, {"is_disabled": 0, "fusion_lat": 0.0, "lat": 38.861828, "type": "electric_scooter", "lon": -76.99426533333333, "is_reserved": 0, "fusion_lon": 0.0, "bike_id": "0250025eeb1885ad204c32a4dce74c8c", "name": "0250025eeb1885ad204c32a4dce74c8c", "rental_uris": {"ios": "https://dc.lft.to/lastmile_qr_scan", "android": "https://dc.lft.to/lastmile_qr_scan"}}, {"is_disabled": 0, "fusion_lat": 0.0, "lat": 38.90735633333333, "type": "electric_scooter", "lon": -77.03446116666667, "is_reserved": 0, "fusion_lon": 0.0, "bike_id": "74929df71d3f845ba58ec18b54084fbe", "name": "74929df71d3f845ba58ec18b54084fbe", "rental_uris": {"ios": "https://dc.lft.to/lastmile_qr_scan", "android": "https://dc.lft.to/lastmile_qr_scan"}}, {"is_disabled": 0, "fusion_lat": 0.0, "lat": 38.87781866666667, "type": "electric_scooter", "lon": -76.994087, "is_reserved": 0, "fusion_lon": 0.0, "bike_id": "f09cf3fdb181cf97b4358f19cc85302d", "name": "f09cf3fdb181cf97b4358f19cc85302d", "rental_uris": {"ios": "https://dc.lft.to/lastmile_qr_scan", "android": "https://dc.lft.to/lastmile_qr_scan"}}, {"is_disabled": 0, "fusion_lat": 0.0, "lat": 38.89723383333333, "type": "electric_scooter", "lon": -77.04598083333333, "is_reserved": 0, "fusion_lon": 0.0, "bike_id": "6f0ff32748c938c4ddb4f38c426bdab7", "name": "6f0ff32748c938c4ddb4f38c426bdab7", "rental_uris": {"ios": "https://dc.lft.to/lastmile_qr_scan", "android": "https://dc.lft.to/lastmile_qr_scan"}}, {"is_disabled": 0, "fusion_lat": 0.0, "lat": 38.90330683333333, "type": "electric_scooter", "lon": -77.0434705, "is_reserved": 0, "fusion_lon": 0.0, "bike_id": "5005d7421db0ebe7b4516608ca24b7bf", "name": "5005d7421db0ebe7b4516608ca24b7bf", "rental_uris": {"ios": "https://dc.lft.to/lastmile_qr_scan", "android": "https://dc.lft.to/lastmile_qr_scan"}}, {"is_disabled": 0, "fusion_lat": 0.0, "lat": 38.8287505, "type": "electric_bike", "lon": -77.11219133333333, "is_reserved": 0, "fusion_lon": 0.0, "bike_id": "8486106464b73e6b89fd56f097835ff4", "name": "8486106464b73e6b89fd56f097835ff4", "rental_uris": {"ios": "https://dc.lft.to/lastmile_qr_scan", "android": "https://dc.lft.to/lastmile_qr_scan"}}, {"is_disabled": 0, "fusion_lat": 0.0, "lat": 38.9497845, "type": "electric_scooter", "lon": -77.02698433333333, "is_reserved": 0, "fusion_lon": 0.0, "bike_id": "3c6575ddc2b78ff8f78c9a84877a63a6", "name": "3c6575ddc2b78ff8f78c9a84877a63a6", "rental_uris": {"ios": "https://dc.lft.to/lastmile_qr_scan", "android": "https://dc.lft.to/lastmile_qr_scan"}}, {"is_disabled": 0, "fusion_lat": 0.0, "lat": 38.9024725, "type": "electric_scooter", "lon": -77.02654466666667, "is_reserved": 0, "fusion_lon": 0.0, "bike_id": "0c538a8b7798fd9ab03a0ae211730994", "name": "0c538a8b7798fd9ab03a0ae211730994", "rental_uris": {"ios": "https://dc.lft.to/lastmile_qr_scan", "android": "https://dc.lft.to/lastmile_qr_scan"}}, {"is_disabled": 0, "fusion_lat": 0.0, "lat": 38.90095816666667, "type": "electric_scooter", "lon": -76.98339816666666, "is_reserved": 0, "fusion_lon": 0.0, "bike_id": "37b0f2a436fd096a4936cf0d834da791", "name": "37b0f2a436fd096a4936cf0d834da791", "rental_uris": {"ios": "https://dc.lft.to/lastmile_qr_scan", "android": "https://dc.lft.to/lastmile_qr_scan"}}, {"is_disabled": 0, "fusion_lat": 0.0, "lat": 38.99072666666667, "type": "electric_bike", "lon": -76.87469433333334, "is_reserved": 0, "fusion_lon": 0.0, "bike_id": "110e618c92add5991f3c685f47fc61a8", "name": "110e618c92add5991f3c685f47fc61a8", "rental_uris": {"ios": "https://dc.lft.to/lastmile_qr_scan", "android": "https://dc.lft.to/lastmile_qr_scan"}}, {"is_disabled": 0, "fusion_lat": 0.0, "lat": 38.91413083333333, "type": "electric_scooter", "lon": -77.04543733333334, "is_reserved": 0, "fusion_lon": 0.0, "bike_id": "d36b4947e872b567c22833b92de6cff5", "name": "d36b4947e872b567c22833b92de6cff5", "rental_uris": {"ios": "https://dc.lft.to/lastmile_qr_scan", "android": "https://dc.lft.to/lastmile_qr_scan"}}, {"is_disabled": 0, "fusion_lat": 0.0, "lat": 38.884113666666664, "type": "electric_scooter", "lon": -77.01522616666666, "is_reserved": 0, "fusion_lon": 0.0, "bike_id": "45eeacab69a1a4f572761a2fa6e5b210", "name": "45eeacab69a1a4f572761a2fa6e5b210", "rental_uris": {"ios": "https://dc.lft.to/lastmile_qr_scan", "android": "https://dc.lft.to/lastmile_qr_scan"}}, {"is_disabled": 0, "fusion_lat": 0.0, "lat": 38.89219766666667, "type": "electric_scooter", "lon": -77.0241445, "is_reserved": 0, "fusion_lon": 0.0, "bike_id": "6597bb5eb4f4dfa20e731e052eef8ae7", "name": "6597bb5eb4f4dfa20e731e052eef8ae7", "rental_uris": {"ios": "https://dc.lft.to/lastmile_qr_scan", "android": "https://dc.lft.to/lastmile_qr_scan"}}, {"is_disabled": 0, "fusion_lat": 0.0, "lat": 38.892442, "type": "electric_scooter", "lon": -77.03960133333334, "is_reserved": 0, "fusion_lon": 0.0, "bike_id": "cda962a1f1be1a0fba2bac4d9107711d", "name": "cda962a1f1be1a0fba2bac4d9107711d", "rental_uris": {"ios": "https://dc.lft.to/lastmile_qr_scan", "android": "https://dc.lft.to/lastmile_qr_scan"}}, {"is_disabled": 0, "fusion_lat": 0.0, "lat": 38.90373433333333, "type": "electric_scooter", "lon": -77.04026466666667, "is_reserved": 0, "fusion_lon": 0.0, "bike_id": "bf813bca38f7944f0c8ff650193fa52c", "name": "bf813bca38f7944f0c8ff650193fa52c", "rental_uris": {"ios": "https://dc.lft.to/lastmile_qr_scan", "android": "https://dc.lft.to/lastmile_qr_scan"}}, {"is_disabled": 0, "fusion_lat": 0.0, "lat": 38.91749333333333, "type": "electric_scooter", "lon": -77.0280195, "is_reserved": 0, "fusion_lon": 0.0, "bike_id": "513183f184da870f0a4a2ceb8bdc0bea", "name": "513183f184da870f0a4a2ceb8bdc0bea", "rental_uris": {"ios": "https://dc.lft.to/lastmile_qr_scan", "android": "https://dc.lft.to/lastmile_qr_scan"}}, {"is_disabled": 0, "fusion_lat": 0.0, "lat": 39.05203983333333, "type": "electric_bike", "lon": -77.10917433333333, "is_reserved": 0, "fusion_lon": 0.0, "bike_id": "b4cbeddb26f554300bcc21297d8cbcf5", "name": "b4cbeddb26f554300bcc21297d8cbcf5", "rental_uris": {"ios": "https://dc.lft.to/lastmile_qr_scan", "android": "https://dc.lft.to/lastmile_qr_scan"}}, {"is_disabled": 0, "fusion_lat": 0.0, "lat": 38.9173035, "type": "electric_scooter", "lon": -77.04174416666666, "is_reserved": 0, "fusion_lon": 0.0, "bike_id": "53236ec52b412bd9929cf3dfb3a95c72", "name": "53236ec52b412bd9929cf3dfb3a95c72", "rental_uris": {"ios": "https://dc.lft.to/lastmile_qr_scan", "android": "https://dc.lft.to/lastmile_qr_scan"}}, {"is_disabled": 0, "fusion_lat": 0.0, "lat": 38.927730833333335, "type": "electric_scooter", "lon": -77.02292933333334, "is_reserved": 0, "fusion_lon": 0.0, "bike_id": "9421a0d30eaade76eca3ff5ac52e2276", "name": "9421a0d30eaade76eca3ff5ac52e2276", "rental_uris": {"ios": "https://dc.lft.to/lastmile_qr_scan", "android": "https://dc.lft.to/lastmile_qr_scan"}}, {"is_disabled": 0, "fusion_lat": 0.0, "lat": 38.921472, "type": "electric_scooter", "lon": -77.03871633333333, "is_reserved": 0, "fusion_lon": 0.0, "bike_id": "dc9d2682703ba888c264ef08a55b1471", "name": "dc9d2682703ba888c264ef08a55b1471", "rental_uris": {"ios": "https://dc.lft.to/lastmile_qr_scan", "android": "https://dc.lft.to/lastmile_qr_scan"}}, {"is_disabled": 0, "fusion_lat": 0.0, "lat": 38.8983275, "type": "electric_scooter", "lon": -76.9463635, "is_reserved": 0, "fusion_lon": 0.0, "bike_id": "72d90f0083c4d2b34f7062cf65483091", "name": "72d90f0083c4d2b34f7062cf65483091", "rental_uris": {"ios": "https://dc.lft.to/lastmile_qr_scan", "android": "https://dc.lft.to/lastmile_qr_scan"}}, {"is_disabled": 0, "fusion_lat": 0.0, "lat": 38.90506666666667, "type": "electric_scooter", "lon": -77.0638285, "is_reserved": 0, "fusion_lon": 0.0, "bike_id": "b10ce816a6de2922d19d75bf4dfcd623", "name": "b10ce816a6de2922d19d75bf4dfcd623", "rental_uris": {"ios": "https://dc.lft.to/lastmile_qr_scan", "android": "https://dc.lft.to/lastmile_qr_scan"}}, {"is_disabled": 0, "fusion_lat": 0.0, "lat": 38.91824116666667, "type": "electric_scooter", "lon": -77.03638016666666, "is_reserved": 0, "fusion_lon": 0.0, "bike_id": "7d133eb5e13807e5deaf37424abb1317", "name": "7d133eb5e13807e5deaf37424abb1317", "rental_uris": {"ios": "https://dc.lft.to/lastmile_qr_scan", "android": "https://dc.lft.to/lastmile_qr_scan"}}, {"is_disabled": 0, "fusion_lat": 0.0, "lat": 38.90023983333333, "type": "electric_scooter", "lon": -77.0438745, "is_reserved": 0, "fusion_lon": 0.0, "bike_id": "ba7a325d9f55db6deeddbeb24a5ff7cc", "name": "ba7a325d9f55db6deeddbeb24a5ff7cc", "rental_uris": {"ios": "https://dc.lft.to/lastmile_qr_scan", "android": "https://dc.lft.to/lastmile_qr_scan"}}, {"is_disabled": 0, "fusion_lat": 0.0, "lat": 38.90417566666667, "type": "electric_scooter", "lon": -77.0486565, "is_reserved": 0, "fusion_lon": 0.0, "bike_id": "0a012f52b90c5db1970cfff4218722d9", "name": "0a012f52b90c5db1970cfff4218722d9", "rental_uris": {"ios": "https://dc.lft.to/lastmile_qr_scan", "android": "https://dc.lft.to/lastmile_qr_scan"}}, {"is_disabled": 0, "fusion_lat": 0.0, "lat": 38.9192195, "type": "electric_scooter", "lon": -77.03423016666666, "is_reserved": 0, "fusion_lon": 0.0, "bike_id": "2b4361a23c1ee678c807ad90aa616264", "name": "2b4361a23c1ee678c807ad90aa616264", "rental_uris": {"ios": "https://dc.lft.to/lastmile_qr_scan", "android": "https://dc.lft.to/lastmile_qr_scan"}}, {"is_disabled": 0, "fusion_lat": 0.0, "lat": 38.912153, "type": "electric_scooter", "lon": -77.07592533333333, "is_reserved": 0, "fusion_lon": 0.0, "bike_id": "d258e27df9b58e36dd5935339feef091", "name": "d258e27df9b58e36dd5935339feef091", "rental_uris": {"ios": "https://dc.lft.to/lastmile_qr_scan", "android": "https://dc.lft.to/lastmile_qr_scan"}}, {"is_disabled": 0, "fusion_lat": 0.0, "lat": 38.915526666666665, "type": "electric_scooter", "lon": -77.00957683333333, "is_reserved": 0, "fusion_lon": 0.0, "bike_id": "4cb9a2e094c460ef81ac6a373dde5f97", "name": "4cb9a2e094c460ef81ac6a373dde5f97", "rental_uris": {"ios": "https://dc.lft.to/lastmile_qr_scan", "android": "https://dc.lft.to/lastmile_qr_scan"}}, {"is_disabled": 0, "fusion_lat": 0.0, "lat": 38.90776733333333, "type": "electric_scooter", "lon": -77.03864216666666, "is_reserved": 0, "fusion_lon": 0.0, "bike_id": "e33240fd717c5abfaae4d0b425cf6d44", "name": "e33240fd717c5abfaae4d0b425cf6d44", "rental_uris": {"ios": "https://dc.lft.to/lastmile_qr_scan", "android": "https://dc.lft.to/lastmile_qr_scan"}}, {"is_disabled": 0, "fusion_lat": 0.0, "lat": 38.916961, "type": "electric_scooter", "lon": -77.03108233333333, "is_reserved": 0, "fusion_lon": 0.0, "bike_id": "131f07ce18af76e94af00de010173094", "name": "131f07ce18af76e94af00de010173094", "rental_uris": {"ios": "https://dc.lft.to/lastmile_qr_scan", "android": "https://dc.lft.to/lastmile_qr_scan"}}, {"is_disabled": 0, "fusion_lat": 0.0, "lat": 38.8724845, "type": "electric_scooter", "lon": -76.9772885, "is_reserved": 0, "fusion_lon": 0.0, "bike_id": "a33dd209ca2fe5841cddd54c3073c04c", "name": "a33dd209ca2fe5841cddd54c3073c04c", "rental_uris": {"ios": "https://dc.lft.to/lastmile_qr_scan", "android": "https://dc.lft.to/lastmile_qr_scan"}},