{"data": {"bikes": [{"rental_uris": {"ios": "https://dc.lft.to/lastmile_qr_scan", "android": "https://dc.lft.to/lastmile_qr_scan"}, "type": "electric_bike", "name": "87d62634b4f24125ab994d93e0defdb9", "is_reserved": 0, "lon": -76.99998483333333, "is_disabled": 0, "fusion_lat": 0.0, "lat": 38.923906, "bike_id": "87d62634b4f24125ab994d93e0defdb9", "fusion_lon": 0.0}, {"rental_uris": {"ios": "https://dc.lft.to/lastmile_qr_scan", "android": "https://dc.lft.to/lastmile_qr_scan"}, "type": "electric_scooter", "name": "55de00f20ddcdee0af608c0af629c525", "is_reserved": 0, "lon": -77.0270735, "is_disabled": 0, "fusion_lat": 0.0, "lat": 38.905958, "bike_id": "55de00f20ddcdee0af608c0af629c525", "fusion_lon": 0.0}, {"rental_uris": {"ios": "https://dc.lft.to/lastmile_qr_scan", "android": "https://dc.lft.to/lastmile_qr_scan"}, "type": "electric_scooter", "name": "d5aac844f562a8eea24483a1cf62d0dd", "is_reserved": 0, "lon": -77.02315433333334, "is_disabled": 0, "fusion_lat": 0.0, "lat": 38.902757, "bike_id": "d5aac844f562a8eea24483a1cf62d0dd", "fusion_lon": 0.0}, {"rental_uris": {"ios": "https://dc.lft.to/lastmile_qr_scan", "android": "https://dc.lft.to/lastmile_qr_scan"}, "type": "electric_scooter", "name": "5acdea9053444fbbc3bb0edf06a5486d", "is_reserved": 0, "lon": -77.02426733333333, "is_disabled": 0, "fusion_lat": 0.0, "lat": 38.91564916666667, "bike_id": "5acdea9053444fbbc3bb0edf06a5486d", "fusion_lon": 0.0}, {"rental_uris": {"ios": "https://dc.lft.to/lastmile_qr_scan", "android": "https://dc.lft.to/lastmile_qr_scan"}, "type": "electric_scooter", "name": "3a79509bdd53b5d2eb32e9c3f27cce5a", "is_reserved": 0, "lon": -77.02825466666667, "is_disabled": 0, "fusion_lat": 0.0, "lat": 38.90227083333333, "bike_id": "3a79509bdd53b5d2eb32e9c3f27cce5a", "fusion_lon": 0.0}, {"rental_uris": {"ios": "https://dc.lft.to/lastmile_qr_scan", "android": "https://dc.lft.to/lastmile_qr_scan"}, "type": "electric_bike", "name": "775a6cf2ea29b562392e0d620e95d8a7", "is_reserved": 0, "lon": -77.01223583333334, "is_disabled": 0, "fusion_lat": 0.0, "lat": 38.9509495, "bike_id": "775a6cf2ea29b562392e0d620e95d8a7", "fusion_lon": 0.0}, {"rental_uris": {"ios": "https://dc.lft.to/lastmile_qr_scan", "android": "https://dc.lft.to/lastmile_qr_scan"}, "type": "electric_scooter", "name": "370260155f2b414977c5223f60f1b67c", "is_reserved": 0, "lon": -77.0412505, "is_disabled": 0, "fusion_lat": 0.0, "lat": 38.9310515, "bike_id": "370260155f2b414977c5223f60f1b67c", "fusion_lon": 0.0}, {"rental_uris": {"ios": "https://dc.lft.to/lastmile_qr_scan", "android": "https://dc.lft.to/lastmile_qr_scan"}, "type": "electric_scooter", "name": "1065b2ee8119f42f4700d25b8accf67d", "is_reserved": 0, "lon": -77.04484333333333, "is_disabled": 0, "fusion_lat": 0.0, "lat": 38.91096566666667, "bike_id": "1065b2ee8119f42f4700d25b8accf67d", "fusion_lon": 0.0}, {"rental_uris": {"ios": "https://dc.lft.to/lastmile_qr_scan", "android": "https://dc.lft.to/lastmile_qr_scan"}, "type": "electric_scooter", "name": "1666124d43973a0a6f2a36994d45172c", "is_reserved": 0, "lon": -76.98576216666666, "is_disabled": 0, "fusion_lat": 0.0, "lat": 38.854501166666665, "bike_id": "1666124d43973a0a6f2a36994d45172c", "fusion_lon": 0.0}, {"rental_uris": {"ios": "https://dc.lft.to/lastmile_qr_scan", "android": "https://dc.lft.to/lastmile_qr_scan"}, "type": "electric_scooter", "name": "e361ce51a2352271c032f29c5e796376", "is_reserved": 0, "lon": -77.04465233333333, "is_disabled": 0, "fusion_lat": 0.0, "lat": 38.924233, "bike_id": "e361ce51a2352271c032f29c5e796376", "fusion_lon": 0.0}, {"rental_uris": {"ios": "https://dc.lft.to/lastmile_qr_scan", "android": "https://dc.lft.to/lastmile_qr_scan"}, "type": "electric_scooter", "name": "579e57dbfdbcc294770d2779ac1cae3a", "is_reserved": 0, "lon": -76.9986995, "is_disabled": 0, "fusion_lat": 0.0, "lat": 38.90025816666667, "bike_id": "579e57dbfdbcc294770d2779ac1cae3a", "fusion_lon": 0.0}, {"rental_uris": {"ios": "https://dc.lft.to/lastmile_qr_scan", "android": "https://dc.lft.to/lastmile_qr_scan"}, "type": "electric_scooter", "name": "a77c33b9a0c0dfa01631b082306491d1", "is_reserved": 0, "lon": -77.03069983333333, "is_disabled": 0, "fusion_lat": 0.0, "lat": 38.938750166666665, "bike_id": "a77c33b9a0c0dfa01631b082306491d1", "fusion_lon": 0.0}, {"rental_uris": {"ios": "https://dc.lft.to/lastmile_qr_scan", "android": "https://dc.lft.to/lastmile_qr_scan"}, "type": "electric_bike", "name": "943321570cc3d959b8a9fc06d2a9db67", "is_reserved": 0, "lon": -76.9579005, "is_disabled": 0, "fusion_lat": 0.0, "lat": 38.98041716666667, "bike_id": "943321570cc3d959b8a9fc06d2a9db67", "fusion_lon": 0.0}, {"rental_uris": {"ios": "https://dc.lft.to/lastmile_qr_scan", "android": "https://dc.lft.to/lastmile_qr_scan"}, "type": "electric_scooter", "name": "266876741b0b15e07857c72b44c0fdd9", "is_reserved": 0, "lon": -76.97568716666666, "is_disabled": 0, "fusion_lat": 0.0, "lat": 38.94420233333334, "bike_id": "266876741b0b15e07857c72b44c0fdd9", "fusion_lon": 0.0}, {"rental_uris": {"ios": "https://dc.lft.to/lastmile_qr_scan", "android": "https://dc.lft.to/lastmile_qr_scan"}, "type": "electric_scooter", "name": "b6f73064942d978222b162664fc42531", "is_reserved": 0, "lon": -77.02340883333333, "is_disabled": 0, "fusion_lat": 0.0, "lat": 38.930993666666666, "bike_id": "b6f73064942d978222b162664fc42531", "fusion_lon": 0.0}, {"rental_uris": {"ios": "https://dc.lft.to/lastmile_qr_scan", "android": "https://dc.lft.to/lastmile_qr_scan"}, "type": "electric_scooter", "name": "c83b681e89c19697e5d6e3218cf8eee7", "is_reserved": 0, "lon": -77.05503383333334, "is_disabled": 0, "fusion_lat": 0.0, "lat": 38.92841933333333, "bike_id": "c83b681e89c19697e5d6e3218cf8eee7", "fusion_lon": 0.0}, {"rental_uris": {"ios": "https://dc.lft.to/lastmile_qr_scan", "android": "https://dc.lft.to/lastmile_qr_scan"}, "type": "electric_bike", "name": "4488200e291fbdef6a43a210890acbad", "is_reserved": 0, "lon": -77.00131366666666, "is_disabled": 0, "fusion_lat": 0.0, "lat": 38.995006333333336, "bike_id": "4488200e291fbdef6a43a210890acbad", "fusion_lon": 0.0}, {"rental_uris": {"ios": "https://dc.lft.to/lastmile_qr_scan", "android": "https://dc.lft.to/lastmile_qr_scan"}, "type": "electric_bike", "name": "08763c79fa75b1504eb556301527120f", "is_reserved": 0, "lon": -77.02625666666667, "is_disabled": 0, "fusion_lat": 0.0, "lat": 38.96227116666667, "bike_id": "08763c79fa75b1504eb556301527120f", "fusion_lon": 0.0}, {"rental_uris": {"ios": "https://dc.lft.to/lastmile_qr_scan", "android": "https://dc.lft.to/lastmile_qr_scan"}, "type": "electric_scooter", "name": "6013c7935be16b0078675aec3ac724fe", "is_reserved": 0, "lon": -76.997915, "is_disabled": 0, "fusion_lat": 0.0, "lat": 38.87632833333333, "bike_id": "6013c7935be16b0078675aec3ac724fe", "fusion_lon": 0.0}, {"rental_uris": {"ios": "https://dc.lft.to/lastmile_qr_scan", "android": "https://dc.lft.to/lastmile_qr_scan"}, "type": "electric_scooter", "name": "cd9734c0bf856a8c1950a0879f2b1d7e", "is_reserved": 0, "lon": -77.041929, "is_disabled": 0, "fusion_lat": 0.0, "lat": 38.92070533333333, "bike_id": "cd9734c0bf856a8c1950a0879f2b1d7e", "fusion_lon": 0.0}, {"rental_uris": {"ios": "https://dc.lft.to/lastmile_qr_scan", "android": "https://dc.lft.to/lastmile_qr_scan"}, "type": "electric_scooter", "name": "4565b88f238d907e6baad21ddd9753ab", "is_reserved": 0, "lon": -77.02983466666667, "is_disabled": 0, "fusion_lat": 0.0, "lat": 38.906509, "bike_id": "4565b88f238d907e6baad21ddd9753ab", "fusion_lon": 0.0}, {"rental_uris": {"ios": "https://dc.lft.to/lastmile_qr_scan", "android": "https://dc.lft.to/lastmile_qr_scan"}, "type": "electric_bike", "name": "c8bcaf8b2e59de8187bda67a5b067fd9", "is_reserved": 0, "lon": -76.96087383333334, "is_disabled": 0, "fusion_lat": 0.0, "lat": 38.918518166666665, "bike_id": "c8bcaf8b2e59de8187bda67a5b067fd9", "fusion_lon": 0.0}, {"rental_uris": {"ios": "https://dc.lft.to/lastmile_qr_scan", "android": "https://dc.lft.to/lastmile_qr_scan"}, "type": "electric_scooter", "name": "135b65c2037a169abd15aad5c29eca85", "is_reserved": 0, "lon": -77.01582616666667, "is_disabled": 0, "fusion_lat": 0.0, "lat": 38.8917895, "bike_id": "135b65c2037a169abd15aad5c29eca85", "fusion_lon": 0.0}, {"rental_uris": {"ios": "https://dc.lft.to/lastmile_qr_scan", "android": "https://dc.lft.to/lastmile_qr_scan"}, "type": "electric_scooter", "name": "a8aa7e56c2f364b2250db3498cd5cc11", "is_reserved": 0, "lon": -77.01939283333333, "is_disabled": 0, "fusion_lat": 0.0, "lat": 38.947024666666664, "bike_id": "a8aa7e56c2f364b2250db3498cd5cc11", "fusion_lon": 0.0}, {"rental_uris": {"ios": "https://dc.lft.to/lastmile_qr_scan", "android": "https://dc.lft.to/lastmile_qr_scan"}, "type": "electric_scooter", "name": "229582c033738e1ff1ccdbc01270114c", "is_reserved": 0, "lon": -77.00805166666666, "is_disabled": 0, "fusion_lat": 0.0, "lat": 38.91696016666667, "bike_id": "229582c033738e1ff1ccdbc01270114c", "fusion_lon": 0.0}, {"rental_uris": {"ios": "https://dc.lft.to/lastmile_qr_scan", "android": "https://dc.lft.to/lastmile_qr_scan"}, "type": "electric_scooter", "name": "741cb4e8cc3f349783185143cb9f4d3c", "is_reserved": 0, "lon": -77.05503616666667, "is_disabled": 0, "fusion_lat": 0.0, "lat": 38.9154755, "bike_id": "741cb4e8cc3f349783185143cb9f4d3c", "fusion_lon": 0.0}, {"rental_uris": {"ios": "https://dc.lft.to/lastmile_qr_scan", "android": "https://dc.lft.to/lastmile_qr_scan"}, "type": "electric_scooter", "name": "cacaaa1ecb1d33938f590e01efa31254", "is_reserved": 0, "lon": -77.04477583333333, "is_disabled": 0, "fusion_lat": 0.0, "lat": 38.901326166666664, "bike_id": "cacaaa1ecb1d33938f590e01efa31254", "fusion_lon": 0.0}, {"rental_uris": {"ios": "https://dc.lft.to/lastmile_qr_scan", "android": "https://dc.lft.to/lastmile_qr_scan"}, "type": "electric_scooter", "name": "6de85dbbc69cffa0143d9f13b5a0ea90", "is_reserved": 0, "lon": -77.04849616666667, "is_disabled": 0, "fusion_lat": 0.0, "lat": 38.905327, "bike_id": "6de85dbbc69cffa0143d9f13b5a0ea90", "fusion_lon": 0.0}, {"rental_uris": {"ios": "https://dc.lft.to/lastmile_qr_scan", "android": "https://dc.lft.to/lastmile_qr_scan"}, "type": "electric_scooter", "name": "39230f82dfcb5066b1ac3d714fed6162", "is_reserved": 0, "lon": -76.99961766666667, "is_disabled": 0, "fusion_lat": 0.0, "lat": 38.908546666666666, "bike_id": "39230f82dfcb5066b1ac3d714fed6162", "fusion_lon": 0.0}, {"rental_uris": {"ios": "https://dc.lft.to/lastmile_qr_scan", "android": "https://dc.lft.to/lastmile_qr_scan"}, "type": "electric_scooter", "name": "3a1b2d91394ff6a991f0a9cda9a2e911", "is_reserved": 0, "lon": -77.04338716666666, "is_disabled": 0, "fusion_lat": 0.0, "lat": 38.917844333333335, "bike_id": "3a1b2d91394ff6a991f0a9cda9a2e911", "fusion_lon": 0.0}, {"rental_uris": {"ios": "https://dc.lft.to/lastmile_qr_scan", "android": "https://dc.lft.to/lastmile_qr_scan"}, "type": "electric_scooter", "name": "67da7493a3ffd44a749a15777006a582", "is_reserved": 0, "lon": -77.01914666666667, "is_disabled": 0, "fusion_lat": 0.0, "lat": 38.902495333333334, "bike_id": "67da7493a3ffd44a749a15777006a582", "fusion_lon": 0.0}, {"rental_uris": {"ios": "https://dc.lft.to/lastmile_qr_scan", "android": "https://dc.lft.to/lastmile_qr_scan"}, "type": "electric_scooter", "name": "5f4bb4b5a8dac28958d9f6988253a8d1", "is_reserved": 0, "lon": -77.02173116666667, "is_disabled": 0, "fusion_lat": 0.0, "lat": 38.895414833333334, "bike_id": "5f4bb4b5a8dac28958d9f6988253a8d1", "fusion_lon": 0.0}, {"rental_uris": {"ios": "https://dc.lft.to/lastmile_qr_scan", "android": "https://dc.lft.to/lastmile_qr_scan"}, "type": "electric_bike", "name": "b2fe1e67c5d3167d2a0fc12dc87c5189", "is_reserved": 0, "lon": -76.97315866666666, "is_disabled": 0, "fusion_lat": 0.0, "lat": 38.91759, "bike_id": "b2fe1e67c5d3167d2a0fc12dc87c5189", "fusion_lon": 0.0}, {"rental_uris": {"ios": "https://dc.lft.to/lastmile_qr_scan", "android": "https://dc.lft.to/lastmile_qr_scan"}, "type": "electric_scooter", "name": "a712c915c1860cf519d1542ca336b514", "is_reserved": 0, "lon": -76.99155433333334, "is_disabled": 0, "fusion_lat": 0.0, "lat": 38.900364, "bike_id": "a712c915c1860cf519d1542ca336b514", "fusion_lon": 0.0}, {"rental_uris": {"ios": "https://dc.lft.to/lastmile_qr_scan", "android": "https://dc.lft.to/lastmile_qr_scan"}, "type": "electric_scooter", "name": "de2fc7cad383702ce6d53f67531d5553", "is_reserved": 0, "lon": -77.03709, "is_disabled": 0, "fusion_lat": 0.0, "lat": 38.9282985, "bike_id": "de2fc7cad383702ce6d53f67531d5553", "fusion_lon": 0.0}, {"rental_uris": {"ios": "https://dc.lft.to/lastmile_qr_scan", "android": "https://dc.lft.to/lastmile_qr_scan"}, "type": "electric_scooter", "name": "4cfdd03f8cb2395370ee0613b281011b", "is_reserved": 0, "lon": -77.02006866666666, "is_disabled": 0, "fusion_lat": 0.0, "lat": 38.89817466666667, "bike_id": "4cfdd03f8cb2395370ee0613b281011b", "fusion_lon": 0.0}, {"rental_uris": {"ios": "https://dc.lft.to/lastmile_qr_scan", "android": "https://dc.lft.to/lastmile_qr_scan"}, "type": "electric_scooter", "name": "a2500fe2f8638c5bb1f3a94437d18dfa", "is_reserved": 0, "lon": -77.03300383333334, "is_disabled": 0, "fusion_lat": 0.0, "lat": 38.92462233333333, "bike_id": "a2500fe2f8638c5bb1f3a94437d18dfa", "fusion_lon": 0.0}, {"rental_uris": {"ios": "https://dc.lft.to/lastmile_qr_scan", "android": "https://dc.lft.to/lastmile_qr_scan"}, "type": "electric_scooter", "name": "835ac517cb82d6deb349ff783a8126af", "is_reserved": 0, "lon": -77.05598616666667, "is_disabled": 0, "fusion_lat": 0.0, "lat": 38.89425766666667, "bike_id": "835ac517cb82d6deb349ff783a8126af", "fusion_lon": 0.0}, {"rental_uris": {"ios": "https://dc.lft.to/lastmile_qr_scan", "android": "https://dc.lft.to/lastmile_qr_scan"}, "type": "electric_scooter", "name": "9a20aba39d6ca62f8a82925150d3468a", "is_reserved": 0, "lon": -77.03275083333334, "is_disabled": 0, "fusion_lat": 0.0, "lat": 38.928990166666665, "bike_id": "9a20aba39d6ca62f8a82925150d3468a", "fusion_lon": 0.0}, {"rental_uris": {"ios": "https://dc.lft.to/lastmile_qr_scan", "android": "https://dc.lft.to/lastmile_qr_scan"}, "type": "electric_scooter", "name": "8c8613b41008b076334fdf1ef2e4ee15", "is_reserved": 0, "lon": -77.03374833333334, "is_disabled": 0, "fusion_lat": 0.0, "lat": 38.930773, "bike_id": "8c8613b41008b076334fdf1ef2e4ee15", "fusion_lon": 0.0}, {"rental_uris": {"ios": "https://dc.lft.to/lastmile_qr_scan", "android": "https://dc.lft.to/lastmile_qr_scan"}, "type": "electric_scooter", "name": "14a390459fd3ee0d9ea3445b4679e1d0", "is_reserved": 0, "lon": -77.02691966666667, "is_disabled": 0, "fusion_lat": 0.0, "lat": 38.911474166666665, "bike_id": "14a390459fd3ee0d9ea3445b4679e1d0", "fusion_lon": 0.0}, {"rental_uris": {"ios": "https://dc.lft.to/lastmile_qr_scan", "android": "https://dc.lft.to/lastmile_qr_scan"}, "type": "electric_scooter", "name": "e368d506fceb4d2abd55571ccda369c9", "is_reserved": 0, "lon": -77.03058383333334, "is_disabled": 0, "fusion_lat": 0.0, "lat": 38.909619666666664, "bike_id": "e368d506fceb4d2abd55571ccda369c9", "fusion_lon": 0.0}, {"rental_uris": {"ios": "https://dc.lft.to/lastmile_qr_scan", "android": "https://dc.lft.to/lastmile_qr_scan"}, "type": "electric_scooter", "name": "2e5c8f6a705adb42f1366584fa4b19d8", "is_reserved": 0, "lon": -77.02132166666667, "is_disabled": 0, "fusion_lat": 0.0, "lat": 38.91335016666667, "bike_id": "2e5c8f6a705adb42f1366584fa4b19d8", "fusion_lon": 0.0}, {"rental_uris": {"ios": "https://dc.lft.to/lastmile_qr_scan", "android": "https://dc.lft.to/lastmile_qr_scan"}, "type": "electric_scooter", "name": "596252d7b71af6eca0e2f244007bbe60", "is_reserved": 0, "lon": -77.03450166666667, "is_disabled": 0, "fusion_lat": 0.0, "lat": 38.908114833333336, "bike_id": "596252d7b71af6eca0e2f244007bbe60", "fusion_lon": 0.0}, {"rental_uris": {"ios": "https://dc.lft.to/lastmile_qr_scan", "android": "https://dc.lft.to/lastmile_qr_scan"}, "type": "electric_scooter", "name": "705271d095b5c10916f0949917539e74", "is_reserved": 0, "lon": -77.04838383333333, "is_disabled": 0, "fusion_lat": 0.0, "lat": 38.9127645, "bike_id": "705271d095b5c10916f0949917539e74", "fusion_lon": 0.0}, {"rental_uris": {"ios": "https://dc.lft.to/lastmile_qr_scan", "android": "https://dc.lft.to/lastmile_qr_scan"}, "type": "electric_scooter", "name": "e9f28fdf6b5231d6eb38323a9bc13742", "is_reserved": 0, "lon": -77.03872216666667, "is_disabled": 0, "fusion_lat": 0.0, "lat": 38.917008833333334, "bike_id": "e9f28fdf6b5231d6eb38323a9bc13742", "fusion_lon": 0.0}, {"rental_uris": {"ios": "https://dc.lft.to/lastmile_qr_scan", "android": "https://dc.lft.to/lastmile_qr_scan"}, "type": "electric_scooter", "name": "e229523c14deba5c9ae2616ecace98c6", "is_reserved": 0, "lon": -77.04490283333334, "is_disabled": 0, "fusion_lat": 0.0, "lat": 38.91234166666667, "bike_id": "e229523c14deba5c9ae2616ecace98c6", "fusion_lon": 0.0}, {"rental_uris": {"ios": "https://dc.lft.to/lastmile_qr_scan", "android": "https://dc.lft.to/lastmile_qr_scan"}, "type": "electric_bike", "name": "10aba7be84a772ad6ed42a246af6eeac", "is_reserved": 0, "lon": -77.08370183333334, "is_disabled": 0, "fusion_lat": 0.0, "lat": 38.8541635, "bike_id": "10aba7be84a772ad6ed42a246af6eeac", "fusion_lon": 0.0}, {"rental_uris": {"ios": "https://dc.lft.to/lastmile_qr_scan", "android": "https://dc.lft.to/lastmile_qr_scan"}, "type": "electric_scooter", "name": "ffa63eeba8ca8b3a9edb29e04a3dcbce", "is_reserved": 0, "lon": -77.03417366666666, "is_disabled": 0, "fusion_lat": 0.0, "lat": 38.935476666666666, "bike_id": "ffa63eeba8ca8b3a9edb29e04a3dcbce", "fusion_lon": 0.0}, {"rental_uris": {"ios": "https://dc.lft.to/lastmile_qr_scan", "android": "https://dc.lft.to/lastmile_qr_scan"}, "type": "electric_scooter", "name": "e95b9bbcd6d187650f390ae0d735dfa9", "is_reserved": 0, "lon": -76.99745383333334, "is_disabled": 0, "fusion_lat": 0.0, "lat": 38.9204105, "bike_id": "e95b9bbcd6d187650f390ae0d735dfa9", "fusion_lon": 0.0}, {"rental_uris": {"ios": "https://dc.lft.to/lastmile_qr_scan", "android": "https://dc.lft.to/lastmile_qr_scan"}, "type": "electric_scooter", "name": "196b34cb46044880b8a44b96522a96b4", "is_reserved": 0, "lon": -77.03179916666667, "is_disabled": 0, "fusion_lat": 0.0, "lat": 38.9167055, "bike_id": "196b34cb46044880b8a44b96522a96b4", "fusion_lon": 0.0}, {"rental_uris": {"ios": "https://dc.lft.to/lastmile_qr_scan", "android": "https://dc.lft.to/lastmile_qr_scan"}, "type": "electric_scooter", "name": "deaa11857b50fbf78198c4b331ba4ddb", "is_reserved": 0, "lon": -77.020925, "is_disabled": 0, "fusion_lat": 0.0, "lat": 38.91421916666667, "bike_id": "deaa11857b50fbf78198c4b331ba4ddb", "fusion_lon": 0.0}, {"rental_uris": {"ios": "https://dc.lft.to/lastmile_qr_scan", "android": "https://dc.lft.to/lastmile_qr_scan"}, "type": "electric_scooter", "name": "ece6f95a162e5e19a69acc53a1c240d4", "is_reserved": 0, "lon": -77.03446333333333, "is_disabled": 0, "fusion_lat": 0.0, "lat": 38.9073215, "bike_id": "ece6f95a162e5e19a69acc53a1c240d4", "fusion_lon": 0.0}, {"rental_uris": {"ios": "https://dc.lft.to/lastmile_qr_scan", "android": "https://dc.lft.to/lastmile_qr_scan"}, "type": "electric_scooter", "name": "0c3b2bb7f8c2f8e6f12c37106636ab62", "is_reserved": 0, "lon": -77.024901, "is_disabled": 0, "fusion_lat": 0.0, "lat": 38.91902066666667, "bike_id": "0c3b2bb7f8c2f8e6f12c37106636ab62", "fusion_lon": 0.0}, {"rental_uris": {"ios": "https://dc.lft.to/lastmile_qr_scan", "android": "https://dc.lft.to/lastmile_qr_scan"}, "type": "electric_bike", "name": "7b60305728dd08063882573e93cfaebd", "is_reserved": 0, "lon": -76.97700516666667, "is_disabled": 0, "fusion_lat": 0.0, "lat": 38.822096, "bike_id": "7b60305728dd08063882573e93cfaebd", "fusion_lon": 0.0}, {"rental_uris": {"ios": "https://dc.lft.to/lastmile_qr_scan", "android": "https://dc.lft.to/lastmile_qr_scan"}, "type": "electric_scooter", "name": "a5cd3042736ee046687b63149e16077f", "is_reserved": 0, "lon": -77.0417455, "is_disabled": 0, "fusion_lat": 0.0, "lat": 38.915919833333334, "bike_id": "a5cd3042736ee046687b63149e16077f", "fusion_lon": 0.0}, {"rental_uris": {"ios": "https://dc.lft.to/lastmile_qr_scan", "android": "https://dc.lft.to/lastmile_qr_scan"}, "type": "electric_scooter", "name": "72fe752fbcdc75f8fc196e90f3d75ece", "is_reserved": 0, "lon": -77.02078616666667, "is_disabled": 0, "fusion_lat": 0.0, "lat": 38.927079666666664, "bike_id": "72fe752fbcdc75f8fc196e90f3d75ece", "fusion_lon": 0.0}, {"rental_uris": {"ios": "https://dc.lft.to/lastmile_qr_scan", "android": "https://dc.lft.to/lastmile_qr_scan"}, "type": "electric_scooter", "name": "831552cda8b2ee3af9b2f3955f41c04d", "is_reserved": 0, "lon": -76.96548566666667, "is_disabled": 0, "fusion_lat": 0.0, "lat": 38.87891116666667, "bike_id": "831552cda8b2ee3af9b2f3955f41c04d", "fusion_lon": 0.0}, {"rental_uris": {"ios": "https://dc.lft.to/lastmile_qr_scan", "android": "https://dc.lft.to/lastmile_qr_scan"}, "type": "electric_scooter", "name": "f5adb2355504e28e092ff3923449b5f6", "is_reserved": 0, "lon": -77.04654933333333, "is_disabled": 0, "fusion_lat": 0.0, "lat": 38.910441, "bike_id": "f5adb2355504e28e092ff3923449b5f6", "fusion_lon": 0.0}, {"rental_uris": {"ios": "https://dc.lft.to/lastmile_qr_scan", "android": "https://dc.lft.to/lastmile_qr_scan"}, "type": "electric_scooter", "name": "7f32ce27cec207908d70c153b065a5fe", "is_reserved": 0, "lon": -77.01269783333333, "is_disabled": 0, "fusion_lat": 0.0, "lat": 38.8972055, "bike_id": "7f32ce27cec207908d70c153b065a5fe", "fusion_lon": 0.0}, {"rental_uris": {"ios": "https://dc.lft.to/lastmile_qr_scan", "android": "https://dc.lft.to/lastmile_qr_scan"}, "type": "electric_scooter", "name": "e407ee356c2c37ece1f72046d972d625", "is_reserved": 0, "lon": -77.02251, "is_disabled": 0, "fusion_lat": 0.0, "lat": 38.9127435, "bike_id": "e407ee356c2c37ece1f72046d972d625", "fusion_lon": 0.0}, {"rental_uris": {"ios": "https://dc.lft.to/lastmile_qr_scan", "android": "https://dc.lft.to/lastmile_qr_scan"}, "type": "electric_scooter", "name": "01d909275b13851044dc0eff8d137310", "is_reserved": 0, "lon": -77.0424705, "is_disabled": 0, "fusion_lat": 0.0, "lat": 38.922339, "bike_id": "01d909275b13851044dc0eff8d137310", "fusion_lon": 0.0}, {"rental_uris": {"ios": "https://dc.lft.to/lastmile_qr_scan", "android": "https://dc.lft.to/lastmile_qr_scan"}, "type": "electric_scooter", "name": "9e843fd2e742d0d812d0c51d6bce39be", "is_reserved": 0, "lon": -77.03834766666667, "is_disabled": 0, "fusion_lat": 0.0, "lat": 38.906698, "bike_id": "9e843fd2e742d0d812d0c51d6bce39be", "fusion_lon": 0.0}, {"rental_uris": {"ios": "https://dc.lft.to/lastmile_qr_scan", "android": "https://dc.lft.to/lastmile_qr_scan"}, "type": "electric_scooter", "name": "1f435bb67a5bf1b9c763d1125e434375", "is_reserved": 0, "lon": -77.02176033333333, "is_disabled": 0, "fusion_lat": 0.0, "lat": 38.88724033333333, "bike_id": "1f435bb67a5bf1b9c763d1125e434375", "fusion_lon": 0.0}, {"rental_uris": {"ios": "https://dc.lft.to/lastmile_qr_scan", "android": "https://dc.lft.to/lastmile_qr_scan"}, "type": "electric_scooter", "name": "1219ff1a01f416d980b64a97f167ca89", "is_reserved": 0, "lon": -77.04494216666667, "is_disabled": 0, "fusion_lat": 0.0, "lat": 38.89715866666667, "bike_id": "1219ff1a01f416d980b64a97f167ca89", "fusion_lon": 0.0}, {"rental_uris": {"ios": "https://dc.lft.to/lastmile_qr_scan", "android": "https://dc.lft.to/lastmile_qr_scan"}, "type": "electric_scooter", "name": "44b47011dde835aa409cf3ebc27860d5", "is_reserved": 0, "lon": -76.9960915, "is_disabled": 0, "fusion_lat": 0.0, "lat": 38.909138166666665, "bike_id": "44b47011dde835aa409cf3ebc27860d5", "fusion_lon": 0.0}, {"rental_uris": {"ios": "https://dc.lft.to/lastmile_qr_scan", "android": "https://dc.lft.to/lastmile_qr_scan"}, "type": "electric_scooter", "name": "28b15b02cf92abec63d53be2005e9631", "is_reserved": 0, "lon": -76.971478, "is_disabled": 0, "fusion_lat": 0.0, "lat": 38.91621716666667, "bike_id": "28b15b02cf92abec63d53be2005e9631", "fusion_lon": 0.0}, {"rental_uris": {"ios": "https://dc.lft.to/lastmile_qr_scan", "android": "https://dc.lft.to/lastmile_qr_scan"}, "type": "electric_scooter", "name": "4dc9e1897015a1fa3a171b24e2deaba7", "is_reserved": 0, "lon": -77.0287105, "is_disabled": 0, "fusion_lat": 0.0, "lat": 38.9126765, "bike_id": "4dc9e1897015a1fa3a171b24e2deaba7", "fusion_lon": 0.0}, {"rental_uris": {"ios": "https://dc.lft.to/lastmile_qr_scan", "android": "https://dc.lft.to/lastmile_qr_scan"}, "type": "electric_scooter", "name": "7061ed9cd2c1979e15887d49a6a766ea", "is_reserved": 0, "lon": -77.02832183333334, "is_disabled": 0, "fusion_lat": 0.0, "lat": 38.938843166666665, "bike_id": "7061ed9cd2c1979e15887d49a6a766ea", "fusion_lon": 0.0}, {"rental_uris": {"ios": "https://dc.lft.to/lastmile_qr_scan", "android": "https://dc.lft.to/lastmile_qr_scan"}, "type": "electric_scooter", "name": "9385a619f92f65cca78ec0e8ad5d6981", "is_reserved": 0, "lon": -76.984466, "is_disabled": 0, "fusion_lat": 0.0, "lat": 38.91460083333333, "bike_id": "9385a619f92f65cca78ec0e8ad5d6981", "fusion_lon": 0.0}, {"rental_uris": {"ios": "https://dc.lft.to/lastmile_qr_scan", "android": "https://dc.lft.to/lastmile_qr_scan"}, "type": "electric_scooter", "name": "5a0663e35ef76022573a3671bd406694", "is_reserved": 0, "lon": -77.06330783333334, "is_disabled": 0, "fusion_lat": 0.0, "lat": 38.90690016666667, "bike_id": "5a0663e35ef76022573a3671bd406694", "fusion_lon": 0.0}, {"rental_uris": {"ios": "https://dc.lft.to/lastmile_qr_scan", "android": "https://dc.lft.to/lastmile_qr_scan"}, "type": "electric_scooter", "name": "0124424d66000f413282e50722572f00", "is_reserved": 0, "lon": -77.07655666666666, "is_disabled": 0, "fusion_lat": 0.0, "lat": 38.91083033333334, "bike_id": "0124424d66000f413282e50722572f00", "fusion_lon": 0.0}, {"rental_uris": {"ios": "https://dc.lft.to/lastmile_qr_scan", "android": "https://dc.lft.to/lastmile_qr_scan"}, "type": "electric_bike", "name": "813e4a9fa2c1639fa93961468984e4c9", "is_reserved": 0, "lon": -77.114077, "is_disabled": 0, "fusion_lat": 0.0, "lat": 38.87327366666667, "bike_id": "813e4a9fa2c1639fa93961468984e4c9", "fusion_lon": 0.0}, {"rental_uris": {"ios": "https://dc.lft.to/lastmile_qr_scan", "android": "https://dc.lft.to/lastmile_qr_scan"}, "type": "electric_scooter", "name": "6a3d0dbe9ca3a55a49ee256a723a9b84", "is_reserved": 0, "lon": -77.0432575, "is_disabled": 0, "fusion_lat": 0.0, "lat": 38.934103, "bike_id": "6a3d0dbe9ca3a55a49ee256a723a9b84", "fusion_lon": 0.0}, {"rental_uris": {"ios": "https://dc.lft.to/lastmile_qr_scan", "android": "https://dc.lft.to/lastmile_qr_scan"}, "type": "electric_scooter", "name": "cc6a3dd4d57a9d9547df27228aea9751", "is_reserved": 0, "lon": -77.048596, "is_disabled": 0, "fusion_lat": 0.0, "lat": 38.91271066666667, "bike_id": "cc6a3dd4d57a9d9547df27228aea9751", "fusion_lon": 0.0}, {"rental_uris": {"ios": "https://dc.lft.to/lastmile_qr_scan", "android": "https://dc.lft.to/lastmile_qr_scan"}, "type": "electric_scooter", "name": "2cabc1052be39fbf2f2e20436a6bc464", "is_reserved": 0, "lon": -77.04162533333333, "is_disabled": 0, "fusion_lat": 0.0, "lat": 38.911986666666664, "bike_id": "2cabc1052be39fbf2f2e20436a6bc464", "fusion_lon": 0.0}, {"rental_uris": {"ios": "https://dc.lft.to/lastmile_qr_scan", "android": "https://dc.lft.to/lastmile_qr_scan"}, "type": "electric_scooter", "name": "c722e32d1886f17b37ee66d51e0bb702", "is_reserved": 0, "lon": -77.04482716666666, "is_disabled": 0, "fusion_lat": 0.0, "lat": 38.91083716666667, "bike_id": "c722e32d1886f17b37ee66d51e0bb702", "fusion_lon": 0.0}, {"rental_uris": {"ios": "https://dc.lft.to/lastmile_qr_scan", "android": "https://dc.lft.to/lastmile_qr_scan"}, "type": "electric_scooter", "name": "407795163dbe47c6334a9c9d6241c390", "is_reserved": 0, "lon": -77.03312283333334, "is_disabled": 0, "fusion_lat": 0.0, "lat": 38.903909, "bike_id": "407795163dbe47c6334a9c9d6241c390", "fusion_lon": 0.0}, {"rental_uris": {"ios": "https://dc.lft.to/lastmile_qr_scan", "android": "https://dc.lft.to/lastmile_qr_scan"}, "type": "electric_scooter", "name": "ce7ab41161b277c6ab6ef03a7c72489a", "is_reserved": 0, "lon": -77.0624945, "is_disabled": 0, "fusion_lat": 0.0, "lat": 38.905227333333336, "bike_id": "ce7ab41161b277c6ab6ef03a7c72489a", "fusion_lon": 0.0}, {"rental_uris": {"ios": "https://dc.lft.to/lastmile_qr_scan", "android": "https://dc.lft.to/lastmile_qr_scan"}, "type": "electric_scooter", "name": "6d0e4ef7c325bb9f22e5b7fcae1a51a9", "is_reserved": 0, "lon": -76.94652433333333, "is_disabled": 0, "fusion_lat": 0.0, "lat": 38.898242, "bike_id": "6d0e4ef7c325bb9f22e5b7fcae1a51a9", "fusion_lon": 0.0}, {"rental_uris": {"ios": "https://dc.lft.to/lastmile_qr_scan", "android": "https://dc.lft.to/lastmile_qr_scan"}, "type": "electric_bike", "name": "2a6e5ec4d157a9caa3e1221cdb26ba38", "is_reserved": 0, "lon": -76.96911116666666, "is_disabled": 0, "fusion_lat": 0.0, "lat": 38.846117666666665, "bike_id": "2a6e5ec4d157a9caa3e1221cdb26ba38", "fusion_lon": 0.0}, {"rental_uris": {"ios": "https://dc.lft.to/lastmile_qr_scan", "android": "https://dc.lft.to/lastmile_qr_scan"}, "type": "electric_scooter", "name": "7d9d57d113682516ab0c6eb763bc09af", "is_reserved": 0, "lon": -77.0351705, "is_disabled": 0, "fusion_lat": 0.0, "lat": 38.909626, "bike_id": "7d9d57d113682516ab0c6eb763bc09af", "fusion_lon": 0.0}, {"rental_uris": {"ios": "https://dc.lft.to/lastmile_qr_scan", "android": "https://dc.lft.to/lastmile_qr_scan"}, "type": "electric_scooter", "name": "eba1973fa2bc8c6bd057fffe51984a1e", "is_reserved": 0, "lon": -77.00892716666667, "is_disabled": 0, "fusion_lat": 0.0, "lat": 38.89872833333333, "bike_id": "eba1973fa2bc8c6bd057fffe51984a1e", "fusion_lon": 0.0}, {"rental_uris": {"ios": "https://dc.lft.to/lastmile_qr_scan", "android": "https://dc.lft.to/lastmile_qr_scan"}, "type": "electric_scooter", "name": "abc247d45a3f7350fc629744c73f28c3", "is_reserved": 0, "lon": -76.99639066666667, "is_disabled": 0, "fusion_lat": 0.0, "lat": 38.887682833333336, "bike_id": "abc247d45a3f7350fc629744c73f28c3", "fusion_lon": 0.0}, {"rental_uris": {"ios": "https://dc.lft.to/lastmile_qr_scan", "android": "https://dc.lft.to/lastmile_qr_scan"}, "type": "electric_scooter", "name": "c85ce55733834ff0580642a2d9e2a50a", "is_reserved": 0, "lon": -77.01658816666666, "is_disabled": 0, "fusion_lat": 0.0, "lat": 38.93903983333333, "bike_id": "c85ce55733834ff0580642a2d9e2a50a", "fusion_lon": 0.0}, {"rental_uris": {"ios": "https://dc.lft.to/lastmile_qr_scan", "android": "https://dc.lft.to/lastmile_qr_scan"}, "type": "electric_scooter", "name": "8ea317a4574bbb43b98edefdede18df0", "is_reserved": 0, "lon": -77.02442116666667, "is_disabled": 0, "fusion_lat": 0.0, "lat": 38.902161166666666, "bike_id": "8ea317a4574bbb43b98edefdede18df0", "fusion_lon": 0.0}, {"rental_uris": {"ios": "https://dc.lft.to/lastmile_qr_scan", "android": "https://dc.lft.to/lastmile_qr_scan"}, "type": "electric_scooter", "name": "9a008b8ac66a0801dd1ec4fa08aa39a9", "is_reserved": 0, "lon": -77.05690866666667, "is_disabled": 0, "fusion_lat": 0.0, "lat": 38.904836333333336, "bike_id": "9a008b8ac66a0801dd1ec4fa08aa39a9", "fusion_lon": 0.0}, {"rental_uris": {"ios": "https://dc.lft.to/lastmile_qr_scan", "android": "https://dc.lft.to/lastmile_qr_scan"}, "type": "electric_scooter", "name": "673c09a033b6163be3ae1de47200ec60", "is_reserved": 0, "lon": -77.05785716666666, "is_disabled": 0, "fusion_lat": 0.0, "lat": 38.9051215, "bike_id": "673c09a033b6163be3ae1de47200ec60", "fusion_lon": 0.0}, {"rental_uris": {"ios": "https://dc.lft.to/lastmile_qr_scan", "android": "https://dc.lft.to/lastmile_qr_scan"}, "type": "electric_scooter", "name": "61d6a3986aabcf53025f008b2d060c64", "is_reserved": 0, "lon": -76.97937083333333, "is_disabled": 0, "fusion_lat": 0.0, "lat": 38.9066015, "bike_id": "61d6a3986aabcf53025f008b2d060c64", "fusion_lon": 0.0}, {"rental_uris": {"ios": "https://dc.lft.to/lastmile_qr_scan", "android": "https://dc.lft.to/lastmile_qr_scan"}, "type": "electric_scooter", "name": "57f7fa8d5030c6927cf6c8fe03cc2415", "is_reserved": 0, "lon": -77.02759366666666, "is_disabled": 0, "fusion_lat": 0.0, "lat": 38.9578525, "bike_id": "57f7fa8d5030c6927cf6c8fe03cc2415", "fusion_lon": 0.0}, {"rental_uris": {"ios": "https://dc.lft.to/lastmile_qr_scan", "android": "https://dc.lft.to/lastmile_qr_scan"}, "type": "electric_scooter", "name": "cbb6583968d284a85a6481e35bf84842", "is_reserved": 0, "lon": -76.94876733333334, "is_disabled": 0, "fusion_lat": 0.0, "lat": 38.89485783333333, "bike_id": "cbb6583968d284a85a6481e35bf84842", "fusion_lon": 0.0}, {"rental_uris": {"ios": "https://dc.lft.to/lastmile_qr_scan", "android": "https://dc.lft.to/lastmile_qr_scan"}, "type": "electric_scooter", "name": "71c9b9767cea144e6513570bf8fb4c17", "is_reserved": 0, "lon": -77.04132333333334, "is_disabled": 0, "fusion_lat": 0.0, "lat": 38.92541966666667, "bike_id": "71c9b9767cea144e6513570bf8fb4c17", "fusion_lon": 0.0}, {"rental_uris": {"ios": "https://dc.lft.to/lastmile_qr_scan", "android": "https://dc.lft.to/lastmile_qr_scan"}, "type": "electric_scooter", "name": "df99cb5f3bab0d8e96c193b6124d1c72", "is_reserved": 0, "lon": -77.00605216666666, "is_disabled": 0, "fusion_lat": 0.0, "lat": 38.8757065, "bike_id": "df99cb5f3bab0d8e96c193b6124d1c72", "fusion_lon": 0.0}, {"rental_uris": {"ios": "https://dc.lft.to/lastmile_qr_scan", "android": "https://dc.lft.to/lastmile_qr_scan"}, "type": "electric_scooter", "name": "b895f99798971ab915ebfb42e4907946", "is_reserved": 0, "lon": -76.92636833333333, "is_disabled": 0, "fusion_lat": 0.0, "lat": 38.883709, "bike_id": "b895f99798971ab915ebfb42e4907946", "fusion_lon": 0.0}, {"rental_uris": {"ios": "https://dc.lft.to/lastmile_qr_scan", "android": "https://dc.lft.to/lastmile_qr_scan"}, "type": "electric_scooter", "name": "15a17838a8126c4ed2108c21ce67098d", "is_reserved": 0, "lon": -77.0318465, "is_disabled": 0, "fusion_lat": 0.0, "lat": 38.911776333333336, "bike_id": "15a17838a8126c4ed2108c21ce67098d", "fusion_lon": 0.0}, {"rental_uris": {"ios": "https://dc.lft.to/lastmile_qr_scan", "android": "https://dc.lft.to/lastmile_qr_scan"}, "type": "electric_scooter", "name": "0c589d72f7d95163f9196daf2910a328", "is_reserved": 0, "lon": -77.0428765, "is_disabled": 0, "fusion_lat": 0.0, "lat": 38.90654466666667, "bike_id": "0c589d72f7d95163f9196daf2910a328", "fusion_lon": 0.0}, {"rental_uris": {"ios": "https://dc.lft.to/lastmile_qr_scan", "android": "https://dc.lft.to/lastmile_qr_scan"}, "type": "electric_scooter", "name": "d410a509afa554785c286ee8586d77e2", "is_reserved": 0, "lon": -77.04135516666666, "is_disabled": 0, "fusion_lat": 0.0, "lat": 38.91694316666667, "bike_id": "d410a509afa554785c286ee8586d77e2", "fusion_lon": 0.0}, {"rental_uris": {"ios": "https://dc.lft.to/lastmile_qr_scan", "android": "https://dc.lft.to/lastmile_qr_scan"}, "type": "electric_bike", "name": "64eec2b0645c36dce105f6c735f54732", "is_reserved": 0, "lon": -76.961554, "is_disabled": 0, "fusion_lat": 0.0, "lat": 38.856178166666666, "bike_id": "64eec2b0645c36dce105f6c735f54732", "fusion_lon": 0.0}, {"rental_uris": {"ios": "https://dc.lft.to/lastmile_qr_scan", "android": "https://dc.lft.to/lastmile_qr_scan"}, "type": "electric_scooter", "name": "7048bb39b4d05fb1bee44bfe64d05769", "is_reserved": 0, "lon": -76.99754, "is_disabled": 0, "fusion_lat": 0.0, "lat": 38.885106, "bike_id": "7048bb39b4d05fb1bee44bfe64d05769", "fusion_lon": 0.0}, {"rental_uris": {"ios": "https://dc.lft.to/lastmile_qr_scan", "android": "https://dc.lft.to/lastmile_qr_scan"}, "type": "electric_scooter", "name": "758ea1e003b9de0408c82f923ced389f", "is_reserved": 0, "lon": -77.03405466666666, "is_disabled": 0, "fusion_lat": 0.0, "lat": 38.9226545, "bike_id": "758ea1e003b9de0408c82f923ced389f", "fusion_lon": 0.0}, {"rental_uris": {"ios": "https://dc.lft.to/lastmile_qr_scan", "android": "https://dc.lft.to/lastmile_qr_scan"}, "type": "electric_scooter", "name": "d57da258bab3e7cf84e3d6d75c6df91a", "is_reserved": 0, "lon": -77.021974, "is_disabled": 0, "fusion_lat": 0.0, "lat": 38.9098065, "bike_id": "d57da258bab3e7cf84e3d6d75c6df91a", "fusion_lon": 0.0}, {"rental_uris": {"ios": "https://dc.lft.to/lastmile_qr_scan", "android": "https://dc.lft.to/lastmile_qr_scan"}, "type": "electric_scooter", "name": "aa6a12c2bb2c9919fb0cb5a8ee4af7ad", "is_reserved": 0, "lon": -77.0652065, "is_disabled": 0, "fusion_lat": 0.0, "lat": 38.911152, "bike_id": "aa6a12c2bb2c9919fb0cb5a8ee4af7ad", "fusion_lon": 0.0}, {"rental_uris": {"ios": "https://dc.lft.to/lastmile_qr_scan", "android": "https://dc.lft.to/lastmile_qr_scan"}, "type": "electric_scooter", "name": "375e357f2dd5444907fbf21d1d1cda09", "is_reserved": 0, "lon": -77.05201183333334, "is_disabled": 0, "fusion_lat": 0.0, "lat": 38.9024595, "bike_id": "375e357f2dd5444907fbf21d1d1cda09", "fusion_lon": 0.0}, {"rental_uris": {"ios": "https://dc.lft.to/lastmile_qr_scan", "android": "https://dc.lft.to/lastmile_qr_scan"}, "type": "electric_scooter", "name": "94337a26dc77ce15c99de00588f5e96c", "is_reserved": 0, "lon": -77.04085683333334, "is_disabled": 0, "fusion_lat": 0.0, "lat": 38.9479445, "bike_id": "94337a26dc77ce15c99de00588f5e96c", "fusion_lon": 0.0}, {"rental_uris": {"ios": "https://dc.lft.to/lastmile_qr_scan", "android": "https://dc.lft.to/lastmile_qr_scan"}, "type": "electric_scooter", "name": "4ea86cc205b31640d1adac5d0dc7c424", "is_reserved": 0, "lon": -77.02461783333334, "is_disabled": 0, "fusion_lat": 0.0, "lat": 38.917093333333334, "bike_id": "4ea86cc205b31640d1adac5d0dc7c424", "fusion_lon": 0.0}, {"rental_uris": {"ios": "https://dc.lft.to/lastmile_qr_scan", "android": "https://dc.lft.to/lastmile_qr_scan"}, "type": "electric_scooter", "name": "0b8b6e488692e69dd30db67d92df87fb", "is_reserved": 0, "lon": -77.0388145, "is_disabled": 0, "fusion_lat": 0.0, "lat": 38.9034355, "bike_id": "0b8b6e488692e69dd30db67d92df87fb", "fusion_lon": 0.0}, {"rental_uris": {"ios": "https://dc.lft.to/lastmile_qr_scan", "android": "https://dc.lft.to/lastmile_qr_scan"}, "type": "electric_scooter", "name": "c117f8e42dd04c8e90eb7bada8493116", "is_reserved": 0, "lon": -77.01958683333334, "is_disabled": 0, "fusion_lat": 0.0, "lat": 38.92326383333333, "bike_id": "c117f8e42dd04c8e90eb7bada8493116", "fusion_lon": 0.0}, {"rental_uris": {"ios": "https://dc.lft.to/lastmile_qr_scan", "android": "https://dc.lft.to/lastmile_qr_scan"}, "type": "electric_bike", "name": "f6f3198069975f2ec41dbb86676c078e", "is_reserved": 0, "lon": -76.98243233333334, "is_disabled": 0, "fusion_lat": 0.0, "lat": 38.95242233333333, "bike_id": "f6f3198069975f2ec41dbb86676c078e", "fusion_lon": 0.0}, {"rental_uris": {"ios": "https://dc.lft.to/lastmile_qr_scan", "android": "https://dc.lft.to/lastmile_qr_scan"}, "type": "electric_scooter", "name": "54968183084060b0dbc103099563076f", "is_reserved": 0, "lon": -76.9760885, "is_disabled": 0, "fusion_lat": 0.0, "lat": 38.90388133333333, "bike_id": "54968183084060b0dbc103099563076f", "fusion_lon": 0.0}, {"rental_uris": {"ios": "https://dc.lft.to/lastmile_qr_scan", "android": "https://dc.lft.to/lastmile_qr_scan"}, "type": "electric_scooter", "name": "4f230437819eaee33e54ab1c643c7487", "is_reserved": 0, "lon": -77.01526533333333, "is_disabled": 0, "fusion_lat": 0.0, "lat": 38.9133445, "bike_id": "4f230437819eaee33e54ab1c643c7487", "fusion_lon": 0.0}, {"rental_uris": {"ios": "https://dc.lft.to/lastmile_qr_scan", "android": "https://dc.lft.to/lastmile_qr_scan"}, "type": "electric_scooter", "name": "4fbb37462a421ac408acb4f781be6293", "is_reserved": 0, "lon": -77.03797783333333, "is_disabled": 0, "fusion_lat": 0.0, "lat": 38.92198233333333, "bike_id": "4fbb37462a421ac408acb4f781be6293", "fusion_lon": 0.0}, {"rental_uris": {"ios": "https://dc.lft.to/lastmile_qr_scan", "android": "https://dc.lft.to/lastmile_qr_scan"}, "type": "electric_bike", "name": "e082b1cb32e5874cf80ddcc9629aa718", "is_reserved": 0, "lon": -76.98013383333333, "is_disabled": 0, "fusion_lat": 0.0, "lat": 38.8531195, "bike_id": "e082b1cb32e5874cf80ddcc9629aa718", "fusion_lon": 0.0}, {"rental_uris": {"ios": "https://dc.lft.to/lastmile_qr_scan", "android": "https://dc.lft.to/lastmile_qr_scan"}, "type": "electric_scooter", "name": "20bff258a82698fba5493d61ad01f772", "is_reserved": 0, "lon": -77.000161, "is_disabled": 0, "fusion_lat": 0.0, "lat": 38.87449016666667, "bike_id": "20bff258a82698fba5493d61ad01f772", "fusion_lon": 0.0}, {"rental_uris": {"ios": "https://dc.lft.to/lastmile_qr_scan", "android": "https://dc.lft.to/lastmile_qr_scan"}, "type": "electric_bike", "name": "df46bd78a4c4977e65487552043d2897", "is_reserved": 0, "lon": -77.00280916666667, "is_disabled": 0, "fusion_lat": 0.0, "lat": 38.906855666666665, "bike_id": "df46bd78a4c4977e65487552043d2897", "fusion_lon": 0.0}, {"rental_uris": {"ios": "https://dc.lft.to/lastmile_qr_scan", "android": "https://dc.lft.to/lastmile_qr_scan"}, "type": "electric_bike", "name": "763b9d154f735856f567454da7925533", "is_reserved": 0, "lon": -77.023877, "is_disabled": 0, "fusion_lat": 0.0, "lat": 38.915933, "bike_id": "763b9d154f735856f567454da7925533", "fusion_lon": 0.0}, {"rental_uris": {"ios": "https://dc.lft.to/lastmile_qr_scan", "android": "https://dc.lft.to/lastmile_qr_scan"}, "type": "electric_scooter", "name": "678635889b6eda53f1aec8c2d1684e63", "is_reserved": 0, "lon": -77.0388885, "is_disabled": 0, "fusion_lat": 0.0, "lat": 38.90378916666667, "bike_id": "678635889b6eda53f1aec8c2d1684e63", "fusion_lon": 0.0}, {"rental_uris": {"ios": "https://dc.lft.to/lastmile_qr_scan", "android": "https://dc.lft.to/lastmile_qr_scan"}, "type": "electric_scooter", "name": "0976b8d764c2cfe82a6ab69a973dc054", "is_reserved": 0, "lon": -77.04754483333333, "is_disabled": 0, "fusion_lat": 0.0, "lat": 38.900887833333336, "bike_id": "0976b8d764c2cfe82a6ab69a973dc054", "fusion_lon": 0.0}, {"rental_uris": {"ios": "https://dc.lft.to/lastmile_qr_scan", "android": "https://dc.lft.to/lastmile_qr_scan"}, "type": "electric_scooter", "name": "442ce00fbc99942ccaa4701789e591ca", "is_reserved": 0, "lon": -77.043319, "is_disabled": 0, "fusion_lat": 0.0, "lat": 38.907542666666664, "bike_id": "442ce00fbc99942ccaa4701789e591ca", "fusion_lon": 0.0}, {"rental_uris": {"ios": "https://dc.lft.to/lastmile_qr_scan", "android": "https://dc.lft.to/lastmile_qr_scan"}, "type": "electric_scooter", "name": "bc0be0e3a529a52090b221d04602acff", "is_reserved": 0, "lon": -77.038722, "is_disabled": 0, "fusion_lat": 0.0, "lat": 38.917148166666664, "bike_id": "bc0be0e3a529a52090b221d04602acff", "fusion_lon": 0.0}, {"rental_uris": {"ios": "https://dc.lft.to/lastmile_qr_scan", "android": "https://dc.lft.to/lastmile_qr_scan"}, "type": "electric_scooter", "name": "1aa3e7c5d09e033b5b43f091368a06af", "is_reserved": 0, "lon": -77.02291516666666, "is_disabled": 0, "fusion_lat": 0.0, "lat": 38.9172165, "bike_id": "1aa3e7c5d09e033b5b43f091368a06af", "fusion_lon": 0.0}, {"rental_uris": {"ios": "https://dc.lft.to/lastmile_qr_scan", "android": "https://dc.lft.to/lastmile_qr_scan"}, "type": "electric_scooter", "name": "1631d00b22dc7e38ccb0dba222819d2e", "is_reserved": 0, "lon": -76.97629416666666, "is_disabled": 0, "fusion_lat": 0.0, "lat": 38.90571216666667, "bike_id": "1631d00b22dc7e38ccb0dba222819d2e", "fusion_lon": 0.0}, {"rental_uris": {"ios": "https://dc.lft.to/lastmile_qr_scan", "android": "https://dc.lft.to/lastmile_qr_scan"}, "type": "electric_scooter", "name": "ccdbaa423e071be32b2684ba099e74d1", "is_reserved": 0, "lon": -77.07300366666666, "is_disabled": 0, "fusion_lat": 0.0, "lat": 38.93023016666667, "bike_id": "ccdbaa423e071be32b2684ba099e74d1", "fusion_lon": 0.0}, {"rental_uris": {"ios": "https://dc.lft.to/lastmile_qr_scan", "android": "https://dc.lft.to/lastmile_qr_scan"}, "type": "electric_scooter", "name": "35c76137d17336976745d1e6a41e84ed", "is_reserved": 0, "lon": -77.04945283333333, "is_disabled": 0, "fusion_lat": 0.0, "lat": 38.920212666666664, "bike_id": "35c76137d17336976745d1e6a41e84ed", "fusion_lon": 0.0}, {"rental_uris": {"ios": "https://dc.lft.to/lastmile_qr_scan", "android": "https://dc.lft.to/lastmile_qr_scan"}, "type": "electric_bike", "name": "cef1bb63736472cd8d2c5fa5908fae40", "is_reserved": 0, "lon": -77.23412066666667, "is_disabled": 0, "fusion_lat": 0.0, "lat": 38.875815833333334, "bike_id": "cef1bb63736472cd8d2c5fa5908fae40", "fusion_lon": 0.0}, {"rental_uris": {"ios": "https://dc.lft.to/lastmile_qr_scan", "android": "https://dc.lft.to/lastmile_qr_scan"}, "type": "electric_scooter", "name": "817a31f52949a62e9be0ea4a8d09f152", "is_reserved": 0, "lon": -77.0259175, "is_disabled": 0, "fusion_lat": 0.0, "lat": 38.898396166666664, "bike_id": "817a31f52949a62e9be0ea4a8d09f152", "fusion_lon": 0.0}, {"rental_uris": {"ios": "https://dc.lft.to/lastmile_qr_scan", "android": "https://dc.lft.to/lastmile_qr_scan"}, "type": "electric_scooter", "name": "164a628bc357e520d7ef795cebef1d9b", "is_reserved": 0, "lon": -77.07345016666666, "is_disabled": 0, "fusion_lat": 0.0, "lat": 38.9432805, "bike_id": "164a628bc357e520d7ef795cebef1d9b", "fusion_lon": 0.0}, {"rental_uris": {"ios": "https://dc.lft.to/lastmile_qr_scan", "android": "https://dc.lft.to/lastmile_qr_scan"}, "type": "electric_scooter", "name": "159d21225af6cc023f6f8c2768a2208c", "is_reserved": 0, "lon": -77.03719133333334, "is_disabled": 0, "fusion_lat": 0.0, "lat": 38.900298666666664, "bike_id": "159d21225af6cc023f6f8c2768a2208c", "fusion_lon": 0.0}, {"rental_uris": {"ios": "https://dc.lft.to/lastmile_qr_scan", "android": "https://dc.lft.to/lastmile_qr_scan"}, "type": "electric_scooter", "name": "b555a6425f04f042d08f0f6b4dd4bd3c", "is_reserved": 0, "lon": -77.0250235, "is_disabled": 0, "fusion_lat": 0.0, "lat": 38.90343133333333, "bike_id": "b555a6425f04f042d08f0f6b4dd4bd3c", "fusion_lon": 0.0}, {"rental_uris": {"ios": "https://dc.lft.to/lastmile_qr_scan", "android": "https://dc.lft.to/lastmile_qr_scan"}, "type": "electric_scooter", "name": "3b9b7498d4c7a58870493015a04ef33e", "is_reserved": 0, "lon": -77.040343, "is_disabled": 0, "fusion_lat": 0.0, "lat": 38.904055, "bike_id": "3b9b7498d4c7a58870493015a04ef33e", "fusion_lon": 0.0}, {"rental_uris": {"ios": "https://dc.lft.to/lastmile_qr_scan", "android": "https://dc.lft.to/lastmile_qr_scan"}, "type": "electric_scooter", "name": "65bb1d8c6c2b7d0b085650a39ef0560e", "is_reserved": 0, "lon": -77.00914516666667, "is_disabled": 0, "fusion_lat": 0.0, "lat": 38.88192216666667, "bike_id": "65bb1d8c6c2b7d0b085650a39ef0560e", "fusion_lon": 0.0}, {"rental_uris": {"ios": "https://dc.lft.to/lastmile_qr_scan", "android": "https://dc.lft.to/lastmile_qr_scan"}, "type": "electric_scooter", "name": "68e00bb6334d6d1b8918c88090a40dde", "is_reserved": 0, "lon": -77.04342816666667, "is_disabled": 0, "fusion_lat": 0.0, "lat": 38.91043066666667, "bike_id": "68e00bb6334d6d1b8918c88090a40dde", "fusion_lon": 0.0}, {"rental_uris": {"ios": "https://dc.lft.to/lastmile_qr_scan", "android": "https://dc.lft.to/lastmile_qr_scan"}, "type": "electric_scooter", "name": "236eb82bd51131e204210ddcc7166460", "is_reserved": 0, "lon": -77.01215733333333, "is_disabled": 0, "fusion_lat": 0.0, "lat": 38.9203155, "bike_id": "236eb82bd51131e204210ddcc7166460", "fusion_lon": 0.0}, {"rental_uris": {"ios": "https://dc.lft.to/lastmile_qr_scan", "android": "https://dc.lft.to/lastmile_qr_scan"}, "type": "electric_scooter", "name": "ee7653510527aae537a1342b8ef4d66d", "is_reserved": 0, "lon": -77.04214133333333, "is_disabled": 0, "fusion_lat": 0.0, "lat": 38.92126233333333, "bike_id": "ee7653510527aae537a1342b8ef4d66d", "fusion_lon": 0.0}, {"rental_uris": {"ios": "https://dc.lft.to/lastmile_qr_scan", "android": "https://dc.lft.to/lastmile_qr_scan"}, "type": "electric_scooter", "name": "f1c6d1d1a31a4a010d0182fef646a807", "is_reserved": 0, "lon": -77.01948716666666, "is_disabled": 0, "fusion_lat": 0.0, "lat": 38.924235833333334, "bike_id": "f1c6d1d1a31a4a010d0182fef646a807", "fusion_lon": 0.0}, {"rental_uris": {"ios": "https://dc.lft.to/lastmile_qr_scan", "android": "https://dc.lft.to/lastmile_qr_scan"}, "type": "electric_scooter", "name": "5a1bba2bcc9f4469409a4a0398e0fb51", "is_reserved": 0, "lon": -77.02084983333333, "is_disabled": 0, "fusion_lat": 0.0, "lat": 38.88182166666667, "bike_id": "5a1bba2bcc9f4469409a4a0398e0fb51", "fusion_lon": 0.0}, {"rental_uris": {"ios": "https://dc.lft.to/lastmile_qr_scan", "android": "https://dc.lft.to/lastmile_qr_scan"}, "type": "electric_scooter", "name": "4cdaa808b588b3a9cb299dd0d453739c", "is_reserved": 0, "lon": -77.02191383333333, "is_disabled": 0, "fusion_lat": 0.0, "lat": 38.9113355, "bike_id": "4cdaa808b588b3a9cb299dd0d453739c", "fusion_lon": 0.0}, {"rental_uris": {"ios": "https://dc.lft.to/lastmile_qr_scan", "android": "https://dc.lft.to/lastmile_qr_scan"}, "type": "electric_scooter", "name": "050a43088ed3d3fe2dc1074a31d5d649", "is_reserved": 0, "lon": -77.03067966666667, "is_disabled": 0, "fusion_lat": 0.0, "lat": 38.905373166666664, "bike_id": "050a43088ed3d3fe2dc1074a31d5d649", "fusion_lon": 0.0}, {"rental_uris": {"ios": "https://dc.lft.to/lastmile_qr_scan", "android": "https://dc.lft.to/lastmile_qr_scan"}, "type": "electric_scooter", "name": "c37cf3022f2d4440a64d95437a92826a", "is_reserved": 0, "lon": -77.00952833333334, "is_disabled": 0, "fusion_lat": 0.0, "lat": 38.8763405, "bike_id": "c37cf3022f2d4440a64d95437a92826a", "fusion_lon": 0.0}, {"rental_uris": {"ios": "https://dc.lft.to/lastmile_qr_scan", "android": "https://dc.lft.to/lastmile_qr_scan"}, "type": "electric_scooter", "name": "9e00c6736a8eba6ed41419414a3b4696", "is_reserved": 0, "lon": -77.0218445, "is_disabled": 0, "fusion_lat": 0.0, "lat": 38.91128583333333, "bike_id": "9e00c6736a8eba6ed41419414a3b4696", "fusion_lon": 0.0}, {"rental_uris": {"ios": "https://dc.lft.to/lastmile_qr_scan", "android": "https://dc.lft.to/lastmile_qr_scan"}, "type": "electric_scooter", "name": "48a40bcfb57d9c6c804ae7d573d4ddf2", "is_reserved": 0, "lon": -77.03175833333333, "is_disabled": 0, "fusion_lat": 0.0, "lat": 38.9089945, "bike_id": "48a40bcfb57d9c6c804ae7d573d4ddf2", "fusion_lon": 0.0}, {"rental_uris": {"ios": "https://dc.lft.to/lastmile_qr_scan", "android": "https://dc.lft.to/lastmile_qr_scan"}, "type": "electric_scooter", "name": "bbdbd12e77284cf27e5b6a1f13309216", "is_reserved": 0, "lon": -77.0502365, "is_disabled": 0, "fusion_lat": 0.0, "lat": 38.9235855, "bike_id": "bbdbd12e77284cf27e5b6a1f13309216", "fusion_lon": 0.0}, {"rental_uris": {"ios": "https://dc.lft.to/lastmile_qr_scan", "android": "https://dc.lft.to/lastmile_qr_scan"}, "type": "electric_scooter", "name": "7b7ec141f04a64a5be73d859247b3655", "is_reserved": 0, "lon": -77.00194433333333, "is_disabled": 0, "fusion_lat": 0.0, "lat": 38.9118995, "bike_id": "7b7ec141f04a64a5be73d859247b3655", "fusion_lon": 0.0}, {"rental_uris": {"ios": "https://dc.lft.to/lastmile_qr_scan", "android": "https://dc.lft.to/lastmile_qr_scan"}, "type": "electric_scooter", "name": "40efb1769aebf004834879381a552aa9", "is_reserved": 0, "lon": -77.03555066666667, "is_disabled": 0, "fusion_lat": 0.0, "lat": 38.904721, "bike_id": "40efb1769aebf004834879381a552aa9", "fusion_lon": 0.0}, {"rental_uris": {"ios": "https://dc.lft.to/lastmile_qr_scan", "android": "https://dc.lft.to/lastmile_qr_scan"}, "type": "electric_scooter", "name": "6c91eeea1855c49fa8be2c484b8547f4", "is_reserved": 0, "lon": -77.024725, "is_disabled": 0, "fusion_lat": 0.0, "lat": 38.918178, "bike_id": "6c91eeea1855c49fa8be2c484b8547f4", "fusion_lon": 0.0}, {"rental_uris": {"ios": "https://dc.lft.to/lastmile_qr_scan", "android": "https://dc.lft.to/lastmile_qr_scan"}, "type": "electric_scooter", "name": "2e6ed7099fb6c34a8a91127d4dc83046", "is_reserved": 0, "lon": -77.0448425, "is_disabled": 0, "fusion_lat": 0.0, "lat": 38.893353, "bike_id": "2e6ed7099fb6c34a8a91127d4dc83046", "fusion_lon": 0.0}, {"rental_uris": {"ios": "https://dc.lft.to/lastmile_qr_scan", "android": "https://dc.lft.to/lastmile_qr_scan"}, "type": "electric_scooter", "name": "70f042e04642ca733e1b1dff4b572eea", "is_reserved": 0, "lon": -77.010828, "is_disabled": 0, "fusion_lat": 0.0, "lat": 38.903296166666664, "bike_id": "70f042e04642ca733e1b1dff4b572eea", "fusion_lon": 0.0}, {"rental_uris": {"ios": "https://dc.lft.to/lastmile_qr_scan", "android": "https://dc.lft.to/lastmile_qr_scan"}, "type": "electric_scooter", "name": "49ff8b3f88c3002a616df69bcd37116d", "is_reserved": 0, "lon": -77.00749366666666, "is_disabled": 0, "fusion_lat": 0.0, "lat": 38.876374, "bike_id": "49ff8b3f88c3002a616df69bcd37116d", "fusion_lon": 0.0}, {"rental_uris": {"ios": "https://dc.lft.to/lastmile_qr_scan", "android": "https://dc.lft.to/lastmile_qr_scan"}, "type": "electric_scooter", "name": "4b48a5fa01d0780cc8dd7b96bb12e68d", "is_reserved": 0, "lon": -77.073246, "is_disabled": 0, "fusion_lat": 0.0, "lat": 38.91359516666667, "bike_id": "4b48a5fa01d0780cc8dd7b96bb12e68d", "fusion_lon": 0.0}, {"rental_uris": {"ios": "https://dc.lft.to/lastmile_qr_scan", "android": "https://dc.lft.to/lastmile_qr_scan"}, "type": "electric_scooter", "name": "19ef3020d8d887a25409d5b660d8bb23", "is_reserved": 0, "lon": -77.0308485, "is_disabled": 0, "fusion_lat": 0.0, "lat": 38.92250033333333, "bike_id": "19ef3020d8d887a25409d5b660d8bb23", "fusion_lon": 0.0}, {"rental_uris": {"ios": "https://dc.lft.to/lastmile_qr_scan", "android": "https://dc.lft.to/lastmile_qr_scan"}, "type": "electric_scooter", "name": "feac08445ad88d0d74a9bea2c0304f2e", "is_reserved": 0, "lon": -77.010284, "is_disabled": 0, "fusion_lat": 0.0, "lat": 38.91914283333333, "bike_id": "feac08445ad88d0d74a9bea2c0304f2e", "fusion_lon": 0.0}, {"rental_uris": {"ios": "https://dc.lft.to/lastmile_qr_scan", "android": "https://dc.lft.to/lastmile_qr_scan"}, "type": "electric_scooter", "name": "bf3849265203f349abce762293f85c81", "is_reserved": 0, "lon": -76.92894183333334, "is_disabled": 0, "fusion_lat": 0.0, "lat": 38.87948433333333, "bike_id": "bf3849265203f349abce762293f85c81", "fusion_lon": 0.0}, {"rental_uris": {"ios": "https://dc.lft.to/lastmile_qr_scan", "android": "https://dc.lft.to/lastmile_qr_scan"}, "type": "electric_scooter", "name": "19211764ac96e091457831ff61b0edca", "is_reserved": 0, "lon": -77.03285983333333, "is_disabled": 0, "fusion_lat": 0.0, "lat": 38.90470416666667, "bike_id": "19211764ac96e091457831ff61b0edca", "fusion_lon": 0.0}, {"rental_uris": {"ios": "https://dc.lft.to/lastmile_qr_scan", "android": "https://dc.lft.to/lastmile_qr_scan"}, "type": "electric_scooter", "name": "cc03a81fa71bbaf88b09ed116a070063", "is_reserved": 0, "lon": -77.00983516666666, "is_disabled": 0, "fusion_lat": 0.0, "lat": 38.905725, "bike_id": "cc03a81fa71bbaf88b09ed116a070063", "fusion_lon": 0.0}, {"rental_uris": {"ios": "https://dc.lft.to/lastmile_qr_scan", "android": "https://dc.lft.to/lastmile_qr_scan"}, "type": "electric_scooter", "name": "883a01ffd38e3fc511e4e4c46f28676f", "is_reserved": 0, "lon": -77.0055465, "is_disabled": 0, "fusion_lat": 0.0, "lat": 38.874696166666666, "bike_id": "883a01ffd38e3fc511e4e4c46f28676f", "fusion_lon": 0.0}, {"rental_uris": {"ios": "https://dc.lft.to/lastmile_qr_scan", "android": "https://dc.lft.to/lastmile_qr_scan"}, "type": "electric_bike", "name": "b7a62fe47365c9742c720057c175e587", "is_reserved": 0, "lon": -77.02177333333333, "is_disabled": 0, "fusion_lat": 0.0, "lat": 38.894772333333336, "bike_id": "b7a62fe47365c9742c720057c175e587", "fusion_lon": 0.0}, {"rental_uris": {"ios": "https://dc.lft.to/lastmile_qr_scan", "android": "https://dc.lft.to/lastmile_qr_scan"}, "type": "electric_scooter", "name": "c46c896729cccfdb54bd31e3db7bae01", "is_reserved": 0, "lon": -77.04037, "is_disabled": 0, "fusion_lat": 0.0, "lat": 38.924497833333334, "bike_id": "c46c896729cccfdb54bd31e3db7bae01", "fusion_lon": 0.0}, {"rental_uris": {"ios": "https://dc.lft.to/lastmile_qr_scan", "android": "https://dc.lft.to/lastmile_qr_scan"}, "type": "electric_scooter", "name": "a15db377ddcefb1cbee738ece752a57f", "is_reserved": 0, "lon": -76.98495183333333, "is_disabled": 0, "fusion_lat": 0.0, "lat": 38.903641, "bike_id": "a15db377ddcefb1cbee738ece752a57f", "fusion_lon": 0.0}, {"rental_uris": {"ios": "https://dc.lft.to/lastmile_qr_scan", "android": "https://dc.lft.to/lastmile_qr_scan"}, "type": "electric_scooter", "name": "0bc176023d51be75aa7b7b3d43c9f373", "is_reserved": 0, "lon": -77.00954933333334, "is_disabled": 0, "fusion_lat": 0.0, "lat": 38.91912216666667, "bike_id": "0bc176023d51be75aa7b7b3d43c9f373", "fusion_lon": 0.0}, {"rental_uris": {"ios": "https://dc.lft.to/lastmile_qr_scan", "android": "https://dc.lft.to/lastmile_qr_scan"}, "type": "electric_bike", "name": "88f6a0fd822388a22015f66cc966a1e4", "is_reserved": 0, "lon": -76.9952365, "is_disabled": 0, "fusion_lat": 0.0, "lat": 38.88405483333333, "bike_id": "88f6a0fd822388a22015f66cc966a1e4", "fusion_lon": 0.0}, {"rental_uris": {"ios": "https://dc.lft.to/lastmile_qr_scan", "android": "https://dc.lft.to/lastmile_qr_scan"}, "type": "electric_scooter", "name": "f6f9928fa7a3cb34440aec2b9b79847f", "is_reserved": 0, "lon": -76.999191, "is_disabled": 0, "fusion_lat": 0.0, "lat": 38.900695666666664, "bike_id": "f6f9928fa7a3cb34440aec2b9b79847f", "fusion_lon": 0.0}, {"rental_uris": {"ios": "https://dc.lft.to/lastmile_qr_scan", "android": "https://dc.lft.to/lastmile_qr_scan"}, "type": "electric_bike", "name": "13c8e948ba781930ea1d397354931096", "is_reserved": 0, "lon": -76.94531733333334, "is_disabled": 0, "fusion_lat": 0.0, "lat": 38.86753783333333, "bike_id": "13c8e948ba781930ea1d397354931096", "fusion_lon": 0.0}, {"rental_uris": {"ios": "https://dc.lft.to/lastmile_qr_scan", "android": "https://dc.lft.to/lastmile_qr_scan"}, "type": "electric_scooter", "name": "8fc245e625563dc900730f8e25c2d3a0", "is_reserved": 0, "lon": -76.98740166666667, "is_disabled": 0, "fusion_lat": 0.0, "lat": 38.87836466666667, "bike_id": "8fc245e625563dc900730f8e25c2d3a0", "fusion_lon": 0.0}, {"rental_uris": {"ios": "https://dc.lft.to/lastmile_qr_scan", "android": "https://dc.lft.to/lastmile_qr_scan"}, "type": "electric_scooter", "name": "b571bf84e77899e6fe7db4609335b2e5", "is_reserved": 0, "lon": -77.07065266666666, "is_disabled": 0, "fusion_lat": 0.0, "lat": 38.8936115, "bike_id": "b571bf84e77899e6fe7db4609335b2e5", "fusion_lon": 0.0}, {"rental_uris": {"ios": "https://dc.lft.to/lastmile_qr_scan", "android": "https://dc.lft.to/lastmile_qr_scan"}, "type": "electric_scooter", "name": "78256ba8aebed5c2eff7e426425d77db", "is_reserved": 0, "lon": -77.00040366666667, "is_disabled": 0, "fusion_lat": 0.0, "lat": 38.90678166666667, "bike_id": "78256ba8aebed5c2eff7e426425d77db", "fusion_lon": 0.0}, {"rental_uris": {"ios": "https://dc.lft.to/lastmile_qr_scan", "android": "https://dc.lft.to/lastmile_qr_scan"}, "type": "electric_bike", "name": "7b7e31be839e93fed5d2f81c94e68c38", "is_reserved": 0, "lon": -76.94153366666667, "is_disabled": 0, "fusion_lat": 0.0, "lat": 38.890288166666664, "bike_id": "7b7e31be839e93fed5d2f81c94e68c38", "fusion_lon": 0.0}, {"rental_uris": {"ios": "https://dc.lft.to/lastmile_qr_scan", "android": "https://dc.lft.to/lastmile_qr_scan"}, "type": "electric_scooter", "name": "f7d6f09a7c6424ab817259f6f925a672", "is_reserved": 0, "lon": -76.93182983333334, "is_disabled": 0, "fusion_lat": 0.0, "lat": 38.89875983333334, "bike_id": "f7d6f09a7c6424ab817259f6f925a672", "fusion_lon": 0.0}, {"rental_uris": {"ios": "https://dc.lft.to/lastmile_qr_scan", "android": "https://dc.lft.to/lastmile_qr_scan"}, "type": "electric_scooter", "name": "78bc7f54cb0fe503147ea6410cee59ae", "is_reserved": 0, "lon": -77.00020616666667, "is_disabled": 0, "fusion_lat": 0.0, "lat": 38.874505666666664, "bike_id": "78bc7f54cb0fe503147ea6410cee59ae", "fusion_lon": 0.0}, {"rental_uris": {"ios": "https://dc.lft.to/lastmile_qr_scan", "android": "https://dc.lft.to/lastmile_qr_scan"}, "type": "electric_scooter", "name": "9a1ee1f8bbfa30d4074d6cbaf256e6dd", "is_reserved": 0, "lon": -77.01304333333333, "is_disabled": 0, "fusion_lat": 0.0, "lat": 38.9180005, "bike_id": "9a1ee1f8bbfa30d4074d6cbaf256e6dd", "fusion_lon": 0.0}, {"rental_uris": {"ios": "https://dc.lft.to/lastmile_qr_scan", "android": "https://dc.lft.to/lastmile_qr_scan"}, "type": "electric_scooter", "name": "b060ad42faa6965534902c88d2b804ce", "is_reserved": 0, "lon": -77.03832883333334, "is_disabled": 0, "fusion_lat": 0.0, "lat": 38.962673833333334, "bike_id": "b060ad42faa6965534902c88d2b804ce", "fusion_lon": 0.0}, {"rental_uris": {"ios": "https://dc.lft.to/lastmile_qr_scan", "android": "https://dc.lft.to/lastmile_qr_scan"}, "type": "electric_bike", "name": "449d40f9148dd5af442e6e49b4289a5b", "is_reserved": 0, "lon": -77.12932216666667, "is_disabled": 0, "fusion_lat": 0.0, "lat": 38.86585566666667, "bike_id": "449d40f9148dd5af442e6e49b4289a5b", "fusion_lon": 0.0}, {"rental_uris": {"ios": "https://dc.lft.to/lastmile_qr_scan", "android": "https://dc.lft.to/lastmile_qr_scan"}, "type": "electric_scooter", "name": "9b7259598d3852398bb2ef6771933ad9", "is_reserved": 0, "lon": -77.04582, "is_disabled": 0, "fusion_lat": 0.0, "lat": 38.909542333333334, "bike_id": "9b7259598d3852398bb2ef6771933ad9", "fusion_lon": 0.0}, {"rental_uris": {"ios": "https://dc.lft.to/lastmile_qr_scan", "android": "https://dc.lft.to/lastmile_qr_scan"}, "type": "electric_scooter", "name": "3799df4ad99efd5b15f65638907d5c04", "is_reserved": 0, "lon": -77.034122, "is_disabled": 0, "fusion_lat": 0.0, "lat": 38.92394633333333, "bike_id": "3799df4ad99efd5b15f65638907d5c04", "fusion_lon": 0.0}, {"rental_uris": {"ios": "https://dc.lft.to/lastmile_qr_scan", "android": "https://dc.lft.to/lastmile_qr_scan"}, "type": "electric_scooter", "name": "82cea64c55ac3e83a34bdc7eb43f053d", "is_reserved": 0, "lon": -77.02199583333334, "is_disabled": 0, "fusion_lat": 0.0, "lat": 38.909872666666665, "bike_id": "82cea64c55ac3e83a34bdc7eb43f053d", "fusion_lon": 0.0}, {"rental_uris": {"ios": "https://dc.lft.to/lastmile_qr_scan", "android": "https://dc.lft.to/lastmile_qr_scan"}, "type": "electric_scooter", "name": "b357b237522f9c044b3a681ab229d5b0", "is_reserved": 0, "lon": -77.05005366666667, "is_disabled": 0, "fusion_lat": 0.0, "lat": 38.892308666666665, "bike_id": "b357b237522f9c044b3a681ab229d5b0", "fusion_lon": 0.0}, {"rental_uris": {"ios": "https://dc.lft.to/lastmile_qr_scan", "android": "https://dc.lft.to/lastmile_qr_scan"}, "type": "electric_scooter", "name": "5b7f24afdb090d189b8bdc2464d2d3b1", "is_reserved": 0, "lon": -76.99552183333333, "is_disabled": 0, "fusion_lat": 0.0, "lat": 38.86234233333333, "bike_id": "5b7f24afdb090d189b8bdc2464d2d3b1", "fusion_lon": 0.0}, {"rental_uris": {"ios": "https://dc.lft.to/lastmile_qr_scan", "android": "https://dc.lft.to/lastmile_qr_scan"}, "type": "electric_scooter", "name": "4c65401164c3bcf2131557ad9896eb04", "is_reserved": 0, "lon": -77.01311216666667, "is_disabled": 0, "fusion_lat": 0.0, "lat": 38.92025433333333, "bike_id": "4c65401164c3bcf2131557ad9896eb04", "fusion_lon": 0.0}, {"rental_uris": {"ios": "https://dc.lft.to/lastmile_qr_scan", "android": "https://dc.lft.to/lastmile_qr_scan"}, "type": "electric_scooter", "name": "4e50c588cce33c6b53e305ea7c877743", "is_reserved": 0, "lon": -77.04189483333333, "is_disabled": 0, "fusion_lat": 0.0, "lat": 38.916747666666666, "bike_id": "4e50c588cce33c6b53e305ea7c877743", "fusion_lon": 0.0}, {"rental_uris": {"ios": "https://dc.lft.to/lastmile_qr_scan", "android": "https://dc.lft.to/lastmile_qr_scan"}, "type": "electric_scooter", "name": "0a8ced9ac8efc5b6e93160b06e8bd9d7", "is_reserved": 0, "lon": -77.00051516666667, "is_disabled": 0, "fusion_lat": 0.0, "lat": 38.87925233333333, "bike_id": "0a8ced9ac8efc5b6e93160b06e8bd9d7", "fusion_lon": 0.0}, {"rental_uris": {"ios": "https://dc.lft.to/lastmile_qr_scan", "android": "https://dc.lft.to/lastmile_qr_scan"}, "type": "electric_scooter", "name": "7fc7b3e331495d3411696b7c3047810b", "is_reserved": 0, "lon": -77.05911, "is_disabled": 0, "fusion_lat": 0.0, "lat": 38.9027555, "bike_id": "7fc7b3e331495d3411696b7c3047810b", "fusion_lon": 0.0}, {"rental_uris": {"ios": "https://dc.lft.to/lastmile_qr_scan", "android": "https://dc.lft.to/lastmile_qr_scan"}, "type": "electric_bike", "name": "5160bf2a4b73ad30914954c306dfeead", "is_reserved": 0, "lon": -76.983451, "is_disabled": 0, "fusion_lat": 0.0, "lat": 38.862649833333336, "bike_id": "5160bf2a4b73ad30914954c306dfeead", "fusion_lon": 0.0}, {"rental_uris": {"ios": "https://dc.lft.to/lastmile_qr_scan", "android": "https://dc.lft.to/lastmile_qr_scan"}, "type": "electric_bike", "name": "d1e82c04123304051abdf74df7e075a0", "is_reserved": 0, "lon": -77.12978616666666, "is_disabled": 0, "fusion_lat": 0.0, "lat": 38.799830666666665, "bike_id": "d1e82c04123304051abdf74df7e075a0", "fusion_lon": 0.0}, {"rental_uris": {"ios": "https://dc.lft.to/lastmile_qr_scan", "android": "https://dc.lft.to/lastmile_qr_scan"}, "type": "electric_scooter", "name": "606bdfd0eb1ee86039a3eba58c7bef08", "is_reserved": 0, "lon": -77.024376, "is_disabled": 0, "fusion_lat": 0.0, "lat": 38.937486166666666, "bike_id": "606bdfd0eb1ee86039a3eba58c7bef08", "fusion_lon": 0.0}, {"rental_uris": {"ios": "https://dc.lft.to/lastmile_qr_scan", "android": "https://dc.lft.to/lastmile_qr_scan"}, "type": "electric_scooter", "name": "4ee0d00014c2f31d7373cc9d8848293a", "is_reserved": 0, "lon": -77.02669283333333, "is_disabled": 0, "fusion_lat": 0.0, "lat": 38.92779016666667, "bike_id": "4ee0d00014c2f31d7373cc9d8848293a", "fusion_lon": 0.0}, {"rental_uris": {"ios": "https://dc.lft.to/lastmile_qr_scan", "android": "https://dc.lft.to/lastmile_qr_scan"}, "type": "electric_scooter", "name": "87a468ec986c4f89b5f4318bffe0bd34", "is_reserved": 0, "lon": -76.99070633333334, "is_disabled": 0, "fusion_lat": 0.0, "lat": 38.90142933333333, "bike_id": "87a468ec986c4f89b5f4318bffe0bd34", "fusion_lon": 0.0}, {"rental_uris": {"ios": "https://dc.lft.to/lastmile_qr_scan", "android": "https://dc.lft.to/lastmile_qr_scan"}, "type": "electric_scooter", "name": "62de1cb7ecbdd8c41aa89fb65d02aebe", "is_reserved": 0, "lon": -77.02681966666667, "is_disabled": 0, "fusion_lat": 0.0, "lat": 38.984738, "bike_id": "62de1cb7ecbdd8c41aa89fb65d02aebe", "fusion_lon": 0.0}, {"rental_uris": {"ios": "https://dc.lft.to/lastmile_qr_scan", "android": "https://dc.lft.to/lastmile_qr_scan"}, "type": "electric_scooter", "name": "70b275161d41cb63d1cee8f8a7f1d6c7", "is_reserved": 0, "lon": -77.02694866666667, "is_disabled": 0, "fusion_lat": 0.0, "lat": 38.90843116666667, "bike_id": "70b275161d41cb63d1cee8f8a7f1d6c7", "fusion_lon": 0.0}, {"rental_uris": {"ios": "https://dc.lft.to/lastmile_qr_scan", "android": "https://dc.lft.to/lastmile_qr_scan"}, "type": "electric_scooter", "name": "08c74f2f7db7661cb5a5d3141133deb6", "is_reserved": 0, "lon": -77.04361783333333, "is_disabled": 0, "fusion_lat": 0.0, "lat": 38.92252216666667, "bike_id": "08c74f2f7db7661cb5a5d3141133deb6", "fusion_lon": 0.0}, {"rental_uris": {"ios": "https://dc.lft.to/lastmile_qr_scan", "android": "https://dc.lft.to/lastmile_qr_scan"}, "type": "electric_scooter", "name": "6fdd78cf961e89c7889fe00e5fb73fe7", "is_reserved": 0, "lon": -76.932162, "is_disabled": 0, "fusion_lat": 0.0, "lat": 38.89665766666667, "bike_id": "6fdd78cf961e89c7889fe00e5fb73fe7", "fusion_lon": 0.0}, {"rental_uris": {"ios": "https://dc.lft.to/lastmile_qr_scan", "android": "https://dc.lft.to/lastmile_qr_scan"}, "type": "electric_scooter", "name": "140242bf522c84990a7b2faa6ffc1e29", "is_reserved": 0, "lon": -77.03758716666667, "is_disabled": 0, "fusion_lat": 0.0, "lat": 38.9014485, "bike_id": "140242bf522c84990a7b2faa6ffc1e29", "fusion_lon": 0.0}, {"rental_uris": {"ios": "https://dc.lft.to/lastmile_qr_scan", "android": "https://dc.lft.to/lastmile_qr_scan"}, "type": "electric_bike", "name": "bcf22fa8819b88696533c9f2d116cc9e", "is_reserved": 0, "lon": -76.9180365, "is_disabled": 0, "fusion_lat": 0.0, "lat": 39.000008666666666, "bike_id": "bcf22fa8819b88696533c9f2d116cc9e", "fusion_lon": 0.0}, {"rental_uris": {"ios": "https://dc.lft.to/lastmile_qr_scan", "android": "https://dc.lft.to/lastmile_qr_scan"}, "type": "electric_scooter", "name": "c137e50585ab656d7c1bed35ad47b1bd", "is_reserved": 0, "lon": -77.01791516666667, "is_disabled": 0, "fusion_lat": 0.0, "lat": 38.88597333333333, "bike_id": "c137e50585ab656d7c1bed35ad47b1bd", "fusion_lon": 0.0}, {"rental_uris": {"ios": "https://dc.lft.to/lastmile_qr_scan", "android": "https://dc.lft.to/lastmile_qr_scan"}, "type": "electric_scooter", "name": "546b23e737709ebb281d79ed3f587c0e", "is_reserved": 0, "lon": -77.02934116666667, "is_disabled": 0, "fusion_lat": 0.0, "lat": 38.903659833333336, "bike_id": "546b23e737709ebb281d79ed3f587c0e", "fusion_lon": 0.0}, {"rental_uris": {"ios": "https://dc.lft.to/lastmile_qr_scan", "android": "https://dc.lft.to/lastmile_qr_scan"}, "type": "electric_scooter", "name": "3804e7921759313c3e9bf650774ce7a2", "is_reserved": 0, "lon": -77.01796266666666, "is_disabled": 0, "fusion_lat": 0.0, "lat": 38.91981633333333, "bike_id": "3804e7921759313c3e9bf650774ce7a2", "fusion_lon": 0.0}, {"rental_uris": {"ios": "https://dc.lft.to/lastmile_qr_scan", "android": "https://dc.lft.to/lastmile_qr_scan"}, "type": "electric_scooter", "name": "196b91e4c5a3ca611dda7d9e058cf765", "is_reserved": 0, "lon": -77.04504983333334, "is_disabled": 0, "fusion_lat": 0.0, "lat": 38.8922305, "bike_id": "196b91e4c5a3ca611dda7d9e058cf765", "fusion_lon": 0.0}, {"rental_uris": {"ios": "https://dc.lft.to/lastmile_qr_scan", "android": "https://dc.lft.to/lastmile_qr_scan"}, "type": "electric_scooter", "name": "85b9181e52ef8f87027e4191de1a7be3", "is_reserved": 0, "lon": -77.05462733333333, "is_disabled": 0, "fusion_lat": 0.0, "lat": 38.9290145, "bike_id": "85b9181e52ef8f87027e4191de1a7be3", "fusion_lon": 0.0}, {"rental_uris": {"ios": "https://dc.lft.to/lastmile_qr_scan", "android": "https://dc.lft.to/lastmile_qr_scan"}, "type": "electric_scooter", "name": "762206959f6962925e22f845d2b8a2bd", "is_reserved": 0, "lon": -77.0385665, "is_disabled": 0, "fusion_lat": 0.0, "lat": 38.91549633333333, "bike_id": "762206959f6962925e22f845d2b8a2bd", "fusion_lon": 0.0}, {"rental_uris": {"ios": "https://dc.lft.to/lastmile_qr_scan", "android": "https://dc.lft.to/lastmile_qr_scan"}, "type": "electric_scooter", "name": "c8e314cbd3eabc05a06cccf650377656", "is_reserved": 0, "lon": -77.03670566666666, "is_disabled": 0, "fusion_lat": 0.0, "lat": 38.916017333333336, "bike_id": "c8e314cbd3eabc05a06cccf650377656", "fusion_lon": 0.0}, {"rental_uris": {"ios": "https://dc.lft.to/lastmile_qr_scan", "android": "https://dc.lft.to/lastmile_qr_scan"}, "type": "electric_scooter", "name": "4b9e244f4f8fb40b1a9f240f6e6e52be", "is_reserved": 0, "lon": -77.0491565, "is_disabled": 0, "fusion_lat": 0.0, "lat": 38.910409, "bike_id": "4b9e244f4f8fb40b1a9f240f6e6e52be", "fusion_lon": 0.0}, {"rental_uris": {"ios": "https://dc.lft.to/lastmile_qr_scan", "android": "https://dc.lft.to/lastmile_qr_scan"}, "type": "electric_scooter", "name": "f7b371ee041d98d291d1ec20897c6eb7", "is_reserved": 0, "lon": -77.021654, "is_disabled": 0, "fusion_lat": 0.0, "lat": 38.89409716666667, "bike_id": "f7b371ee041d98d291d1ec20897c6eb7", "fusion_lon": 0.0}, {"rental_uris": {"ios": "https://dc.lft.to/lastmile_qr_scan", "android": "https://dc.lft.to/lastmile_qr_scan"}, "type": "electric_scooter", "name": "5cab4ff7ac25d1c8cd17869276fa9c6c", "is_reserved": 0, "lon": -77.00618533333333, "is_disabled": 0, "fusion_lat": 0.0, "lat": 38.90572, "bike_id": "5cab4ff7ac25d1c8cd17869276fa9c6c", "fusion_lon": 0.0}, {"rental_uris": {"ios": "https://dc.lft.to/lastmile_qr_scan", "android": "https://dc.lft.to/lastmile_qr_scan"}, "type": "electric_scooter", "name": "d63946798c5d4df6eb096320545ec578", "is_reserved": 0, "lon": -77.02939733333334, "is_disabled": 0, "fusion_lat": 0.0, "lat": 38.90899116666667, "bike_id": "d63946798c5d4df6eb096320545ec578", "fusion_lon": 0.0}, {"rental_uris": {"ios": "https://dc.lft.to/lastmile_qr_scan", "android": "https://dc.lft.to/lastmile_qr_scan"}, "type": "electric_bike", "name": "51b57806f458caff499fe561bfd2bfbb", "is_reserved": 0, "lon": -76.99909733333334, "is_disabled": 0, "fusion_lat": 0.0, "lat": 38.864477666666666, "bike_id": "51b57806f458caff499fe561bfd2bfbb", "fusion_lon": 0.0}, {"rental_uris": {"ios": "https://dc.lft.to/lastmile_qr_scan", "android": "https://dc.lft.to/lastmile_qr_scan"}, "type": "electric_scooter", "name": "5c9680c355891aa50dba63350d371737", "is_reserved": 0, "lon": -77.03199366666666, "is_disabled": 0, "fusion_lat": 0.0, "lat": 38.90711233333333, "bike_id": "5c9680c355891aa50dba63350d371737", "fusion_lon": 0.0}, {"rental_uris": {"ios": "https://dc.lft.to/lastmile_qr_scan", "android": "https://dc.lft.to/lastmile_qr_scan"}, "type": "electric_scooter", "name": "573febd2b5c6a74c9c728ecb5291f506", "is_reserved": 0, "lon": -77.00450533333333, "is_disabled": 0, "fusion_lat": 0.0, "lat": 38.8769585, "bike_id": "573febd2b5c6a74c9c728ecb5291f506", "fusion_lon": 0.0}, {"rental_uris": {"ios": "https://dc.lft.to/lastmile_qr_scan", "android": "https://dc.lft.to/lastmile_qr_scan"}, "type": "electric_scooter", "name": "8edce8bdfaf401affdf3dfec247caf7f", "is_reserved": 0, "lon": -77.06121933333333, "is_disabled": 0, "fusion_lat": 0.0, "lat": 38.90236766666666, "bike_id": "8edce8bdfaf401affdf3dfec247caf7f", "fusion_lon": 0.0}, {"rental_uris": {"ios": "https://dc.lft.to/lastmile_qr_scan", "android": "https://dc.lft.to/lastmile_qr_scan"}, "type": "electric_scooter", "name": "e3b800f4dd8e8b272e4729f9261fae26", "is_reserved": 0, "lon": -76.9950085, "is_disabled": 0, "fusion_lat": 0.0, "lat": 38.862458333333336, "bike_id": "e3b800f4dd8e8b272e4729f9261fae26", "fusion_lon": 0.0}, {"rental_uris": {"ios": "https://dc.lft.to/lastmile_qr_scan", "android": "https://dc.lft.to/lastmile_qr_scan"}, "type": "electric_scooter", "name": "0e3f5e718f832d243fe6eb1262ff27ef", "is_reserved": 0, "lon": -77.0407055, "is_disabled": 0, "fusion_lat": 0.0, "lat": 38.94778133333333, "bike_id": "0e3f5e718f832d243fe6eb1262ff27ef", "fusion_lon": 0.0}, {"rental_uris": {"ios": "https://dc.lft.to/lastmile_qr_scan", "android": "https://dc.lft.to/lastmile_qr_scan"}, "type": "electric_scooter", "name": "ed97ce03dfecce714148d689d8d1918b", "is_reserved": 0, "lon": -77.03247616666667, "is_disabled": 0, "fusion_lat": 0.0, "lat": 38.896178666666664, "bike_id": "ed97ce03dfecce714148d689d8d1918b", "fusion_lon": 0.0}, {"rental_uris": {"ios": "https://dc.lft.to/lastmile_qr_scan", "android": "https://dc.lft.to/lastmile_qr_scan"}, "type": "electric_scooter", "name": "ee092ec911f2bf453af942bdf1c8b6d7", "is_reserved": 0, "lon": -77.0267565, "is_disabled": 0, "fusion_lat": 0.0, "lat": 38.91700733333333, "bike_id": "ee092ec911f2bf453af942bdf1c8b6d7", "fusion_lon": 0.0}, {"rental_uris": {"ios": "https://dc.lft.to/lastmile_qr_scan", "android": "https://dc.lft.to/lastmile_qr_scan"}, "type": "electric_scooter", "name": "c16b2055fd7fcb286e739e60cc54335a", "is_reserved": 0, "lon": -77.043751, "is_disabled": 0, "fusion_lat": 0.0, "lat": 38.93492666666667, "bike_id": "c16b2055fd7fcb286e739e60cc54335a", "fusion_lon": 0.0}, {"rental_uris": {"ios": "https://dc.lft.to/lastmile_qr_scan", "android": "https://dc.lft.to/lastmile_qr_scan"}, "type": "electric_bike", "name": "06c5718e0b51a8c89e29293b7fe6e023", "is_reserved": 0, "lon": -77.12650383333333, "is_disabled": 0, "fusion_lat": 0.0, "lat": 38.819049666666665, "bike_id": "06c5718e0b51a8c89e29293b7fe6e023", "fusion_lon": 0.0}, {"rental_uris": {"ios": "https://dc.lft.to/lastmile_qr_scan", "android": "https://dc.lft.to/lastmile_qr_scan"}, "type": "electric_scooter", "name": "63037a93d8978d1fa20452084bf5f920", "is_reserved": 0, "lon": -77.012354, "is_disabled": 0, "fusion_lat": 0.0, "lat": 38.911127, "bike_id": "63037a93d8978d1fa20452084bf5f920", "fusion_lon": 0.0}, {"rental_uris": {"ios": "https://dc.lft.to/lastmile_qr_scan", "android": "https://dc.lft.to/lastmile_qr_scan"}, "type": "electric_scooter", "name": "ba1640743fdabe6c219ae31a8c4e6cb4", "is_reserved": 0, "lon": -77.064072, "is_disabled": 0, "fusion_lat": 0.0, "lat": 38.908576, "bike_id": "ba1640743fdabe6c219ae31a8c4e6cb4", "fusion_lon": 0.0}, {"rental_uris": {"ios": "https://dc.lft.to/lastmile_qr_scan", "android": "https://dc.lft.to/lastmile_qr_scan"}, "type": "electric_scooter", "name": "65e61742fc6aaaaf95b4fe889d0a0b6a", "is_reserved": 0, "lon": -77.0451515, "is_disabled": 0, "fusion_lat": 0.0, "lat": 38.91605883333333, "bike_id": "65e61742fc6aaaaf95b4fe889d0a0b6a", "fusion_lon": 0.0}, {"rental_uris": {"ios": "https://dc.lft.to/lastmile_qr_scan", "android": "https://dc.lft.to/lastmile_qr_scan"}, "type": "electric_scooter", "name": "9a50a147b149d7d363d961d94de47792", "is_reserved": 0, "lon": -77.06372, "is_disabled": 0, "fusion_lat": 0.0, "lat": 38.93562, "bike_id": "9a50a147b149d7d363d961d94de47792", "fusion_lon": 0.0}, {"rental_uris": {"ios": "https://dc.lft.to/lastmile_qr_scan", "android": "https://dc.lft.to/lastmile_qr_scan"}, "type": "electric_scooter", "name": "3f19fbab07ff28db7ecb3a55f6003652", "is_reserved": 0, "lon": -76.92823616666666, "is_disabled": 0, "fusion_lat": 0.0, "lat": 38.901768833333335, "bike_id": "3f19fbab07ff28db7ecb3a55f6003652", "fusion_lon": 0.0}, {"rental_uris": {"ios": "https://dc.lft.to/lastmile_qr_scan", "android": "https://dc.lft.to/lastmile_qr_scan"}, "type": "electric_scooter", "name": "e5d45cd3257a4c721031be2d8ff47576", "is_reserved": 0, "lon": -77.0357755, "is_disabled": 0, "fusion_lat": 0.0, "lat": 38.927873, "bike_id": "e5d45cd3257a4c721031be2d8ff47576", "fusion_lon": 0.0}, {"rental_uris": {"ios": "https://dc.lft.to/lastmile_qr_scan", "android": "https://dc.lft.to/lastmile_qr_scan"}, "type": "electric_scooter", "name": "8f7b3d1063e39e0bdd5f93b69c7eee73", "is_reserved": 0, "lon": -77.0335925, "is_disabled": 0, "fusion_lat": 0.0, "lat": 38.90094783333333, "bike_id": "8f7b3d1063e39e0bdd5f93b69c7eee73", "fusion_lon": 0.0}, {"rental_uris": {"ios": "https://dc.lft.to/lastmile_qr_scan", "android": "https://dc.lft.to/lastmile_qr_scan"}, "type": "electric_scooter", "name": "e5fef1c1af2354a1276c866357d14d4c", "is_reserved": 0, "lon": -77.04360616666666, "is_disabled": 0, "fusion_lat": 0.0, "lat": 38.9078265, "bike_id": "e5fef1c1af2354a1276c866357d14d4c", "fusion_lon": 0.0}, {"rental_uris": {"ios": "https://dc.lft.to/lastmile_qr_scan", "android": "https://dc.lft.to/lastmile_qr_scan"}, "type": "electric_scooter", "name": "2b2301f0ec1e78998bc9a2a5b80297f0", "is_reserved": 0, "lon": -77.03551466666667, "is_disabled": 0, "fusion_lat": 0.0, "lat": 38.903603333333336, "bike_id": "2b2301f0ec1e78998bc9a2a5b80297f0", "fusion_lon": 0.0}, {"rental_uris": {"ios": "https://dc.lft.to/lastmile_qr_scan", "android": "https://dc.lft.to/lastmile_qr_scan"}, "type": "electric_scooter", "name": "0d7b3b68129db280e69f0a6b943935df", "is_reserved": 0, "lon": -76.94706116666667, "is_disabled": 0, "fusion_lat": 0.0, "lat": 38.8930085, "bike_id": "0d7b3b68129db280e69f0a6b943935df", "fusion_lon": 0.0}, {"rental_uris": {"ios": "https://dc.lft.to/lastmile_qr_scan", "android": "https://dc.lft.to/lastmile_qr_scan"}, "type": "electric_scooter", "name": "456c3d1bb76587bb651dd1198b62b4dc", "is_reserved": 0, "lon": -77.04447166666667, "is_disabled": 0, "fusion_lat": 0.0, "lat": 38.90548866666666, "bike_id": "456c3d1bb76587bb651dd1198b62b4dc", "fusion_lon": 0.0}, {"rental_uris": {"ios": "https://dc.lft.to/lastmile_qr_scan", "android": "https://dc.lft.to/lastmile_qr_scan"}, "type": "electric_bike", "name": "e90c44d203f51b57bfc52cc115195457", "is_reserved": 0, "lon": -76.95250166666666, "is_disabled": 0, "fusion_lat": 0.0, "lat": 38.9069135, "bike_id": "e90c44d203f51b57bfc52cc115195457", "fusion_lon": 0.0}, {"rental_uris": {"ios": "https://dc.lft.to/lastmile_qr_scan", "android": "https://dc.lft.to/lastmile_qr_scan"}, "type": "electric_scooter", "name": "d67107d190d0f1e25382732fb6c81636", "is_reserved": 0, "lon": -77.02795933333333, "is_disabled": 0, "fusion_lat": 0.0, "lat": 38.9165225, "bike_id": "d67107d190d0f1e25382732fb6c81636", "fusion_lon": 0.0}, {"rental_uris": {"ios": "https://dc.lft.to/lastmile_qr_scan", "android": "https://dc.lft.to/lastmile_qr_scan"}, "type": "electric_bike", "name": "d7cab4554fec81a5315bf19a35b948c4", "is_reserved": 0, "lon": -76.998087, "is_disabled": 0, "fusion_lat": 0.0, "lat": 38.9053445, "bike_id": "d7cab4554fec81a5315bf19a35b948c4", "fusion_lon": 0.0}, {"rental_uris": {"ios": "https://dc.lft.to/lastmile_qr_scan", "android": "https://dc.lft.to/lastmile_qr_scan"}, "type": "electric_scooter", "name": "0ec12aaeaef050ff482427b09d7b0e6f", "is_reserved": 0, "lon": -77.00834783333333, "is_disabled": 0, "fusion_lat": 0.0, "lat": 38.897097333333335, "bike_id": "0ec12aaeaef050ff482427b09d7b0e6f", "fusion_lon": 0.0}, {"rental_uris": {"ios": "https://dc.lft.to/lastmile_qr_scan", "android": "https://dc.lft.to/lastmile_qr_scan"}, "type": "electric_scooter", "name": "7a35e6b7206469f07c412bbfe1c8e23f", "is_reserved": 0, "lon": -77.02129333333333, "is_disabled": 0, "fusion_lat": 0.0, "lat": 38.91610266666667, "bike_id": "7a35e6b7206469f07c412bbfe1c8e23f", "fusion_lon": 0.0}, {"rental_uris": {"ios": "https://dc.lft.to/lastmile_qr_scan", "android": "https://dc.lft.to/lastmile_qr_scan"}, "type": "electric_scooter", "name": "ed766a7951d7da29ce4bb12209c379f2", "is_reserved": 0, "lon": -77.04666666666667, "is_disabled": 0, "fusion_lat": 0.0, "lat": 38.91814316666667, "bike_id": "ed766a7951d7da29ce4bb12209c379f2", "fusion_lon": 0.0}, {"rental_uris": {"ios": "https://dc.lft.to/lastmile_qr_scan", "android": "https://dc.lft.to/lastmile_qr_scan"}, "type": "electric_scooter", "name": "f348e29543af471ac5ae92a8593ab407", "is_reserved": 0, "lon": -77.07230183333333, "is_disabled": 0, "fusion_lat": 0.0, "lat": 38.9344355, "bike_id": "f348e29543af471ac5ae92a8593ab407", "fusion_lon": 0.0}, {"rental_uris": {"ios": "https://dc.lft.to/lastmile_qr_scan", "android": "https://dc.lft.to/lastmile_qr_scan"}, "type": "electric_scooter", "name": "a13ea3becf97e3e772cfc02d124769ff", "is_reserved": 0, "lon": -77.01812533333333, "is_disabled": 0, "fusion_lat": 0.0, "lat": 38.94418266666667, "bike_id": "a13ea3becf97e3e772cfc02d124769ff", "fusion_lon": 0.0}, {"rental_uris": {"ios": "https://dc.lft.to/lastmile_qr_scan", "android": "https://dc.lft.to/lastmile_qr_scan"}, "type": "electric_scooter", "name": "8a18e3ed222821d31bd61bc403b0424e", "is_reserved": 0, "lon": -77.07150016666667, "is_disabled": 0, "fusion_lat": 0.0, "lat": 38.952900166666666, "bike_id": "8a18e3ed222821d31bd61bc403b0424e", "fusion_lon": 0.0}, {"rental_uris": {"ios": "https://dc.lft.to/lastmile_qr_scan", "android": "https://dc.lft.to/lastmile_qr_scan"}, "type": "electric_scooter", "name": "f297d714b1e1bacd76bf1d2e76abbaee", "is_reserved": 0, "lon": -77.07706283333333, "is_disabled": 0, "fusion_lat": 0.0, "lat": 38.893267333333334, "bike_id": "f297d714b1e1bacd76bf1d2e76abbaee", "fusion_lon": 0.0}, {"rental_uris": {"ios": "https://dc.lft.to/lastmile_qr_scan", "android": "https://dc.lft.to/lastmile_qr_scan"}, "type": "electric_scooter", "name": "27bda3c41436b4ab663782470b918fbf", "is_reserved": 0, "lon": -77.061229, "is_disabled": 0, "fusion_lat": 0.0, "lat": 38.90450216666667, "bike_id": "27bda3c41436b4ab663782470b918fbf", "fusion_lon": 0.0}, {"rental_uris": {"ios": "https://dc.lft.to/lastmile_qr_scan", "android": "https://dc.lft.to/lastmile_qr_scan"}, "type": "electric_scooter", "name": "c6a3b4f2d2ecc6e77fa8adb5196e3f18", "is_reserved": 0, "lon": -76.9820975, "is_disabled": 0, "fusion_lat": 0.0, "lat": 38.886421166666665, "bike_id": "c6a3b4f2d2ecc6e77fa8adb5196e3f18", "fusion_lon": 0.0}, {"rental_uris": {"ios": "https://dc.lft.to/lastmile_qr_scan", "android": "https://dc.lft.to/lastmile_qr_scan"}, "type": "electric_scooter", "name": "de2b9b4c19ad362eb3da9ecaa7f57296", "is_reserved": 0, "lon": -77.00798466666667, "is_disabled": 0, "fusion_lat": 0.0, "lat": 38.912706666666665, "bike_id": "de2b9b4c19ad362eb3da9ecaa7f57296", "fusion_lon": 0.0}, {"rental_uris": {"ios": "https://dc.lft.to/lastmile_qr_scan", "android": "https://dc.lft.to/lastmile_qr_scan"}, "type": "electric_scooter", "name": "f3034e8afecf9b8eb48ba8cc21054d56", "is_reserved": 0, "lon": -76.99473533333334, "is_disabled": 0, "fusion_lat": 0.0, "lat": 38.86214833333333, "bike_id": "f3034e8afecf9b8eb48ba8cc21054d56", "fusion_lon": 0.0}, {"rental_uris": {"ios": "https://dc.lft.to/lastmile_qr_scan", "android": "https://dc.lft.to/lastmile_qr_scan"}, "type": "electric_scooter", "name": "093f7f603b8880a7988e7eb641157957", "is_reserved": 0, "lon": -77.02985566666666, "is_disabled": 0, "fusion_lat": 0.0, "lat": 38.89624583333333, "bike_id": "093f7f603b8880a7988e7eb641157957", "fusion_lon": 0.0}, {"rental_uris": {"ios": "https://dc.lft.to/lastmile_qr_scan", "android": "https://dc.lft.to/lastmile_qr_scan"}, "type": "electric_scooter", "name": "09411807fe9ea9320181d95abc6a9946", "is_reserved": 0, "lon": -77.00307283333333, "is_disabled": 0, "fusion_lat": 0.0, "lat": 38.877143, "bike_id": "09411807fe9ea9320181d95abc6a9946", "fusion_lon": 0.0}, {"rental_uris": {"ios": "https://dc.lft.to/lastmile_qr_scan", "android": "https://dc.lft.to/lastmile_qr_scan"}, "type": "electric_scooter", "name": "4491dab196e2e9db8f31e66c8bdcf912", "is_reserved": 0, "lon": -77.02196816666667, "is_disabled": 0, "fusion_lat": 0.0, "lat": 38.8960235, "bike_id": "4491dab196e2e9db8f31e66c8bdcf912", "fusion_lon": 0.0}, {"rental_uris": {"ios": "https://dc.lft.to/lastmile_qr_scan", "android": "https://dc.lft.to/lastmile_qr_scan"}, "type": "electric_scooter", "name": "f72e2ebcf51538604f2cfe620f1db880", "is_reserved": 0, "lon": -77.01427783333334, "is_disabled": 0, "fusion_lat": 0.0, "lat": 38.91336116666667, "bike_id": "f72e2ebcf51538604f2cfe620f1db880", "fusion_lon": 0.0}, {"rental_uris": {"ios": "https://dc.lft.to/lastmile_qr_scan", "android": "https://dc.lft.to/lastmile_qr_scan"}, "type": "electric_bike", "name": "e2c83791a4bb80d1098dc4916aa7d1fd", "is_reserved": 0, "lon": -76.99920583333333, "is_disabled": 0, "fusion_lat": 0.0, "lat": 38.994737666666666, "bike_id": "e2c83791a4bb80d1098dc4916aa7d1fd", "fusion_lon": 0.0}, {"rental_uris": {"ios": "https://dc.lft.to/lastmile_qr_scan", "android": "https://dc.lft.to/lastmile_qr_scan"}, "type": "electric_scooter", "name": "eccf2d2d971c76e49fd84e584397d42b", "is_reserved": 0, "lon": -77.06611316666667, "is_disabled": 0, "fusion_lat": 0.0, "lat": 38.911063, "bike_id": "eccf2d2d971c76e49fd84e584397d42b", "fusion_lon": 0.0}, {"rental_uris": {"ios": "https://dc.lft.to/lastmile_qr_scan", "android": "https://dc.lft.to/lastmile_qr_scan"}, "type": "electric_bike", "name": "8b43297fd1a284b661ecf12ca5da6f5b", "is_reserved": 0, "lon": -77.055114, "is_disabled": 0, "fusion_lat": 0.0, "lat": 38.944062333333335, "bike_id": "8b43297fd1a284b661ecf12ca5da6f5b", "fusion_lon": 0.0}, {"rental_uris": {"ios": "https://dc.lft.to/lastmile_qr_scan", "android": "https://dc.lft.to/lastmile_qr_scan"}, "type": "electric_scooter", "name": "4263471bfd2d7e424e08953812540e87", "is_reserved": 0, "lon": -77.03155983333333, "is_disabled": 0, "fusion_lat": 0.0, "lat": 38.91711316666667, "bike_id": "4263471bfd2d7e424e08953812540e87", "fusion_lon": 0.0}, {"rental_uris": {"ios": "https://dc.lft.to/lastmile_qr_scan", "android": "https://dc.lft.to/lastmile_qr_scan"}, "type": "electric_scooter", "name": "26f1fa163822b13e8f8c07cdaf739fb7", "is_reserved": 0, "lon": -77.04672766666667, "is_disabled": 0, "fusion_lat": 0.0, "lat": 38.89280566666667, "bike_id": "26f1fa163822b13e8f8c07cdaf739fb7", "fusion_lon": 0.0}, {"rental_uris": {"ios": "https://dc.lft.to/lastmile_qr_scan", "android": "https://dc.lft.to/lastmile_qr_scan"}, "type": "electric_scooter", "name": "50ec9fcc1770993d46456e75aff46f47", "is_reserved": 0, "lon": -77.0512195, "is_disabled": 0, "fusion_lat": 0.0, "lat": 38.925291, "bike_id": "50ec9fcc1770993d46456e75aff46f47", "fusion_lon": 0.0}, {"rental_uris": {"ios": "https://dc.lft.to/lastmile_qr_scan", "android": "https://dc.lft.to/lastmile_qr_scan"}, "type": "electric_scooter", "name": "da4cca0c21f10e752ed2c4bb3486012a", "is_reserved": 0, "lon": -77.04174366666666, "is_disabled": 0, "fusion_lat": 0.0, "lat": 38.91082166666666, "bike_id": "da4cca0c21f10e752ed2c4bb3486012a", "fusion_lon": 0.0}, {"rental_uris": {"ios": "https://dc.lft.to/lastmile_qr_scan", "android": "https://dc.lft.to/lastmile_qr_scan"}, "type": "electric_scooter", "name": "4dd9ac6c331d2d62e92e9613938a92fa", "is_reserved": 0, "lon": -77.0447745, "is_disabled": 0, "fusion_lat": 0.0, "lat": 38.922897166666665, "bike_id": "4dd9ac6c331d2d62e92e9613938a92fa", "fusion_lon": 0.0}, {"rental_uris": {"ios": "https://dc.lft.to/lastmile_qr_scan", "android": "https://dc.lft.to/lastmile_qr_scan"}, "type": "electric_scooter", "name": "9ba250393275c0eded2ef9190f139195", "is_reserved": 0, "lon": -77.04001833333334, "is_disabled": 0, "fusion_lat": 0.0, "lat": 38.888691, "bike_id": "9ba250393275c0eded2ef9190f139195", "fusion_lon": 0.0}, {"rental_uris": {"ios": "https://dc.lft.to/lastmile_qr_scan", "android": "https://dc.lft.to/lastmile_qr_scan"}, "type": "electric_scooter", "name": "2ea8453ff84efcb6d5693fb3b5650ede", "is_reserved": 0, "lon": -77.0319675, "is_disabled": 0, "fusion_lat": 0.0, "lat": 38.9183965, "bike_id": "2ea8453ff84efcb6d5693fb3b5650ede", "fusion_lon": 0.0}, {"rental_uris": {"ios": "https://dc.lft.to/lastmile_qr_scan", "android": "https://dc.lft.to/lastmile_qr_scan"}, "type": "electric_bike", "name": "5beb880f2aff81449155e8ae0fb0bde3", "is_reserved": 0, "lon": -76.98839033333333, "is_disabled": 0, "fusion_lat": 0.0, "lat": 38.842766166666664, "bike_id": "5beb880f2aff81449155e8ae0fb0bde3", "fusion_lon": 0.0}, {"rental_uris": {"ios": "https://dc.lft.to/lastmile_qr_scan", "android": "https://dc.lft.to/lastmile_qr_scan"}, "type": "electric_scooter", "name": "678b98e4fd08061e590985e1f2f1352c", "is_reserved": 0, "lon": -77.0192855, "is_disabled": 0, "fusion_lat": 0.0, "lat": 38.9373495, "bike_id": "678b98e4fd08061e590985e1f2f1352c", "fusion_lon": 0.0}, {"rental_uris": {"ios": "https://dc.lft.to/lastmile_qr_scan", "android": "https://dc.lft.to/lastmile_qr_scan"}, "type": "electric_scooter", "name": "979b026312f4272327329eeecc238042", "is_reserved": 0, "lon": -77.03348383333334, "is_disabled": 0, "fusion_lat": 0.0, "lat": 38.917074666666664, "bike_id": "979b026312f4272327329eeecc238042", "fusion_lon": 0.0}, {"rental_uris": {"ios": "https://dc.lft.to/lastmile_qr_scan", "android": "https://dc.lft.to/lastmile_qr_scan"}, "type": "electric_scooter", "name": "7c6d1cdd36ce04e084f8ec48d0901279", "is_reserved": 0, "lon": -77.04155383333334, "is_disabled": 0, "fusion_lat": 0.0, "lat": 38.91985183333333, "bike_id": "7c6d1cdd36ce04e084f8ec48d0901279", "fusion_lon": 0.0}, {"rental_uris": {"ios": "https://dc.lft.to/lastmile_qr_scan", "android": "https://dc.lft.to/lastmile_qr_scan"}, "type": "electric_scooter", "name": "b3175e1e1bbd54b1fa9351dc9dc9a479", "is_reserved": 0, "lon": -77.02491016666667, "is_disabled": 0, "fusion_lat": 0.0, "lat": 38.91983183333333, "bike_id": "b3175e1e1bbd54b1fa9351dc9dc9a479", "fusion_lon": 0.0}, {"rental_uris": {"ios": "https://dc.lft.to/lastmile_qr_scan", "android": "https://dc.lft.to/lastmile_qr_scan"}, "type": "electric_scooter", "name": "b020e81666a1f6135a9e002892ef48f5", "is_reserved": 0, "lon": -77.02369383333334, "is_disabled": 0, "fusion_lat": 0.0, "lat": 38.920478833333334, "bike_id": "b020e81666a1f6135a9e002892ef48f5", "fusion_lon": 0.0}, {"rental_uris": {"ios": "https://dc.lft.to/lastmile_qr_scan", "android": "https://dc.lft.to/lastmile_qr_scan"}, "type": "electric_bike", "name": "c741c8c6a2e35854aeb393dc4a6b9231", "is_reserved": 0, "lon": -77.1073645, "is_disabled": 0, "fusion_lat": 0.0, "lat": 38.8554915, "bike_id": "c741c8c6a2e35854aeb393dc4a6b9231", "fusion_lon": 0.0}, {"rental_uris": {"ios": "https://dc.lft.to/lastmile_qr_scan", "android": "https://dc.lft.to/lastmile_qr_scan"}, "type": "electric_scooter", "name": "74b13ba104a99cf3cd1d936fc920bed4", "is_reserved": 0, "lon": -77.04009, "is_disabled": 0, "fusion_lat": 0.0, "lat": 38.911983, "bike_id": "74b13ba104a99cf3cd1d936fc920bed4", "fusion_lon": 0.0}, {"rental_uris": {"ios": "https://dc.lft.to/lastmile_qr_scan", "android": "https://dc.lft.to/lastmile_qr_scan"}, "type": "electric_scooter", "name": "75933b189dce45e9dadbd7ad0848f412", "is_reserved": 0, "lon": -77.00226066666667, "is_disabled": 0, "fusion_lat": 0.0, "lat": 38.908553, "bike_id": "75933b189dce45e9dadbd7ad0848f412", "fusion_lon": 0.0}, {"rental_uris": {"ios": "https://dc.lft.to/lastmile_qr_scan", "android": "https://dc.lft.to/lastmile_qr_scan"}, "type": "electric_scooter", "name": "a33a37391c2eb306c34757baf5eba3de", "is_reserved": 0, "lon": -77.0308645, "is_disabled": 0, "fusion_lat": 0.0, "lat": 38.91340116666667, "bike_id": "a33a37391c2eb306c34757baf5eba3de", "fusion_lon": 0.0}, {"rental_uris": {"ios": "https://dc.lft.to/lastmile_qr_scan", "android": "https://dc.lft.to/lastmile_qr_scan"}, "type": "electric_scooter", "name": "6aadc1de82bc50334993f0a055e463ba", "is_reserved": 0, "lon": -77.05224266666667, "is_disabled": 0, "fusion_lat": 0.0, "lat": 38.9249565, "bike_id": "6aadc1de82bc50334993f0a055e463ba", "fusion_lon": 0.0}, {"rental_uris": {"ios": "https://dc.lft.to/lastmile_qr_scan", "android": "https://dc.lft.to/lastmile_qr_scan"}, "type": "electric_scooter", "name": "679ba70bb233a2b96c869f80fc201608", "is_reserved": 0, "lon": -77.02407266666667, "is_disabled": 0, "fusion_lat": 0.0, "lat": 38.938134, "bike_id": "679ba70bb233a2b96c869f80fc201608", "fusion_lon": 0.0}, {"rental_uris": {"ios": "https://dc.lft.to/lastmile_qr_scan", "android": "https://dc.lft.to/lastmile_qr_scan"}, "type": "electric_scooter", "name": "8f88d86b3e03f318255522ae17193816", "is_reserved": 0, "lon": -77.01577733333333, "is_disabled": 0, "fusion_lat": 0.0, "lat": 38.902294, "bike_id": "8f88d86b3e03f318255522ae17193816", "fusion_lon": 0.0}, {"rental_uris": {"ios": "https://dc.lft.to/lastmile_qr_scan", "android": "https://dc.lft.to/lastmile_qr_scan"}, "type": "electric_bike", "name": "e547369bc01761f56727632a48bd3dc7", "is_reserved": 0, "lon": -76.9969985, "is_disabled": 0, "fusion_lat": 0.0, "lat": 38.838715666666666, "bike_id": "e547369bc01761f56727632a48bd3dc7", "fusion_lon": 0.0}, {"rental_uris": {"ios": "https://dc.lft.to/lastmile_qr_scan", "android": "https://dc.lft.to/lastmile_qr_scan"}, "type": "electric_scooter", "name": "ffe21c5d4cf9950c8634f7dd13bb375d", "is_reserved": 0, "lon": -77.0314085, "is_disabled": 0, "fusion_lat": 0.0, "lat": 38.92971516666667, "bike_id": "ffe21c5d4cf9950c8634f7dd13bb375d", "fusion_lon": 0.0}, {"rental_uris": {"ios": "https://dc.lft.to/lastmile_qr_scan", "android": "https://dc.lft.to/lastmile_qr_scan"}, "type": "electric_scooter", "name": "99957a41110b9543d19236d72d38ecfc", "is_reserved": 0, "lon": -77.044805, "is_disabled": 0, "fusion_lat": 0.0, "lat": 38.918684999999996, "bike_id": "99957a41110b9543d19236d72d38ecfc", "fusion_lon": 0.0}, {"rental_uris": {"ios": "https://dc.lft.to/lastmile_qr_scan", "android": "https://dc.lft.to/lastmile_qr_scan"}, "type": "electric_bike", "name": "27a9d640eae3160ed4f89c03659409ef", "is_reserved": 0, "lon": -76.99278683333333, "is_disabled": 0, "fusion_lat": 0.0, "lat": 38.97257666666667, "bike_id": "27a9d640eae3160ed4f89c03659409ef", "fusion_lon": 0.0}, {"rental_uris": {"ios": "https://dc.lft.to/lastmile_qr_scan", "android": "https://dc.lft.to/lastmile_qr_scan"}, "type": "electric_scooter", "name": "12a7dd361a184f24a457070f7880083b", "is_reserved": 0, "lon": -77.03823066666666, "is_disabled": 0, "fusion_lat": 0.0, "lat": 38.90373816666666, "bike_id": "12a7dd361a184f24a457070f7880083b", "fusion_lon": 0.0}, {"rental_uris": {"ios": "https://dc.lft.to/lastmile_qr_scan", "android": "https://dc.lft.to/lastmile_qr_scan"}, "type": "electric_scooter", "name": "c4b80904d42527ea6d62b3e5a23468a2", "is_reserved": 0, "lon": -77.0277385, "is_disabled": 0, "fusion_lat": 0.0, "lat": 38.887442666666665, "bike_id": "c4b80904d42527ea6d62b3e5a23468a2", "fusion_lon": 0.0}, {"rental_uris": {"ios": "https://dc.lft.to/lastmile_qr_scan", "android": "https://dc.lft.to/lastmile_qr_scan"}, "type": "electric_scooter", "name": "044161b4f435047120b40a3457d478c9", "is_reserved": 0, "lon": -77.02862566666667, "is_disabled": 0, "fusion_lat": 0.0, "lat": 38.917457, "bike_id": "044161b4f435047120b40a3457d478c9", "fusion_lon": 0.0}, {"rental_uris": {"ios": "https://dc.lft.to/lastmile_qr_scan", "android": "https://dc.lft.to/lastmile_qr_scan"}, "type": "electric_scooter", "name": "16977efbebe916df0ebd8b2ba788d6db", "is_reserved": 0, "lon": -77.01170783333333, "is_disabled": 0, "fusion_lat": 0.0, "lat": 38.8765845, "bike_id": "16977efbebe916df0ebd8b2ba788d6db", "fusion_lon": 0.0}, {"rental_uris": {"ios": "https://dc.lft.to/lastmile_qr_scan", "android": "https://dc.lft.to/lastmile_qr_scan"}, "type": "electric_scooter", "name": "6153fb8bf3f53e6b4fb88b7e4a533722", "is_reserved": 0, "lon": -77.00841, "is_disabled": 0, "fusion_lat": 0.0, "lat": 38.912567333333335, "bike_id": "6153fb8bf3f53e6b4fb88b7e4a533722", "fusion_lon": 0.0}, {"rental_uris": {"ios": "https://dc.lft.to/lastmile_qr_scan", "android": "https://dc.lft.to/lastmile_qr_scan"}, "type": "electric_scooter", "name": "5037da1f0c1d976b88db355fb8565f61", "is_reserved": 0, "lon": -76.9569705, "is_disabled": 0, "fusion_lat": 0.0, "lat": 38.892013666666664, "bike_id": "5037da1f0c1d976b88db355fb8565f61", "fusion_lon": 0.0}, {"rental_uris": {"ios": "https://dc.lft.to/lastmile_qr_scan", "android": "https://dc.lft.to/lastmile_qr_scan"}, "type": "electric_scooter", "name": "0ac4262f8cb3cd19bb96d9620fd819c5", "is_reserved": 0, "lon": -77.04342216666667, "is_disabled": 0, "fusion_lat": 0.0, "lat": 38.9011275, "bike_id": "0ac4262f8cb3cd19bb96d9620fd819c5", "fusion_lon": 0.0}, {"rental_uris": {"ios": "https://dc.lft.to/lastmile_qr_scan", "android": "https://dc.lft.to/lastmile_qr_scan"}, "type": "electric_scooter", "name": "9422e5a4951ee75242c445c7151527cb", "is_reserved": 0, "lon": -77.03655716666667, "is_disabled": 0, "fusion_lat": 0.0, "lat": 38.900647666666664, "bike_id": "9422e5a4951ee75242c445c7151527cb", "fusion_lon": 0.0}, {"rental_uris": {"ios": "https://dc.lft.to/lastmile_qr_scan", "android": "https://dc.lft.to/lastmile_qr_scan"}, "type": "electric_scooter", "name": "d886d311310d4a31987b6f61d5032126", "is_reserved": 0, "lon": -77.004134, "is_disabled": 0, "fusion_lat": 0.0, "lat": 38.874409166666666, "bike_id": "d886d311310d4a31987b6f61d5032126", "fusion_lon": 0.0}, {"rental_uris": {"ios": "https://dc.lft.to/lastmile_qr_scan", "android": "https://dc.lft.to/lastmile_qr_scan"}, "type": "electric_scooter", "name": "43fe934451e79950b8b651e91054c00c", "is_reserved": 0, "lon": -76.98697566666667, "is_disabled": 0, "fusion_lat": 0.0, "lat": 38.9070695, "bike_id": "43fe934451e79950b8b651e91054c00c", "fusion_lon": 0.0}, {"rental_uris": {"ios": "https://dc.lft.to/lastmile_qr_scan", "android": "https://dc.lft.to/lastmile_qr_scan"}, "type": "electric_scooter", "name": "24bb362843d0cfec4785345d4d1dda75", "is_reserved": 0, "lon": -77.02487166666667, "is_disabled": 0, "fusion_lat": 0.0, "lat": 38.91819366666667, "bike_id": "24bb362843d0cfec4785345d4d1dda75", "fusion_lon": 0.0}, {"rental_uris": {"ios": "https://dc.lft.to/lastmile_qr_scan", "android": "https://dc.lft.to/lastmile_qr_scan"}, "type": "electric_scooter", "name": "5bfb70adebefb265f39b91bdec8236fb", "is_reserved": 0, "lon": -76.99033833333333, "is_disabled": 0, "fusion_lat": 0.0, "lat": 38.888744, "bike_id": "5bfb70adebefb265f39b91bdec8236fb", "fusion_lon": 0.0}, {"rental_uris": {"ios": "https://dc.lft.to/lastmile_qr_scan", "android": "https://dc.lft.to/lastmile_qr_scan"}, "type": "electric_scooter", "name": "41f73f8f42df7bdf06be0398ecd38ae0", "is_reserved": 0, "lon": -77.03983833333334, "is_disabled": 0, "fusion_lat": 0.0, "lat": 38.91259216666667, "bike_id": "41f73f8f42df7bdf06be0398ecd38ae0", "fusion_lon": 0.0}, {"rental_uris": {"ios": "https://dc.lft.to/lastmile_qr_scan", "android": "https://dc.lft.to/lastmile_qr_scan"}, "type": "electric_scooter", "name": "80e06277945100998dc4b09c5dbf8f51", "is_reserved": 0, "lon": -77.01906716666667, "is_disabled": 0, "fusion_lat": 0.0, "lat": 38.923435166666664, "bike_id": "80e06277945100998dc4b09c5dbf8f51", "fusion_lon": 0.0}, {"rental_uris": {"ios": "https://dc.lft.to/lastmile_qr_scan", "android": "https://dc.lft.to/lastmile_qr_scan"}, "type": "electric_scooter", "name": "13797b7aaddd6b4381d2da20f5d20222", "is_reserved": 0, "lon": -77.01167133333334, "is_disabled": 0, "fusion_lat": 0.0, "lat": 38.91487033333333, "bike_id": "13797b7aaddd6b4381d2da20f5d20222", "fusion_lon": 0.0}, {"rental_uris": {"ios": "https://dc.lft.to/lastmile_qr_scan", "android": "https://dc.lft.to/lastmile_qr_scan"},