{"data": {"bikes": [{"fusion_lon": 0.0, "lat": 38.90422983333333, "lon": -77.02502016666666, "bike_id": "43243e77398d2ffc03891deed770fc65", "rental_uris": {"android": "https://dc.lft.to/lastmile_qr_scan", "ios": "https://dc.lft.to/lastmile_qr_scan"}, "fusion_lat": 0.0, "name": "43243e77398d2ffc03891deed770fc65", "is_reserved": 0, "is_disabled": 0, "type": "electric_scooter"}, {"fusion_lon": 0.0, "lat": 38.923405833333334, "lon": -77.0350165, "bike_id": "ef3b2eebb944c681cca8cb8f3496490c", "rental_uris": {"android": "https://dc.lft.to/lastmile_qr_scan", "ios": "https://dc.lft.to/lastmile_qr_scan"}, "fusion_lat": 0.0, "name": "ef3b2eebb944c681cca8cb8f3496490c", "is_reserved": 0, "is_disabled": 0, "type": "electric_scooter"}, {"fusion_lon": 0.0, "lat": 38.90077, "lon": -77.02700833333333, "bike_id": "0a6b162257483ef0ae9089fe8a271d2f", "rental_uris": {"android": "https://dc.lft.to/lastmile_qr_scan", "ios": "https://dc.lft.to/lastmile_qr_scan"}, "fusion_lat": 0.0, "name": "0a6b162257483ef0ae9089fe8a271d2f", "is_reserved": 0, "is_disabled": 0, "type": "electric_scooter"}, {"fusion_lon": 0.0, "lat": 38.924892666666665, "lon": -77.05106316666667, "bike_id": "02d956bee4b384852af2a19e0e9cf10e", "rental_uris": {"android": "https://dc.lft.to/lastmile_qr_scan", "ios": "https://dc.lft.to/lastmile_qr_scan"}, "fusion_lat": 0.0, "name": "02d956bee4b384852af2a19e0e9cf10e", "is_reserved": 0, "is_disabled": 0, "type": "electric_scooter"}, {"fusion_lon": 0.0, "lat": 38.923178166666666, "lon": -77.04043033333333, "bike_id": "2d73747d80efe75bccfb78257c295f08", "rental_uris": {"android": "https://dc.lft.to/lastmile_qr_scan", "ios": "https://dc.lft.to/lastmile_qr_scan"}, "fusion_lat": 0.0, "name": "2d73747d80efe75bccfb78257c295f08", "is_reserved": 0, "is_disabled": 0, "type": "electric_scooter"}, {"fusion_lon": 0.0, "lat": 38.8950475, "lon": -77.02284433333334, "bike_id": "7f7520cc3488d03dc1392f8b2e2c296a", "rental_uris": {"android": "https://dc.lft.to/lastmile_qr_scan", "ios": "https://dc.lft.to/lastmile_qr_scan"}, "fusion_lat": 0.0, "name": "7f7520cc3488d03dc1392f8b2e2c296a", "is_reserved": 0, "is_disabled": 0, "type": "electric_scooter"}, {"fusion_lon": 0.0, "lat": 38.87706416666666, "lon": -77.017635, "bike_id": "baaaa39999927c20d03a835a9db2b5fc", "rental_uris": {"android": "https://dc.lft.to/lastmile_qr_scan", "ios": "https://dc.lft.to/lastmile_qr_scan"}, "fusion_lat": 0.0, "name": "baaaa39999927c20d03a835a9db2b5fc", "is_reserved": 0, "is_disabled": 0, "type": "electric_scooter"}, {"fusion_lon": 0.0, "lat": 38.93297033333333, "lon": -77.022938, "bike_id": "0ee5044c29a3b8c601eb09b683aae6be", "rental_uris": {"android": "https://dc.lft.to/lastmile_qr_scan", "ios": "https://dc.lft.to/lastmile_qr_scan"}, "fusion_lat": 0.0, "name": "0ee5044c29a3b8c601eb09b683aae6be", "is_reserved": 0, "is_disabled": 0, "type": "electric_scooter"}, {"fusion_lon": 0.0, "lat": 38.901028, "lon": -76.98099383333333, "bike_id": "2c69f96f26a6e43e848866817ecbe27d", "rental_uris": {"android": "https://dc.lft.to/lastmile_qr_scan", "ios": "https://dc.lft.to/lastmile_qr_scan"}, "fusion_lat": 0.0, "name": "2c69f96f26a6e43e848866817ecbe27d", "is_reserved": 0, "is_disabled": 0, "type": "electric_scooter"}, {"fusion_lon": 0.0, "lat": 38.898857666666665, "lon": -76.98832233333333, "bike_id": "bc9ce961512674988ee34706c659bf60", "rental_uris": {"android": "https://dc.lft.to/lastmile_qr_scan", "ios": "https://dc.lft.to/lastmile_qr_scan"}, "fusion_lat": 0.0, "name": "bc9ce961512674988ee34706c659bf60", "is_reserved": 0, "is_disabled": 0, "type": "electric_scooter"}, {"fusion_lon": 0.0, "lat": 38.920098833333334, "lon": -77.03771666666667, "bike_id": "7d59745e4b7a07fe11e9889416baf573", "rental_uris": {"android": "https://dc.lft.to/lastmile_qr_scan", "ios": "https://dc.lft.to/lastmile_qr_scan"}, "fusion_lat": 0.0, "name": "7d59745e4b7a07fe11e9889416baf573", "is_reserved": 0, "is_disabled": 0, "type": "electric_scooter"}, {"fusion_lon": 0.0, "lat": 38.925063333333334, "lon": -77.0413575, "bike_id": "b734185f8d621eb76597b1b21f1b3fc4", "rental_uris": {"android": "https://dc.lft.to/lastmile_qr_scan", "ios": "https://dc.lft.to/lastmile_qr_scan"}, "fusion_lat": 0.0, "name": "b734185f8d621eb76597b1b21f1b3fc4", "is_reserved": 0, "is_disabled": 0, "type": "electric_scooter"}, {"fusion_lon": 0.0, "lat": 38.92788616666667, "lon": -77.03080716666666, "bike_id": "287f27adbf01df3e85d672aaefac9c7c", "rental_uris": {"android": "https://dc.lft.to/lastmile_qr_scan", "ios": "https://dc.lft.to/lastmile_qr_scan"}, "fusion_lat": 0.0, "name": "287f27adbf01df3e85d672aaefac9c7c", "is_reserved": 0, "is_disabled": 0, "type": "electric_scooter"}, {"fusion_lon": 0.0, "lat": 38.906098666666665, "lon": -77.04021133333333, "bike_id": "d656a55b32cabc3c063f5372b8d380eb", "rental_uris": {"android": "https://dc.lft.to/lastmile_qr_scan", "ios": "https://dc.lft.to/lastmile_qr_scan"}, "fusion_lat": 0.0, "name": "d656a55b32cabc3c063f5372b8d380eb", "is_reserved": 0, "is_disabled": 0, "type": "electric_scooter"}, {"fusion_lon": 0.0, "lat": 38.941795, "lon": -77.03653566666667, "bike_id": "43a347ce8f36a6d42a0a198b8f426454", "rental_uris": {"android": "https://dc.lft.to/lastmile_qr_scan", "ios": "https://dc.lft.to/lastmile_qr_scan"}, "fusion_lat": 0.0, "name": "43a347ce8f36a6d42a0a198b8f426454", "is_reserved": 0, "is_disabled": 0, "type": "electric_scooter"}, {"fusion_lon": 0.0, "lat": 38.923416, "lon": -77.01902483333333, "bike_id": "32841cce50e46019c7a8771b11977f68", "rental_uris": {"android": "https://dc.lft.to/lastmile_qr_scan", "ios": "https://dc.lft.to/lastmile_qr_scan"}, "fusion_lat": 0.0, "name": "32841cce50e46019c7a8771b11977f68", "is_reserved": 0, "is_disabled": 0, "type": "electric_scooter"}, {"fusion_lon": 0.0, "lat": 38.9410395, "lon": -77.06136566666666, "bike_id": "bc054bd3a39955bb846dfe3c592b4bff", "rental_uris": {"android": "https://dc.lft.to/lastmile_qr_scan", "ios": "https://dc.lft.to/lastmile_qr_scan"}, "fusion_lat": 0.0, "name": "bc054bd3a39955bb846dfe3c592b4bff", "is_reserved": 0, "is_disabled": 0, "type": "electric_scooter"}, {"fusion_lon": 0.0, "lat": 38.922499, "lon": -77.0197645, "bike_id": "78769d7e941e053d17df50311bfc3498", "rental_uris": {"android": "https://dc.lft.to/lastmile_qr_scan", "ios": "https://dc.lft.to/lastmile_qr_scan"}, "fusion_lat": 0.0, "name": "78769d7e941e053d17df50311bfc3498", "is_reserved": 0, "is_disabled": 0, "type": "electric_scooter"}, {"fusion_lon": 0.0, "lat": 38.915472666666666, "lon": -77.007172, "bike_id": "dcf5f4d811bee962149db0dc32747035", "rental_uris": {"android": "https://dc.lft.to/lastmile_qr_scan", "ios": "https://dc.lft.to/lastmile_qr_scan"}, "fusion_lat": 0.0, "name": "dcf5f4d811bee962149db0dc32747035", "is_reserved": 0, "is_disabled": 0, "type": "electric_scooter"}, {"fusion_lon": 0.0, "lat": 38.901694166666665, "lon": -77.0217115, "bike_id": "5b5c42454dae9ce3abb927ddd5ab56d6", "rental_uris": {"android": "https://dc.lft.to/lastmile_qr_scan", "ios": "https://dc.lft.to/lastmile_qr_scan"}, "fusion_lat": 0.0, "name": "5b5c42454dae9ce3abb927ddd5ab56d6", "is_reserved": 0, "is_disabled": 0, "type": "electric_scooter"}, {"fusion_lon": 0.0, "lat": 38.9022095, "lon": -76.9317735, "bike_id": "316aec1268d6466cfa0d3e7cf32a904c", "rental_uris": {"android": "https://dc.lft.to/lastmile_qr_scan", "ios": "https://dc.lft.to/lastmile_qr_scan"}, "fusion_lat": 0.0, "name": "316aec1268d6466cfa0d3e7cf32a904c", "is_reserved": 0, "is_disabled": 0, "type": "electric_bike"}, {"fusion_lon": 0.0, "lat": 38.90076166666667, "lon": -77.00197366666667, "bike_id": "853e0b0a9ca5302c518bbe8afdadd2d0", "rental_uris": {"android": "https://dc.lft.to/lastmile_qr_scan", "ios": "https://dc.lft.to/lastmile_qr_scan"}, "fusion_lat": 0.0, "name": "853e0b0a9ca5302c518bbe8afdadd2d0", "is_reserved": 0, "is_disabled": 0, "type": "electric_scooter"}, {"fusion_lon": 0.0, "lat": 38.91403783333333, "lon": -77.03254233333334, "bike_id": "3d8015db5a950bb976b4df91aab92cf8", "rental_uris": {"android": "https://dc.lft.to/lastmile_qr_scan", "ios": "https://dc.lft.to/lastmile_qr_scan"}, "fusion_lat": 0.0, "name": "3d8015db5a950bb976b4df91aab92cf8", "is_reserved": 0, "is_disabled": 0, "type": "electric_scooter"}, {"fusion_lon": 0.0, "lat": 38.918674333333335, "lon": -77.0483055, "bike_id": "5400ea5d7c615bec93d25adaf442cc2d", "rental_uris": {"android": "https://dc.lft.to/lastmile_qr_scan", "ios": "https://dc.lft.to/lastmile_qr_scan"}, "fusion_lat": 0.0, "name": "5400ea5d7c615bec93d25adaf442cc2d", "is_reserved": 0, "is_disabled": 0, "type": "electric_scooter"}, {"fusion_lon": 0.0, "lat": 38.903787666666666, "lon": -77.03630666666666, "bike_id": "699dda677e6aeeec8bee30304307ef81", "rental_uris": {"android": "https://dc.lft.to/lastmile_qr_scan", "ios": "https://dc.lft.to/lastmile_qr_scan"}, "fusion_lat": 0.0, "name": "699dda677e6aeeec8bee30304307ef81", "is_reserved": 0, "is_disabled": 0, "type": "electric_scooter"}, {"fusion_lon": 0.0, "lat": 38.917317, "lon": -77.0320415, "bike_id": "7a5aa348bd1f8f951c7e8c723b540855", "rental_uris": {"android": "https://dc.lft.to/lastmile_qr_scan", "ios": "https://dc.lft.to/lastmile_qr_scan"}, "fusion_lat": 0.0, "name": "7a5aa348bd1f8f951c7e8c723b540855", "is_reserved": 0, "is_disabled": 0, "type": "electric_scooter"}, {"fusion_lon": 0.0, "lat": 38.90550133333333, "lon": -77.0311805, "bike_id": "72feb4240a3fdc05844b84fe71a1733c", "rental_uris": {"android": "https://dc.lft.to/lastmile_qr_scan", "ios": "https://dc.lft.to/lastmile_qr_scan"}, "fusion_lat": 0.0, "name": "72feb4240a3fdc05844b84fe71a1733c", "is_reserved": 0, "is_disabled": 0, "type": "electric_scooter"}, {"fusion_lon": 0.0, "lat": 38.87040483333333, "lon": -77.22907466666666, "bike_id": "35ea45fcb3193cc242c1309b3f2f167e", "rental_uris": {"android": "https://dc.lft.to/lastmile_qr_scan", "ios": "https://dc.lft.to/lastmile_qr_scan"}, "fusion_lat": 0.0, "name": "35ea45fcb3193cc242c1309b3f2f167e", "is_reserved": 0, "is_disabled": 0, "type": "electric_bike"}, {"fusion_lon": 0.0, "lat": 38.9004245, "lon": -76.98824383333333, "bike_id": "be6a974ee365eee9b5c75823034989d0", "rental_uris": {"android": "https://dc.lft.to/lastmile_qr_scan", "ios": "https://dc.lft.to/lastmile_qr_scan"}, "fusion_lat": 0.0, "name": "be6a974ee365eee9b5c75823034989d0", "is_reserved": 0, "is_disabled": 0, "type": "electric_scooter"}, {"fusion_lon": 0.0, "lat": 38.89711233333333, "lon": -76.99119966666666, "bike_id": "bdb20434e33e2743f460de656c9895c4", "rental_uris": {"android": "https://dc.lft.to/lastmile_qr_scan", "ios": "https://dc.lft.to/lastmile_qr_scan"}, "fusion_lat": 0.0, "name": "bdb20434e33e2743f460de656c9895c4", "is_reserved": 0, "is_disabled": 0, "type": "electric_scooter"}, {"fusion_lon": 0.0, "lat": 38.92791866666666, "lon": -76.996211, "bike_id": "0b0c040c5be1cdd60fcb49611b62c09e", "rental_uris": {"android": "https://dc.lft.to/lastmile_qr_scan", "ios": "https://dc.lft.to/lastmile_qr_scan"}, "fusion_lat": 0.0, "name": "0b0c040c5be1cdd60fcb49611b62c09e", "is_reserved": 0, "is_disabled": 0, "type": "electric_scooter"}, {"fusion_lon": 0.0, "lat": 38.894787, "lon": -76.99435433333333, "bike_id": "2b99675410846f3293da35a256e1066b", "rental_uris": {"android": "https://dc.lft.to/lastmile_qr_scan", "ios": "https://dc.lft.to/lastmile_qr_scan"}, "fusion_lat": 0.0, "name": "2b99675410846f3293da35a256e1066b", "is_reserved": 0, "is_disabled": 0, "type": "electric_scooter"}, {"fusion_lon": 0.0, "lat": 38.92761516666667, "lon": -77.03206, "bike_id": "d4ddc1110cd8b59bdbb5df314d27a9ea", "rental_uris": {"android": "https://dc.lft.to/lastmile_qr_scan", "ios": "https://dc.lft.to/lastmile_qr_scan"}, "fusion_lat": 0.0, "name": "d4ddc1110cd8b59bdbb5df314d27a9ea", "is_reserved": 0, "is_disabled": 0, "type": "electric_scooter"}, {"fusion_lon": 0.0, "lat": 38.932424833333336, "lon": -77.03271833333334, "bike_id": "4b74d1a64a58dc33c6ef6209899dbe95", "rental_uris": {"android": "https://dc.lft.to/lastmile_qr_scan", "ios": "https://dc.lft.to/lastmile_qr_scan"}, "fusion_lat": 0.0, "name": "4b74d1a64a58dc33c6ef6209899dbe95", "is_reserved": 0, "is_disabled": 0, "type": "electric_scooter"}, {"fusion_lon": 0.0, "lat": 38.904458166666664, "lon": -77.03641133333333, "bike_id": "6b9947024ca9db92bf0d94871bbdbd43", "rental_uris": {"android": "https://dc.lft.to/lastmile_qr_scan", "ios": "https://dc.lft.to/lastmile_qr_scan"}, "fusion_lat": 0.0, "name": "6b9947024ca9db92bf0d94871bbdbd43", "is_reserved": 0, "is_disabled": 0, "type": "electric_scooter"}, {"fusion_lon": 0.0, "lat": 38.9204345, "lon": -77.01681383333333, "bike_id": "a367a0660b2b46f1007615d969f76ba9", "rental_uris": {"android": "https://dc.lft.to/lastmile_qr_scan", "ios": "https://dc.lft.to/lastmile_qr_scan"}, "fusion_lat": 0.0, "name": "a367a0660b2b46f1007615d969f76ba9", "is_reserved": 0, "is_disabled": 0, "type": "electric_scooter"}, {"fusion_lon": 0.0, "lat": 38.9989675, "lon": -76.90861666666666, "bike_id": "88f2b025f3c0b98dc1c3903b72f1b381", "rental_uris": {"android": "https://dc.lft.to/lastmile_qr_scan", "ios": "https://dc.lft.to/lastmile_qr_scan"}, "fusion_lat": 0.0, "name": "88f2b025f3c0b98dc1c3903b72f1b381", "is_reserved": 0, "is_disabled": 0, "type": "electric_bike"}, {"fusion_lon": 0.0, "lat": 38.90397466666667, "lon": -77.00436483333333, "bike_id": "55db5aa9b1d0b7f1223a163b0dd4fc34", "rental_uris": {"android": "https://dc.lft.to/lastmile_qr_scan", "ios": "https://dc.lft.to/lastmile_qr_scan"}, "fusion_lat": 0.0, "name": "55db5aa9b1d0b7f1223a163b0dd4fc34", "is_reserved": 0, "is_disabled": 0, "type": "electric_scooter"}, {"fusion_lon": 0.0, "lat": 38.92274916666667, "lon": -77.02126316666667, "bike_id": "6d7399abd143b78172c3d06021eeb3b8", "rental_uris": {"android": "https://dc.lft.to/lastmile_qr_scan", "ios": "https://dc.lft.to/lastmile_qr_scan"}, "fusion_lat": 0.0, "name": "6d7399abd143b78172c3d06021eeb3b8", "is_reserved": 0, "is_disabled": 0, "type": "electric_scooter"}, {"fusion_lon": 0.0, "lat": 38.901786333333334, "lon": -76.98077966666666, "bike_id": "778ab9e8966dd0c3b0b94193937c7ee5", "rental_uris": {"android": "https://dc.lft.to/lastmile_qr_scan", "ios": "https://dc.lft.to/lastmile_qr_scan"}, "fusion_lat": 0.0, "name": "778ab9e8966dd0c3b0b94193937c7ee5", "is_reserved": 0, "is_disabled": 0, "type": "electric_scooter"}, {"fusion_lon": 0.0, "lat": 38.95732366666667, "lon": -77.02750266666666, "bike_id": "54319795e76cf1006d6a138aeca1d5e4", "rental_uris": {"android": "https://dc.lft.to/lastmile_qr_scan", "ios": "https://dc.lft.to/lastmile_qr_scan"}, "fusion_lat": 0.0, "name": "54319795e76cf1006d6a138aeca1d5e4", "is_reserved": 0, "is_disabled": 0, "type": "electric_scooter"}, {"fusion_lon": 0.0, "lat": 38.90308683333333, "lon": -77.023799, "bike_id": "197ddb9798d1d9a3c071927527bdd496", "rental_uris": {"android": "https://dc.lft.to/lastmile_qr_scan", "ios": "https://dc.lft.to/lastmile_qr_scan"}, "fusion_lat": 0.0, "name": "197ddb9798d1d9a3c071927527bdd496", "is_reserved": 0, "is_disabled": 0, "type": "electric_scooter"}, {"fusion_lon": 0.0, "lat": 38.92501733333334, "lon": -77.02156266666667, "bike_id": "5ef623c3d3f72df38e2435a744c313a7", "rental_uris": {"android": "https://dc.lft.to/lastmile_qr_scan", "ios": "https://dc.lft.to/lastmile_qr_scan"}, "fusion_lat": 0.0, "name": "5ef623c3d3f72df38e2435a744c313a7", "is_reserved": 0, "is_disabled": 0, "type": "electric_scooter"}, {"fusion_lon": 0.0, "lat": 38.89223416666667, "lon": -77.04151366666666, "bike_id": "72ddb27939e7f85b98bb35e3da708ad8", "rental_uris": {"android": "https://dc.lft.to/lastmile_qr_scan", "ios": "https://dc.lft.to/lastmile_qr_scan"}, "fusion_lat": 0.0, "name": "72ddb27939e7f85b98bb35e3da708ad8", "is_reserved": 0, "is_disabled": 0, "type": "electric_scooter"}, {"fusion_lon": 0.0, "lat": 38.9615215, "lon": -76.997769, "bike_id": "8419d7650a60614ca72de15c7edf128b", "rental_uris": {"android": "https://dc.lft.to/lastmile_qr_scan", "ios": "https://dc.lft.to/lastmile_qr_scan"}, "fusion_lat": 0.0, "name": "8419d7650a60614ca72de15c7edf128b", "is_reserved": 0, "is_disabled": 0, "type": "electric_bike"}, {"fusion_lon": 0.0, "lat": 38.921584, "lon": -77.02090133333333, "bike_id": "ce1162737300ca01c12be6bd505ce4ea", "rental_uris": {"android": "https://dc.lft.to/lastmile_qr_scan", "ios": "https://dc.lft.to/lastmile_qr_scan"}, "fusion_lat": 0.0, "name": "ce1162737300ca01c12be6bd505ce4ea", "is_reserved": 0, "is_disabled": 0, "type": "electric_scooter"}, {"fusion_lon": 0.0, "lat": 38.9053615, "lon": -77.03241083333333, "bike_id": "239719f0c544f3b23d6de0172c685514", "rental_uris": {"android": "https://dc.lft.to/lastmile_qr_scan", "ios": "https://dc.lft.to/lastmile_qr_scan"}, "fusion_lat": 0.0, "name": "239719f0c544f3b23d6de0172c685514", "is_reserved": 0, "is_disabled": 0, "type": "electric_scooter"}, {"fusion_lon": 0.0, "lat": 38.896289333333335, "lon": -76.92961633333333, "bike_id": "29cc29dd6c1e6bb04324c0faea1f344f", "rental_uris": {"android": "https://dc.lft.to/lastmile_qr_scan", "ios": "https://dc.lft.to/lastmile_qr_scan"}, "fusion_lat": 0.0, "name": "29cc29dd6c1e6bb04324c0faea1f344f", "is_reserved": 0, "is_disabled": 0, "type": "electric_scooter"}, {"fusion_lon": 0.0, "lat": 38.908617666666665, "lon": -77.070929, "bike_id": "7fb7d94bfd781f78b2bd0159ab0500ea", "rental_uris": {"android": "https://dc.lft.to/lastmile_qr_scan", "ios": "https://dc.lft.to/lastmile_qr_scan"}, "fusion_lat": 0.0, "name": "7fb7d94bfd781f78b2bd0159ab0500ea", "is_reserved": 0, "is_disabled": 0, "type": "electric_scooter"}, {"fusion_lon": 0.0, "lat": 38.919949, "lon": -77.03879066666667, "bike_id": "a746709ebb9612eb9b7f5c3dfc731379", "rental_uris": {"android": "https://dc.lft.to/lastmile_qr_scan", "ios": "https://dc.lft.to/lastmile_qr_scan"}, "fusion_lat": 0.0, "name": "a746709ebb9612eb9b7f5c3dfc731379", "is_reserved": 0, "is_disabled": 0, "type": "electric_scooter"}, {"fusion_lon": 0.0, "lat": 38.828941666666665, "lon": -77.01201716666667, "bike_id": "17201516255683defea602760c502f0d", "rental_uris": {"android": "https://dc.lft.to/lastmile_qr_scan", "ios": "https://dc.lft.to/lastmile_qr_scan"}, "fusion_lat": 0.0, "name": "17201516255683defea602760c502f0d", "is_reserved": 0, "is_disabled": 0, "type": "electric_bike"}, {"fusion_lon": 0.0, "lat": 38.90237783333333, "lon": -77.00189433333334, "bike_id": "c90543ae3fc6471e8c7d9c60e3bd8c23", "rental_uris": {"android": "https://dc.lft.to/lastmile_qr_scan", "ios": "https://dc.lft.to/lastmile_qr_scan"}, "fusion_lat": 0.0, "name": "c90543ae3fc6471e8c7d9c60e3bd8c23", "is_reserved": 0, "is_disabled": 0, "type": "electric_scooter"}, {"fusion_lon": 0.0, "lat": 38.896246833333336, "lon": -77.050271, "bike_id": "d2f50477c30a21db56fe065b3419822e", "rental_uris": {"android": "https://dc.lft.to/lastmile_qr_scan", "ios": "https://dc.lft.to/lastmile_qr_scan"}, "fusion_lat": 0.0, "name": "d2f50477c30a21db56fe065b3419822e", "is_reserved": 0, "is_disabled": 0, "type": "electric_scooter"}, {"fusion_lon": 0.0, "lat": 38.8922725, "lon": -77.0274265, "bike_id": "22af87cccbd05c02f18a473a530e119a", "rental_uris": {"android": "https://dc.lft.to/lastmile_qr_scan", "ios": "https://dc.lft.to/lastmile_qr_scan"}, "fusion_lat": 0.0, "name": "22af87cccbd05c02f18a473a530e119a", "is_reserved": 0, "is_disabled": 0, "type": "electric_scooter"}, {"fusion_lon": 0.0, "lat": 38.91777733333333, "lon": -77.02303433333333, "bike_id": "4007d85931cf52499a65e23769b40e6c", "rental_uris": {"android": "https://dc.lft.to/lastmile_qr_scan", "ios": "https://dc.lft.to/lastmile_qr_scan"}, "fusion_lat": 0.0, "name": "4007d85931cf52499a65e23769b40e6c", "is_reserved": 0, "is_disabled": 0, "type": "electric_scooter"}, {"fusion_lon": 0.0, "lat": 38.894793166666666, "lon": -77.00137233333334, "bike_id": "a52e0de6d7734fc3dd0daceaf9448773", "rental_uris": {"android": "https://dc.lft.to/lastmile_qr_scan", "ios": "https://dc.lft.to/lastmile_qr_scan"}, "fusion_lat": 0.0, "name": "a52e0de6d7734fc3dd0daceaf9448773", "is_reserved": 0, "is_disabled": 0, "type": "electric_scooter"}, {"fusion_lon": 0.0, "lat": 38.90303766666667, "lon": -77.03335983333334, "bike_id": "598457ca9167e0ea714d6118b6b1b51b", "rental_uris": {"android": "https://dc.lft.to/lastmile_qr_scan", "ios": "https://dc.lft.to/lastmile_qr_scan"}, "fusion_lat": 0.0, "name": "598457ca9167e0ea714d6118b6b1b51b", "is_reserved": 0, "is_disabled": 0, "type": "electric_scooter"}, {"fusion_lon": 0.0, "lat": 38.8622225, "lon": -76.99459583333334, "bike_id": "09b0834fc217bb4a9d780dc3079803ec", "rental_uris": {"android": "https://dc.lft.to/lastmile_qr_scan", "ios": "https://dc.lft.to/lastmile_qr_scan"}, "fusion_lat": 0.0, "name": "09b0834fc217bb4a9d780dc3079803ec", "is_reserved": 0, "is_disabled": 0, "type": "electric_scooter"}, {"fusion_lon": 0.0, "lat": 38.8982685, "lon": -76.93006666666666, "bike_id": "b4ea4b67c5c3545dbb36dd3e8d1efa03", "rental_uris": {"android": "https://dc.lft.to/lastmile_qr_scan", "ios": "https://dc.lft.to/lastmile_qr_scan"}, "fusion_lat": 0.0, "name": "b4ea4b67c5c3545dbb36dd3e8d1efa03", "is_reserved": 0, "is_disabled": 0, "type": "electric_scooter"}, {"fusion_lon": 0.0, "lat": 38.90054933333333, "lon": -77.02953383333333, "bike_id": "b76700e1a4774d4b19604012eca8574d", "rental_uris": {"android": "https://dc.lft.to/lastmile_qr_scan", "ios": "https://dc.lft.to/lastmile_qr_scan"}, "fusion_lat": 0.0, "name": "b76700e1a4774d4b19604012eca8574d", "is_reserved": 0, "is_disabled": 0, "type": "electric_scooter"}, {"fusion_lon": 0.0, "lat": 38.89972566666667, "lon": -77.01600383333333, "bike_id": "6782ea4005813482f9a0ecc8ca29f202", "rental_uris": {"android": "https://dc.lft.to/lastmile_qr_scan", "ios": "https://dc.lft.to/lastmile_qr_scan"}, "fusion_lat": 0.0, "name": "6782ea4005813482f9a0ecc8ca29f202", "is_reserved": 0, "is_disabled": 0, "type": "electric_scooter"}, {"fusion_lon": 0.0, "lat": 38.921548, "lon": -77.04218533333334, "bike_id": "c096884f13c8f56fc157d0a756def094", "rental_uris": {"android": "https://dc.lft.to/lastmile_qr_scan", "ios": "https://dc.lft.to/lastmile_qr_scan"}, "fusion_lat": 0.0, "name": "c096884f13c8f56fc157d0a756def094", "is_reserved": 0, "is_disabled": 0, "type": "electric_scooter"}, {"fusion_lon": 0.0, "lat": 38.8904835, "lon": -76.93752866666667, "bike_id": "33a5877b36a6a41f55503c9f303996d0", "rental_uris": {"android": "https://dc.lft.to/lastmile_qr_scan", "ios": "https://dc.lft.to/lastmile_qr_scan"}, "fusion_lat": 0.0, "name": "33a5877b36a6a41f55503c9f303996d0", "is_reserved": 0, "is_disabled": 0, "type": "electric_scooter"}, {"fusion_lon": 0.0, "lat": 38.900034833333336, "lon": -77.03182583333333, "bike_id": "592cb851accb1479308dc4e795201cb3", "rental_uris": {"android": "https://dc.lft.to/lastmile_qr_scan", "ios": "https://dc.lft.to/lastmile_qr_scan"}, "fusion_lat": 0.0, "name": "592cb851accb1479308dc4e795201cb3", "is_reserved": 0, "is_disabled": 0, "type": "electric_scooter"}, {"fusion_lon": 0.0, "lat": 38.924334333333334, "lon": -77.05207166666666, "bike_id": "3c02a8dbb12f6baea368b14873120f83", "rental_uris": {"android": "https://dc.lft.to/lastmile_qr_scan", "ios": "https://dc.lft.to/lastmile_qr_scan"}, "fusion_lat": 0.0, "name": "3c02a8dbb12f6baea368b14873120f83", "is_reserved": 0, "is_disabled": 0, "type": "electric_scooter"}, {"fusion_lon": 0.0, "lat": 38.83587583333333, "lon": -76.99023683333333, "bike_id": "44a81dee63979a66e7f98ac250ca2e91", "rental_uris": {"android": "https://dc.lft.to/lastmile_qr_scan", "ios": "https://dc.lft.to/lastmile_qr_scan"}, "fusion_lat": 0.0, "name": "44a81dee63979a66e7f98ac250ca2e91", "is_reserved": 0, "is_disabled": 0, "type": "electric_bike"}, {"fusion_lon": 0.0, "lat": 38.9036695, "lon": -77.0366025, "bike_id": "d5e5c2ed120651a19f9fc6eb33b5ba1b", "rental_uris": {"android": "https://dc.lft.to/lastmile_qr_scan", "ios": "https://dc.lft.to/lastmile_qr_scan"}, "fusion_lat": 0.0, "name": "d5e5c2ed120651a19f9fc6eb33b5ba1b", "is_reserved": 0, "is_disabled": 0, "type": "electric_scooter"}, {"fusion_lon": 0.0, "lat": 38.865662666666665, "lon": -76.97836283333334, "bike_id": "7047159a98369873852145b9071ee9e2", "rental_uris": {"android": "https://dc.lft.to/lastmile_qr_scan", "ios": "https://dc.lft.to/lastmile_qr_scan"}, "fusion_lat": 0.0, "name": "7047159a98369873852145b9071ee9e2", "is_reserved": 0, "is_disabled": 0, "type": "electric_scooter"}, {"fusion_lon": 0.0, "lat": 38.92395416666667, "lon": -76.99591716666667, "bike_id": "a0f52356595b2ae30eba053e556e1079", "rental_uris": {"android": "https://dc.lft.to/lastmile_qr_scan", "ios": "https://dc.lft.to/lastmile_qr_scan"}, "fusion_lat": 0.0, "name": "a0f52356595b2ae30eba053e556e1079", "is_reserved": 0, "is_disabled": 0, "type": "electric_scooter"}, {"fusion_lon": 0.0, "lat": 38.91564533333333, "lon": -77.00714833333333, "bike_id": "c483532b1ccf4d8749e9128c0dabed5e", "rental_uris": {"android": "https://dc.lft.to/lastmile_qr_scan", "ios": "https://dc.lft.to/lastmile_qr_scan"}, "fusion_lat": 0.0, "name": "c483532b1ccf4d8749e9128c0dabed5e", "is_reserved": 0, "is_disabled": 0, "type": "electric_scooter"}, {"fusion_lon": 0.0, "lat": 38.9112725, "lon": -77.04420116666667, "bike_id": "435c036b0d3f924f7d21f2bbac561389", "rental_uris": {"android": "https://dc.lft.to/lastmile_qr_scan", "ios": "https://dc.lft.to/lastmile_qr_scan"}, "fusion_lat": 0.0, "name": "435c036b0d3f924f7d21f2bbac561389", "is_reserved": 0, "is_disabled": 0, "type": "electric_scooter"}, {"fusion_lon": 0.0, "lat": 38.898345, "lon": -76.946418, "bike_id": "766cca5e9905228ca49eff0f0a2738ce", "rental_uris": {"android": "https://dc.lft.to/lastmile_qr_scan", "ios": "https://dc.lft.to/lastmile_qr_scan"}, "fusion_lat": 0.0, "name": "766cca5e9905228ca49eff0f0a2738ce", "is_reserved": 0, "is_disabled": 0, "type": "electric_scooter"}, {"fusion_lon": 0.0, "lat": 38.89611333333333, "lon": -77.0464925, "bike_id": "6a01bd052c6f5a6020fac4ec0242335e", "rental_uris": {"android": "https://dc.lft.to/lastmile_qr_scan", "ios": "https://dc.lft.to/lastmile_qr_scan"}, "fusion_lat": 0.0, "name": "6a01bd052c6f5a6020fac4ec0242335e", "is_reserved": 0, "is_disabled": 0, "type": "electric_scooter"}, {"fusion_lon": 0.0, "lat": 38.887088166666665, "lon": -76.98342316666667, "bike_id": "d14eb0f46cc1c6e7715903edd172b4f9", "rental_uris": {"android": "https://dc.lft.to/lastmile_qr_scan", "ios": "https://dc.lft.to/lastmile_qr_scan"}, "fusion_lat": 0.0, "name": "d14eb0f46cc1c6e7715903edd172b4f9", "is_reserved": 0, "is_disabled": 0, "type": "electric_scooter"}, {"fusion_lon": 0.0, "lat": 38.80383883333333, "lon": -76.98815383333333, "bike_id": "49fc3ee42746bce1f2be58f347635fe0", "rental_uris": {"android": "https://dc.lft.to/lastmile_qr_scan", "ios": "https://dc.lft.to/lastmile_qr_scan"}, "fusion_lat": 0.0, "name": "49fc3ee42746bce1f2be58f347635fe0", "is_reserved": 0, "is_disabled": 0, "type": "electric_bike"}, {"fusion_lon": 0.0, "lat": 38.88025433333333, "lon": -76.94320233333333, "bike_id": "d68d175475fd76a9e9670892f7bb1673", "rental_uris": {"android": "https://dc.lft.to/lastmile_qr_scan", "ios": "https://dc.lft.to/lastmile_qr_scan"}, "fusion_lat": 0.0, "name": "d68d175475fd76a9e9670892f7bb1673", "is_reserved": 0, "is_disabled": 0, "type": "electric_scooter"}, {"fusion_lon": 0.0, "lat": 38.90558683333333, "lon": -76.98376366666666, "bike_id": "fa81329d26f7ed24ab7c71c1713dde33", "rental_uris": {"android": "https://dc.lft.to/lastmile_qr_scan", "ios": "https://dc.lft.to/lastmile_qr_scan"}, "fusion_lat": 0.0, "name": "fa81329d26f7ed24ab7c71c1713dde33", "is_reserved": 0, "is_disabled": 0, "type": "electric_scooter"}, {"fusion_lon": 0.0, "lat": 38.900183, "lon": -77.021955, "bike_id": "50ca78e4bbca97a2e42f259cbc56326e", "rental_uris": {"android": "https://dc.lft.to/lastmile_qr_scan", "ios": "https://dc.lft.to/lastmile_qr_scan"}, "fusion_lat": 0.0, "name": "50ca78e4bbca97a2e42f259cbc56326e", "is_reserved": 0, "is_disabled": 0, "type": "electric_scooter"}, {"fusion_lon": 0.0, "lat": 38.9288305, "lon": -77.03315666666667, "bike_id": "d42da4b8833bf7922e440b955fc01ed2", "rental_uris": {"android": "https://dc.lft.to/lastmile_qr_scan", "ios": "https://dc.lft.to/lastmile_qr_scan"}, "fusion_lat": 0.0, "name": "d42da4b8833bf7922e440b955fc01ed2", "is_reserved": 0, "is_disabled": 0, "type": "electric_scooter"}, {"fusion_lon": 0.0, "lat": 38.92799133333333, "lon": -77.01561733333334, "bike_id": "39de3acd164c625231b2c6b46b3762bf", "rental_uris": {"android": "https://dc.lft.to/lastmile_qr_scan", "ios": "https://dc.lft.to/lastmile_qr_scan"}, "fusion_lat": 0.0, "name": "39de3acd164c625231b2c6b46b3762bf", "is_reserved": 0, "is_disabled": 0, "type": "electric_scooter"}, {"fusion_lon": 0.0, "lat": 38.898893666666666, "lon": -77.029658, "bike_id": "e3a7a699231a7044bf5034e89f83e3d3", "rental_uris": {"android": "https://dc.lft.to/lastmile_qr_scan", "ios": "https://dc.lft.to/lastmile_qr_scan"}, "fusion_lat": 0.0, "name": "e3a7a699231a7044bf5034e89f83e3d3", "is_reserved": 0, "is_disabled": 0, "type": "electric_scooter"}, {"fusion_lon": 0.0, "lat": 38.89898, "lon": -77.03930733333333, "bike_id": "0e444b60bf5469d0d25d77fd77bc47a2", "rental_uris": {"android": "https://dc.lft.to/lastmile_qr_scan", "ios": "https://dc.lft.to/lastmile_qr_scan"}, "fusion_lat": 0.0, "name": "0e444b60bf5469d0d25d77fd77bc47a2", "is_reserved": 0, "is_disabled": 0, "type": "electric_scooter"}, {"fusion_lon": 0.0, "lat": 38.9003175, "lon": -77.02199166666666, "bike_id": "cc001191cfde32e40c6a9dedb1a38295", "rental_uris": {"android": "https://dc.lft.to/lastmile_qr_scan", "ios": "https://dc.lft.to/lastmile_qr_scan"}, "fusion_lat": 0.0, "name": "cc001191cfde32e40c6a9dedb1a38295", "is_reserved": 0, "is_disabled": 0, "type": "electric_scooter"}, {"fusion_lon": 0.0, "lat": 38.88000266666667, "lon": -76.98542316666666, "bike_id": "7da366a6d879047a19e4a782fc2ec8c0", "rental_uris": {"android": "https://dc.lft.to/lastmile_qr_scan", "ios": "https://dc.lft.to/lastmile_qr_scan"}, "fusion_lat": 0.0, "name": "7da366a6d879047a19e4a782fc2ec8c0", "is_reserved": 0, "is_disabled": 0, "type": "electric_scooter"}, {"fusion_lon": 0.0, "lat": 38.892346333333336, "lon": -77.04874333333333, "bike_id": "65b1d5a28f3e827339dc338b31be87fc", "rental_uris": {"android": "https://dc.lft.to/lastmile_qr_scan", "ios": "https://dc.lft.to/lastmile_qr_scan"}, "fusion_lat": 0.0, "name": "65b1d5a28f3e827339dc338b31be87fc", "is_reserved": 0, "is_disabled": 0, "type": "electric_scooter"}, {"fusion_lon": 0.0, "lat": 38.87624983333333, "lon": -77.01475783333333, "bike_id": "57faf5c3f2287e81fab9f5448624e098", "rental_uris": {"android": "https://dc.lft.to/lastmile_qr_scan", "ios": "https://dc.lft.to/lastmile_qr_scan"}, "fusion_lat": 0.0, "name": "57faf5c3f2287e81fab9f5448624e098", "is_reserved": 0, "is_disabled": 0, "type": "electric_scooter"}, {"fusion_lon": 0.0, "lat": 38.89749366666667, "lon": -77.00931216666666, "bike_id": "f48e685f8b3ca0d219e0216f41f39c20", "rental_uris": {"android": "https://dc.lft.to/lastmile_qr_scan", "ios": "https://dc.lft.to/lastmile_qr_scan"}, "fusion_lat": 0.0, "name": "f48e685f8b3ca0d219e0216f41f39c20", "is_reserved": 0, "is_disabled": 0, "type": "electric_scooter"}, {"fusion_lon": 0.0, "lat": 38.892241166666665, "lon": -77.03131166666667, "bike_id": "0483911e5f8b60796be169b5f14e7a60", "rental_uris": {"android": "https://dc.lft.to/lastmile_qr_scan", "ios": "https://dc.lft.to/lastmile_qr_scan"}, "fusion_lat": 0.0, "name": "0483911e5f8b60796be169b5f14e7a60", "is_reserved": 0, "is_disabled": 0, "type": "electric_scooter"}, {"fusion_lon": 0.0, "lat": 38.89886633333333, "lon": -76.93173133333333, "bike_id": "0245b92567d0a0e92806d61cc8817dd7", "rental_uris": {"android": "https://dc.lft.to/lastmile_qr_scan", "ios": "https://dc.lft.to/lastmile_qr_scan"}, "fusion_lat": 0.0, "name": "0245b92567d0a0e92806d61cc8817dd7", "is_reserved": 0, "is_disabled": 0, "type": "electric_scooter"}, {"fusion_lon": 0.0, "lat": 38.889921666666666, "lon": -76.92107566666667, "bike_id": "0ee0048b6893303773b42c08563c3287", "rental_uris": {"android": "https://dc.lft.to/lastmile_qr_scan", "ios": "https://dc.lft.to/lastmile_qr_scan"}, "fusion_lat": 0.0, "name": "0ee0048b6893303773b42c08563c3287", "is_reserved": 0, "is_disabled": 0, "type": "electric_scooter"}, {"fusion_lon": 0.0, "lat": 38.900743, "lon": -77.00198933333333, "bike_id": "7f9aea2b1e9a354be1d4a1e1b02d41fb", "rental_uris": {"android": "https://dc.lft.to/lastmile_qr_scan", "ios": "https://dc.lft.to/lastmile_qr_scan"}, "fusion_lat": 0.0, "name": "7f9aea2b1e9a354be1d4a1e1b02d41fb", "is_reserved": 0, "is_disabled": 0, "type": "electric_scooter"}, {"fusion_lon": 0.0, "lat": 38.896341666666665, "lon": -77.0219785, "bike_id": "dbac46f0a7d6c880daee6cefd9a23df0", "rental_uris": {"android": "https://dc.lft.to/lastmile_qr_scan", "ios": "https://dc.lft.to/lastmile_qr_scan"}, "fusion_lat": 0.0, "name": "dbac46f0a7d6c880daee6cefd9a23df0", "is_reserved": 0, "is_disabled": 0, "type": "electric_scooter"}, {"fusion_lon": 0.0, "lat": 38.903597500000004, "lon": -77.03933883333333, "bike_id": "fe32858bc7667d423dd5c96ab2c0cdae", "rental_uris": {"android": "https://dc.lft.to/lastmile_qr_scan", "ios": "https://dc.lft.to/lastmile_qr_scan"}, "fusion_lat": 0.0, "name": "fe32858bc7667d423dd5c96ab2c0cdae", "is_reserved": 0, "is_disabled": 0, "type": "electric_bike"}, {"fusion_lon": 0.0, "lat": 38.8874365, "lon": -77.02572716666667, "bike_id": "2aa72fd96b015f908e9c5a5234618b05", "rental_uris": {"android": "https://dc.lft.to/lastmile_qr_scan", "ios": "https://dc.lft.to/lastmile_qr_scan"}, "fusion_lat": 0.0, "name": "2aa72fd96b015f908e9c5a5234618b05", "is_reserved": 0, "is_disabled": 0, "type": "electric_scooter"}, {"fusion_lon": 0.0, "lat": 38.916241666666664, "lon": -77.03498066666667, "bike_id": "b80851d9103078af7549a3f2fd504d1c", "rental_uris": {"android": "https://dc.lft.to/lastmile_qr_scan", "ios": "https://dc.lft.to/lastmile_qr_scan"}, "fusion_lat": 0.0, "name": "b80851d9103078af7549a3f2fd504d1c", "is_reserved": 0, "is_disabled": 0, "type": "electric_scooter"}, {"fusion_lon": 0.0, "lat": 38.89564133333333, "lon": -77.12730283333333, "bike_id": "5cdfd040f74a9442de3dd9bf1861a69f", "rental_uris": {"android": "https://dc.lft.to/lastmile_qr_scan", "ios": "https://dc.lft.to/lastmile_qr_scan"}, "fusion_lat": 0.0, "name": "5cdfd040f74a9442de3dd9bf1861a69f", "is_reserved": 0, "is_disabled": 0, "type": "electric_bike"}, {"fusion_lon": 0.0, "lat": 38.8948645, "lon": -77.02791683333334, "bike_id": "49b570224a6a447aa00bc96557608b94", "rental_uris": {"android": "https://dc.lft.to/lastmile_qr_scan", "ios": "https://dc.lft.to/lastmile_qr_scan"}, "fusion_lat": 0.0, "name": "49b570224a6a447aa00bc96557608b94", "is_reserved": 0, "is_disabled": 0, "type": "electric_scooter"}, {"fusion_lon": 0.0, "lat": 38.90030866666667, "lon": -76.98754116666667, "bike_id": "37a7ac79f7209e89b8fe6499c3f076d9", "rental_uris": {"android": "https://dc.lft.to/lastmile_qr_scan", "ios": "https://dc.lft.to/lastmile_qr_scan"}, "fusion_lat": 0.0, "name": "37a7ac79f7209e89b8fe6499c3f076d9", "is_reserved": 0, "is_disabled": 0, "type": "electric_scooter"}, {"fusion_lon": 0.0, "lat": 38.908463, "lon": -77.04945816666667, "bike_id": "0451444271ca4143ef60f87eb83118e7", "rental_uris": {"android": "https://dc.lft.to/lastmile_qr_scan", "ios": "https://dc.lft.to/lastmile_qr_scan"}, "fusion_lat": 0.0, "name": "0451444271ca4143ef60f87eb83118e7", "is_reserved": 0, "is_disabled": 0, "type": "electric_scooter"}, {"fusion_lon": 0.0, "lat": 38.92212216666667, "lon": -77.01820816666667, "bike_id": "dcc942dabc9cfdc8ae61c2832203f607", "rental_uris": {"android": "https://dc.lft.to/lastmile_qr_scan", "ios": "https://dc.lft.to/lastmile_qr_scan"}, "fusion_lat": 0.0, "name": "dcc942dabc9cfdc8ae61c2832203f607", "is_reserved": 0, "is_disabled": 0, "type": "electric_scooter"}, {"fusion_lon": 0.0, "lat": 38.89607633333333, "lon": -77.04506, "bike_id": "749ec18a791531c4cddfa2376a8b9135", "rental_uris": {"android": "https://dc.lft.to/lastmile_qr_scan", "ios": "https://dc.lft.to/lastmile_qr_scan"}, "fusion_lat": 0.0, "name": "749ec18a791531c4cddfa2376a8b9135", "is_reserved": 0, "is_disabled": 0, "type": "electric_scooter"}, {"fusion_lon": 0.0, "lat": 38.900282833333335, "lon": -76.9875705, "bike_id": "74dafd30637e57cdf84e816b86f01075", "rental_uris": {"android": "https://dc.lft.to/lastmile_qr_scan", "ios": "https://dc.lft.to/lastmile_qr_scan"}, "fusion_lat": 0.0, "name": "74dafd30637e57cdf84e816b86f01075", "is_reserved": 0, "is_disabled": 0, "type": "electric_scooter"}, {"fusion_lon": 0.0, "lat": 38.92235816666667, "lon": -77.021423, "bike_id": "58fc44a3a8e06c2ae010d0c2f368ee0f", "rental_uris": {"android": "https://dc.lft.to/lastmile_qr_scan", "ios": "https://dc.lft.to/lastmile_qr_scan"}, "fusion_lat": 0.0, "name": "58fc44a3a8e06c2ae010d0c2f368ee0f", "is_reserved": 0, "is_disabled": 0, "type": "electric_scooter"}, {"fusion_lon": 0.0, "lat": 38.92972616666667, "lon": -77.02788233333334, "bike_id": "7095640398cdff0070ac7b6b2b84dccf", "rental_uris": {"android": "https://dc.lft.to/lastmile_qr_scan", "ios": "https://dc.lft.to/lastmile_qr_scan"}, "fusion_lat": 0.0, "name": "7095640398cdff0070ac7b6b2b84dccf", "is_reserved": 0, "is_disabled": 0, "type": "electric_scooter"}, {"fusion_lon": 0.0, "lat": 38.922388, "lon": -77.0211845, "bike_id": "b9b29a6837d9953a9465a0d8df1f03a4", "rental_uris": {"android": "https://dc.lft.to/lastmile_qr_scan", "ios": "https://dc.lft.to/lastmile_qr_scan"}, "fusion_lat": 0.0, "name": "b9b29a6837d9953a9465a0d8df1f03a4", "is_reserved": 0, "is_disabled": 0, "type": "electric_scooter"}, {"fusion_lon": 0.0, "lat": 38.95315266666667, "lon": -76.981774, "bike_id": "05ea5fec63575ac03b021ad6b8e48f1b", "rental_uris": {"android": "https://dc.lft.to/lastmile_qr_scan", "ios": "https://dc.lft.to/lastmile_qr_scan"}, "fusion_lat": 0.0, "name": "05ea5fec63575ac03b021ad6b8e48f1b", "is_reserved": 0, "is_disabled": 0, "type": "electric_bike"}, {"fusion_lon": 0.0, "lat": 38.9241825, "lon": -77.01947716666666, "bike_id": "6fd8d36e46a3c782c5ecd34fb19eeb9c", "rental_uris": {"android": "https://dc.lft.to/lastmile_qr_scan", "ios": "https://dc.lft.to/lastmile_qr_scan"}, "fusion_lat": 0.0, "name": "6fd8d36e46a3c782c5ecd34fb19eeb9c", "is_reserved": 0, "is_disabled": 0, "type": "electric_scooter"}, {"fusion_lon": 0.0, "lat": 38.9157875, "lon": -77.03655933333333, "bike_id": "af0581b9759cfc4e9490e3c69477ee08", "rental_uris": {"android": "https://dc.lft.to/lastmile_qr_scan", "ios": "https://dc.lft.to/lastmile_qr_scan"}, "fusion_lat": 0.0, "name": "af0581b9759cfc4e9490e3c69477ee08", "is_reserved": 0, "is_disabled": 0, "type": "electric_scooter"}, {"fusion_lon": 0.0, "lat": 38.869481666666665, "lon": -77.13305616666666, "bike_id": "8e584e84ea2705c05013d8857fd72c9e", "rental_uris": {"android": "https://dc.lft.to/lastmile_qr_scan", "ios": "https://dc.lft.to/lastmile_qr_scan"}, "fusion_lat": 0.0, "name": "8e584e84ea2705c05013d8857fd72c9e", "is_reserved": 0, "is_disabled": 0, "type": "electric_bike"}, {"fusion_lon": 0.0, "lat": 38.92399533333333, "lon": -77.02704366666667, "bike_id": "9423543c4f45f612cd1721b693c2a970", "rental_uris": {"android": "https://dc.lft.to/lastmile_qr_scan", "ios": "https://dc.lft.to/lastmile_qr_scan"}, "fusion_lat": 0.0, "name": "9423543c4f45f612cd1721b693c2a970", "is_reserved": 0, "is_disabled": 0, "type": "electric_scooter"}, {"fusion_lon": 0.0, "lat": 38.876925, "lon": -77.01744216666667, "bike_id": "a6d4b4a91d597717a8b3356077ff2cba", "rental_uris": {"android": "https://dc.lft.to/lastmile_qr_scan", "ios": "https://dc.lft.to/lastmile_qr_scan"}, "fusion_lat": 0.0, "name": "a6d4b4a91d597717a8b3356077ff2cba", "is_reserved": 0, "is_disabled": 0, "type": "electric_scooter"}, {"fusion_lon": 0.0, "lat": 38.9270015, "lon": -77.02074583333334, "bike_id": "c06c9d5afa221e1e2b874d458642b60b", "rental_uris": {"android": "https://dc.lft.to/lastmile_qr_scan", "ios": "https://dc.lft.to/lastmile_qr_scan"}, "fusion_lat": 0.0, "name": "c06c9d5afa221e1e2b874d458642b60b", "is_reserved": 0, "is_disabled": 0, "type": "electric_scooter"}, {"fusion_lon": 0.0, "lat": 38.911221833333336, "lon": -77.04278016666666, "bike_id": "d63aaefbb2949be757fbeda37e8fbe0d", "rental_uris": {"android": "https://dc.lft.to/lastmile_qr_scan", "ios": "https://dc.lft.to/lastmile_qr_scan"}, "fusion_lat": 0.0, "name": "d63aaefbb2949be757fbeda37e8fbe0d", "is_reserved": 0, "is_disabled": 0, "type": "electric_scooter"}, {"fusion_lon": 0.0, "lat": 38.923269, "lon": -77.056879, "bike_id": "4e8e6952b03ebf7db3ba701d6f856ec2", "rental_uris": {"android": "https://dc.lft.to/lastmile_qr_scan", "ios": "https://dc.lft.to/lastmile_qr_scan"}, "fusion_lat": 0.0, "name": "4e8e6952b03ebf7db3ba701d6f856ec2", "is_reserved": 0, "is_disabled": 0, "type": "electric_scooter"}, {"fusion_lon": 0.0, "lat": 38.92960716666666, "lon": -77.01142983333334, "bike_id": "74352df0908bc08b720ed8214e36f9c1", "rental_uris": {"android": "https://dc.lft.to/lastmile_qr_scan", "ios": "https://dc.lft.to/lastmile_qr_scan"}, "fusion_lat": 0.0, "name": "74352df0908bc08b720ed8214e36f9c1", "is_reserved": 0, "is_disabled": 0, "type": "electric_scooter"}, {"fusion_lon": 0.0, "lat": 38.9130365, "lon": -77.03185566666667, "bike_id": "e8e885c02d33cfe4efeb0bbbbe065c49", "rental_uris": {"android": "https://dc.lft.to/lastmile_qr_scan", "ios": "https://dc.lft.to/lastmile_qr_scan"}, "fusion_lat": 0.0, "name": "e8e885c02d33cfe4efeb0bbbbe065c49", "is_reserved": 0, "is_disabled": 0, "type": "electric_scooter"}, {"fusion_lon": 0.0, "lat": 38.84222066666667, "lon": -76.94893966666666, "bike_id": "c8aebbb0e6344f14dd10796127b3b8f6", "rental_uris": {"android": "https://dc.lft.to/lastmile_qr_scan", "ios": "https://dc.lft.to/lastmile_qr_scan"}, "fusion_lat": 0.0, "name": "c8aebbb0e6344f14dd10796127b3b8f6", "is_reserved": 0, "is_disabled": 0, "type": "electric_bike"}, {"fusion_lon": 0.0, "lat": 38.9111235, "lon": -77.04515533333333, "bike_id": "880448321eddaf329db59f5bcc58f89c", "rental_uris": {"android": "https://dc.lft.to/lastmile_qr_scan", "ios": "https://dc.lft.to/lastmile_qr_scan"}, "fusion_lat": 0.0, "name": "880448321eddaf329db59f5bcc58f89c", "is_reserved": 0, "is_disabled": 0, "type": "electric_scooter"}, {"fusion_lon": 0.0, "lat": 38.892187, "lon": -77.0487185, "bike_id": "82f508304117ae38ac758c6921faf5f3", "rental_uris": {"android": "https://dc.lft.to/lastmile_qr_scan", "ios": "https://dc.lft.to/lastmile_qr_scan"}, "fusion_lat": 0.0, "name": "82f508304117ae38ac758c6921faf5f3", "is_reserved": 0, "is_disabled": 0, "type": "electric_scooter"}, {"fusion_lon": 0.0, "lat": 38.917936833333336, "lon": -77.040169, "bike_id": "e9ebca0ff5d58020bf91fa72bb2b3762", "rental_uris": {"android": "https://dc.lft.to/lastmile_qr_scan", "ios": "https://dc.lft.to/lastmile_qr_scan"}, "fusion_lat": 0.0, "name": "e9ebca0ff5d58020bf91fa72bb2b3762", "is_reserved": 0, "is_disabled": 0, "type": "electric_scooter"}, {"fusion_lon": 0.0, "lat": 38.852200833333335, "lon": -76.99376816666667, "bike_id": "1d8ae4f9b5f6844addda5c8fa01cdafd", "rental_uris": {"android": "https://dc.lft.to/lastmile_qr_scan", "ios": "https://dc.lft.to/lastmile_qr_scan"}, "fusion_lat": 0.0, "name": "1d8ae4f9b5f6844addda5c8fa01cdafd", "is_reserved": 0, "is_disabled": 0, "type": "electric_scooter"}, {"fusion_lon": 0.0, "lat": 38.909886, "lon": -77.0426435, "bike_id": "3edbec3b88fb09dcc4998918b22aff07", "rental_uris": {"android": "https://dc.lft.to/lastmile_qr_scan", "ios": "https://dc.lft.to/lastmile_qr_scan"}, "fusion_lat": 0.0, "name": "3edbec3b88fb09dcc4998918b22aff07", "is_reserved": 0, "is_disabled": 0, "type": "electric_scooter"}, {"fusion_lon": 0.0, "lat": 38.93628066666667, "lon": -77.064274, "bike_id": "ce158bac7eaa17cabf7b1a8ce6c5758e", "rental_uris": {"android": "https://dc.lft.to/lastmile_qr_scan", "ios": "https://dc.lft.to/lastmile_qr_scan"}, "fusion_lat": 0.0, "name": "ce158bac7eaa17cabf7b1a8ce6c5758e", "is_reserved": 0, "is_disabled": 0, "type": "electric_scooter"}, {"fusion_lon": 0.0, "lat": 38.90143333333333, "lon": -77.05925833333333, "bike_id": "884d6ac06d27ba0ce0c6be6d082df990", "rental_uris": {"android": "https://dc.lft.to/lastmile_qr_scan", "ios": "https://dc.lft.to/lastmile_qr_scan"}, "fusion_lat": 0.0, "name": "884d6ac06d27ba0ce0c6be6d082df990", "is_reserved": 0, "is_disabled": 0, "type": "electric_scooter"}, {"fusion_lon": 0.0, "lat": 38.90264483333333, "lon": -77.02655566666667, "bike_id": "f05012c1fd128897294a71f8d48b4b76", "rental_uris": {"android": "https://dc.lft.to/lastmile_qr_scan", "ios": "https://dc.lft.to/lastmile_qr_scan"}, "fusion_lat": 0.0, "name": "f05012c1fd128897294a71f8d48b4b76", "is_reserved": 0, "is_disabled": 0, "type": "electric_scooter"}, {"fusion_lon": 0.0, "lat": 38.91252933333333, "lon": -77.0387015, "bike_id": "4a7393062becc94f73aa37e19c78d2a5", "rental_uris": {"android": "https://dc.lft.to/lastmile_qr_scan", "ios": "https://dc.lft.to/lastmile_qr_scan"}, "fusion_lat": 0.0, "name": "4a7393062becc94f73aa37e19c78d2a5", "is_reserved": 0, "is_disabled": 0, "type": "electric_scooter"}, {"fusion_lon": 0.0, "lat": 38.91944433333333, "lon": -77.01915983333333, "bike_id": "b757255cd5ac069556fe6d61f59fd1bb", "rental_uris": {"android": "https://dc.lft.to/lastmile_qr_scan", "ios": "https://dc.lft.to/lastmile_qr_scan"}, "fusion_lat": 0.0, "name": "b757255cd5ac069556fe6d61f59fd1bb", "is_reserved": 0, "is_disabled": 0, "type": "electric_scooter"}, {"fusion_lon": 0.0, "lat": 38.89959533333333, "lon": -77.0450875, "bike_id": "3a8d1f04e3dfa0cae88165d14a0cbdb7", "rental_uris": {"android": "https://dc.lft.to/lastmile_qr_scan", "ios": "https://dc.lft.to/lastmile_qr_scan"}, "fusion_lat": 0.0, "name": "3a8d1f04e3dfa0cae88165d14a0cbdb7", "is_reserved": 0, "is_disabled": 0, "type": "electric_scooter"}, {"fusion_lon": 0.0, "lat": 38.923821, "lon": -77.01917916666666, "bike_id": "e671d7e78d9bbffb55363297977eeedc", "rental_uris": {"android": "https://dc.lft.to/lastmile_qr_scan", "ios": "https://dc.lft.to/lastmile_qr_scan"}, "fusion_lat": 0.0, "name": "e671d7e78d9bbffb55363297977eeedc", "is_reserved": 0, "is_disabled": 0, "type": "electric_scooter"}, {"fusion_lon": 0.0, "lat": 38.98945533333333, "lon": -77.10103166666667, "bike_id": "aa8f33b24f13149de420d3e05624a2ce", "rental_uris": {"android": "https://dc.lft.to/lastmile_qr_scan", "ios": "https://dc.lft.to/lastmile_qr_scan"}, "fusion_lat": 0.0, "name": "aa8f33b24f13149de420d3e05624a2ce", "is_reserved": 0, "is_disabled": 0, "type": "electric_bike"}, {"fusion_lon": 0.0, "lat": 38.897603, "lon": -77.02870233333333, "bike_id": "0e0a6071ef123ec8fdc3f2e631c52f8d", "rental_uris": {"android": "https://dc.lft.to/lastmile_qr_scan", "ios": "https://dc.lft.to/lastmile_qr_scan"}, "fusion_lat": 0.0, "name": "0e0a6071ef123ec8fdc3f2e631c52f8d", "is_reserved": 0, "is_disabled": 0, "type": "electric_scooter"}, {"fusion_lon": 0.0, "lat": 38.896126, "lon": -77.04410366666667, "bike_id": "f8852a7a9da23f714809021a1c9bdd6a", "rental_uris": {"android": "https://dc.lft.to/lastmile_qr_scan", "ios": "https://dc.lft.to/lastmile_qr_scan"}, "fusion_lat": 0.0, "name": "f8852a7a9da23f714809021a1c9bdd6a", "is_reserved": 0, "is_disabled": 0, "type": "electric_scooter"}, {"fusion_lon": 0.0, "lat": 38.915952, "lon": -77.046313, "bike_id": "66d6508adce40e57fd78e9766d255623", "rental_uris": {"android": "https://dc.lft.to/lastmile_qr_scan", "ios": "https://dc.lft.to/lastmile_qr_scan"}, "fusion_lat": 0.0, "name": "66d6508adce40e57fd78e9766d255623", "is_reserved": 0, "is_disabled": 0, "type": "electric_scooter"}, {"fusion_lon": 0.0, "lat": 38.9329125, "lon": -77.02843633333333, "bike_id": "2599ffd3ff7455526a86287b72972352", "rental_uris": {"android": "https://dc.lft.to/lastmile_qr_scan", "ios": "https://dc.lft.to/lastmile_qr_scan"}, "fusion_lat": 0.0, "name": "2599ffd3ff7455526a86287b72972352", "is_reserved": 0, "is_disabled": 0, "type": "electric_scooter"}, {"fusion_lon": 0.0, "lat": 38.90435883333333, "lon": -77.025673, "bike_id": "63d3aca6f8f853151249bfafc8ea9374", "rental_uris": {"android": "https://dc.lft.to/lastmile_qr_scan", "ios": "https://dc.lft.to/lastmile_qr_scan"}, "fusion_lat": 0.0, "name": "63d3aca6f8f853151249bfafc8ea9374", "is_reserved": 0, "is_disabled": 0, "type": "electric_scooter"}, {"fusion_lon": 0.0, "lat": 38.923123333333336, "lon": -77.01951666666666, "bike_id": "6a70faeffdb66a258136fb76c16bfb2f", "rental_uris": {"android": "https://dc.lft.to/lastmile_qr_scan", "ios": "https://dc.lft.to/lastmile_qr_scan"}, "fusion_lat": 0.0, "name": "6a70faeffdb66a258136fb76c16bfb2f", "is_reserved": 0, "is_disabled": 0, "type": "electric_scooter"}, {"fusion_lon": 0.0, "lat": 38.926427333333336, "lon": -77.025049, "bike_id": "2081d4f8b9852f19547b45c67d685a6e", "rental_uris": {"android": "https://dc.lft.to/lastmile_qr_scan", "ios": "https://dc.lft.to/lastmile_qr_scan"}, "fusion_lat": 0.0, "name": "2081d4f8b9852f19547b45c67d685a6e", "is_reserved": 0, "is_disabled": 0, "type": "electric_scooter"}, {"fusion_lon": 0.0, "lat": 38.922399, "lon": -77.02136416666667, "bike_id": "407bee1a6ea94008ee69ab3ed5d4223a", "rental_uris": {"android": "https://dc.lft.to/lastmile_qr_scan", "ios": "https://dc.lft.to/lastmile_qr_scan"}, "fusion_lat": 0.0, "name": "407bee1a6ea94008ee69ab3ed5d4223a", "is_reserved": 0, "is_disabled": 0, "type": "electric_scooter"}, {"fusion_lon": 0.0, "lat": 38.892224166666665, "lon": -77.03133116666666, "bike_id": "eae75e33928dc3fbc02e0855a3a75acc", "rental_uris": {"android": "https://dc.lft.to/lastmile_qr_scan", "ios": "https://dc.lft.to/lastmile_qr_scan"}, "fusion_lat": 0.0, "name": "eae75e33928dc3fbc02e0855a3a75acc", "is_reserved": 0, "is_disabled": 0, "type": "electric_scooter"}, {"fusion_lon": 0.0, "lat": 38.897088, "lon": -76.991176, "bike_id": "696d486f21478b9b8b629b5288624ce9", "rental_uris": {"android": "https://dc.lft.to/lastmile_qr_scan", "ios": "https://dc.lft.to/lastmile_qr_scan"}, "fusion_lat": 0.0, "name": "696d486f21478b9b8b629b5288624ce9", "is_reserved": 0, "is_disabled": 0, "type": "electric_scooter"}, {"fusion_lon": 0.0, "lat": 38.898821833333336, "lon": -76.98839316666667, "bike_id": "8b24f16733d95edad8ce1d423ace5832", "rental_uris": {"android": "https://dc.lft.to/lastmile_qr_scan", "ios": "https://dc.lft.to/lastmile_qr_scan"}, "fusion_lat": 0.0, "name": "8b24f16733d95edad8ce1d423ace5832", "is_reserved": 0, "is_disabled": 0, "type": "electric_scooter"}, {"fusion_lon": 0.0, "lat": 38.901180833333335, "lon": -77.044833, "bike_id": "1a2f631c65cb704b7cb76df0aae6928b", "rental_uris": {"android": "https://dc.lft.to/lastmile_qr_scan", "ios": "https://dc.lft.to/lastmile_qr_scan"}, "fusion_lat": 0.0, "name": "1a2f631c65cb704b7cb76df0aae6928b", "is_reserved": 0, "is_disabled": 0, "type": "electric_scooter"}, {"fusion_lon": 0.0, "lat": 38.9035235, "lon": -77.0391795, "bike_id": "f898d7381971f6081d27d3568b92bae0", "rental_uris": {"android": "https://dc.lft.to/lastmile_qr_scan", "ios": "https://dc.lft.to/lastmile_qr_scan"}, "fusion_lat": 0.0, "name": "f898d7381971f6081d27d3568b92bae0", "is_reserved": 0, "is_disabled": 0, "type": "electric_scooter"}, {"fusion_lon": 0.0, "lat": 38.92467383333333, "lon": -77.02714566666667, "bike_id": "2bdd53113fd52c61b36e7df987ba1312", "rental_uris": {"android": "https://dc.lft.to/lastmile_qr_scan", "ios": "https://dc.lft.to/lastmile_qr_scan"}, "fusion_lat": 0.0, "name": "2bdd53113fd52c61b36e7df987ba1312", "is_reserved": 0, "is_disabled": 0, "type": "electric_scooter"}, {"fusion_lon": 0.0, "lat": 38.932408, "lon": -77.03273616666667, "bike_id": "58eca240e615ab5112783c4619bc45e9", "rental_uris": {"android": "https://dc.lft.to/lastmile_qr_scan", "ios": "https://dc.lft.to/lastmile_qr_scan"}, "fusion_lat": 0.0, "name": "58eca240e615ab5112783c4619bc45e9", "is_reserved": 0, "is_disabled": 0, "type": "electric_scooter"}, {"fusion_lon": 0.0, "lat": 38.931094333333334, "lon": -77.03052016666666, "bike_id": "5c7931cda17be3573272aa2601786adb", "rental_uris": {"android": "https://dc.lft.to/lastmile_qr_scan", "ios": "https://dc.lft.to/lastmile_qr_scan"}, "fusion_lat": 0.0, "name": "5c7931cda17be3573272aa2601786adb", "is_reserved": 0, "is_disabled": 0, "type": "electric_scooter"}, {"fusion_lon": 0.0, "lat": 38.90826966666667, "lon": -77.07312766666666, "bike_id": "b2505b1e26d471700e611d1c6fefa570", "rental_uris": {"android": "https://dc.lft.to/lastmile_qr_scan", "ios": "https://dc.lft.to/lastmile_qr_scan"}, "fusion_lat": 0.0, "name": "b2505b1e26d471700e611d1c6fefa570", "is_reserved": 0, "is_disabled": 0, "type": "electric_scooter"}, {"fusion_lon": 0.0, "lat": 38.919184666666666, "lon": -77.0303315, "bike_id": "e82de99df0c7fc61a8f3f1b7d30ebf5a", "rental_uris": {"android": "https://dc.lft.to/lastmile_qr_scan", "ios": "https://dc.lft.to/lastmile_qr_scan"}, "fusion_lat": 0.0, "name": "e82de99df0c7fc61a8f3f1b7d30ebf5a", "is_reserved": 0, "is_disabled": 0, "type": "electric_scooter"}, {"fusion_lon": 0.0, "lat": 38.889609, "lon": -76.98815466666667, "bike_id": "efe810bb32a5464b794faa614ad1c2aa", "rental_uris": {"android": "https://dc.lft.to/lastmile_qr_scan", "ios": "https://dc.lft.to/lastmile_qr_scan"}, "fusion_lat": 0.0, "name": "efe810bb32a5464b794faa614ad1c2aa", "is_reserved": 0, "is_disabled": 0, "type": "electric_scooter"}, {"fusion_lon": 0.0, "lat": 38.905511, "lon": -77.03978583333334, "bike_id": "b656ca847869c547b2236027305112a3", "rental_uris": {"android": "https://dc.lft.to/lastmile_qr_scan", "ios": "https://dc.lft.to/lastmile_qr_scan"}, "fusion_lat": 0.0, "name": "b656ca847869c547b2236027305112a3", "is_reserved": 0, "is_disabled": 0, "type": "electric_scooter"}, {"fusion_lon": 0.0, "lat": 38.90014266666667, "lon": -76.9783365, "bike_id": "754c70e6b439404a212cc1f2242ab755", "rental_uris": {"android": "https://dc.lft.to/lastmile_qr_scan", "ios": "https://dc.lft.to/lastmile_qr_scan"}, "fusion_lat": 0.0, "name": "754c70e6b439404a212cc1f2242ab755", "is_reserved": 0, "is_disabled": 0, "type": "electric_scooter"}, {"fusion_lon": 0.0, "lat": 38.92246433333333, "lon": -77.02424616666667, "bike_id": "bc266f23bc1d92dbd1ecd4624828479c", "rental_uris": {"android": "https://dc.lft.to/lastmile_qr_scan", "ios": "https://dc.lft.to/lastmile_qr_scan"}, "fusion_lat": 0.0, "name": "bc266f23bc1d92dbd1ecd4624828479c", "is_reserved": 0, "is_disabled": 0, "type": "electric_scooter"}, {"fusion_lon": 0.0, "lat": 38.898335333333335, "lon": -76.94643433333333, "bike_id": "6e15c5b04a371d60cc530dd87d6a5ec7", "rental_uris": {"android": "https://dc.lft.to/lastmile_qr_scan", "ios": "https://dc.lft.to/lastmile_qr_scan"}, "fusion_lat": 0.0, "name": "6e15c5b04a371d60cc530dd87d6a5ec7", "is_reserved": 0, "is_disabled": 0, "type": "electric_scooter"}, {"fusion_lon": 0.0, "lat": 38.89379983333333, "lon": -77.02995616666666, "bike_id": "8a138b8b9eb75fda6ec132f0254b1ca9", "rental_uris": {"android": "https://dc.lft.to/lastmile_qr_scan", "ios": "https://dc.lft.to/lastmile_qr_scan"}, "fusion_lat": 0.0, "name": "8a138b8b9eb75fda6ec132f0254b1ca9", "is_reserved": 0, "is_disabled": 0, "type": "electric_scooter"}, {"fusion_lon": 0.0, "lat": 38.923657666666664, "lon": -77.02056533333334, "bike_id": "61f98fbd6bd64edca2394d5465a793a7", "rental_uris": {"android": "https://dc.lft.to/lastmile_qr_scan", "ios": "https://dc.lft.to/lastmile_qr_scan"}, "fusion_lat": 0.0, "name": "61f98fbd6bd64edca2394d5465a793a7", "is_reserved": 0, "is_disabled": 0, "type": "electric_scooter"}, {"fusion_lon": 0.0, "lat": 38.9154515, "lon": -77.04450016666667, "bike_id": "eecb9715c3eb07c243083ca5b456c303", "rental_uris": {"android": "https://dc.lft.to/lastmile_qr_scan", "ios": "https://dc.lft.to/lastmile_qr_scan"}, "fusion_lat": 0.0, "name": "eecb9715c3eb07c243083ca5b456c303", "is_reserved": 0, "is_disabled": 0, "type": "electric_scooter"}, {"fusion_lon": 0.0, "lat": 38.90054633333333, "lon": -77.0432235, "bike_id": "ffefa8ed2b613a393f730a003eccc930", "rental_uris": {"android": "https://dc.lft.to/lastmile_qr_scan", "ios": "https://dc.lft.to/lastmile_qr_scan"}, "fusion_lat": 0.0, "name": "ffefa8ed2b613a393f730a003eccc930", "is_reserved": 0, "is_disabled": 0, "type": "electric_scooter"}, {"fusion_lon": 0.0, "lat": 38.885755, "lon": -77.01542333333333, "bike_id": "21cfef69641baac5cbb26fe75eedd9a6", "rental_uris": {"android": "https://dc.lft.to/lastmile_qr_scan", "ios": "https://dc.lft.to/lastmile_qr_scan"}, "fusion_lat": 0.0, "name": "21cfef69641baac5cbb26fe75eedd9a6", "is_reserved": 0, "is_disabled": 0, "type": "electric_scooter"}, {"fusion_lon": 0.0, "lat": 38.980312166666664, "lon": -76.94237516666666, "bike_id": "1181a6cbada72f52a7d712be3a4f528f", "rental_uris": {"android": "https://dc.lft.to/lastmile_qr_scan", "ios": "https://dc.lft.to/lastmile_qr_scan"}, "fusion_lat": 0.0, "name": "1181a6cbada72f52a7d712be3a4f528f", "is_reserved": 0, "is_disabled": 0, "type": "electric_bike"}, {"fusion_lon": 0.0, "lat": 38.89326716666667, "lon": -77.015019, "bike_id": "1f241d5d5b8943898832d0407ae0adf1", "rental_uris": {"android": "https://dc.lft.to/lastmile_qr_scan", "ios": "https://dc.lft.to/lastmile_qr_scan"}, "fusion_lat": 0.0, "name": "1f241d5d5b8943898832d0407ae0adf1", "is_reserved": 0, "is_disabled": 0, "type": "electric_scooter"}, {"fusion_lon": 0.0, "lat": 38.900368666666665, "lon": -76.9983695, "bike_id": "da12b97a97adc6dec0d8eba2e20d3653", "rental_uris": {"android": "https://dc.lft.to/lastmile_qr_scan", "ios": "https://dc.lft.to/lastmile_qr_scan"}, "fusion_lat": 0.0, "name": "da12b97a97adc6dec0d8eba2e20d3653", "is_reserved": 0, "is_disabled": 0, "type": "electric_scooter"}, {"fusion_lon": 0.0, "lat": 38.809005, "lon": -77.11556666666667, "bike_id": "b235458db6ebd5934eb6d3741276d5ae", "rental_uris": {"android": "https://dc.lft.to/lastmile_qr_scan", "ios": "https://dc.lft.to/lastmile_qr_scan"}, "fusion_lat": 0.0, "name": "b235458db6ebd5934eb6d3741276d5ae", "is_reserved": 0, "is_disabled": 0, "type": "electric_bike"}, {"fusion_lon": 0.0, "lat": 38.92799133333333, "lon": -77.0221055, "bike_id": "796bdad92328d88e6859af09b298170e", "rental_uris": {"android": "https://dc.lft.to/lastmile_qr_scan", "ios": "https://dc.lft.to/lastmile_qr_scan"}, "fusion_lat": 0.0, "name": "796bdad92328d88e6859af09b298170e", "is_reserved": 0, "is_disabled": 0, "type": "electric_scooter"}, {"fusion_lon": 0.0, "lat": 38.90454016666666, "lon": -77.03459483333333, "bike_id": "219aa9e3e67594e43e37eb20ae8d0664", "rental_uris": {"android": "https://dc.lft.to/lastmile_qr_scan", "ios": "https://dc.lft.to/lastmile_qr_scan"}, "fusion_lat": 0.0, "name": "219aa9e3e67594e43e37eb20ae8d0664", "is_reserved": 0, "is_disabled": 0, "type": "electric_scooter"}, {"fusion_lon": 0.0, "lat": 38.90581683333333, "lon": -77.0468795, "bike_id": "fc46ea1eb8a82edeb32190be7d3a1bd9", "rental_uris": {"android": "https://dc.lft.to/lastmile_qr_scan", "ios": "https://dc.lft.to/lastmile_qr_scan"}, "fusion_lat": 0.0, "name": "fc46ea1eb8a82edeb32190be7d3a1bd9", "is_reserved": 0, "is_disabled": 0, "type": "electric_scooter"}, {"fusion_lon": 0.0, "lat": 38.87574583333333, "lon": -77.0057575, "bike_id": "3d494de3cb97034d551b2fe88dbeaa54", "rental_uris": {"android": "https://dc.lft.to/lastmile_qr_scan", "ios": "https://dc.lft.to/lastmile_qr_scan"}, "fusion_lat": 0.0, "name": "3d494de3cb97034d551b2fe88dbeaa54", "is_reserved": 0, "is_disabled": 0, "type": "electric_scooter"}, {"fusion_lon": 0.0, "lat": 38.9176275, "lon": -77.00913416666667, "bike_id": "644e32306cde6dbb65153297ad51f029", "rental_uris": {"android": "https://dc.lft.to/lastmile_qr_scan", "ios": "https://dc.lft.to/lastmile_qr_scan"}, "fusion_lat": 0.0, "name": "644e32306cde6dbb65153297ad51f029", "is_reserved": 0, "is_disabled": 0, "type": "electric_scooter"}, {"fusion_lon": 0.0, "lat": 38.906216666666666, "lon": -77.05030783333333, "bike_id": "4dac63812ff4e92173e288a0a69fe519", "rental_uris": {"android": "https://dc.lft.to/lastmile_qr_scan", "ios": "https://dc.lft.to/lastmile_qr_scan"}, "fusion_lat": 0.0, "name": "4dac63812ff4e92173e288a0a69fe519", "is_reserved": 0, "is_disabled": 0, "type": "electric_scooter"}, {"fusion_lon": 0.0, "lat": 38.88857516666667, "lon": -77.03234133333333, "bike_id": "f8646c6f730be7db005ebb1d91d16f4e", "rental_uris": {"android": "https://dc.lft.to/lastmile_qr_scan", "ios": "https://dc.lft.to/lastmile_qr_scan"}, "fusion_lat": 0.0, "name": "f8646c6f730be7db005ebb1d91d16f4e", "is_reserved": 0, "is_disabled": 0, "type": "electric_bike"}, {"fusion_lon": 0.0, "lat": 38.871764666666664, "lon": -77.2338595, "bike_id": "b0ba3ecd5c4381446823fb3de6fdba07", "rental_uris": {"android": "https://dc.lft.to/lastmile_qr_scan", "ios": "https://dc.lft.to/lastmile_qr_scan"}, "fusion_lat": 0.0, "name": "b0ba3ecd5c4381446823fb3de6fdba07", "is_reserved": 0, "is_disabled": 0, "type": "electric_bike"}, {"fusion_lon": 0.0, "lat": 38.8973895, "lon": -77.029891, "bike_id": "178d964c1e16eb06f23f7b964892d9a4", "rental_uris": {"android": "https://dc.lft.to/lastmile_qr_scan", "ios": "https://dc.lft.to/lastmile_qr_scan"}, "fusion_lat": 0.0, "name": "178d964c1e16eb06f23f7b964892d9a4", "is_reserved": 0, "is_disabled": 0, "type": "electric_scooter"}, {"fusion_lon": 0.0, "lat": 38.908717833333334, "lon": -77.07160116666667, "bike_id": "56c2c7c85913ac545c5f615498c3e079", "rental_uris": {"android": "https://dc.lft.to/lastmile_qr_scan", "ios": "https://dc.lft.to/lastmile_qr_scan"}, "fusion_lat": 0.0, "name": "56c2c7c85913ac545c5f615498c3e079", "is_reserved": 0, "is_disabled": 0, "type": "electric_scooter"}, {"fusion_lon": 0.0, "lat": 38.86720566666666, "lon": -77.01011616666666, "bike_id": "a21711f6622c6eb972267a063b731f2c", "rental_uris": {"android": "https://dc.lft.to/lastmile_qr_scan", "ios": "https://dc.lft.to/lastmile_qr_scan"}, "fusion_lat": 0.0, "name": "a21711f6622c6eb972267a063b731f2c", "is_reserved": 0, "is_disabled": 0, "type": "electric_scooter"}, {"fusion_lon": 0.0, "lat": 38.92282066666667, "lon": -77.03403583333333, "bike_id": "c4e53de92edfc06425bfada5c2116728", "rental_uris": {"android": "https://dc.lft.to/lastmile_qr_scan", "ios": "https://dc.lft.to/lastmile_qr_scan"}, "fusion_lat": 0.0, "name": "c4e53de92edfc06425bfada5c2116728", "is_reserved": 0, "is_disabled": 0, "type": "electric_scooter"}, {"fusion_lon": 0.0, "lat": 38.880798166666665, "lon": -76.98530533333333, "bike_id": "98574a9f8977a8bd666a82d7d637ec5d", "rental_uris": {"android": "https://dc.lft.to/lastmile_qr_scan", "ios": "https://dc.lft.to/lastmile_qr_scan"}, "fusion_lat": 0.0, "name": "98574a9f8977a8bd666a82d7d637ec5d", "is_reserved": 0, "is_disabled": 0, "type": "electric_scooter"}, {"fusion_lon": 0.0, "lat": 38.91419616666667, "lon": -77.04505766666666, "bike_id": "93512aea256feb0bdb25c20726d75141", "rental_uris": {"android": "https://dc.lft.to/lastmile_qr_scan", "ios": "https://dc.lft.to/lastmile_qr_scan"}, "fusion_lat": 0.0, "name": "93512aea256feb0bdb25c20726d75141", "is_reserved": 0, "is_disabled": 0, "type": "electric_scooter"}, {"fusion_lon": 0.0, "lat": 38.92016233333333, "lon": -76.9783305, "bike_id": "d380c4403441317dac746c2ec0274512", "rental_uris": {"android": "https://dc.lft.to/lastmile_qr_scan", "ios": "https://dc.lft.to/lastmile_qr_scan"}, "fusion_lat": 0.0, "name": "d380c4403441317dac746c2ec0274512", "is_reserved": 0, "is_disabled": 0, "type": "electric_scooter"}, {"fusion_lon": 0.0, "lat": 38.8729505, "lon": -77.0098645, "bike_id": "4bb63ecc81b21ed45b2f6c6ae8e2318e", "rental_uris": {"android": "https://dc.lft.to/lastmile_qr_scan", "ios": "https://dc.lft.to/lastmile_qr_scan"}, "fusion_lat": 0.0, "name": "4bb63ecc81b21ed45b2f6c6ae8e2318e", "is_reserved": 0, "is_disabled": 0, "type": "electric_scooter"}, {"fusion_lon": 0.0, "lat": 38.94238466666667, "lon": -77.02572183333334, "bike_id": "715705772e17b9ca4f1b30aa039878f0", "rental_uris": {"android": "https://dc.lft.to/lastmile_qr_scan", "ios": "https://dc.lft.to/lastmile_qr_scan"}, "fusion_lat": 0.0, "name": "715705772e17b9ca4f1b30aa039878f0", "is_reserved": 0, "is_disabled": 0, "type": "electric_scooter"}, {"fusion_lon": 0.0, "lat": 38.92544133333333, "lon": -77.00058033333333, "bike_id": "628c33a4ee3d690c396fd839e75d61fd", "rental_uris": {"android": "https://dc.lft.to/lastmile_qr_scan", "ios": "https://dc.lft.to/lastmile_qr_scan"}, "fusion_lat": 0.0, "name": "628c33a4ee3d690c396fd839e75d61fd", "is_reserved": 0, "is_disabled": 0, "type": "electric_scooter"}, {"fusion_lon": 0.0, "lat": 38.92825933333334, "lon": -77.022993, "bike_id": "6c94fd0c7e5f83a7428ec4b042b8e353", "rental_uris": {"android": "https://dc.lft.to/lastmile_qr_scan", "ios": "https://dc.lft.to/lastmile_qr_scan"}, "fusion_lat": 0.0, "name": "6c94fd0c7e5f83a7428ec4b042b8e353", "is_reserved": 0, "is_disabled": 0, "type": "electric_scooter"}, {"fusion_lon": 0.0, "lat": 38.87528566666667, "lon": -77.01225016666666, "bike_id": "4643b5b13a9b3129d78fdbeef26b045c", "rental_uris": {"android": "https://dc.lft.to/lastmile_qr_scan", "ios": "https://dc.lft.to/lastmile_qr_scan"}, "fusion_lat": 0.0, "name": "4643b5b13a9b3129d78fdbeef26b045c", "is_reserved": 0, "is_disabled": 0, "type": "electric_scooter"}, {"fusion_lon": 0.0, "lat": 38.905766666666665, "lon": -77.02988766666667, "bike_id": "04faff87cc778d741b9595acfff79467", "rental_uris": {"android": "https://dc.lft.to/lastmile_qr_scan", "ios": "https://dc.lft.to/lastmile_qr_scan"}, "fusion_lat": 0.0, "name": "04faff87cc778d741b9595acfff79467", "is_reserved": 0, "is_disabled": 0, "type": "electric_scooter"}, {"fusion_lon": 0.0, "lat": 38.905703333333335, "lon": -77.00580133333334, "bike_id": "8a76b43f9439493b02cf212b2f95fea6", "rental_uris": {"android": "https://dc.lft.to/lastmile_qr_scan", "ios": "https://dc.lft.to/lastmile_qr_scan"}, "fusion_lat": 0.0, "name": "8a76b43f9439493b02cf212b2f95fea6", "is_reserved": 0, "is_disabled": 0, "type": "electric_scooter"}, {"fusion_lon": 0.0, "lat": 38.92480583333333, "lon": -77.03478233333334, "bike_id": "e500200e9ca0fc38e2ee733cbad949db", "rental_uris": {"android": "https://dc.lft.to/lastmile_qr_scan", "ios": "https://dc.lft.to/lastmile_qr_scan"}, "fusion_lat": 0.0, "name": "e500200e9ca0fc38e2ee733cbad949db", "is_reserved": 0, "is_disabled": 0, "type": "electric_scooter"}, {"fusion_lon": 0.0, "lat": 38.880248, "lon": -77.02320183333333, "bike_id": "eb8203dcaae7524d08cc9f538d5d73f5", "rental_uris": {"android": "https://dc.lft.to/lastmile_qr_scan", "ios": "https://dc.lft.to/lastmile_qr_scan"}, "fusion_lat": 0.0, "name": "eb8203dcaae7524d08cc9f538d5d73f5", "is_reserved": 0, "is_disabled": 0, "type": "electric_scooter"}, {"fusion_lon": 0.0, "lat": 38.905389666666665, "lon": -77.04468333333334, "bike_id": "28bdf779523151c9432aa2091f24dfb1", "rental_uris": {"android": "https://dc.lft.to/lastmile_qr_scan", "ios": "https://dc.lft.to/lastmile_qr_scan"}, "fusion_lat": 0.0, "name": "28bdf779523151c9432aa2091f24dfb1", "is_reserved": 0, "is_disabled": 0, "type": "electric_scooter"}, {"fusion_lon": 0.0, "lat": 38.89456933333334, "lon": -77.0266255, "bike_id": "c340fa7d14ae72fc88159742006f0e85", "rental_uris": {"android": "https://dc.lft.to/lastmile_qr_scan", "ios": "https://dc.lft.to/lastmile_qr_scan"}, "fusion_lat": 0.0, "name": "c340fa7d14ae72fc88159742006f0e85", "is_reserved": 0, "is_disabled": 0, "type": "electric_scooter"}, {"fusion_lon": 0.0, "lat": 38.854474333333336, "lon": -76.98605533333334, "bike_id": "e790b200650d550879cad056f73f482b", "rental_uris": {"android": "https://dc.lft.to/lastmile_qr_scan", "ios": "https://dc.lft.to/lastmile_qr_scan"}, "fusion_lat": 0.0, "name": "e790b200650d550879cad056f73f482b", "is_reserved": 0, "is_disabled": 0, "type": "electric_bike"}, {"fusion_lon": 0.0, "lat": 38.924062666666664, "lon": -77.02693233333333, "bike_id": "99002468b40065ba887c4a34ee1136d9", "rental_uris": {"android": "https://dc.lft.to/lastmile_qr_scan", "ios": "https://dc.lft.to/lastmile_qr_scan"}, "fusion_lat": 0.0, "name": "99002468b40065ba887c4a34ee1136d9", "is_reserved": 0, "is_disabled": 0, "type": "electric_scooter"}, {"fusion_lon": 0.0, "lat": 38.934596666666664, "lon": -76.96445266666667, "bike_id": "007382a44adfd07f492c50c6c7a456ef", "rental_uris": {"android": "https://dc.lft.to/lastmile_qr_scan", "ios": "https://dc.lft.to/lastmile_qr_scan"}, "fusion_lat": 0.0, "name": "007382a44adfd07f492c50c6c7a456ef", "is_reserved": 0, "is_disabled": 0, "type": "electric_scooter"}, {"fusion_lon": 0.0, "lat": 38.902534333333335, "lon": -76.9847995, "bike_id": "10b7add63e876391db0ea47d7c8b3904", "rental_uris": {"android": "https://dc.lft.to/lastmile_qr_scan", "ios": "https://dc.lft.to/lastmile_qr_scan"}, "fusion_lat": 0.0, "name": "10b7add63e876391db0ea47d7c8b3904", "is_reserved": 0, "is_disabled": 0, "type": "electric_scooter"}, {"fusion_lon": 0.0, "lat": 38.9254465, "lon": -77.0385565, "bike_id": "d766d132cf914b43eca38e1082df6a7d", "rental_uris": {"android": "https://dc.lft.to/lastmile_qr_scan", "ios": "https://dc.lft.to/lastmile_qr_scan"}, "fusion_lat": 0.0, "name": "d766d132cf914b43eca38e1082df6a7d", "is_reserved": 0, "is_disabled": 0, "type": "electric_scooter"}, {"fusion_lon": 0.0, "lat": 38.87863633333333, "lon": -76.9966145, "bike_id": "ca7e115ce0fd6aaca7fe24703c146d3f", "rental_uris": {"android": "https://dc.lft.to/lastmile_qr_scan", "ios": "https://dc.lft.to/lastmile_qr_scan"}, "fusion_lat": 0.0, "name": "ca7e115ce0fd6aaca7fe24703c146d3f", "is_reserved": 0, "is_disabled": 0, "type": "electric_scooter"}, {"fusion_lon": 0.0, "lat": 38.8459155, "lon": -76.96973, "bike_id": "6a61adea9d2b8a6c0ede04012218da92", "rental_uris": {"android": "https://dc.lft.to/lastmile_qr_scan", "ios": "https://dc.lft.to/lastmile_qr_scan"}, "fusion_lat": 0.0, "name": "6a61adea9d2b8a6c0ede04012218da92", "is_reserved": 0, "is_disabled": 0, "type": "electric_bike"}, {"fusion_lon": 0.0, "lat": 38.905683833333335, "lon": -77.0298205, "bike_id": "c78c431c1631285845400a9c45766e83", "rental_uris": {"android": "https://dc.lft.to/lastmile_qr_scan", "ios": "https://dc.lft.to/lastmile_qr_scan"}, "fusion_lat": 0.0, "name": "c78c431c1631285845400a9c45766e83", "is_reserved": 0, "is_disabled": 0, "type": "electric_scooter"}, {"fusion_lon": 0.0, "lat": 38.90396883333333, "lon": -76.97362666666666, "bike_id": "552fbbb2cf132e2cb15a1d46ad2f7843", "rental_uris": {"android": "https://dc.lft.to/lastmile_qr_scan", "ios": "https://dc.lft.to/lastmile_qr_scan"}, "fusion_lat": 0.0, "name": "552fbbb2cf132e2cb15a1d46ad2f7843", "is_reserved": 0, "is_disabled": 0, "type": "electric_scooter"}, {"fusion_lon": 0.0, "lat": 38.906222666666665, "lon": -77.04342683333333, "bike_id": "a02f5ac60a50163b287d6fcf7aaac0b4", "rental_uris": {"android": "https://dc.lft.to/lastmile_qr_scan", "ios": "https://dc.lft.to/lastmile_qr_scan"}, "fusion_lat": 0.0, "name": "a02f5ac60a50163b287d6fcf7aaac0b4", "is_reserved": 0, "is_disabled": 0, "type": "electric_scooter"}, {"fusion_lon": 0.0, "lat": 38.91728533333333, "lon": -77.0297405, "bike_id": "88ee17cb5e71aaacadc0ff12d8e598f0", "rental_uris": {"android": "https://dc.lft.to/lastmile_qr_scan", "ios": "https://dc.lft.to/lastmile_qr_scan"}, "fusion_lat": 0.0, "name": "88ee17cb5e71aaacadc0ff12d8e598f0", "is_reserved": 0, "is_disabled": 0, "type": "electric_scooter"}, {"fusion_lon": 0.0, "lat": 38.8718555, "lon": -77.0064625, "bike_id": "5355fa932db534f10ad901df86b82bad", "rental_uris": {"android": "https://dc.lft.to/lastmile_qr_scan", "ios": "https://dc.lft.to/lastmile_qr_scan"}, "fusion_lat": 0.0, "name": "5355fa932db534f10ad901df86b82bad", "is_reserved": 0, "is_disabled": 0, "type": "electric_scooter"}, {"fusion_lon": 0.0, "lat": 38.9245915, "lon": -77.03371066666666, "bike_id": "b51c00777e9ce1a7b345da003e39c4c6", "rental_uris": {"android": "https://dc.lft.to/lastmile_qr_scan", "ios": "https://dc.lft.to/lastmile_qr_scan"}, "fusion_lat": 0.0, "name": "b51c00777e9ce1a7b345da003e39c4c6", "is_reserved": 0, "is_disabled": 0, "type": "electric_scooter"}, {"fusion_lon": 0.0, "lat": 38.900637333333336, "lon": -77.036397, "bike_id": "4fc2b9afd8994a8e54ad4f05d36c33c6", "rental_uris": {"android": "https://dc.lft.to/lastmile_qr_scan", "ios": "https://dc.lft.to/lastmile_qr_scan"}, "fusion_lat": 0.0, "name": "4fc2b9afd8994a8e54ad4f05d36c33c6", "is_reserved": 0, "is_disabled": 0, "type": "electric_scooter"}, {"fusion_lon": 0.0, "lat": 39.015341, "lon": -77.04359166666667, "bike_id": "383573c80db93c808986794c20b095d1", "rental_uris": {"android": "https://dc.lft.to/lastmile_qr_scan", "ios": "https://dc.lft.to/lastmile_qr_scan"}, "fusion_lat": 0.0, "name": "383573c80db93c808986794c20b095d1", "is_reserved": 0, "is_disabled": 0, "type": "electric_bike"}, {"fusion_lon": 0.0, "lat": 38.89756283333333, "lon": -76.97573, "bike_id": "df3bc4e5074148aaa8731ce27222cbc0", "rental_uris": {"android": "https://dc.lft.to/lastmile_qr_scan", "ios": "https://dc.lft.to/lastmile_qr_scan"}, "fusion_lat": 0.0, "name": "df3bc4e5074148aaa8731ce27222cbc0", "is_reserved": 0, "is_disabled": 0, "type": "electric_scooter"}, {"fusion_lon": 0.0, "lat": 38.9206815, "lon": -77.04250816666666, "bike_id": "cb0602f40aa0bb13ec40449294736b69", "rental_uris": {"android": "https://dc.lft.to/lastmile_qr_scan", "ios": "https://dc.lft.to/lastmile_qr_scan"}, "fusion_lat": 0.0, "name": "cb0602f40aa0bb13ec40449294736b69", "is_reserved": 0, "is_disabled": 0, "type": "electric_scooter"}, {"fusion_lon": 0.0, "lat": 38.879059833333336, "lon": -76.9867055, "bike_id": "22b8be4dd56bcc33c13df04dc89753ae", "rental_uris": {"android": "https://dc.lft.to/lastmile_qr_scan", "ios": "https://dc.lft.to/lastmile_qr_scan"}, "fusion_lat": 0.0, "name": "22b8be4dd56bcc33c13df04dc89753ae", "is_reserved": 0, "is_disabled": 0, "type": "electric_scooter"}, {"fusion_lon": 0.0, "lat": 38.89506316666667, "lon": -77.04638283333334, "bike_id": "53da3af78d885b400c45c22a366c346c", "rental_uris": {"android": "https://dc.lft.to/lastmile_qr_scan", "ios": "https://dc.lft.to/lastmile_qr_scan"}, "fusion_lat": 0.0, "name": "53da3af78d885b400c45c22a366c346c", "is_reserved": 0, "is_disabled": 0, "type": "electric_scooter"}, {"fusion_lon": 0.0, "lat": 38.921504, "lon": -77.035302, "bike_id": "ba2a9c02fc915a64bdc4f7a412e13fb1", "rental_uris": {"android": "https://dc.lft.to/lastmile_qr_scan", "ios": "https://dc.lft.to/lastmile_qr_scan"}, "fusion_lat": 0.0, "name": "ba2a9c02fc915a64bdc4f7a412e13fb1", "is_reserved": 0, "is_disabled": 0, "type": "electric_scooter"}, {"fusion_lon": 0.0, "lat": 38.919804666666664, "lon": -77.0417415, "bike_id": "94a5e14d6eee5db979bd20d1363bcb0f", "rental_uris": {"android": "https://dc.lft.to/lastmile_qr_scan", "ios": "https://dc.lft.to/lastmile_qr_scan"}, "fusion_lat": 0.0, "name": "94a5e14d6eee5db979bd20d1363bcb0f", "is_reserved": 0, "is_disabled": 0, "type": "electric_scooter"}, {"fusion_lon": 0.0, "lat": 38.891965666666664, "lon": -77.00299833333334, "bike_id": "c2d6c072d52c425aa41d33c98539082c", "rental_uris": {"android": "https://dc.lft.to/lastmile_qr_scan", "ios": "https://dc.lft.to/lastmile_qr_scan"}, "fusion_lat": 0.0, "name": "c2d6c072d52c425aa41d33c98539082c", "is_reserved": 0, "is_disabled": 0, "type": "electric_scooter"}, {"fusion_lon": 0.0, "lat": 38.90894, "lon": -77.03402683333333, "bike_id": "943414bb5bd6cbb2d21e8208b5a79ef0", "rental_uris": {"android": "https://dc.lft.to/lastmile_qr_scan", "ios": "https://dc.lft.to/lastmile_qr_scan"}, "fusion_lat": 0.0, "name": "943414bb5bd6cbb2d21e8208b5a79ef0", "is_reserved": 0, "is_disabled": 0, "type": "electric_scooter"}, {"fusion_lon": 0.0, "lat": 38.928291, "lon": -77.014135, "bike_id": "2db4eec6b91559c6f94582cef4d194e3", "rental_uris": {"android": "https://dc.lft.to/lastmile_qr_scan", "ios": "https://dc.lft.to/lastmile_qr_scan"}, "fusion_lat": 0.0, "name": "2db4eec6b91559c6f94582cef4d194e3", "is_reserved": 0, "is_disabled": 0, "type": "electric_scooter"}, {"fusion_lon": 0.0, "lat": 38.89893716666667, "lon": -77.04071966666666, "bike_id": "a488c89d50f46bf21859fb5520d53825", "rental_uris": {"android": "https://dc.lft.to/lastmile_qr_scan", "ios": "https://dc.lft.to/lastmile_qr_scan"}, "fusion_lat": 0.0, "name": "a488c89d50f46bf21859fb5520d53825", "is_reserved": 0, "is_disabled": 0, "type": "electric_scooter"}, {"fusion_lon": 0.0, "lat": 38.92372233333333, "lon": -77.020542, "bike_id": "5c5c7468740d648036a30f448d472a85", "rental_uris": {"android": "https://dc.lft.to/lastmile_qr_scan", "ios": "https://dc.lft.to/lastmile_qr_scan"}, "fusion_lat": 0.0, "name": "5c5c7468740d648036a30f448d472a85", "is_reserved": 0, "is_disabled": 0, "type": "electric_scooter"}, {"fusion_lon": 0.0, "lat": 38.892250833333335, "lon": -77.04469466666667, "bike_id": "0a9043d002e7765c44110affdecdf65b", "rental_uris": {"android": "https://dc.lft.to/lastmile_qr_scan", "ios": "https://dc.lft.to/lastmile_qr_scan"}, "fusion_lat": 0.0, "name": "0a9043d002e7765c44110affdecdf65b", "is_reserved": 0, "is_disabled": 0, "type": "electric_scooter"}, {"fusion_lon": 0.0, "lat": 38.962291666666665, "lon": -77.01359766666667, "bike_id": "cf5ad30becc2dda01c142ad97ff457a9", "rental_uris": {"android": "https://dc.lft.to/lastmile_qr_scan", "ios": "https://dc.lft.to/lastmile_qr_scan"}, "fusion_lat": 0.0, "name": "cf5ad30becc2dda01c142ad97ff457a9", "is_reserved": 0, "is_disabled": 0, "type": "electric_scooter"}, {"fusion_lon": 0.0, "lat": 38.87585883333333, "lon": -77.0059995, "bike_id": "c4e4ba9ad010810433212ca8234ba23b", "rental_uris": {"android": "https://dc.lft.to/lastmile_qr_scan", "ios": "https://dc.lft.to/lastmile_qr_scan"}, "fusion_lat": 0.0, "name": "c4e4ba9ad010810433212ca8234ba23b", "is_reserved": 0, "is_disabled": 0, "type": "electric_scooter"}, {"fusion_lon": 0.0, "lat": 38.90212133333333, "lon": -77.04588283333334, "bike_id": "2a497c0f71676b1a2990314a2effceac", "rental_uris": {"android": "https://dc.lft.to/lastmile_qr_scan", "ios": "https://dc.lft.to/lastmile_qr_scan"}, "fusion_lat": 0.0, "name": "2a497c0f71676b1a2990314a2effceac", "is_reserved": 0, "is_disabled": 0, "type": "electric_scooter"}, {"fusion_lon": 0.0, "lat": 38.92961783333333, "lon": -77.0114515, "bike_id": "be029ba950f1686dec2934aa9986aeae", "rental_uris": {"android": "https://dc.lft.to/lastmile_qr_scan", "ios": "https://dc.lft.to/lastmile_qr_scan"}, "fusion_lat": 0.0, "name": "be029ba950f1686dec2934aa9986aeae", "is_reserved": 0, "is_disabled": 0, "type": "electric_scooter"}, {"fusion_lon": 0.0, "lat": 38.902777, "lon": -77.03202216666666, "bike_id": "071066324dbb245596e2d0a37d96899a", "rental_uris": {"android": "https://dc.lft.to/lastmile_qr_scan", "ios": "https://dc.lft.to/lastmile_qr_scan"}, "fusion_lat": 0.0, "name": "071066324dbb245596e2d0a37d96899a", "is_reserved": 0, "is_disabled": 0, "type": "electric_scooter"}, {"fusion_lon": 0.0, "lat": 38.89223783333333, "lon": -77.04681033333334, "bike_id": "54bae65dd347b547f4ca734958f2b0cc", "rental_uris": {"android": "https://dc.lft.to/lastmile_qr_scan", "ios": "https://dc.lft.to/lastmile_qr_scan"}, "fusion_lat": 0.0, "name": "54bae65dd347b547f4ca734958f2b0cc", "is_reserved": 0, "is_disabled": 0, "type": "electric_scooter"}, {"fusion_lon": 0.0, "lat": 38.92799383333333, "lon": -77.0155385, "bike_id": "4dfde73f90aeee444bc10ef13632d88b", "rental_uris": {"android": "https://dc.lft.to/lastmile_qr_scan", "ios": "https://dc.lft.to/lastmile_qr_scan"}, "fusion_lat": 0.0, "name": "4dfde73f90aeee444bc10ef13632d88b", "is_reserved": 0, "is_disabled": 0, "type": "electric_scooter"}, {"fusion_lon": 0.0, "lat": 38.7846345, "lon": -77.05437833333333, "bike_id": "47740f40f4f60490b09b9c804fe37f72", "rental_uris": {"android": "https://dc.lft.to/lastmile_qr_scan", "ios": "https://dc.lft.to/lastmile_qr_scan"}, "fusion_lat": 0.0, "name": "47740f40f4f60490b09b9c804fe37f72", "is_reserved": 0, "is_disabled": 0, "type": "electric_bike"}, {"fusion_lon": 0.0, "lat": 38.90868666666667, "lon": -77.08595583333333, "bike_id": "d1e553b733ae21fb09f373d58b621deb", "rental_uris": {"android": "https://dc.lft.to/lastmile_qr_scan", "ios": "https://dc.lft.to/lastmile_qr_scan"}, "fusion_lat": 0.0, "name": "d1e553b733ae21fb09f373d58b621deb", "is_reserved": 0, "is_disabled": 0, "type": "electric_scooter"}, {"fusion_lon": 0.0, "lat": 38.88669483333334, "lon": -77.01370083333333, "bike_id": "af53fea024b087cda93140ed68b742ce", "rental_uris": {"android": "https://dc.lft.to/lastmile_qr_scan", "ios": "https://dc.lft.to/lastmile_qr_scan"}, "fusion_lat": 0.0, "name": "af53fea024b087cda93140ed68b742ce", "is_reserved": 0, "is_disabled": 0, "type": "electric_scooter"}, {"fusion_lon": 0.0, "lat": 38.896234166666666, "lon": -76.90751133333333, "bike_id": "4dcaad803ca251b2159889f7371f5bb3", "rental_uris": {"android": "https://dc.lft.to/lastmile_qr_scan", "ios": "https://dc.lft.to/lastmile_qr_scan"}, "fusion_lat": 0.0, "name": "4dcaad803ca251b2159889f7371f5bb3", "is_reserved": 0, "is_disabled": 0, "type": "electric_bike"}, {"fusion_lon": 0.0, "lat": 38.917153666666664, "lon": -77.04157483333333, "bike_id": "148c28c353778f815e2699d2a77cdd5f", "rental_uris": {"android": "https://dc.lft.to/lastmile_qr_scan", "ios": "https://dc.lft.to/lastmile_qr_scan"}, "fusion_lat": 0.0, "name": "148c28c353778f815e2699d2a77cdd5f", "is_reserved": 0, "is_disabled": 0, "type": "electric_scooter"}, {"fusion_lon": 0.0, "lat": 38.905777666666665, "lon": -77.00262716666667, "bike_id": "c0468450461cbf28f8f08fb0d7a89b7c", "rental_uris": {"android": "https://dc.lft.to/lastmile_qr_scan", "ios": "https://dc.lft.to/lastmile_qr_scan"}, "fusion_lat": 0.0, "name": "c0468450461cbf28f8f08fb0d7a89b7c", "is_reserved": 0, "is_disabled": 0, "type": "electric_scooter"}, {"fusion_lon": 0.0, "lat": 38.89887816666667, "lon": -77.0331525, "bike_id": "9b492eb94152043ed16032905ed15500", "rental_uris": {"android": "https://dc.lft.to/lastmile_qr_scan", "ios": "https://dc.lft.to/lastmile_qr_scan"}, "fusion_lat": 0.0, "name": "9b492eb94152043ed16032905ed15500", "is_reserved": 0, "is_disabled": 0, "type": "electric_scooter"}, {"fusion_lon": 0.0, "lat": 38.90773033333333, "lon": -77.03216766666667, "bike_id": "6d749ac90493f92af98f8d778afd7774", "rental_uris": {"android": "https://dc.lft.to/lastmile_qr_scan", "ios": "https://dc.lft.to/lastmile_qr_scan"}, "fusion_lat": 0.0, "name": "6d749ac90493f92af98f8d778afd7774", "is_reserved": 0, "is_disabled": 0, "type": "electric_scooter"}, {"fusion_lon": 0.0, "lat": 38.900348666666666, "lon": -76.98839233333334, "bike_id": "91ee9ed440a8a3616105425808b7113a", "rental_uris": {"android": "https://dc.lft.to/lastmile_qr_scan", "ios": "https://dc.lft.to/lastmile_qr_scan"}, "fusion_lat": 0.0, "name": "91ee9ed440a8a3616105425808b7113a", "is_reserved": 0, "is_disabled": 0, "type": "electric_scooter"}, {"fusion_lon": 0.0, "lat": 38.907884833333334, "lon": -77.00964283333333, "bike_id": "f9eac2e66b457fed157180e8f632952c", "rental_uris": {"android": "https://dc.lft.to/lastmile_qr_scan", "ios": "https://dc.lft.to/lastmile_qr_scan"}, "fusion_lat": 0.0, "name": "f9eac2e66b457fed157180e8f632952c", "is_reserved": 0, "is_disabled": 0, "type": "electric_scooter"}, {"fusion_lon": 0.0, "lat": 38.917924166666666, "lon": -77.03430133333333, "bike_id": "42a32bb6ba362edb6dc10b942d5f030f", "rental_uris": {"android": "https://dc.lft.to/lastmile_qr_scan", "ios": "https://dc.lft.to/lastmile_qr_scan"}, "fusion_lat": 0.0, "name": "42a32bb6ba362edb6dc10b942d5f030f", "is_reserved": 0, "is_disabled": 0, "type": "electric_scooter"}, {"fusion_lon": 0.0, "lat": 38.90133466666666, "lon": -77.043098, "bike_id": "48cf99b25ddcb8157c3eba726e4be7fb", "rental_uris": {"android": "https://dc.lft.to/lastmile_qr_scan", "ios": "https://dc.lft.to/lastmile_qr_scan"}, "fusion_lat": 0.0, "name": "48cf99b25ddcb8157c3eba726e4be7fb", "is_reserved": 0, "is_disabled": 0, "type": "electric_scooter"}, {"fusion_lon": 0.0, "lat": 38.91916766666667, "lon": -77.029446, "bike_id": "5c80805592ac1278ea7cc963861ff819", "rental_uris": {"android": "https://dc.lft.to/lastmile_qr_scan", "ios": "https://dc.lft.to/lastmile_qr_scan"}, "fusion_lat": 0.0, "name": "5c80805592ac1278ea7cc963861ff819", "is_reserved": 0, "is_disabled": 0, "type": "electric_scooter"}, {"fusion_lon": 0.0, "lat": 38.895591333333336, "lon": -77.04152433333333, "bike_id": "8cdf0b66f0864a29b4e344ea2b10c17c", "rental_uris": {"android": "https://dc.lft.to/lastmile_qr_scan", "ios": "https://dc.lft.to/lastmile_qr_scan"}, "fusion_lat": 0.0, "name": "8cdf0b66f0864a29b4e344ea2b10c17c", "is_reserved": 0, "is_disabled": 0, "type": "electric_scooter"}, {"fusion_lon": 0.0, "lat": 38.92329816666667, "lon": -77.01950816666667, "bike_id": "94808cdae66d08c4fa3d3839a60604c8", "rental_uris": {"android": "https://dc.lft.to/lastmile_qr_scan", "ios": "https://dc.lft.to/lastmile_qr_scan"}, "fusion_lat": 0.0, "name": "94808cdae66d08c4fa3d3839a60604c8", "is_reserved": 0, "is_disabled": 0, "type": "electric_scooter"}, {"fusion_lon": 0.0, "lat": 38.92992066666667, "lon": -77.01206016666667, "bike_id": "d43308f5a0ac4bb709d2f43519fde486", "rental_uris": {"android": "https://dc.lft.to/lastmile_qr_scan", "ios": "https://dc.lft.to/lastmile_qr_scan"}, "fusion_lat": 0.0, "name": "d43308f5a0ac4bb709d2f43519fde486", "is_reserved": 0, "is_disabled": 0, "type": "electric_scooter"}, {"fusion_lon": 0.0, "lat": 38.90053233333333, "lon": -77.0075515, "bike_id": "07c7b368af1c6abef613444445d6e8e4", "rental_uris": {"android": "https://dc.lft.to/lastmile_qr_scan", "ios": "https://dc.lft.to/lastmile_qr_scan"}, "fusion_lat": 0.0, "name": "07c7b368af1c6abef613444445d6e8e4", "is_reserved": 0, "is_disabled": 0, "type": "electric_scooter"}, {"fusion_lon": 0.0, "lat": 38.919745166666665, "lon": -77.0711425, "bike_id": "a483a627a4e90f5e5c1548867674a104", "rental_uris": {"android": "https://dc.lft.to/lastmile_qr_scan", "ios": "https://dc.lft.to/lastmile_qr_scan"}, "fusion_lat": 0.0, "name": "a483a627a4e90f5e5c1548867674a104", "is_reserved": 0, "is_disabled": 0, "type": "electric_scooter"}, {"fusion_lon": 0.0, "lat": 38.90365216666667, "lon": -77.03866733333334, "bike_id": "dad453067f838b44bdb66d16818b4ff6", "rental_uris": {"android": "https://dc.lft.to/lastmile_qr_scan", "ios": "https://dc.lft.to/lastmile_qr_scan"}, "fusion_lat": 0.0, "name": "dad453067f838b44bdb66d16818b4ff6", "is_reserved": 0, "is_disabled": 0, "type": "electric_scooter"}, {"fusion_lon": 0.0, "lat": 38.90502, "lon": -77.060066, "bike_id": "d4a57bd4d5c429859a96e63b5cfce8f7", "rental_uris": {"android": "https://dc.lft.to/lastmile_qr_scan", "ios": "https://dc.lft.to/lastmile_qr_scan"}, "fusion_lat": 0.0, "name": "d4a57bd4d5c429859a96e63b5cfce8f7", "is_reserved": 0, "is_disabled": 0, "type": "electric_bike"}, {"fusion_lon": 0.0, "lat": 38.90005716666667, "lon": -77.04650583333333, "bike_id": "caaabab2bc075379538e718083cb7714", "rental_uris": {"android": "https://dc.lft.to/lastmile_qr_scan", "ios": "https://dc.lft.to/lastmile_qr_scan"}, "fusion_lat": 0.0, "name": "caaabab2bc075379538e718083cb7714", "is_reserved": 0, "is_disabled": 0, "type": "electric_scooter"}, {"fusion_lon": 0.0, "lat": 38.92412183333333, "lon": -77.02012566666667, "bike_id": "eefb2f59772dd7c4dd10fc42ddc0c332", "rental_uris": {"android": "https://dc.lft.to/lastmile_qr_scan", "ios": "https://dc.lft.to/lastmile_qr_scan"}, "fusion_lat": 0.0, "name": "eefb2f59772dd7c4dd10fc42ddc0c332", "is_reserved": 0, "is_disabled": 0, "type": "electric_scooter"}, {"fusion_lon": 0.0, "lat": 38.99503833333333, "lon": -77.02894666666667, "bike_id": "e3b950cedfcbe0ffb6c72240ca2c4cea", "rental_uris": {"android": "https://dc.lft.to/lastmile_qr_scan", "ios": "https://dc.lft.to/lastmile_qr_scan"}, "fusion_lat": 0.0, "name": "e3b950cedfcbe0ffb6c72240ca2c4cea", "is_reserved": 0, "is_disabled": 0, "type": "electric_bike"}, {"fusion_lon": 0.0, "lat": 38.919253833333336, "lon": -77.03484516666667, "bike_id": "151961ae573138aedbe4d60872f9c4f8", "rental_uris": {"android": "https://dc.lft.to/lastmile_qr_scan", "ios": "https://dc.lft.to/lastmile_qr_scan"}, "fusion_lat": 0.0, "name": "151961ae573138aedbe4d60872f9c4f8", "is_reserved": 0, "is_disabled": 0, "type": "electric_scooter"}, {"fusion_lon": 0.0, "lat": 38.921507, "lon": -77.0339975, "bike_id": "3482c4b83dfaa44cc38d32d15ef2e6bf", "rental_uris": {"android": "https://dc.lft.to/lastmile_qr_scan", "ios": "https://dc.lft.to/lastmile_qr_scan"}, "fusion_lat": 0.0, "name": "3482c4b83dfaa44cc38d32d15ef2e6bf", "is_reserved": 0, "is_disabled": 0, "type": "electric_scooter"}, {"fusion_lon": 0.0, "lat": 38.9084135, "lon": -77.0401285, "bike_id": "30a0a44dd760587fe8b5f1e03a34f5e0", "rental_uris": {"android": "https://dc.lft.to/lastmile_qr_scan", "ios": "https://dc.lft.to/lastmile_qr_scan"}, "fusion_lat": 0.0, "name": "30a0a44dd760587fe8b5f1e03a34f5e0", "is_reserved": 0, "is_disabled": 0, "type": "electric_scooter"}, {"fusion_lon": 0.0, "lat": 38.9055955, "lon": -77.062836, "bike_id": "e3bd88d5cb3338d78ac474c049723fc9", "rental_uris": {"android": "https://dc.lft.to/lastmile_qr_scan", "ios": "https://dc.lft.to/lastmile_qr_scan"}, "fusion_lat": 0.0, "name": "e3bd88d5cb3338d78ac474c049723fc9", "is_reserved": 0, "is_disabled": 0, "type": "electric_scooter"}, {"fusion_lon": 0.0, "lat": 38.923464833333334, "lon": -77.018858, "bike_id": "f48e4c359d2075c93c635e77ed0a3599", "rental_uris": {"android": "https://dc.lft.to/lastmile_qr_scan", "ios": "https://dc.lft.to/lastmile_qr_scan"}, "fusion_lat": 0.0, "name": "f48e4c359d2075c93c635e77ed0a3599", "is_reserved": 0, "is_disabled": 0, "type": "electric_scooter"}, {"fusion_lon": 0.0, "lat": 38.884735166666665, "lon": -77.02651366666667, "bike_id": "cc4754e4c7a9735d4ca68f50a090ca7b", "rental_uris": {"android": "https://dc.lft.to/lastmile_qr_scan", "ios": "https://dc.lft.to/lastmile_qr_scan"}, "fusion_lat": 0.0, "name": "cc4754e4c7a9735d4ca68f50a090ca7b", "is_reserved": 0, "is_disabled": 0, "type": "electric_scooter"}, {"fusion_lon": 0.0, "lat": 38.86699516666667, "lon": -76.98600333333333, "bike_id": "24be38d90db4b01669160b659f63bebf", "rental_uris": {"android": "https://dc.lft.to/lastmile_qr_scan", "ios": "https://dc.lft.to/lastmile_qr_scan"}, "fusion_lat": 0.0, "name": "24be38d90db4b01669160b659f63bebf", "is_reserved": 0, "is_disabled": 0, "type": "electric_scooter"}, {"fusion_lon": 0.0, "lat": 38.914046666666664, "lon": -77.048843, "bike_id": "077cb907ab3dc6b76925f61e1116365a", "rental_uris": {"android": "https://dc.lft.to/lastmile_qr_scan", "ios": "https://dc.lft.to/lastmile_qr_scan"}, "fusion_lat": 0.0, "name": "077cb907ab3dc6b76925f61e1116365a", "is_reserved": 0, "is_disabled": 0, "type": "electric_scooter"}, {"fusion_lon": 0.0, "lat": 38.93060833333333, "lon": -77.0232295, "bike_id": "689535bd0975a3da3992c5f1603c8d88", "rental_uris": {"android": "https://dc.lft.to/lastmile_qr_scan", "ios": "https://dc.lft.to/lastmile_qr_scan"}, "fusion_lat": 0.0, "name": "689535bd0975a3da3992c5f1603c8d88", "is_reserved": 0, "is_disabled": 0, "type": "electric_scooter"}, {"fusion_lon": 0.0, "lat": 38.9110445, "lon": -77.022307, "bike_id": "2e13d73b69e0fe1084c7f7d3504f8158", "rental_uris": {"android": "https://dc.lft.to/lastmile_qr_scan", "ios": "https://dc.lft.to/lastmile_qr_scan"}, "fusion_lat": 0.0, "name": "2e13d73b69e0fe1084c7f7d3504f8158", "is_reserved": 0, "is_disabled": 0, "type": "electric_scooter"}, {"fusion_lon": 0.0, "lat": 38.87661216666667, "lon": -77.004245, "bike_id": "e0621d0b9cd24781bac301593ce9e417", "rental_uris": {"android": "https://dc.lft.to/lastmile_qr_scan", "ios": "https://dc.lft.to/lastmile_qr_scan"}, "fusion_lat": 0.0, "name": "e0621d0b9cd24781bac301593ce9e417", "is_reserved": 0, "is_disabled": 0, "type": "electric_scooter"}, {"fusion_lon": 0.0, "lat": 38.92774983333334, "lon": -77.03706116666666, "bike_id": "0fde27d83eb5f3e3c42ea509ba7a60ce", "rental_uris": {"android": "https://dc.lft.to/lastmile_qr_scan", "ios": "https://dc.lft.to/lastmile_qr_scan"}, "fusion_lat": 0.0, "name": "0fde27d83eb5f3e3c42ea509ba7a60ce", "is_reserved": 0, "is_disabled": 0, "type": "electric_scooter"}, {"fusion_lon": 0.0, "lat": 38.9199305, "lon": -77.023764, "bike_id": "deb4bc300a0021b7be1bce703ac2eee9", "rental_uris": {"android": "https://dc.lft.to/lastmile_qr_scan", "ios": "https://dc.lft.to/lastmile_qr_scan"}, "fusion_lat": 0.0, "name": "deb4bc300a0021b7be1bce703ac2eee9", "is_reserved": 0, "is_disabled": 0, "type": "electric_scooter"}, {"fusion_lon": 0.0, "lat": 38.935285, "lon": -77.034883, "bike_id": "9e0b9afb1952516e10efb2ab4714cdc6", "rental_uris": {"android": "https://dc.lft.to/lastmile_qr_scan", "ios": "https://dc.lft.to/lastmile_qr_scan"}, "fusion_lat": 0.0, "name": "9e0b9afb1952516e10efb2ab4714cdc6", "is_reserved": 0, "is_disabled": 0, "type": "electric_scooter"}, {"fusion_lon": 0.0, "lat": 38.919991833333334, "lon": -76.98508916666667, "bike_id": "5e379ca4cdf6025f0aa835acea9bb9c9", "rental_uris": {"android": "https://dc.lft.to/lastmile_qr_scan", "ios": "https://dc.lft.to/lastmile_qr_scan"}, "fusion_lat": 0.0, "name": "5e379ca4cdf6025f0aa835acea9bb9c9", "is_reserved": 0, "is_disabled": 0, "type": "electric_scooter"}, {"fusion_lon": 0.0, "lat": 38.8973605, "lon": -77.0200365, "bike_id": "afcc907dbae60d3a4d3badba820df125", "rental_uris": {"android": "https://dc.lft.to/lastmile_qr_scan", "ios": "https://dc.lft.to/lastmile_qr_scan"}, "fusion_lat": 0.0, "name": "afcc907dbae60d3a4d3badba820df125", "is_reserved": 0, "is_disabled": 0, "type": "electric_scooter"}, {"fusion_lon": 0.0, "lat": 38.896982, "lon": -77.00587033333333, "bike_id": "23453353e823e61da94c0b932530ee3d", "rental_uris": {"android": "https://dc.lft.to/lastmile_qr_scan", "ios": "https://dc.lft.to/lastmile_qr_scan"}, "fusion_lat": 0.0, "name": "23453353e823e61da94c0b932530ee3d", "is_reserved": 0, "is_disabled": 0, "type": "electric_scooter"}, {"fusion_lon": 0.0, "lat": 38.942977666666664, "lon": -77.02643316666666, "bike_id": "fa2fd50a246cda709bd2dee82daecfaf", "rental_uris": {"android": "https://dc.lft.to/lastmile_qr_scan", "ios": "https://dc.lft.to/lastmile_qr_scan"}, "fusion_lat": 0.0, "name": "fa2fd50a246cda709bd2dee82daecfaf", "is_reserved": 0, "is_disabled": 0, "type": "electric_scooter"}, {"fusion_lon": 0.0, "lat": 38.88838283333333, "lon": -76.97717883333334, "bike_id": "eeee7025b7eb04ad1f4560f509f0a72b", "rental_uris": {"android": "https://dc.lft.to/lastmile_qr_scan", "ios": "https://dc.lft.to/lastmile_qr_scan"}, "fusion_lat": 0.0, "name": "eeee7025b7eb04ad1f4560f509f0a72b", "is_reserved": 0, "is_disabled": 0, "type": "electric_scooter"}, {"fusion_lon": 0.0, "lat": 38.92443683333333, "lon": -77.040335, "bike_id": "cb2f51c2996532262e4b4afe9b264264", "rental_uris": {"android": "https://dc.lft.to/lastmile_qr_scan", "ios": "https://dc.lft.to/lastmile_qr_scan"}, "fusion_lat": 0.0, "name": "cb2f51c2996532262e4b4afe9b264264", "is_reserved": 0, "is_disabled": 0, "type": "electric_scooter"}, {"fusion_lon": 0.0, "lat": 38.9021075, "lon": -77.0388635, "bike_id": "beb0c1d39c05311b123185cd4a5197a3", "rental_uris": {"android": "https://dc.lft.to/lastmile_qr_scan", "ios": "https://dc.lft.to/lastmile_qr_scan"}, "fusion_lat": 0.0, "name": "beb0c1d39c05311b123185cd4a5197a3", "is_reserved": 0, "is_disabled": 0, "type": "electric_bike"}, {"fusion_lon": 0.0, "lat": 38.99235316666667, "lon": -77.023795, "bike_id": "c7e2467a952cf6379d79360c7e908d2e", "rental_uris": {"android": "https://dc.lft.to/lastmile_qr_scan", "ios": "https://dc.lft.to/lastmile_qr_scan"}, "fusion_lat": 0.0, "name": "c7e2467a952cf6379d79360c7e908d2e", "is_reserved": 0, "is_disabled": 0, "type": "electric_bike"}, {"fusion_lon": 0.0, "lat": 38.913589, "lon": -77.019826, "bike_id": "0b55baaa4357af70365a977c15396c75", "rental_uris": {"android": "https://dc.lft.to/lastmile_qr_scan", "ios": "https://dc.lft.to/lastmile_qr_scan"}, "fusion_lat": 0.0, "name": "0b55baaa4357af70365a977c15396c75", "is_reserved": 0, "is_disabled": 0, "type": "electric_scooter"}, {"fusion_lon": 0.0, "lat": 38.92869833333334, "lon": -77.0331835, "bike_id": "1929042f6d6d32c20bbb04045fb96495", "rental_uris": {"android": "https://dc.lft.to/lastmile_qr_scan", "ios": "https://dc.lft.to/lastmile_qr_scan"}, "fusion_lat": 0.0, "name": "1929042f6d6d32c20bbb04045fb96495", "is_reserved": 0, "is_disabled": 0, "type": "electric_scooter"}, {"fusion_lon": 0.0, "lat": 38.90301483333333, "lon": -77.04669566666666, "bike_id": "faebb750b47735dbb8b09517d2df3070", "rental_uris": {"android": "https://dc.lft.to/lastmile_qr_scan", "ios": "https://dc.lft.to/lastmile_qr_scan"}, "fusion_lat": 0.0, "name": "faebb750b47735dbb8b09517d2df3070", "is_reserved": 0, "is_disabled": 0, "type": "electric_scooter"}, {"fusion_lon": 0.0, "lat": 38.90567266666667, "lon": -77.03409166666667, "bike_id": "55d3bdefd3dcddfd312cce750c03085f", "rental_uris": {"android": "https://dc.lft.to/lastmile_qr_scan", "ios": "https://dc.lft.to/lastmile_qr_scan"}, "fusion_lat": 0.0, "name": "55d3bdefd3dcddfd312cce750c03085f", "is_reserved": 0, "is_disabled": 0, "type": "electric_scooter"}, {"fusion_lon": 0.0, "lat": 38.892165166666665, "lon": -77.03210583333333, "bike_id": "59bd8d432f32460184b7111de0762929", "rental_uris": {"android": "https://dc.lft.to/lastmile_qr_scan", "ios": "https://dc.lft.to/lastmile_qr_scan"}, "fusion_lat": 0.0, "name": "59bd8d432f32460184b7111de0762929", "is_reserved": 0, "is_disabled": 0, "type": "electric_scooter"}, {"fusion_lon": 0.0, "lat": 38.960295333333335, "lon": -77.03008966666667, "bike_id": "daa3ac0c36d3314f2a5bcb9edcc25cfd", "rental_uris": {"android": "https://dc.lft.to/lastmile_qr_scan", "ios": "https://dc.lft.to/lastmile_qr_scan"}, "fusion_lat": 0.0, "name": "daa3ac0c36d3314f2a5bcb9edcc25cfd", "is_reserved": 0, "is_disabled": 0, "type": "electric_scooter"}, {"fusion_lon": 0.0, "lat": 38.926884666666666, "lon": -77.0295905, "bike_id": "ba93b5c7aabbda07ca7af8b8cc605292", "rental_uris": {"android": "https://dc.lft.to/lastmile_qr_scan", "ios": "https://dc.lft.to/lastmile_qr_scan"}, "fusion_lat": 0.0, "name": "ba93b5c7aabbda07ca7af8b8cc605292", "is_reserved": 0, "is_disabled": 0, "type": "electric_scooter"}, {"fusion_lon": 0.0, "lat": 38.84811783333333, "lon": -76.95245133333333, "bike_id": "6abc31255ed55b6221a47529d6bf39f6", "rental_uris": {"android": "https://dc.lft.to/lastmile_qr_scan", "ios": "https://dc.lft.to/lastmile_qr_scan"}, "fusion_lat": 0.0, "name": "6abc31255ed55b6221a47529d6bf39f6", "is_reserved": 0, "is_disabled": 0, "type": "electric_bike"}, {"fusion_lon": 0.0, "lat": 38.900021, "lon": -76.99141383333334, "bike_id": "f11f6d0898fc0aa7dce523f886406eaf", "rental_uris": {"android": "https://dc.lft.to/lastmile_qr_scan", "ios": "https://dc.lft.to/lastmile_qr_scan"}, "fusion_lat": 0.0, "name": "f11f6d0898fc0aa7dce523f886406eaf", "is_reserved": 0, "is_disabled": 0, "type": "electric_scooter"}, {"fusion_lon": 0.0, "lat": 38.89420783333333, "lon": -76.99770816666667, "bike_id": "27d57d98238b2e733cf8983c44c4d197", "rental_uris": {"android": "https://dc.lft.to/lastmile_qr_scan", "ios": "https://dc.lft.to/lastmile_qr_scan"}, "fusion_lat": 0.0, "name": "27d57d98238b2e733cf8983c44c4d197", "is_reserved": 0, "is_disabled": 0, "type": "electric_scooter"}, {"fusion_lon": 0.0, "lat": 38.830637833333334, "lon": -77.0020475, "bike_id": "ff6c7c8dfb8dd6f3ab64ab3ded8a2f9f", "rental_uris": {"android": "https://dc.lft.to/lastmile_qr_scan", "ios": "https://dc.lft.to/lastmile_qr_scan"}, "fusion_lat": 0.0, "name": "ff6c7c8dfb8dd6f3ab64ab3ded8a2f9f", "is_reserved": 0, "is_disabled": 0, "type": "electric_scooter"}, {"fusion_lon": 0.0, "lat": 38.948978333333336, "lon": -77.03336116666667, "bike_id": "f3f1840de1ffb2875fe997d7c4cd1bdd", "rental_uris": {"android": "https://dc.lft.to/lastmile_qr_scan", "ios": "https://dc.lft.to/lastmile_qr_scan"}, "fusion_lat": 0.0, "name": "f3f1840de1ffb2875fe997d7c4cd1bdd", "is_reserved": 0, "is_disabled": 0, "type": "electric_scooter"}, {"fusion_lon": 0.0, "lat": 38.918610666666666, "lon": -76.96085866666667, "bike_id": "c75e71c57da2aeaefa0e2f0f86a9db58", "rental_uris": {"android": "https://dc.lft.to/lastmile_qr_scan", "ios": "https://dc.lft.to/lastmile_qr_scan"}, "fusion_lat": 0.0, "name": "c75e71c57da2aeaefa0e2f0f86a9db58", "is_reserved": 0, "is_disabled": 0, "type": "electric_bike"}, {"fusion_lon": 0.0, "lat": 38.901554, "lon": -76.97422316666666, "bike_id": "e39a71d42698143d725f903f485f2e17", "rental_uris": {"android": "https://dc.lft.to/lastmile_qr_scan", "ios": "https://dc.lft.to/lastmile_qr_scan"}, "fusion_lat": 0.0, "name": "e39a71d42698143d725f903f485f2e17", "is_reserved": 0, "is_disabled": 0, "type": "electric_scooter"}, {"fusion_lon": 0.0, "lat": 38.9174055, "lon": -77.02115933333333, "bike_id": "5eece8150c18162f1c6a93ee873f26a1", "rental_uris": {"android": "https://dc.lft.to/lastmile_qr_scan", "ios": "https://dc.lft.to/lastmile_qr_scan"}, "fusion_lat": 0.0, "name": "5eece8150c18162f1c6a93ee873f26a1", "is_reserved": 0, "is_disabled": 0, "type": "electric_scooter"},