{"data": {"bikes": [{"lat": 38.9171135, "is_disabled": 0, "type": "electric_scooter", "fusion_lon": 0.0, "rental_uris": {"android": "https://dc.lft.to/lastmile_qr_scan", "ios": "https://dc.lft.to/lastmile_qr_scan"}, "fusion_lat": 0.0, "is_reserved": 0, "bike_id": "5d0e5d2361dbb8afc8ca076cd7148aee", "name": "5d0e5d2361dbb8afc8ca076cd7148aee", "lon": -77.034168}, {"lat": 38.813100666666664, "is_disabled": 0, "type": "electric_bike", "fusion_lon": 0.0, "rental_uris": {"android": "https://dc.lft.to/lastmile_qr_scan", "ios": "https://dc.lft.to/lastmile_qr_scan"}, "fusion_lat": 0.0, "is_reserved": 0, "bike_id": "93718a856614ff1a748401933dc9c63c", "name": "93718a856614ff1a748401933dc9c63c", "lon": -77.1096835}, {"lat": 38.929736166666665, "is_disabled": 0, "type": "electric_scooter", "fusion_lon": 0.0, "rental_uris": {"android": "https://dc.lft.to/lastmile_qr_scan", "ios": "https://dc.lft.to/lastmile_qr_scan"}, "fusion_lat": 0.0, "is_reserved": 0, "bike_id": "d4c029f2c838f0f3878e8d381904c03d", "name": "d4c029f2c838f0f3878e8d381904c03d", "lon": -77.02794333333334}, {"lat": 38.9297065, "is_disabled": 0, "type": "electric_scooter", "fusion_lon": 0.0, "rental_uris": {"android": "https://dc.lft.to/lastmile_qr_scan", "ios": "https://dc.lft.to/lastmile_qr_scan"}, "fusion_lat": 0.0, "is_reserved": 0, "bike_id": "fde4c7db3a1c5f62504cd5d21668b20e", "name": "fde4c7db3a1c5f62504cd5d21668b20e", "lon": -77.05506066666666}, {"lat": 38.90854066666667, "is_disabled": 0, "type": "electric_scooter", "fusion_lon": 0.0, "rental_uris": {"android": "https://dc.lft.to/lastmile_qr_scan", "ios": "https://dc.lft.to/lastmile_qr_scan"}, "fusion_lat": 0.0, "is_reserved": 0, "bike_id": "889dc8e73e3000163d5db27394ca7eb6", "name": "889dc8e73e3000163d5db27394ca7eb6", "lon": -77.02513783333333}, {"lat": 38.90237533333333, "is_disabled": 0, "type": "electric_scooter", "fusion_lon": 0.0, "rental_uris": {"android": "https://dc.lft.to/lastmile_qr_scan", "ios": "https://dc.lft.to/lastmile_qr_scan"}, "fusion_lat": 0.0, "is_reserved": 0, "bike_id": "1160977736cee18fa2029359605fe038", "name": "1160977736cee18fa2029359605fe038", "lon": -77.05337783333333}, {"lat": 38.917882, "is_disabled": 0, "type": "electric_scooter", "fusion_lon": 0.0, "rental_uris": {"android": "https://dc.lft.to/lastmile_qr_scan", "ios": "https://dc.lft.to/lastmile_qr_scan"}, "fusion_lat": 0.0, "is_reserved": 0, "bike_id": "4ec987a2d679b450fa2a642328c91869", "name": "4ec987a2d679b450fa2a642328c91869", "lon": -77.02474116666667}, {"lat": 38.94975633333333, "is_disabled": 0, "type": "electric_bike", "fusion_lon": 0.0, "rental_uris": {"android": "https://dc.lft.to/lastmile_qr_scan", "ios": "https://dc.lft.to/lastmile_qr_scan"}, "fusion_lat": 0.0, "is_reserved": 0, "bike_id": "82ec001d3ac731c5479aceecfb4047b9", "name": "82ec001d3ac731c5479aceecfb4047b9", "lon": -77.073846}, {"lat": 38.94549933333333, "is_disabled": 0, "type": "electric_bike", "fusion_lon": 0.0, "rental_uris": {"android": "https://dc.lft.to/lastmile_qr_scan", "ios": "https://dc.lft.to/lastmile_qr_scan"}, "fusion_lat": 0.0, "is_reserved": 0, "bike_id": "7aac865de373cc777002d5af16482a98", "name": "7aac865de373cc777002d5af16482a98", "lon": -76.89533916666667}, {"lat": 38.91489883333333, "is_disabled": 0, "type": "electric_scooter", "fusion_lon": 0.0, "rental_uris": {"android": "https://dc.lft.to/lastmile_qr_scan", "ios": "https://dc.lft.to/lastmile_qr_scan"}, "fusion_lat": 0.0, "is_reserved": 0, "bike_id": "38db09d0b205dda75104fe1f53626f88", "name": "38db09d0b205dda75104fe1f53626f88", "lon": -77.02564783333334}, {"lat": 38.911280166666664, "is_disabled": 0, "type": "electric_scooter", "fusion_lon": 0.0, "rental_uris": {"android": "https://dc.lft.to/lastmile_qr_scan", "ios": "https://dc.lft.to/lastmile_qr_scan"}, "fusion_lat": 0.0, "is_reserved": 0, "bike_id": "ab6ca8c855677bcfb2e71d742f61b903", "name": "ab6ca8c855677bcfb2e71d742f61b903", "lon": -77.03186633333334}, {"lat": 38.89384733333333, "is_disabled": 0, "type": "electric_scooter", "fusion_lon": 0.0, "rental_uris": {"android": "https://dc.lft.to/lastmile_qr_scan", "ios": "https://dc.lft.to/lastmile_qr_scan"}, "fusion_lat": 0.0, "is_reserved": 0, "bike_id": "6001b03dd3708b3428384b4c42294c47", "name": "6001b03dd3708b3428384b4c42294c47", "lon": -77.04683383333334}, {"lat": 38.90719333333333, "is_disabled": 0, "type": "electric_scooter", "fusion_lon": 0.0, "rental_uris": {"android": "https://dc.lft.to/lastmile_qr_scan", "ios": "https://dc.lft.to/lastmile_qr_scan"}, "fusion_lat": 0.0, "is_reserved": 0, "bike_id": "0dde240575715fa87fa8cfd98c2dd4ea", "name": "0dde240575715fa87fa8cfd98c2dd4ea", "lon": -76.9982045}, {"lat": 38.9214725, "is_disabled": 0, "type": "electric_scooter", "fusion_lon": 0.0, "rental_uris": {"android": "https://dc.lft.to/lastmile_qr_scan", "ios": "https://dc.lft.to/lastmile_qr_scan"}, "fusion_lat": 0.0, "is_reserved": 0, "bike_id": "6a5fdbe3d929fb41c108c49c63a52f2a", "name": "6a5fdbe3d929fb41c108c49c63a52f2a", "lon": -77.02092766666667}, {"lat": 38.933595833333335, "is_disabled": 0, "type": "electric_scooter", "fusion_lon": 0.0, "rental_uris": {"android": "https://dc.lft.to/lastmile_qr_scan", "ios": "https://dc.lft.to/lastmile_qr_scan"}, "fusion_lat": 0.0, "is_reserved": 0, "bike_id": "844ebc737265e91883ba44f655f27096", "name": "844ebc737265e91883ba44f655f27096", "lon": -77.07307333333334}, {"lat": 38.929262666666666, "is_disabled": 0, "type": "electric_scooter", "fusion_lon": 0.0, "rental_uris": {"android": "https://dc.lft.to/lastmile_qr_scan", "ios": "https://dc.lft.to/lastmile_qr_scan"}, "fusion_lat": 0.0, "is_reserved": 0, "bike_id": "2d0293c725481cd71272c044144e01f8", "name": "2d0293c725481cd71272c044144e01f8", "lon": -77.03763833333333}, {"lat": 38.910489, "is_disabled": 0, "type": "electric_scooter", "fusion_lon": 0.0, "rental_uris": {"android": "https://dc.lft.to/lastmile_qr_scan", "ios": "https://dc.lft.to/lastmile_qr_scan"}, "fusion_lat": 0.0, "is_reserved": 0, "bike_id": "ec773070ff758ee4be7d4bfa4c6a0dd1", "name": "ec773070ff758ee4be7d4bfa4c6a0dd1", "lon": -77.0268405}, {"lat": 38.9070055, "is_disabled": 0, "type": "electric_bike", "fusion_lon": 0.0, "rental_uris": {"android": "https://dc.lft.to/lastmile_qr_scan", "ios": "https://dc.lft.to/lastmile_qr_scan"}, "fusion_lat": 0.0, "is_reserved": 0, "bike_id": "01dbce5c5e288898adb2028217d7951f", "name": "01dbce5c5e288898adb2028217d7951f", "lon": -77.02178916666666}, {"lat": 38.896195, "is_disabled": 0, "type": "electric_scooter", "fusion_lon": 0.0, "rental_uris": {"android": "https://dc.lft.to/lastmile_qr_scan", "ios": "https://dc.lft.to/lastmile_qr_scan"}, "fusion_lat": 0.0, "is_reserved": 0, "bike_id": "0418a347038ae01632eee7df0372e01f", "name": "0418a347038ae01632eee7df0372e01f", "lon": -77.02193766666667}, {"lat": 38.897219166666666, "is_disabled": 0, "type": "electric_scooter", "fusion_lon": 0.0, "rental_uris": {"android": "https://dc.lft.to/lastmile_qr_scan", "ios": "https://dc.lft.to/lastmile_qr_scan"}, "fusion_lat": 0.0, "is_reserved": 0, "bike_id": "6f8e9ee1c95e469355c8bf02a26027b6", "name": "6f8e9ee1c95e469355c8bf02a26027b6", "lon": -77.03959233333333}, {"lat": 38.90659, "is_disabled": 0, "type": "electric_scooter", "fusion_lon": 0.0, "rental_uris": {"android": "https://dc.lft.to/lastmile_qr_scan", "ios": "https://dc.lft.to/lastmile_qr_scan"}, "fusion_lat": 0.0, "is_reserved": 0, "bike_id": "e621612d5e4ab1d63a36ae2551c4d7fa", "name": "e621612d5e4ab1d63a36ae2551c4d7fa", "lon": -76.97805533333333}, {"lat": 38.94270316666667, "is_disabled": 0, "type": "electric_scooter", "fusion_lon": 0.0, "rental_uris": {"android": "https://dc.lft.to/lastmile_qr_scan", "ios": "https://dc.lft.to/lastmile_qr_scan"}, "fusion_lat": 0.0, "is_reserved": 0, "bike_id": "5022a21ece2de998f9b585e8667c7736", "name": "5022a21ece2de998f9b585e8667c7736", "lon": -77.02852033333333}, {"lat": 38.899711333333336, "is_disabled": 0, "type": "electric_scooter", "fusion_lon": 0.0, "rental_uris": {"android": "https://dc.lft.to/lastmile_qr_scan", "ios": "https://dc.lft.to/lastmile_qr_scan"}, "fusion_lat": 0.0, "is_reserved": 0, "bike_id": "76e56ac0990c644c4741ab91be92430a", "name": "76e56ac0990c644c4741ab91be92430a", "lon": -77.0157375}, {"lat": 38.88488133333333, "is_disabled": 0, "type": "electric_scooter", "fusion_lon": 0.0, "rental_uris": {"android": "https://dc.lft.to/lastmile_qr_scan", "ios": "https://dc.lft.to/lastmile_qr_scan"}, "fusion_lat": 0.0, "is_reserved": 0, "bike_id": "a45acbba6328a2dec686fd36740b4db1", "name": "a45acbba6328a2dec686fd36740b4db1", "lon": -76.99707433333333}, {"lat": 38.91867116666667, "is_disabled": 0, "type": "electric_scooter", "fusion_lon": 0.0, "rental_uris": {"android": "https://dc.lft.to/lastmile_qr_scan", "ios": "https://dc.lft.to/lastmile_qr_scan"}, "fusion_lat": 0.0, "is_reserved": 0, "bike_id": "58f80becaec539e9644bacf91dab82c2", "name": "58f80becaec539e9644bacf91dab82c2", "lon": -77.04174116666667}, {"lat": 38.904969666666666, "is_disabled": 0, "type": "electric_scooter", "fusion_lon": 0.0, "rental_uris": {"android": "https://dc.lft.to/lastmile_qr_scan", "ios": "https://dc.lft.to/lastmile_qr_scan"}, "fusion_lat": 0.0, "is_reserved": 0, "bike_id": "98e5a77134e362dd3b07f13f99178928", "name": "98e5a77134e362dd3b07f13f99178928", "lon": -77.06132316666667}, {"lat": 38.941498333333335, "is_disabled": 0, "type": "electric_bike", "fusion_lon": 0.0, "rental_uris": {"android": "https://dc.lft.to/lastmile_qr_scan", "ios": "https://dc.lft.to/lastmile_qr_scan"}, "fusion_lat": 0.0, "is_reserved": 0, "bike_id": "6c5bca1b1a2b86b58fd56d386b8be6e3", "name": "6c5bca1b1a2b86b58fd56d386b8be6e3", "lon": -77.002069}, {"lat": 38.93686983333333, "is_disabled": 0, "type": "electric_bike", "fusion_lon": 0.0, "rental_uris": {"android": "https://dc.lft.to/lastmile_qr_scan", "ios": "https://dc.lft.to/lastmile_qr_scan"}, "fusion_lat": 0.0, "is_reserved": 0, "bike_id": "8a6fae18130a1b4fb451d609a501937c", "name": "8a6fae18130a1b4fb451d609a501937c", "lon": -77.03339466666667}, {"lat": 38.9117645, "is_disabled": 0, "type": "electric_bike", "fusion_lon": 0.0, "rental_uris": {"android": "https://dc.lft.to/lastmile_qr_scan", "ios": "https://dc.lft.to/lastmile_qr_scan"}, "fusion_lat": 0.0, "is_reserved": 0, "bike_id": "3133ada15d1e3d333f5ca7661d23aeee", "name": "3133ada15d1e3d333f5ca7661d23aeee", "lon": -77.0880915}, {"lat": 38.842665833333335, "is_disabled": 0, "type": "electric_bike", "fusion_lon": 0.0, "rental_uris": {"android": "https://dc.lft.to/lastmile_qr_scan", "ios": "https://dc.lft.to/lastmile_qr_scan"}, "fusion_lat": 0.0, "is_reserved": 0, "bike_id": "79986ffdc2bb180176d171ac16ebadcf", "name": "79986ffdc2bb180176d171ac16ebadcf", "lon": -76.98838916666666}, {"lat": 38.834952666666666, "is_disabled": 0, "type": "electric_scooter", "fusion_lon": 0.0, "rental_uris": {"android": "https://dc.lft.to/lastmile_qr_scan", "ios": "https://dc.lft.to/lastmile_qr_scan"}, "fusion_lat": 0.0, "is_reserved": 0, "bike_id": "3d58ac96adcc7722824c07e66efd19b4", "name": "3d58ac96adcc7722824c07e66efd19b4", "lon": -77.00677983333334}, {"lat": 38.894946, "is_disabled": 0, "type": "electric_scooter", "fusion_lon": 0.0, "rental_uris": {"android": "https://dc.lft.to/lastmile_qr_scan", "ios": "https://dc.lft.to/lastmile_qr_scan"}, "fusion_lat": 0.0, "is_reserved": 0, "bike_id": "45577119b69d2122999cb1585a9b3af8", "name": "45577119b69d2122999cb1585a9b3af8", "lon": -77.011}, {"lat": 38.976908333333334, "is_disabled": 0, "type": "electric_bike", "fusion_lon": 0.0, "rental_uris": {"android": "https://dc.lft.to/lastmile_qr_scan", "ios": "https://dc.lft.to/lastmile_qr_scan"}, "fusion_lat": 0.0, "is_reserved": 0, "bike_id": "23d5e747c776b1a037bb026a061df38b", "name": "23d5e747c776b1a037bb026a061df38b", "lon": -77.09290633333333}, {"lat": 38.89226, "is_disabled": 0, "type": "electric_scooter", "fusion_lon": 0.0, "rental_uris": {"android": "https://dc.lft.to/lastmile_qr_scan", "ios": "https://dc.lft.to/lastmile_qr_scan"}, "fusion_lat": 0.0, "is_reserved": 0, "bike_id": "a86d3698814614b6e4c8c00459dfbb55", "name": "a86d3698814614b6e4c8c00459dfbb55", "lon": -77.0437595}, {"lat": 38.899249, "is_disabled": 0, "type": "electric_scooter", "fusion_lon": 0.0, "rental_uris": {"android": "https://dc.lft.to/lastmile_qr_scan", "ios": "https://dc.lft.to/lastmile_qr_scan"}, "fusion_lat": 0.0, "is_reserved": 0, "bike_id": "0f99135cfbe2fee41f347dd7912de9d7", "name": "0f99135cfbe2fee41f347dd7912de9d7", "lon": -76.98265483333333}, {"lat": 38.90076966666667, "is_disabled": 0, "type": "electric_scooter", "fusion_lon": 0.0, "rental_uris": {"android": "https://dc.lft.to/lastmile_qr_scan", "ios": "https://dc.lft.to/lastmile_qr_scan"}, "fusion_lat": 0.0, "is_reserved": 0, "bike_id": "780af9dd66d208ea3ebd50ca5b519e3e", "name": "780af9dd66d208ea3ebd50ca5b519e3e", "lon": -77.04911716666666}, {"lat": 38.92945066666667, "is_disabled": 0, "type": "electric_scooter", "fusion_lon": 0.0, "rental_uris": {"android": "https://dc.lft.to/lastmile_qr_scan", "ios": "https://dc.lft.to/lastmile_qr_scan"}, "fusion_lat": 0.0, "is_reserved": 0, "bike_id": "03db18245d3589a73086124b10cf2de7", "name": "03db18245d3589a73086124b10cf2de7", "lon": -77.01643066666666}, {"lat": 38.9322695, "is_disabled": 0, "type": "electric_scooter", "fusion_lon": 0.0, "rental_uris": {"android": "https://dc.lft.to/lastmile_qr_scan", "ios": "https://dc.lft.to/lastmile_qr_scan"}, "fusion_lat": 0.0, "is_reserved": 0, "bike_id": "7bb7175ec1ebee66e871666bb01bb4da", "name": "7bb7175ec1ebee66e871666bb01bb4da", "lon": -77.028488}, {"lat": 38.807629166666665, "is_disabled": 0, "type": "electric_bike", "fusion_lon": 0.0, "rental_uris": {"android": "https://dc.lft.to/lastmile_qr_scan", "ios": "https://dc.lft.to/lastmile_qr_scan"}, "fusion_lat": 0.0, "is_reserved": 0, "bike_id": "233a1facd6b19d0e2bfac68a27be9324", "name": "233a1facd6b19d0e2bfac68a27be9324", "lon": -77.09460383333334}, {"lat": 38.935552, "is_disabled": 0, "type": "electric_scooter", "fusion_lon": 0.0, "rental_uris": {"android": "https://dc.lft.to/lastmile_qr_scan", "ios": "https://dc.lft.to/lastmile_qr_scan"}, "fusion_lat": 0.0, "is_reserved": 0, "bike_id": "8eb382a07e2d91221be6833aba8cd52d", "name": "8eb382a07e2d91221be6833aba8cd52d", "lon": -77.022188}, {"lat": 38.910757833333335, "is_disabled": 0, "type": "electric_scooter", "fusion_lon": 0.0, "rental_uris": {"android": "https://dc.lft.to/lastmile_qr_scan", "ios": "https://dc.lft.to/lastmile_qr_scan"}, "fusion_lat": 0.0, "is_reserved": 0, "bike_id": "a34417cbb1ed6bb18d547af66aafdf4a", "name": "a34417cbb1ed6bb18d547af66aafdf4a", "lon": -77.03461133333333}, {"lat": 38.86435516666667, "is_disabled": 0, "type": "electric_scooter", "fusion_lon": 0.0, "rental_uris": {"android": "https://dc.lft.to/lastmile_qr_scan", "ios": "https://dc.lft.to/lastmile_qr_scan"}, "fusion_lat": 0.0, "is_reserved": 0, "bike_id": "f900d1dfbae4377b787939197762c897", "name": "f900d1dfbae4377b787939197762c897", "lon": -76.97435033333333}, {"lat": 38.884229, "is_disabled": 0, "type": "electric_scooter", "fusion_lon": 0.0, "rental_uris": {"android": "https://dc.lft.to/lastmile_qr_scan", "ios": "https://dc.lft.to/lastmile_qr_scan"}, "fusion_lat": 0.0, "is_reserved": 0, "bike_id": "60a7c175a20048f3ca12869c29369365", "name": "60a7c175a20048f3ca12869c29369365", "lon": -77.0258345}, {"lat": 38.92267983333333, "is_disabled": 0, "type": "electric_scooter", "fusion_lon": 0.0, "rental_uris": {"android": "https://dc.lft.to/lastmile_qr_scan", "ios": "https://dc.lft.to/lastmile_qr_scan"}, "fusion_lat": 0.0, "is_reserved": 0, "bike_id": "f8bace50b8e450c475157252894c5eae", "name": "f8bace50b8e450c475157252894c5eae", "lon": -77.03412033333333}, {"lat": 38.8876, "is_disabled": 0, "type": "electric_scooter", "fusion_lon": 0.0, "rental_uris": {"android": "https://dc.lft.to/lastmile_qr_scan", "ios": "https://dc.lft.to/lastmile_qr_scan"}, "fusion_lat": 0.0, "is_reserved": 0, "bike_id": "1da3045a8f9f5eb181c0cc8f9f4f9412", "name": "1da3045a8f9f5eb181c0cc8f9f4f9412", "lon": -76.97933983333333}, {"lat": 38.90827783333334, "is_disabled": 0, "type": "electric_scooter", "fusion_lon": 0.0, "rental_uris": {"android": "https://dc.lft.to/lastmile_qr_scan", "ios": "https://dc.lft.to/lastmile_qr_scan"}, "fusion_lat": 0.0, "is_reserved": 0, "bike_id": "93003c2f31306f7c59469eedab2ac199", "name": "93003c2f31306f7c59469eedab2ac199", "lon": -77.03213816666667}, {"lat": 38.91336016666666, "is_disabled": 0, "type": "electric_scooter", "fusion_lon": 0.0, "rental_uris": {"android": "https://dc.lft.to/lastmile_qr_scan", "ios": "https://dc.lft.to/lastmile_qr_scan"}, "fusion_lat": 0.0, "is_reserved": 0, "bike_id": "d7574db93f00bd3b0cb0b6d7a321f306", "name": "d7574db93f00bd3b0cb0b6d7a321f306", "lon": -77.04569516666666}, {"lat": 38.91179133333333, "is_disabled": 0, "type": "electric_scooter", "fusion_lon": 0.0, "rental_uris": {"android": "https://dc.lft.to/lastmile_qr_scan", "ios": "https://dc.lft.to/lastmile_qr_scan"}, "fusion_lat": 0.0, "is_reserved": 0, "bike_id": "9d7909d5d525066f57863ef420ce93d8", "name": "9d7909d5d525066f57863ef420ce93d8", "lon": -77.04163233333334}, {"lat": 38.9677945, "is_disabled": 0, "type": "electric_scooter", "fusion_lon": 0.0, "rental_uris": {"android": "https://dc.lft.to/lastmile_qr_scan", "ios": "https://dc.lft.to/lastmile_qr_scan"}, "fusion_lat": 0.0, "is_reserved": 0, "bike_id": "3b83d6002817c6dbb53124c71a3042c9", "name": "3b83d6002817c6dbb53124c71a3042c9", "lon": -77.015178}, {"lat": 38.90255966666667, "is_disabled": 0, "type": "electric_scooter", "fusion_lon": 0.0, "rental_uris": {"android": "https://dc.lft.to/lastmile_qr_scan", "ios": "https://dc.lft.to/lastmile_qr_scan"}, "fusion_lat": 0.0, "is_reserved": 0, "bike_id": "4282461124bb257642a28f885821e262", "name": "4282461124bb257642a28f885821e262", "lon": -77.00736366666666}, {"lat": 38.919085833333334, "is_disabled": 0, "type": "electric_scooter", "fusion_lon": 0.0, "rental_uris": {"android": "https://dc.lft.to/lastmile_qr_scan", "ios": "https://dc.lft.to/lastmile_qr_scan"}, "fusion_lat": 0.0, "is_reserved": 0, "bike_id": "7f1a1e9a280e823405e7c337426e779e", "name": "7f1a1e9a280e823405e7c337426e779e", "lon": -77.034491}, {"lat": 38.90391533333333, "is_disabled": 0, "type": "electric_scooter", "fusion_lon": 0.0, "rental_uris": {"android": "https://dc.lft.to/lastmile_qr_scan", "ios": "https://dc.lft.to/lastmile_qr_scan"}, "fusion_lat": 0.0, "is_reserved": 0, "bike_id": "7da9eeca084903e4f8e2a8a10d02e3c5", "name": "7da9eeca084903e4f8e2a8a10d02e3c5", "lon": -77.0444735}, {"lat": 38.90566783333333, "is_disabled": 0, "type": "electric_scooter", "fusion_lon": 0.0, "rental_uris": {"android": "https://dc.lft.to/lastmile_qr_scan", "ios": "https://dc.lft.to/lastmile_qr_scan"}, "fusion_lat": 0.0, "is_reserved": 0, "bike_id": "1df307fecea3b30c9adceef1d81cab0a", "name": "1df307fecea3b30c9adceef1d81cab0a", "lon": -77.033777}, {"lat": 38.902718666666665, "is_disabled": 0, "type": "electric_scooter", "fusion_lon": 0.0, "rental_uris": {"android": "https://dc.lft.to/lastmile_qr_scan", "ios": "https://dc.lft.to/lastmile_qr_scan"}, "fusion_lat": 0.0, "is_reserved": 0, "bike_id": "65a0ab00c397d563dbfa1349316884b3", "name": "65a0ab00c397d563dbfa1349316884b3", "lon": -77.03475616666667}, {"lat": 38.89754283333333, "is_disabled": 0, "type": "electric_scooter", "fusion_lon": 0.0, "rental_uris": {"android": "https://dc.lft.to/lastmile_qr_scan", "ios": "https://dc.lft.to/lastmile_qr_scan"}, "fusion_lat": 0.0, "is_reserved": 0, "bike_id": "8149025211b8f2aea2a2311f3ab9135a", "name": "8149025211b8f2aea2a2311f3ab9135a", "lon": -77.03333716666667}, {"lat": 38.958719, "is_disabled": 0, "type": "electric_bike", "fusion_lon": 0.0, "rental_uris": {"android": "https://dc.lft.to/lastmile_qr_scan", "ios": "https://dc.lft.to/lastmile_qr_scan"}, "fusion_lat": 0.0, "is_reserved": 0, "bike_id": "80d8b49aaf4e73b6db1aa70d9df489c8", "name": "80d8b49aaf4e73b6db1aa70d9df489c8", "lon": -77.0013715}, {"lat": 38.923661333333335, "is_disabled": 0, "type": "electric_scooter", "fusion_lon": 0.0, "rental_uris": {"android": "https://dc.lft.to/lastmile_qr_scan", "ios": "https://dc.lft.to/lastmile_qr_scan"}, "fusion_lat": 0.0, "is_reserved": 0, "bike_id": "dbcaa63b7d80e11e9451cf4e36d6269c", "name": "dbcaa63b7d80e11e9451cf4e36d6269c", "lon": -77.05049433333333}, {"lat": 38.90609033333333, "is_disabled": 0, "type": "electric_scooter", "fusion_lon": 0.0, "rental_uris": {"android": "https://dc.lft.to/lastmile_qr_scan", "ios": "https://dc.lft.to/lastmile_qr_scan"}, "fusion_lat": 0.0, "is_reserved": 0, "bike_id": "722f802cb0d4716a1e021dd9582a2425", "name": "722f802cb0d4716a1e021dd9582a2425", "lon": -77.0213475}, {"lat": 38.9095525, "is_disabled": 0, "type": "electric_scooter", "fusion_lon": 0.0, "rental_uris": {"android": "https://dc.lft.to/lastmile_qr_scan", "ios": "https://dc.lft.to/lastmile_qr_scan"}, "fusion_lat": 0.0, "is_reserved": 0, "bike_id": "aaa2da714cb138963208d3d8d042a057", "name": "aaa2da714cb138963208d3d8d042a057", "lon": -77.04867766666666}, {"lat": 38.927957, "is_disabled": 0, "type": "electric_scooter", "fusion_lon": 0.0, "rental_uris": {"android": "https://dc.lft.to/lastmile_qr_scan", "ios": "https://dc.lft.to/lastmile_qr_scan"}, "fusion_lat": 0.0, "is_reserved": 0, "bike_id": "79017e397f9ec5e55db3ec2aa01bd7d9", "name": "79017e397f9ec5e55db3ec2aa01bd7d9", "lon": -77.04356333333334}, {"lat": 38.892295833333336, "is_disabled": 0, "type": "electric_scooter", "fusion_lon": 0.0, "rental_uris": {"android": "https://dc.lft.to/lastmile_qr_scan", "ios": "https://dc.lft.to/lastmile_qr_scan"}, "fusion_lat": 0.0, "is_reserved": 0, "bike_id": "a1fc7c4e92df752f865497b747b02d26", "name": "a1fc7c4e92df752f865497b747b02d26", "lon": -77.04368066666666}, {"lat": 38.919225833333336, "is_disabled": 0, "type": "electric_scooter", "fusion_lon": 0.0, "rental_uris": {"android": "https://dc.lft.to/lastmile_qr_scan", "ios": "https://dc.lft.to/lastmile_qr_scan"}, "fusion_lat": 0.0, "is_reserved": 0, "bike_id": "9d6025cf63dd2eaa2232e76bfa3c2efa", "name": "9d6025cf63dd2eaa2232e76bfa3c2efa", "lon": -77.0314605}, {"lat": 38.9183035, "is_disabled": 0, "type": "electric_scooter", "fusion_lon": 0.0, "rental_uris": {"android": "https://dc.lft.to/lastmile_qr_scan", "ios": "https://dc.lft.to/lastmile_qr_scan"}, "fusion_lat": 0.0, "is_reserved": 0, "bike_id": "fbc8fc34534c15e7c0fef9354f8e23b6", "name": "fbc8fc34534c15e7c0fef9354f8e23b6", "lon": -77.03952483333333}, {"lat": 38.827870833333336, "is_disabled": 0, "type": "electric_bike", "fusion_lon": 0.0, "rental_uris": {"android": "https://dc.lft.to/lastmile_qr_scan", "ios": "https://dc.lft.to/lastmile_qr_scan"}, "fusion_lat": 0.0, "is_reserved": 0, "bike_id": "4e0a77ec13883962e2edc55df753f588", "name": "4e0a77ec13883962e2edc55df753f588", "lon": -77.009153}, {"lat": 38.9151885, "is_disabled": 0, "type": "electric_scooter", "fusion_lon": 0.0, "rental_uris": {"android": "https://dc.lft.to/lastmile_qr_scan", "ios": "https://dc.lft.to/lastmile_qr_scan"}, "fusion_lat": 0.0, "is_reserved": 0, "bike_id": "a1144ad7ddc9108e922880b93e3418de", "name": "a1144ad7ddc9108e922880b93e3418de", "lon": -77.01325066666666}, {"lat": 38.927479, "is_disabled": 0, "type": "electric_scooter", "fusion_lon": 0.0, "rental_uris": {"android": "https://dc.lft.to/lastmile_qr_scan", "ios": "https://dc.lft.to/lastmile_qr_scan"}, "fusion_lat": 0.0, "is_reserved": 0, "bike_id": "5f29a06fb0400e6a22b759bd60a963e0", "name": "5f29a06fb0400e6a22b759bd60a963e0", "lon": -77.02147833333333}, {"lat": 38.91168183333333, "is_disabled": 0, "type": "electric_scooter", "fusion_lon": 0.0, "rental_uris": {"android": "https://dc.lft.to/lastmile_qr_scan", "ios": "https://dc.lft.to/lastmile_qr_scan"}, "fusion_lat": 0.0, "is_reserved": 0, "bike_id": "9f241f0df142275dfabcd585e4ab2d0b", "name": "9f241f0df142275dfabcd585e4ab2d0b", "lon": -77.00452016666667}, {"lat": 38.92404033333333, "is_disabled": 0, "type": "electric_scooter", "fusion_lon": 0.0, "rental_uris": {"android": "https://dc.lft.to/lastmile_qr_scan", "ios": "https://dc.lft.to/lastmile_qr_scan"}, "fusion_lat": 0.0, "is_reserved": 0, "bike_id": "775255348af00256821066e99a6dda2e", "name": "775255348af00256821066e99a6dda2e", "lon": -77.0212085}, {"lat": 38.923330666666665, "is_disabled": 0, "type": "electric_scooter", "fusion_lon": 0.0, "rental_uris": {"android": "https://dc.lft.to/lastmile_qr_scan", "ios": "https://dc.lft.to/lastmile_qr_scan"}, "fusion_lat": 0.0, "is_reserved": 0, "bike_id": "17ef31e3f8ed4f81cc76b92353c52922", "name": "17ef31e3f8ed4f81cc76b92353c52922", "lon": -77.04310616666666}, {"lat": 38.914031666666666, "is_disabled": 0, "type": "electric_scooter", "fusion_lon": 0.0, "rental_uris": {"android": "https://dc.lft.to/lastmile_qr_scan", "ios": "https://dc.lft.to/lastmile_qr_scan"}, "fusion_lat": 0.0, "is_reserved": 0, "bike_id": "bf1a429570665116ef529b2a4a75ac94", "name": "bf1a429570665116ef529b2a4a75ac94", "lon": -77.03228133333333}, {"lat": 38.92663066666667, "is_disabled": 0, "type": "electric_scooter", "fusion_lon": 0.0, "rental_uris": {"android": "https://dc.lft.to/lastmile_qr_scan", "ios": "https://dc.lft.to/lastmile_qr_scan"}, "fusion_lat": 0.0, "is_reserved": 0, "bike_id": "63c39a027a6f88335b953b91df39c681", "name": "63c39a027a6f88335b953b91df39c681", "lon": -77.01519266666666}, {"lat": 38.910645833333334, "is_disabled": 0, "type": "electric_scooter", "fusion_lon": 0.0, "rental_uris": {"android": "https://dc.lft.to/lastmile_qr_scan", "ios": "https://dc.lft.to/lastmile_qr_scan"}, "fusion_lat": 0.0, "is_reserved": 0, "bike_id": "0e926a9bc48f655fdfc4bd587167670f", "name": "0e926a9bc48f655fdfc4bd587167670f", "lon": -77.053148}, {"lat": 38.8294715, "is_disabled": 0, "type": "electric_bike", "fusion_lon": 0.0, "rental_uris": {"android": "https://dc.lft.to/lastmile_qr_scan", "ios": "https://dc.lft.to/lastmile_qr_scan"}, "fusion_lat": 0.0, "is_reserved": 0, "bike_id": "a13a5cd61db65cb72e983ec69d837270", "name": "a13a5cd61db65cb72e983ec69d837270", "lon": -77.12352816666667}, {"lat": 38.93143233333333, "is_disabled": 0, "type": "electric_scooter", "fusion_lon": 0.0, "rental_uris": {"android": "https://dc.lft.to/lastmile_qr_scan", "ios": "https://dc.lft.to/lastmile_qr_scan"}, "fusion_lat": 0.0, "is_reserved": 0, "bike_id": "e26987d8db6f01c6333f3fb5c8c0f6f2", "name": "e26987d8db6f01c6333f3fb5c8c0f6f2", "lon": -77.029879}, {"lat": 38.900094833333334, "is_disabled": 0, "type": "electric_scooter", "fusion_lon": 0.0, "rental_uris": {"android": "https://dc.lft.to/lastmile_qr_scan", "ios": "https://dc.lft.to/lastmile_qr_scan"}, "fusion_lat": 0.0, "is_reserved": 0, "bike_id": "d3f9b39b8161f620c017ecae1ce81d61", "name": "d3f9b39b8161f620c017ecae1ce81d61", "lon": -77.03957033333333}, {"lat": 38.917088, "is_disabled": 0, "type": "electric_scooter", "fusion_lon": 0.0, "rental_uris": {"android": "https://dc.lft.to/lastmile_qr_scan", "ios": "https://dc.lft.to/lastmile_qr_scan"}, "fusion_lat": 0.0, "is_reserved": 0, "bike_id": "8a5fca84fc076ccb42551bc36311f876", "name": "8a5fca84fc076ccb42551bc36311f876", "lon": -77.04124233333333}, {"lat": 38.8723005, "is_disabled": 0, "type": "electric_scooter", "fusion_lon": 0.0, "rental_uris": {"android": "https://dc.lft.to/lastmile_qr_scan", "ios": "https://dc.lft.to/lastmile_qr_scan"}, "fusion_lat": 0.0, "is_reserved": 0, "bike_id": "bed88f7bf9e1282437448e0ce7a6568d", "name": "bed88f7bf9e1282437448e0ce7a6568d", "lon": -77.00994066666667}, {"lat": 38.8668805, "is_disabled": 0, "type": "electric_scooter", "fusion_lon": 0.0, "rental_uris": {"android": "https://dc.lft.to/lastmile_qr_scan", "ios": "https://dc.lft.to/lastmile_qr_scan"}, "fusion_lat": 0.0, "is_reserved": 0, "bike_id": "6a79ceae25d4482f840b0c54edf547c9", "name": "6a79ceae25d4482f840b0c54edf547c9", "lon": -76.98595}, {"lat": 38.89739333333333, "is_disabled": 0, "type": "electric_scooter", "fusion_lon": 0.0, "rental_uris": {"android": "https://dc.lft.to/lastmile_qr_scan", "ios": "https://dc.lft.to/lastmile_qr_scan"}, "fusion_lat": 0.0, "is_reserved": 0, "bike_id": "52898a22c92995a72c4272c0d966afaf", "name": "52898a22c92995a72c4272c0d966afaf", "lon": -77.01314666666667}, {"lat": 38.888298666666664, "is_disabled": 0, "type": "electric_scooter", "fusion_lon": 0.0, "rental_uris": {"android": "https://dc.lft.to/lastmile_qr_scan", "ios": "https://dc.lft.to/lastmile_qr_scan"}, "fusion_lat": 0.0, "is_reserved": 0, "bike_id": "dd318b78110d8bb709ef6f43ebea4a8d", "name": "dd318b78110d8bb709ef6f43ebea4a8d", "lon": -76.99369083333333}, {"lat": 38.92744716666667, "is_disabled": 0, "type": "electric_scooter", "fusion_lon": 0.0, "rental_uris": {"android": "https://dc.lft.to/lastmile_qr_scan", "ios": "https://dc.lft.to/lastmile_qr_scan"}, "fusion_lat": 0.0, "is_reserved": 0, "bike_id": "6bb00132ef0df863d6ec9da0daebbf42", "name": "6bb00132ef0df863d6ec9da0daebbf42", "lon": -77.025277}, {"lat": 38.922272166666666, "is_disabled": 0, "type": "electric_scooter", "fusion_lon": 0.0, "rental_uris": {"android": "https://dc.lft.to/lastmile_qr_scan", "ios": "https://dc.lft.to/lastmile_qr_scan"}, "fusion_lat": 0.0, "is_reserved": 0, "bike_id": "41d49b32aded6d852076ce736ad51b4d", "name": "41d49b32aded6d852076ce736ad51b4d", "lon": -77.04239933333334}, {"lat": 38.93054333333333, "is_disabled": 0, "type": "electric_scooter", "fusion_lon": 0.0, "rental_uris": {"android": "https://dc.lft.to/lastmile_qr_scan", "ios": "https://dc.lft.to/lastmile_qr_scan"}, "fusion_lat": 0.0, "is_reserved": 0, "bike_id": "02cc717c8b326de9ac5173d0e8232a42", "name": "02cc717c8b326de9ac5173d0e8232a42", "lon": -77.0585365}, {"lat": 38.923727, "is_disabled": 0, "type": "electric_scooter", "fusion_lon": 0.0, "rental_uris": {"android": "https://dc.lft.to/lastmile_qr_scan", "ios": "https://dc.lft.to/lastmile_qr_scan"}, "fusion_lat": 0.0, "is_reserved": 0, "bike_id": "c1c92445c3f77046832e01fc9c1de047", "name": "c1c92445c3f77046832e01fc9c1de047", "lon": -77.027993}, {"lat": 38.962174, "is_disabled": 0, "type": "electric_bike", "fusion_lon": 0.0, "rental_uris": {"android": "https://dc.lft.to/lastmile_qr_scan", "ios": "https://dc.lft.to/lastmile_qr_scan"}, "fusion_lat": 0.0, "is_reserved": 0, "bike_id": "1fe21d1daff9e46dccb86859e42f1a9c", "name": "1fe21d1daff9e46dccb86859e42f1a9c", "lon": -77.0263185}, {"lat": 38.885161833333335, "is_disabled": 0, "type": "electric_scooter", "fusion_lon": 0.0, "rental_uris": {"android": "https://dc.lft.to/lastmile_qr_scan", "ios": "https://dc.lft.to/lastmile_qr_scan"}, "fusion_lat": 0.0, "is_reserved": 0, "bike_id": "5fe27e943fbff8f22f054e904039f999", "name": "5fe27e943fbff8f22f054e904039f999", "lon": -76.99763316666667}, {"lat": 38.908743666666666, "is_disabled": 0, "type": "electric_scooter", "fusion_lon": 0.0, "rental_uris": {"android": "https://dc.lft.to/lastmile_qr_scan", "ios": "https://dc.lft.to/lastmile_qr_scan"}, "fusion_lat": 0.0, "is_reserved": 0, "bike_id": "812ed712b4332d3f8d452c335943f0a3", "name": "812ed712b4332d3f8d452c335943f0a3", "lon": -77.02283933333334}, {"lat": 38.933994166666665, "is_disabled": 0, "type": "electric_scooter", "fusion_lon": 0.0, "rental_uris": {"android": "https://dc.lft.to/lastmile_qr_scan", "ios": "https://dc.lft.to/lastmile_qr_scan"}, "fusion_lat": 0.0, "is_reserved": 0, "bike_id": "4973961d3dfe54975c34d5d8a6d78ddc", "name": "4973961d3dfe54975c34d5d8a6d78ddc", "lon": -77.07248}, {"lat": 38.919187, "is_disabled": 0, "type": "electric_scooter", "fusion_lon": 0.0, "rental_uris": {"android": "https://dc.lft.to/lastmile_qr_scan", "ios": "https://dc.lft.to/lastmile_qr_scan"}, "fusion_lat": 0.0, "is_reserved": 0, "bike_id": "2968bf9154fc17b1cfe67d87339f4717", "name": "2968bf9154fc17b1cfe67d87339f4717", "lon": -77.031461}, {"lat": 38.924366166666665, "is_disabled": 0, "type": "electric_scooter", "fusion_lon": 0.0, "rental_uris": {"android": "https://dc.lft.to/lastmile_qr_scan", "ios": "https://dc.lft.to/lastmile_qr_scan"}, "fusion_lat": 0.0, "is_reserved": 0, "bike_id": "ed418b857c8c0aff09e7a388280ae58b", "name": "ed418b857c8c0aff09e7a388280ae58b", "lon": -77.03402683333333}, {"lat": 38.92188816666667, "is_disabled": 0, "type": "electric_scooter", "fusion_lon": 0.0, "rental_uris": {"android": "https://dc.lft.to/lastmile_qr_scan", "ios": "https://dc.lft.to/lastmile_qr_scan"}, "fusion_lat": 0.0, "is_reserved": 0, "bike_id": "8a2ccfe6453b28a98dcc84b1e4c10a7f", "name": "8a2ccfe6453b28a98dcc84b1e4c10a7f", "lon": -77.043319}, {"lat": 38.901306166666664, "is_disabled": 0, "type": "electric_scooter", "fusion_lon": 0.0, "rental_uris": {"android": "https://dc.lft.to/lastmile_qr_scan", "ios": "https://dc.lft.to/lastmile_qr_scan"}, "fusion_lat": 0.0, "is_reserved": 0, "bike_id": "cd46e50aa6b211a7bea6b2911c9721e3", "name": "cd46e50aa6b211a7bea6b2911c9721e3", "lon": -77.01646533333333}, {"lat": 38.90015016666667, "is_disabled": 0, "type": "electric_scooter", "fusion_lon": 0.0, "rental_uris": {"android": "https://dc.lft.to/lastmile_qr_scan", "ios": "https://dc.lft.to/lastmile_qr_scan"}, "fusion_lat": 0.0, "is_reserved": 0, "bike_id": "42c918f14301e6110443ea60dba25b83", "name": "42c918f14301e6110443ea60dba25b83", "lon": -76.93029516666667}, {"lat": 38.90479083333334, "is_disabled": 0, "type": "electric_bike", "fusion_lon": 0.0, "rental_uris": {"android": "https://dc.lft.to/lastmile_qr_scan", "ios": "https://dc.lft.to/lastmile_qr_scan"}, "fusion_lat": 0.0, "is_reserved": 0, "bike_id": "5595ac966e7f047d2da0c9b734e7d94a", "name": "5595ac966e7f047d2da0c9b734e7d94a", "lon": -76.97336316666667}, {"lat": 38.916668666666666, "is_disabled": 0, "type": "electric_scooter", "fusion_lon": 0.0, "rental_uris": {"android": "https://dc.lft.to/lastmile_qr_scan", "ios": "https://dc.lft.to/lastmile_qr_scan"}, "fusion_lat": 0.0, "is_reserved": 0, "bike_id": "04def3800814899a01004339fc158807", "name": "04def3800814899a01004339fc158807", "lon": -77.043719}, {"lat": 38.86698066666666, "is_disabled": 0, "type": "electric_scooter", "fusion_lon": 0.0, "rental_uris": {"android": "https://dc.lft.to/lastmile_qr_scan", "ios": "https://dc.lft.to/lastmile_qr_scan"}, "fusion_lat": 0.0, "is_reserved": 0, "bike_id": "bff2756bbc4b6c5ea047babeb4adccad", "name": "bff2756bbc4b6c5ea047babeb4adccad", "lon": -76.985945}, {"lat": 38.9248655, "is_disabled": 0, "type": "electric_scooter", "fusion_lon": 0.0, "rental_uris": {"android": "https://dc.lft.to/lastmile_qr_scan", "ios": "https://dc.lft.to/lastmile_qr_scan"}, "fusion_lat": 0.0, "is_reserved": 0, "bike_id": "66b95e091d8660a2fc9db5f2a209ab4b", "name": "66b95e091d8660a2fc9db5f2a209ab4b", "lon": -77.021413}, {"lat": 38.93096883333333, "is_disabled": 0, "type": "electric_scooter", "fusion_lon": 0.0, "rental_uris": {"android": "https://dc.lft.to/lastmile_qr_scan", "ios": "https://dc.lft.to/lastmile_qr_scan"}, "fusion_lat": 0.0, "is_reserved": 0, "bike_id": "e134a7e2e7c29059ea971dd98aba8ed6", "name": "e134a7e2e7c29059ea971dd98aba8ed6", "lon": -77.034388}, {"lat": 38.925375833333334, "is_disabled": 0, "type": "electric_scooter", "fusion_lon": 0.0, "rental_uris": {"android": "https://dc.lft.to/lastmile_qr_scan", "ios": "https://dc.lft.to/lastmile_qr_scan"}, "fusion_lat": 0.0, "is_reserved": 0, "bike_id": "fe6ff853628e63306505b4a902e76364", "name": "fe6ff853628e63306505b4a902e76364", "lon": -76.97226316666666}, {"lat": 38.8922725, "is_disabled": 0, "type": "electric_scooter", "fusion_lon": 0.0, "rental_uris": {"android": "https://dc.lft.to/lastmile_qr_scan", "ios": "https://dc.lft.to/lastmile_qr_scan"}, "fusion_lat": 0.0, "is_reserved": 0, "bike_id": "5b5b1b44c6fdf717b917c45958812b69", "name": "5b5b1b44c6fdf717b917c45958812b69", "lon": -77.04333383333334}, {"lat": 38.92879083333333, "is_disabled": 0, "type": "electric_scooter", "fusion_lon": 0.0, "rental_uris": {"android": "https://dc.lft.to/lastmile_qr_scan", "ios": "https://dc.lft.to/lastmile_qr_scan"}, "fusion_lat": 0.0, "is_reserved": 0, "bike_id": "2a05416dc6ccb23d1a299cdf58f8f370", "name": "2a05416dc6ccb23d1a299cdf58f8f370", "lon": -77.03731883333333}, {"lat": 38.90712466666667, "is_disabled": 0, "type": "electric_scooter", "fusion_lon": 0.0, "rental_uris": {"android": "https://dc.lft.to/lastmile_qr_scan", "ios": "https://dc.lft.to/lastmile_qr_scan"}, "fusion_lat": 0.0, "is_reserved": 0, "bike_id": "27682cdfc4ec1de8638f67df48f483c9", "name": "27682cdfc4ec1de8638f67df48f483c9", "lon": -77.02707333333333}, {"lat": 38.866594166666665, "is_disabled": 0, "type": "electric_scooter", "fusion_lon": 0.0, "rental_uris": {"android": "https://dc.lft.to/lastmile_qr_scan", "ios": "https://dc.lft.to/lastmile_qr_scan"}, "fusion_lat": 0.0, "is_reserved": 0, "bike_id": "236f12a9d2b3c57b9537e487281a34be", "name": "236f12a9d2b3c57b9537e487281a34be", "lon": -76.98529333333333}, {"lat": 38.9223675, "is_disabled": 0, "type": "electric_scooter", "fusion_lon": 0.0, "rental_uris": {"android": "https://dc.lft.to/lastmile_qr_scan", "ios": "https://dc.lft.to/lastmile_qr_scan"}, "fusion_lat": 0.0, "is_reserved": 0, "bike_id": "291d4fd20cdc2329c3b64862999bd94f", "name": "291d4fd20cdc2329c3b64862999bd94f", "lon": -77.04255383333333}, {"lat": 38.8461145, "is_disabled": 0, "type": "electric_bike", "fusion_lon": 0.0, "rental_uris": {"android": "https://dc.lft.to/lastmile_qr_scan", "ios": "https://dc.lft.to/lastmile_qr_scan"}, "fusion_lat": 0.0, "is_reserved": 0, "bike_id": "afdfba5905bf789dbd097d9a69efbd15", "name": "afdfba5905bf789dbd097d9a69efbd15", "lon": -77.08969116666667}, {"lat": 38.930088166666664, "is_disabled": 0, "type": "electric_scooter", "fusion_lon": 0.0, "rental_uris": {"android": "https://dc.lft.to/lastmile_qr_scan", "ios": "https://dc.lft.to/lastmile_qr_scan"}, "fusion_lat": 0.0, "is_reserved": 0, "bike_id": "31ceae17070d8af0af820d95696670c3", "name": "31ceae17070d8af0af820d95696670c3", "lon": -77.055221}, {"lat": 38.99343283333333, "is_disabled": 0, "type": "electric_bike", "fusion_lon": 0.0, "rental_uris": {"android": "https://dc.lft.to/lastmile_qr_scan", "ios": "https://dc.lft.to/lastmile_qr_scan"}, "fusion_lat": 0.0, "is_reserved": 0, "bike_id": "5a1cad8cb9628c0de66b4379bf9e8fc6", "name": "5a1cad8cb9628c0de66b4379bf9e8fc6", "lon": -77.1157985}, {"lat": 38.92781383333333, "is_disabled": 0, "type": "electric_scooter", "fusion_lon": 0.0, "rental_uris": {"android": "https://dc.lft.to/lastmile_qr_scan", "ios": "https://dc.lft.to/lastmile_qr_scan"}, "fusion_lat": 0.0, "is_reserved": 0, "bike_id": "faa7c84d7e95aacd1f1beaca55bc57b5", "name": "faa7c84d7e95aacd1f1beaca55bc57b5", "lon": -77.03702316666667}, {"lat": 38.921510833333336, "is_disabled": 0, "type": "electric_scooter", "fusion_lon": 0.0, "rental_uris": {"android": "https://dc.lft.to/lastmile_qr_scan", "ios": "https://dc.lft.to/lastmile_qr_scan"}, "fusion_lat": 0.0, "is_reserved": 0, "bike_id": "329459480298ce48ca5bacb1299fdf78", "name": "329459480298ce48ca5bacb1299fdf78", "lon": -77.03870083333334}, {"lat": 38.89230116666667, "is_disabled": 0, "type": "electric_scooter", "fusion_lon": 0.0, "rental_uris": {"android": "https://dc.lft.to/lastmile_qr_scan", "ios": "https://dc.lft.to/lastmile_qr_scan"}, "fusion_lat": 0.0, "is_reserved": 0, "bike_id": "6b1f13c470ae403695baa192cf1bb244", "name": "6b1f13c470ae403695baa192cf1bb244", "lon": -77.01981266666667}, {"lat": 38.901488, "is_disabled": 0, "type": "electric_scooter", "fusion_lon": 0.0, "rental_uris": {"android": "https://dc.lft.to/lastmile_qr_scan", "ios": "https://dc.lft.to/lastmile_qr_scan"}, "fusion_lat": 0.0, "is_reserved": 0, "bike_id": "a1e2f5857ea1ad4d4a860600400f40a0", "name": "a1e2f5857ea1ad4d4a860600400f40a0", "lon": -77.04390116666667}, {"lat": 38.938787166666664, "is_disabled": 0, "type": "electric_scooter", "fusion_lon": 0.0, "rental_uris": {"android": "https://dc.lft.to/lastmile_qr_scan", "ios": "https://dc.lft.to/lastmile_qr_scan"}, "fusion_lat": 0.0, "is_reserved": 0, "bike_id": "acfa135892306740d1cda6f6377d0947", "name": "acfa135892306740d1cda6f6377d0947", "lon": -77.02481316666666}, {"lat": 38.9258315, "is_disabled": 0, "type": "electric_scooter", "fusion_lon": 0.0, "rental_uris": {"android": "https://dc.lft.to/lastmile_qr_scan", "ios": "https://dc.lft.to/lastmile_qr_scan"}, "fusion_lat": 0.0, "is_reserved": 0, "bike_id": "8d8ef2f75bafa72ad5d300d921522138", "name": "8d8ef2f75bafa72ad5d300d921522138", "lon": -77.02870733333333}, {"lat": 38.88506666666667, "is_disabled": 0, "type": "electric_scooter", "fusion_lon": 0.0, "rental_uris": {"android": "https://dc.lft.to/lastmile_qr_scan", "ios": "https://dc.lft.to/lastmile_qr_scan"}, "fusion_lat": 0.0, "is_reserved": 0, "bike_id": "01112739b7d303c58b48852c176fafc9", "name": "01112739b7d303c58b48852c176fafc9", "lon": -77.00566}, {"lat": 38.874723, "is_disabled": 0, "type": "electric_scooter", "fusion_lon": 0.0, "rental_uris": {"android": "https://dc.lft.to/lastmile_qr_scan", "ios": "https://dc.lft.to/lastmile_qr_scan"}, "fusion_lat": 0.0, "is_reserved": 0, "bike_id": "77081e73dc0464b7eb5209ac2450070a", "name": "77081e73dc0464b7eb5209ac2450070a", "lon": -77.0159905}, {"lat": 38.89617283333333, "is_disabled": 0, "type": "electric_bike", "fusion_lon": 0.0, "rental_uris": {"android": "https://dc.lft.to/lastmile_qr_scan", "ios": "https://dc.lft.to/lastmile_qr_scan"}, "fusion_lat": 0.0, "is_reserved": 0, "bike_id": "5c97425a66b42274205110f79525ff02", "name": "5c97425a66b42274205110f79525ff02", "lon": -76.9074685}, {"lat": 38.89782266666667, "is_disabled": 0, "type": "electric_scooter", "fusion_lon": 0.0, "rental_uris": {"android": "https://dc.lft.to/lastmile_qr_scan", "ios": "https://dc.lft.to/lastmile_qr_scan"}, "fusion_lat": 0.0, "is_reserved": 0, "bike_id": "cadbc049de598360e192cbcefb20580a", "name": "cadbc049de598360e192cbcefb20580a", "lon": -77.05472216666666}, {"lat": 38.901659333333335, "is_disabled": 0, "type": "electric_scooter", "fusion_lon": 0.0, "rental_uris": {"android": "https://dc.lft.to/lastmile_qr_scan", "ios": "https://dc.lft.to/lastmile_qr_scan"}, "fusion_lat": 0.0, "is_reserved": 0, "bike_id": "f86222a611e161fff174e4d017b5810d", "name": "f86222a611e161fff174e4d017b5810d", "lon": -77.01604433333334}, {"lat": 38.92065616666667, "is_disabled": 0, "type": "electric_scooter", "fusion_lon": 0.0, "rental_uris": {"android": "https://dc.lft.to/lastmile_qr_scan", "ios": "https://dc.lft.to/lastmile_qr_scan"}, "fusion_lat": 0.0, "is_reserved": 0, "bike_id": "38f1fcfc5b860658d22832195fd991f3", "name": "38f1fcfc5b860658d22832195fd991f3", "lon": -77.02249883333333}, {"lat": 38.90650383333333, "is_disabled": 0, "type": "electric_scooter", "fusion_lon": 0.0, "rental_uris": {"android": "https://dc.lft.to/lastmile_qr_scan", "ios": "https://dc.lft.to/lastmile_qr_scan"}, "fusion_lat": 0.0, "is_reserved": 0, "bike_id": "fb964e6f8d2ebade9748547c35fd99c6", "name": "fb964e6f8d2ebade9748547c35fd99c6", "lon": -77.027037}, {"lat": 38.920614, "is_disabled": 0, "type": "electric_scooter", "fusion_lon": 0.0, "rental_uris": {"android": "https://dc.lft.to/lastmile_qr_scan", "ios": "https://dc.lft.to/lastmile_qr_scan"}, "fusion_lat": 0.0, "is_reserved": 0, "bike_id": "d2c35e3b4a675db9c9f4ef21cd6818e6", "name": "d2c35e3b4a675db9c9f4ef21cd6818e6", "lon": -77.04217966666667}, {"lat": 38.86681433333333, "is_disabled": 0, "type": "electric_scooter", "fusion_lon": 0.0, "rental_uris": {"android": "https://dc.lft.to/lastmile_qr_scan", "ios": "https://dc.lft.to/lastmile_qr_scan"}, "fusion_lat": 0.0, "is_reserved": 0, "bike_id": "c530ed775b6dd60ebda2482e201b8e07", "name": "c530ed775b6dd60ebda2482e201b8e07", "lon": -76.98499216666667}, {"lat": 38.904780833333334, "is_disabled": 0, "type": "electric_scooter", "fusion_lon": 0.0, "rental_uris": {"android": "https://dc.lft.to/lastmile_qr_scan", "ios": "https://dc.lft.to/lastmile_qr_scan"}, "fusion_lat": 0.0, "is_reserved": 0, "bike_id": "36dc324d5ae820dad2e4059f364cc17b", "name": "36dc324d5ae820dad2e4059f364cc17b", "lon": -77.048775}, {"lat": 38.92999666666667, "is_disabled": 0, "type": "electric_scooter", "fusion_lon": 0.0, "rental_uris": {"android": "https://dc.lft.to/lastmile_qr_scan", "ios": "https://dc.lft.to/lastmile_qr_scan"}, "fusion_lat": 0.0, "is_reserved": 0, "bike_id": "6dd5543d6db9c082838b2f90e8226aa8", "name": "6dd5543d6db9c082838b2f90e8226aa8", "lon": -77.01524666666667}, {"lat": 38.964667666666664, "is_disabled": 0, "type": "electric_bike", "fusion_lon": 0.0, "rental_uris": {"android": "https://dc.lft.to/lastmile_qr_scan", "ios": "https://dc.lft.to/lastmile_qr_scan"}, "fusion_lat": 0.0, "is_reserved": 0, "bike_id": "8400807a8deea477046219b2a0c86784", "name": "8400807a8deea477046219b2a0c86784", "lon": -77.03554316666667}, {"lat": 38.800186, "is_disabled": 0, "type": "electric_bike", "fusion_lon": 0.0, "rental_uris": {"android": "https://dc.lft.to/lastmile_qr_scan", "ios": "https://dc.lft.to/lastmile_qr_scan"}, "fusion_lat": 0.0, "is_reserved": 0, "bike_id": "7479ce5ba3a8201eb08b2f4cd6a19ef6", "name": "7479ce5ba3a8201eb08b2f4cd6a19ef6", "lon": -77.05478033333333}, {"lat": 38.89557166666667, "is_disabled": 0, "type": "electric_scooter", "fusion_lon": 0.0, "rental_uris": {"android": "https://dc.lft.to/lastmile_qr_scan", "ios": "https://dc.lft.to/lastmile_qr_scan"}, "fusion_lat": 0.0, "is_reserved": 0, "bike_id": "36caf23246450a5764f9df3fc77d9878", "name": "36caf23246450a5764f9df3fc77d9878", "lon": -77.0467595}, {"lat": 38.922486, "is_disabled": 0, "type": "electric_scooter", "fusion_lon": 0.0, "rental_uris": {"android": "https://dc.lft.to/lastmile_qr_scan", "ios": "https://dc.lft.to/lastmile_qr_scan"}, "fusion_lat": 0.0, "is_reserved": 0, "bike_id": "c3f2c77763065b90e64f45240ff556d7", "name": "c3f2c77763065b90e64f45240ff556d7", "lon": -77.00922116666666}, {"lat": 38.915611, "is_disabled": 0, "type": "electric_scooter", "fusion_lon": 0.0, "rental_uris": {"android": "https://dc.lft.to/lastmile_qr_scan", "ios": "https://dc.lft.to/lastmile_qr_scan"}, "fusion_lat": 0.0, "is_reserved": 0, "bike_id": "472fa29245d8ef6bdad4dcc5e24a243d", "name": "472fa29245d8ef6bdad4dcc5e24a243d", "lon": -77.02583033333333}, {"lat": 38.87314383333333, "is_disabled": 0, "type": "electric_scooter", "fusion_lon": 0.0, "rental_uris": {"android": "https://dc.lft.to/lastmile_qr_scan", "ios": "https://dc.lft.to/lastmile_qr_scan"}, "fusion_lat": 0.0, "is_reserved": 0, "bike_id": "9318a807cf54ec31fbeaf47122b956c0", "name": "9318a807cf54ec31fbeaf47122b956c0", "lon": -77.00632166666666}, {"lat": 38.9135645, "is_disabled": 0, "type": "electric_scooter", "fusion_lon": 0.0, "rental_uris": {"android": "https://dc.lft.to/lastmile_qr_scan", "ios": "https://dc.lft.to/lastmile_qr_scan"}, "fusion_lat": 0.0, "is_reserved": 0, "bike_id": "4ab7c0dcb22706a719b5dc9a956acb4f", "name": "4ab7c0dcb22706a719b5dc9a956acb4f", "lon": -77.06929066666666}, {"lat": 38.906063, "is_disabled": 0, "type": "electric_scooter", "fusion_lon": 0.0, "rental_uris": {"android": "https://dc.lft.to/lastmile_qr_scan", "ios": "https://dc.lft.to/lastmile_qr_scan"}, "fusion_lat": 0.0, "is_reserved": 0, "bike_id": "df52d4062d62d7fc2eb3e4265355ab3c", "name": "df52d4062d62d7fc2eb3e4265355ab3c", "lon": -77.016263}, {"lat": 38.87186366666667, "is_disabled": 0, "type": "electric_scooter", "fusion_lon": 0.0, "rental_uris": {"android": "https://dc.lft.to/lastmile_qr_scan", "ios": "https://dc.lft.to/lastmile_qr_scan"}, "fusion_lat": 0.0, "is_reserved": 0, "bike_id": "fac734eda7d334676c74e4d6dd81b20d", "name": "fac734eda7d334676c74e4d6dd81b20d", "lon": -77.0059985}, {"lat": 38.956327, "is_disabled": 0, "type": "electric_scooter", "fusion_lon": 0.0, "rental_uris": {"android": "https://dc.lft.to/lastmile_qr_scan", "ios": "https://dc.lft.to/lastmile_qr_scan"}, "fusion_lat": 0.0, "is_reserved": 0, "bike_id": "5480071df2afb11049ce04270b7ad062", "name": "5480071df2afb11049ce04270b7ad062", "lon": -77.0329535}, {"lat": 38.91908683333333, "is_disabled": 0, "type": "electric_scooter", "fusion_lon": 0.0, "rental_uris": {"android": "https://dc.lft.to/lastmile_qr_scan", "ios": "https://dc.lft.to/lastmile_qr_scan"}, "fusion_lat": 0.0, "is_reserved": 0, "bike_id": "5a105656772490cedbe5c9de7ebd2a7e", "name": "5a105656772490cedbe5c9de7ebd2a7e", "lon": -77.03441566666666}, {"lat": 38.874556166666665, "is_disabled": 0, "type": "electric_scooter", "fusion_lon": 0.0, "rental_uris": {"android": "https://dc.lft.to/lastmile_qr_scan", "ios": "https://dc.lft.to/lastmile_qr_scan"}, "fusion_lat": 0.0, "is_reserved": 0, "bike_id": "35b3f7199b72241bcea7f098c9b99fce", "name": "35b3f7199b72241bcea7f098c9b99fce", "lon": -77.00545583333333}, {"lat": 38.91291583333334, "is_disabled": 0, "type": "electric_scooter", "fusion_lon": 0.0, "rental_uris": {"android": "https://dc.lft.to/lastmile_qr_scan", "ios": "https://dc.lft.to/lastmile_qr_scan"}, "fusion_lat": 0.0, "is_reserved": 0, "bike_id": "bed494a11ffb5a561d00b3b8c11ff867", "name": "bed494a11ffb5a561d00b3b8c11ff867", "lon": -77.02304266666667}, {"lat": 38.899660833333336, "is_disabled": 0, "type": "electric_scooter", "fusion_lon": 0.0, "rental_uris": {"android": "https://dc.lft.to/lastmile_qr_scan", "ios": "https://dc.lft.to/lastmile_qr_scan"}, "fusion_lat": 0.0, "is_reserved": 0, "bike_id": "bdad16d251a6daf5b384f6a482016ad5", "name": "bdad16d251a6daf5b384f6a482016ad5", "lon": -77.02210533333333}, {"lat": 38.918553, "is_disabled": 0, "type": "electric_scooter", "fusion_lon": 0.0, "rental_uris": {"android": "https://dc.lft.to/lastmile_qr_scan", "ios": "https://dc.lft.to/lastmile_qr_scan"}, "fusion_lat": 0.0, "is_reserved": 0, "bike_id": "50e1d745e379cfaa68b63d3261a504ec", "name": "50e1d745e379cfaa68b63d3261a504ec", "lon": -77.02421033333333}, {"lat": 38.9155315, "is_disabled": 0, "type": "electric_scooter", "fusion_lon": 0.0, "rental_uris": {"android": "https://dc.lft.to/lastmile_qr_scan", "ios": "https://dc.lft.to/lastmile_qr_scan"}, "fusion_lat": 0.0, "is_reserved": 0, "bike_id": "32686489687ba9b51b4dbcd0a3570e4e", "name": "32686489687ba9b51b4dbcd0a3570e4e", "lon": -77.00706083333333}, {"lat": 38.8961195, "is_disabled": 0, "type": "electric_scooter", "fusion_lon": 0.0, "rental_uris": {"android": "https://dc.lft.to/lastmile_qr_scan", "ios": "https://dc.lft.to/lastmile_qr_scan"}, "fusion_lat": 0.0, "is_reserved": 0, "bike_id": "eeafcb38088e8db0f2edc929fc5fa5ea", "name": "eeafcb38088e8db0f2edc929fc5fa5ea", "lon": -77.04555083333334}, {"lat": 38.86374416666666, "is_disabled": 0, "type": "electric_scooter", "fusion_lon": 0.0, "rental_uris": {"android": "https://dc.lft.to/lastmile_qr_scan", "ios": "https://dc.lft.to/lastmile_qr_scan"}, "fusion_lat": 0.0, "is_reserved": 0, "bike_id": "9e3acd46a624affd617cd5f5c851bb5f", "name": "9e3acd46a624affd617cd5f5c851bb5f", "lon": -76.990602}, {"lat": 38.8665775, "is_disabled": 0, "type": "electric_scooter", "fusion_lon": 0.0, "rental_uris": {"android": "https://dc.lft.to/lastmile_qr_scan", "ios": "https://dc.lft.to/lastmile_qr_scan"}, "fusion_lat": 0.0, "is_reserved": 0, "bike_id": "ccca577df560d96235112a7d8630bc3c", "name": "ccca577df560d96235112a7d8630bc3c", "lon": -76.98533233333333}, {"lat": 38.887080833333336, "is_disabled": 0, "type": "electric_scooter", "fusion_lon": 0.0, "rental_uris": {"android": "https://dc.lft.to/lastmile_qr_scan", "ios": "https://dc.lft.to/lastmile_qr_scan"}, "fusion_lat": 0.0, "is_reserved": 0, "bike_id": "52bd54f4de555c1b952058a43d357267", "name": "52bd54f4de555c1b952058a43d357267", "lon": -77.0136455}, {"lat": 38.893023, "is_disabled": 0, "type": "electric_scooter", "fusion_lon": 0.0, "rental_uris": {"android": "https://dc.lft.to/lastmile_qr_scan", "ios": "https://dc.lft.to/lastmile_qr_scan"}, "fusion_lat": 0.0, "is_reserved": 0, "bike_id": "08dbf8804e7d9c29c4ed2b0bdda12bf0", "name": "08dbf8804e7d9c29c4ed2b0bdda12bf0", "lon": -77.0123885}, {"lat": 38.89341266666667, "is_disabled": 0, "type": "electric_scooter", "fusion_lon": 0.0, "rental_uris": {"android": "https://dc.lft.to/lastmile_qr_scan", "ios": "https://dc.lft.to/lastmile_qr_scan"}, "fusion_lat": 0.0, "is_reserved": 0, "bike_id": "10e0a75f6c893c94867c834c6e7a72da", "name": "10e0a75f6c893c94867c834c6e7a72da", "lon": -77.02171633333333}, {"lat": 38.94444333333333, "is_disabled": 0, "type": "electric_scooter", "fusion_lon": 0.0, "rental_uris": {"android": "https://dc.lft.to/lastmile_qr_scan", "ios": "https://dc.lft.to/lastmile_qr_scan"}, "fusion_lat": 0.0, "is_reserved": 0, "bike_id": "98ee387bf552d8173d58cf4de4a38198", "name": "98ee387bf552d8173d58cf4de4a38198", "lon": -77.02790033333333}, {"lat": 38.89223033333333, "is_disabled": 0, "type": "electric_scooter", "fusion_lon": 0.0, "rental_uris": {"android": "https://dc.lft.to/lastmile_qr_scan", "ios": "https://dc.lft.to/lastmile_qr_scan"}, "fusion_lat": 0.0, "is_reserved": 0, "bike_id": "3cea5f86333819bf18b052380653b6d9", "name": "3cea5f86333819bf18b052380653b6d9", "lon": -77.02633283333333}, {"lat": 38.90505433333333, "is_disabled": 0, "type": "electric_scooter", "fusion_lon": 0.0, "rental_uris": {"android": "https://dc.lft.to/lastmile_qr_scan", "ios": "https://dc.lft.to/lastmile_qr_scan"}, "fusion_lat": 0.0, "is_reserved": 0, "bike_id": "088708cd7a69da978949ffc4f4e559ca", "name": "088708cd7a69da978949ffc4f4e559ca", "lon": -77.06110333333334}, {"lat": 38.92104333333333, "is_disabled": 0, "type": "electric_scooter", "fusion_lon": 0.0, "rental_uris": {"android": "https://dc.lft.to/lastmile_qr_scan", "ios": "https://dc.lft.to/lastmile_qr_scan"}, "fusion_lat": 0.0, "is_reserved": 0, "bike_id": "050e1aa04e11fb65e116867009eaa365", "name": "050e1aa04e11fb65e116867009eaa365", "lon": -77.043851}, {"lat": 38.9171805, "is_disabled": 0, "type": "electric_scooter", "fusion_lon": 0.0, "rental_uris": {"android": "https://dc.lft.to/lastmile_qr_scan", "ios": "https://dc.lft.to/lastmile_qr_scan"}, "fusion_lat": 0.0, "is_reserved": 0, "bike_id": "b5620a8166255cab49be255d1a04a6a7", "name": "b5620a8166255cab49be255d1a04a6a7", "lon": -77.02399166666666}, {"lat": 38.92899216666667, "is_disabled": 0, "type": "electric_scooter", "fusion_lon": 0.0, "rental_uris": {"android": "https://dc.lft.to/lastmile_qr_scan", "ios": "https://dc.lft.to/lastmile_qr_scan"}, "fusion_lat": 0.0, "is_reserved": 0, "bike_id": "5797cd154784ea1dd484f8af52e6cb01", "name": "5797cd154784ea1dd484f8af52e6cb01", "lon": -77.004179}, {"lat": 38.9198185, "is_disabled": 0, "type": "electric_scooter", "fusion_lon": 0.0, "rental_uris": {"android": "https://dc.lft.to/lastmile_qr_scan", "ios": "https://dc.lft.to/lastmile_qr_scan"}, "fusion_lat": 0.0, "is_reserved": 0, "bike_id": "155876efb31cf036315cc03090a05559", "name": "155876efb31cf036315cc03090a05559", "lon": -77.04174266666666}, {"lat": 38.8626815, "is_disabled": 0, "type": "electric_bike", "fusion_lon": 0.0, "rental_uris": {"android": "https://dc.lft.to/lastmile_qr_scan", "ios": "https://dc.lft.to/lastmile_qr_scan"}, "fusion_lat": 0.0, "is_reserved": 0, "bike_id": "0c42e27a4be73330bced1e899695dcdb", "name": "0c42e27a4be73330bced1e899695dcdb", "lon": -76.98348283333333}, {"lat": 38.8746015, "is_disabled": 0, "type": "electric_scooter", "fusion_lon": 0.0, "rental_uris": {"android": "https://dc.lft.to/lastmile_qr_scan", "ios": "https://dc.lft.to/lastmile_qr_scan"}, "fusion_lat": 0.0, "is_reserved": 0, "bike_id": "c91c999088c4b17b8de810f35c665d1d", "name": "c91c999088c4b17b8de810f35c665d1d", "lon": -77.011343}, {"lat": 38.901098166666664, "is_disabled": 0, "type": "electric_scooter", "fusion_lon": 0.0, "rental_uris": {"android": "https://dc.lft.to/lastmile_qr_scan", "ios": "https://dc.lft.to/lastmile_qr_scan"}, "fusion_lat": 0.0, "is_reserved": 0, "bike_id": "4edab8afae7ee70c5c54153723599705", "name": "4edab8afae7ee70c5c54153723599705", "lon": -77.01750283333334}, {"lat": 38.92283316666666, "is_disabled": 0, "type": "electric_scooter", "fusion_lon": 0.0, "rental_uris": {"android": "https://dc.lft.to/lastmile_qr_scan", "ios": "https://dc.lft.to/lastmile_qr_scan"}, "fusion_lat": 0.0, "is_reserved": 0, "bike_id": "6b9b5f807c9e98ba96e4729499ba9673", "name": "6b9b5f807c9e98ba96e4729499ba9673", "lon": -77.03891433333334}, {"lat": 38.887432, "is_disabled": 0, "type": "electric_scooter", "fusion_lon": 0.0, "rental_uris": {"android": "https://dc.lft.to/lastmile_qr_scan", "ios": "https://dc.lft.to/lastmile_qr_scan"}, "fusion_lat": 0.0, "is_reserved": 0, "bike_id": "d6b74a969261153f8028f2157284c6db", "name": "d6b74a969261153f8028f2157284c6db", "lon": -77.0273255}, {"lat": 38.92211866666667, "is_disabled": 0, "type": "electric_bike", "fusion_lon": 0.0, "rental_uris": {"android": "https://dc.lft.to/lastmile_qr_scan", "ios": "https://dc.lft.to/lastmile_qr_scan"}, "fusion_lat": 0.0, "is_reserved": 0, "bike_id": "e9c36d7d35b3cbe441bf10104b92ae14", "name": "e9c36d7d35b3cbe441bf10104b92ae14", "lon": -77.0818545}, {"lat": 38.904767166666666, "is_disabled": 0, "type": "electric_scooter", "fusion_lon": 0.0, "rental_uris": {"android": "https://dc.lft.to/lastmile_qr_scan", "ios": "https://dc.lft.to/lastmile_qr_scan"}, "fusion_lat": 0.0, "is_reserved": 0, "bike_id": "c0a38f6477085e21633e355f9cadbc12", "name": "c0a38f6477085e21633e355f9cadbc12", "lon": -77.00729916666667}, {"lat": 38.8778415, "is_disabled": 0, "type": "electric_scooter", "fusion_lon": 0.0, "rental_uris": {"android": "https://dc.lft.to/lastmile_qr_scan", "ios": "https://dc.lft.to/lastmile_qr_scan"}, "fusion_lat": 0.0, "is_reserved": 0, "bike_id": "84e36b9ada8c97adb514531dd96a7e66", "name": "84e36b9ada8c97adb514531dd96a7e66", "lon": -76.99356483333334}, {"lat": 38.876365666666665, "is_disabled": 0, "type": "electric_scooter", "fusion_lon": 0.0, "rental_uris": {"android": "https://dc.lft.to/lastmile_qr_scan", "ios": "https://dc.lft.to/lastmile_qr_scan"}, "fusion_lat": 0.0, "is_reserved": 0, "bike_id": "d15b729b6806aebb890284483cde452f", "name": "d15b729b6806aebb890284483cde452f", "lon": -77.00380933333334}, {"lat": 38.897985, "is_disabled": 0, "type": "electric_scooter", "fusion_lon": 0.0, "rental_uris": {"android": "https://dc.lft.to/lastmile_qr_scan", "ios": "https://dc.lft.to/lastmile_qr_scan"}, "fusion_lat": 0.0, "is_reserved": 0, "bike_id": "1996a64dc5d791646ab7576bd6e7016b", "name": "1996a64dc5d791646ab7576bd6e7016b", "lon": -77.032987}, {"lat": 38.921841, "is_disabled": 0, "type": "electric_scooter", "fusion_lon": 0.0, "rental_uris": {"android": "https://dc.lft.to/lastmile_qr_scan", "ios": "https://dc.lft.to/lastmile_qr_scan"}, "fusion_lat": 0.0, "is_reserved": 0, "bike_id": "1a7552f184a2045e8b409f7409a870f5", "name": "1a7552f184a2045e8b409f7409a870f5", "lon": -77.0425655}, {"lat": 38.8922465, "is_disabled": 0, "type": "electric_scooter", "fusion_lon": 0.0, "rental_uris": {"android": "https://dc.lft.to/lastmile_qr_scan", "ios": "https://dc.lft.to/lastmile_qr_scan"}, "fusion_lat": 0.0, "is_reserved": 0, "bike_id": "9a416f13dbb42e70a7bf0fabe68c30f9", "name": "9a416f13dbb42e70a7bf0fabe68c30f9", "lon": -77.02343483333334}, {"lat": 38.918896333333336, "is_disabled": 0, "type": "electric_scooter", "fusion_lon": 0.0, "rental_uris": {"android": "https://dc.lft.to/lastmile_qr_scan", "ios": "https://dc.lft.to/lastmile_qr_scan"}, "fusion_lat": 0.0, "is_reserved": 0, "bike_id": "2e1d26114289b6c45fc021755a52c4d6", "name": "2e1d26114289b6c45fc021755a52c4d6", "lon": -77.03766383333334}, {"lat": 38.85726583333334, "is_disabled": 0, "type": "electric_scooter", "fusion_lon": 0.0, "rental_uris": {"android": "https://dc.lft.to/lastmile_qr_scan", "ios": "https://dc.lft.to/lastmile_qr_scan"}, "fusion_lat": 0.0, "is_reserved": 0, "bike_id": "236ad6d09ababf5cdff02113ef48678f", "name": "236ad6d09ababf5cdff02113ef48678f", "lon": -76.98927366666666}, {"lat": 38.907674, "is_disabled": 0, "type": "electric_scooter", "fusion_lon": 0.0, "rental_uris": {"android": "https://dc.lft.to/lastmile_qr_scan", "ios": "https://dc.lft.to/lastmile_qr_scan"}, "fusion_lat": 0.0, "is_reserved": 0, "bike_id": "930ddaef5455c3752635b57210a5bceb", "name": "930ddaef5455c3752635b57210a5bceb", "lon": -76.9930275}, {"lat": 38.936097333333336, "is_disabled": 0, "type": "electric_scooter", "fusion_lon": 0.0, "rental_uris": {"android": "https://dc.lft.to/lastmile_qr_scan", "ios": "https://dc.lft.to/lastmile_qr_scan"}, "fusion_lat": 0.0, "is_reserved": 0, "bike_id": "8fb4df2394562cb28a220456b56e4ea1", "name": "8fb4df2394562cb28a220456b56e4ea1", "lon": -77.0589645}, {"lat": 38.886211333333335, "is_disabled": 0, "type": "electric_scooter", "fusion_lon": 0.0, "rental_uris": {"android": "https://dc.lft.to/lastmile_qr_scan", "ios": "https://dc.lft.to/lastmile_qr_scan"}, "fusion_lat": 0.0, "is_reserved": 0, "bike_id": "01a7472fa745a4968065eaf5a3f9f502", "name": "01a7472fa745a4968065eaf5a3f9f502", "lon": -77.01975133333333}, {"lat": 38.911297833333336, "is_disabled": 0, "type": "electric_scooter", "fusion_lon": 0.0, "rental_uris": {"android": "https://dc.lft.to/lastmile_qr_scan", "ios": "https://dc.lft.to/lastmile_qr_scan"}, "fusion_lat": 0.0, "is_reserved": 0, "bike_id": "bb04181aa564efb86b0d5391706e154c", "name": "bb04181aa564efb86b0d5391706e154c", "lon": -77.04421033333334}, {"lat": 38.904164, "is_disabled": 0, "type": "electric_scooter", "fusion_lon": 0.0, "rental_uris": {"android": "https://dc.lft.to/lastmile_qr_scan", "ios": "https://dc.lft.to/lastmile_qr_scan"}, "fusion_lat": 0.0, "is_reserved": 0, "bike_id": "76e298bca8f18fa982fd6c2ae45c2b1c", "name": "76e298bca8f18fa982fd6c2ae45c2b1c", "lon": -77.05019066666667}, {"lat": 38.8987935, "is_disabled": 0, "type": "electric_scooter", "fusion_lon": 0.0, "rental_uris": {"android": "https://dc.lft.to/lastmile_qr_scan", "ios": "https://dc.lft.to/lastmile_qr_scan"}, "fusion_lat": 0.0, "is_reserved": 0, "bike_id": "f9bb089eab40e463814c221e22494068", "name": "f9bb089eab40e463814c221e22494068", "lon": -76.93194683333333}, {"lat": 38.957618, "is_disabled": 0, "type": "electric_bike", "fusion_lon": 0.0, "rental_uris": {"android": "https://dc.lft.to/lastmile_qr_scan", "ios": "https://dc.lft.to/lastmile_qr_scan"}, "fusion_lat": 0.0, "is_reserved": 0, "bike_id": "04921f595850efbb8ab67a9c6da64ffa", "name": "04921f595850efbb8ab67a9c6da64ffa", "lon": -77.007089}, {"lat": 38.8951135, "is_disabled": 0, "type": "electric_scooter", "fusion_lon": 0.0, "rental_uris": {"android": "https://dc.lft.to/lastmile_qr_scan", "ios": "https://dc.lft.to/lastmile_qr_scan"}, "fusion_lat": 0.0, "is_reserved": 0, "bike_id": "7459bac02d8ef6d8047e69b717043d65", "name": "7459bac02d8ef6d8047e69b717043d65", "lon": -76.948878}, {"lat": 38.86503716666667, "is_disabled": 0, "type": "electric_scooter", "fusion_lon": 0.0, "rental_uris": {"android": "https://dc.lft.to/lastmile_qr_scan", "ios": "https://dc.lft.to/lastmile_qr_scan"}, "fusion_lat": 0.0, "is_reserved": 0, "bike_id": "66196ce10535bacc4aa419be17cf0cf1", "name": "66196ce10535bacc4aa419be17cf0cf1", "lon": -76.9900185}, {"lat": 38.94987833333333, "is_disabled": 0, "type": "electric_scooter", "fusion_lon": 0.0, "rental_uris": {"android": "https://dc.lft.to/lastmile_qr_scan", "ios": "https://dc.lft.to/lastmile_qr_scan"}, "fusion_lat": 0.0, "is_reserved": 0, "bike_id": "f3fff65db2db69af22aa855c2daa5f2d", "name": "f3fff65db2db69af22aa855c2daa5f2d", "lon": -77.02706866666666}, {"lat": 38.8923385, "is_disabled": 0, "type": "electric_scooter", "fusion_lon": 0.0, "rental_uris": {"android": "https://dc.lft.to/lastmile_qr_scan", "ios": "https://dc.lft.to/lastmile_qr_scan"}, "fusion_lat": 0.0, "is_reserved": 0, "bike_id": "87e16731393bdc5859ac23b14b3923f3", "name": "87e16731393bdc5859ac23b14b3923f3", "lon": -77.04878283333333}, {"lat": 38.872450666666666, "is_disabled": 0, "type": "electric_scooter", "fusion_lon": 0.0, "rental_uris": {"android": "https://dc.lft.to/lastmile_qr_scan", "ios": "https://dc.lft.to/lastmile_qr_scan"}, "fusion_lat": 0.0, "is_reserved": 0, "bike_id": "a82a38633f1529c96b7d964d676f03e1", "name": "a82a38633f1529c96b7d964d676f03e1", "lon": -76.97730183333333}, {"lat": 38.875574666666665, "is_disabled": 0, "type": "electric_scooter", "fusion_lon": 0.0, "rental_uris": {"android": "https://dc.lft.to/lastmile_qr_scan", "ios": "https://dc.lft.to/lastmile_qr_scan"}, "fusion_lat": 0.0, "is_reserved": 0, "bike_id": "fabdfe4eb6ce8e8a04985b167a2e0139", "name": "fabdfe4eb6ce8e8a04985b167a2e0139", "lon": -77.00595966666667}, {"lat": 38.911006, "is_disabled": 0, "type": "electric_scooter", "fusion_lon": 0.0, "rental_uris": {"android": "https://dc.lft.to/lastmile_qr_scan", "ios": "https://dc.lft.to/lastmile_qr_scan"}, "fusion_lat": 0.0, "is_reserved": 0, "bike_id": "7d31e72df1df5d41e58feb3694d77f12", "name": "7d31e72df1df5d41e58feb3694d77f12", "lon": -77.044937}, {"lat": 38.926787, "is_disabled": 0, "type": "electric_scooter", "fusion_lon": 0.0, "rental_uris": {"android": "https://dc.lft.to/lastmile_qr_scan", "ios": "https://dc.lft.to/lastmile_qr_scan"}, "fusion_lat": 0.0, "is_reserved": 0, "bike_id": "6860fed8a7f8194b05c231070e640ddd", "name": "6860fed8a7f8194b05c231070e640ddd", "lon": -77.02674633333334}, {"lat": 38.99607183333333, "is_disabled": 0, "type": "electric_scooter", "fusion_lon": 0.0, "rental_uris": {"android": "https://dc.lft.to/lastmile_qr_scan", "ios": "https://dc.lft.to/lastmile_qr_scan"}, "fusion_lat": 0.0, "is_reserved": 0, "bike_id": "36ea00e22ce0954709992c8269319fa7", "name": "36ea00e22ce0954709992c8269319fa7", "lon": -77.03203116666667}, {"lat": 38.939552166666665, "is_disabled": 0, "type": "electric_scooter", "fusion_lon": 0.0, "rental_uris": {"android": "https://dc.lft.to/lastmile_qr_scan", "ios": "https://dc.lft.to/lastmile_qr_scan"}, "fusion_lat": 0.0, "is_reserved": 0, "bike_id": "e6bd7d25b641c1236d721b57eaff187f", "name": "e6bd7d25b641c1236d721b57eaff187f", "lon": -77.02497783333334}, {"lat": 38.9047575, "is_disabled": 0, "type": "electric_scooter", "fusion_lon": 0.0, "rental_uris": {"android": "https://dc.lft.to/lastmile_qr_scan", "ios": "https://dc.lft.to/lastmile_qr_scan"}, "fusion_lat": 0.0, "is_reserved": 0, "bike_id": "0372b4ccb14fd917f493cfddab9515bb", "name": "0372b4ccb14fd917f493cfddab9515bb", "lon": -76.98067116666667}, {"lat": 38.892373666666664, "is_disabled": 0, "type": "electric_scooter", "fusion_lon": 0.0, "rental_uris": {"android": "https://dc.lft.to/lastmile_qr_scan", "ios": "https://dc.lft.to/lastmile_qr_scan"}, "fusion_lat": 0.0, "is_reserved": 0, "bike_id": "ed06a30ef96870489a1af0e02e799cbf", "name": "ed06a30ef96870489a1af0e02e799cbf", "lon": -77.02384216666667}, {"lat": 38.87200283333333, "is_disabled": 0, "type": "electric_scooter", "fusion_lon": 0.0, "rental_uris": {"android": "https://dc.lft.to/lastmile_qr_scan", "ios": "https://dc.lft.to/lastmile_qr_scan"}, "fusion_lat": 0.0, "is_reserved": 0, "bike_id": "c84fe836525d9eeb7c9e6e2233a237c3", "name": "c84fe836525d9eeb7c9e6e2233a237c3", "lon": -77.00981516666667}, {"lat": 38.893296666666664, "is_disabled": 0, "type": "electric_scooter", "fusion_lon": 0.0, "rental_uris": {"android": "https://dc.lft.to/lastmile_qr_scan", "ios": "https://dc.lft.to/lastmile_qr_scan"}, "fusion_lat": 0.0, "is_reserved": 0, "bike_id": "e71b4e33456a0be3449fb804170dfa9c", "name": "e71b4e33456a0be3449fb804170dfa9c", "lon": -77.0468205}, {"lat": 38.91976066666667, "is_disabled": 0, "type": "electric_scooter", "fusion_lon": 0.0, "rental_uris": {"android": "https://dc.lft.to/lastmile_qr_scan", "ios": "https://dc.lft.to/lastmile_qr_scan"}, "fusion_lat": 0.0, "is_reserved": 0, "bike_id": "be3e10f4d7fc4e6150b60820ecf87606", "name": "be3e10f4d7fc4e6150b60820ecf87606", "lon": -77.0121785}, {"lat": 38.89351666666666, "is_disabled": 0, "type": "electric_scooter", "fusion_lon": 0.0, "rental_uris": {"android": "https://dc.lft.to/lastmile_qr_scan", "ios": "https://dc.lft.to/lastmile_qr_scan"}, "fusion_lat": 0.0, "is_reserved": 0, "bike_id": "faf36a301c78d1769f8f9d950ee92de9", "name": "faf36a301c78d1769f8f9d950ee92de9", "lon": -77.02224283333334}, {"lat": 38.928254833333334, "is_disabled": 0, "type": "electric_scooter", "fusion_lon": 0.0, "rental_uris": {"android": "https://dc.lft.to/lastmile_qr_scan", "ios": "https://dc.lft.to/lastmile_qr_scan"}, "fusion_lat": 0.0, "is_reserved": 0, "bike_id": "f11ec035c2a010a767bfa166b2f5b288", "name": "f11ec035c2a010a767bfa166b2f5b288", "lon": -77.02155433333333}, {"lat": 38.884542333333336, "is_disabled": 0, "type": "electric_scooter", "fusion_lon": 0.0, "rental_uris": {"android": "https://dc.lft.to/lastmile_qr_scan", "ios": "https://dc.lft.to/lastmile_qr_scan"}, "fusion_lat": 0.0, "is_reserved": 0, "bike_id": "87029a4e4b944c36fec8808663ed7182", "name": "87029a4e4b944c36fec8808663ed7182", "lon": -76.929419}, {"lat": 38.90811133333333, "is_disabled": 0, "type": "electric_scooter", "fusion_lon": 0.0, "rental_uris": {"android": "https://dc.lft.to/lastmile_qr_scan", "ios": "https://dc.lft.to/lastmile_qr_scan"}, "fusion_lat": 0.0, "is_reserved": 0, "bike_id": "e2490a88fd970552372da4dc02de2787", "name": "e2490a88fd970552372da4dc02de2787", "lon": -77.04359083333334}, {"lat": 38.8868225, "is_disabled": 0, "type": "electric_scooter", "fusion_lon": 0.0, "rental_uris": {"android": "https://dc.lft.to/lastmile_qr_scan", "ios": "https://dc.lft.to/lastmile_qr_scan"}, "fusion_lat": 0.0, "is_reserved": 0, "bike_id": "e4a90ab15ad347e0f20a4a1db0d50a45", "name": "e4a90ab15ad347e0f20a4a1db0d50a45", "lon": -76.95465683333333}, {"lat": 38.936372666666664, "is_disabled": 0, "type": "electric_scooter", "fusion_lon": 0.0, "rental_uris": {"android": "https://dc.lft.to/lastmile_qr_scan", "ios": "https://dc.lft.to/lastmile_qr_scan"}, "fusion_lat": 0.0, "is_reserved": 0, "bike_id": "180e8434e5f65a28737acc2d4a28ab41", "name": "180e8434e5f65a28737acc2d4a28ab41", "lon": -77.0367}, {"lat": 38.86509233333334, "is_disabled": 0, "type": "electric_scooter", "fusion_lon": 0.0, "rental_uris": {"android": "https://dc.lft.to/lastmile_qr_scan", "ios": "https://dc.lft.to/lastmile_qr_scan"}, "fusion_lat": 0.0, "is_reserved": 0, "bike_id": "0d1a4cec9fde290148b505a9d6684ef8", "name": "0d1a4cec9fde290148b505a9d6684ef8", "lon": -76.9900095}, {"lat": 38.905626, "is_disabled": 0, "type": "electric_scooter", "fusion_lon": 0.0, "rental_uris": {"android": "https://dc.lft.to/lastmile_qr_scan", "ios": "https://dc.lft.to/lastmile_qr_scan"}, "fusion_lat": 0.0, "is_reserved": 0, "bike_id": "2cc7e488ac10355c9a8f903a7a66e478", "name": "2cc7e488ac10355c9a8f903a7a66e478", "lon": -76.9911725}, {"lat": 38.9308575, "is_disabled": 0, "type": "electric_scooter", "fusion_lon": 0.0, "rental_uris": {"android": "https://dc.lft.to/lastmile_qr_scan", "ios": "https://dc.lft.to/lastmile_qr_scan"}, "fusion_lat": 0.0, "is_reserved": 0, "bike_id": "1ab3246c045a46d16e700b9a554700cb", "name": "1ab3246c045a46d16e700b9a554700cb", "lon": -77.0281}, {"lat": 38.87433383333333, "is_disabled": 0, "type": "electric_bike", "fusion_lon": 0.0, "rental_uris": {"android": "https://dc.lft.to/lastmile_qr_scan", "ios": "https://dc.lft.to/lastmile_qr_scan"}, "fusion_lat": 0.0, "is_reserved": 0, "bike_id": "7028fefcf850aa4f0c15a837ce9ccb83", "name": "7028fefcf850aa4f0c15a837ce9ccb83", "lon": -77.00086316666666}, {"lat": 38.93086516666666, "is_disabled": 0, "type": "electric_scooter", "fusion_lon": 0.0, "rental_uris": {"android": "https://dc.lft.to/lastmile_qr_scan", "ios": "https://dc.lft.to/lastmile_qr_scan"}, "fusion_lat": 0.0, "is_reserved": 0, "bike_id": "30c940c8823f9ee2c07d9dda28b81087", "name": "30c940c8823f9ee2c07d9dda28b81087", "lon": -77.03760566666666}, {"lat": 38.91057283333333, "is_disabled": 0, "type": "electric_scooter", "fusion_lon": 0.0, "rental_uris": {"android": "https://dc.lft.to/lastmile_qr_scan", "ios": "https://dc.lft.to/lastmile_qr_scan"}, "fusion_lat": 0.0, "is_reserved": 0, "bike_id": "0a4d334fe733f8236df43881c36b7e29", "name": "0a4d334fe733f8236df43881c36b7e29", "lon": -77.05320666666667}, {"lat": 38.887442, "is_disabled": 0, "type": "electric_scooter", "fusion_lon": 0.0, "rental_uris": {"android": "https://dc.lft.to/lastmile_qr_scan", "ios": "https://dc.lft.to/lastmile_qr_scan"}, "fusion_lat": 0.0, "is_reserved": 0, "bike_id": "0f0e1d18acb8127d81f2e44da0e1b023", "name": "0f0e1d18acb8127d81f2e44da0e1b023", "lon": -77.02732433333334}, {"lat": 38.89231516666667, "is_disabled": 0, "type": "electric_scooter", "fusion_lon": 0.0, "rental_uris": {"android": "https://dc.lft.to/lastmile_qr_scan", "ios": "https://dc.lft.to/lastmile_qr_scan"}, "fusion_lat": 0.0, "is_reserved": 0, "bike_id": "4b2a4d11d108a69a68504bba4288a507", "name": "4b2a4d11d108a69a68504bba4288a507", "lon": -77.031358}, {"lat": 38.9057335, "is_disabled": 0, "type": "electric_scooter", "fusion_lon": 0.0, "rental_uris": {"android": "https://dc.lft.to/lastmile_qr_scan", "ios": "https://dc.lft.to/lastmile_qr_scan"}, "fusion_lat": 0.0, "is_reserved": 0, "bike_id": "357e52a546f59345fec2a514635461c8", "name": "357e52a546f59345fec2a514635461c8", "lon": -76.9763155}, {"lat": 38.952015333333335, "is_disabled": 0, "type": "electric_scooter", "fusion_lon": 0.0, "rental_uris": {"android": "https://dc.lft.to/lastmile_qr_scan", "ios": "https://dc.lft.to/lastmile_qr_scan"}, "fusion_lat": 0.0, "is_reserved": 0, "bike_id": "90e8ca29d8c2f64a2f8bb753a421128f", "name": "90e8ca29d8c2f64a2f8bb753a421128f", "lon": -77.02737416666666}, {"lat": 38.911703, "is_disabled": 0, "type": "electric_scooter", "fusion_lon": 0.0, "rental_uris": {"android": "https://dc.lft.to/lastmile_qr_scan", "ios": "https://dc.lft.to/lastmile_qr_scan"}, "fusion_lat": 0.0, "is_reserved": 0, "bike_id": "6989db28239b278f9778710721067fec", "name": "6989db28239b278f9778710721067fec", "lon": -77.04666833333333}, {"lat": 38.885129666666664, "is_disabled": 0, "type": "electric_scooter", "fusion_lon": 0.0, "rental_uris": {"android": "https://dc.lft.to/lastmile_qr_scan", "ios": "https://dc.lft.to/lastmile_qr_scan"}, "fusion_lat": 0.0, "is_reserved": 0, "bike_id": "45a46d3ca0bafacb61081ec164a413ae", "name": "45a46d3ca0bafacb61081ec164a413ae", "lon": -77.01596633333334}, {"lat": 38.93366783333333, "is_disabled": 0, "type": "electric_scooter", "fusion_lon": 0.0, "rental_uris": {"android": "https://dc.lft.to/lastmile_qr_scan", "ios": "https://dc.lft.to/lastmile_qr_scan"}, "fusion_lat": 0.0, "is_reserved": 0, "bike_id": "65ada436d1ff3962f6b48109dd816c21", "name": "65ada436d1ff3962f6b48109dd816c21", "lon": -77.0572805}, {"lat": 38.93345716666666, "is_disabled": 0, "type": "electric_scooter", "fusion_lon": 0.0, "rental_uris": {"android": "https://dc.lft.to/lastmile_qr_scan", "ios": "https://dc.lft.to/lastmile_qr_scan"}, "fusion_lat": 0.0, "is_reserved": 0, "bike_id": "71f37837d2384846439da07c4f965a04", "name": "71f37837d2384846439da07c4f965a04", "lon": -77.02302983333334}, {"lat": 38.89015066666666, "is_disabled": 0, "type": "electric_scooter", "fusion_lon": 0.0, "rental_uris": {"android": "https://dc.lft.to/lastmile_qr_scan", "ios": "https://dc.lft.to/lastmile_qr_scan"}, "fusion_lat": 0.0, "is_reserved": 0, "bike_id": "b9f0545330fd2a5c6861cc1c59fe583e", "name": "b9f0545330fd2a5c6861cc1c59fe583e", "lon": -76.93742216666666}, {"lat": 38.92494933333333, "is_disabled": 0, "type": "electric_scooter", "fusion_lon": 0.0, "rental_uris": {"android": "https://dc.lft.to/lastmile_qr_scan", "ios": "https://dc.lft.to/lastmile_qr_scan"}, "fusion_lat": 0.0, "is_reserved": 0, "bike_id": "bccbc931e41b96b2684b69bf529df02e", "name": "bccbc931e41b96b2684b69bf529df02e", "lon": -77.024462}, {"lat": 38.92065316666667, "is_disabled": 0, "type": "electric_scooter", "fusion_lon": 0.0, "rental_uris": {"android": "https://dc.lft.to/lastmile_qr_scan", "ios": "https://dc.lft.to/lastmile_qr_scan"}, "fusion_lat": 0.0, "is_reserved": 0, "bike_id": "c3d24d1e5d3b0dd0c456c193bbbb51da", "name": "c3d24d1e5d3b0dd0c456c193bbbb51da", "lon": -77.03451966666667}, {"lat": 38.9248305, "is_disabled": 0, "type": "electric_scooter", "fusion_lon": 0.0, "rental_uris": {"android": "https://dc.lft.to/lastmile_qr_scan", "ios": "https://dc.lft.to/lastmile_qr_scan"}, "fusion_lat": 0.0, "is_reserved": 0, "bike_id": "ee179a882a6644eaebf7c525169b0051", "name": "ee179a882a6644eaebf7c525169b0051", "lon": -77.02832333333333}, {"lat": 38.93133483333333, "is_disabled": 0, "type": "electric_bike", "fusion_lon": 0.0, "rental_uris": {"android": "https://dc.lft.to/lastmile_qr_scan", "ios": "https://dc.lft.to/lastmile_qr_scan"}, "fusion_lat": 0.0, "is_reserved": 0, "bike_id": "a79444d1082fb9b5328144acecb86497", "name": "a79444d1082fb9b5328144acecb86497", "lon": -77.077173}, {"lat": 38.915983833333335, "is_disabled": 0, "type": "electric_scooter", "fusion_lon": 0.0, "rental_uris": {"android": "https://dc.lft.to/lastmile_qr_scan", "ios": "https://dc.lft.to/lastmile_qr_scan"}, "fusion_lat": 0.0, "is_reserved": 0, "bike_id": "b81bec638d861e2af519c89587840111", "name": "b81bec638d861e2af519c89587840111", "lon": -77.0447975}, {"lat": 38.88125383333333, "is_disabled": 0, "type": "electric_scooter", "fusion_lon": 0.0, "rental_uris": {"android": "https://dc.lft.to/lastmile_qr_scan", "ios": "https://dc.lft.to/lastmile_qr_scan"}, "fusion_lat": 0.0, "is_reserved": 0, "bike_id": "cb297975397459146c56f7292b0bebcb", "name": "cb297975397459146c56f7292b0bebcb", "lon": -77.02645066666666}, {"lat": 38.913915, "is_disabled": 0, "type": "electric_scooter", "fusion_lon": 0.0, "rental_uris": {"android": "https://dc.lft.to/lastmile_qr_scan", "ios": "https://dc.lft.to/lastmile_qr_scan"}, "fusion_lat": 0.0, "is_reserved": 0, "bike_id": "5dd63b11087b4019eff844625169f1f7", "name": "5dd63b11087b4019eff844625169f1f7", "lon": -77.03327283333333}, {"lat": 38.87149466666666, "is_disabled": 0, "type": "electric_scooter", "fusion_lon": 0.0, "rental_uris": {"android": "https://dc.lft.to/lastmile_qr_scan", "ios": "https://dc.lft.to/lastmile_qr_scan"}, "fusion_lat": 0.0, "is_reserved": 0, "bike_id": "71cf1e7be575e8e4ad9a09d2786d7749", "name": "71cf1e7be575e8e4ad9a09d2786d7749", "lon": -76.9773465}, {"lat": 38.91233233333333, "is_disabled": 0, "type": "electric_scooter", "fusion_lon": 0.0, "rental_uris": {"android": "https://dc.lft.to/lastmile_qr_scan", "ios": "https://dc.lft.to/lastmile_qr_scan"}, "fusion_lat": 0.0, "is_reserved": 0, "bike_id": "e45421a9503c54432b86e8cb4628f37d", "name": "e45421a9503c54432b86e8cb4628f37d", "lon": -77.06582783333333}, {"lat": 38.87707133333333, "is_disabled": 0, "type": "electric_scooter", "fusion_lon": 0.0, "rental_uris": {"android": "https://dc.lft.to/lastmile_qr_scan", "ios": "https://dc.lft.to/lastmile_qr_scan"}, "fusion_lat": 0.0, "is_reserved": 0, "bike_id": "083864348afc03e2385d45695e56c5ad", "name": "083864348afc03e2385d45695e56c5ad", "lon": -76.99381733333334}, {"lat": 38.95556066666666, "is_disabled": 0, "type": "electric_scooter", "fusion_lon": 0.0, "rental_uris": {"android": "https://dc.lft.to/lastmile_qr_scan", "ios": "https://dc.lft.to/lastmile_qr_scan"}, "fusion_lat": 0.0, "is_reserved": 0, "bike_id": "dca223df9c2a6ee5aa8dbd853939ea99", "name": "dca223df9c2a6ee5aa8dbd853939ea99", "lon": -77.07001966666667}, {"lat": 38.95014066666667, "is_disabled": 0, "type": "electric_scooter", "fusion_lon": 0.0, "rental_uris": {"android": "https://dc.lft.to/lastmile_qr_scan", "ios": "https://dc.lft.to/lastmile_qr_scan"}, "fusion_lat": 0.0, "is_reserved": 0, "bike_id": "b6b563007b956148af0e7097df7220e3", "name": "b6b563007b956148af0e7097df7220e3", "lon": -77.06736533333333}, {"lat": 38.916374, "is_disabled": 0, "type": "electric_scooter", "fusion_lon": 0.0, "rental_uris": {"android": "https://dc.lft.to/lastmile_qr_scan", "ios": "https://dc.lft.to/lastmile_qr_scan"}, "fusion_lat": 0.0, "is_reserved": 0, "bike_id": "af9ecc69fe096f51a99c737bc9919923", "name": "af9ecc69fe096f51a99c737bc9919923", "lon": -77.01087316666667}, {"lat": 38.91668383333333, "is_disabled": 0, "type": "electric_scooter", "fusion_lon": 0.0, "rental_uris": {"android": "https://dc.lft.to/lastmile_qr_scan", "ios": "https://dc.lft.to/lastmile_qr_scan"}, "fusion_lat": 0.0, "is_reserved": 0, "bike_id": "8282052a810fca922fe93d218aac4738", "name": "8282052a810fca922fe93d218aac4738", "lon": -77.02318216666667}, {"lat": 38.92658183333333, "is_disabled": 0, "type": "electric_scooter", "fusion_lon": 0.0, "rental_uris": {"android": "https://dc.lft.to/lastmile_qr_scan", "ios": "https://dc.lft.to/lastmile_qr_scan"}, "fusion_lat": 0.0, "is_reserved": 0, "bike_id": "3a7634398deefa9ffce6aa5925cf5519", "name": "3a7634398deefa9ffce6aa5925cf5519", "lon": -77.02421133333333}, {"lat": 38.917774, "is_disabled": 0, "type": "electric_scooter", "fusion_lon": 0.0, "rental_uris": {"android": "https://dc.lft.to/lastmile_qr_scan", "ios": "https://dc.lft.to/lastmile_qr_scan"}, "fusion_lat": 0.0, "is_reserved": 0, "bike_id": "a4f3dd73d9482988e2541c446daf826f", "name": "a4f3dd73d9482988e2541c446daf826f", "lon": -77.0320305}, {"lat": 38.918691333333335, "is_disabled": 0, "type": "electric_scooter", "fusion_lon": 0.0, "rental_uris": {"android": "https://dc.lft.to/lastmile_qr_scan", "ios": "https://dc.lft.to/lastmile_qr_scan"}, "fusion_lat": 0.0, "is_reserved": 0, "bike_id": "e15faab1958de124284d5fcb4b556472", "name": "e15faab1958de124284d5fcb4b556472", "lon": -77.04175216666667}, {"lat": 38.906143666666665, "is_disabled": 0, "type": "electric_scooter", "fusion_lon": 0.0, "rental_uris": {"android": "https://dc.lft.to/lastmile_qr_scan", "ios": "https://dc.lft.to/lastmile_qr_scan"}, "fusion_lat": 0.0, "is_reserved": 0, "bike_id": "e3c5afb29398081911a3ff5c5d02ee51", "name": "e3c5afb29398081911a3ff5c5d02ee51", "lon": -77.006049}, {"lat": 38.893709, "is_disabled": 0, "type": "electric_scooter", "fusion_lon": 0.0, "rental_uris": {"android": "https://dc.lft.to/lastmile_qr_scan", "ios": "https://dc.lft.to/lastmile_qr_scan"}, "fusion_lat": 0.0, "is_reserved": 0, "bike_id": "3f9b9ef5af0a0e74d7cea5d0a95af1e0", "name": "3f9b9ef5af0a0e74d7cea5d0a95af1e0", "lon": -76.949955}, {"lat": 38.927396333333334, "is_disabled": 0, "type": "electric_scooter", "fusion_lon": 0.0, "rental_uris": {"android": "https://dc.lft.to/lastmile_qr_scan", "ios": "https://dc.lft.to/lastmile_qr_scan"}, "fusion_lat": 0.0, "is_reserved": 0, "bike_id": "836700511e6ae209e2509347533d9e9e", "name": "836700511e6ae209e2509347533d9e9e", "lon": -77.02263766666667}, {"lat": 38.96628966666667, "is_disabled": 0, "type": "electric_scooter", "fusion_lon": 0.0, "rental_uris": {"android": "https://dc.lft.to/lastmile_qr_scan", "ios": "https://dc.lft.to/lastmile_qr_scan"}, "fusion_lat": 0.0, "is_reserved": 0, "bike_id": "11b5f25bf56b52c7dcdde45f6f068e92", "name": "11b5f25bf56b52c7dcdde45f6f068e92", "lon": -77.01998566666667}, {"lat": 38.8291685, "is_disabled": 0, "type": "electric_bike", "fusion_lon": 0.0, "rental_uris": {"android": "https://dc.lft.to/lastmile_qr_scan", "ios": "https://dc.lft.to/lastmile_qr_scan"}, "fusion_lat": 0.0, "is_reserved": 0, "bike_id": "78a842c2cc71f5fb1c7d92ab2fdf18da", "name": "78a842c2cc71f5fb1c7d92ab2fdf18da", "lon": -76.99790133333333}, {"lat": 38.9172485, "is_disabled": 0, "type": "electric_scooter", "fusion_lon": 0.0, "rental_uris": {"android": "https://dc.lft.to/lastmile_qr_scan", "ios": "https://dc.lft.to/lastmile_qr_scan"}, "fusion_lat": 0.0, "is_reserved": 0, "bike_id": "75b89c90a610da6731fa7c2ae5b9ea6f", "name": "75b89c90a610da6731fa7c2ae5b9ea6f", "lon": -77.03347616666667}, {"lat": 38.90398166666667, "is_disabled": 0, "type": "electric_scooter", "fusion_lon": 0.0, "rental_uris": {"android": "https://dc.lft.to/lastmile_qr_scan", "ios": "https://dc.lft.to/lastmile_qr_scan"}, "fusion_lat": 0.0, "is_reserved": 0, "bike_id": "f14aec11ca7f81505b9ec229f45fbd19", "name": "f14aec11ca7f81505b9ec229f45fbd19", "lon": -77.04018933333333}, {"lat": 38.888405, "is_disabled": 0, "type": "electric_scooter", "fusion_lon": 0.0, "rental_uris": {"android": "https://dc.lft.to/lastmile_qr_scan", "ios": "https://dc.lft.to/lastmile_qr_scan"}, "fusion_lat": 0.0, "is_reserved": 0, "bike_id": "108de2f1deb824d8621f54d7072da2d6", "name": "108de2f1deb824d8621f54d7072da2d6", "lon": -77.04908466666667}, {"lat": 38.94038716666667, "is_disabled": 0, "type": "electric_bike", "fusion_lon": 0.0, "rental_uris": {"android": "https://dc.lft.to/lastmile_qr_scan", "ios": "https://dc.lft.to/lastmile_qr_scan"}, "fusion_lat": 0.0, "is_reserved": 0, "bike_id": "0bf2448cf89dc35b5943219f474cae28", "name": "0bf2448cf89dc35b5943219f474cae28", "lon": -77.05158483333334}, {"lat": 38.867459, "is_disabled": 0, "type": "electric_bike", "fusion_lon": 0.0, "rental_uris": {"android": "https://dc.lft.to/lastmile_qr_scan", "ios": "https://dc.lft.to/lastmile_qr_scan"}, "fusion_lat": 0.0, "is_reserved": 0, "bike_id": "218bbfcfca5064b9ff224d78684b57f0", "name": "218bbfcfca5064b9ff224d78684b57f0", "lon": -77.1170835}, {"lat": 38.91809716666667, "is_disabled": 0, "type": "electric_scooter", "fusion_lon": 0.0, "rental_uris": {"android": "https://dc.lft.to/lastmile_qr_scan", "ios": "https://dc.lft.to/lastmile_qr_scan"}, "fusion_lat": 0.0, "is_reserved": 0, "bike_id": "5a8f75882129e28c4343e66523ef041d", "name": "5a8f75882129e28c4343e66523ef041d", "lon": -77.034382}, {"lat": 38.93881716666667, "is_disabled": 0, "type": "electric_scooter", "fusion_lon": 0.0, "rental_uris": {"android": "https://dc.lft.to/lastmile_qr_scan", "ios": "https://dc.lft.to/lastmile_qr_scan"}, "fusion_lat": 0.0, "is_reserved": 0, "bike_id": "ac5d6d736760b3f721f6bf16e82adf9f", "name": "ac5d6d736760b3f721f6bf16e82adf9f", "lon": -77.0248255}, {"lat": 38.9020615, "is_disabled": 0, "type": "electric_scooter", "fusion_lon": 0.0, "rental_uris": {"android": "https://dc.lft.to/lastmile_qr_scan", "ios": "https://dc.lft.to/lastmile_qr_scan"}, "fusion_lat": 0.0, "is_reserved": 0, "bike_id": "93f079700786189ca58f0301a1cc72f2", "name": "93f079700786189ca58f0301a1cc72f2", "lon": -76.97853683333334}, {"lat": 38.92103916666667, "is_disabled": 0, "type": "electric_scooter", "fusion_lon": 0.0, "rental_uris": {"android": "https://dc.lft.to/lastmile_qr_scan", "ios": "https://dc.lft.to/lastmile_qr_scan"}, "fusion_lat": 0.0, "is_reserved": 0, "bike_id": "f7088dcc2e8c4ec5cc0e38ec0a47e30d", "name": "f7088dcc2e8c4ec5cc0e38ec0a47e30d", "lon": -77.07187716666667}, {"lat": 38.925335, "is_disabled": 0, "type": "electric_scooter", "fusion_lon": 0.0, "rental_uris": {"android": "https://dc.lft.to/lastmile_qr_scan", "ios": "https://dc.lft.to/lastmile_qr_scan"}, "fusion_lat": 0.0, "is_reserved": 0, "bike_id": "5e74bdb2f9ec910b66e0e4485c9d4362", "name": "5e74bdb2f9ec910b66e0e4485c9d4362", "lon": -77.05140533333334}, {"lat": 38.9342115, "is_disabled": 0, "type": "electric_scooter", "fusion_lon": 0.0, "rental_uris": {"android": "https://dc.lft.to/lastmile_qr_scan", "ios": "https://dc.lft.to/lastmile_qr_scan"}, "fusion_lat": 0.0, "is_reserved": 0, "bike_id": "8423656b3fe80f73f36b4d87ab6d471c", "name": "8423656b3fe80f73f36b4d87ab6d471c", "lon": -77.0440925}, {"lat": 38.90570183333333, "is_disabled": 0, "type": "electric_scooter", "fusion_lon": 0.0, "rental_uris": {"android": "https://dc.lft.to/lastmile_qr_scan", "ios": "https://dc.lft.to/lastmile_qr_scan"}, "fusion_lat": 0.0, "is_reserved": 0, "bike_id": "9eb7e49c8a33bcb1e15f1b0a300772eb", "name": "9eb7e49c8a33bcb1e15f1b0a300772eb", "lon": -77.00588316666666}, {"lat": 38.92202966666667, "is_disabled": 0, "type": "electric_scooter", "fusion_lon": 0.0, "rental_uris": {"android": "https://dc.lft.to/lastmile_qr_scan", "ios": "https://dc.lft.to/lastmile_qr_scan"}, "fusion_lat": 0.0, "is_reserved": 0, "bike_id": "4e7258a637c5bd9d24fd7a31cd05440b", "name": "4e7258a637c5bd9d24fd7a31cd05440b", "lon": -77.04244533333333}, {"lat": 38.862467333333335, "is_disabled": 0, "type": "electric_scooter", "fusion_lon": 0.0, "rental_uris": {"android": "https://dc.lft.to/lastmile_qr_scan", "ios": "https://dc.lft.to/lastmile_qr_scan"}, "fusion_lat": 0.0, "is_reserved": 0, "bike_id": "879b230492f74306cf79e2048cf5f009", "name": "879b230492f74306cf79e2048cf5f009", "lon": -76.99502183333334}, {"lat": 38.9512735, "is_disabled": 0, "type": "electric_scooter", "fusion_lon": 0.0, "rental_uris": {"android": "https://dc.lft.to/lastmile_qr_scan", "ios": "https://dc.lft.to/lastmile_qr_scan"}, "fusion_lat": 0.0, "is_reserved": 0, "bike_id": "4c503805228727da8615dfb14bee49b6", "name": "4c503805228727da8615dfb14bee49b6", "lon": -76.98671066666667}, {"lat": 38.892318833333334, "is_disabled": 0, "type": "electric_scooter", "fusion_lon": 0.0, "rental_uris": {"android": "https://dc.lft.to/lastmile_qr_scan", "ios": "https://dc.lft.to/lastmile_qr_scan"}, "fusion_lat": 0.0, "is_reserved": 0, "bike_id": "4f701f74a6794d8c0bdfb073a775a717", "name": "4f701f74a6794d8c0bdfb073a775a717", "lon": -77.02799816666666}, {"lat": 38.92519866666667, "is_disabled": 0, "type": "electric_scooter", "fusion_lon": 0.0, "rental_uris": {"android": "https://dc.lft.to/lastmile_qr_scan", "ios": "https://dc.lft.to/lastmile_qr_scan"}, "fusion_lat": 0.0, "is_reserved": 0, "bike_id": "786683a21cffeb89b1cd378ca178471e", "name": "786683a21cffeb89b1cd378ca178471e", "lon": -77.05046383333334}, {"lat": 38.897506, "is_disabled": 0, "type": "electric_scooter", "fusion_lon": 0.0, "rental_uris": {"android": "https://dc.lft.to/lastmile_qr_scan", "ios": "https://dc.lft.to/lastmile_qr_scan"}, "fusion_lat": 0.0, "is_reserved": 0, "bike_id": "020fd931087f6523a95868c938e43fe9", "name": "020fd931087f6523a95868c938e43fe9", "lon": -77.03296116666667}, {"lat": 38.942874, "is_disabled": 0, "type": "electric_scooter", "fusion_lon": 0.0, "rental_uris": {"android": "https://dc.lft.to/lastmile_qr_scan", "ios": "https://dc.lft.to/lastmile_qr_scan"}, "fusion_lat": 0.0, "is_reserved": 0, "bike_id": "7ac92b5505bd0f16e3c1952d1fa12581", "name": "7ac92b5505bd0f16e3c1952d1fa12581", "lon": -77.02800883333333}, {"lat": 38.8924125, "is_disabled": 0, "type": "electric_scooter", "fusion_lon": 0.0, "rental_uris": {"android": "https://dc.lft.to/lastmile_qr_scan", "ios": "https://dc.lft.to/lastmile_qr_scan"}, "fusion_lat": 0.0, "is_reserved": 0, "bike_id": "4054c717a1f374bb783ee679aa39a017", "name": "4054c717a1f374bb783ee679aa39a017", "lon": -77.04163216666667}, {"lat": 38.9068885, "is_disabled": 0, "type": "electric_scooter", "fusion_lon": 0.0, "rental_uris": {"android": "https://dc.lft.to/lastmile_qr_scan", "ios": "https://dc.lft.to/lastmile_qr_scan"}, "fusion_lat": 0.0, "is_reserved": 0, "bike_id": "e2db5b30c863ac0f37a8683dbb21515a", "name": "e2db5b30c863ac0f37a8683dbb21515a", "lon": -77.01630016666667}, {"lat": 38.8738255, "is_disabled": 0, "type": "electric_scooter", "fusion_lon": 0.0, "rental_uris": {"android": "https://dc.lft.to/lastmile_qr_scan", "ios": "https://dc.lft.to/lastmile_qr_scan"}, "fusion_lat": 0.0, "is_reserved": 0, "bike_id": "e6873885cfca067acce54536831fa4f1", "name": "e6873885cfca067acce54536831fa4f1", "lon": -77.000298}, {"lat": 38.90563183333333, "is_disabled": 0, "type": "electric_scooter", "fusion_lon": 0.0, "rental_uris": {"android": "https://dc.lft.to/lastmile_qr_scan", "ios": "https://dc.lft.to/lastmile_qr_scan"}, "fusion_lat": 0.0, "is_reserved": 0, "bike_id": "6cba7fd8dda3e97279d58bce9cd07a47", "name": "6cba7fd8dda3e97279d58bce9cd07a47", "lon": -77.0440745}, {"lat": 38.951986166666664, "is_disabled": 0, "type": "electric_scooter", "fusion_lon": 0.0, "rental_uris": {"android": "https://dc.lft.to/lastmile_qr_scan", "ios": "https://dc.lft.to/lastmile_qr_scan"}, "fusion_lat": 0.0, "is_reserved": 0, "bike_id": "ad112908daf314151f43860fb0f2d3c7", "name": "ad112908daf314151f43860fb0f2d3c7", "lon": -77.02736533333334}, {"lat": 38.89222316666667, "is_disabled": 0, "type": "electric_scooter", "fusion_lon": 0.0, "rental_uris": {"android": "https://dc.lft.to/lastmile_qr_scan", "ios": "https://dc.lft.to/lastmile_qr_scan"}, "fusion_lat": 0.0, "is_reserved": 0, "bike_id": "1509b4591a6dde43aff89b939c7a7372", "name": "1509b4591a6dde43aff89b939c7a7372", "lon": -77.031661}, {"lat": 38.937752833333334, "is_disabled": 0, "type": "electric_scooter", "fusion_lon": 0.0, "rental_uris": {"android": "https://dc.lft.to/lastmile_qr_scan", "ios": "https://dc.lft.to/lastmile_qr_scan"}, "fusion_lat": 0.0, "is_reserved": 0, "bike_id": "79beeb94c0a758efc9c34849e5d779ef", "name": "79beeb94c0a758efc9c34849e5d779ef", "lon": -77.03262033333333}, {"lat": 38.921562, "is_disabled": 0, "type": "electric_scooter", "fusion_lon": 0.0, "rental_uris": {"android": "https://dc.lft.to/lastmile_qr_scan", "ios": "https://dc.lft.to/lastmile_qr_scan"}, "fusion_lat": 0.0, "is_reserved": 0, "bike_id": "c847455b68af6d310675f2e166ce1bfa", "name": "c847455b68af6d310675f2e166ce1bfa", "lon": -77.03505316666667}, {"lat": 38.922869166666665, "is_disabled": 0, "type": "electric_scooter", "fusion_lon": 0.0, "rental_uris": {"android": "https://dc.lft.to/lastmile_qr_scan", "ios": "https://dc.lft.to/lastmile_qr_scan"}, "fusion_lat": 0.0, "is_reserved": 0, "bike_id": "6e92095a7367eec1c0b8dd1270dfba47", "name": "6e92095a7367eec1c0b8dd1270dfba47", "lon": -77.02958833333334}, {"lat": 38.900079, "is_disabled": 0, "type": "electric_scooter", "fusion_lon": 0.0, "rental_uris": {"android": "https://dc.lft.to/lastmile_qr_scan", "ios": "https://dc.lft.to/lastmile_qr_scan"}, "fusion_lat": 0.0, "is_reserved": 0, "bike_id": "0af033d253b0fd8668dc33d4fae76b3b", "name": "0af033d253b0fd8668dc33d4fae76b3b", "lon": -77.03961633333333}, {"lat": 38.86415983333333, "is_disabled": 0, "type": "electric_scooter", "fusion_lon": 0.0, "rental_uris": {"android": "https://dc.lft.to/lastmile_qr_scan", "ios": "https://dc.lft.to/lastmile_qr_scan"}, "fusion_lat": 0.0, "is_reserved": 0, "bike_id": "ee518caf2b5a9e787008a78c09750b43", "name": "ee518caf2b5a9e787008a78c09750b43", "lon": -76.99132916666667}, {"lat": 38.90709016666667, "is_disabled": 0, "type": "electric_scooter", "fusion_lon": 0.0, "rental_uris": {"android": "https://dc.lft.to/lastmile_qr_scan", "ios": "https://dc.lft.to/lastmile_qr_scan"}, "fusion_lat": 0.0, "is_reserved": 0, "bike_id": "254cbb21499db291d155e3f8517141fa", "name": "254cbb21499db291d155e3f8517141fa", "lon": -77.0450485}, {"lat": 38.92315883333333, "is_disabled": 0, "type": "electric_scooter", "fusion_lon": 0.0, "rental_uris": {"android": "https://dc.lft.to/lastmile_qr_scan", "ios": "https://dc.lft.to/lastmile_qr_scan"}, "fusion_lat": 0.0, "is_reserved": 0, "bike_id": "270931b1ca7536424a94effc044b1698", "name": "270931b1ca7536424a94effc044b1698", "lon": -77.04623516666666}, {"lat": 38.9158475, "is_disabled": 0, "type": "electric_scooter", "fusion_lon": 0.0, "rental_uris": {"android": "https://dc.lft.to/lastmile_qr_scan", "ios": "https://dc.lft.to/lastmile_qr_scan"}, "fusion_lat": 0.0, "is_reserved": 0, "bike_id": "241a02107244c8dbd30ed803c9e7eee0", "name": "241a02107244c8dbd30ed803c9e7eee0", "lon": -77.04368566666666}, {"lat": 38.91423, "is_disabled": 0, "type": "electric_scooter", "fusion_lon": 0.0, "rental_uris": {"android": "https://dc.lft.to/lastmile_qr_scan", "ios": "https://dc.lft.to/lastmile_qr_scan"}, "fusion_lat": 0.0, "is_reserved": 0, "bike_id": "f4b3190b487528d0b83f83bbf2f36a15", "name": "f4b3190b487528d0b83f83bbf2f36a15", "lon": -77.04651166666666}, {"lat": 38.863812833333334, "is_disabled": 0, "type": "electric_scooter", "fusion_lon": 0.0, "rental_uris": {"android": "https://dc.lft.to/lastmile_qr_scan", "ios": "https://dc.lft.to/lastmile_qr_scan"}, "fusion_lat": 0.0, "is_reserved": 0, "bike_id": "8fdb4844c31a29ba8203ff51729d7ac1", "name": "8fdb4844c31a29ba8203ff51729d7ac1", "lon": -76.99053216666667}, {"lat": 38.886581, "is_disabled": 0, "type": "electric_bike", "fusion_lon": 0.0, "rental_uris": {"android": "https://dc.lft.to/lastmile_qr_scan", "ios": "https://dc.lft.to/lastmile_qr_scan"}, "fusion_lat": 0.0, "is_reserved": 0, "bike_id": "f267eb5395de4217694393121d543b93", "name": "f267eb5395de4217694393121d543b93", "lon": -77.16236183333334}, {"lat": 38.8942855, "is_disabled": 0, "type": "electric_scooter", "fusion_lon": 0.0, "rental_uris": {"android": "https://dc.lft.to/lastmile_qr_scan", "ios": "https://dc.lft.to/lastmile_qr_scan"}, "fusion_lat": 0.0, "is_reserved": 0, "bike_id": "607ede9e7b1535b5600ab4b505d45461", "name": "607ede9e7b1535b5600ab4b505d45461", "lon": -76.94880166666667}, {"lat": 38.89100533333333, "is_disabled": 0, "type": "electric_scooter", "fusion_lon": 0.0, "rental_uris": {"android": "https://dc.lft.to/lastmile_qr_scan", "ios": "https://dc.lft.to/lastmile_qr_scan"}, "fusion_lat": 0.0, "is_reserved": 0, "bike_id": "ee710cddc4cfceb6c9d5423082532e2a", "name": "ee710cddc4cfceb6c9d5423082532e2a", "lon": -77.00283383333333}, {"lat": 38.94100233333333, "is_disabled": 0, "type": "electric_scooter", "fusion_lon": 0.0, "rental_uris": {"android": "https://dc.lft.to/lastmile_qr_scan", "ios": "https://dc.lft.to/lastmile_qr_scan"}, "fusion_lat": 0.0, "is_reserved": 0, "bike_id": "9636f7fb7789bf680d75e6d257d10506", "name": "9636f7fb7789bf680d75e6d257d10506", "lon": -77.021097}, {"lat": 38.89457133333333, "is_disabled": 0, "type": "electric_scooter", "fusion_lon": 0.0, "rental_uris": {"android": "https://dc.lft.to/lastmile_qr_scan", "ios": "https://dc.lft.to/lastmile_qr_scan"}, "fusion_lat": 0.0, "is_reserved": 0, "bike_id": "d5448e4d7bd74de7d13b75cbc5d6948c", "name": "d5448e4d7bd74de7d13b75cbc5d6948c", "lon": -76.99836033333334}, {"lat": 38.91709616666667, "is_disabled": 0, "type": "electric_scooter", "fusion_lon": 0.0, "rental_uris": {"android": "https://dc.lft.to/lastmile_qr_scan", "ios": "https://dc.lft.to/lastmile_qr_scan"}, "fusion_lat": 0.0, "is_reserved": 0, "bike_id": "c914e9f4c1d0ed1f8e0cfee07b90f39f", "name": "c914e9f4c1d0ed1f8e0cfee07b90f39f", "lon": -77.04050366666667}, {"lat": 38.92198533333333, "is_disabled": 0, "type": "electric_scooter", "fusion_lon": 0.0, "rental_uris": {"android": "https://dc.lft.to/lastmile_qr_scan", "ios": "https://dc.lft.to/lastmile_qr_scan"}, "fusion_lat": 0.0, "is_reserved": 0, "bike_id": "b36fbb517cc52f620090bd1ac81f6fef", "name": "b36fbb517cc52f620090bd1ac81f6fef", "lon": -77.04233316666667}, {"lat": 38.9340245, "is_disabled": 0, "type": "electric_scooter", "fusion_lon": 0.0, "rental_uris": {"android": "https://dc.lft.to/lastmile_qr_scan", "ios": "https://dc.lft.to/lastmile_qr_scan"}, "fusion_lat": 0.0, "is_reserved": 0, "bike_id": "f20fff826bd6f7aaacdb777686d49eb4", "name": "f20fff826bd6f7aaacdb777686d49eb4", "lon": -77.04139033333334}, {"lat": 38.92467383333333, "is_disabled": 0, "type": "electric_scooter", "fusion_lon": 0.0, "rental_uris": {"android": "https://dc.lft.to/lastmile_qr_scan", "ios": "https://dc.lft.to/lastmile_qr_scan"}, "fusion_lat": 0.0, "is_reserved": 0, "bike_id": "6bb62f393aef15bab09a682a8153c90c", "name": "6bb62f393aef15bab09a682a8153c90c", "lon": -77.0575975}, {"lat": 38.918661666666665, "is_disabled": 0, "type": "electric_scooter", "fusion_lon": 0.0, "rental_uris": {"android": "https://dc.lft.to/lastmile_qr_scan", "ios": "https://dc.lft.to/lastmile_qr_scan"}, "fusion_lat": 0.0, "is_reserved": 0, "bike_id": "ede5ab937596c42ccabeac2fc82fcc12", "name": "ede5ab937596c42ccabeac2fc82fcc12", "lon": -77.046136}, {"lat": 38.91928016666667, "is_disabled": 0, "type": "electric_scooter", "fusion_lon": 0.0, "rental_uris": {"android": "https://dc.lft.to/lastmile_qr_scan", "ios": "https://dc.lft.to/lastmile_qr_scan"}, "fusion_lat": 0.0, "is_reserved": 0, "bike_id": "f4de2f372c687ff1f71244918aa018b4", "name": "f4de2f372c687ff1f71244918aa018b4", "lon": -76.999481}, {"lat": 38.91763666666667, "is_disabled": 0, "type": "electric_scooter", "fusion_lon": 0.0, "rental_uris": {"android": "https://dc.lft.to/lastmile_qr_scan", "ios": "https://dc.lft.to/lastmile_qr_scan"}, "fusion_lat": 0.0, "is_reserved": 0, "bike_id": "9516b135d17b202030302c78bfd34c69", "name": "9516b135d17b202030302c78bfd34c69", "lon": -77.01494466666666}, {"lat": 38.9005475, "is_disabled": 0, "type": "electric_scooter", "fusion_lon": 0.0, "rental_uris": {"android": "https://dc.lft.to/lastmile_qr_scan", "ios": "https://dc.lft.to/lastmile_qr_scan"}, "fusion_lat": 0.0, "is_reserved": 0, "bike_id": "817b6f149155d1f06610d021f50046f7", "name": "817b6f149155d1f06610d021f50046f7", "lon": -76.9902515}, {"lat": 38.87674483333333, "is_disabled": 0, "type": "electric_scooter", "fusion_lon": 0.0, "rental_uris": {"android": "https://dc.lft.to/lastmile_qr_scan", "ios": "https://dc.lft.to/lastmile_qr_scan"}, "fusion_lat": 0.0, "is_reserved": 0, "bike_id": "22800213ddbc4d6101a3bfc563a3f177", "name": "22800213ddbc4d6101a3bfc563a3f177", "lon": -77.00595666666666}, {"lat": 38.935360333333335, "is_disabled": 0, "type": "electric_scooter", "fusion_lon": 0.0, "rental_uris": {"android": "https://dc.lft.to/lastmile_qr_scan", "ios": "https://dc.lft.to/lastmile_qr_scan"}, "fusion_lat": 0.0, "is_reserved": 0, "bike_id": "1bdb3fa06f581c8ebc4535670f72c733", "name": "1bdb3fa06f581c8ebc4535670f72c733", "lon": -77.023543}, {"lat": 38.887149, "is_disabled": 0, "type": "electric_scooter", "fusion_lon": 0.0, "rental_uris": {"android": "https://dc.lft.to/lastmile_qr_scan", "ios": "https://dc.lft.to/lastmile_qr_scan"},