{"data": {"bikes": [{"fusion_lat": 0.0, "fusion_lon": 0.0, "lat": 38.899989833333336, "type": "electric_scooter", "rental_uris": {"android": "https://dc.lft.to/lastmile_qr_scan", "ios": "https://dc.lft.to/lastmile_qr_scan"}, "is_reserved": 0, "lon": -77.02713933333334, "name": "6e7671afcd3a4958ab293dd003cac453", "bike_id": "6e7671afcd3a4958ab293dd003cac453", "is_disabled": 0}, {"fusion_lat": 0.0, "fusion_lon": 0.0, "lat": 38.902921, "type": "electric_scooter", "rental_uris": {"android": "https://dc.lft.to/lastmile_qr_scan", "ios": "https://dc.lft.to/lastmile_qr_scan"}, "is_reserved": 0, "lon": -77.04689883333333, "name": "2f3b06a05be8a44aa531c5619856e07c", "bike_id": "2f3b06a05be8a44aa531c5619856e07c", "is_disabled": 0}, {"fusion_lat": 0.0, "fusion_lon": 0.0, "lat": 38.92229583333334, "type": "electric_scooter", "rental_uris": {"android": "https://dc.lft.to/lastmile_qr_scan", "ios": "https://dc.lft.to/lastmile_qr_scan"}, "is_reserved": 0, "lon": -77.04375066666667, "name": "1a16bc336d4705263e11361420d7486e", "bike_id": "1a16bc336d4705263e11361420d7486e", "is_disabled": 0}, {"fusion_lat": 0.0, "fusion_lon": 0.0, "lat": 38.9175525, "type": "electric_scooter", "rental_uris": {"android": "https://dc.lft.to/lastmile_qr_scan", "ios": "https://dc.lft.to/lastmile_qr_scan"}, "is_reserved": 0, "lon": -77.0416435, "name": "417a131513f1c953521da1d7ae253f95", "bike_id": "417a131513f1c953521da1d7ae253f95", "is_disabled": 0}, {"fusion_lat": 0.0, "fusion_lon": 0.0, "lat": 38.90870733333333, "type": "electric_scooter", "rental_uris": {"android": "https://dc.lft.to/lastmile_qr_scan", "ios": "https://dc.lft.to/lastmile_qr_scan"}, "is_reserved": 0, "lon": -77.085909, "name": "b491f1db4a98459ebaa97dfdd59515e7", "bike_id": "b491f1db4a98459ebaa97dfdd59515e7", "is_disabled": 0}, {"fusion_lat": 0.0, "fusion_lon": 0.0, "lat": 38.898323833333336, "type": "electric_scooter", "rental_uris": {"android": "https://dc.lft.to/lastmile_qr_scan", "ios": "https://dc.lft.to/lastmile_qr_scan"}, "is_reserved": 0, "lon": -77.0435615, "name": "47d88756008b2ba32a2b431a2133a4f5", "bike_id": "47d88756008b2ba32a2b431a2133a4f5", "is_disabled": 0}, {"fusion_lat": 0.0, "fusion_lon": 0.0, "lat": 38.90272, "type": "electric_scooter", "rental_uris": {"android": "https://dc.lft.to/lastmile_qr_scan", "ios": "https://dc.lft.to/lastmile_qr_scan"}, "is_reserved": 0, "lon": -77.03523233333334, "name": "8e2505f0dd84dc38f13f193728b1aebb", "bike_id": "8e2505f0dd84dc38f13f193728b1aebb", "is_disabled": 0}, {"fusion_lat": 0.0, "fusion_lon": 0.0, "lat": 38.922392333333335, "type": "electric_scooter", "rental_uris": {"android": "https://dc.lft.to/lastmile_qr_scan", "ios": "https://dc.lft.to/lastmile_qr_scan"}, "is_reserved": 0, "lon": -77.01817333333334, "name": "7243aad0fb6cb6ec3a3321c01df7491b", "bike_id": "7243aad0fb6cb6ec3a3321c01df7491b", "is_disabled": 0}, {"fusion_lat": 0.0, "fusion_lon": 0.0, "lat": 38.90378966666667, "type": "electric_scooter", "rental_uris": {"android": "https://dc.lft.to/lastmile_qr_scan", "ios": "https://dc.lft.to/lastmile_qr_scan"}, "is_reserved": 0, "lon": -77.02208533333334, "name": "a21ed9254341718c3edb67472d5ed6d8", "bike_id": "a21ed9254341718c3edb67472d5ed6d8", "is_disabled": 0}, {"fusion_lat": 0.0, "fusion_lon": 0.0, "lat": 38.93355616666667, "type": "electric_scooter", "rental_uris": {"android": "https://dc.lft.to/lastmile_qr_scan", "ios": "https://dc.lft.to/lastmile_qr_scan"}, "is_reserved": 0, "lon": -77.0411605, "name": "d894743e1e4d8e9a52eeec2e7be8a843", "bike_id": "d894743e1e4d8e9a52eeec2e7be8a843", "is_disabled": 0}, {"fusion_lat": 0.0, "fusion_lon": 0.0, "lat": 38.9302465, "type": "electric_scooter", "rental_uris": {"android": "https://dc.lft.to/lastmile_qr_scan", "ios": "https://dc.lft.to/lastmile_qr_scan"}, "is_reserved": 0, "lon": -77.0198415, "name": "56d5eed3a30ee90e43099554311f6936", "bike_id": "56d5eed3a30ee90e43099554311f6936", "is_disabled": 0}, {"fusion_lat": 0.0, "fusion_lon": 0.0, "lat": 38.9080945, "type": "electric_scooter", "rental_uris": {"android": "https://dc.lft.to/lastmile_qr_scan", "ios": "https://dc.lft.to/lastmile_qr_scan"}, "is_reserved": 0, "lon": -77.03860133333333, "name": "674cf18ab673a566298ff63ff8b33e38", "bike_id": "674cf18ab673a566298ff63ff8b33e38", "is_disabled": 0}, {"fusion_lat": 0.0, "fusion_lon": 0.0, "lat": 38.862218166666665, "type": "electric_scooter", "rental_uris": {"android": "https://dc.lft.to/lastmile_qr_scan", "ios": "https://dc.lft.to/lastmile_qr_scan"}, "is_reserved": 0, "lon": -76.99457766666667, "name": "a81e9f7718b68fe704713972b956c2fe", "bike_id": "a81e9f7718b68fe704713972b956c2fe", "is_disabled": 0}, {"fusion_lat": 0.0, "fusion_lon": 0.0, "lat": 38.9167365, "type": "electric_scooter", "rental_uris": {"android": "https://dc.lft.to/lastmile_qr_scan", "ios": "https://dc.lft.to/lastmile_qr_scan"}, "is_reserved": 0, "lon": -77.02384033333334, "name": "9b236b1967ebdda8002735c0cce9d6ee", "bike_id": "9b236b1967ebdda8002735c0cce9d6ee", "is_disabled": 0}, {"fusion_lat": 0.0, "fusion_lon": 0.0, "lat": 38.90266583333333, "type": "electric_scooter", "rental_uris": {"android": "https://dc.lft.to/lastmile_qr_scan", "ios": "https://dc.lft.to/lastmile_qr_scan"}, "is_reserved": 0, "lon": -77.017369, "name": "5b8ac2039a0e16c816e4a4475f0af910", "bike_id": "5b8ac2039a0e16c816e4a4475f0af910", "is_disabled": 0}, {"fusion_lat": 0.0, "fusion_lon": 0.0, "lat": 38.90233633333333, "type": "electric_scooter", "rental_uris": {"android": "https://dc.lft.to/lastmile_qr_scan", "ios": "https://dc.lft.to/lastmile_qr_scan"}, "is_reserved": 0, "lon": -77.0383115, "name": "f107298b496ca8a33b1fd25cefa5260d", "bike_id": "f107298b496ca8a33b1fd25cefa5260d", "is_disabled": 0}, {"fusion_lat": 0.0, "fusion_lon": 0.0, "lat": 38.918507, "type": "electric_scooter", "rental_uris": {"android": "https://dc.lft.to/lastmile_qr_scan", "ios": "https://dc.lft.to/lastmile_qr_scan"}, "is_reserved": 0, "lon": -77.0483085, "name": "84adf3f1e01c7a54f6523779e5146f5b", "bike_id": "84adf3f1e01c7a54f6523779e5146f5b", "is_disabled": 0}, {"fusion_lat": 0.0, "fusion_lon": 0.0, "lat": 38.92236283333333, "type": "electric_scooter", "rental_uris": {"android": "https://dc.lft.to/lastmile_qr_scan", "ios": "https://dc.lft.to/lastmile_qr_scan"}, "is_reserved": 0, "lon": -77.02824283333334, "name": "f3cb15145bf1f8c9245730adc2e13a65", "bike_id": "f3cb15145bf1f8c9245730adc2e13a65", "is_disabled": 0}, {"fusion_lat": 0.0, "fusion_lon": 0.0, "lat": 38.9057985, "type": "electric_scooter", "rental_uris": {"android": "https://dc.lft.to/lastmile_qr_scan", "ios": "https://dc.lft.to/lastmile_qr_scan"}, "is_reserved": 0, "lon": -77.0064395, "name": "8e9b1983861be81d2d76299bfadeb6c5", "bike_id": "8e9b1983861be81d2d76299bfadeb6c5", "is_disabled": 0}, {"fusion_lat": 0.0, "fusion_lon": 0.0, "lat": 38.92457483333333, "type": "electric_scooter", "rental_uris": {"android": "https://dc.lft.to/lastmile_qr_scan", "ios": "https://dc.lft.to/lastmile_qr_scan"}, "is_reserved": 0, "lon": -77.03300783333333, "name": "875ee5945bd01f13b203cbf7200ef05d", "bike_id": "875ee5945bd01f13b203cbf7200ef05d", "is_disabled": 0}, {"fusion_lat": 0.0, "fusion_lon": 0.0, "lat": 38.924648166666664, "type": "electric_scooter", "rental_uris": {"android": "https://dc.lft.to/lastmile_qr_scan", "ios": "https://dc.lft.to/lastmile_qr_scan"}, "is_reserved": 0, "lon": -77.021522, "name": "e2795def41c5365a5569668c2d0cada1", "bike_id": "e2795def41c5365a5569668c2d0cada1", "is_disabled": 0}, {"fusion_lat": 0.0, "fusion_lon": 0.0, "lat": 38.93524266666667, "type": "electric_scooter", "rental_uris": {"android": "https://dc.lft.to/lastmile_qr_scan", "ios": "https://dc.lft.to/lastmile_qr_scan"}, "is_reserved": 0, "lon": -77.0307995, "name": "216d5fba56cc9c90088bc429810a7d97", "bike_id": "216d5fba56cc9c90088bc429810a7d97", "is_disabled": 0}, {"fusion_lat": 0.0, "fusion_lon": 0.0, "lat": 38.92612666666667, "type": "electric_scooter", "rental_uris": {"android": "https://dc.lft.to/lastmile_qr_scan", "ios": "https://dc.lft.to/lastmile_qr_scan"}, "is_reserved": 0, "lon": -77.039567, "name": "24fac91f241beb2bd6d5cffd9352c90b", "bike_id": "24fac91f241beb2bd6d5cffd9352c90b", "is_disabled": 0}, {"fusion_lat": 0.0, "fusion_lon": 0.0, "lat": 38.809772, "type": "electric_bike", "rental_uris": {"android": "https://dc.lft.to/lastmile_qr_scan", "ios": "https://dc.lft.to/lastmile_qr_scan"}, "is_reserved": 0, "lon": -77.08626716666667, "name": "912a3468e6503903186b0969f81d3be0", "bike_id": "912a3468e6503903186b0969f81d3be0", "is_disabled": 0}, {"fusion_lat": 0.0, "fusion_lon": 0.0, "lat": 38.899934, "type": "electric_scooter", "rental_uris": {"android": "https://dc.lft.to/lastmile_qr_scan", "ios": "https://dc.lft.to/lastmile_qr_scan"}, "is_reserved": 0, "lon": -77.051074, "name": "fd8f594717c6a4fda4f20f1afeb9f94e", "bike_id": "fd8f594717c6a4fda4f20f1afeb9f94e", "is_disabled": 0}, {"fusion_lat": 0.0, "fusion_lon": 0.0, "lat": 38.892210666666664, "type": "electric_scooter", "rental_uris": {"android": "https://dc.lft.to/lastmile_qr_scan", "ios": "https://dc.lft.to/lastmile_qr_scan"}, "is_reserved": 0, "lon": -77.022176, "name": "0f8d3d3f3d4c51314f3a6cde6e517c1f", "bike_id": "0f8d3d3f3d4c51314f3a6cde6e517c1f", "is_disabled": 0}, {"fusion_lat": 0.0, "fusion_lon": 0.0, "lat": 38.89997, "type": "electric_scooter", "rental_uris": {"android": "https://dc.lft.to/lastmile_qr_scan", "ios": "https://dc.lft.to/lastmile_qr_scan"}, "is_reserved": 0, "lon": -77.03173983333333, "name": "3cc88d50023a1babefec59e237a7c3e9", "bike_id": "3cc88d50023a1babefec59e237a7c3e9", "is_disabled": 0}, {"fusion_lat": 0.0, "fusion_lon": 0.0, "lat": 38.886547666666665, "type": "electric_scooter", "rental_uris": {"android": "https://dc.lft.to/lastmile_qr_scan", "ios": "https://dc.lft.to/lastmile_qr_scan"}, "is_reserved": 0, "lon": -77.02835833333333, "name": "e5ea2d30053ff8293027e1cbf2ea5a5f", "bike_id": "e5ea2d30053ff8293027e1cbf2ea5a5f", "is_disabled": 0}, {"fusion_lat": 0.0, "fusion_lon": 0.0, "lat": 38.910318833333335, "type": "electric_scooter", "rental_uris": {"android": "https://dc.lft.to/lastmile_qr_scan", "ios": "https://dc.lft.to/lastmile_qr_scan"}, "is_reserved": 0, "lon": -77.03175316666666, "name": "e037e43aafe7363300af56a596c31cec", "bike_id": "e037e43aafe7363300af56a596c31cec", "is_disabled": 0}, {"fusion_lat": 0.0, "fusion_lon": 0.0, "lat": 38.898862666666666, "type": "electric_scooter", "rental_uris": {"android": "https://dc.lft.to/lastmile_qr_scan", "ios": "https://dc.lft.to/lastmile_qr_scan"}, "is_reserved": 0, "lon": -77.03270116666667, "name": "929b83ac0ab6cfb41f8779ab28e2703d", "bike_id": "929b83ac0ab6cfb41f8779ab28e2703d", "is_disabled": 0}, {"fusion_lat": 0.0, "fusion_lon": 0.0, "lat": 38.9383035, "type": "electric_bike", "rental_uris": {"android": "https://dc.lft.to/lastmile_qr_scan", "ios": "https://dc.lft.to/lastmile_qr_scan"}, "is_reserved": 0, "lon": -76.94314133333333, "name": "f8f117b86aa0646774ff102e5b80144a", "bike_id": "f8f117b86aa0646774ff102e5b80144a", "is_disabled": 0}, {"fusion_lat": 0.0, "fusion_lon": 0.0, "lat": 38.92232633333333, "type": "electric_scooter", "rental_uris": {"android": "https://dc.lft.to/lastmile_qr_scan", "ios": "https://dc.lft.to/lastmile_qr_scan"}, "is_reserved": 0, "lon": -77.0233105, "name": "e0cc5d8fedc4e54c218da8db635e590c", "bike_id": "e0cc5d8fedc4e54c218da8db635e590c", "is_disabled": 0}, {"fusion_lat": 0.0, "fusion_lon": 0.0, "lat": 38.91693033333333, "type": "electric_scooter", "rental_uris": {"android": "https://dc.lft.to/lastmile_qr_scan", "ios": "https://dc.lft.to/lastmile_qr_scan"}, "is_reserved": 0, "lon": -77.02595933333333, "name": "87ef4ac4ff6eacc0617cf39202811981", "bike_id": "87ef4ac4ff6eacc0617cf39202811981", "is_disabled": 0}, {"fusion_lat": 0.0, "fusion_lon": 0.0, "lat": 38.996657, "type": "electric_bike", "rental_uris": {"android": "https://dc.lft.to/lastmile_qr_scan", "ios": "https://dc.lft.to/lastmile_qr_scan"}, "is_reserved": 0, "lon": -77.0378275, "name": "e8a4b353be940c9d9b6d1903412545de", "bike_id": "e8a4b353be940c9d9b6d1903412545de", "is_disabled": 0}, {"fusion_lat": 0.0, "fusion_lon": 0.0, "lat": 38.92053416666667, "type": "electric_scooter", "rental_uris": {"android": "https://dc.lft.to/lastmile_qr_scan", "ios": "https://dc.lft.to/lastmile_qr_scan"}, "is_reserved": 0, "lon": -77.032026, "name": "f0cdd193de3c194a72dbb9e5edcb2c01", "bike_id": "f0cdd193de3c194a72dbb9e5edcb2c01", "is_disabled": 0}, {"fusion_lat": 0.0, "fusion_lon": 0.0, "lat": 38.91565133333334, "type": "electric_scooter", "rental_uris": {"android": "https://dc.lft.to/lastmile_qr_scan", "ios": "https://dc.lft.to/lastmile_qr_scan"}, "is_reserved": 0, "lon": -77.02277, "name": "aafdb32cf6004b9642f7433747c16db7", "bike_id": "aafdb32cf6004b9642f7433747c16db7", "is_disabled": 0}, {"fusion_lat": 0.0, "fusion_lon": 0.0, "lat": 38.92313633333333, "type": "electric_scooter", "rental_uris": {"android": "https://dc.lft.to/lastmile_qr_scan", "ios": "https://dc.lft.to/lastmile_qr_scan"}, "is_reserved": 0, "lon": -77.04208783333333, "name": "f03d674ee8058685c637a610d664c7e1", "bike_id": "f03d674ee8058685c637a610d664c7e1", "is_disabled": 0}, {"fusion_lat": 0.0, "fusion_lon": 0.0, "lat": 38.906223833333335, "type": "electric_scooter", "rental_uris": {"android": "https://dc.lft.to/lastmile_qr_scan", "ios": "https://dc.lft.to/lastmile_qr_scan"}, "is_reserved": 0, "lon": -77.039103, "name": "76ffb820bc7c46c72a86cf360bc3bbaa", "bike_id": "76ffb820bc7c46c72a86cf360bc3bbaa", "is_disabled": 0}, {"fusion_lat": 0.0, "fusion_lon": 0.0, "lat": 38.899656666666665, "type": "electric_scooter", "rental_uris": {"android": "https://dc.lft.to/lastmile_qr_scan", "ios": "https://dc.lft.to/lastmile_qr_scan"}, "is_reserved": 0, "lon": -77.02681516666667, "name": "70b0453e9a618bc3309be8a6b893ddf9", "bike_id": "70b0453e9a618bc3309be8a6b893ddf9", "is_disabled": 0}, {"fusion_lat": 0.0, "fusion_lon": 0.0, "lat": 38.92384083333334, "type": "electric_scooter", "rental_uris": {"android": "https://dc.lft.to/lastmile_qr_scan", "ios": "https://dc.lft.to/lastmile_qr_scan"}, "is_reserved": 0, "lon": -77.03233016666667, "name": "495f01928ab8c47c5116c21ffa3a7f2c", "bike_id": "495f01928ab8c47c5116c21ffa3a7f2c", "is_disabled": 0}, {"fusion_lat": 0.0, "fusion_lon": 0.0, "lat": 38.93391916666667, "type": "electric_scooter", "rental_uris": {"android": "https://dc.lft.to/lastmile_qr_scan", "ios": "https://dc.lft.to/lastmile_qr_scan"}, "is_reserved": 0, "lon": -77.05739316666667, "name": "fc453731a26fc90d0c93b2d9737d03ee", "bike_id": "fc453731a26fc90d0c93b2d9737d03ee", "is_disabled": 0}, {"fusion_lat": 0.0, "fusion_lon": 0.0, "lat": 38.8765355, "type": "electric_scooter", "rental_uris": {"android": "https://dc.lft.to/lastmile_qr_scan", "ios": "https://dc.lft.to/lastmile_qr_scan"}, "is_reserved": 0, "lon": -77.00426316666666, "name": "e0ebafd9acdcb07a19a3c8f1a1be08c5", "bike_id": "e0ebafd9acdcb07a19a3c8f1a1be08c5", "is_disabled": 0}, {"fusion_lat": 0.0, "fusion_lon": 0.0, "lat": 38.89752766666667, "type": "electric_scooter", "rental_uris": {"android": "https://dc.lft.to/lastmile_qr_scan", "ios": "https://dc.lft.to/lastmile_qr_scan"}, "is_reserved": 0, "lon": -77.02468166666667, "name": "9d949a28cb5a97460f59d3c0483351f6", "bike_id": "9d949a28cb5a97460f59d3c0483351f6", "is_disabled": 0}, {"fusion_lat": 0.0, "fusion_lon": 0.0, "lat": 38.923375166666666, "type": "electric_scooter", "rental_uris": {"android": "https://dc.lft.to/lastmile_qr_scan", "ios": "https://dc.lft.to/lastmile_qr_scan"}, "is_reserved": 0, "lon": -77.04303283333333, "name": "5b3a06840df4cfd088ff5c666ceec87d", "bike_id": "5b3a06840df4cfd088ff5c666ceec87d", "is_disabled": 0}, {"fusion_lat": 0.0, "fusion_lon": 0.0, "lat": 38.9246495, "type": "electric_scooter", "rental_uris": {"android": "https://dc.lft.to/lastmile_qr_scan", "ios": "https://dc.lft.to/lastmile_qr_scan"}, "is_reserved": 0, "lon": -77.02137466666667, "name": "a06715d6fb10917a903270ee0f5a60f5", "bike_id": "a06715d6fb10917a903270ee0f5a60f5", "is_disabled": 0}, {"fusion_lat": 0.0, "fusion_lon": 0.0, "lat": 38.89859883333333, "type": "electric_scooter", "rental_uris": {"android": "https://dc.lft.to/lastmile_qr_scan", "ios": "https://dc.lft.to/lastmile_qr_scan"}, "is_reserved": 0, "lon": -77.03920283333333, "name": "ec41b4f9fb0cb310ea5e45bc1709a6bc", "bike_id": "ec41b4f9fb0cb310ea5e45bc1709a6bc", "is_disabled": 0}, {"fusion_lat": 0.0, "fusion_lon": 0.0, "lat": 38.893633, "type": "electric_scooter", "rental_uris": {"android": "https://dc.lft.to/lastmile_qr_scan", "ios": "https://dc.lft.to/lastmile_qr_scan"}, "is_reserved": 0, "lon": -76.94937583333333, "name": "80a8c1ddb7716213c4e90d4ae09deee0", "bike_id": "80a8c1ddb7716213c4e90d4ae09deee0", "is_disabled": 0}, {"fusion_lat": 0.0, "fusion_lon": 0.0, "lat": 38.91543983333333, "type": "electric_scooter", "rental_uris": {"android": "https://dc.lft.to/lastmile_qr_scan", "ios": "https://dc.lft.to/lastmile_qr_scan"}, "is_reserved": 0, "lon": -77.01966, "name": "ceb25dffd44bf1a7778fbd4805004a81", "bike_id": "ceb25dffd44bf1a7778fbd4805004a81", "is_disabled": 0}, {"fusion_lat": 0.0, "fusion_lon": 0.0, "lat": 38.9098215, "type": "electric_scooter", "rental_uris": {"android": "https://dc.lft.to/lastmile_qr_scan", "ios": "https://dc.lft.to/lastmile_qr_scan"}, "is_reserved": 0, "lon": -77.03197366666667, "name": "bd14c7d861c07b350e061e453cde7ea1", "bike_id": "bd14c7d861c07b350e061e453cde7ea1", "is_disabled": 0}, {"fusion_lat": 0.0, "fusion_lon": 0.0, "lat": 38.895158333333335, "type": "electric_scooter", "rental_uris": {"android": "https://dc.lft.to/lastmile_qr_scan", "ios": "https://dc.lft.to/lastmile_qr_scan"}, "is_reserved": 0, "lon": -77.02291266666667, "name": "8ba7826edff1f5a0b71f75d65f941c46", "bike_id": "8ba7826edff1f5a0b71f75d65f941c46", "is_disabled": 0}, {"fusion_lat": 0.0, "fusion_lon": 0.0, "lat": 38.921571, "type": "electric_scooter", "rental_uris": {"android": "https://dc.lft.to/lastmile_qr_scan", "ios": "https://dc.lft.to/lastmile_qr_scan"}, "is_reserved": 0, "lon": -77.02194916666667, "name": "a405c3f7d4f1724a51f83a177cff7382", "bike_id": "a405c3f7d4f1724a51f83a177cff7382", "is_disabled": 0}, {"fusion_lat": 0.0, "fusion_lon": 0.0, "lat": 38.91068216666667, "type": "electric_scooter", "rental_uris": {"android": "https://dc.lft.to/lastmile_qr_scan", "ios": "https://dc.lft.to/lastmile_qr_scan"}, "is_reserved": 0, "lon": -77.02634933333333, "name": "078982c91cb858d1b332814494415e3c", "bike_id": "078982c91cb858d1b332814494415e3c", "is_disabled": 0}, {"fusion_lat": 0.0, "fusion_lon": 0.0, "lat": 38.86515816666667, "type": "electric_bike", "rental_uris": {"android": "https://dc.lft.to/lastmile_qr_scan", "ios": "https://dc.lft.to/lastmile_qr_scan"}, "is_reserved": 0, "lon": -77.1293495, "name": "4e7d93a16f035401d8b49fda4ba5d07e", "bike_id": "4e7d93a16f035401d8b49fda4ba5d07e", "is_disabled": 0}, {"fusion_lat": 0.0, "fusion_lon": 0.0, "lat": 38.9238865, "type": "electric_scooter", "rental_uris": {"android": "https://dc.lft.to/lastmile_qr_scan", "ios": "https://dc.lft.to/lastmile_qr_scan"}, "is_reserved": 0, "lon": -77.03662483333333, "name": "1bc069d21220121defdd13128c144478", "bike_id": "1bc069d21220121defdd13128c144478", "is_disabled": 0}, {"fusion_lat": 0.0, "fusion_lon": 0.0, "lat": 38.949246, "type": "electric_scooter", "rental_uris": {"android": "https://dc.lft.to/lastmile_qr_scan", "ios": "https://dc.lft.to/lastmile_qr_scan"}, "is_reserved": 0, "lon": -77.00763766666667, "name": "96a52bc19014815cb4cfe6b479f3b0d7", "bike_id": "96a52bc19014815cb4cfe6b479f3b0d7", "is_disabled": 0}, {"fusion_lat": 0.0, "fusion_lon": 0.0, "lat": 38.895259, "type": "electric_scooter", "rental_uris": {"android": "https://dc.lft.to/lastmile_qr_scan", "ios": "https://dc.lft.to/lastmile_qr_scan"}, "is_reserved": 0, "lon": -77.00340966666667, "name": "e7b62a317eeec3d24134fda9c8b9f2ef", "bike_id": "e7b62a317eeec3d24134fda9c8b9f2ef", "is_disabled": 0}, {"fusion_lat": 0.0, "fusion_lon": 0.0, "lat": 38.88716016666667, "type": "electric_scooter", "rental_uris": {"android": "https://dc.lft.to/lastmile_qr_scan", "ios": "https://dc.lft.to/lastmile_qr_scan"}, "is_reserved": 0, "lon": -77.02178266666667, "name": "03c6c662383459f7faa77d96942bbc2b", "bike_id": "03c6c662383459f7faa77d96942bbc2b", "is_disabled": 0}, {"fusion_lat": 0.0, "fusion_lon": 0.0, "lat": 38.9035785, "type": "electric_scooter", "rental_uris": {"android": "https://dc.lft.to/lastmile_qr_scan", "ios": "https://dc.lft.to/lastmile_qr_scan"}, "is_reserved": 0, "lon": -77.03166316666666, "name": "ec7d6d700085ebd39ad4d2447d17b4fa", "bike_id": "ec7d6d700085ebd39ad4d2447d17b4fa", "is_disabled": 0}, {"fusion_lat": 0.0, "fusion_lon": 0.0, "lat": 38.803944666666666, "type": "electric_bike", "rental_uris": {"android": "https://dc.lft.to/lastmile_qr_scan", "ios": "https://dc.lft.to/lastmile_qr_scan"}, "is_reserved": 0, "lon": -77.055633, "name": "a0c975fda0caf754f30432d1d156856a", "bike_id": "a0c975fda0caf754f30432d1d156856a", "is_disabled": 0}, {"fusion_lat": 0.0, "fusion_lon": 0.0, "lat": 38.87501183333333, "type": "electric_scooter", "rental_uris": {"android": "https://dc.lft.to/lastmile_qr_scan", "ios": "https://dc.lft.to/lastmile_qr_scan"}, "is_reserved": 0, "lon": -77.00130633333333, "name": "e502e2b64880730fe4f3284403ce1aa3", "bike_id": "e502e2b64880730fe4f3284403ce1aa3", "is_disabled": 0}, {"fusion_lat": 0.0, "fusion_lon": 0.0, "lat": 38.804496666666665, "type": "electric_bike", "rental_uris": {"android": "https://dc.lft.to/lastmile_qr_scan", "ios": "https://dc.lft.to/lastmile_qr_scan"}, "is_reserved": 0, "lon": -77.05390416666667, "name": "80bed548550e15792b079d177e348384", "bike_id": "80bed548550e15792b079d177e348384", "is_disabled": 0}, {"fusion_lat": 0.0, "fusion_lon": 0.0, "lat": 38.90480316666667, "type": "electric_scooter", "rental_uris": {"android": "https://dc.lft.to/lastmile_qr_scan", "ios": "https://dc.lft.to/lastmile_qr_scan"}, "is_reserved": 0, "lon": -77.0465525, "name": "0c2bf721cb23affa78dbbae7c644e1e0", "bike_id": "0c2bf721cb23affa78dbbae7c644e1e0", "is_disabled": 0}, {"fusion_lat": 0.0, "fusion_lon": 0.0, "lat": 38.89869183333333, "type": "electric_scooter", "rental_uris": {"android": "https://dc.lft.to/lastmile_qr_scan", "ios": "https://dc.lft.to/lastmile_qr_scan"}, "is_reserved": 0, "lon": -76.97521183333333, "name": "ba3603e5c56b9cf663a081fe576a72b5", "bike_id": "ba3603e5c56b9cf663a081fe576a72b5", "is_disabled": 0}, {"fusion_lat": 0.0, "fusion_lon": 0.0, "lat": 38.89971516666667, "type": "electric_scooter", "rental_uris": {"android": "https://dc.lft.to/lastmile_qr_scan", "ios": "https://dc.lft.to/lastmile_qr_scan"}, "is_reserved": 0, "lon": -76.98072366666666, "name": "23299511e86680ac505d5098152874d3", "bike_id": "23299511e86680ac505d5098152874d3", "is_disabled": 0}, {"fusion_lat": 0.0, "fusion_lon": 0.0, "lat": 38.91103716666667, "type": "electric_scooter", "rental_uris": {"android": "https://dc.lft.to/lastmile_qr_scan", "ios": "https://dc.lft.to/lastmile_qr_scan"}, "is_reserved": 0, "lon": -77.040869, "name": "48af7556ddbe15b61a1d1a20763b4f05", "bike_id": "48af7556ddbe15b61a1d1a20763b4f05", "is_disabled": 0}, {"fusion_lat": 0.0, "fusion_lon": 0.0, "lat": 38.91417783333333, "type": "electric_scooter", "rental_uris": {"android": "https://dc.lft.to/lastmile_qr_scan", "ios": "https://dc.lft.to/lastmile_qr_scan"}, "is_reserved": 0, "lon": -77.024046, "name": "3247fb86a29783ada549d020177697c8", "bike_id": "3247fb86a29783ada549d020177697c8", "is_disabled": 0}, {"fusion_lat": 0.0, "fusion_lon": 0.0, "lat": 38.8985695, "type": "electric_scooter", "rental_uris": {"android": "https://dc.lft.to/lastmile_qr_scan", "ios": "https://dc.lft.to/lastmile_qr_scan"}, "is_reserved": 0, "lon": -77.04371733333333, "name": "3f3b4a261ba5060e1307a68ac915a6ae", "bike_id": "3f3b4a261ba5060e1307a68ac915a6ae", "is_disabled": 0}, {"fusion_lat": 0.0, "fusion_lon": 0.0, "lat": 38.89610033333334, "type": "electric_scooter", "rental_uris": {"android": "https://dc.lft.to/lastmile_qr_scan", "ios": "https://dc.lft.to/lastmile_qr_scan"}, "is_reserved": 0, "lon": -77.04608916666666, "name": "e32e8bad2380f53c10c1ce1857e1275c", "bike_id": "e32e8bad2380f53c10c1ce1857e1275c", "is_disabled": 0}, {"fusion_lat": 0.0, "fusion_lon": 0.0, "lat": 38.898724666666666, "type": "electric_scooter", "rental_uris": {"android": "https://dc.lft.to/lastmile_qr_scan", "ios": "https://dc.lft.to/lastmile_qr_scan"}, "is_reserved": 0, "lon": -77.0327015, "name": "158b63cacfe80f311bd61e97266ecfb1", "bike_id": "158b63cacfe80f311bd61e97266ecfb1", "is_disabled": 0}, {"fusion_lat": 0.0, "fusion_lon": 0.0, "lat": 38.89765933333334, "type": "electric_scooter", "rental_uris": {"android": "https://dc.lft.to/lastmile_qr_scan", "ios": "https://dc.lft.to/lastmile_qr_scan"}, "is_reserved": 0, "lon": -77.02967866666667, "name": "26e5685fc7b8d0cce023a3169174a385", "bike_id": "26e5685fc7b8d0cce023a3169174a385", "is_disabled": 0}, {"fusion_lat": 0.0, "fusion_lon": 0.0, "lat": 38.935892, "type": "electric_scooter", "rental_uris": {"android": "https://dc.lft.to/lastmile_qr_scan", "ios": "https://dc.lft.to/lastmile_qr_scan"}, "is_reserved": 0, "lon": -77.0244885, "name": "2daf806889d4492a6c12500faaa449dd", "bike_id": "2daf806889d4492a6c12500faaa449dd", "is_disabled": 0}, {"fusion_lat": 0.0, "fusion_lon": 0.0, "lat": 38.924187833333335, "type": "electric_scooter", "rental_uris": {"android": "https://dc.lft.to/lastmile_qr_scan", "ios": "https://dc.lft.to/lastmile_qr_scan"}, "is_reserved": 0, "lon": -77.0194275, "name": "01d59d71607147045ca8b2489d24a93e", "bike_id": "01d59d71607147045ca8b2489d24a93e", "is_disabled": 0}, {"fusion_lat": 0.0, "fusion_lon": 0.0, "lat": 38.915213333333334, "type": "electric_scooter", "rental_uris": {"android": "https://dc.lft.to/lastmile_qr_scan", "ios": "https://dc.lft.to/lastmile_qr_scan"}, "is_reserved": 0, "lon": -77.04591066666667, "name": "d5915517683354ebbf01d90a0b8e0c5b", "bike_id": "d5915517683354ebbf01d90a0b8e0c5b", "is_disabled": 0}, {"fusion_lat": 0.0, "fusion_lon": 0.0, "lat": 38.892394333333336, "type": "electric_scooter", "rental_uris": {"android": "https://dc.lft.to/lastmile_qr_scan", "ios": "https://dc.lft.to/lastmile_qr_scan"}, "is_reserved": 0, "lon": -77.02582266666667, "name": "1b95ca532bb373fa83404b66cacff484", "bike_id": "1b95ca532bb373fa83404b66cacff484", "is_disabled": 0}, {"fusion_lat": 0.0, "fusion_lon": 0.0, "lat": 38.89939583333334, "type": "electric_scooter", "rental_uris": {"android": "https://dc.lft.to/lastmile_qr_scan", "ios": "https://dc.lft.to/lastmile_qr_scan"}, "is_reserved": 0, "lon": -77.04159233333333, "name": "ce07841fd830252dd4e667d12ee29cb8", "bike_id": "ce07841fd830252dd4e667d12ee29cb8", "is_disabled": 0}, {"fusion_lat": 0.0, "fusion_lon": 0.0, "lat": 38.91937433333333, "type": "electric_scooter", "rental_uris": {"android": "https://dc.lft.to/lastmile_qr_scan", "ios": "https://dc.lft.to/lastmile_qr_scan"}, "is_reserved": 0, "lon": -77.07076066666667, "name": "0b2f3bf8bc5aa882cd79a7c50363df98", "bike_id": "0b2f3bf8bc5aa882cd79a7c50363df98", "is_disabled": 0}, {"fusion_lat": 0.0, "fusion_lon": 0.0, "lat": 38.92985216666667, "type": "electric_scooter", "rental_uris": {"android": "https://dc.lft.to/lastmile_qr_scan", "ios": "https://dc.lft.to/lastmile_qr_scan"}, "is_reserved": 0, "lon": -77.02345633333333, "name": "4e16b0c26af52e34ae45925225da7e2d", "bike_id": "4e16b0c26af52e34ae45925225da7e2d", "is_disabled": 0}, {"fusion_lat": 0.0, "fusion_lon": 0.0, "lat": 38.965525666666665, "type": "electric_scooter", "rental_uris": {"android": "https://dc.lft.to/lastmile_qr_scan", "ios": "https://dc.lft.to/lastmile_qr_scan"}, "is_reserved": 0, "lon": -77.03625783333334, "name": "c38e37adda8493e1012cdd593f1b68bb", "bike_id": "c38e37adda8493e1012cdd593f1b68bb", "is_disabled": 0}, {"fusion_lat": 0.0, "fusion_lon": 0.0, "lat": 38.8859995, "type": "electric_scooter", "rental_uris": {"android": "https://dc.lft.to/lastmile_qr_scan", "ios": "https://dc.lft.to/lastmile_qr_scan"}, "is_reserved": 0, "lon": -76.99557833333333, "name": "b906ebc412496bd5d4c040a622ce3dca", "bike_id": "b906ebc412496bd5d4c040a622ce3dca", "is_disabled": 0}, {"fusion_lat": 0.0, "fusion_lon": 0.0, "lat": 38.902696, "type": "electric_scooter", "rental_uris": {"android": "https://dc.lft.to/lastmile_qr_scan", "ios": "https://dc.lft.to/lastmile_qr_scan"}, "is_reserved": 0, "lon": -77.0397675, "name": "ae61eef5c07e6e28913b7585d2e10cb6", "bike_id": "ae61eef5c07e6e28913b7585d2e10cb6", "is_disabled": 0}, {"fusion_lat": 0.0, "fusion_lon": 0.0, "lat": 38.8921245, "type": "electric_scooter", "rental_uris": {"android": "https://dc.lft.to/lastmile_qr_scan", "ios": "https://dc.lft.to/lastmile_qr_scan"}, "is_reserved": 0, "lon": -76.99570483333333, "name": "1f9a52897b5d173e9c6bb062a8b44fd2", "bike_id": "1f9a52897b5d173e9c6bb062a8b44fd2", "is_disabled": 0}, {"fusion_lat": 0.0, "fusion_lon": 0.0, "lat": 38.86040066666666, "type": "electric_scooter", "rental_uris": {"android": "https://dc.lft.to/lastmile_qr_scan", "ios": "https://dc.lft.to/lastmile_qr_scan"}, "is_reserved": 0, "lon": -76.96710483333334, "name": "b7c1ca489faa5574f57c9f6a327473c1", "bike_id": "b7c1ca489faa5574f57c9f6a327473c1", "is_disabled": 0}, {"fusion_lat": 0.0, "fusion_lon": 0.0, "lat": 38.90047833333333, "type": "electric_scooter", "rental_uris": {"android": "https://dc.lft.to/lastmile_qr_scan", "ios": "https://dc.lft.to/lastmile_qr_scan"}, "is_reserved": 0, "lon": -77.01665216666666, "name": "73ec54261d8ca37026de456e76699606", "bike_id": "73ec54261d8ca37026de456e76699606", "is_disabled": 0}, {"fusion_lat": 0.0, "fusion_lon": 0.0, "lat": 38.946237833333335, "type": "electric_scooter", "rental_uris": {"android": "https://dc.lft.to/lastmile_qr_scan", "ios": "https://dc.lft.to/lastmile_qr_scan"}, "is_reserved": 0, "lon": -77.02533533333333, "name": "726dcb6c0926c43581136afb79c7f438", "bike_id": "726dcb6c0926c43581136afb79c7f438", "is_disabled": 0}, {"fusion_lat": 0.0, "fusion_lon": 0.0, "lat": 38.8771045, "type": "electric_scooter", "rental_uris": {"android": "https://dc.lft.to/lastmile_qr_scan", "ios": "https://dc.lft.to/lastmile_qr_scan"}, "is_reserved": 0, "lon": -77.0178035, "name": "8b7297290dda3664e92c312019d1afbb", "bike_id": "8b7297290dda3664e92c312019d1afbb", "is_disabled": 0}, {"fusion_lat": 0.0, "fusion_lon": 0.0, "lat": 38.95101916666667, "type": "electric_scooter", "rental_uris": {"android": "https://dc.lft.to/lastmile_qr_scan", "ios": "https://dc.lft.to/lastmile_qr_scan"}, "is_reserved": 0, "lon": -77.0971455, "name": "0d6a23fa5fd19c15da3947de0f8d9dc2", "bike_id": "0d6a23fa5fd19c15da3947de0f8d9dc2", "is_disabled": 0}, {"fusion_lat": 0.0, "fusion_lon": 0.0, "lat": 38.873927, "type": "electric_scooter", "rental_uris": {"android": "https://dc.lft.to/lastmile_qr_scan", "ios": "https://dc.lft.to/lastmile_qr_scan"}, "is_reserved": 0, "lon": -77.00027, "name": "fbfad3d828e12ae163e7dc9705db262a", "bike_id": "fbfad3d828e12ae163e7dc9705db262a", "is_disabled": 0}, {"fusion_lat": 0.0, "fusion_lon": 0.0, "lat": 38.896096166666666, "type": "electric_scooter", "rental_uris": {"android": "https://dc.lft.to/lastmile_qr_scan", "ios": "https://dc.lft.to/lastmile_qr_scan"}, "is_reserved": 0, "lon": -77.02193916666667, "name": "abc7a3b3024b33c2f8797c51b555fa35", "bike_id": "abc7a3b3024b33c2f8797c51b555fa35", "is_disabled": 0}, {"fusion_lat": 0.0, "fusion_lon": 0.0, "lat": 38.906793, "type": "electric_scooter", "rental_uris": {"android": "https://dc.lft.to/lastmile_qr_scan", "ios": "https://dc.lft.to/lastmile_qr_scan"}, "is_reserved": 0, "lon": -77.03800233333334, "name": "90b07a6d815dea97f0a853c6632866bd", "bike_id": "90b07a6d815dea97f0a853c6632866bd", "is_disabled": 0}, {"fusion_lat": 0.0, "fusion_lon": 0.0, "lat": 38.90281566666667, "type": "electric_scooter", "rental_uris": {"android": "https://dc.lft.to/lastmile_qr_scan", "ios": "https://dc.lft.to/lastmile_qr_scan"}, "is_reserved": 0, "lon": -77.03352916666667, "name": "ff9fac51fba9affe3b36240bd65689d4", "bike_id": "ff9fac51fba9affe3b36240bd65689d4", "is_disabled": 0}, {"fusion_lat": 0.0, "fusion_lon": 0.0, "lat": 38.85970283333333, "type": "electric_scooter", "rental_uris": {"android": "https://dc.lft.to/lastmile_qr_scan", "ios": "https://dc.lft.to/lastmile_qr_scan"}, "is_reserved": 0, "lon": -76.99157833333334, "name": "5eac41261b764b3a964cac76a0d0967c", "bike_id": "5eac41261b764b3a964cac76a0d0967c", "is_disabled": 0}, {"fusion_lat": 0.0, "fusion_lon": 0.0, "lat": 38.941864, "type": "electric_scooter", "rental_uris": {"android": "https://dc.lft.to/lastmile_qr_scan", "ios": "https://dc.lft.to/lastmile_qr_scan"}, "is_reserved": 0, "lon": -77.02487533333333, "name": "bc9f7d35489d1c9e9c6b8b419733d479", "bike_id": "bc9f7d35489d1c9e9c6b8b419733d479", "is_disabled": 0}, {"fusion_lat": 0.0, "fusion_lon": 0.0, "lat": 38.956547, "type": "electric_scooter", "rental_uris": {"android": "https://dc.lft.to/lastmile_qr_scan", "ios": "https://dc.lft.to/lastmile_qr_scan"}, "is_reserved": 0, "lon": -77.01963033333334, "name": "28793bd9680cab49ac09807161e2c1d6", "bike_id": "28793bd9680cab49ac09807161e2c1d6", "is_disabled": 0}, {"fusion_lat": 0.0, "fusion_lon": 0.0, "lat": 38.908102, "type": "electric_scooter", "rental_uris": {"android": "https://dc.lft.to/lastmile_qr_scan", "ios": "https://dc.lft.to/lastmile_qr_scan"}, "is_reserved": 0, "lon": -77.03446033333333, "name": "0741b4ebbe31c98b2100b43ab67b3d7a", "bike_id": "0741b4ebbe31c98b2100b43ab67b3d7a", "is_disabled": 0}, {"fusion_lat": 0.0, "fusion_lon": 0.0, "lat": 38.987699166666665, "type": "electric_bike", "rental_uris": {"android": "https://dc.lft.to/lastmile_qr_scan", "ios": "https://dc.lft.to/lastmile_qr_scan"}, "is_reserved": 0, "lon": -77.14054766666666, "name": "2fb24e597788cfb5cfddff946a262e7e", "bike_id": "2fb24e597788cfb5cfddff946a262e7e", "is_disabled": 0}, {"fusion_lat": 0.0, "fusion_lon": 0.0, "lat": 38.92413416666667, "type": "electric_scooter", "rental_uris": {"android": "https://dc.lft.to/lastmile_qr_scan", "ios": "https://dc.lft.to/lastmile_qr_scan"}, "is_reserved": 0, "lon": -77.020039, "name": "a8bf801aed1997c42fc9273b400254e3", "bike_id": "a8bf801aed1997c42fc9273b400254e3", "is_disabled": 0}, {"fusion_lat": 0.0, "fusion_lon": 0.0, "lat": 38.86726933333333, "type": "electric_scooter", "rental_uris": {"android": "https://dc.lft.to/lastmile_qr_scan", "ios": "https://dc.lft.to/lastmile_qr_scan"}, "is_reserved": 0, "lon": -76.9869835, "name": "95cc775ffd49a627a5d3ea88f6f62ed2", "bike_id": "95cc775ffd49a627a5d3ea88f6f62ed2", "is_disabled": 0}, {"fusion_lat": 0.0, "fusion_lon": 0.0, "lat": 38.91264433333333, "type": "electric_scooter", "rental_uris": {"android": "https://dc.lft.to/lastmile_qr_scan", "ios": "https://dc.lft.to/lastmile_qr_scan"}, "is_reserved": 0, "lon": -77.03232516666667, "name": "2706ee6e37284780baf0642f243c36de", "bike_id": "2706ee6e37284780baf0642f243c36de", "is_disabled": 0}, {"fusion_lat": 0.0, "fusion_lon": 0.0, "lat": 38.9203095, "type": "electric_scooter", "rental_uris": {"android": "https://dc.lft.to/lastmile_qr_scan", "ios": "https://dc.lft.to/lastmile_qr_scan"}, "is_reserved": 0, "lon": -77.002986, "name": "55e296419934bf54f142395f100e593c", "bike_id": "55e296419934bf54f142395f100e593c", "is_disabled": 0}, {"fusion_lat": 0.0, "fusion_lon": 0.0, "lat": 38.91591233333333, "type": "electric_scooter", "rental_uris": {"android": "https://dc.lft.to/lastmile_qr_scan", "ios": "https://dc.lft.to/lastmile_qr_scan"}, "is_reserved": 0, "lon": -77.0229825, "name": "54f04d826f174ec0c6736551395cff1a", "bike_id": "54f04d826f174ec0c6736551395cff1a", "is_disabled": 0}, {"fusion_lat": 0.0, "fusion_lon": 0.0, "lat": 38.90383516666667, "type": "electric_scooter", "rental_uris": {"android": "https://dc.lft.to/lastmile_qr_scan", "ios": "https://dc.lft.to/lastmile_qr_scan"}, "is_reserved": 0, "lon": -77.04507766666667, "name": "ef89148e05a65f0b5ccf759d8fc9987f", "bike_id": "ef89148e05a65f0b5ccf759d8fc9987f", "is_disabled": 0}, {"fusion_lat": 0.0, "fusion_lon": 0.0, "lat": 38.884858, "type": "electric_scooter", "rental_uris": {"android": "https://dc.lft.to/lastmile_qr_scan", "ios": "https://dc.lft.to/lastmile_qr_scan"}, "is_reserved": 0, "lon": -77.00709833333333, "name": "d0c54b16a409b9cf66ffecc75257ae13", "bike_id": "d0c54b16a409b9cf66ffecc75257ae13", "is_disabled": 0}, {"fusion_lat": 0.0, "fusion_lon": 0.0, "lat": 38.896745, "type": "electric_scooter", "rental_uris": {"android": "https://dc.lft.to/lastmile_qr_scan", "ios": "https://dc.lft.to/lastmile_qr_scan"}, "is_reserved": 0, "lon": -77.00543616666667, "name": "ef0b75a284afa38cd5e5593e00144c1f", "bike_id": "ef0b75a284afa38cd5e5593e00144c1f", "is_disabled": 0}, {"fusion_lat": 0.0, "fusion_lon": 0.0, "lat": 38.91190616666667, "type": "electric_scooter", "rental_uris": {"android": "https://dc.lft.to/lastmile_qr_scan", "ios": "https://dc.lft.to/lastmile_qr_scan"}, "is_reserved": 0, "lon": -77.04484433333333, "name": "a7ca74912a56a0bea176927efc720066", "bike_id": "a7ca74912a56a0bea176927efc720066", "is_disabled": 0}, {"fusion_lat": 0.0, "fusion_lon": 0.0, "lat": 38.92060433333333, "type": "electric_scooter", "rental_uris": {"android": "https://dc.lft.to/lastmile_qr_scan", "ios": "https://dc.lft.to/lastmile_qr_scan"}, "is_reserved": 0, "lon": -77.04227716666666, "name": "ec36a69dd79ee40d1be3a8a76bf33aa7", "bike_id": "ec36a69dd79ee40d1be3a8a76bf33aa7", "is_disabled": 0}, {"fusion_lat": 0.0, "fusion_lon": 0.0, "lat": 38.9247375, "type": "electric_scooter", "rental_uris": {"android": "https://dc.lft.to/lastmile_qr_scan", "ios": "https://dc.lft.to/lastmile_qr_scan"}, "is_reserved": 0, "lon": -77.02216483333333, "name": "87e358cbec038a8e1313cf10af9b39df", "bike_id": "87e358cbec038a8e1313cf10af9b39df", "is_disabled": 0}, {"fusion_lat": 0.0, "fusion_lon": 0.0, "lat": 38.94414783333333, "type": "electric_scooter", "rental_uris": {"android": "https://dc.lft.to/lastmile_qr_scan", "ios": "https://dc.lft.to/lastmile_qr_scan"}, "is_reserved": 0, "lon": -77.06389566666667, "name": "4ba2da1d23f35923275a616c2b104f80", "bike_id": "4ba2da1d23f35923275a616c2b104f80", "is_disabled": 0}, {"fusion_lat": 0.0, "fusion_lon": 0.0, "lat": 38.89886766666667, "type": "electric_scooter", "rental_uris": {"android": "https://dc.lft.to/lastmile_qr_scan", "ios": "https://dc.lft.to/lastmile_qr_scan"}, "is_reserved": 0, "lon": -77.03320366666667, "name": "c04e16fdf26d4e9edb3672ff2b014ca6", "bike_id": "c04e16fdf26d4e9edb3672ff2b014ca6", "is_disabled": 0}, {"fusion_lat": 0.0, "fusion_lon": 0.0, "lat": 38.92016516666666, "type": "electric_scooter", "rental_uris": {"android": "https://dc.lft.to/lastmile_qr_scan", "ios": "https://dc.lft.to/lastmile_qr_scan"}, "is_reserved": 0, "lon": -77.0317015, "name": "8ae25482d80503f35b0c4f8aa96c0f33", "bike_id": "8ae25482d80503f35b0c4f8aa96c0f33", "is_disabled": 0}, {"fusion_lat": 0.0, "fusion_lon": 0.0, "lat": 38.908884666666665, "type": "electric_scooter", "rental_uris": {"android": "https://dc.lft.to/lastmile_qr_scan", "ios": "https://dc.lft.to/lastmile_qr_scan"}, "is_reserved": 0, "lon": -77.02804833333333, "name": "2d13fbd0134d3bf5e0207634cdedbb13", "bike_id": "2d13fbd0134d3bf5e0207634cdedbb13", "is_disabled": 0}, {"fusion_lat": 0.0, "fusion_lon": 0.0, "lat": 38.9318095, "type": "electric_scooter", "rental_uris": {"android": "https://dc.lft.to/lastmile_qr_scan", "ios": "https://dc.lft.to/lastmile_qr_scan"}, "is_reserved": 0, "lon": -77.05614983333334, "name": "dd23509fe9cd5c487d1949cd1c11ce25", "bike_id": "dd23509fe9cd5c487d1949cd1c11ce25", "is_disabled": 0}, {"fusion_lat": 0.0, "fusion_lon": 0.0, "lat": 38.911269, "type": "electric_scooter", "rental_uris": {"android": "https://dc.lft.to/lastmile_qr_scan", "ios": "https://dc.lft.to/lastmile_qr_scan"}, "is_reserved": 0, "lon": -77.03141766666667, "name": "501fe0fed5fd48d17ca080a4928951e0", "bike_id": "501fe0fed5fd48d17ca080a4928951e0", "is_disabled": 0}, {"fusion_lat": 0.0, "fusion_lon": 0.0, "lat": 38.89731616666667, "type": "electric_scooter", "rental_uris": {"android": "https://dc.lft.to/lastmile_qr_scan", "ios": "https://dc.lft.to/lastmile_qr_scan"}, "is_reserved": 0, "lon": -77.019677, "name": "1a4ce907eb7c439a7760cd9851154b7f", "bike_id": "1a4ce907eb7c439a7760cd9851154b7f", "is_disabled": 0}, {"fusion_lat": 0.0, "fusion_lon": 0.0, "lat": 38.87182216666667, "type": "electric_scooter", "rental_uris": {"android": "https://dc.lft.to/lastmile_qr_scan", "ios": "https://dc.lft.to/lastmile_qr_scan"}, "is_reserved": 0, "lon": -77.00606433333333, "name": "6cdbe93414bdbb9fdffbab451d703ed1", "bike_id": "6cdbe93414bdbb9fdffbab451d703ed1", "is_disabled": 0}, {"fusion_lat": 0.0, "fusion_lon": 0.0, "lat": 39.05500083333333, "type": "electric_bike", "rental_uris": {"android": "https://dc.lft.to/lastmile_qr_scan", "ios": "https://dc.lft.to/lastmile_qr_scan"}, "is_reserved": 0, "lon": -77.11786933333333, "name": "a5a9a4104e0a9ed8fe1b25cb70dfa906", "bike_id": "a5a9a4104e0a9ed8fe1b25cb70dfa906", "is_disabled": 0}, {"fusion_lat": 0.0, "fusion_lon": 0.0, "lat": 38.902286833333335, "type": "electric_scooter", "rental_uris": {"android": "https://dc.lft.to/lastmile_qr_scan", "ios": "https://dc.lft.to/lastmile_qr_scan"}, "is_reserved": 0, "lon": -77.0281405, "name": "9c548c019c23427bf68afe122c0908d1", "bike_id": "9c548c019c23427bf68afe122c0908d1", "is_disabled": 0}, {"fusion_lat": 0.0, "fusion_lon": 0.0, "lat": 38.975001666666664, "type": "electric_scooter", "rental_uris": {"android": "https://dc.lft.to/lastmile_qr_scan", "ios": "https://dc.lft.to/lastmile_qr_scan"}, "is_reserved": 0, "lon": -77.0169085, "name": "813e1a5a59b9c75ee3c9dd0ecb646971", "bike_id": "813e1a5a59b9c75ee3c9dd0ecb646971", "is_disabled": 0}, {"fusion_lat": 0.0, "fusion_lon": 0.0, "lat": 38.8935725, "type": "electric_scooter", "rental_uris": {"android": "https://dc.lft.to/lastmile_qr_scan", "ios": "https://dc.lft.to/lastmile_qr_scan"}, "is_reserved": 0, "lon": -77.02854383333333, "name": "5ea89b493b9f214e95160f58302cdaac", "bike_id": "5ea89b493b9f214e95160f58302cdaac", "is_disabled": 0}, {"fusion_lat": 0.0, "fusion_lon": 0.0, "lat": 38.898421166666665, "type": "electric_scooter", "rental_uris": {"android": "https://dc.lft.to/lastmile_qr_scan", "ios": "https://dc.lft.to/lastmile_qr_scan"}, "is_reserved": 0, "lon": -77.02651733333333, "name": "7e5300cb09b61ba78ec942385dc4ad09", "bike_id": "7e5300cb09b61ba78ec942385dc4ad09", "is_disabled": 0}, {"fusion_lat": 0.0, "fusion_lon": 0.0, "lat": 38.8973305, "type": "electric_scooter", "rental_uris": {"android": "https://dc.lft.to/lastmile_qr_scan", "ios": "https://dc.lft.to/lastmile_qr_scan"}, "is_reserved": 0, "lon": -77.02501566666666, "name": "551230d884f039caa86fb98b59ef2ad9", "bike_id": "551230d884f039caa86fb98b59ef2ad9", "is_disabled": 0}, {"fusion_lat": 0.0, "fusion_lon": 0.0, "lat": 38.911108666666664, "type": "electric_scooter", "rental_uris": {"android": "https://dc.lft.to/lastmile_qr_scan", "ios": "https://dc.lft.to/lastmile_qr_scan"}, "is_reserved": 0, "lon": -77.02232483333333, "name": "6001f64103263732b535cc5fc31f2616", "bike_id": "6001f64103263732b535cc5fc31f2616", "is_disabled": 0}, {"fusion_lat": 0.0, "fusion_lon": 0.0, "lat": 38.90172533333333, "type": "electric_scooter", "rental_uris": {"android": "https://dc.lft.to/lastmile_qr_scan", "ios": "https://dc.lft.to/lastmile_qr_scan"}, "is_reserved": 0, "lon": -76.926563, "name": "796b3f83796b7f96417b43121a0edb43", "bike_id": "796b3f83796b7f96417b43121a0edb43", "is_disabled": 0}, {"fusion_lat": 0.0, "fusion_lon": 0.0, "lat": 38.906035833333334, "type": "electric_scooter", "rental_uris": {"android": "https://dc.lft.to/lastmile_qr_scan", "ios": "https://dc.lft.to/lastmile_qr_scan"}, "is_reserved": 0, "lon": -77.00596816666666, "name": "5e62826bd22453eab5bf4ec93698a81c", "bike_id": "5e62826bd22453eab5bf4ec93698a81c", "is_disabled": 0}, {"fusion_lat": 0.0, "fusion_lon": 0.0, "lat": 38.973686, "type": "electric_scooter", "rental_uris": {"android": "https://dc.lft.to/lastmile_qr_scan", "ios": "https://dc.lft.to/lastmile_qr_scan"}, "is_reserved": 0, "lon": -77.018518, "name": "54799654ccb92c68f36a1443ad5b7bf8", "bike_id": "54799654ccb92c68f36a1443ad5b7bf8", "is_disabled": 0}, {"fusion_lat": 0.0, "fusion_lon": 0.0, "lat": 38.9236505, "type": "electric_scooter", "rental_uris": {"android": "https://dc.lft.to/lastmile_qr_scan", "ios": "https://dc.lft.to/lastmile_qr_scan"}, "is_reserved": 0, "lon": -77.0195155, "name": "8763b807d700f09584010df4959a4945", "bike_id": "8763b807d700f09584010df4959a4945", "is_disabled": 0}, {"fusion_lat": 0.0, "fusion_lon": 0.0, "lat": 38.9205195, "type": "electric_scooter", "rental_uris": {"android": "https://dc.lft.to/lastmile_qr_scan", "ios": "https://dc.lft.to/lastmile_qr_scan"}, "is_reserved": 0, "lon": -77.03354383333334, "name": "ea6f3f7a783a5e6da833fb3e48c594ea", "bike_id": "ea6f3f7a783a5e6da833fb3e48c594ea", "is_disabled": 0}, {"fusion_lat": 0.0, "fusion_lon": 0.0, "lat": 38.917025833333334, "type": "electric_scooter", "rental_uris": {"android": "https://dc.lft.to/lastmile_qr_scan", "ios": "https://dc.lft.to/lastmile_qr_scan"}, "is_reserved": 0, "lon": -77.011876, "name": "7020f3f98b6d2e4dc4f7acdfcfd86c37", "bike_id": "7020f3f98b6d2e4dc4f7acdfcfd86c37", "is_disabled": 0}, {"fusion_lat": 0.0, "fusion_lon": 0.0, "lat": 38.8993625, "type": "electric_scooter", "rental_uris": {"android": "https://dc.lft.to/lastmile_qr_scan", "ios": "https://dc.lft.to/lastmile_qr_scan"}, "is_reserved": 0, "lon": -77.02820916666667, "name": "69e12c5d868a1db2cb20bd6b2d795de9", "bike_id": "69e12c5d868a1db2cb20bd6b2d795de9", "is_disabled": 0}, {"fusion_lat": 0.0, "fusion_lon": 0.0, "lat": 38.91707916666667, "type": "electric_scooter", "rental_uris": {"android": "https://dc.lft.to/lastmile_qr_scan", "ios": "https://dc.lft.to/lastmile_qr_scan"}, "is_reserved": 0, "lon": -77.024554, "name": "77ce5185e5c847a10e910095c6e42ab7", "bike_id": "77ce5185e5c847a10e910095c6e42ab7", "is_disabled": 0}, {"fusion_lat": 0.0, "fusion_lon": 0.0, "lat": 38.89545833333333, "type": "electric_scooter", "rental_uris": {"android": "https://dc.lft.to/lastmile_qr_scan", "ios": "https://dc.lft.to/lastmile_qr_scan"}, "is_reserved": 0, "lon": -76.98249633333333, "name": "bc1eae78be0612cfcbc61ebc22cc403b", "bike_id": "bc1eae78be0612cfcbc61ebc22cc403b", "is_disabled": 0}, {"fusion_lat": 0.0, "fusion_lon": 0.0, "lat": 38.92027366666667, "type": "electric_scooter", "rental_uris": {"android": "https://dc.lft.to/lastmile_qr_scan", "ios": "https://dc.lft.to/lastmile_qr_scan"}, "is_reserved": 0, "lon": -77.01024333333334, "name": "68bdc1f41502ca348ed1829af0372809", "bike_id": "68bdc1f41502ca348ed1829af0372809", "is_disabled": 0}, {"fusion_lat": 0.0, "fusion_lon": 0.0, "lat": 38.900921833333335, "type": "electric_scooter", "rental_uris": {"android": "https://dc.lft.to/lastmile_qr_scan", "ios": "https://dc.lft.to/lastmile_qr_scan"}, "is_reserved": 0, "lon": -77.02711716666667, "name": "9f26ed796fa6d735441b05f53fc7be0c", "bike_id": "9f26ed796fa6d735441b05f53fc7be0c", "is_disabled": 0}, {"fusion_lat": 0.0, "fusion_lon": 0.0, "lat": 38.902337333333335, "type": "electric_scooter", "rental_uris": {"android": "https://dc.lft.to/lastmile_qr_scan", "ios": "https://dc.lft.to/lastmile_qr_scan"}, "is_reserved": 0, "lon": -77.02946566666667, "name": "d32e68d82d0bf0d0bc959d990472e8a8", "bike_id": "d32e68d82d0bf0d0bc959d990472e8a8", "is_disabled": 0}, {"fusion_lat": 0.0, "fusion_lon": 0.0, "lat": 38.90145583333333, "type": "electric_scooter", "rental_uris": {"android": "https://dc.lft.to/lastmile_qr_scan", "ios": "https://dc.lft.to/lastmile_qr_scan"}, "is_reserved": 0, "lon": -77.050493, "name": "e13507cad54bd1f6dcd1e60234ff29b9", "bike_id": "e13507cad54bd1f6dcd1e60234ff29b9", "is_disabled": 0}, {"fusion_lat": 0.0, "fusion_lon": 0.0, "lat": 38.9096485, "type": "electric_scooter", "rental_uris": {"android": "https://dc.lft.to/lastmile_qr_scan", "ios": "https://dc.lft.to/lastmile_qr_scan"}, "is_reserved": 0, "lon": -77.03286083333333, "name": "05450db274e38277dd8d7dde7e5665e8", "bike_id": "05450db274e38277dd8d7dde7e5665e8", "is_disabled": 0}, {"fusion_lat": 0.0, "fusion_lon": 0.0, "lat": 38.9015885, "type": "electric_scooter", "rental_uris": {"android": "https://dc.lft.to/lastmile_qr_scan", "ios": "https://dc.lft.to/lastmile_qr_scan"}, "is_reserved": 0, "lon": -76.97626116666666, "name": "4f7ed903f36e3729bf8bff438bb7ad20", "bike_id": "4f7ed903f36e3729bf8bff438bb7ad20", "is_disabled": 0}, {"fusion_lat": 0.0, "fusion_lon": 0.0, "lat": 38.877174, "type": "electric_scooter", "rental_uris": {"android": "https://dc.lft.to/lastmile_qr_scan", "ios": "https://dc.lft.to/lastmile_qr_scan"}, "is_reserved": 0, "lon": -77.01758583333333, "name": "5b6b7861b89b38c5ef158a63a12a1e5b", "bike_id": "5b6b7861b89b38c5ef158a63a12a1e5b", "is_disabled": 0}, {"fusion_lat": 0.0, "fusion_lon": 0.0, "lat": 38.88497616666667, "type": "electric_scooter", "rental_uris": {"android": "https://dc.lft.to/lastmile_qr_scan", "ios": "https://dc.lft.to/lastmile_qr_scan"}, "is_reserved": 0, "lon": -77.00724666666666, "name": "7deb83b214adce25b35fd2e17a4a0d34", "bike_id": "7deb83b214adce25b35fd2e17a4a0d34", "is_disabled": 0}, {"fusion_lat": 0.0, "fusion_lon": 0.0, "lat": 38.908778833333336, "type": "electric_scooter", "rental_uris": {"android": "https://dc.lft.to/lastmile_qr_scan", "ios": "https://dc.lft.to/lastmile_qr_scan"}, "is_reserved": 0, "lon": -77.0410045, "name": "2bf1886dea0644d0d366a0b85bc6c33d", "bike_id": "2bf1886dea0644d0d366a0b85bc6c33d", "is_disabled": 0}, {"fusion_lat": 0.0, "fusion_lon": 0.0, "lat": 38.926032, "type": "electric_scooter", "rental_uris": {"android": "https://dc.lft.to/lastmile_qr_scan", "ios": "https://dc.lft.to/lastmile_qr_scan"}, "is_reserved": 0, "lon": -77.02157016666666, "name": "08a25e8d7a6bcf43f4028a51c1c675b7", "bike_id": "08a25e8d7a6bcf43f4028a51c1c675b7", "is_disabled": 0}, {"fusion_lat": 0.0, "fusion_lon": 0.0, "lat": 38.87299383333333, "type": "electric_scooter", "rental_uris": {"android": "https://dc.lft.to/lastmile_qr_scan", "ios": "https://dc.lft.to/lastmile_qr_scan"}, "is_reserved": 0, "lon": -76.969016, "name": "b72523f2d4a348668eb69b27e58fbad6", "bike_id": "b72523f2d4a348668eb69b27e58fbad6", "is_disabled": 0}, {"fusion_lat": 0.0, "fusion_lon": 0.0, "lat": 38.898233833333336, "type": "electric_scooter", "rental_uris": {"android": "https://dc.lft.to/lastmile_qr_scan", "ios": "https://dc.lft.to/lastmile_qr_scan"}, "is_reserved": 0, "lon": -77.044942, "name": "f629854e2192a34f299acccee27f305f", "bike_id": "f629854e2192a34f299acccee27f305f", "is_disabled": 0}, {"fusion_lat": 0.0, "fusion_lon": 0.0, "lat": 38.880285, "type": "electric_scooter", "rental_uris": {"android": "https://dc.lft.to/lastmile_qr_scan", "ios": "https://dc.lft.to/lastmile_qr_scan"}, "is_reserved": 0, "lon": -77.02231416666666, "name": "8dad64ab7c620a0f18d2584d9ff8c594", "bike_id": "8dad64ab7c620a0f18d2584d9ff8c594", "is_disabled": 0}, {"fusion_lat": 0.0, "fusion_lon": 0.0, "lat": 38.895165166666665, "type": "electric_scooter", "rental_uris": {"android": "https://dc.lft.to/lastmile_qr_scan", "ios": "https://dc.lft.to/lastmile_qr_scan"}, "is_reserved": 0, "lon": -77.02286116666667, "name": "9ee8665a4231e4e458a23584b0d7b370", "bike_id": "9ee8665a4231e4e458a23584b0d7b370", "is_disabled": 0}, {"fusion_lat": 0.0, "fusion_lon": 0.0, "lat": 38.9203775, "type": "electric_scooter", "rental_uris": {"android": "https://dc.lft.to/lastmile_qr_scan", "ios": "https://dc.lft.to/lastmile_qr_scan"}, "is_reserved": 0, "lon": -77.0418505, "name": "220911cc3665f922fce2d43941b40768", "bike_id": "220911cc3665f922fce2d43941b40768", "is_disabled": 0}, {"fusion_lat": 0.0, "fusion_lon": 0.0, "lat": 38.905174333333335, "type": "electric_scooter", "rental_uris": {"android": "https://dc.lft.to/lastmile_qr_scan", "ios": "https://dc.lft.to/lastmile_qr_scan"}, "is_reserved": 0, "lon": -77.06153283333333, "name": "c3b72f1603191cc5a15ec90bcc1775df", "bike_id": "c3b72f1603191cc5a15ec90bcc1775df", "is_disabled": 0}, {"fusion_lat": 0.0, "fusion_lon": 0.0, "lat": 38.921519, "type": "electric_scooter", "rental_uris": {"android": "https://dc.lft.to/lastmile_qr_scan", "ios": "https://dc.lft.to/lastmile_qr_scan"}, "is_reserved": 0, "lon": -77.035002, "name": "72756f92b829750b47524026e61d4e01", "bike_id": "72756f92b829750b47524026e61d4e01", "is_disabled": 0}, {"fusion_lat": 0.0, "fusion_lon": 0.0, "lat": 38.909690499999996, "type": "electric_scooter", "rental_uris": {"android": "https://dc.lft.to/lastmile_qr_scan", "ios": "https://dc.lft.to/lastmile_qr_scan"}, "is_reserved": 0, "lon": -77.01101683333333, "name": "f29842f1e1671713fab9cf62564b1990", "bike_id": "f29842f1e1671713fab9cf62564b1990", "is_disabled": 0}, {"fusion_lat": 0.0, "fusion_lon": 0.0, "lat": 38.88472083333333, "type": "electric_scooter", "rental_uris": {"android": "https://dc.lft.to/lastmile_qr_scan", "ios": "https://dc.lft.to/lastmile_qr_scan"}, "is_reserved": 0, "lon": -77.03211183333333, "name": "625b46e07b3b12bdb3b2dba59e94b078", "bike_id": "625b46e07b3b12bdb3b2dba59e94b078", "is_disabled": 0}, {"fusion_lat": 0.0, "fusion_lon": 0.0, "lat": 38.89838833333334, "type": "electric_scooter", "rental_uris": {"android": "https://dc.lft.to/lastmile_qr_scan", "ios": "https://dc.lft.to/lastmile_qr_scan"}, "is_reserved": 0, "lon": -77.0498715, "name": "6af31d2fafdedc2dd40485d5e88b8488", "bike_id": "6af31d2fafdedc2dd40485d5e88b8488", "is_disabled": 0}, {"fusion_lat": 0.0, "fusion_lon": 0.0, "lat": 38.9537335, "type": "electric_bike", "rental_uris": {"android": "https://dc.lft.to/lastmile_qr_scan", "ios": "https://dc.lft.to/lastmile_qr_scan"}, "is_reserved": 0, "lon": -76.97964866666666, "name": "d3fa7051041afbc920f2b0f17641a07b", "bike_id": "d3fa7051041afbc920f2b0f17641a07b", "is_disabled": 0}, {"fusion_lat": 0.0, "fusion_lon": 0.0, "lat": 38.94470583333333, "type": "electric_scooter", "rental_uris": {"android": "https://dc.lft.to/lastmile_qr_scan", "ios": "https://dc.lft.to/lastmile_qr_scan"}, "is_reserved": 0, "lon": -77.023252, "name": "c9f49c463fb1bed205d38fdf3f971bcc", "bike_id": "c9f49c463fb1bed205d38fdf3f971bcc", "is_disabled": 0}, {"fusion_lat": 0.0, "fusion_lon": 0.0, "lat": 38.90847683333333, "type": "electric_scooter", "rental_uris": {"android": "https://dc.lft.to/lastmile_qr_scan", "ios": "https://dc.lft.to/lastmile_qr_scan"}, "is_reserved": 0, "lon": -77.01255516666667, "name": "120df1a4166996479e5a2a085728777b", "bike_id": "120df1a4166996479e5a2a085728777b", "is_disabled": 0}, {"fusion_lat": 0.0, "fusion_lon": 0.0, "lat": 38.896082666666665, "type": "electric_bike", "rental_uris": {"android": "https://dc.lft.to/lastmile_qr_scan", "ios": "https://dc.lft.to/lastmile_qr_scan"}, "is_reserved": 0, "lon": -76.987508, "name": "cb54288dbeed2de79e9706ee70531f78", "bike_id": "cb54288dbeed2de79e9706ee70531f78", "is_disabled": 0}, {"fusion_lat": 0.0, "fusion_lon": 0.0, "lat": 38.909632333333334, "type": "electric_scooter", "rental_uris": {"android": "https://dc.lft.to/lastmile_qr_scan", "ios": "https://dc.lft.to/lastmile_qr_scan"}, "is_reserved": 0, "lon": -77.044574, "name": "6f967590a8320602b11882852b76724d", "bike_id": "6f967590a8320602b11882852b76724d", "is_disabled": 0}, {"fusion_lat": 0.0, "fusion_lon": 0.0, "lat": 38.895833333333336, "type": "electric_scooter", "rental_uris": {"android": "https://dc.lft.to/lastmile_qr_scan", "ios": "https://dc.lft.to/lastmile_qr_scan"}, "is_reserved": 0, "lon": -76.98180516666666, "name": "1fe16fd79f4f2c1a46c3f036282107de", "bike_id": "1fe16fd79f4f2c1a46c3f036282107de", "is_disabled": 0}, {"fusion_lat": 0.0, "fusion_lon": 0.0, "lat": 38.92925666666667, "type": "electric_bike", "rental_uris": {"android": "https://dc.lft.to/lastmile_qr_scan", "ios": "https://dc.lft.to/lastmile_qr_scan"}, "is_reserved": 0, "lon": -77.03271066666667, "name": "2d80615f4b44719a10332665d1140c08", "bike_id": "2d80615f4b44719a10332665d1140c08", "is_disabled": 0}, {"fusion_lat": 0.0, "fusion_lon": 0.0, "lat": 38.89861033333333, "type": "electric_scooter", "rental_uris": {"android": "https://dc.lft.to/lastmile_qr_scan", "ios": "https://dc.lft.to/lastmile_qr_scan"}, "is_reserved": 0, "lon": -76.946372, "name": "0e58b1db786d977a4385b8a661c5f83e", "bike_id": "0e58b1db786d977a4385b8a661c5f83e", "is_disabled": 0}, {"fusion_lat": 0.0, "fusion_lon": 0.0, "lat": 38.92471066666667, "type": "electric_scooter", "rental_uris": {"android": "https://dc.lft.to/lastmile_qr_scan", "ios": "https://dc.lft.to/lastmile_qr_scan"}, "is_reserved": 0, "lon": -77.022248, "name": "b8a46357beb9c4a40ee93745fc426463", "bike_id": "b8a46357beb9c4a40ee93745fc426463", "is_disabled": 0}, {"fusion_lat": 0.0, "fusion_lon": 0.0, "lat": 38.90241533333333, "type": "electric_scooter", "rental_uris": {"android": "https://dc.lft.to/lastmile_qr_scan", "ios": "https://dc.lft.to/lastmile_qr_scan"}, "is_reserved": 0, "lon": -77.02939683333334, "name": "9538f5c4bce801fdf494a25e528602b3", "bike_id": "9538f5c4bce801fdf494a25e528602b3", "is_disabled": 0}, {"fusion_lat": 0.0, "fusion_lon": 0.0, "lat": 38.90142566666667, "type": "electric_scooter", "rental_uris": {"android": "https://dc.lft.to/lastmile_qr_scan", "ios": "https://dc.lft.to/lastmile_qr_scan"}, "is_reserved": 0, "lon": -77.04031966666666, "name": "36a3a81ab73fc01b3a81e04bb5a12247", "bike_id": "36a3a81ab73fc01b3a81e04bb5a12247", "is_disabled": 0}, {"fusion_lat": 0.0, "fusion_lon": 0.0, "lat": 38.8669005, "type": "electric_scooter", "rental_uris": {"android": "https://dc.lft.to/lastmile_qr_scan", "ios": "https://dc.lft.to/lastmile_qr_scan"}, "is_reserved": 0, "lon": -76.9854185, "name": "eb5ba6ebf3ec114fa41c120fe55a6d37", "bike_id": "eb5ba6ebf3ec114fa41c120fe55a6d37", "is_disabled": 0}, {"fusion_lat": 0.0, "fusion_lon": 0.0, "lat": 38.90825666666667, "type": "electric_scooter", "rental_uris": {"android": "https://dc.lft.to/lastmile_qr_scan", "ios": "https://dc.lft.to/lastmile_qr_scan"}, "is_reserved": 0, "lon": -77.0219105, "name": "bf08728d9365c428b96560b610a78b47", "bike_id": "bf08728d9365c428b96560b610a78b47", "is_disabled": 0}, {"fusion_lat": 0.0, "fusion_lon": 0.0, "lat": 38.91456816666667, "type": "electric_scooter", "rental_uris": {"android": "https://dc.lft.to/lastmile_qr_scan", "ios": "https://dc.lft.to/lastmile_qr_scan"}, "is_reserved": 0, "lon": -77.02195183333333, "name": "5c7fc6a0f24c760323e12c95efacb328", "bike_id": "5c7fc6a0f24c760323e12c95efacb328", "is_disabled": 0}, {"fusion_lat": 0.0, "fusion_lon": 0.0, "lat": 38.815157166666665, "type": "electric_bike", "rental_uris": {"android": "https://dc.lft.to/lastmile_qr_scan", "ios": "https://dc.lft.to/lastmile_qr_scan"}, "is_reserved": 0, "lon": -77.12656233333334, "name": "f02f28fe3a9fafd7e1b3f77ee4915453", "bike_id": "f02f28fe3a9fafd7e1b3f77ee4915453", "is_disabled": 0}, {"fusion_lat": 0.0, "fusion_lon": 0.0, "lat": 38.79472833333333, "type": "electric_bike", "rental_uris": {"android": "https://dc.lft.to/lastmile_qr_scan", "ios": "https://dc.lft.to/lastmile_qr_scan"}, "is_reserved": 0, "lon": -76.99242266666667, "name": "9d57040c24a9ed7c2815819b3afb4e77", "bike_id": "9d57040c24a9ed7c2815819b3afb4e77", "is_disabled": 0}, {"fusion_lat": 0.0, "fusion_lon": 0.0, "lat": 38.87381416666667, "type": "electric_scooter", "rental_uris": {"android": "https://dc.lft.to/lastmile_qr_scan", "ios": "https://dc.lft.to/lastmile_qr_scan"}, "is_reserved": 0, "lon": -77.00155466666666, "name": "eeea01eed16a81eba8794247f0afd68f", "bike_id": "eeea01eed16a81eba8794247f0afd68f", "is_disabled": 0}, {"fusion_lat": 0.0, "fusion_lon": 0.0, "lat": 38.96406066666667, "type": "electric_bike", "rental_uris": {"android": "https://dc.lft.to/lastmile_qr_scan", "ios": "https://dc.lft.to/lastmile_qr_scan"}, "is_reserved": 0, "lon": -76.99985666666667, "name": "55d5ca7b73fc06fde1edd2a093d28eb6", "bike_id": "55d5ca7b73fc06fde1edd2a093d28eb6", "is_disabled": 0}, {"fusion_lat": 0.0, "fusion_lon": 0.0, "lat": 38.96911266666667, "type": "electric_bike", "rental_uris": {"android": "https://dc.lft.to/lastmile_qr_scan", "ios": "https://dc.lft.to/lastmile_qr_scan"}, "is_reserved": 0, "lon": -76.99491166666667, "name": "34ded04e4daba310f33e575763bb3839", "bike_id": "34ded04e4daba310f33e575763bb3839", "is_disabled": 0}, {"fusion_lat": 0.0, "fusion_lon": 0.0, "lat": 38.89506683333333, "type": "electric_scooter", "rental_uris": {"android": "https://dc.lft.to/lastmile_qr_scan", "ios": "https://dc.lft.to/lastmile_qr_scan"}, "is_reserved": 0, "lon": -77.04670266666666, "name": "6a6ad63db9d1d141159ba0f57288152d", "bike_id": "6a6ad63db9d1d141159ba0f57288152d", "is_disabled": 0}, {"fusion_lat": 0.0, "fusion_lon": 0.0, "lat": 38.920431, "type": "electric_scooter", "rental_uris": {"android": "https://dc.lft.to/lastmile_qr_scan", "ios": "https://dc.lft.to/lastmile_qr_scan"}, "is_reserved": 0, "lon": -77.01687266666667, "name": "44ca733c448a7b350a417c15d5b58ed7", "bike_id": "44ca733c448a7b350a417c15d5b58ed7", "is_disabled": 0}, {"fusion_lat": 0.0, "fusion_lon": 0.0, "lat": 38.90381583333333, "type": "electric_scooter", "rental_uris": {"android": "https://dc.lft.to/lastmile_qr_scan", "ios": "https://dc.lft.to/lastmile_qr_scan"}, "is_reserved": 0, "lon": -77.0408425, "name": "dfaef08ab0cf70e557d51e1708810e19", "bike_id": "dfaef08ab0cf70e557d51e1708810e19", "is_disabled": 0}, {"fusion_lat": 0.0, "fusion_lon": 0.0, "lat": 38.895553666666665, "type": "electric_scooter", "rental_uris": {"android": "https://dc.lft.to/lastmile_qr_scan", "ios": "https://dc.lft.to/lastmile_qr_scan"}, "is_reserved": 0, "lon": -77.046831, "name": "633ea59c7fb5b744da57d35c19e9936f", "bike_id": "633ea59c7fb5b744da57d35c19e9936f", "is_disabled": 0}, {"fusion_lat": 0.0, "fusion_lon": 0.0, "lat": 38.9080485, "type": "electric_scooter", "rental_uris": {"android": "https://dc.lft.to/lastmile_qr_scan", "ios": "https://dc.lft.to/lastmile_qr_scan"}, "is_reserved": 0, "lon": -77.0306035, "name": "c6ca86ed674aeb663a8ca3e8764c6a65", "bike_id": "c6ca86ed674aeb663a8ca3e8764c6a65", "is_disabled": 0}, {"fusion_lat": 0.0, "fusion_lon": 0.0, "lat": 38.911542833333336, "type": "electric_scooter", "rental_uris": {"android": "https://dc.lft.to/lastmile_qr_scan", "ios": "https://dc.lft.to/lastmile_qr_scan"}, "is_reserved": 0, "lon": -77.03831716666667, "name": "f64b72fbaf0815faf1990009064b8e18", "bike_id": "f64b72fbaf0815faf1990009064b8e18", "is_disabled": 0}, {"fusion_lat": 0.0, "fusion_lon": 0.0, "lat": 38.899161666666664, "type": "electric_scooter", "rental_uris": {"android": "https://dc.lft.to/lastmile_qr_scan", "ios": "https://dc.lft.to/lastmile_qr_scan"}, "is_reserved": 0, "lon": -77.02808183333333, "name": "64570483a0a3920ad3f649933109228d", "bike_id": "64570483a0a3920ad3f649933109228d", "is_disabled": 0}, {"fusion_lat": 0.0, "fusion_lon": 0.0, "lat": 38.90942483333333, "type": "electric_scooter", "rental_uris": {"android": "https://dc.lft.to/lastmile_qr_scan", "ios": "https://dc.lft.to/lastmile_qr_scan"}, "is_reserved": 0, "lon": -77.04483866666666, "name": "83ad4556eea4e3da3ed5e834af4041db", "bike_id": "83ad4556eea4e3da3ed5e834af4041db", "is_disabled": 0}, {"fusion_lat": 0.0, "fusion_lon": 0.0, "lat": 38.92906, "type": "electric_scooter", "rental_uris": {"android": "https://dc.lft.to/lastmile_qr_scan", "ios": "https://dc.lft.to/lastmile_qr_scan"}, "is_reserved": 0, "lon": -77.02609883333334, "name": "44c0cd0d58ecee15d6159e5dff77a53c", "bike_id": "44c0cd0d58ecee15d6159e5dff77a53c", "is_disabled": 0}, {"fusion_lat": 0.0, "fusion_lon": 0.0, "lat": 38.9215915, "type": "electric_scooter", "rental_uris": {"android": "https://dc.lft.to/lastmile_qr_scan", "ios": "https://dc.lft.to/lastmile_qr_scan"}, "is_reserved": 0, "lon": -77.03836033333333, "name": "c36a1574c28a8c21af573a41f23caa79", "bike_id": "c36a1574c28a8c21af573a41f23caa79", "is_disabled": 0}, {"fusion_lat": 0.0, "fusion_lon": 0.0, "lat": 38.90260766666667, "type": "electric_scooter", "rental_uris": {"android": "https://dc.lft.to/lastmile_qr_scan", "ios": "https://dc.lft.to/lastmile_qr_scan"}, "is_reserved": 0, "lon": -77.03061883333334, "name": "cffe863dbdfe19469ea617e021f73e3c", "bike_id": "cffe863dbdfe19469ea617e021f73e3c", "is_disabled": 0}, {"fusion_lat": 0.0, "fusion_lon": 0.0, "lat": 38.97859866666667, "type": "electric_bike", "rental_uris": {"android": "https://dc.lft.to/lastmile_qr_scan", "ios": "https://dc.lft.to/lastmile_qr_scan"}, "is_reserved": 0, "lon": -76.940438, "name": "ce97ffeb67fdee3670d0e7461527562f", "bike_id": "ce97ffeb67fdee3670d0e7461527562f", "is_disabled": 0}, {"fusion_lat": 0.0, "fusion_lon": 0.0, "lat": 38.91553, "type": "electric_scooter", "rental_uris": {"android": "https://dc.lft.to/lastmile_qr_scan", "ios": "https://dc.lft.to/lastmile_qr_scan"}, "is_reserved": 0, "lon": -77.024055, "name": "41879360c81a3767cf7367f15e9b8149", "bike_id": "41879360c81a3767cf7367f15e9b8149", "is_disabled": 0}, {"fusion_lat": 0.0, "fusion_lon": 0.0, "lat": 38.867002, "type": "electric_scooter", "rental_uris": {"android": "https://dc.lft.to/lastmile_qr_scan", "ios": "https://dc.lft.to/lastmile_qr_scan"}, "is_reserved": 0, "lon": -76.98706666666666, "name": "7de4857b282028e30655c6c0837b5321", "bike_id": "7de4857b282028e30655c6c0837b5321", "is_disabled": 0}, {"fusion_lat": 0.0, "fusion_lon": 0.0, "lat": 38.8986795, "type": "electric_scooter", "rental_uris": {"android": "https://dc.lft.to/lastmile_qr_scan", "ios": "https://dc.lft.to/lastmile_qr_scan"}, "is_reserved": 0, "lon": -76.946384, "name": "3b83daf88841e76fdc6b64d7433b9803", "bike_id": "3b83daf88841e76fdc6b64d7433b9803", "is_disabled": 0}, {"fusion_lat": 0.0, "fusion_lon": 0.0, "lat": 38.90615966666667, "type": "electric_scooter", "rental_uris": {"android": "https://dc.lft.to/lastmile_qr_scan", "ios": "https://dc.lft.to/lastmile_qr_scan"}, "is_reserved": 0, "lon": -77.0513465, "name": "9a49ef6d42723a7b8de9ea7adcb18206", "bike_id": "9a49ef6d42723a7b8de9ea7adcb18206", "is_disabled": 0}, {"fusion_lat": 0.0, "fusion_lon": 0.0, "lat": 38.903614833333336, "type": "electric_scooter", "rental_uris": {"android": "https://dc.lft.to/lastmile_qr_scan", "ios": "https://dc.lft.to/lastmile_qr_scan"}, "is_reserved": 0, "lon": -77.04514733333333, "name": "0c752d6ca17eee67c9a85f703040143c", "bike_id": "0c752d6ca17eee67c9a85f703040143c", "is_disabled": 0}, {"fusion_lat": 0.0, "fusion_lon": 0.0, "lat": 38.923648, "type": "electric_scooter", "rental_uris": {"android": "https://dc.lft.to/lastmile_qr_scan", "ios": "https://dc.lft.to/lastmile_qr_scan"}, "is_reserved": 0, "lon": -77.05128816666667, "name": "ee403e75ce685c5fecdaf83fa7060111", "bike_id": "ee403e75ce685c5fecdaf83fa7060111", "is_disabled": 0}, {"fusion_lat": 0.0, "fusion_lon": 0.0, "lat": 38.892273833333334, "type": "electric_scooter", "rental_uris": {"android": "https://dc.lft.to/lastmile_qr_scan", "ios": "https://dc.lft.to/lastmile_qr_scan"}, "is_reserved": 0, "lon": -77.04647366666667, "name": "cacb30dda9adcd5b00ef5ad76b5189d5", "bike_id": "cacb30dda9adcd5b00ef5ad76b5189d5", "is_disabled": 0}, {"fusion_lat": 0.0, "fusion_lon": 0.0, "lat": 38.90894766666667, "type": "electric_scooter", "rental_uris": {"android": "https://dc.lft.to/lastmile_qr_scan", "ios": "https://dc.lft.to/lastmile_qr_scan"}, "is_reserved": 0, "lon": -77.02307283333333, "name": "fd61c62d7061fa2360a21deea63c9971", "bike_id": "fd61c62d7061fa2360a21deea63c9971", "is_disabled": 0}, {"fusion_lat": 0.0, "fusion_lon": 0.0, "lat": 38.896134833333335, "type": "electric_bike", "rental_uris": {"android": "https://dc.lft.to/lastmile_qr_scan", "ios": "https://dc.lft.to/lastmile_qr_scan"}, "is_reserved": 0, "lon": -76.90731183333334, "name": "d0c56790c933de9ed709368086b447cb", "bike_id": "d0c56790c933de9ed709368086b447cb", "is_disabled": 0}, {"fusion_lat": 0.0, "fusion_lon": 0.0, "lat": 38.897393, "type": "electric_scooter", "rental_uris": {"android": "https://dc.lft.to/lastmile_qr_scan", "ios": "https://dc.lft.to/lastmile_qr_scan"}, "is_reserved": 0, "lon": -77.03177683333334, "name": "42180524bc3526629963184f916051b0", "bike_id": "42180524bc3526629963184f916051b0", "is_disabled": 0}, {"fusion_lat": 0.0, "fusion_lon": 0.0, "lat": 38.9141525, "type": "electric_scooter", "rental_uris": {"android": "https://dc.lft.to/lastmile_qr_scan", "ios": "https://dc.lft.to/lastmile_qr_scan"}, "is_reserved": 0, "lon": -77.02583933333334, "name": "2893b28ff6342176b7f1fd6208012998", "bike_id": "2893b28ff6342176b7f1fd6208012998", "is_disabled": 0}, {"fusion_lat": 0.0, "fusion_lon": 0.0, "lat": 38.89589383333333, "type": "electric_scooter", "rental_uris": {"android": "https://dc.lft.to/lastmile_qr_scan", "ios": "https://dc.lft.to/lastmile_qr_scan"}, "is_reserved": 0, "lon": -77.0396375, "name": "bb058693366e2fff6319c6a9e333dd65", "bike_id": "bb058693366e2fff6319c6a9e333dd65", "is_disabled": 0}, {"fusion_lat": 0.0, "fusion_lon": 0.0, "lat": 38.91746033333333, "type": "electric_scooter", "rental_uris": {"android": "https://dc.lft.to/lastmile_qr_scan", "ios": "https://dc.lft.to/lastmile_qr_scan"}, "is_reserved": 0, "lon": -77.03443983333334, "name": "7f13808e5e2f90a5e51e54881308aaf7", "bike_id": "7f13808e5e2f90a5e51e54881308aaf7", "is_disabled": 0}, {"fusion_lat": 0.0, "fusion_lon": 0.0, "lat": 38.900814833333335, "type": "electric_scooter", "rental_uris": {"android": "https://dc.lft.to/lastmile_qr_scan", "ios": "https://dc.lft.to/lastmile_qr_scan"}, "is_reserved": 0, "lon": -77.02730383333333, "name": "b208dd0275fd62ed5dc5c77b4d16e1d1", "bike_id": "b208dd0275fd62ed5dc5c77b4d16e1d1", "is_disabled": 0}, {"fusion_lat": 0.0, "fusion_lon": 0.0, "lat": 38.93385383333333, "type": "electric_bike", "rental_uris": {"android": "https://dc.lft.to/lastmile_qr_scan", "ios": "https://dc.lft.to/lastmile_qr_scan"}, "is_reserved": 0, "lon": -76.99508966666667, "name": "54a2223b4364fb70ac159f9c8f88f0a2", "bike_id": "54a2223b4364fb70ac159f9c8f88f0a2", "is_disabled": 0}, {"fusion_lat": 0.0, "fusion_lon": 0.0, "lat": 38.9069395, "type": "electric_scooter", "rental_uris": {"android": "https://dc.lft.to/lastmile_qr_scan", "ios": "https://dc.lft.to/lastmile_qr_scan"}, "is_reserved": 0, "lon": -77.03587033333334, "name": "dd0b672a904c888abbf23102d058f309", "bike_id": "dd0b672a904c888abbf23102d058f309", "is_disabled": 0}, {"fusion_lat": 0.0, "fusion_lon": 0.0, "lat": 38.9357755, "type": "electric_scooter", "rental_uris": {"android": "https://dc.lft.to/lastmile_qr_scan", "ios": "https://dc.lft.to/lastmile_qr_scan"}, "is_reserved": 0, "lon": -77.019719, "name": "ac2ddffe5210d16238b22be37d28c939", "bike_id": "ac2ddffe5210d16238b22be37d28c939", "is_disabled": 0}, {"fusion_lat": 0.0, "fusion_lon": 0.0, "lat": 38.88118883333333, "type": "electric_scooter", "rental_uris": {"android": "https://dc.lft.to/lastmile_qr_scan", "ios": "https://dc.lft.to/lastmile_qr_scan"}, "is_reserved": 0, "lon": -77.02388233333333, "name": "2f31bb6e820f305119112e33745aa55b", "bike_id": "2f31bb6e820f305119112e33745aa55b", "is_disabled": 0}, {"fusion_lat": 0.0, "fusion_lon": 0.0, "lat": 38.913475, "type": "electric_scooter", "rental_uris": {"android": "https://dc.lft.to/lastmile_qr_scan", "ios": "https://dc.lft.to/lastmile_qr_scan"}, "is_reserved": 0, "lon": -77.04229566666666, "name": "36af3183a696e05ef7fbb2d43d4c7c8b", "bike_id": "36af3183a696e05ef7fbb2d43d4c7c8b", "is_disabled": 0}, {"fusion_lat": 0.0, "fusion_lon": 0.0, "lat": 38.90066816666667, "type": "electric_scooter", "rental_uris": {"android": "https://dc.lft.to/lastmile_qr_scan", "ios": "https://dc.lft.to/lastmile_qr_scan"}, "is_reserved": 0, "lon": -77.04684716666667, "name": "624ff417b4b5e50bdbe4384df1b812d8", "bike_id": "624ff417b4b5e50bdbe4384df1b812d8", "is_disabled": 0}, {"fusion_lat": 0.0, "fusion_lon": 0.0, "lat": 38.901423666666666, "type": "electric_scooter", "rental_uris": {"android": "https://dc.lft.to/lastmile_qr_scan", "ios": "https://dc.lft.to/lastmile_qr_scan"}, "is_reserved": 0, "lon": -77.0324085, "name": "2e1af8377651c43d9abcfd4b669303e9", "bike_id": "2e1af8377651c43d9abcfd4b669303e9", "is_disabled": 0}, {"fusion_lat": 0.0, "fusion_lon": 0.0, "lat": 38.919924, "type": "electric_scooter", "rental_uris": {"android": "https://dc.lft.to/lastmile_qr_scan", "ios": "https://dc.lft.to/lastmile_qr_scan"}, "is_reserved": 0, "lon": -77.032635, "name": "7c8723afa9ab1a1b207a56a3ac0c143e", "bike_id": "7c8723afa9ab1a1b207a56a3ac0c143e", "is_disabled": 0}, {"fusion_lat": 0.0, "fusion_lon": 0.0, "lat": 38.9033385, "type": "electric_scooter", "rental_uris": {"android": "https://dc.lft.to/lastmile_qr_scan", "ios": "https://dc.lft.to/lastmile_qr_scan"}, "is_reserved": 0, "lon": -77.01634966666667, "name": "c4c08eb8a2c3c042e541b2d5f9b73b8f", "bike_id": "c4c08eb8a2c3c042e541b2d5f9b73b8f", "is_disabled": 0}, {"fusion_lat": 0.0, "fusion_lon": 0.0, "lat": 38.866906666666665, "type": "electric_scooter", "rental_uris": {"android": "https://dc.lft.to/lastmile_qr_scan", "ios": "https://dc.lft.to/lastmile_qr_scan"}, "is_reserved": 0, "lon": -76.985418, "name": "fa9f3780ec47b8ed00e9ac371502b060", "bike_id": "fa9f3780ec47b8ed00e9ac371502b060", "is_disabled": 0}, {"fusion_lat": 0.0, "fusion_lon": 0.0, "lat": 38.87462883333333, "type": "electric_scooter", "rental_uris": {"android": "https://dc.lft.to/lastmile_qr_scan", "ios": "https://dc.lft.to/lastmile_qr_scan"}, "is_reserved": 0, "lon": -77.00501066666666, "name": "eaa246f37bb11ff2298c44b36f191af0", "bike_id": "eaa246f37bb11ff2298c44b36f191af0", "is_disabled": 0}, {"fusion_lat": 0.0, "fusion_lon": 0.0, "lat": 38.92122416666667, "type": "electric_scooter", "rental_uris": {"android": "https://dc.lft.to/lastmile_qr_scan", "ios": "https://dc.lft.to/lastmile_qr_scan"}, "is_reserved": 0, "lon": -77.02087566666667, "name": "b3220040f61a3a5001df283a65f7968b", "bike_id": "b3220040f61a3a5001df283a65f7968b", "is_disabled": 0}, {"fusion_lat": 0.0, "fusion_lon": 0.0, "lat": 38.935357, "type": "electric_scooter", "rental_uris": {"android": "https://dc.lft.to/lastmile_qr_scan", "ios": "https://dc.lft.to/lastmile_qr_scan"}, "is_reserved": 0, "lon": -77.023526, "name": "a58c2e60a4db70b9fa3764a046fbd522", "bike_id": "a58c2e60a4db70b9fa3764a046fbd522", "is_disabled": 0}, {"fusion_lat": 0.0, "fusion_lon": 0.0, "lat": 38.93905866666667, "type": "electric_scooter", "rental_uris": {"android": "https://dc.lft.to/lastmile_qr_scan", "ios": "https://dc.lft.to/lastmile_qr_scan"}, "is_reserved": 0, "lon": -77.08486433333333, "name": "ec1bede48f55105110e367e0092baac5", "bike_id": "ec1bede48f55105110e367e0092baac5", "is_disabled": 0}, {"fusion_lat": 0.0, "fusion_lon": 0.0, "lat": 38.91744716666667, "type": "electric_scooter", "rental_uris": {"android": "https://dc.lft.to/lastmile_qr_scan", "ios": "https://dc.lft.to/lastmile_qr_scan"}, "is_reserved": 0, "lon": -77.03178633333333, "name": "db58a41131e9cba112a4675f1e4de017", "bike_id": "db58a41131e9cba112a4675f1e4de017", "is_disabled": 0}, {"fusion_lat": 0.0, "fusion_lon": 0.0, "lat": 38.88030916666666, "type": "electric_scooter", "rental_uris": {"android": "https://dc.lft.to/lastmile_qr_scan", "ios": "https://dc.lft.to/lastmile_qr_scan"}, "is_reserved": 0, "lon": -77.0250725, "name": "bc8b4f130e16586f668861a21981a810", "bike_id": "bc8b4f130e16586f668861a21981a810", "is_disabled": 0}, {"fusion_lat": 0.0, "fusion_lon": 0.0, "lat": 38.90357, "type": "electric_scooter", "rental_uris": {"android": "https://dc.lft.to/lastmile_qr_scan", "ios": "https://dc.lft.to/lastmile_qr_scan"}, "is_reserved": 0, "lon": -77.03549916666667, "name": "cd9b259dcc21fe7d902e2545be34fd39", "bike_id": "cd9b259dcc21fe7d902e2545be34fd39", "is_disabled": 0}, {"fusion_lat": 0.0, "fusion_lon": 0.0, "lat": 38.85894566666666, "type": "electric_bike", "rental_uris": {"android": "https://dc.lft.to/lastmile_qr_scan", "ios": "https://dc.lft.to/lastmile_qr_scan"}, "is_reserved": 0, "lon": -77.11862133333334, "name": "6bc21cd599863c8014e5525d7cffd73b", "bike_id": "6bc21cd599863c8014e5525d7cffd73b", "is_disabled": 0}, {"fusion_lat": 0.0, "fusion_lon": 0.0, "lat": 38.885125333333335, "type": "electric_scooter", "rental_uris": {"android": "https://dc.lft.to/lastmile_qr_scan", "ios": "https://dc.lft.to/lastmile_qr_scan"}, "is_reserved": 0, "lon": -77.002314, "name": "2f193665a1b4b9e20101a3f7c56abc14", "bike_id": "2f193665a1b4b9e20101a3f7c56abc14", "is_disabled": 0}, {"fusion_lat": 0.0, "fusion_lon": 0.0, "lat": 38.89960583333333, "type": "electric_scooter", "rental_uris": {"android": "https://dc.lft.to/lastmile_qr_scan", "ios": "https://dc.lft.to/lastmile_qr_scan"}, "is_reserved": 0, "lon": -77.04518716666666, "name": "6405b17ae5c65e760c0d4f3534921804", "bike_id": "6405b17ae5c65e760c0d4f3534921804", "is_disabled": 0}, {"fusion_lat": 0.0, "fusion_lon": 0.0, "lat": 38.8737035, "type": "electric_scooter", "rental_uris": {"android": "https://dc.lft.to/lastmile_qr_scan", "ios": "https://dc.lft.to/lastmile_qr_scan"}, "is_reserved": 0, "lon": -77.00065416666666, "name": "87768f5323e59b32df001f6fcd776736", "bike_id": "87768f5323e59b32df001f6fcd776736", "is_disabled": 0}, {"fusion_lat": 0.0, "fusion_lon": 0.0, "lat": 38.9155755, "type": "electric_scooter", "rental_uris": {"android": "https://dc.lft.to/lastmile_qr_scan", "ios": "https://dc.lft.to/lastmile_qr_scan"}, "is_reserved": 0, "lon": -77.03169533333333, "name": "1855a006b4080449398c4867dd4eae09", "bike_id": "1855a006b4080449398c4867dd4eae09", "is_disabled": 0}, {"fusion_lat": 0.0, "fusion_lon": 0.0, "lat": 38.88454183333333, "type": "electric_scooter", "rental_uris": {"android": "https://dc.lft.to/lastmile_qr_scan", "ios": "https://dc.lft.to/lastmile_qr_scan"}, "is_reserved": 0, "lon": -76.95093083333333, "name": "2184586972ac78203ad7944f4f1ca76b", "bike_id": "2184586972ac78203ad7944f4f1ca76b", "is_disabled": 0}, {"fusion_lat": 0.0, "fusion_lon": 0.0, "lat": 38.9320995, "type": "electric_scooter", "rental_uris": {"android": "https://dc.lft.to/lastmile_qr_scan", "ios": "https://dc.lft.to/lastmile_qr_scan"}, "is_reserved": 0, "lon": -76.99902233333333, "name": "0000c3461a9a0344a0a31b55d3828f09", "bike_id": "0000c3461a9a0344a0a31b55d3828f09", "is_disabled": 0}, {"fusion_lat": 0.0, "fusion_lon": 0.0, "lat": 38.93948966666667, "type": "electric_scooter", "rental_uris": {"android": "https://dc.lft.to/lastmile_qr_scan", "ios": "https://dc.lft.to/lastmile_qr_scan"}, "is_reserved": 0, "lon": -77.02495483333334, "name": "1ad9dc38e89fff308f76d49d6e411051", "bike_id": "1ad9dc38e89fff308f76d49d6e411051", "is_disabled": 0}, {"fusion_lat": 0.0, "fusion_lon": 0.0, "lat": 38.8955835, "type": "electric_scooter", "rental_uris": {"android": "https://dc.lft.to/lastmile_qr_scan", "ios": "https://dc.lft.to/lastmile_qr_scan"}, "is_reserved": 0, "lon": -77.04674066666666, "name": "a0d9d8a69d9ce2f524ec4a31e7bc1771", "bike_id": "a0d9d8a69d9ce2f524ec4a31e7bc1771", "is_disabled": 0}, {"fusion_lat": 0.0, "fusion_lon": 0.0, "lat": 38.91991683333333, "type": "electric_scooter", "rental_uris": {"android": "https://dc.lft.to/lastmile_qr_scan", "ios": "https://dc.lft.to/lastmile_qr_scan"}, "is_reserved": 0, "lon": -77.0326445, "name": "d51496e08d1dc7c7a5d71b9463453e88", "bike_id": "d51496e08d1dc7c7a5d71b9463453e88", "is_disabled": 0}, {"fusion_lat": 0.0, "fusion_lon": 0.0, "lat": 38.9349705, "type": "electric_bike", "rental_uris": {"android": "https://dc.lft.to/lastmile_qr_scan", "ios": "https://dc.lft.to/lastmile_qr_scan"}, "is_reserved": 0, "lon": -76.9979805, "name": "8bb6bdca2044353793ccaf452507001d", "bike_id": "8bb6bdca2044353793ccaf452507001d", "is_disabled": 0}, {"fusion_lat": 0.0, "fusion_lon": 0.0, "lat": 39.04087033333333, "type": "electric_bike", "rental_uris": {"android": "https://dc.lft.to/lastmile_qr_scan", "ios": "https://dc.lft.to/lastmile_qr_scan"}, "is_reserved": 0, "lon": -77.053411, "name": "6b0731edbab021898c9af9d802feae19", "bike_id": "6b0731edbab021898c9af9d802feae19", "is_disabled": 0}, {"fusion_lat": 0.0, "fusion_lon": 0.0, "lat": 38.9358595, "type": "electric_scooter", "rental_uris": {"android": "https://dc.lft.to/lastmile_qr_scan", "ios": "https://dc.lft.to/lastmile_qr_scan"}, "is_reserved": 0, "lon": -77.03350083333333, "name": "775af4575b821385e86e017d64744619", "bike_id": "775af4575b821385e86e017d64744619", "is_disabled": 0}, {"fusion_lat": 0.0, "fusion_lon": 0.0, "lat": 38.9174835, "type": "electric_scooter", "rental_uris": {"android": "https://dc.lft.to/lastmile_qr_scan", "ios": "https://dc.lft.to/lastmile_qr_scan"}, "is_reserved": 0, "lon": -77.04319733333334, "name": "93a847b834d304399c4f29ced9ae7b56", "bike_id": "93a847b834d304399c4f29ced9ae7b56", "is_disabled": 0}, {"fusion_lat": 0.0, "fusion_lon": 0.0, "lat": 38.892237, "type": "electric_scooter", "rental_uris": {"android": "https://dc.lft.to/lastmile_qr_scan", "ios": "https://dc.lft.to/lastmile_qr_scan"}, "is_reserved": 0, "lon": -77.0148645, "name": "bc2c561a0eb0932178ed5bf8e1f805f2", "bike_id": "bc2c561a0eb0932178ed5bf8e1f805f2", "is_disabled": 0}, {"fusion_lat": 0.0, "fusion_lon": 0.0, "lat": 38.8950365, "type": "electric_scooter", "rental_uris": {"android": "https://dc.lft.to/lastmile_qr_scan", "ios": "https://dc.lft.to/lastmile_qr_scan"}, "is_reserved": 0, "lon": -77.04676316666666, "name": "3bbd5daa23ac71e92eac4d49ba1f5f60", "bike_id": "3bbd5daa23ac71e92eac4d49ba1f5f60", "is_disabled": 0}, {"fusion_lat": 0.0, "fusion_lon": 0.0, "lat": 38.91099333333333, "type": "electric_scooter", "rental_uris": {"android": "https://dc.lft.to/lastmile_qr_scan", "ios": "https://dc.lft.to/lastmile_qr_scan"}, "is_reserved": 0, "lon": -77.02798116666666, "name": "d24a2a40decca3071bf153e38e5e69e4", "bike_id": "d24a2a40decca3071bf153e38e5e69e4", "is_disabled": 0}, {"fusion_lat": 0.0, "fusion_lon": 0.0, "lat": 38.903691333333335, "type": "electric_scooter", "rental_uris": {"android": "https://dc.lft.to/lastmile_qr_scan", "ios": "https://dc.lft.to/lastmile_qr_scan"}, "is_reserved": 0, "lon": -77.03436483333333, "name": "20ff410e7014df69f45a4b29c5a09d0a", "bike_id": "20ff410e7014df69f45a4b29c5a09d0a", "is_disabled": 0}, {"fusion_lat": 0.0, "fusion_lon": 0.0, "lat": 38.930582, "type": "electric_scooter", "rental_uris": {"android": "https://dc.lft.to/lastmile_qr_scan", "ios": "https://dc.lft.to/lastmile_qr_scan"}, "is_reserved": 0, "lon": -77.03363983333334, "name": "8bdf9eacbb4ba66320c6fb0c3bba7219", "bike_id": "8bdf9eacbb4ba66320c6fb0c3bba7219", "is_disabled": 0}, {"fusion_lat": 0.0, "fusion_lon": 0.0, "lat": 38.895282, "type": "electric_scooter", "rental_uris": {"android": "https://dc.lft.to/lastmile_qr_scan", "ios": "https://dc.lft.to/lastmile_qr_scan"}, "is_reserved": 0, "lon": -77.00339716666667, "name": "c40a9d2cef2c6551d5a9adf689ae07cc", "bike_id": "c40a9d2cef2c6551d5a9adf689ae07cc", "is_disabled": 0}, {"fusion_lat": 0.0, "fusion_lon": 0.0, "lat": 38.89355916666667, "type": "electric_scooter", "rental_uris": {"android": "https://dc.lft.to/lastmile_qr_scan", "ios": "https://dc.lft.to/lastmile_qr_scan"}, "is_reserved": 0, "lon": -77.01971933333333, "name": "677e641f17e1043cf23dceef9c91aacb", "bike_id": "677e641f17e1043cf23dceef9c91aacb", "is_disabled": 0}, {"fusion_lat": 0.0, "fusion_lon": 0.0, "lat": 38.906663333333334, "type": "electric_scooter", "rental_uris": {"android": "https://dc.lft.to/lastmile_qr_scan", "ios": "https://dc.lft.to/lastmile_qr_scan"}, "is_reserved": 0, "lon": -77.02803983333334, "name": "a837ae9e5e6f91802b51e5445ab61ff8", "bike_id": "a837ae9e5e6f91802b51e5445ab61ff8", "is_disabled": 0}, {"fusion_lat": 0.0, "fusion_lon": 0.0, "lat": 38.917905, "type": "electric_scooter", "rental_uris": {"android": "https://dc.lft.to/lastmile_qr_scan", "ios": "https://dc.lft.to/lastmile_qr_scan"}, "is_reserved": 0, "lon": -77.04975266666666, "name": "497eda2ff50597894d43d7c87946a240", "bike_id": "497eda2ff50597894d43d7c87946a240", "is_disabled": 0}, {"fusion_lat": 0.0, "fusion_lon": 0.0, "lat": 38.8672505, "type": "electric_scooter", "rental_uris": {"android": "https://dc.lft.to/lastmile_qr_scan", "ios": "https://dc.lft.to/lastmile_qr_scan"}, "is_reserved": 0, "lon": -76.98694466666667, "name": "23cd70483f2df90b4c0093ae51e8369f", "bike_id": "23cd70483f2df90b4c0093ae51e8369f", "is_disabled": 0}, {"fusion_lat": 0.0, "fusion_lon": 0.0, "lat": 38.9001115, "type": "electric_scooter", "rental_uris": {"android": "https://dc.lft.to/lastmile_qr_scan", "ios": "https://dc.lft.to/lastmile_qr_scan"}, "is_reserved": 0, "lon": -77.03037866666666, "name": "ca89efc3b321357369fddf41c2ab6269", "bike_id": "ca89efc3b321357369fddf41c2ab6269", "is_disabled": 0}, {"fusion_lat": 0.0, "fusion_lon": 0.0, "lat": 38.922709833333336, "type": "electric_scooter", "rental_uris": {"android": "https://dc.lft.to/lastmile_qr_scan", "ios": "https://dc.lft.to/lastmile_qr_scan"}, "is_reserved": 0, "lon": -77.01905183333334, "name": "5ca2d7356601552866d57253bafab778", "bike_id": "5ca2d7356601552866d57253bafab778", "is_disabled": 0}, {"fusion_lat": 0.0, "fusion_lon": 0.0, "lat": 38.88149933333333, "type": "electric_scooter", "rental_uris": {"android": "https://dc.lft.to/lastmile_qr_scan", "ios": "https://dc.lft.to/lastmile_qr_scan"}, "is_reserved": 0, "lon": -77.0270785, "name": "556a7a7eb68c7aae5e495bb045fe5875", "bike_id": "556a7a7eb68c7aae5e495bb045fe5875", "is_disabled": 0}, {"fusion_lat": 0.0, "fusion_lon": 0.0, "lat": 38.92235566666667, "type": "electric_scooter", "rental_uris": {"android": "https://dc.lft.to/lastmile_qr_scan", "ios": "https://dc.lft.to/lastmile_qr_scan"}, "is_reserved": 0, "lon": -77.0426505, "name": "fe284f850d5f2f7e10e7a073edcee247", "bike_id": "fe284f850d5f2f7e10e7a073edcee247", "is_disabled": 0}, {"fusion_lat": 0.0, "fusion_lon": 0.0, "lat": 38.87731866666667, "type": "electric_scooter", "rental_uris": {"android": "https://dc.lft.to/lastmile_qr_scan", "ios": "https://dc.lft.to/lastmile_qr_scan"}, "is_reserved": 0, "lon": -77.0034595, "name": "2c929b5f8c0055e2116fd9c36a0601cb", "bike_id": "2c929b5f8c0055e2116fd9c36a0601cb", "is_disabled": 0}, {"fusion_lat": 0.0, "fusion_lon": 0.0, "lat": 38.873842, "type": "electric_scooter", "rental_uris": {"android": "https://dc.lft.to/lastmile_qr_scan", "ios": "https://dc.lft.to/lastmile_qr_scan"}, "is_reserved": 0, "lon": -77.04349733333333, "name": "7f908d1d0dc7abec65a6f2a35fdc9ca1", "bike_id": "7f908d1d0dc7abec65a6f2a35fdc9ca1", "is_disabled": 0}, {"fusion_lat": 0.0, "fusion_lon": 0.0, "lat": 38.91568766666666, "type": "electric_scooter", "rental_uris": {"android": "https://dc.lft.to/lastmile_qr_scan", "ios": "https://dc.lft.to/lastmile_qr_scan"}, "is_reserved": 0, "lon": -77.03186266666667, "name": "0cfcb485a21625252060e1630c422554", "bike_id": "0cfcb485a21625252060e1630c422554", "is_disabled": 0}, {"fusion_lat": 0.0, "fusion_lon": 0.0, "lat": 38.92863366666667, "type": "electric_scooter", "rental_uris": {"android": "https://dc.lft.to/lastmile_qr_scan", "ios": "https://dc.lft.to/lastmile_qr_scan"}, "is_reserved": 0, "lon": -77.01412683333334, "name": "848304a67c04a647184954b0d89609d7", "bike_id": "848304a67c04a647184954b0d89609d7", "is_disabled": 0}, {"fusion_lat": 0.0, "fusion_lon": 0.0, "lat": 38.860375833333336, "type": "electric_scooter", "rental_uris": {"android": "https://dc.lft.to/lastmile_qr_scan", "ios": "https://dc.lft.to/lastmile_qr_scan"}, "is_reserved": 0, "lon": -76.96713566666666, "name": "a389e0949709661d8077a50381b1999d", "bike_id": "a389e0949709661d8077a50381b1999d", "is_disabled": 0}, {"fusion_lat": 0.0, "fusion_lon": 0.0, "lat": 38.8768285, "type": "electric_scooter", "rental_uris": {"android": "https://dc.lft.to/lastmile_qr_scan", "ios": "https://dc.lft.to/lastmile_qr_scan"}, "is_reserved": 0, "lon": -77.01968983333333, "name": "b435af5aab590a8076281a0044f47c68", "bike_id": "b435af5aab590a8076281a0044f47c68", "is_disabled": 0}, {"fusion_lat": 0.0, "fusion_lon": 0.0, "lat": 38.918768166666666, "type": "electric_scooter", "rental_uris": {"android": "https://dc.lft.to/lastmile_qr_scan", "ios": "https://dc.lft.to/lastmile_qr_scan"}, "is_reserved": 0, "lon": -77.041728, "name": "64d32876ee95def8343c0af0a75d2578", "bike_id": "64d32876ee95def8343c0af0a75d2578", "is_disabled": 0}, {"fusion_lat": 0.0, "fusion_lon": 0.0, "lat": 38.90142983333333, "type": "electric_scooter", "rental_uris": {"android": "https://dc.lft.to/lastmile_qr_scan", "ios": "https://dc.lft.to/lastmile_qr_scan"}, "is_reserved": 0, "lon": -77.033531, "name": "89da074d609e19c18cce124b76bb041f", "bike_id": "89da074d609e19c18cce124b76bb041f", "is_disabled": 0}, {"fusion_lat": 0.0, "fusion_lon": 0.0, "lat": 38.8729305, "type": "electric_bike", "rental_uris": {"android": "https://dc.lft.to/lastmile_qr_scan", "ios": "https://dc.lft.to/lastmile_qr_scan"}, "is_reserved": 0, "lon": -77.01095133333334, "name": "921169384c3df54df889206c28aae3d4", "bike_id": "921169384c3df54df889206c28aae3d4", "is_disabled": 0}, {"fusion_lat": 0.0, "fusion_lon": 0.0, "lat": 38.90273333333333, "type": "electric_scooter", "rental_uris": {"android": "https://dc.lft.to/lastmile_qr_scan", "ios": "https://dc.lft.to/lastmile_qr_scan"}, "is_reserved": 0, "lon": -77.0385865, "name": "62df6db20f8b608c9d425e9cdba91cfc", "bike_id": "62df6db20f8b608c9d425e9cdba91cfc", "is_disabled": 0}, {"fusion_lat": 0.0, "fusion_lon": 0.0, "lat": 38.91748416666667, "type": "electric_scooter", "rental_uris": {"android": "https://dc.lft.to/lastmile_qr_scan", "ios": "https://dc.lft.to/lastmile_qr_scan"}, "is_reserved": 0, "lon": -77.03640933333334, "name": "1c44343146710387468495f2720fd70c", "bike_id": "1c44343146710387468495f2720fd70c", "is_disabled": 0}, {"fusion_lat": 0.0, "fusion_lon": 0.0, "lat": 38.89492516666667, "type": "electric_scooter", "rental_uris": {"android": "https://dc.lft.to/lastmile_qr_scan", "ios": "https://dc.lft.to/lastmile_qr_scan"}, "is_reserved": 0, "lon": -77.0025465, "name": "6358a8259e9968a99af4ce1e8d56a59c", "bike_id": "6358a8259e9968a99af4ce1e8d56a59c", "is_disabled": 0}, {"fusion_lat": 0.0, "fusion_lon": 0.0, "lat": 38.9650545, "type": "electric_scooter", "rental_uris": {"android": "https://dc.lft.to/lastmile_qr_scan", "ios": "https://dc.lft.to/lastmile_qr_scan"}, "is_reserved": 0, "lon": -77.00199633333334, "name": "e343a467088fd630873f8935404e9631", "bike_id": "e343a467088fd630873f8935404e9631", "is_disabled": 0}, {"fusion_lat": 0.0, "fusion_lon": 0.0, "lat": 38.917536166666665, "type": "electric_scooter", "rental_uris": {"android": "https://dc.lft.to/lastmile_qr_scan", "ios": "https://dc.lft.to/lastmile_qr_scan"}, "is_reserved": 0, "lon": -77.04764083333333, "name": "ae2fcf0b32d2d906c845739d60d06f2d", "bike_id": "ae2fcf0b32d2d906c845739d60d06f2d", "is_disabled": 0}, {"fusion_lat": 0.0, "fusion_lon": 0.0, "lat": 38.8464875, "type": "electric_scooter", "rental_uris": {"android": "https://dc.lft.to/lastmile_qr_scan", "ios": "https://dc.lft.to/lastmile_qr_scan"}, "is_reserved": 0, "lon": -77.005296, "name": "8bb5d2c66375d574b45d00f533a5726c", "bike_id": "8bb5d2c66375d574b45d00f533a5726c", "is_disabled": 0}, {"fusion_lat": 0.0, "fusion_lon": 0.0, "lat": 38.905807333333335, "type": "electric_scooter", "rental_uris": {"android": "https://dc.lft.to/lastmile_qr_scan", "ios": "https://dc.lft.to/lastmile_qr_scan"}, "is_reserved": 0, "lon": -77.04031283333333, "name": "17256f2cbfe646ed8d907adb831bc139", "bike_id": "17256f2cbfe646ed8d907adb831bc139", "is_disabled": 0}, {"fusion_lat": 0.0, "fusion_lon": 0.0, "lat": 38.873735, "type": "electric_scooter", "rental_uris": {"android": "https://dc.lft.to/lastmile_qr_scan", "ios": "https://dc.lft.to/lastmile_qr_scan"}, "is_reserved": 0, "lon": -77.001077, "name": "4a1b5bf7ff653ae7d2b48de258b3f267", "bike_id": "4a1b5bf7ff653ae7d2b48de258b3f267", "is_disabled": 0}, {"fusion_lat": 0.0, "fusion_lon": 0.0, "lat": 38.909807, "type": "electric_scooter", "rental_uris": {"android": "https://dc.lft.to/lastmile_qr_scan", "ios": "https://dc.lft.to/lastmile_qr_scan"}, "is_reserved": 0, "lon": -77.0384365, "name": "63f32b7992dcae238f723ffff919a728", "bike_id": "63f32b7992dcae238f723ffff919a728", "is_disabled": 0}, {"fusion_lat": 0.0, "fusion_lon": 0.0, "lat": 38.92612416666667, "type": "electric_scooter", "rental_uris": {"android": "https://dc.lft.to/lastmile_qr_scan", "ios": "https://dc.lft.to/lastmile_qr_scan"}, "is_reserved": 0, "lon": -77.02158183333333, "name": "e793f25e4aab7998fb1e9543e3d12b13", "bike_id": "e793f25e4aab7998fb1e9543e3d12b13", "is_disabled": 0}, {"fusion_lat": 0.0, "fusion_lon": 0.0, "lat": 38.9025375, "type": "electric_scooter", "rental_uris": {"android": "https://dc.lft.to/lastmile_qr_scan", "ios": "https://dc.lft.to/lastmile_qr_scan"}, "is_reserved": 0, "lon": -77.0182825, "name": "5bf3bff3459c43a119e658f29f95378a", "bike_id": "5bf3bff3459c43a119e658f29f95378a", "is_disabled": 0}, {"fusion_lat": 0.0, "fusion_lon": 0.0, "lat": 38.93645516666667, "type": "electric_scooter", "rental_uris": {"android": "https://dc.lft.to/lastmile_qr_scan", "ios": "https://dc.lft.to/lastmile_qr_scan"}, "is_reserved": 0, "lon": -77.0238, "name": "7fdb6bca7a7a72e483add2465c8e75fd", "bike_id": "7fdb6bca7a7a72e483add2465c8e75fd", "is_disabled": 0}, {"fusion_lat": 0.0, "fusion_lon": 0.0, "lat": 38.91335266666667, "type": "electric_scooter", "rental_uris": {"android": "https://dc.lft.to/lastmile_qr_scan", "ios": "https://dc.lft.to/lastmile_qr_scan"}, "is_reserved": 0, "lon": -77.04570833333334, "name": "c8403af08803626f51007895ea0793cc", "bike_id": "c8403af08803626f51007895ea0793cc", "is_disabled": 0}, {"fusion_lat": 0.0, "fusion_lon": 0.0, "lat": 38.94320666666667, "type": "electric_scooter", "rental_uris": {"android": "https://dc.lft.to/lastmile_qr_scan", "ios": "https://dc.lft.to/lastmile_qr_scan"}, "is_reserved": 0, "lon": -77.07651866666667, "name": "a8fc593b7ff32f82862bba8243f728a3", "bike_id": "a8fc593b7ff32f82862bba8243f728a3", "is_disabled": 0}, {"fusion_lat": 0.0, "fusion_lon": 0.0, "lat": 38.908619333333334, "type": "electric_scooter", "rental_uris": {"android": "https://dc.lft.to/lastmile_qr_scan", "ios": "https://dc.lft.to/lastmile_qr_scan"}, "is_reserved": 0, "lon": -77.04342366666667, "name": "da76e55656edfdb3b59067cfba420f5f", "bike_id": "da76e55656edfdb3b59067cfba420f5f", "is_disabled": 0}, {"fusion_lat": 0.0, "fusion_lon": 0.0, "lat": 38.934237, "type": "electric_scooter", "rental_uris": {"android": "https://dc.lft.to/lastmile_qr_scan", "ios": "https://dc.lft.to/lastmile_qr_scan"}, "is_reserved": 0, "lon": -77.04005566666666, "name": "c732a74d7cea808d4c98e47a02b4fccc", "bike_id": "c732a74d7cea808d4c98e47a02b4fccc", "is_disabled": 0}, {"fusion_lat": 0.0, "fusion_lon": 0.0, "lat": 38.94223616666667, "type": "electric_scooter", "rental_uris": {"android": "https://dc.lft.to/lastmile_qr_scan", "ios": "https://dc.lft.to/lastmile_qr_scan"}, "is_reserved": 0, "lon": -77.02964, "name": "b24ed7457d7b405db22c6bddac0ba981", "bike_id": "b24ed7457d7b405db22c6bddac0ba981", "is_disabled": 0}, {"fusion_lat": 0.0, "fusion_lon": 0.0, "lat": 38.877397, "type": "electric_scooter", "rental_uris": {"android": "https://dc.lft.to/lastmile_qr_scan", "ios": "https://dc.lft.to/lastmile_qr_scan"}, "is_reserved": 0, "lon": -77.00335383333334, "name": "a38a33dba70312d8380faa0d27facd9a", "bike_id": "a38a33dba70312d8380faa0d27facd9a", "is_disabled": 0}, {"fusion_lat": 0.0, "fusion_lon": 0.0, "lat": 38.9278335, "type": "electric_scooter", "rental_uris": {"android": "https://dc.lft.to/lastmile_qr_scan", "ios": "https://dc.lft.to/lastmile_qr_scan"}, "is_reserved": 0, "lon": -77.05257266666666, "name": "622d3e04b9e17ac5f60054c3a0074f83", "bike_id": "622d3e04b9e17ac5f60054c3a0074f83", "is_disabled": 0}, {"fusion_lat": 0.0, "fusion_lon": 0.0, "lat": 38.900492, "type": "electric_scooter", "rental_uris": {"android": "https://dc.lft.to/lastmile_qr_scan", "ios": "https://dc.lft.to/lastmile_qr_scan"}, "is_reserved": 0, "lon": -77.00066383333333, "name": "7532f17df369d627feb6e1f697498052", "bike_id": "7532f17df369d627feb6e1f697498052", "is_disabled": 0}, {"fusion_lat": 0.0, "fusion_lon": 0.0, "lat": 38.89629083333333, "type": "electric_scooter", "rental_uris": {"android": "https://dc.lft.to/lastmile_qr_scan", "ios": "https://dc.lft.to/lastmile_qr_scan"}, "is_reserved": 0, "lon": -77.03954466666667, "name": "ccf0598753b08f01734d760a0e5c1caf", "bike_id": "ccf0598753b08f01734d760a0e5c1caf", "is_disabled": 0}, {"fusion_lat": 0.0, "fusion_lon": 0.0, "lat": 38.8624445, "type": "electric_bike", "rental_uris": {"android": "https://dc.lft.to/lastmile_qr_scan", "ios": "https://dc.lft.to/lastmile_qr_scan"}, "is_reserved": 0, "lon": -76.952809, "name": "506b216c31b8e96815c00e9e13e41086", "bike_id": "506b216c31b8e96815c00e9e13e41086", "is_disabled": 0}, {"fusion_lat": 0.0, "fusion_lon": 0.0, "lat": 38.90392033333333, "type": "electric_scooter", "rental_uris": {"android": "https://dc.lft.to/lastmile_qr_scan", "ios": "https://dc.lft.to/lastmile_qr_scan"}, "is_reserved": 0, "lon": -77.01985333333333, "name": "4152fef1db6d498b3b7337ae9d7a89ca", "bike_id": "4152fef1db6d498b3b7337ae9d7a89ca", "is_disabled": 0}, {"fusion_lat": 0.0, "fusion_lon": 0.0, "lat": 38.862502, "type": "electric_scooter", "rental_uris": {"android": "https://dc.lft.to/lastmile_qr_scan", "ios": "https://dc.lft.to/lastmile_qr_scan"}, "is_reserved": 0, "lon": -76.9926385, "name": "97d62d8cc8bac9f7cc6e54c3c0902230", "bike_id": "97d62d8cc8bac9f7cc6e54c3c0902230", "is_disabled": 0}, {"fusion_lat": 0.0, "fusion_lon": 0.0, "lat": 38.904018666666666, "type": "electric_scooter", "rental_uris": {"android": "https://dc.lft.to/lastmile_qr_scan", "ios": "https://dc.lft.to/lastmile_qr_scan"}, "is_reserved": 0, "lon": -77.0452695, "name": "66f5480839c912112439b022ef73fcdc", "bike_id": "66f5480839c912112439b022ef73fcdc", "is_disabled": 0}, {"fusion_lat": 0.0, "fusion_lon": 0.0, "lat": 38.918693166666664, "type": "electric_scooter", "rental_uris": {"android": "https://dc.lft.to/lastmile_qr_scan", "ios": "https://dc.lft.to/lastmile_qr_scan"}, "is_reserved": 0, "lon": -77.04153083333334, "name": "ae2b44aced6377bbbbe032b7e329fdae", "bike_id": "ae2b44aced6377bbbbe032b7e329fdae", "is_disabled": 0}, {"fusion_lat": 0.0, "fusion_lon": 0.0, "lat": 38.884412166666664, "type": "electric_scooter", "rental_uris": {"android": "https://dc.lft.to/lastmile_qr_scan", "ios": "https://dc.lft.to/lastmile_qr_scan"}, "is_reserved": 0, "lon": -77.00345416666667, "name": "ddeb6e4aa223c01ceb93d4581613c055", "bike_id": "ddeb6e4aa223c01ceb93d4581613c055", "is_disabled": 0}, {"fusion_lat": 0.0, "fusion_lon": 0.0, "lat": 38.939141, "type": "electric_scooter", "rental_uris": {"android": "https://dc.lft.to/lastmile_qr_scan", "ios": "https://dc.lft.to/lastmile_qr_scan"}, "is_reserved": 0, "lon": -77.06040833333333, "name": "abc6a48ca73f4d72b25c9dcad6a0a859", "bike_id": "abc6a48ca73f4d72b25c9dcad6a0a859", "is_disabled": 0}, {"fusion_lat": 0.0, "fusion_lon": 0.0, "lat": 38.89356016666667, "type": "electric_bike", "rental_uris": {"android": "https://dc.lft.to/lastmile_qr_scan", "ios": "https://dc.lft.to/lastmile_qr_scan"}, "is_reserved": 0, "lon": -77.18737983333334, "name": "36a158e85893a4231819ec63c9bb0b0e", "bike_id": "36a158e85893a4231819ec63c9bb0b0e", "is_disabled": 0}, {"fusion_lat": 0.0, "fusion_lon": 0.0, "lat": 38.90872516666667, "type": "electric_scooter", "rental_uris": {"android": "https://dc.lft.to/lastmile_qr_scan", "ios": "https://dc.lft.to/lastmile_qr_scan"}, "is_reserved": 0, "lon": -77.0405155, "name": "109f9154002a63a370371da46462c13c", "bike_id": "109f9154002a63a370371da46462c13c", "is_disabled": 0}, {"fusion_lat": 0.0, "fusion_lon": 0.0, "lat": 38.86212233333333, "type": "electric_scooter", "rental_uris": {"android": "https://dc.lft.to/lastmile_qr_scan", "ios": "https://dc.lft.to/lastmile_qr_scan"}, "is_reserved": 0, "lon": -76.9947385, "name": "9dde98187f7a78b90af85e0c27f173fe", "bike_id": "9dde98187f7a78b90af85e0c27f173fe", "is_disabled": 0}, {"fusion_lat": 0.0, "fusion_lon": 0.0, "lat": 38.865088666666665, "type": "electric_scooter", "rental_uris": {"android": "https://dc.lft.to/lastmile_qr_scan", "ios": "https://dc.lft.to/lastmile_qr_scan"}, "is_reserved": 0, "lon": -76.99004266666667, "name": "157aa8e90a956ec0d7cd109716685e20", "bike_id": "157aa8e90a956ec0d7cd109716685e20", "is_disabled": 0}, {"fusion_lat": 0.0, "fusion_lon": 0.0, "lat": 38.899624833333334, "type": "electric_scooter", "rental_uris": {"android": "https://dc.lft.to/lastmile_qr_scan", "ios": "https://dc.lft.to/lastmile_qr_scan"}, "is_reserved": 0, "lon": -77.045218, "name": "13c264cee0b1784a0b604b7a18093027", "bike_id": "13c264cee0b1784a0b604b7a18093027", "is_disabled": 0}, {"fusion_lat": 0.0, "fusion_lon": 0.0, "lat": 38.9099115, "type": "electric_scooter", "rental_uris": {"android": "https://dc.lft.to/lastmile_qr_scan", "ios": "https://dc.lft.to/lastmile_qr_scan"},