{"data": {"bikes": [{"lat": 38.917083166666664, "is_disabled": 0, "type": "electric_scooter", "lon": -77.0386525, "bike_id": "b5bb7c80bfd7b2b7955c394140a31605", "fusion_lat": 0.0, "name": "b5bb7c80bfd7b2b7955c394140a31605", "is_reserved": 0, "rental_uris": {"android": "https://dc.lft.to/lastmile_qr_scan", "ios": "https://dc.lft.to/lastmile_qr_scan"}, "fusion_lon": 0.0}, {"lat": 38.91399666666667, "is_disabled": 0, "type": "electric_scooter", "lon": -77.03060216666667, "bike_id": "60c0a04b93f4f1945e387967f548adc1", "fusion_lat": 0.0, "name": "60c0a04b93f4f1945e387967f548adc1", "is_reserved": 0, "rental_uris": {"android": "https://dc.lft.to/lastmile_qr_scan", "ios": "https://dc.lft.to/lastmile_qr_scan"}, "fusion_lon": 0.0}, {"lat": 38.90243783333333, "is_disabled": 0, "type": "electric_scooter", "lon": -77.01753883333333, "bike_id": "bb0ecb568e0d0d8a86c90ab5e30f7b8e", "fusion_lat": 0.0, "name": "bb0ecb568e0d0d8a86c90ab5e30f7b8e", "is_reserved": 0, "rental_uris": {"android": "https://dc.lft.to/lastmile_qr_scan", "ios": "https://dc.lft.to/lastmile_qr_scan"}, "fusion_lon": 0.0}, {"lat": 38.904791333333336, "is_disabled": 0, "type": "electric_scooter", "lon": -77.007755, "bike_id": "24007650b9c286010500ce22e9b8afe3", "fusion_lat": 0.0, "name": "24007650b9c286010500ce22e9b8afe3", "is_reserved": 0, "rental_uris": {"android": "https://dc.lft.to/lastmile_qr_scan", "ios": "https://dc.lft.to/lastmile_qr_scan"}, "fusion_lon": 0.0}, {"lat": 38.9023405, "is_disabled": 0, "type": "electric_scooter", "lon": -77.04695866666667, "bike_id": "7ba8d1c13c81a29c45dfeba9438abfe7", "fusion_lat": 0.0, "name": "7ba8d1c13c81a29c45dfeba9438abfe7", "is_reserved": 0, "rental_uris": {"android": "https://dc.lft.to/lastmile_qr_scan", "ios": "https://dc.lft.to/lastmile_qr_scan"}, "fusion_lon": 0.0}, {"lat": 38.910629666666665, "is_disabled": 0, "type": "electric_scooter", "lon": -77.0458055, "bike_id": "fbf163e2a9b55e4067ebe28d91abb155", "fusion_lat": 0.0, "name": "fbf163e2a9b55e4067ebe28d91abb155", "is_reserved": 0, "rental_uris": {"android": "https://dc.lft.to/lastmile_qr_scan", "ios": "https://dc.lft.to/lastmile_qr_scan"}, "fusion_lon": 0.0}, {"lat": 38.92632166666667, "is_disabled": 0, "type": "electric_scooter", "lon": -77.03613716666666, "bike_id": "468286f7050b30762a750253115bd459", "fusion_lat": 0.0, "name": "468286f7050b30762a750253115bd459", "is_reserved": 0, "rental_uris": {"android": "https://dc.lft.to/lastmile_qr_scan", "ios": "https://dc.lft.to/lastmile_qr_scan"}, "fusion_lon": 0.0}, {"lat": 38.90131133333333, "is_disabled": 0, "type": "electric_scooter", "lon": -77.04145466666667, "bike_id": "8ed2e3da96f98e487d9f07f509998658", "fusion_lat": 0.0, "name": "8ed2e3da96f98e487d9f07f509998658", "is_reserved": 0, "rental_uris": {"android": "https://dc.lft.to/lastmile_qr_scan", "ios": "https://dc.lft.to/lastmile_qr_scan"}, "fusion_lon": 0.0}, {"lat": 38.93885083333333, "is_disabled": 0, "type": "electric_scooter", "lon": -77.03218116666666, "bike_id": "290528d6a46a34263385b7bcd68b1826", "fusion_lat": 0.0, "name": "290528d6a46a34263385b7bcd68b1826", "is_reserved": 0, "rental_uris": {"android": "https://dc.lft.to/lastmile_qr_scan", "ios": "https://dc.lft.to/lastmile_qr_scan"}, "fusion_lon": 0.0}, {"lat": 38.924066, "is_disabled": 0, "type": "electric_scooter", "lon": -77.03539316666667, "bike_id": "004c7ec21c146524f5dd07bdd873c1fb", "fusion_lat": 0.0, "name": "004c7ec21c146524f5dd07bdd873c1fb", "is_reserved": 0, "rental_uris": {"android": "https://dc.lft.to/lastmile_qr_scan", "ios": "https://dc.lft.to/lastmile_qr_scan"}, "fusion_lon": 0.0}, {"lat": 38.900150333333336, "is_disabled": 0, "type": "electric_scooter", "lon": -76.99871416666667, "bike_id": "2056e8efbbd37e010a1b37655aca26d3", "fusion_lat": 0.0, "name": "2056e8efbbd37e010a1b37655aca26d3", "is_reserved": 0, "rental_uris": {"android": "https://dc.lft.to/lastmile_qr_scan", "ios": "https://dc.lft.to/lastmile_qr_scan"}, "fusion_lon": 0.0}, {"lat": 38.886571333333336, "is_disabled": 0, "type": "electric_bike", "lon": -77.16228033333333, "bike_id": "0098e20530b4bad586dba7c087d33850", "fusion_lat": 0.0, "name": "0098e20530b4bad586dba7c087d33850", "is_reserved": 0, "rental_uris": {"android": "https://dc.lft.to/lastmile_qr_scan", "ios": "https://dc.lft.to/lastmile_qr_scan"}, "fusion_lon": 0.0}, {"lat": 38.933544166666664, "is_disabled": 0, "type": "electric_scooter", "lon": -77.05706783333333, "bike_id": "ff0571d50904371a5f2a85103b2e6719", "fusion_lat": 0.0, "name": "ff0571d50904371a5f2a85103b2e6719", "is_reserved": 0, "rental_uris": {"android": "https://dc.lft.to/lastmile_qr_scan", "ios": "https://dc.lft.to/lastmile_qr_scan"}, "fusion_lon": 0.0}, {"lat": 38.92016366666667, "is_disabled": 0, "type": "electric_scooter", "lon": -77.03165633333333, "bike_id": "82fc0a2ad2f818b4d559a92c9bf56b59", "fusion_lat": 0.0, "name": "82fc0a2ad2f818b4d559a92c9bf56b59", "is_reserved": 0, "rental_uris": {"android": "https://dc.lft.to/lastmile_qr_scan", "ios": "https://dc.lft.to/lastmile_qr_scan"}, "fusion_lon": 0.0}, {"lat": 38.896142166666664, "is_disabled": 0, "type": "electric_scooter", "lon": -76.95600883333333, "bike_id": "3f2b2f730901f195719aeaf280575ec3", "fusion_lat": 0.0, "name": "3f2b2f730901f195719aeaf280575ec3", "is_reserved": 0, "rental_uris": {"android": "https://dc.lft.to/lastmile_qr_scan", "ios": "https://dc.lft.to/lastmile_qr_scan"}, "fusion_lon": 0.0}, {"lat": 38.91890016666667, "is_disabled": 0, "type": "electric_scooter", "lon": -77.0390565, "bike_id": "ede10866c12caec701d4db594ba30336", "fusion_lat": 0.0, "name": "ede10866c12caec701d4db594ba30336", "is_reserved": 0, "rental_uris": {"android": "https://dc.lft.to/lastmile_qr_scan", "ios": "https://dc.lft.to/lastmile_qr_scan"}, "fusion_lon": 0.0}, {"lat": 38.923355666666666, "is_disabled": 0, "type": "electric_scooter", "lon": -77.04299983333334, "bike_id": "80218e4a6abbf19152793b274136b8ae", "fusion_lat": 0.0, "name": "80218e4a6abbf19152793b274136b8ae", "is_reserved": 0, "rental_uris": {"android": "https://dc.lft.to/lastmile_qr_scan", "ios": "https://dc.lft.to/lastmile_qr_scan"}, "fusion_lon": 0.0}, {"lat": 38.90968816666667, "is_disabled": 0, "type": "electric_scooter", "lon": -77.009258, "bike_id": "42265b7f3dd8707cdda8a54e549a0a71", "fusion_lat": 0.0, "name": "42265b7f3dd8707cdda8a54e549a0a71", "is_reserved": 0, "rental_uris": {"android": "https://dc.lft.to/lastmile_qr_scan", "ios": "https://dc.lft.to/lastmile_qr_scan"}, "fusion_lon": 0.0}, {"lat": 38.90548583333333, "is_disabled": 0, "type": "electric_scooter", "lon": -77.03405, "bike_id": "31ecb266b423389bf3adade13b7c07a0", "fusion_lat": 0.0, "name": "31ecb266b423389bf3adade13b7c07a0", "is_reserved": 0, "rental_uris": {"android": "https://dc.lft.to/lastmile_qr_scan", "ios": "https://dc.lft.to/lastmile_qr_scan"}, "fusion_lon": 0.0}, {"lat": 38.91697666666666, "is_disabled": 0, "type": "electric_scooter", "lon": -77.03131983333333, "bike_id": "4f64fa121952d45ae236a2526f847887", "fusion_lat": 0.0, "name": "4f64fa121952d45ae236a2526f847887", "is_reserved": 0, "rental_uris": {"android": "https://dc.lft.to/lastmile_qr_scan", "ios": "https://dc.lft.to/lastmile_qr_scan"}, "fusion_lon": 0.0}, {"lat": 38.893476166666666, "is_disabled": 0, "type": "electric_scooter", "lon": -76.94936616666666, "bike_id": "5db4c8c6474e5f96526bd7831f6cc56e", "fusion_lat": 0.0, "name": "5db4c8c6474e5f96526bd7831f6cc56e", "is_reserved": 0, "rental_uris": {"android": "https://dc.lft.to/lastmile_qr_scan", "ios": "https://dc.lft.to/lastmile_qr_scan"}, "fusion_lon": 0.0}, {"lat": 38.92423433333333, "is_disabled": 0, "type": "electric_scooter", "lon": -77.05181433333334, "bike_id": "971c7d24ccce84f51ac0af0255fa01e7", "fusion_lat": 0.0, "name": "971c7d24ccce84f51ac0af0255fa01e7", "is_reserved": 0, "rental_uris": {"android": "https://dc.lft.to/lastmile_qr_scan", "ios": "https://dc.lft.to/lastmile_qr_scan"}, "fusion_lon": 0.0}, {"lat": 38.89517583333333, "is_disabled": 0, "type": "electric_bike", "lon": -77.07344516666667, "bike_id": "bff19749aaa28c3af33f7d267906cdcf", "fusion_lat": 0.0, "name": "bff19749aaa28c3af33f7d267906cdcf", "is_reserved": 0, "rental_uris": {"android": "https://dc.lft.to/lastmile_qr_scan", "ios": "https://dc.lft.to/lastmile_qr_scan"}, "fusion_lon": 0.0}, {"lat": 38.944311, "is_disabled": 0, "type": "electric_scooter", "lon": -76.99207033333333, "bike_id": "db24919d134bfd88d2ca27e576b2289b", "fusion_lat": 0.0, "name": "db24919d134bfd88d2ca27e576b2289b", "is_reserved": 0, "rental_uris": {"android": "https://dc.lft.to/lastmile_qr_scan", "ios": "https://dc.lft.to/lastmile_qr_scan"}, "fusion_lon": 0.0}, {"lat": 38.91544433333333, "is_disabled": 0, "type": "electric_scooter", "lon": -77.03186216666667, "bike_id": "5b5b8256f77e035c8aa151265f24fbb9", "fusion_lat": 0.0, "name": "5b5b8256f77e035c8aa151265f24fbb9", "is_reserved": 0, "rental_uris": {"android": "https://dc.lft.to/lastmile_qr_scan", "ios": "https://dc.lft.to/lastmile_qr_scan"}, "fusion_lon": 0.0}, {"lat": 38.886143, "is_disabled": 0, "type": "electric_scooter", "lon": -77.02173833333333, "bike_id": "6006b94d7e7dd4f13d5915f1a039ba82", "fusion_lat": 0.0, "name": "6006b94d7e7dd4f13d5915f1a039ba82", "is_reserved": 0, "rental_uris": {"android": "https://dc.lft.to/lastmile_qr_scan", "ios": "https://dc.lft.to/lastmile_qr_scan"}, "fusion_lon": 0.0}, {"lat": 38.905137333333336, "is_disabled": 0, "type": "electric_scooter", "lon": -77.02602583333334, "bike_id": "6a658aaa92c98557b98bdc924a5e398a", "fusion_lat": 0.0, "name": "6a658aaa92c98557b98bdc924a5e398a", "is_reserved": 0, "rental_uris": {"android": "https://dc.lft.to/lastmile_qr_scan", "ios": "https://dc.lft.to/lastmile_qr_scan"}, "fusion_lon": 0.0}, {"lat": 38.95185883333333, "is_disabled": 0, "type": "electric_bike", "lon": -76.935451, "bike_id": "6cbb49ae4664a404904502806479bd54", "fusion_lat": 0.0, "name": "6cbb49ae4664a404904502806479bd54", "is_reserved": 0, "rental_uris": {"android": "https://dc.lft.to/lastmile_qr_scan", "ios": "https://dc.lft.to/lastmile_qr_scan"}, "fusion_lon": 0.0}, {"lat": 38.9073465, "is_disabled": 0, "type": "electric_scooter", "lon": -77.03456416666667, "bike_id": "2794ecc5b4d3362150e5f8b32212a43e", "fusion_lat": 0.0, "name": "2794ecc5b4d3362150e5f8b32212a43e", "is_reserved": 0, "rental_uris": {"android": "https://dc.lft.to/lastmile_qr_scan", "ios": "https://dc.lft.to/lastmile_qr_scan"}, "fusion_lon": 0.0}, {"lat": 38.89216666666667, "is_disabled": 0, "type": "electric_scooter", "lon": -77.02169316666667, "bike_id": "ee462acc2284ce7290fbcc5804e55571", "fusion_lat": 0.0, "name": "ee462acc2284ce7290fbcc5804e55571", "is_reserved": 0, "rental_uris": {"android": "https://dc.lft.to/lastmile_qr_scan", "ios": "https://dc.lft.to/lastmile_qr_scan"}, "fusion_lon": 0.0}, {"lat": 38.911154, "is_disabled": 0, "type": "electric_scooter", "lon": -77.03263216666667, "bike_id": "6d6bfb0482f7527a202a2dd62b42fff2", "fusion_lat": 0.0, "name": "6d6bfb0482f7527a202a2dd62b42fff2", "is_reserved": 0, "rental_uris": {"android": "https://dc.lft.to/lastmile_qr_scan", "ios": "https://dc.lft.to/lastmile_qr_scan"}, "fusion_lon": 0.0}, {"lat": 38.87735433333334, "is_disabled": 0, "type": "electric_bike", "lon": -77.11848816666667, "bike_id": "82cc4e2c3b4bc90ec682907a2d03de86", "fusion_lat": 0.0, "name": "82cc4e2c3b4bc90ec682907a2d03de86", "is_reserved": 0, "rental_uris": {"android": "https://dc.lft.to/lastmile_qr_scan", "ios": "https://dc.lft.to/lastmile_qr_scan"}, "fusion_lon": 0.0}, {"lat": 38.870796666666664, "is_disabled": 0, "type": "electric_scooter", "lon": -77.01190083333333, "bike_id": "abb151fa68599244641707bc930db7d1", "fusion_lat": 0.0, "name": "abb151fa68599244641707bc930db7d1", "is_reserved": 0, "rental_uris": {"android": "https://dc.lft.to/lastmile_qr_scan", "ios": "https://dc.lft.to/lastmile_qr_scan"}, "fusion_lon": 0.0}, {"lat": 38.907695333333336, "is_disabled": 0, "type": "electric_scooter", "lon": -77.043448, "bike_id": "1df0fb14eafc112bf3a9ab75376c9ad7", "fusion_lat": 0.0, "name": "1df0fb14eafc112bf3a9ab75376c9ad7", "is_reserved": 0, "rental_uris": {"android": "https://dc.lft.to/lastmile_qr_scan", "ios": "https://dc.lft.to/lastmile_qr_scan"}, "fusion_lon": 0.0}, {"lat": 38.863741166666664, "is_disabled": 0, "type": "electric_scooter", "lon": -76.99044133333334, "bike_id": "827db1e46b811689cd97d3b95db4c701", "fusion_lat": 0.0, "name": "827db1e46b811689cd97d3b95db4c701", "is_reserved": 0, "rental_uris": {"android": "https://dc.lft.to/lastmile_qr_scan", "ios": "https://dc.lft.to/lastmile_qr_scan"}, "fusion_lon": 0.0}, {"lat": 38.896761, "is_disabled": 0, "type": "electric_scooter", "lon": -77.00516033333334, "bike_id": "fba63f18af01c6100088b01e82ceeac8", "fusion_lat": 0.0, "name": "fba63f18af01c6100088b01e82ceeac8", "is_reserved": 0, "rental_uris": {"android": "https://dc.lft.to/lastmile_qr_scan", "ios": "https://dc.lft.to/lastmile_qr_scan"}, "fusion_lon": 0.0}, {"lat": 38.892190166666666, "is_disabled": 0, "type": "electric_scooter", "lon": -77.02652666666667, "bike_id": "a7a0093afb1d3b5fb2665899a3965176", "fusion_lat": 0.0, "name": "a7a0093afb1d3b5fb2665899a3965176", "is_reserved": 0, "rental_uris": {"android": "https://dc.lft.to/lastmile_qr_scan", "ios": "https://dc.lft.to/lastmile_qr_scan"}, "fusion_lon": 0.0}, {"lat": 38.912563166666665, "is_disabled": 0, "type": "electric_scooter", "lon": -77.03865583333334, "bike_id": "468d187d8572693973371b265eb5026a", "fusion_lat": 0.0, "name": "468d187d8572693973371b265eb5026a", "is_reserved": 0, "rental_uris": {"android": "https://dc.lft.to/lastmile_qr_scan", "ios": "https://dc.lft.to/lastmile_qr_scan"}, "fusion_lon": 0.0}, {"lat": 38.876807, "is_disabled": 0, "type": "electric_scooter", "lon": -77.01790133333333, "bike_id": "aedcd66e297e46b82e1b83f1e9a3d289", "fusion_lat": 0.0, "name": "aedcd66e297e46b82e1b83f1e9a3d289", "is_reserved": 0, "rental_uris": {"android": "https://dc.lft.to/lastmile_qr_scan", "ios": "https://dc.lft.to/lastmile_qr_scan"}, "fusion_lon": 0.0}, {"lat": 38.877334166666664, "is_disabled": 0, "type": "electric_bike", "lon": -76.98106483333333, "bike_id": "f945b5cdce992f3f1052ac7712050cfe", "fusion_lat": 0.0, "name": "f945b5cdce992f3f1052ac7712050cfe", "is_reserved": 0, "rental_uris": {"android": "https://dc.lft.to/lastmile_qr_scan", "ios": "https://dc.lft.to/lastmile_qr_scan"}, "fusion_lon": 0.0}, {"lat": 38.926272833333336, "is_disabled": 0, "type": "electric_scooter", "lon": -77.03783966666667, "bike_id": "d0a72d0bc014537848f84d8eebfc1121", "fusion_lat": 0.0, "name": "d0a72d0bc014537848f84d8eebfc1121", "is_reserved": 0, "rental_uris": {"android": "https://dc.lft.to/lastmile_qr_scan", "ios": "https://dc.lft.to/lastmile_qr_scan"}, "fusion_lon": 0.0}, {"lat": 38.910539, "is_disabled": 0, "type": "electric_scooter", "lon": -77.015197, "bike_id": "18a6e33d1e2b71f71975527a02b4dedd", "fusion_lat": 0.0, "name": "18a6e33d1e2b71f71975527a02b4dedd", "is_reserved": 0, "rental_uris": {"android": "https://dc.lft.to/lastmile_qr_scan", "ios": "https://dc.lft.to/lastmile_qr_scan"}, "fusion_lon": 0.0}, {"lat": 38.90385216666667, "is_disabled": 0, "type": "electric_scooter", "lon": -77.04844366666667, "bike_id": "1af41bee59228fe4d83da26c45e97c83", "fusion_lat": 0.0, "name": "1af41bee59228fe4d83da26c45e97c83", "is_reserved": 0, "rental_uris": {"android": "https://dc.lft.to/lastmile_qr_scan", "ios": "https://dc.lft.to/lastmile_qr_scan"}, "fusion_lon": 0.0}, {"lat": 38.9077655, "is_disabled": 0, "type": "electric_scooter", "lon": -77.003513, "bike_id": "93146332343858885edb2d6b2a2572dc", "fusion_lat": 0.0, "name": "93146332343858885edb2d6b2a2572dc", "is_reserved": 0, "rental_uris": {"android": "https://dc.lft.to/lastmile_qr_scan", "ios": "https://dc.lft.to/lastmile_qr_scan"}, "fusion_lon": 0.0}, {"lat": 38.92872766666667, "is_disabled": 0, "type": "electric_scooter", "lon": -77.03303033333333, "bike_id": "36b15d95f43d6eb2e89c8952958cc44b", "fusion_lat": 0.0, "name": "36b15d95f43d6eb2e89c8952958cc44b", "is_reserved": 0, "rental_uris": {"android": "https://dc.lft.to/lastmile_qr_scan", "ios": "https://dc.lft.to/lastmile_qr_scan"}, "fusion_lon": 0.0}, {"lat": 38.865065666666666, "is_disabled": 0, "type": "electric_scooter", "lon": -76.9745385, "bike_id": "bd21da4e2a4db1d22faa1b21c63a70d2", "fusion_lat": 0.0, "name": "bd21da4e2a4db1d22faa1b21c63a70d2", "is_reserved": 0, "rental_uris": {"android": "https://dc.lft.to/lastmile_qr_scan", "ios": "https://dc.lft.to/lastmile_qr_scan"}, "fusion_lon": 0.0}, {"lat": 38.9241075, "is_disabled": 0, "type": "electric_scooter", "lon": -77.04442133333333, "bike_id": "527348a3f2f82de93381a86456d5ec54", "fusion_lat": 0.0, "name": "527348a3f2f82de93381a86456d5ec54", "is_reserved": 0, "rental_uris": {"android": "https://dc.lft.to/lastmile_qr_scan", "ios": "https://dc.lft.to/lastmile_qr_scan"}, "fusion_lon": 0.0}, {"lat": 38.874765333333336, "is_disabled": 0, "type": "electric_scooter", "lon": -77.010714, "bike_id": "290c2e87e5ac7a806f0a72571e44e855", "fusion_lat": 0.0, "name": "290c2e87e5ac7a806f0a72571e44e855", "is_reserved": 0, "rental_uris": {"android": "https://dc.lft.to/lastmile_qr_scan", "ios": "https://dc.lft.to/lastmile_qr_scan"}, "fusion_lon": 0.0}, {"lat": 38.89950016666667, "is_disabled": 0, "type": "electric_scooter", "lon": -77.05172516666667, "bike_id": "9a89f94dfe3f2c3a703a22ac4c617d1e", "fusion_lat": 0.0, "name": "9a89f94dfe3f2c3a703a22ac4c617d1e", "is_reserved": 0, "rental_uris": {"android": "https://dc.lft.to/lastmile_qr_scan", "ios": "https://dc.lft.to/lastmile_qr_scan"}, "fusion_lon": 0.0}, {"lat": 38.90237233333333, "is_disabled": 0, "type": "electric_scooter", "lon": -77.0282335, "bike_id": "9e44907dda478dbcc8cc732c86d6607a", "fusion_lat": 0.0, "name": "9e44907dda478dbcc8cc732c86d6607a", "is_reserved": 0, "rental_uris": {"android": "https://dc.lft.to/lastmile_qr_scan", "ios": "https://dc.lft.to/lastmile_qr_scan"}, "fusion_lon": 0.0}, {"lat": 38.908077666666664, "is_disabled": 0, "type": "electric_scooter", "lon": -76.98276316666667, "bike_id": "7ccc1ab2af1052ae1b817a921e0760d0", "fusion_lat": 0.0, "name": "7ccc1ab2af1052ae1b817a921e0760d0", "is_reserved": 0, "rental_uris": {"android": "https://dc.lft.to/lastmile_qr_scan", "ios": "https://dc.lft.to/lastmile_qr_scan"}, "fusion_lon": 0.0}, {"lat": 38.899916166666664, "is_disabled": 0, "type": "electric_scooter", "lon": -77.0509205, "bike_id": "9db01d57639ce6bab69506e43c94dafa", "fusion_lat": 0.0, "name": "9db01d57639ce6bab69506e43c94dafa", "is_reserved": 0, "rental_uris": {"android": "https://dc.lft.to/lastmile_qr_scan", "ios": "https://dc.lft.to/lastmile_qr_scan"}, "fusion_lon": 0.0}, {"lat": 38.897325, "is_disabled": 0, "type": "electric_scooter", "lon": -77.045368, "bike_id": "d7c8110630745bec61bcd8818f1d9c85", "fusion_lat": 0.0, "name": "d7c8110630745bec61bcd8818f1d9c85", "is_reserved": 0, "rental_uris": {"android": "https://dc.lft.to/lastmile_qr_scan", "ios": "https://dc.lft.to/lastmile_qr_scan"}, "fusion_lon": 0.0}, {"lat": 38.91220116666667, "is_disabled": 0, "type": "electric_scooter", "lon": -77.021824, "bike_id": "604f9ec4d979809946bf901f30b2e87b", "fusion_lat": 0.0, "name": "604f9ec4d979809946bf901f30b2e87b", "is_reserved": 0, "rental_uris": {"android": "https://dc.lft.to/lastmile_qr_scan", "ios": "https://dc.lft.to/lastmile_qr_scan"}, "fusion_lon": 0.0}, {"lat": 38.805553, "is_disabled": 0, "type": "electric_bike", "lon": -77.13243366666667, "bike_id": "2a89f651fd9e439d4394a358d9157054", "fusion_lat": 0.0, "name": "2a89f651fd9e439d4394a358d9157054", "is_reserved": 0, "rental_uris": {"android": "https://dc.lft.to/lastmile_qr_scan", "ios": "https://dc.lft.to/lastmile_qr_scan"}, "fusion_lon": 0.0}, {"lat": 38.927977166666665, "is_disabled": 0, "type": "electric_scooter", "lon": -77.04317533333334, "bike_id": "b8bea545bbf5496da3216790f91696ad", "fusion_lat": 0.0, "name": "b8bea545bbf5496da3216790f91696ad", "is_reserved": 0, "rental_uris": {"android": "https://dc.lft.to/lastmile_qr_scan", "ios": "https://dc.lft.to/lastmile_qr_scan"}, "fusion_lon": 0.0}, {"lat": 38.897423833333335, "is_disabled": 0, "type": "electric_scooter", "lon": -77.00864666666666, "bike_id": "3bf7469212740332d935dec9937e2408", "fusion_lat": 0.0, "name": "3bf7469212740332d935dec9937e2408", "is_reserved": 0, "rental_uris": {"android": "https://dc.lft.to/lastmile_qr_scan", "ios": "https://dc.lft.to/lastmile_qr_scan"}, "fusion_lon": 0.0}, {"lat": 38.89901166666667, "is_disabled": 0, "type": "electric_scooter", "lon": -76.990168, "bike_id": "79bb36a3c522cc2fec27954f51efa261", "fusion_lat": 0.0, "name": "79bb36a3c522cc2fec27954f51efa261", "is_reserved": 0, "rental_uris": {"android": "https://dc.lft.to/lastmile_qr_scan", "ios": "https://dc.lft.to/lastmile_qr_scan"}, "fusion_lon": 0.0}, {"lat": 38.873440333333335, "is_disabled": 0, "type": "electric_scooter", "lon": -76.99165916666666, "bike_id": "8c5e94f1cc769842d00f31b32f75865f", "fusion_lat": 0.0, "name": "8c5e94f1cc769842d00f31b32f75865f", "is_reserved": 0, "rental_uris": {"android": "https://dc.lft.to/lastmile_qr_scan", "ios": "https://dc.lft.to/lastmile_qr_scan"}, "fusion_lon": 0.0}, {"lat": 38.900057833333335, "is_disabled": 0, "type": "electric_scooter", "lon": -76.98812333333333, "bike_id": "6556a37cb77b11948df7415592d09971", "fusion_lat": 0.0, "name": "6556a37cb77b11948df7415592d09971", "is_reserved": 0, "rental_uris": {"android": "https://dc.lft.to/lastmile_qr_scan", "ios": "https://dc.lft.to/lastmile_qr_scan"}, "fusion_lon": 0.0}, {"lat": 38.904230166666665, "is_disabled": 0, "type": "electric_scooter", "lon": -77.05293666666667, "bike_id": "2d968ad71176056f05f7db9412ea98cd", "fusion_lat": 0.0, "name": "2d968ad71176056f05f7db9412ea98cd", "is_reserved": 0, "rental_uris": {"android": "https://dc.lft.to/lastmile_qr_scan", "ios": "https://dc.lft.to/lastmile_qr_scan"}, "fusion_lon": 0.0}, {"lat": 38.899073666666666, "is_disabled": 0, "type": "electric_scooter", "lon": -76.93354733333334, "bike_id": "88074ce573b4d4c42c33084985fe5aaf", "fusion_lat": 0.0, "name": "88074ce573b4d4c42c33084985fe5aaf", "is_reserved": 0, "rental_uris": {"android": "https://dc.lft.to/lastmile_qr_scan", "ios": "https://dc.lft.to/lastmile_qr_scan"}, "fusion_lon": 0.0}, {"lat": 38.916744666666666, "is_disabled": 0, "type": "electric_scooter", "lon": -77.02963566666666, "bike_id": "a174e5c2a3d45ac19eaf1eedffebf09f", "fusion_lat": 0.0, "name": "a174e5c2a3d45ac19eaf1eedffebf09f", "is_reserved": 0, "rental_uris": {"android": "https://dc.lft.to/lastmile_qr_scan", "ios": "https://dc.lft.to/lastmile_qr_scan"}, "fusion_lon": 0.0}, {"lat": 38.90421416666667, "is_disabled": 0, "type": "electric_scooter", "lon": -77.02085416666667, "bike_id": "a304b7ca4f2f8af300312c732aa5d516", "fusion_lat": 0.0, "name": "a304b7ca4f2f8af300312c732aa5d516", "is_reserved": 0, "rental_uris": {"android": "https://dc.lft.to/lastmile_qr_scan", "ios": "https://dc.lft.to/lastmile_qr_scan"}, "fusion_lon": 0.0}, {"lat": 38.89769366666667, "is_disabled": 0, "type": "electric_scooter", "lon": -77.03210233333333, "bike_id": "a5af8a3be3437b3d9e72b7d8fd7e6ae0", "fusion_lat": 0.0, "name": "a5af8a3be3437b3d9e72b7d8fd7e6ae0", "is_reserved": 0, "rental_uris": {"android": "https://dc.lft.to/lastmile_qr_scan", "ios": "https://dc.lft.to/lastmile_qr_scan"}, "fusion_lon": 0.0}, {"lat": 38.88521333333333, "is_disabled": 0, "type": "electric_scooter", "lon": -77.0335085, "bike_id": "a3bee5f61de1fa6d003205761b02c496", "fusion_lat": 0.0, "name": "a3bee5f61de1fa6d003205761b02c496", "is_reserved": 0, "rental_uris": {"android": "https://dc.lft.to/lastmile_qr_scan", "ios": "https://dc.lft.to/lastmile_qr_scan"}, "fusion_lon": 0.0}, {"lat": 38.85805, "is_disabled": 0, "type": "electric_scooter", "lon": -76.989885, "bike_id": "a48c9320d401558d855a7a1c4855c37c", "fusion_lat": 0.0, "name": "a48c9320d401558d855a7a1c4855c37c", "is_reserved": 0, "rental_uris": {"android": "https://dc.lft.to/lastmile_qr_scan", "ios": "https://dc.lft.to/lastmile_qr_scan"}, "fusion_lon": 0.0}, {"lat": 38.906745666666666, "is_disabled": 0, "type": "electric_scooter", "lon": -77.02704, "bike_id": "cf81ebcc4cfd543711cd2ed5d39cd9e3", "fusion_lat": 0.0, "name": "cf81ebcc4cfd543711cd2ed5d39cd9e3", "is_reserved": 0, "rental_uris": {"android": "https://dc.lft.to/lastmile_qr_scan", "ios": "https://dc.lft.to/lastmile_qr_scan"}, "fusion_lon": 0.0}, {"lat": 38.89751183333333, "is_disabled": 0, "type": "electric_scooter", "lon": -77.03266733333334, "bike_id": "ad13dbcc3db49dbc6aef377285ea7888", "fusion_lat": 0.0, "name": "ad13dbcc3db49dbc6aef377285ea7888", "is_reserved": 0, "rental_uris": {"android": "https://dc.lft.to/lastmile_qr_scan", "ios": "https://dc.lft.to/lastmile_qr_scan"}, "fusion_lon": 0.0}, {"lat": 38.93994766666667, "is_disabled": 0, "type": "electric_scooter", "lon": -77.07176433333333, "bike_id": "a818fcca7a953c4b5ef0e9ec817e593e", "fusion_lat": 0.0, "name": "a818fcca7a953c4b5ef0e9ec817e593e", "is_reserved": 0, "rental_uris": {"android": "https://dc.lft.to/lastmile_qr_scan", "ios": "https://dc.lft.to/lastmile_qr_scan"}, "fusion_lon": 0.0}, {"lat": 38.915428, "is_disabled": 0, "type": "electric_scooter", "lon": -77.03188733333333, "bike_id": "a64a128b36e24137f36e02459b277cba", "fusion_lat": 0.0, "name": "a64a128b36e24137f36e02459b277cba", "is_reserved": 0, "rental_uris": {"android": "https://dc.lft.to/lastmile_qr_scan", "ios": "https://dc.lft.to/lastmile_qr_scan"}, "fusion_lon": 0.0}, {"lat": 38.89263, "is_disabled": 0, "type": "electric_scooter", "lon": -76.941575, "bike_id": "b9d0c5f58553a5ec9c36963242e9b01d", "fusion_lat": 0.0, "name": "b9d0c5f58553a5ec9c36963242e9b01d", "is_reserved": 0, "rental_uris": {"android": "https://dc.lft.to/lastmile_qr_scan", "ios": "https://dc.lft.to/lastmile_qr_scan"}, "fusion_lon": 0.0}, {"lat": 38.90084816666667, "is_disabled": 0, "type": "electric_scooter", "lon": -77.00341883333333, "bike_id": "b0625630c02c28b74e36b402a8c32672", "fusion_lat": 0.0, "name": "b0625630c02c28b74e36b402a8c32672", "is_reserved": 0, "rental_uris": {"android": "https://dc.lft.to/lastmile_qr_scan", "ios": "https://dc.lft.to/lastmile_qr_scan"}, "fusion_lon": 0.0}, {"lat": 38.86171083333333, "is_disabled": 0, "type": "electric_bike", "lon": -77.13145183333333, "bike_id": "52cc340e76bb019ed60d1f2ecef6de0d", "fusion_lat": 0.0, "name": "52cc340e76bb019ed60d1f2ecef6de0d", "is_reserved": 0, "rental_uris": {"android": "https://dc.lft.to/lastmile_qr_scan", "ios": "https://dc.lft.to/lastmile_qr_scan"}, "fusion_lon": 0.0}, {"lat": 38.8962885, "is_disabled": 0, "type": "electric_scooter", "lon": -77.04484733333334, "bike_id": "9d04810db8f8afa9527d0ef252663b78", "fusion_lat": 0.0, "name": "9d04810db8f8afa9527d0ef252663b78", "is_reserved": 0, "rental_uris": {"android": "https://dc.lft.to/lastmile_qr_scan", "ios": "https://dc.lft.to/lastmile_qr_scan"}, "fusion_lon": 0.0}, {"lat": 38.902393833333335, "is_disabled": 0, "type": "electric_scooter", "lon": -77.026858, "bike_id": "79f64e658023877f3e1194e053d767fb", "fusion_lat": 0.0, "name": "79f64e658023877f3e1194e053d767fb", "is_reserved": 0, "rental_uris": {"android": "https://dc.lft.to/lastmile_qr_scan", "ios": "https://dc.lft.to/lastmile_qr_scan"}, "fusion_lon": 0.0}, {"lat": 38.89698333333333, "is_disabled": 0, "type": "electric_scooter", "lon": -77.024099, "bike_id": "a7d7bd0038a2d480edf73e24d0ffce42", "fusion_lat": 0.0, "name": "a7d7bd0038a2d480edf73e24d0ffce42", "is_reserved": 0, "rental_uris": {"android": "https://dc.lft.to/lastmile_qr_scan", "ios": "https://dc.lft.to/lastmile_qr_scan"}, "fusion_lon": 0.0}, {"lat": 38.95095883333333, "is_disabled": 0, "type": "electric_scooter", "lon": -77.02337716666666, "bike_id": "c8ba8ea55351345df016719a999f6e4b", "fusion_lat": 0.0, "name": "c8ba8ea55351345df016719a999f6e4b", "is_reserved": 0, "rental_uris": {"android": "https://dc.lft.to/lastmile_qr_scan", "ios": "https://dc.lft.to/lastmile_qr_scan"}, "fusion_lon": 0.0}, {"lat": 38.87230866666667, "is_disabled": 0, "type": "electric_bike", "lon": -77.01185283333334, "bike_id": "c7cd4551b9d5ca6177b4724e6e242fa0", "fusion_lat": 0.0, "name": "c7cd4551b9d5ca6177b4724e6e242fa0", "is_reserved": 0, "rental_uris": {"android": "https://dc.lft.to/lastmile_qr_scan", "ios": "https://dc.lft.to/lastmile_qr_scan"}, "fusion_lon": 0.0}, {"lat": 38.921538166666664, "is_disabled": 0, "type": "electric_scooter", "lon": -77.03383966666667, "bike_id": "0bf36d801e1fffeb9f54df27f4b08d12", "fusion_lat": 0.0, "name": "0bf36d801e1fffeb9f54df27f4b08d12", "is_reserved": 0, "rental_uris": {"android": "https://dc.lft.to/lastmile_qr_scan", "ios": "https://dc.lft.to/lastmile_qr_scan"}, "fusion_lon": 0.0}, {"lat": 38.910132, "is_disabled": 0, "type": "electric_scooter", "lon": -77.08897233333333, "bike_id": "8960a3c4610344c4f6bd910348e8cde6", "fusion_lat": 0.0, "name": "8960a3c4610344c4f6bd910348e8cde6", "is_reserved": 0, "rental_uris": {"android": "https://dc.lft.to/lastmile_qr_scan", "ios": "https://dc.lft.to/lastmile_qr_scan"}, "fusion_lon": 0.0}, {"lat": 38.92458833333333, "is_disabled": 0, "type": "electric_bike", "lon": -76.97559866666667, "bike_id": "6e5446c8554ad3f2ff28aa5ebeef3e04", "fusion_lat": 0.0, "name": "6e5446c8554ad3f2ff28aa5ebeef3e04", "is_reserved": 0, "rental_uris": {"android": "https://dc.lft.to/lastmile_qr_scan", "ios": "https://dc.lft.to/lastmile_qr_scan"}, "fusion_lon": 0.0}, {"lat": 38.8971355, "is_disabled": 0, "type": "electric_scooter", "lon": -77.02580816666666, "bike_id": "5b5d724bf44527af651acb7df738a218", "fusion_lat": 0.0, "name": "5b5d724bf44527af651acb7df738a218", "is_reserved": 0, "rental_uris": {"android": "https://dc.lft.to/lastmile_qr_scan", "ios": "https://dc.lft.to/lastmile_qr_scan"}, "fusion_lon": 0.0}, {"lat": 38.87676866666666, "is_disabled": 0, "type": "electric_scooter", "lon": -77.0178605, "bike_id": "647003f412706ff6bb9718c95976ed57", "fusion_lat": 0.0, "name": "647003f412706ff6bb9718c95976ed57", "is_reserved": 0, "rental_uris": {"android": "https://dc.lft.to/lastmile_qr_scan", "ios": "https://dc.lft.to/lastmile_qr_scan"}, "fusion_lon": 0.0}, {"lat": 38.898180333333336, "is_disabled": 0, "type": "electric_scooter", "lon": -77.00579433333333, "bike_id": "8d86dc779657a4322a91985ecae2839e", "fusion_lat": 0.0, "name": "8d86dc779657a4322a91985ecae2839e", "is_reserved": 0, "rental_uris": {"android": "https://dc.lft.to/lastmile_qr_scan", "ios": "https://dc.lft.to/lastmile_qr_scan"}, "fusion_lon": 0.0}, {"lat": 38.89716083333333, "is_disabled": 0, "type": "electric_scooter", "lon": -77.0257305, "bike_id": "74220433448e2330d48ef174c774f65a", "fusion_lat": 0.0, "name": "74220433448e2330d48ef174c774f65a", "is_reserved": 0, "rental_uris": {"android": "https://dc.lft.to/lastmile_qr_scan", "ios": "https://dc.lft.to/lastmile_qr_scan"}, "fusion_lon": 0.0}, {"lat": 38.90971366666667, "is_disabled": 0, "type": "electric_scooter", "lon": -77.04804283333333, "bike_id": "96c3b415b941e7198cb4b5e9b9fb3ee9", "fusion_lat": 0.0, "name": "96c3b415b941e7198cb4b5e9b9fb3ee9", "is_reserved": 0, "rental_uris": {"android": "https://dc.lft.to/lastmile_qr_scan", "ios": "https://dc.lft.to/lastmile_qr_scan"}, "fusion_lon": 0.0}, {"lat": 38.912124166666665, "is_disabled": 0, "type": "electric_scooter", "lon": -77.038451, "bike_id": "8a8498fd49b75b28c5b109a05c7657f0", "fusion_lat": 0.0, "name": "8a8498fd49b75b28c5b109a05c7657f0", "is_reserved": 0, "rental_uris": {"android": "https://dc.lft.to/lastmile_qr_scan", "ios": "https://dc.lft.to/lastmile_qr_scan"}, "fusion_lon": 0.0}, {"lat": 38.9190675, "is_disabled": 0, "type": "electric_scooter", "lon": -77.04631183333333, "bike_id": "5a2eab39e8036a404b551c784e755d31", "fusion_lat": 0.0, "name": "5a2eab39e8036a404b551c784e755d31", "is_reserved": 0, "rental_uris": {"android": "https://dc.lft.to/lastmile_qr_scan", "ios": "https://dc.lft.to/lastmile_qr_scan"}, "fusion_lon": 0.0}, {"lat": 38.90630783333334, "is_disabled": 0, "type": "electric_bike", "lon": -77.00568233333334, "bike_id": "80da8aa441797b8431c463e4fe43816f", "fusion_lat": 0.0, "name": "80da8aa441797b8431c463e4fe43816f", "is_reserved": 0, "rental_uris": {"android": "https://dc.lft.to/lastmile_qr_scan", "ios": "https://dc.lft.to/lastmile_qr_scan"}, "fusion_lon": 0.0}, {"lat": 38.90961583333333, "is_disabled": 0, "type": "electric_scooter", "lon": -77.03730983333334, "bike_id": "62a2240adfc84d0d17b91de9f9b3e1f0", "fusion_lat": 0.0, "name": "62a2240adfc84d0d17b91de9f9b3e1f0", "is_reserved": 0, "rental_uris": {"android": "https://dc.lft.to/lastmile_qr_scan", "ios": "https://dc.lft.to/lastmile_qr_scan"}, "fusion_lon": 0.0}, {"lat": 38.903986333333336, "is_disabled": 0, "type": "electric_scooter", "lon": -77.0433665, "bike_id": "2e822fa748fa44e76eca599945134e36", "fusion_lat": 0.0, "name": "2e822fa748fa44e76eca599945134e36", "is_reserved": 0, "rental_uris": {"android": "https://dc.lft.to/lastmile_qr_scan", "ios": "https://dc.lft.to/lastmile_qr_scan"}, "fusion_lon": 0.0}, {"lat": 38.865263166666665, "is_disabled": 0, "type": "electric_scooter", "lon": -76.99034116666667, "bike_id": "c84a40fbbc9e880695cdb29e0c875d4c", "fusion_lat": 0.0, "name": "c84a40fbbc9e880695cdb29e0c875d4c", "is_reserved": 0, "rental_uris": {"android": "https://dc.lft.to/lastmile_qr_scan", "ios": "https://dc.lft.to/lastmile_qr_scan"}, "fusion_lon": 0.0}, {"lat": 38.8637695, "is_disabled": 0, "type": "electric_scooter", "lon": -76.9906305, "bike_id": "b8f7fcd605ca90769a9bdd7080af2d4a", "fusion_lat": 0.0, "name": "b8f7fcd605ca90769a9bdd7080af2d4a", "is_reserved": 0, "rental_uris": {"android": "https://dc.lft.to/lastmile_qr_scan", "ios": "https://dc.lft.to/lastmile_qr_scan"}, "fusion_lon": 0.0}, {"lat": 38.912866666666666, "is_disabled": 0, "type": "electric_scooter", "lon": -77.04514266666666, "bike_id": "09395442f725993f49b27ee1653db152", "fusion_lat": 0.0, "name": "09395442f725993f49b27ee1653db152", "is_reserved": 0, "rental_uris": {"android": "https://dc.lft.to/lastmile_qr_scan", "ios": "https://dc.lft.to/lastmile_qr_scan"}, "fusion_lon": 0.0}, {"lat": 38.89950233333333, "is_disabled": 0, "type": "electric_scooter", "lon": -77.02127333333334, "bike_id": "fb7fad410348b53f23eefc39f3e4ab86", "fusion_lat": 0.0, "name": "fb7fad410348b53f23eefc39f3e4ab86", "is_reserved": 0, "rental_uris": {"android": "https://dc.lft.to/lastmile_qr_scan", "ios": "https://dc.lft.to/lastmile_qr_scan"}, "fusion_lon": 0.0}, {"lat": 38.88642266666667, "is_disabled": 0, "type": "electric_scooter", "lon": -76.95471716666667, "bike_id": "e9515a8fc69ec079f5dac26cac44ea40", "fusion_lat": 0.0, "name": "e9515a8fc69ec079f5dac26cac44ea40", "is_reserved": 0, "rental_uris": {"android": "https://dc.lft.to/lastmile_qr_scan", "ios": "https://dc.lft.to/lastmile_qr_scan"}, "fusion_lon": 0.0}, {"lat": 38.91285716666667, "is_disabled": 0, "type": "electric_scooter", "lon": -77.04517633333333, "bike_id": "142de1d10b51cad95376ba0252c98d4e", "fusion_lat": 0.0, "name": "142de1d10b51cad95376ba0252c98d4e", "is_reserved": 0, "rental_uris": {"android": "https://dc.lft.to/lastmile_qr_scan", "ios": "https://dc.lft.to/lastmile_qr_scan"}, "fusion_lon": 0.0}, {"lat": 38.94319816666667, "is_disabled": 0, "type": "electric_scooter", "lon": -77.06129066666666, "bike_id": "5fdd100b338a3798a7d68f177fffea6d", "fusion_lat": 0.0, "name": "5fdd100b338a3798a7d68f177fffea6d", "is_reserved": 0, "rental_uris": {"android": "https://dc.lft.to/lastmile_qr_scan", "ios": "https://dc.lft.to/lastmile_qr_scan"}, "fusion_lon": 0.0}, {"lat": 38.88764533333333, "is_disabled": 0, "type": "electric_scooter", "lon": -76.99603566666667, "bike_id": "205559583c77bbf7d8c11a8b9f382a67", "fusion_lat": 0.0, "name": "205559583c77bbf7d8c11a8b9f382a67", "is_reserved": 0, "rental_uris": {"android": "https://dc.lft.to/lastmile_qr_scan", "ios": "https://dc.lft.to/lastmile_qr_scan"}, "fusion_lon": 0.0}, {"lat": 38.92255866666667, "is_disabled": 0, "type": "electric_scooter", "lon": -77.01934433333334, "bike_id": "2869c058343553cabe161e367cf294d2", "fusion_lat": 0.0, "name": "2869c058343553cabe161e367cf294d2", "is_reserved": 0, "rental_uris": {"android": "https://dc.lft.to/lastmile_qr_scan", "ios": "https://dc.lft.to/lastmile_qr_scan"}, "fusion_lon": 0.0}, {"lat": 38.90646383333333, "is_disabled": 0, "type": "electric_scooter", "lon": -77.014168, "bike_id": "fad27c60af77f5e8e876bb9606ee8be3", "fusion_lat": 0.0, "name": "fad27c60af77f5e8e876bb9606ee8be3", "is_reserved": 0, "rental_uris": {"android": "https://dc.lft.to/lastmile_qr_scan", "ios": "https://dc.lft.to/lastmile_qr_scan"}, "fusion_lon": 0.0}, {"lat": 38.9023895, "is_disabled": 0, "type": "electric_scooter", "lon": -77.03419533333333, "bike_id": "cecbba68647672d76a4f25e41f8d49a5", "fusion_lat": 0.0, "name": "cecbba68647672d76a4f25e41f8d49a5", "is_reserved": 0, "rental_uris": {"android": "https://dc.lft.to/lastmile_qr_scan", "ios": "https://dc.lft.to/lastmile_qr_scan"}, "fusion_lon": 0.0}, {"lat": 38.915698, "is_disabled": 0, "type": "electric_scooter", "lon": -77.0502045, "bike_id": "6d7a0722f54b3ce89d68991267958ece", "fusion_lat": 0.0, "name": "6d7a0722f54b3ce89d68991267958ece", "is_reserved": 0, "rental_uris": {"android": "https://dc.lft.to/lastmile_qr_scan", "ios": "https://dc.lft.to/lastmile_qr_scan"}, "fusion_lon": 0.0}, {"lat": 38.9033, "is_disabled": 0, "type": "electric_scooter", "lon": -76.9759465, "bike_id": "f37bc4d4605744bfe89769661e79286f", "fusion_lat": 0.0, "name": "f37bc4d4605744bfe89769661e79286f", "is_reserved": 0, "rental_uris": {"android": "https://dc.lft.to/lastmile_qr_scan", "ios": "https://dc.lft.to/lastmile_qr_scan"}, "fusion_lon": 0.0}, {"lat": 38.9210605, "is_disabled": 0, "type": "electric_scooter", "lon": -77.04686, "bike_id": "e27b5bd83f9ccedee22fa7f897e2f16c", "fusion_lat": 0.0, "name": "e27b5bd83f9ccedee22fa7f897e2f16c", "is_reserved": 0, "rental_uris": {"android": "https://dc.lft.to/lastmile_qr_scan", "ios": "https://dc.lft.to/lastmile_qr_scan"}, "fusion_lon": 0.0}, {"lat": 38.912566166666664, "is_disabled": 0, "type": "electric_scooter", "lon": -77.03866233333333, "bike_id": "fecf12a723865a981d03cc2fb6a41594", "fusion_lat": 0.0, "name": "fecf12a723865a981d03cc2fb6a41594", "is_reserved": 0, "rental_uris": {"android": "https://dc.lft.to/lastmile_qr_scan", "ios": "https://dc.lft.to/lastmile_qr_scan"}, "fusion_lon": 0.0}, {"lat": 38.92669466666667, "is_disabled": 0, "type": "electric_scooter", "lon": -77.01473366666667, "bike_id": "4d60d3fcf12d3324c1038a683e0edf1f", "fusion_lat": 0.0, "name": "4d60d3fcf12d3324c1038a683e0edf1f", "is_reserved": 0, "rental_uris": {"android": "https://dc.lft.to/lastmile_qr_scan", "ios": "https://dc.lft.to/lastmile_qr_scan"}, "fusion_lon": 0.0}, {"lat": 38.92840566666667, "is_disabled": 0, "type": "electric_scooter", "lon": -77.054207, "bike_id": "97e83d66d1720cbe0edc0511241558f4", "fusion_lat": 0.0, "name": "97e83d66d1720cbe0edc0511241558f4", "is_reserved": 0, "rental_uris": {"android": "https://dc.lft.to/lastmile_qr_scan", "ios": "https://dc.lft.to/lastmile_qr_scan"}, "fusion_lon": 0.0}, {"lat": 38.905233833333334, "is_disabled": 0, "type": "electric_scooter", "lon": -77.03445166666667, "bike_id": "53eeb64922bcff6013424bed4152a86d", "fusion_lat": 0.0, "name": "53eeb64922bcff6013424bed4152a86d", "is_reserved": 0, "rental_uris": {"android": "https://dc.lft.to/lastmile_qr_scan", "ios": "https://dc.lft.to/lastmile_qr_scan"}, "fusion_lon": 0.0}, {"lat": 38.93234966666667, "is_disabled": 0, "type": "electric_scooter", "lon": -77.0338965, "bike_id": "785efd1430d032da222cf6e3320ff9c2", "fusion_lat": 0.0, "name": "785efd1430d032da222cf6e3320ff9c2", "is_reserved": 0, "rental_uris": {"android": "https://dc.lft.to/lastmile_qr_scan", "ios": "https://dc.lft.to/lastmile_qr_scan"}, "fusion_lon": 0.0}, {"lat": 38.87245733333334, "is_disabled": 0, "type": "electric_scooter", "lon": -76.97725366666667, "bike_id": "a3e55771d936f0aa21f13847f9309905", "fusion_lat": 0.0, "name": "a3e55771d936f0aa21f13847f9309905", "is_reserved": 0, "rental_uris": {"android": "https://dc.lft.to/lastmile_qr_scan", "ios": "https://dc.lft.to/lastmile_qr_scan"}, "fusion_lon": 0.0}, {"lat": 38.924642, "is_disabled": 0, "type": "electric_bike", "lon": -77.208389, "bike_id": "5ffdccbcbd9eb1e74e79fd91dc039d48", "fusion_lat": 0.0, "name": "5ffdccbcbd9eb1e74e79fd91dc039d48", "is_reserved": 0, "rental_uris": {"android": "https://dc.lft.to/lastmile_qr_scan", "ios": "https://dc.lft.to/lastmile_qr_scan"}, "fusion_lon": 0.0}, {"lat": 38.92955, "is_disabled": 0, "type": "electric_scooter", "lon": -77.0703775, "bike_id": "e56fcb32f89f1c4b3e62453447a9e7da", "fusion_lat": 0.0, "name": "e56fcb32f89f1c4b3e62453447a9e7da", "is_reserved": 0, "rental_uris": {"android": "https://dc.lft.to/lastmile_qr_scan", "ios": "https://dc.lft.to/lastmile_qr_scan"}, "fusion_lon": 0.0}, {"lat": 38.963943, "is_disabled": 0, "type": "electric_scooter", "lon": -77.02591816666667, "bike_id": "3157d4030cb2976086ffc2ea7322491f", "fusion_lat": 0.0, "name": "3157d4030cb2976086ffc2ea7322491f", "is_reserved": 0, "rental_uris": {"android": "https://dc.lft.to/lastmile_qr_scan", "ios": "https://dc.lft.to/lastmile_qr_scan"}, "fusion_lon": 0.0}, {"lat": 38.90229016666667, "is_disabled": 0, "type": "electric_scooter", "lon": -77.00536733333334, "bike_id": "9c6c58450f50eec659b8f7c72866a084", "fusion_lat": 0.0, "name": "9c6c58450f50eec659b8f7c72866a084", "is_reserved": 0, "rental_uris": {"android": "https://dc.lft.to/lastmile_qr_scan", "ios": "https://dc.lft.to/lastmile_qr_scan"}, "fusion_lon": 0.0}, {"lat": 38.92934533333333, "is_disabled": 0, "type": "electric_scooter", "lon": -77.0326055, "bike_id": "2fded3e420bf48fd8f9ca523144e754f", "fusion_lat": 0.0, "name": "2fded3e420bf48fd8f9ca523144e754f", "is_reserved": 0, "rental_uris": {"android": "https://dc.lft.to/lastmile_qr_scan", "ios": "https://dc.lft.to/lastmile_qr_scan"}, "fusion_lon": 0.0}, {"lat": 38.87747316666667, "is_disabled": 0, "type": "electric_bike", "lon": -76.995165, "bike_id": "538b6dabc461857eb74fb8d910e7fb33", "fusion_lat": 0.0, "name": "538b6dabc461857eb74fb8d910e7fb33", "is_reserved": 0, "rental_uris": {"android": "https://dc.lft.to/lastmile_qr_scan", "ios": "https://dc.lft.to/lastmile_qr_scan"}, "fusion_lon": 0.0}, {"lat": 38.91733833333333, "is_disabled": 0, "type": "electric_scooter", "lon": -77.036601, "bike_id": "22bf119de28d81c9a762dea3da0dbde4", "fusion_lat": 0.0, "name": "22bf119de28d81c9a762dea3da0dbde4", "is_reserved": 0, "rental_uris": {"android": "https://dc.lft.to/lastmile_qr_scan", "ios": "https://dc.lft.to/lastmile_qr_scan"}, "fusion_lon": 0.0}, {"lat": 38.92707333333333, "is_disabled": 0, "type": "electric_scooter", "lon": -77.02088083333334, "bike_id": "7dc928b2f54ab12fde5914e1221d8b43", "fusion_lat": 0.0, "name": "7dc928b2f54ab12fde5914e1221d8b43", "is_reserved": 0, "rental_uris": {"android": "https://dc.lft.to/lastmile_qr_scan", "ios": "https://dc.lft.to/lastmile_qr_scan"}, "fusion_lon": 0.0}, {"lat": 38.90039983333333, "is_disabled": 0, "type": "electric_scooter", "lon": -77.00579566666667, "bike_id": "6fd29900a654c96218cf4c8e4f917e15", "fusion_lat": 0.0, "name": "6fd29900a654c96218cf4c8e4f917e15", "is_reserved": 0, "rental_uris": {"android": "https://dc.lft.to/lastmile_qr_scan", "ios": "https://dc.lft.to/lastmile_qr_scan"}, "fusion_lon": 0.0}, {"lat": 38.858088, "is_disabled": 0, "type": "electric_scooter", "lon": -76.98655233333334, "bike_id": "686b0f2f752a3b231cc9f6f6b8804dce", "fusion_lat": 0.0, "name": "686b0f2f752a3b231cc9f6f6b8804dce", "is_reserved": 0, "rental_uris": {"android": "https://dc.lft.to/lastmile_qr_scan", "ios": "https://dc.lft.to/lastmile_qr_scan"}, "fusion_lon": 0.0}, {"lat": 38.944504333333335, "is_disabled": 0, "type": "electric_scooter", "lon": -77.06029083333334, "bike_id": "ffe55abd5eeda8346ee767f1ba52a240", "fusion_lat": 0.0, "name": "ffe55abd5eeda8346ee767f1ba52a240", "is_reserved": 0, "rental_uris": {"android": "https://dc.lft.to/lastmile_qr_scan", "ios": "https://dc.lft.to/lastmile_qr_scan"}, "fusion_lon": 0.0}, {"lat": 38.8925215, "is_disabled": 0, "type": "electric_scooter", "lon": -77.03956883333333, "bike_id": "f25f0c616314a476cbb06433ba0ebc4f", "fusion_lat": 0.0, "name": "f25f0c616314a476cbb06433ba0ebc4f", "is_reserved": 0, "rental_uris": {"android": "https://dc.lft.to/lastmile_qr_scan", "ios": "https://dc.lft.to/lastmile_qr_scan"}, "fusion_lon": 0.0}, {"lat": 38.890915166666666, "is_disabled": 0, "type": "electric_scooter", "lon": -76.94302216666667, "bike_id": "b54c857a132170c11dafb2f4c0c48fa0", "fusion_lat": 0.0, "name": "b54c857a132170c11dafb2f4c0c48fa0", "is_reserved": 0, "rental_uris": {"android": "https://dc.lft.to/lastmile_qr_scan", "ios": "https://dc.lft.to/lastmile_qr_scan"}, "fusion_lon": 0.0}, {"lat": 38.91603966666667, "is_disabled": 0, "type": "electric_scooter", "lon": -77.07561116666666, "bike_id": "92b1fdcccf309634571658a5b9a8c86f", "fusion_lat": 0.0, "name": "92b1fdcccf309634571658a5b9a8c86f", "is_reserved": 0, "rental_uris": {"android": "https://dc.lft.to/lastmile_qr_scan", "ios": "https://dc.lft.to/lastmile_qr_scan"}, "fusion_lon": 0.0}, {"lat": 38.95279016666667, "is_disabled": 0, "type": "electric_scooter", "lon": -77.03654033333333, "bike_id": "87c2a1fc4a6fd9a93f51a1196a16218c", "fusion_lat": 0.0, "name": "87c2a1fc4a6fd9a93f51a1196a16218c", "is_reserved": 0, "rental_uris": {"android": "https://dc.lft.to/lastmile_qr_scan", "ios": "https://dc.lft.to/lastmile_qr_scan"}, "fusion_lon": 0.0}, {"lat": 38.9326715, "is_disabled": 0, "type": "electric_scooter", "lon": -77.03269133333333, "bike_id": "54164f9399d5414b9530fd6a20eb8f4d", "fusion_lat": 0.0, "name": "54164f9399d5414b9530fd6a20eb8f4d", "is_reserved": 0, "rental_uris": {"android": "https://dc.lft.to/lastmile_qr_scan", "ios": "https://dc.lft.to/lastmile_qr_scan"}, "fusion_lon": 0.0}, {"lat": 38.882359, "is_disabled": 0, "type": "electric_scooter", "lon": -76.990942, "bike_id": "42a31604a32649febf566559bc768e14", "fusion_lat": 0.0, "name": "42a31604a32649febf566559bc768e14", "is_reserved": 0, "rental_uris": {"android": "https://dc.lft.to/lastmile_qr_scan", "ios": "https://dc.lft.to/lastmile_qr_scan"}, "fusion_lon": 0.0}, {"lat": 38.91560666666667, "is_disabled": 0, "type": "electric_scooter", "lon": -77.0315545, "bike_id": "ae2ecdcb456bc6cbeba9496c0eeac294", "fusion_lat": 0.0, "name": "ae2ecdcb456bc6cbeba9496c0eeac294", "is_reserved": 0, "rental_uris": {"android": "https://dc.lft.to/lastmile_qr_scan", "ios": "https://dc.lft.to/lastmile_qr_scan"}, "fusion_lon": 0.0}, {"lat": 38.91105116666667, "is_disabled": 0, "type": "electric_scooter", "lon": -77.03084083333333, "bike_id": "914f8986235701062732a57493dc4db8", "fusion_lat": 0.0, "name": "914f8986235701062732a57493dc4db8", "is_reserved": 0, "rental_uris": {"android": "https://dc.lft.to/lastmile_qr_scan", "ios": "https://dc.lft.to/lastmile_qr_scan"}, "fusion_lon": 0.0}, {"lat": 38.857865833333335, "is_disabled": 0, "type": "electric_bike", "lon": -77.0996285, "bike_id": "f1b959554af74b941fa8d2acdbe71d00", "fusion_lat": 0.0, "name": "f1b959554af74b941fa8d2acdbe71d00", "is_reserved": 0, "rental_uris": {"android": "https://dc.lft.to/lastmile_qr_scan", "ios": "https://dc.lft.to/lastmile_qr_scan"}, "fusion_lon": 0.0}, {"lat": 38.9220655, "is_disabled": 0, "type": "electric_scooter", "lon": -77.03782283333334, "bike_id": "ed8916d2eb4b81c89b5a6e567c50ad9e", "fusion_lat": 0.0, "name": "ed8916d2eb4b81c89b5a6e567c50ad9e", "is_reserved": 0, "rental_uris": {"android": "https://dc.lft.to/lastmile_qr_scan", "ios": "https://dc.lft.to/lastmile_qr_scan"}, "fusion_lon": 0.0}, {"lat": 38.87689016666667, "is_disabled": 0, "type": "electric_scooter", "lon": -77.01755633333333, "bike_id": "87b76f5b325a55268996d972b661dcae", "fusion_lat": 0.0, "name": "87b76f5b325a55268996d972b661dcae", "is_reserved": 0, "rental_uris": {"android": "https://dc.lft.to/lastmile_qr_scan", "ios": "https://dc.lft.to/lastmile_qr_scan"}, "fusion_lon": 0.0}, {"lat": 38.915449, "is_disabled": 0, "type": "electric_scooter", "lon": -77.03185216666667, "bike_id": "dc492f016501225d8e8299c03c2e5d50", "fusion_lat": 0.0, "name": "dc492f016501225d8e8299c03c2e5d50", "is_reserved": 0, "rental_uris": {"android": "https://dc.lft.to/lastmile_qr_scan", "ios": "https://dc.lft.to/lastmile_qr_scan"}, "fusion_lon": 0.0}, {"lat": 38.9169655, "is_disabled": 0, "type": "electric_scooter", "lon": -77.04592683333334, "bike_id": "d8f6bc9e258e1fc39f07a679021aed8e", "fusion_lat": 0.0, "name": "d8f6bc9e258e1fc39f07a679021aed8e", "is_reserved": 0, "rental_uris": {"android": "https://dc.lft.to/lastmile_qr_scan", "ios": "https://dc.lft.to/lastmile_qr_scan"}, "fusion_lon": 0.0}, {"lat": 38.90078716666667, "is_disabled": 0, "type": "electric_scooter", "lon": -77.050588, "bike_id": "a9bf273c383d7930f61fdfb41b9e829d", "fusion_lat": 0.0, "name": "a9bf273c383d7930f61fdfb41b9e829d", "is_reserved": 0, "rental_uris": {"android": "https://dc.lft.to/lastmile_qr_scan", "ios": "https://dc.lft.to/lastmile_qr_scan"}, "fusion_lon": 0.0}, {"lat": 38.89252233333333, "is_disabled": 0, "type": "electric_scooter", "lon": -77.04658433333333, "bike_id": "9c2f377c963371d597d479d9f754bf7a", "fusion_lat": 0.0, "name": "9c2f377c963371d597d479d9f754bf7a", "is_reserved": 0, "rental_uris": {"android": "https://dc.lft.to/lastmile_qr_scan", "ios": "https://dc.lft.to/lastmile_qr_scan"}, "fusion_lon": 0.0}, {"lat": 38.8973615, "is_disabled": 0, "type": "electric_scooter", "lon": -77.04766716666667, "bike_id": "1bc767e1ce3a3b88852762e6d73b8fc4", "fusion_lat": 0.0, "name": "1bc767e1ce3a3b88852762e6d73b8fc4", "is_reserved": 0, "rental_uris": {"android": "https://dc.lft.to/lastmile_qr_scan", "ios": "https://dc.lft.to/lastmile_qr_scan"}, "fusion_lon": 0.0}, {"lat": 38.899693, "is_disabled": 0, "type": "electric_scooter", "lon": -77.05706766666667, "bike_id": "c9c81575a27aed16f5fa27eaf5b839bd", "fusion_lat": 0.0, "name": "c9c81575a27aed16f5fa27eaf5b839bd", "is_reserved": 0, "rental_uris": {"android": "https://dc.lft.to/lastmile_qr_scan", "ios": "https://dc.lft.to/lastmile_qr_scan"}, "fusion_lon": 0.0}, {"lat": 38.92240433333333, "is_disabled": 0, "type": "electric_scooter", "lon": -77.04572, "bike_id": "3f62d44dc535408054841a04b8eb2899", "fusion_lat": 0.0, "name": "3f62d44dc535408054841a04b8eb2899", "is_reserved": 0, "rental_uris": {"android": "https://dc.lft.to/lastmile_qr_scan", "ios": "https://dc.lft.to/lastmile_qr_scan"}, "fusion_lon": 0.0}, {"lat": 38.939873166666665, "is_disabled": 0, "type": "electric_scooter", "lon": -77.07172683333333, "bike_id": "67ec1fcf8cd6aad426627e8cbedb955b", "fusion_lat": 0.0, "name": "67ec1fcf8cd6aad426627e8cbedb955b", "is_reserved": 0, "rental_uris": {"android": "https://dc.lft.to/lastmile_qr_scan", "ios": "https://dc.lft.to/lastmile_qr_scan"}, "fusion_lon": 0.0}, {"lat": 38.91418433333333, "is_disabled": 0, "type": "electric_scooter", "lon": -77.03177083333334, "bike_id": "f04452d5101134627fbf3f57a2955c3b", "fusion_lat": 0.0, "name": "f04452d5101134627fbf3f57a2955c3b", "is_reserved": 0, "rental_uris": {"android": "https://dc.lft.to/lastmile_qr_scan", "ios": "https://dc.lft.to/lastmile_qr_scan"}, "fusion_lon": 0.0}, {"lat": 38.89723216666667, "is_disabled": 0, "type": "electric_scooter", "lon": -77.0294865, "bike_id": "0c4010ed7b4cd28f2d92561855171d92", "fusion_lat": 0.0, "name": "0c4010ed7b4cd28f2d92561855171d92", "is_reserved": 0, "rental_uris": {"android": "https://dc.lft.to/lastmile_qr_scan", "ios": "https://dc.lft.to/lastmile_qr_scan"}, "fusion_lon": 0.0}, {"lat": 38.8505555, "is_disabled": 0, "type": "electric_bike", "lon": -76.97315916666666, "bike_id": "6912d873a164532dc061cdb681653e2a", "fusion_lat": 0.0, "name": "6912d873a164532dc061cdb681653e2a", "is_reserved": 0, "rental_uris": {"android": "https://dc.lft.to/lastmile_qr_scan", "ios": "https://dc.lft.to/lastmile_qr_scan"}, "fusion_lon": 0.0}, {"lat": 38.89886166666667, "is_disabled": 0, "type": "electric_scooter", "lon": -76.93175933333333, "bike_id": "fdcee60987d13f233341b7e52bd95a8e", "fusion_lat": 0.0, "name": "fdcee60987d13f233341b7e52bd95a8e", "is_reserved": 0, "rental_uris": {"android": "https://dc.lft.to/lastmile_qr_scan", "ios": "https://dc.lft.to/lastmile_qr_scan"}, "fusion_lon": 0.0}, {"lat": 38.92628033333333, "is_disabled": 0, "type": "electric_scooter", "lon": -77.03710633333333, "bike_id": "b34a2becd43b73ed0e5075fbbbfa0f2e", "fusion_lat": 0.0, "name": "b34a2becd43b73ed0e5075fbbbfa0f2e", "is_reserved": 0, "rental_uris": {"android": "https://dc.lft.to/lastmile_qr_scan", "ios": "https://dc.lft.to/lastmile_qr_scan"}, "fusion_lon": 0.0}, {"lat": 38.90509633333333, "is_disabled": 0, "type": "electric_scooter", "lon": -77.06202666666667, "bike_id": "7cbf2ab9b10ae2b5c2e9d5715efe4096", "fusion_lat": 0.0, "name": "7cbf2ab9b10ae2b5c2e9d5715efe4096", "is_reserved": 0, "rental_uris": {"android": "https://dc.lft.to/lastmile_qr_scan", "ios": "https://dc.lft.to/lastmile_qr_scan"}, "fusion_lon": 0.0}, {"lat": 38.907063, "is_disabled": 0, "type": "electric_scooter", "lon": -77.02976783333334, "bike_id": "e02abb0ea5d9c3573d00b947053f5903", "fusion_lat": 0.0, "name": "e02abb0ea5d9c3573d00b947053f5903", "is_reserved": 0, "rental_uris": {"android": "https://dc.lft.to/lastmile_qr_scan", "ios": "https://dc.lft.to/lastmile_qr_scan"}, "fusion_lon": 0.0}, {"lat": 38.899903333333334, "is_disabled": 0, "type": "electric_bike", "lon": -77.02197566666666, "bike_id": "62647ec4a0ba3b2c98741af6b5a06bb2", "fusion_lat": 0.0, "name": "62647ec4a0ba3b2c98741af6b5a06bb2", "is_reserved": 0, "rental_uris": {"android": "https://dc.lft.to/lastmile_qr_scan", "ios": "https://dc.lft.to/lastmile_qr_scan"}, "fusion_lon": 0.0}, {"lat": 38.896472833333334, "is_disabled": 0, "type": "electric_scooter", "lon": -77.02305733333333, "bike_id": "003d73680730b7fcddf22bee442a694a", "fusion_lat": 0.0, "name": "003d73680730b7fcddf22bee442a694a", "is_reserved": 0, "rental_uris": {"android": "https://dc.lft.to/lastmile_qr_scan", "ios": "https://dc.lft.to/lastmile_qr_scan"}, "fusion_lon": 0.0}, {"lat": 38.91459433333333, "is_disabled": 0, "type": "electric_scooter", "lon": -77.0218315, "bike_id": "0117c1fc90df7ebfcfad7102a866bf0c", "fusion_lat": 0.0, "name": "0117c1fc90df7ebfcfad7102a866bf0c", "is_reserved": 0, "rental_uris": {"android": "https://dc.lft.to/lastmile_qr_scan", "ios": "https://dc.lft.to/lastmile_qr_scan"}, "fusion_lon": 0.0}, {"lat": 38.92799, "is_disabled": 0, "type": "electric_scooter", "lon": -77.043182, "bike_id": "0366cbacaf3dfb0162e458b61eeb7c18", "fusion_lat": 0.0, "name": "0366cbacaf3dfb0162e458b61eeb7c18", "is_reserved": 0, "rental_uris": {"android": "https://dc.lft.to/lastmile_qr_scan", "ios": "https://dc.lft.to/lastmile_qr_scan"}, "fusion_lon": 0.0}, {"lat": 38.855168, "is_disabled": 0, "type": "electric_bike", "lon": -77.12012133333333, "bike_id": "f66829c76dc67ca308e477c8c376098f", "fusion_lat": 0.0, "name": "f66829c76dc67ca308e477c8c376098f", "is_reserved": 0, "rental_uris": {"android": "https://dc.lft.to/lastmile_qr_scan", "ios": "https://dc.lft.to/lastmile_qr_scan"}, "fusion_lon": 0.0}, {"lat": 38.909766, "is_disabled": 0, "type": "electric_scooter", "lon": -77.02390883333334, "bike_id": "f7e293a81cac4a38f69bfbf645474be8", "fusion_lat": 0.0, "name": "f7e293a81cac4a38f69bfbf645474be8", "is_reserved": 0, "rental_uris": {"android": "https://dc.lft.to/lastmile_qr_scan", "ios": "https://dc.lft.to/lastmile_qr_scan"}, "fusion_lon": 0.0}, {"lat": 38.897528666666666, "is_disabled": 0, "type": "electric_scooter", "lon": -77.02572366666666, "bike_id": "0f94b83cc671cc9cf2fd1ad6d4052614", "fusion_lat": 0.0, "name": "0f94b83cc671cc9cf2fd1ad6d4052614", "is_reserved": 0, "rental_uris": {"android": "https://dc.lft.to/lastmile_qr_scan", "ios": "https://dc.lft.to/lastmile_qr_scan"}, "fusion_lon": 0.0}, {"lat": 38.9181535, "is_disabled": 0, "type": "electric_scooter", "lon": -77.02476533333333, "bike_id": "7c39d9c826966a39e0ebf0d246a21cc5", "fusion_lat": 0.0, "name": "7c39d9c826966a39e0ebf0d246a21cc5", "is_reserved": 0, "rental_uris": {"android": "https://dc.lft.to/lastmile_qr_scan", "ios": "https://dc.lft.to/lastmile_qr_scan"}, "fusion_lon": 0.0}, {"lat": 38.909499833333335, "is_disabled": 0, "type": "electric_scooter", "lon": -77.03363266666666, "bike_id": "523ee30c10d41b15291de225d80d25ee", "fusion_lat": 0.0, "name": "523ee30c10d41b15291de225d80d25ee", "is_reserved": 0, "rental_uris": {"android": "https://dc.lft.to/lastmile_qr_scan", "ios": "https://dc.lft.to/lastmile_qr_scan"}, "fusion_lon": 0.0}, {"lat": 38.9006045, "is_disabled": 0, "type": "electric_scooter", "lon": -77.01364183333334, "bike_id": "2ff6dc16bba620a46700bbd2d073724f", "fusion_lat": 0.0, "name": "2ff6dc16bba620a46700bbd2d073724f", "is_reserved": 0, "rental_uris": {"android": "https://dc.lft.to/lastmile_qr_scan", "ios": "https://dc.lft.to/lastmile_qr_scan"}, "fusion_lon": 0.0}, {"lat": 38.90212, "is_disabled": 0, "type": "electric_scooter", "lon": -77.023753, "bike_id": "46ba17b3794f6c887f7e0367be7a248d", "fusion_lat": 0.0, "name": "46ba17b3794f6c887f7e0367be7a248d", "is_reserved": 0, "rental_uris": {"android": "https://dc.lft.to/lastmile_qr_scan", "ios": "https://dc.lft.to/lastmile_qr_scan"}, "fusion_lon": 0.0}, {"lat": 38.90111533333334, "is_disabled": 0, "type": "electric_scooter", "lon": -77.04983516666667, "bike_id": "43551351b75d3f89e4a986f354398966", "fusion_lat": 0.0, "name": "43551351b75d3f89e4a986f354398966", "is_reserved": 0, "rental_uris": {"android": "https://dc.lft.to/lastmile_qr_scan", "ios": "https://dc.lft.to/lastmile_qr_scan"}, "fusion_lon": 0.0}, {"lat": 38.918336333333336, "is_disabled": 0, "type": "electric_scooter", "lon": -77.01470333333333, "bike_id": "3fc2db3d6d2fe303a190b9e18480f6db", "fusion_lat": 0.0, "name": "3fc2db3d6d2fe303a190b9e18480f6db", "is_reserved": 0, "rental_uris": {"android": "https://dc.lft.to/lastmile_qr_scan", "ios": "https://dc.lft.to/lastmile_qr_scan"}, "fusion_lon": 0.0}, {"lat": 38.931147, "is_disabled": 0, "type": "electric_scooter", "lon": -77.0381395, "bike_id": "cb3f18df5780b9685b0a2d66f752526b", "fusion_lat": 0.0, "name": "cb3f18df5780b9685b0a2d66f752526b", "is_reserved": 0, "rental_uris": {"android": "https://dc.lft.to/lastmile_qr_scan", "ios": "https://dc.lft.to/lastmile_qr_scan"}, "fusion_lon": 0.0}, {"lat": 38.938610833333335, "is_disabled": 0, "type": "electric_scooter", "lon": -77.0259185, "bike_id": "4a025d42da95d1e66cdb560f1c40ac42", "fusion_lat": 0.0, "name": "4a025d42da95d1e66cdb560f1c40ac42", "is_reserved": 0, "rental_uris": {"android": "https://dc.lft.to/lastmile_qr_scan", "ios": "https://dc.lft.to/lastmile_qr_scan"}, "fusion_lon": 0.0}, {"lat": 38.892815, "is_disabled": 0, "type": "electric_scooter", "lon": -77.05040783333334, "bike_id": "8d7610587c8aea1d818fb6d279d47da4", "fusion_lat": 0.0, "name": "8d7610587c8aea1d818fb6d279d47da4", "is_reserved": 0, "rental_uris": {"android": "https://dc.lft.to/lastmile_qr_scan", "ios": "https://dc.lft.to/lastmile_qr_scan"}, "fusion_lon": 0.0}, {"lat": 38.918422, "is_disabled": 0, "type": "electric_scooter", "lon": -76.96541366666666, "bike_id": "7c72cd8f97ffdafeeda3c5d8e97c2dc3", "fusion_lat": 0.0, "name": "7c72cd8f97ffdafeeda3c5d8e97c2dc3", "is_reserved": 0, "rental_uris": {"android": "https://dc.lft.to/lastmile_qr_scan", "ios": "https://dc.lft.to/lastmile_qr_scan"}, "fusion_lon": 0.0}, {"lat": 38.923839666666666, "is_disabled": 0, "type": "electric_scooter", "lon": -77.03070666666666, "bike_id": "d5965e2932fc4b991ea55503019bf0ba", "fusion_lat": 0.0, "name": "d5965e2932fc4b991ea55503019bf0ba", "is_reserved": 0, "rental_uris": {"android": "https://dc.lft.to/lastmile_qr_scan", "ios": "https://dc.lft.to/lastmile_qr_scan"}, "fusion_lon": 0.0}, {"lat": 38.893228666666666, "is_disabled": 0, "type": "electric_bike", "lon": -77.02224566666666, "bike_id": "9930fe42976b861f0eb37d74a563d071", "fusion_lat": 0.0, "name": "9930fe42976b861f0eb37d74a563d071", "is_reserved": 0, "rental_uris": {"android": "https://dc.lft.to/lastmile_qr_scan", "ios": "https://dc.lft.to/lastmile_qr_scan"}, "fusion_lon": 0.0}, {"lat": 38.91802966666667, "is_disabled": 0, "type": "electric_scooter", "lon": -77.0318155, "bike_id": "a2eb87ecaf016023da8cfae115865291", "fusion_lat": 0.0, "name": "a2eb87ecaf016023da8cfae115865291", "is_reserved": 0, "rental_uris": {"android": "https://dc.lft.to/lastmile_qr_scan", "ios": "https://dc.lft.to/lastmile_qr_scan"}, "fusion_lon": 0.0}, {"lat": 38.846265333333335, "is_disabled": 0, "type": "electric_bike", "lon": -77.069372, "bike_id": "6617b16bd84dfa5b3c4090e3301632d4", "fusion_lat": 0.0, "name": "6617b16bd84dfa5b3c4090e3301632d4", "is_reserved": 0, "rental_uris": {"android": "https://dc.lft.to/lastmile_qr_scan", "ios": "https://dc.lft.to/lastmile_qr_scan"}, "fusion_lon": 0.0}, {"lat": 38.89009466666667, "is_disabled": 0, "type": "electric_scooter", "lon": -76.93747183333333, "bike_id": "2ff69aa1b57017c2d635ade058eff21e", "fusion_lat": 0.0, "name": "2ff69aa1b57017c2d635ade058eff21e", "is_reserved": 0, "rental_uris": {"android": "https://dc.lft.to/lastmile_qr_scan", "ios": "https://dc.lft.to/lastmile_qr_scan"}, "fusion_lon": 0.0}, {"lat": 38.89505316666666, "is_disabled": 0, "type": "electric_scooter", "lon": -77.02746316666666, "bike_id": "a0803e849fd9228a6ca433403e493be1", "fusion_lat": 0.0, "name": "a0803e849fd9228a6ca433403e493be1", "is_reserved": 0, "rental_uris": {"android": "https://dc.lft.to/lastmile_qr_scan", "ios": "https://dc.lft.to/lastmile_qr_scan"}, "fusion_lon": 0.0}, {"lat": 38.90977683333333, "is_disabled": 0, "type": "electric_scooter", "lon": -77.03185733333333, "bike_id": "90e533feaa1e68ca886eb24fb7f66748", "fusion_lat": 0.0, "name": "90e533feaa1e68ca886eb24fb7f66748", "is_reserved": 0, "rental_uris": {"android": "https://dc.lft.to/lastmile_qr_scan", "ios": "https://dc.lft.to/lastmile_qr_scan"}, "fusion_lon": 0.0}, {"lat": 38.9171305, "is_disabled": 0, "type": "electric_scooter", "lon": -77.03453616666667, "bike_id": "09afa07df1a660eec759c794026dcc2e", "fusion_lat": 0.0, "name": "09afa07df1a660eec759c794026dcc2e", "is_reserved": 0, "rental_uris": {"android": "https://dc.lft.to/lastmile_qr_scan", "ios": "https://dc.lft.to/lastmile_qr_scan"}, "fusion_lon": 0.0}, {"lat": 38.91217016666667, "is_disabled": 0, "type": "electric_scooter", "lon": -77.04343316666667, "bike_id": "4ca607f74147e8f43a205562e0bf0392", "fusion_lat": 0.0, "name": "4ca607f74147e8f43a205562e0bf0392", "is_reserved": 0, "rental_uris": {"android": "https://dc.lft.to/lastmile_qr_scan", "ios": "https://dc.lft.to/lastmile_qr_scan"}, "fusion_lon": 0.0}, {"lat": 38.91289966666667, "is_disabled": 0, "type": "electric_scooter", "lon": -77.04514416666666, "bike_id": "d3c9a90401deb76257908b8346af1e66", "fusion_lat": 0.0, "name": "d3c9a90401deb76257908b8346af1e66", "is_reserved": 0, "rental_uris": {"android": "https://dc.lft.to/lastmile_qr_scan", "ios": "https://dc.lft.to/lastmile_qr_scan"}, "fusion_lon": 0.0}, {"lat": 38.866548333333334, "is_disabled": 0, "type": "electric_scooter", "lon": -76.98883183333334, "bike_id": "9c2904e24d4b9dcd710514efc9255985", "fusion_lat": 0.0, "name": "9c2904e24d4b9dcd710514efc9255985", "is_reserved": 0, "rental_uris": {"android": "https://dc.lft.to/lastmile_qr_scan", "ios": "https://dc.lft.to/lastmile_qr_scan"}, "fusion_lon": 0.0}, {"lat": 38.92048666666667, "is_disabled": 0, "type": "electric_scooter", "lon": -77.03475216666666, "bike_id": "9edfd3db774c76b07c71ca3e1a7ea425", "fusion_lat": 0.0, "name": "9edfd3db774c76b07c71ca3e1a7ea425", "is_reserved": 0, "rental_uris": {"android": "https://dc.lft.to/lastmile_qr_scan", "ios": "https://dc.lft.to/lastmile_qr_scan"}, "fusion_lon": 0.0}, {"lat": 38.892176166666665, "is_disabled": 0, "type": "electric_scooter", "lon": -77.021655, "bike_id": "981a29e0fa1ec718768856c3f5ddceb7", "fusion_lat": 0.0, "name": "981a29e0fa1ec718768856c3f5ddceb7", "is_reserved": 0, "rental_uris": {"android": "https://dc.lft.to/lastmile_qr_scan", "ios": "https://dc.lft.to/lastmile_qr_scan"}, "fusion_lon": 0.0}, {"lat": 38.9096185, "is_disabled": 0, "type": "electric_scooter", "lon": -77.03298466666666, "bike_id": "07d741fe6877feca342d7a9dc44b5a61", "fusion_lat": 0.0, "name": "07d741fe6877feca342d7a9dc44b5a61", "is_reserved": 0, "rental_uris": {"android": "https://dc.lft.to/lastmile_qr_scan", "ios": "https://dc.lft.to/lastmile_qr_scan"}, "fusion_lon": 0.0}, {"lat": 38.900247666666665, "is_disabled": 0, "type": "electric_scooter", "lon": -77.02907466666667, "bike_id": "566593b3b77bcb0fed29201169db7755", "fusion_lat": 0.0, "name": "566593b3b77bcb0fed29201169db7755", "is_reserved": 0, "rental_uris": {"android": "https://dc.lft.to/lastmile_qr_scan", "ios": "https://dc.lft.to/lastmile_qr_scan"}, "fusion_lon": 0.0}, {"lat": 38.895176666666664, "is_disabled": 0, "type": "electric_scooter", "lon": -76.97733066666666, "bike_id": "8b558efe3f528d9645c690212cd2a4e3", "fusion_lat": 0.0, "name": "8b558efe3f528d9645c690212cd2a4e3", "is_reserved": 0, "rental_uris": {"android": "https://dc.lft.to/lastmile_qr_scan", "ios": "https://dc.lft.to/lastmile_qr_scan"}, "fusion_lon": 0.0}, {"lat": 38.92193533333333, "is_disabled": 0, "type": "electric_scooter", "lon": -77.04126083333334, "bike_id": "c69aca3bb51acb94a12d3215d7b0946b", "fusion_lat": 0.0, "name": "c69aca3bb51acb94a12d3215d7b0946b", "is_reserved": 0, "rental_uris": {"android": "https://dc.lft.to/lastmile_qr_scan", "ios": "https://dc.lft.to/lastmile_qr_scan"}, "fusion_lon": 0.0}, {"lat": 38.95493733333333, "is_disabled": 0, "type": "electric_scooter", "lon": -77.06567333333334, "bike_id": "54890ad9e22e44ee15c10dd9a50e8396", "fusion_lat": 0.0, "name": "54890ad9e22e44ee15c10dd9a50e8396", "is_reserved": 0, "rental_uris": {"android": "https://dc.lft.to/lastmile_qr_scan", "ios": "https://dc.lft.to/lastmile_qr_scan"}, "fusion_lon": 0.0}, {"lat": 38.922481166666664, "is_disabled": 0, "type": "electric_scooter", "lon": -77.01976433333333, "bike_id": "550fced250ae24cc30bbd9fb6551517e", "fusion_lat": 0.0, "name": "550fced250ae24cc30bbd9fb6551517e", "is_reserved": 0, "rental_uris": {"android": "https://dc.lft.to/lastmile_qr_scan", "ios": "https://dc.lft.to/lastmile_qr_scan"}, "fusion_lon": 0.0}, {"lat": 38.93193466666666, "is_disabled": 0, "type": "electric_scooter", "lon": -77.0256495, "bike_id": "d895bffd42dc1f4afe3efc0c75541f6f", "fusion_lat": 0.0, "name": "d895bffd42dc1f4afe3efc0c75541f6f", "is_reserved": 0, "rental_uris": {"android": "https://dc.lft.to/lastmile_qr_scan", "ios": "https://dc.lft.to/lastmile_qr_scan"}, "fusion_lon": 0.0}, {"lat": 38.90052883333333, "is_disabled": 0, "type": "electric_scooter", "lon": -77.00754266666667, "bike_id": "2dc2304de372de9a3005992d36fbcc56", "fusion_lat": 0.0, "name": "2dc2304de372de9a3005992d36fbcc56", "is_reserved": 0, "rental_uris": {"android": "https://dc.lft.to/lastmile_qr_scan", "ios": "https://dc.lft.to/lastmile_qr_scan"}, "fusion_lon": 0.0}, {"lat": 38.82783233333333, "is_disabled": 0, "type": "electric_bike", "lon": -77.0091915, "bike_id": "ced62d8e7c0cb4c5bac69fc1e6845a9d", "fusion_lat": 0.0, "name": "ced62d8e7c0cb4c5bac69fc1e6845a9d", "is_reserved": 0, "rental_uris": {"android": "https://dc.lft.to/lastmile_qr_scan", "ios": "https://dc.lft.to/lastmile_qr_scan"}, "fusion_lon": 0.0}, {"lat": 38.9072425, "is_disabled": 0, "type": "electric_scooter", "lon": -77.04012366666667, "bike_id": "1b44d507a4a24f6ae47d28bfc6ec8a39", "fusion_lat": 0.0, "name": "1b44d507a4a24f6ae47d28bfc6ec8a39", "is_reserved": 0, "rental_uris": {"android": "https://dc.lft.to/lastmile_qr_scan", "ios": "https://dc.lft.to/lastmile_qr_scan"}, "fusion_lon": 0.0}, {"lat": 38.909742333333334, "is_disabled": 0, "type": "electric_scooter", "lon": -77.0386385, "bike_id": "e27f1122f23b15e90a5dd7dcc13e76f5", "fusion_lat": 0.0, "name": "e27f1122f23b15e90a5dd7dcc13e76f5", "is_reserved": 0, "rental_uris": {"android": "https://dc.lft.to/lastmile_qr_scan", "ios": "https://dc.lft.to/lastmile_qr_scan"}, "fusion_lon": 0.0}, {"lat": 38.8963015, "is_disabled": 0, "type": "electric_scooter", "lon": -77.033024, "bike_id": "d5964ed8318c699a7a10107bc42f5508", "fusion_lat": 0.0, "name": "d5964ed8318c699a7a10107bc42f5508", "is_reserved": 0, "rental_uris": {"android": "https://dc.lft.to/lastmile_qr_scan", "ios": "https://dc.lft.to/lastmile_qr_scan"}, "fusion_lon": 0.0}, {"lat": 38.88363283333333, "is_disabled": 0, "type": "electric_scooter", "lon": -76.99511766666667, "bike_id": "be3112d56861653a3cf93a2dc96322c3", "fusion_lat": 0.0, "name": "be3112d56861653a3cf93a2dc96322c3", "is_reserved": 0, "rental_uris": {"android": "https://dc.lft.to/lastmile_qr_scan", "ios": "https://dc.lft.to/lastmile_qr_scan"}, "fusion_lon": 0.0}, {"lat": 38.89700283333333, "is_disabled": 0, "type": "electric_scooter", "lon": -77.02782283333333, "bike_id": "96b85b6605cae43db8f9eeb232f3f77f", "fusion_lat": 0.0, "name": "96b85b6605cae43db8f9eeb232f3f77f", "is_reserved": 0, "rental_uris": {"android": "https://dc.lft.to/lastmile_qr_scan", "ios": "https://dc.lft.to/lastmile_qr_scan"}, "fusion_lon": 0.0}, {"lat": 38.88797866666667, "is_disabled": 0, "type": "electric_scooter", "lon": -76.93361066666667, "bike_id": "046e89f60b1c826a8ceb42c6be35db33", "fusion_lat": 0.0, "name": "046e89f60b1c826a8ceb42c6be35db33", "is_reserved": 0, "rental_uris": {"android": "https://dc.lft.to/lastmile_qr_scan", "ios": "https://dc.lft.to/lastmile_qr_scan"}, "fusion_lon": 0.0}, {"lat": 38.88092866666667, "is_disabled": 0, "type": "electric_scooter", "lon": -76.99254033333334, "bike_id": "f4d5bec8b4c0fe56507661f2131bc24b", "fusion_lat": 0.0, "name": "f4d5bec8b4c0fe56507661f2131bc24b", "is_reserved": 0, "rental_uris": {"android": "https://dc.lft.to/lastmile_qr_scan", "ios": "https://dc.lft.to/lastmile_qr_scan"}, "fusion_lon": 0.0}, {"lat": 38.9660965, "is_disabled": 0, "type": "electric_scooter", "lon": -77.023273, "bike_id": "0793d9994d0184049f462e0ead0453c8", "fusion_lat": 0.0, "name": "0793d9994d0184049f462e0ead0453c8", "is_reserved": 0, "rental_uris": {"android": "https://dc.lft.to/lastmile_qr_scan", "ios": "https://dc.lft.to/lastmile_qr_scan"}, "fusion_lon": 0.0}, {"lat": 38.938992999999996, "is_disabled": 0, "type": "electric_scooter", "lon": -77.0330905, "bike_id": "095e7c4e4526e2d22cf08fc58de76e28", "fusion_lat": 0.0, "name": "095e7c4e4526e2d22cf08fc58de76e28", "is_reserved": 0, "rental_uris": {"android": "https://dc.lft.to/lastmile_qr_scan", "ios": "https://dc.lft.to/lastmile_qr_scan"}, "fusion_lon": 0.0}, {"lat": 38.98428283333333, "is_disabled": 0, "type": "electric_scooter", "lon": -77.02670666666667, "bike_id": "a5464003a917e479b9cdcf380222237c", "fusion_lat": 0.0, "name": "a5464003a917e479b9cdcf380222237c", "is_reserved": 0, "rental_uris": {"android": "https://dc.lft.to/lastmile_qr_scan", "ios": "https://dc.lft.to/lastmile_qr_scan"}, "fusion_lon": 0.0}, {"lat": 38.914203, "is_disabled": 0, "type": "electric_scooter", "lon": -77.031767, "bike_id": "d15798f53b50f1c38b59c63f82fd4e52", "fusion_lat": 0.0, "name": "d15798f53b50f1c38b59c63f82fd4e52", "is_reserved": 0, "rental_uris": {"android": "https://dc.lft.to/lastmile_qr_scan", "ios": "https://dc.lft.to/lastmile_qr_scan"}, "fusion_lon": 0.0}, {"lat": 38.903267, "is_disabled": 0, "type": "electric_scooter", "lon": -77.02067116666667, "bike_id": "445b4d5d7460c1f3e96e4f493fb5a3c7", "fusion_lat": 0.0, "name": "445b4d5d7460c1f3e96e4f493fb5a3c7", "is_reserved": 0, "rental_uris": {"android": "https://dc.lft.to/lastmile_qr_scan", "ios": "https://dc.lft.to/lastmile_qr_scan"}, "fusion_lon": 0.0}, {"lat": 39.034054, "is_disabled": 0, "type": "electric_bike", "lon": -77.04222316666667, "bike_id": "a413f3269e45252930250d73c9f59abc", "fusion_lat": 0.0, "name": "a413f3269e45252930250d73c9f59abc", "is_reserved": 0, "rental_uris": {"android": "https://dc.lft.to/lastmile_qr_scan", "ios": "https://dc.lft.to/lastmile_qr_scan"}, "fusion_lon": 0.0}, {"lat": 38.9096595, "is_disabled": 0, "type": "electric_scooter", "lon": -76.98465466666667, "bike_id": "bc41ebf8c4ab4ed97f53e377e54d549e", "fusion_lat": 0.0, "name": "bc41ebf8c4ab4ed97f53e377e54d549e", "is_reserved": 0, "rental_uris": {"android": "https://dc.lft.to/lastmile_qr_scan", "ios": "https://dc.lft.to/lastmile_qr_scan"}, "fusion_lon": 0.0}, {"lat": 38.90377566666667, "is_disabled": 0, "type": "electric_scooter", "lon": -77.04461283333333, "bike_id": "ebf869402caf3b340cd96f7c2fd8bc2a", "fusion_lat": 0.0, "name": "ebf869402caf3b340cd96f7c2fd8bc2a", "is_reserved": 0, "rental_uris": {"android": "https://dc.lft.to/lastmile_qr_scan", "ios": "https://dc.lft.to/lastmile_qr_scan"}, "fusion_lon": 0.0}, {"lat": 38.898016, "is_disabled": 0, "type": "electric_scooter", "lon": -77.03011216666667, "bike_id": "92cc25c12fa53578bdbff69fe6f4cc33", "fusion_lat": 0.0, "name": "92cc25c12fa53578bdbff69fe6f4cc33", "is_reserved": 0, "rental_uris": {"android": "https://dc.lft.to/lastmile_qr_scan", "ios": "https://dc.lft.to/lastmile_qr_scan"}, "fusion_lon": 0.0}, {"lat": 38.898376999999996, "is_disabled": 0, "type": "electric_scooter", "lon": -77.04345133333334, "bike_id": "8903a25a96a684d4e946effbf60c9dd4", "fusion_lat": 0.0, "name": "8903a25a96a684d4e946effbf60c9dd4", "is_reserved": 0, "rental_uris": {"android": "https://dc.lft.to/lastmile_qr_scan", "ios": "https://dc.lft.to/lastmile_qr_scan"}, "fusion_lon": 0.0}, {"lat": 38.896246, "is_disabled": 0, "type": "electric_scooter", "lon": -76.998468, "bike_id": "cc1bf7e397dc12453b0cccb446873081", "fusion_lat": 0.0, "name": "cc1bf7e397dc12453b0cccb446873081", "is_reserved": 0, "rental_uris": {"android": "https://dc.lft.to/lastmile_qr_scan", "ios": "https://dc.lft.to/lastmile_qr_scan"}, "fusion_lon": 0.0}, {"lat": 38.91710883333333, "is_disabled": 0, "type": "electric_scooter", "lon": -77.03498466666667, "bike_id": "1dbbbd7ddab80368010b27d798c0ee07", "fusion_lat": 0.0, "name": "1dbbbd7ddab80368010b27d798c0ee07", "is_reserved": 0, "rental_uris": {"android": "https://dc.lft.to/lastmile_qr_scan", "ios": "https://dc.lft.to/lastmile_qr_scan"}, "fusion_lon": 0.0}, {"lat": 38.902216333333335, "is_disabled": 0, "type": "electric_scooter", "lon": -77.02370533333334, "bike_id": "2e90785c5631c8e70e8fa4737877709e", "fusion_lat": 0.0, "name": "2e90785c5631c8e70e8fa4737877709e", "is_reserved": 0, "rental_uris": {"android": "https://dc.lft.to/lastmile_qr_scan", "ios": "https://dc.lft.to/lastmile_qr_scan"}, "fusion_lon": 0.0}, {"lat": 38.917344666666665, "is_disabled": 0, "type": "electric_bike", "lon": -77.008007, "bike_id": "be01697615c535e79edd0430476c3a41", "fusion_lat": 0.0, "name": "be01697615c535e79edd0430476c3a41", "is_reserved": 0, "rental_uris": {"android": "https://dc.lft.to/lastmile_qr_scan", "ios": "https://dc.lft.to/lastmile_qr_scan"}, "fusion_lon": 0.0}, {"lat": 38.89325183333333, "is_disabled": 0, "type": "electric_scooter", "lon": -76.92996566666666, "bike_id": "78f8a9ce6c85cf15698534c85ae27f3e", "fusion_lat": 0.0, "name": "78f8a9ce6c85cf15698534c85ae27f3e", "is_reserved": 0, "rental_uris": {"android": "https://dc.lft.to/lastmile_qr_scan", "ios": "https://dc.lft.to/lastmile_qr_scan"}, "fusion_lon": 0.0}, {"lat": 38.900948666666665, "is_disabled": 0, "type": "electric_scooter", "lon": -77.013663, "bike_id": "b2791407fa3147eb329938057b19debe", "fusion_lat": 0.0, "name": "b2791407fa3147eb329938057b19debe", "is_reserved": 0, "rental_uris": {"android": "https://dc.lft.to/lastmile_qr_scan", "ios": "https://dc.lft.to/lastmile_qr_scan"}, "fusion_lon": 0.0}, {"lat": 38.88774816666667, "is_disabled": 0, "type": "electric_scooter", "lon": -77.02863116666667, "bike_id": "d4faceebdff5d7ed0cde08ddff332af5", "fusion_lat": 0.0, "name": "d4faceebdff5d7ed0cde08ddff332af5", "is_reserved": 0, "rental_uris": {"android": "https://dc.lft.to/lastmile_qr_scan", "ios": "https://dc.lft.to/lastmile_qr_scan"}, "fusion_lon": 0.0}, {"lat": 38.876285833333334, "is_disabled": 0, "type": "electric_scooter", "lon": -76.965242, "bike_id": "a66e8211692a8652e79e8da24ff58444", "fusion_lat": 0.0, "name": "a66e8211692a8652e79e8da24ff58444", "is_reserved": 0, "rental_uris": {"android": "https://dc.lft.to/lastmile_qr_scan", "ios": "https://dc.lft.to/lastmile_qr_scan"}, "fusion_lon": 0.0}, {"lat": 38.9463715, "is_disabled": 0, "type": "electric_scooter", "lon": -77.019373, "bike_id": "4957f51abcf0ea46f70d696e26ed6a7d", "fusion_lat": 0.0, "name": "4957f51abcf0ea46f70d696e26ed6a7d", "is_reserved": 0, "rental_uris": {"android": "https://dc.lft.to/lastmile_qr_scan", "ios": "https://dc.lft.to/lastmile_qr_scan"}, "fusion_lon": 0.0}, {"lat": 38.89853883333333, "is_disabled": 0, "type": "electric_scooter", "lon": -77.01888883333334, "bike_id": "cb790c63e5e52446ce5ef90e7ab91832", "fusion_lat": 0.0, "name": "cb790c63e5e52446ce5ef90e7ab91832", "is_reserved": 0, "rental_uris": {"android": "https://dc.lft.to/lastmile_qr_scan", "ios": "https://dc.lft.to/lastmile_qr_scan"}, "fusion_lon": 0.0}, {"lat": 38.897426, "is_disabled": 0, "type": "electric_scooter", "lon": -77.00861933333333, "bike_id": "227c5dcd8a23beaa44d80e8484dd63ef", "fusion_lat": 0.0, "name": "227c5dcd8a23beaa44d80e8484dd63ef", "is_reserved": 0, "rental_uris": {"android": "https://dc.lft.to/lastmile_qr_scan", "ios": "https://dc.lft.to/lastmile_qr_scan"}, "fusion_lon": 0.0}, {"lat": 38.92325566666667, "is_disabled": 0, "type": "electric_scooter", "lon": -77.03893533333333, "bike_id": "73e130503e33bfdc6648dcb4ddd71072", "fusion_lat": 0.0, "name": "73e130503e33bfdc6648dcb4ddd71072", "is_reserved": 0, "rental_uris": {"android": "https://dc.lft.to/lastmile_qr_scan", "ios": "https://dc.lft.to/lastmile_qr_scan"}, "fusion_lon": 0.0}, {"lat": 38.9449835, "is_disabled": 0, "type": "electric_scooter", "lon": -77.01548233333334, "bike_id": "d694cca8771d40b905ba0c2057206b44", "fusion_lat": 0.0, "name": "d694cca8771d40b905ba0c2057206b44", "is_reserved": 0, "rental_uris": {"android": "https://dc.lft.to/lastmile_qr_scan", "ios": "https://dc.lft.to/lastmile_qr_scan"}, "fusion_lon": 0.0}, {"lat": 38.90892783333334, "is_disabled": 0, "type": "electric_scooter", "lon": -77.04341283333333, "bike_id": "bd55f284a2494c70a148d477bbe6b5fd", "fusion_lat": 0.0, "name": "bd55f284a2494c70a148d477bbe6b5fd", "is_reserved": 0, "rental_uris": {"android": "https://dc.lft.to/lastmile_qr_scan", "ios": "https://dc.lft.to/lastmile_qr_scan"}, "fusion_lon": 0.0}, {"lat": 38.9249, "is_disabled": 0, "type": "electric_scooter", "lon": -77.0521, "bike_id": "51f431bc9ddae4352c86815b2dd4619a", "fusion_lat": 0.0, "name": "51f431bc9ddae4352c86815b2dd4619a", "is_reserved": 0, "rental_uris": {"android": "https://dc.lft.to/lastmile_qr_scan", "ios": "https://dc.lft.to/lastmile_qr_scan"}, "fusion_lon": 0.0}, {"lat": 38.9135195, "is_disabled": 0, "type": "electric_scooter", "lon": -77.031844, "bike_id": "3849a2c51ab1c39393e7ab3da0c6a730", "fusion_lat": 0.0, "name": "3849a2c51ab1c39393e7ab3da0c6a730", "is_reserved": 0, "rental_uris": {"android": "https://dc.lft.to/lastmile_qr_scan", "ios": "https://dc.lft.to/lastmile_qr_scan"}, "fusion_lon": 0.0}, {"lat": 38.921869666666666, "is_disabled": 0, "type": "electric_scooter", "lon": -77.02983333333333, "bike_id": "8c563bcc3ef0658ebb02581757f87c98", "fusion_lat": 0.0, "name": "8c563bcc3ef0658ebb02581757f87c98", "is_reserved": 0, "rental_uris": {"android": "https://dc.lft.to/lastmile_qr_scan", "ios": "https://dc.lft.to/lastmile_qr_scan"}, "fusion_lon": 0.0}, {"lat": 38.930709666666665, "is_disabled": 0, "type": "electric_scooter", "lon": -77.02819883333333, "bike_id": "604763f8ca36143537e196b01ed379d9", "fusion_lat": 0.0, "name": "604763f8ca36143537e196b01ed379d9", "is_reserved": 0, "rental_uris": {"android": "https://dc.lft.to/lastmile_qr_scan", "ios": "https://dc.lft.to/lastmile_qr_scan"}, "fusion_lon": 0.0}, {"lat": 38.914047, "is_disabled": 0, "type": "electric_scooter", "lon": -77.03230216666667, "bike_id": "55b37fab943951b3e36447d1d7b6caac", "fusion_lat": 0.0, "name": "55b37fab943951b3e36447d1d7b6caac", "is_reserved": 0, "rental_uris": {"android": "https://dc.lft.to/lastmile_qr_scan", "ios": "https://dc.lft.to/lastmile_qr_scan"}, "fusion_lon": 0.0}, {"lat": 38.90909383333333, "is_disabled": 0, "type": "electric_scooter", "lon": -77.02709183333333, "bike_id": "637fc7a71caa17e34dc1fd6a3908b250", "fusion_lat": 0.0, "name": "637fc7a71caa17e34dc1fd6a3908b250", "is_reserved": 0, "rental_uris": {"android": "https://dc.lft.to/lastmile_qr_scan", "ios": "https://dc.lft.to/lastmile_qr_scan"}, "fusion_lon": 0.0}, {"lat": 38.900704166666664, "is_disabled": 0, "type": "electric_scooter", "lon": -77.05014716666666, "bike_id": "66b8e95ee0301344f152d5515e507ccd", "fusion_lat": 0.0, "name": "66b8e95ee0301344f152d5515e507ccd", "is_reserved": 0, "rental_uris": {"android": "https://dc.lft.to/lastmile_qr_scan", "ios": "https://dc.lft.to/lastmile_qr_scan"}, "fusion_lon": 0.0}, {"lat": 38.93326033333334, "is_disabled": 0, "type": "electric_scooter", "lon": -77.04399883333333, "bike_id": "c37c5df69009bd013384142ff027c5f7", "fusion_lat": 0.0, "name": "c37c5df69009bd013384142ff027c5f7", "is_reserved": 0, "rental_uris": {"android": "https://dc.lft.to/lastmile_qr_scan", "ios": "https://dc.lft.to/lastmile_qr_scan"}, "fusion_lon": 0.0}, {"lat": 38.9038735, "is_disabled": 0, "type": "electric_scooter", "lon": -77.02805066666667, "bike_id": "d652d62a53fa9314af37925bd0616227", "fusion_lat": 0.0, "name": "d652d62a53fa9314af37925bd0616227", "is_reserved": 0, "rental_uris": {"android": "https://dc.lft.to/lastmile_qr_scan", "ios": "https://dc.lft.to/lastmile_qr_scan"}, "fusion_lon": 0.0}, {"lat": 38.885107, "is_disabled": 0, "type": "electric_scooter", "lon": -77.0209905, "bike_id": "d52e17a90f21032f9fa3e9359be40055", "fusion_lat": 0.0, "name": "d52e17a90f21032f9fa3e9359be40055", "is_reserved": 0, "rental_uris": {"android": "https://dc.lft.to/lastmile_qr_scan", "ios": "https://dc.lft.to/lastmile_qr_scan"}, "fusion_lon": 0.0}, {"lat": 38.898108666666666, "is_disabled": 0, "type": "electric_scooter", "lon": -77.0331385, "bike_id": "9d8f9253b9359a6bea6fdba1223120fe", "fusion_lat": 0.0, "name": "9d8f9253b9359a6bea6fdba1223120fe", "is_reserved": 0, "rental_uris": {"android": "https://dc.lft.to/lastmile_qr_scan", "ios": "https://dc.lft.to/lastmile_qr_scan"}, "fusion_lon": 0.0}, {"lat": 38.89280983333333, "is_disabled": 0, "type": "electric_scooter", "lon": -77.03176083333334, "bike_id": "5fbbbe8681e32a385173b6afe94683b5", "fusion_lat": 0.0, "name": "5fbbbe8681e32a385173b6afe94683b5", "is_reserved": 0, "rental_uris": {"android": "https://dc.lft.to/lastmile_qr_scan", "ios": "https://dc.lft.to/lastmile_qr_scan"}, "fusion_lon": 0.0}, {"lat": 38.899534333333335, "is_disabled": 0, "type": "electric_scooter", "lon": -77.05195883333333, "bike_id": "925edf2ecfffb5f0d1584a8de9692ad5", "fusion_lat": 0.0, "name": "925edf2ecfffb5f0d1584a8de9692ad5", "is_reserved": 0, "rental_uris": {"android": "https://dc.lft.to/lastmile_qr_scan", "ios": "https://dc.lft.to/lastmile_qr_scan"}, "fusion_lon": 0.0}, {"lat": 38.90973566666667, "is_disabled": 0, "type": "electric_scooter", "lon": -77.02383216666666, "bike_id": "f02e2bebcb681f932142d9a2f19c727e", "fusion_lat": 0.0, "name": "f02e2bebcb681f932142d9a2f19c727e", "is_reserved": 0, "rental_uris": {"android": "https://dc.lft.to/lastmile_qr_scan", "ios": "https://dc.lft.to/lastmile_qr_scan"}, "fusion_lon": 0.0}, {"lat": 38.8022895, "is_disabled": 0, "type": "electric_bike", "lon": -77.07918033333333, "bike_id": "809d8d21973d9a8fb2452412e4211b4b", "fusion_lat": 0.0, "name": "809d8d21973d9a8fb2452412e4211b4b", "is_reserved": 0, "rental_uris": {"android": "https://dc.lft.to/lastmile_qr_scan", "ios": "https://dc.lft.to/lastmile_qr_scan"}, "fusion_lon": 0.0}, {"lat": 38.85792516666667, "is_disabled": 0, "type": "electric_bike", "lon": -76.98743483333334, "bike_id": "20e11f4039fa09ef81b13fe60c1e35ee", "fusion_lat": 0.0, "name": "20e11f4039fa09ef81b13fe60c1e35ee", "is_reserved": 0, "rental_uris": {"android": "https://dc.lft.to/lastmile_qr_scan", "ios": "https://dc.lft.to/lastmile_qr_scan"}, "fusion_lon": 0.0}, {"lat": 38.91755833333333, "is_disabled": 0, "type": "electric_scooter", "lon": -77.04001033333333, "bike_id": "7224de4538505fb9c5e85a52d7ce3d46", "fusion_lat": 0.0, "name": "7224de4538505fb9c5e85a52d7ce3d46", "is_reserved": 0, "rental_uris": {"android": "https://dc.lft.to/lastmile_qr_scan", "ios": "https://dc.lft.to/lastmile_qr_scan"}, "fusion_lon": 0.0}, {"lat": 38.892945166666664, "is_disabled": 0, "type": "electric_scooter", "lon": -77.00206633333333, "bike_id": "be3f8d9a7d64e604840219272ffe352b", "fusion_lat": 0.0, "name": "be3f8d9a7d64e604840219272ffe352b", "is_reserved": 0, "rental_uris": {"android": "https://dc.lft.to/lastmile_qr_scan", "ios": "https://dc.lft.to/lastmile_qr_scan"}, "fusion_lon": 0.0}, {"lat": 38.908650333333334, "is_disabled": 0, "type": "electric_bike", "lon": -76.9400925, "bike_id": "505589e63ec49e330e35a27335a059ab", "fusion_lat": 0.0, "name": "505589e63ec49e330e35a27335a059ab", "is_reserved": 0, "rental_uris": {"android": "https://dc.lft.to/lastmile_qr_scan", "ios": "https://dc.lft.to/lastmile_qr_scan"}, "fusion_lon": 0.0}, {"lat": 38.902484666666666, "is_disabled": 0, "type": "electric_scooter", "lon": -77.03961833333334, "bike_id": "6389374cfb25e9ec0c990529224db758", "fusion_lat": 0.0, "name": "6389374cfb25e9ec0c990529224db758", "is_reserved": 0, "rental_uris": {"android": "https://dc.lft.to/lastmile_qr_scan", "ios": "https://dc.lft.to/lastmile_qr_scan"}, "fusion_lon": 0.0}, {"lat": 38.922055666666665, "is_disabled": 0, "type": "electric_scooter", "lon": -77.0401835, "bike_id": "b9326e4225d8b2cbb39772a69debbfbe", "fusion_lat": 0.0, "name": "b9326e4225d8b2cbb39772a69debbfbe", "is_reserved": 0, "rental_uris": {"android": "https://dc.lft.to/lastmile_qr_scan", "ios": "https://dc.lft.to/lastmile_qr_scan"}, "fusion_lon": 0.0}, {"lat": 38.9151325, "is_disabled": 0, "type": "electric_scooter", "lon": -77.038333, "bike_id": "9ed2f42512f93c20b41a7253adfedbf0", "fusion_lat": 0.0, "name": "9ed2f42512f93c20b41a7253adfedbf0", "is_reserved": 0, "rental_uris": {"android": "https://dc.lft.to/lastmile_qr_scan", "ios": "https://dc.lft.to/lastmile_qr_scan"}, "fusion_lon": 0.0}, {"lat": 38.8768995, "is_disabled": 0, "type": "electric_bike", "lon": -77.01199166666666, "bike_id": "68a675ccbe5753ee634922363a61727d", "fusion_lat": 0.0, "name": "68a675ccbe5753ee634922363a61727d", "is_reserved": 0, "rental_uris": {"android": "https://dc.lft.to/lastmile_qr_scan", "ios": "https://dc.lft.to/lastmile_qr_scan"}, "fusion_lon": 0.0}, {"lat": 38.90036816666667, "is_disabled": 0, "type": "electric_scooter", "lon": -76.996707, "bike_id": "79468bc8a326f8496bb8e8dae319ed75", "fusion_lat": 0.0, "name": "79468bc8a326f8496bb8e8dae319ed75", "is_reserved": 0, "rental_uris": {"android": "https://dc.lft.to/lastmile_qr_scan", "ios": "https://dc.lft.to/lastmile_qr_scan"}, "fusion_lon": 0.0}, {"lat": 38.9042625, "is_disabled": 0, "type": "electric_scooter", "lon": -77.05315733333333, "bike_id": "fd00698bbe3c3171d1cddd0463e3e756", "fusion_lat": 0.0, "name": "fd00698bbe3c3171d1cddd0463e3e756", "is_reserved": 0, "rental_uris": {"android": "https://dc.lft.to/lastmile_qr_scan", "ios": "https://dc.lft.to/lastmile_qr_scan"}, "fusion_lon": 0.0}, {"lat": 38.9391265, "is_disabled": 0, "type": "electric_scooter", "lon": -77.066746, "bike_id": "59fb4772bee4c05354bf70a524b8abbd", "fusion_lat": 0.0, "name": "59fb4772bee4c05354bf70a524b8abbd", "is_reserved": 0, "rental_uris": {"android": "https://dc.lft.to/lastmile_qr_scan", "ios": "https://dc.lft.to/lastmile_qr_scan"}, "fusion_lon": 0.0}, {"lat": 38.89274533333333, "is_disabled": 0, "type": "electric_scooter", "lon": -77.03172383333333, "bike_id": "4abb6c690759f12cc240861f3e95e524", "fusion_lat": 0.0, "name": "4abb6c690759f12cc240861f3e95e524", "is_reserved": 0, "rental_uris": {"android": "https://dc.lft.to/lastmile_qr_scan", "ios": "https://dc.lft.to/lastmile_qr_scan"}, "fusion_lon": 0.0}, {"lat": 38.921299833333336, "is_disabled": 0, "type": "electric_scooter", "lon": -77.045703, "bike_id": "d656fddb8d99686e7b5093afdb9a9b7f", "fusion_lat": 0.0, "name": "d656fddb8d99686e7b5093afdb9a9b7f", "is_reserved": 0, "rental_uris": {"android": "https://dc.lft.to/lastmile_qr_scan", "ios": "https://dc.lft.to/lastmile_qr_scan"}, "fusion_lon": 0.0}, {"lat": 38.921590333333334, "is_disabled": 0, "type": "electric_scooter", "lon": -77.0335605, "bike_id": "5e864a04d282a1696fcbc4f09827dc16", "fusion_lat": 0.0, "name": "5e864a04d282a1696fcbc4f09827dc16", "is_reserved": 0, "rental_uris": {"android": "https://dc.lft.to/lastmile_qr_scan", "ios": "https://dc.lft.to/lastmile_qr_scan"}, "fusion_lon": 0.0}, {"lat": 38.86710516666667, "is_disabled": 0, "type": "electric_scooter", "lon": -76.98726883333333, "bike_id": "01aed57b216ea89374016f13cb53b8c7", "fusion_lat": 0.0, "name": "01aed57b216ea89374016f13cb53b8c7", "is_reserved": 0, "rental_uris": {"android": "https://dc.lft.to/lastmile_qr_scan", "ios": "https://dc.lft.to/lastmile_qr_scan"}, "fusion_lon": 0.0}, {"lat": 38.895990833333336, "is_disabled": 0, "type": "electric_scooter", "lon": -77.01223433333334, "bike_id": "c575f64874c8385347ecf61011f492e8", "fusion_lat": 0.0, "name": "c575f64874c8385347ecf61011f492e8", "is_reserved": 0, "rental_uris": {"android": "https://dc.lft.to/lastmile_qr_scan", "ios": "https://dc.lft.to/lastmile_qr_scan"}, "fusion_lon": 0.0}, {"lat": 38.89755916666667, "is_disabled": 0, "type": "electric_scooter", "lon": -76.94183683333333, "bike_id": "1e06ff6e322b7fe2ef82a837ed2f80f2", "fusion_lat": 0.0, "name": "1e06ff6e322b7fe2ef82a837ed2f80f2", "is_reserved": 0, "rental_uris": {"android": "https://dc.lft.to/lastmile_qr_scan", "ios": "https://dc.lft.to/lastmile_qr_scan"}, "fusion_lon": 0.0}, {"lat": 38.9036975, "is_disabled": 0, "type": "electric_scooter", "lon": -77.03846783333333, "bike_id": "c61cc2e90f7991bed0e40a979c0abae4", "fusion_lat": 0.0, "name": "c61cc2e90f7991bed0e40a979c0abae4", "is_reserved": 0, "rental_uris": {"android": "https://dc.lft.to/lastmile_qr_scan", "ios": "https://dc.lft.to/lastmile_qr_scan"}, "fusion_lon": 0.0}, {"lat": 38.914141, "is_disabled": 0, "type": "electric_scooter", "lon": -77.03994666666667, "bike_id": "01b4a19b66500d5dfc447a2da6d7cbe7", "fusion_lat": 0.0, "name": "01b4a19b66500d5dfc447a2da6d7cbe7", "is_reserved": 0, "rental_uris": {"android": "https://dc.lft.to/lastmile_qr_scan", "ios": "https://dc.lft.to/lastmile_qr_scan"}, "fusion_lon": 0.0}, {"lat": 38.924108, "is_disabled": 0, "type": "electric_scooter", "lon": -77.03899133333333, "bike_id": "05e214c436d7af31c6b888bda5240972", "fusion_lat": 0.0, "name": "05e214c436d7af31c6b888bda5240972", "is_reserved": 0, "rental_uris": {"android": "https://dc.lft.to/lastmile_qr_scan", "ios": "https://dc.lft.to/lastmile_qr_scan"}, "fusion_lon": 0.0}, {"lat": 38.896304666666666, "is_disabled": 0, "type": "electric_scooter", "lon": -77.0321735, "bike_id": "d99214da19e89dcf9afc38a716d60e99", "fusion_lat": 0.0, "name": "d99214da19e89dcf9afc38a716d60e99", "is_reserved": 0, "rental_uris": {"android": "https://dc.lft.to/lastmile_qr_scan", "ios": "https://dc.lft.to/lastmile_qr_scan"}, "fusion_lon": 0.0}, {"lat": 38.91114316666667, "is_disabled": 0, "type": "electric_scooter", "lon": -77.0450015, "bike_id": "74790c07a921a950c75331ebeb876838", "fusion_lat": 0.0, "name": "74790c07a921a950c75331ebeb876838", "is_reserved": 0, "rental_uris": {"android": "https://dc.lft.to/lastmile_qr_scan", "ios": "https://dc.lft.to/lastmile_qr_scan"}, "fusion_lon": 0.0}, {"lat": 38.8481335, "is_disabled": 0, "type": "electric_bike", "lon": -77.07899416666666, "bike_id": "b44162259bed86a2a370490619ce6456", "fusion_lat": 0.0, "name": "b44162259bed86a2a370490619ce6456", "is_reserved": 0, "rental_uris": {"android": "https://dc.lft.to/lastmile_qr_scan", "ios": "https://dc.lft.to/lastmile_qr_scan"}, "fusion_lon": 0.0}, {"lat": 38.855125666666666, "is_disabled": 0, "type": "electric_bike", "lon": -76.9841545, "bike_id": "e036692b801337f62ee47511092e34a4", "fusion_lat": 0.0, "name": "e036692b801337f62ee47511092e34a4", "is_reserved": 0, "rental_uris": {"android": "https://dc.lft.to/lastmile_qr_scan", "ios": "https://dc.lft.to/lastmile_qr_scan"}, "fusion_lon": 0.0}, {"lat": 38.903733, "is_disabled": 0, "type": "electric_scooter", "lon": -77.019171, "bike_id": "66630b8eca4a9931c98ba57a63828652", "fusion_lat": 0.0, "name": "66630b8eca4a9931c98ba57a63828652", "is_reserved": 0, "rental_uris": {"android": "https://dc.lft.to/lastmile_qr_scan", "ios": "https://dc.lft.to/lastmile_qr_scan"}, "fusion_lon": 0.0}, {"lat": 38.88434933333333, "is_disabled": 0, "type": "electric_scooter", "lon": -76.95757166666667, "bike_id": "b0219fd28d708edfd52b6a59cb026ddc", "fusion_lat": 0.0, "name": "b0219fd28d708edfd52b6a59cb026ddc", "is_reserved": 0, "rental_uris": {"android": "https://dc.lft.to/lastmile_qr_scan", "ios": "https://dc.lft.to/lastmile_qr_scan"}, "fusion_lon": 0.0}, {"lat": 38.88512633333333, "is_disabled": 0, "type": "electric_scooter", "lon": -77.005729, "bike_id": "de7fc6ad10de7a60c4191bc16ada29a9", "fusion_lat": 0.0, "name": "de7fc6ad10de7a60c4191bc16ada29a9", "is_reserved": 0, "rental_uris": {"android": "https://dc.lft.to/lastmile_qr_scan", "ios": "https://dc.lft.to/lastmile_qr_scan"}, "fusion_lon": 0.0}, {"lat": 38.898381, "is_disabled": 0, "type": "electric_scooter", "lon": -77.02507433333334, "bike_id": "ad5a00cf0254da6cd687b2d62fc7974e", "fusion_lat": 0.0, "name": "ad5a00cf0254da6cd687b2d62fc7974e", "is_reserved": 0, "rental_uris": {"android": "https://dc.lft.to/lastmile_qr_scan", "ios": "https://dc.lft.to/lastmile_qr_scan"}, "fusion_lon": 0.0}, {"lat": 38.89770516666667, "is_disabled": 0, "type": "electric_scooter", "lon": -77.03201016666667, "bike_id": "f2826a63d9ad845f03d6fae9959a24d8", "fusion_lat": 0.0, "name": "f2826a63d9ad845f03d6fae9959a24d8", "is_reserved": 0, "rental_uris": {"android": "https://dc.lft.to/lastmile_qr_scan", "ios": "https://dc.lft.to/lastmile_qr_scan"}, "fusion_lon": 0.0}, {"lat": 38.899139166666664, "is_disabled": 0, "type": "electric_scooter", "lon": -76.93349366666666, "bike_id": "be90a06539409febde726aa2af79d6b1", "fusion_lat": 0.0, "name": "be90a06539409febde726aa2af79d6b1", "is_reserved": 0, "rental_uris": {"android": "https://dc.lft.to/lastmile_qr_scan", "ios": "https://dc.lft.to/lastmile_qr_scan"}, "fusion_lon": 0.0}, {"lat": 38.89605666666667, "is_disabled": 0, "type": "electric_bike", "lon": -77.02216066666666, "bike_id": "81ad317dd1f6acbcbff23f0b78222bc1", "fusion_lat": 0.0, "name": "81ad317dd1f6acbcbff23f0b78222bc1", "is_reserved": 0, "rental_uris": {"android": "https://dc.lft.to/lastmile_qr_scan", "ios": "https://dc.lft.to/lastmile_qr_scan"}, "fusion_lon": 0.0}, {"lat": 38.89108683333333, "is_disabled": 0, "type": "electric_scooter", "lon": -76.94385883333334, "bike_id": "01c017dcf505ca20cba074f3061f392a", "fusion_lat": 0.0, "name": "01c017dcf505ca20cba074f3061f392a", "is_reserved": 0, "rental_uris": {"android": "https://dc.lft.to/lastmile_qr_scan", "ios": "https://dc.lft.to/lastmile_qr_scan"}, "fusion_lon": 0.0}, {"lat": 38.930617166666664, "is_disabled": 0, "type": "electric_scooter", "lon": -77.04180933333333, "bike_id": "5d481b3110cc4b14b354f5b19eafc1ea", "fusion_lat": 0.0, "name": "5d481b3110cc4b14b354f5b19eafc1ea", "is_reserved": 0, "rental_uris": {"android": "https://dc.lft.to/lastmile_qr_scan", "ios": "https://dc.lft.to/lastmile_qr_scan"}, "fusion_lon": 0.0}, {"lat": 38.9151635, "is_disabled": 0, "type": "electric_scooter", "lon": -77.0383345, "bike_id": "56c2a419029d7990b96f3cdf868da3bd", "fusion_lat": 0.0, "name": "56c2a419029d7990b96f3cdf868da3bd", "is_reserved": 0, "rental_uris": {"android": "https://dc.lft.to/lastmile_qr_scan", "ios": "https://dc.lft.to/lastmile_qr_scan"}, "fusion_lon": 0.0}, {"lat": 38.90868533333333, "is_disabled": 0, "type": "electric_scooter", "lon": -77.08597066666667, "bike_id": "f3f18d8b6d8cee85e252b6e8c812b436", "fusion_lat": 0.0, "name": "f3f18d8b6d8cee85e252b6e8c812b436", "is_reserved": 0, "rental_uris": {"android": "https://dc.lft.to/lastmile_qr_scan", "ios": "https://dc.lft.to/lastmile_qr_scan"}, "fusion_lon": 0.0}, {"lat": 38.914043, "is_disabled": 0, "type": "electric_bike", "lon": -77.04846533333334, "bike_id": "e69420e5d0649e6a67073567c6dc5fe0", "fusion_lat": 0.0, "name": "e69420e5d0649e6a67073567c6dc5fe0", "is_reserved": 0, "rental_uris": {"android": "https://dc.lft.to/lastmile_qr_scan", "ios": "https://dc.lft.to/lastmile_qr_scan"}, "fusion_lon": 0.0}, {"lat": 38.85909233333334, "is_disabled": 0, "type": "electric_scooter", "lon": -76.99147366666666, "bike_id": "9cb66826343972772885c732ed015b9f", "fusion_lat": 0.0, "name": "9cb66826343972772885c732ed015b9f", "is_reserved": 0, "rental_uris": {"android": "https://dc.lft.to/lastmile_qr_scan", "ios": "https://dc.lft.to/lastmile_qr_scan"}, "fusion_lon": 0.0}, {"lat": 38.93481533333333, "is_disabled": 0, "type": "electric_scooter", "lon": -77.07270833333334, "bike_id": "770b2c2e49599cdc9fe56b547256fb7d", "fusion_lat": 0.0, "name": "770b2c2e49599cdc9fe56b547256fb7d", "is_reserved": 0, "rental_uris": {"android": "https://dc.lft.to/lastmile_qr_scan", "ios": "https://dc.lft.to/lastmile_qr_scan"}, "fusion_lon": 0.0}, {"lat": 38.9097635, "is_disabled": 0, "type": "electric_scooter", "lon": -77.032164, "bike_id": "64d714b319c44b26421c5d9197e8d823", "fusion_lat": 0.0, "name": "64d714b319c44b26421c5d9197e8d823", "is_reserved": 0, "rental_uris": {"android": "https://dc.lft.to/lastmile_qr_scan", "ios": "https://dc.lft.to/lastmile_qr_scan"}, "fusion_lon": 0.0}, {"lat": 38.907726833333335, "is_disabled": 0, "type": "electric_scooter", "lon": -77.04343716666666, "bike_id": "4e9fc850f093558fcabb72f204367012", "fusion_lat": 0.0, "name": "4e9fc850f093558fcabb72f204367012", "is_reserved": 0, "rental_uris": {"android": "https://dc.lft.to/lastmile_qr_scan", "ios": "https://dc.lft.to/lastmile_qr_scan"}, "fusion_lon": 0.0}, {"lat": 38.90562383333334, "is_disabled": 0, "type": "electric_scooter", "lon": -77.065181, "bike_id": "600e79c1b1d84a4bec20bf799bbf0457", "fusion_lat": 0.0, "name": "600e79c1b1d84a4bec20bf799bbf0457", "is_reserved": 0, "rental_uris": {"android": "https://dc.lft.to/lastmile_qr_scan", "ios": "https://dc.lft.to/lastmile_qr_scan"}, "fusion_lon": 0.0}, {"lat": 38.904591833333335, "is_disabled": 0, "type": "electric_scooter", "lon": -77.0294975, "bike_id": "da9a87077a0c54d4085ff1609bc6601c", "fusion_lat": 0.0, "name": "da9a87077a0c54d4085ff1609bc6601c", "is_reserved": 0, "rental_uris": {"android": "https://dc.lft.to/lastmile_qr_scan", "ios": "https://dc.lft.to/lastmile_qr_scan"}, "fusion_lon": 0.0}, {"lat": 38.913524, "is_disabled": 0, "type": "electric_scooter", "lon": -77.03180733333333, "bike_id": "838d3ecbb5bd3d9754bd2caa26a51f2f", "fusion_lat": 0.0, "name": "838d3ecbb5bd3d9754bd2caa26a51f2f", "is_reserved": 0, "rental_uris": {"android": "https://dc.lft.to/lastmile_qr_scan", "ios": "https://dc.lft.to/lastmile_qr_scan"}, "fusion_lon": 0.0}, {"lat": 38.93063383333333, "is_disabled": 0, "type": "electric_scooter", "lon": -77.03154283333333, "bike_id": "bd9a59371d66a7c237efa183380a96e9", "fusion_lat": 0.0, "name": "bd9a59371d66a7c237efa183380a96e9", "is_reserved": 0, "rental_uris": {"android": "https://dc.lft.to/lastmile_qr_scan", "ios": "https://dc.lft.to/lastmile_qr_scan"}, "fusion_lon": 0.0}, {"lat": 38.916972, "is_disabled": 0, "type": "electric_scooter", "lon": -77.00811033333333, "bike_id": "1ccff9b57f9fa54808d231d6b3178107", "fusion_lat": 0.0, "name": "1ccff9b57f9fa54808d231d6b3178107", "is_reserved": 0, "rental_uris": {"android": "https://dc.lft.to/lastmile_qr_scan", "ios": "https://dc.lft.to/lastmile_qr_scan"}, "fusion_lon": 0.0}, {"lat": 38.93217533333333, "is_disabled": 0, "type": "electric_scooter", "lon": -77.0364905, "bike_id": "b3cc7ffaea462609e2aeb61c7d9353a6", "fusion_lat": 0.0, "name": "b3cc7ffaea462609e2aeb61c7d9353a6", "is_reserved": 0, "rental_uris": {"android": "https://dc.lft.to/lastmile_qr_scan", "ios": "https://dc.lft.to/lastmile_qr_scan"}, "fusion_lon": 0.0}, {"lat": 38.93635716666667, "is_disabled": 0, "type": "electric_scooter", "lon": -77.05879666666667, "bike_id": "107eee44812f2e48f864909f784eb086", "fusion_lat": 0.0, "name": "107eee44812f2e48f864909f784eb086", "is_reserved": 0, "rental_uris": {"android": "https://dc.lft.to/lastmile_qr_scan", "ios": "https://dc.lft.to/lastmile_qr_scan"}, "fusion_lon": 0.0}, {"lat": 38.90618683333334, "is_disabled": 0, "type": "electric_scooter", "lon": -76.98984316666667, "bike_id": "38f23c2ecd3064be6dcc4cc66bb89f0a", "fusion_lat": 0.0, "name": "38f23c2ecd3064be6dcc4cc66bb89f0a", "is_reserved": 0, "rental_uris": {"android": "https://dc.lft.to/lastmile_qr_scan", "ios": "https://dc.lft.to/lastmile_qr_scan"}, "fusion_lon": 0.0},