{"data": {"bikes": [{"bike_id": "e81c20405a91d711b37d1c077d43a9c5", "fusion_lon": 0.0, "lon": -77.02182366666666, "name": "e81c20405a91d711b37d1c077d43a9c5", "is_disabled": 0, "rental_uris": {"android": "https://dc.lft.to/lastmile_qr_scan", "ios": "https://dc.lft.to/lastmile_qr_scan"}, "type": "electric_scooter", "lat": 38.915076166666665, "is_reserved": 0, "fusion_lat": 0.0}, {"bike_id": "3f1e04f5de4df6ab50fb0a081bdfa1b4", "fusion_lon": 0.0, "lon": -76.99779433333333, "name": "3f1e04f5de4df6ab50fb0a081bdfa1b4", "is_disabled": 0, "rental_uris": {"android": "https://dc.lft.to/lastmile_qr_scan", "ios": "https://dc.lft.to/lastmile_qr_scan"}, "type": "electric_bike", "lat": 38.86209566666667, "is_reserved": 0, "fusion_lat": 0.0}, {"bike_id": "a31f860d34439f1c833c62f0dfc77b40", "fusion_lon": 0.0, "lon": -77.05006333333333, "name": "a31f860d34439f1c833c62f0dfc77b40", "is_disabled": 0, "rental_uris": {"android": "https://dc.lft.to/lastmile_qr_scan", "ios": "https://dc.lft.to/lastmile_qr_scan"}, "type": "electric_scooter", "lat": 38.892299, "is_reserved": 0, "fusion_lat": 0.0}, {"bike_id": "50c482bb4c559430b5e94cb12852c7a3", "fusion_lon": 0.0, "lon": -77.02384633333334, "name": "50c482bb4c559430b5e94cb12852c7a3", "is_disabled": 0, "rental_uris": {"android": "https://dc.lft.to/lastmile_qr_scan", "ios": "https://dc.lft.to/lastmile_qr_scan"}, "type": "electric_scooter", "lat": 38.901935333333334, "is_reserved": 0, "fusion_lat": 0.0}, {"bike_id": "090b4df79a6bd85ec1c368cf6f80bea9", "fusion_lon": 0.0, "lon": -76.985225, "name": "090b4df79a6bd85ec1c368cf6f80bea9", "is_disabled": 0, "rental_uris": {"android": "https://dc.lft.to/lastmile_qr_scan", "ios": "https://dc.lft.to/lastmile_qr_scan"}, "type": "electric_scooter", "lat": 38.86651783333333, "is_reserved": 0, "fusion_lat": 0.0}, {"bike_id": "50eb8df6da2d7fe85b5b785f1673f3cb", "fusion_lon": 0.0, "lon": -77.03447366666667, "name": "50eb8df6da2d7fe85b5b785f1673f3cb", "is_disabled": 0, "rental_uris": {"android": "https://dc.lft.to/lastmile_qr_scan", "ios": "https://dc.lft.to/lastmile_qr_scan"}, "type": "electric_scooter", "lat": 38.907303666666664, "is_reserved": 0, "fusion_lat": 0.0}, {"bike_id": "89545991c1e3188693da4248951935e6", "fusion_lon": 0.0, "lon": -77.0369265, "name": "89545991c1e3188693da4248951935e6", "is_disabled": 0, "rental_uris": {"android": "https://dc.lft.to/lastmile_qr_scan", "ios": "https://dc.lft.to/lastmile_qr_scan"}, "type": "electric_scooter", "lat": 38.91649483333333, "is_reserved": 0, "fusion_lat": 0.0}, {"bike_id": "29e59c291b697c2a06aaffeba0478e81", "fusion_lon": 0.0, "lon": -77.02950666666666, "name": "29e59c291b697c2a06aaffeba0478e81", "is_disabled": 0, "rental_uris": {"android": "https://dc.lft.to/lastmile_qr_scan", "ios": "https://dc.lft.to/lastmile_qr_scan"}, "type": "electric_scooter", "lat": 38.905021, "is_reserved": 0, "fusion_lat": 0.0}, {"bike_id": "c4186633d843774ca016163cda4ae957", "fusion_lon": 0.0, "lon": -77.03024933333333, "name": "c4186633d843774ca016163cda4ae957", "is_disabled": 0, "rental_uris": {"android": "https://dc.lft.to/lastmile_qr_scan", "ios": "https://dc.lft.to/lastmile_qr_scan"}, "type": "electric_scooter", "lat": 38.896289333333335, "is_reserved": 0, "fusion_lat": 0.0}, {"bike_id": "0a99c4982560c2ade71e96b3693c3e4c", "fusion_lon": 0.0, "lon": -77.0186595, "name": "0a99c4982560c2ade71e96b3693c3e4c", "is_disabled": 0, "rental_uris": {"android": "https://dc.lft.to/lastmile_qr_scan", "ios": "https://dc.lft.to/lastmile_qr_scan"}, "type": "electric_scooter", "lat": 38.900383833333336, "is_reserved": 0, "fusion_lat": 0.0}, {"bike_id": "1f940467ca8d46fa5f1b086f08f8a471", "fusion_lon": 0.0, "lon": -77.05320233333333, "name": "1f940467ca8d46fa5f1b086f08f8a471", "is_disabled": 0, "rental_uris": {"android": "https://dc.lft.to/lastmile_qr_scan", "ios": "https://dc.lft.to/lastmile_qr_scan"}, "type": "electric_scooter", "lat": 38.927979, "is_reserved": 0, "fusion_lat": 0.0}, {"bike_id": "96ea1c75f5a055aaecf3a6f9de214b29", "fusion_lon": 0.0, "lon": -77.0276535, "name": "96ea1c75f5a055aaecf3a6f9de214b29", "is_disabled": 0, "rental_uris": {"android": "https://dc.lft.to/lastmile_qr_scan", "ios": "https://dc.lft.to/lastmile_qr_scan"}, "type": "electric_scooter", "lat": 38.954227833333334, "is_reserved": 0, "fusion_lat": 0.0}, {"bike_id": "6dae1efb89b817426def1ed360db39b4", "fusion_lon": 0.0, "lon": -77.02174916666667, "name": "6dae1efb89b817426def1ed360db39b4", "is_disabled": 0, "rental_uris": {"android": "https://dc.lft.to/lastmile_qr_scan", "ios": "https://dc.lft.to/lastmile_qr_scan"}, "type": "electric_scooter", "lat": 38.942901, "is_reserved": 0, "fusion_lat": 0.0}, {"bike_id": "57348766599f358115f66b42d8323219", "fusion_lon": 0.0, "lon": -76.980966, "name": "57348766599f358115f66b42d8323219", "is_disabled": 0, "rental_uris": {"android": "https://dc.lft.to/lastmile_qr_scan", "ios": "https://dc.lft.to/lastmile_qr_scan"}, "type": "electric_bike", "lat": 38.9535585, "is_reserved": 0, "fusion_lat": 0.0}, {"bike_id": "6bcb949dbb7fa7c6337f62b4816deea6", "fusion_lon": 0.0, "lon": -77.0287815, "name": "6bcb949dbb7fa7c6337f62b4816deea6", "is_disabled": 0, "rental_uris": {"android": "https://dc.lft.to/lastmile_qr_scan", "ios": "https://dc.lft.to/lastmile_qr_scan"}, "type": "electric_bike", "lat": 38.99410816666666, "is_reserved": 0, "fusion_lat": 0.0}, {"bike_id": "4b5d52d5c246585a689e5a160df2ee90", "fusion_lon": 0.0, "lon": -77.02629366666666, "name": "4b5d52d5c246585a689e5a160df2ee90", "is_disabled": 0, "rental_uris": {"android": "https://dc.lft.to/lastmile_qr_scan", "ios": "https://dc.lft.to/lastmile_qr_scan"}, "type": "electric_bike", "lat": 38.9621975, "is_reserved": 0, "fusion_lat": 0.0}, {"bike_id": "2001150f779215665b1b89922e04bae0", "fusion_lon": 0.0, "lon": -77.043216, "name": "2001150f779215665b1b89922e04bae0", "is_disabled": 0, "rental_uris": {"android": "https://dc.lft.to/lastmile_qr_scan", "ios": "https://dc.lft.to/lastmile_qr_scan"}, "type": "electric_scooter", "lat": 38.923098333333336, "is_reserved": 0, "fusion_lat": 0.0}, {"bike_id": "f5c1f8b45ea1720e85fc58cfae87d773", "fusion_lon": 0.0, "lon": -76.96529633333333, "name": "f5c1f8b45ea1720e85fc58cfae87d773", "is_disabled": 0, "rental_uris": {"android": "https://dc.lft.to/lastmile_qr_scan", "ios": "https://dc.lft.to/lastmile_qr_scan"}, "type": "electric_scooter", "lat": 38.876271, "is_reserved": 0, "fusion_lat": 0.0}, {"bike_id": "cbb8358faeb307b5c4c6fd8555c7e806", "fusion_lon": 0.0, "lon": -77.01538166666667, "name": "cbb8358faeb307b5c4c6fd8555c7e806", "is_disabled": 0, "rental_uris": {"android": "https://dc.lft.to/lastmile_qr_scan", "ios": "https://dc.lft.to/lastmile_qr_scan"}, "type": "electric_scooter", "lat": 38.88739066666667, "is_reserved": 0, "fusion_lat": 0.0}, {"bike_id": "5fd560c24603875360c8aec88f9f8244", "fusion_lon": 0.0, "lon": -77.02818133333334, "name": "5fd560c24603875360c8aec88f9f8244", "is_disabled": 0, "rental_uris": {"android": "https://dc.lft.to/lastmile_qr_scan", "ios": "https://dc.lft.to/lastmile_qr_scan"}, "type": "electric_scooter", "lat": 38.93171616666667, "is_reserved": 0, "fusion_lat": 0.0}, {"bike_id": "c8127b60cce96c576340cdc9a79252ab", "fusion_lon": 0.0, "lon": -77.0479315, "name": "c8127b60cce96c576340cdc9a79252ab", "is_disabled": 0, "rental_uris": {"android": "https://dc.lft.to/lastmile_qr_scan", "ios": "https://dc.lft.to/lastmile_qr_scan"}, "type": "electric_scooter", "lat": 38.89367166666667, "is_reserved": 0, "fusion_lat": 0.0}, {"bike_id": "b9efcdb612c05defd524461d7834cbd6", "fusion_lon": 0.0, "lon": -77.0200945, "name": "b9efcdb612c05defd524461d7834cbd6", "is_disabled": 0, "rental_uris": {"android": "https://dc.lft.to/lastmile_qr_scan", "ios": "https://dc.lft.to/lastmile_qr_scan"}, "type": "electric_scooter", "lat": 38.9242045, "is_reserved": 0, "fusion_lat": 0.0}, {"bike_id": "b7be1bd8118214ba918ce035495c15b1", "fusion_lon": 0.0, "lon": -76.9858445, "name": "b7be1bd8118214ba918ce035495c15b1", "is_disabled": 0, "rental_uris": {"android": "https://dc.lft.to/lastmile_qr_scan", "ios": "https://dc.lft.to/lastmile_qr_scan"}, "type": "electric_scooter", "lat": 38.854462833333336, "is_reserved": 0, "fusion_lat": 0.0}, {"bike_id": "436c17e9ee5d65dfbac12e2d6f5348ae", "fusion_lon": 0.0, "lon": -77.04392533333333, "name": "436c17e9ee5d65dfbac12e2d6f5348ae", "is_disabled": 0, "rental_uris": {"android": "https://dc.lft.to/lastmile_qr_scan", "ios": "https://dc.lft.to/lastmile_qr_scan"}, "type": "electric_scooter", "lat": 38.9140295, "is_reserved": 0, "fusion_lat": 0.0}, {"bike_id": "43b396a3f5ba2737fa496062dde074f4", "fusion_lon": 0.0, "lon": -76.93133216666666, "name": "43b396a3f5ba2737fa496062dde074f4", "is_disabled": 0, "rental_uris": {"android": "https://dc.lft.to/lastmile_qr_scan", "ios": "https://dc.lft.to/lastmile_qr_scan"}, "type": "electric_scooter", "lat": 38.893366, "is_reserved": 0, "fusion_lat": 0.0}, {"bike_id": "30f9c567c99a2f7870e37617f848c8e6", "fusion_lon": 0.0, "lon": -77.028104, "name": "30f9c567c99a2f7870e37617f848c8e6", "is_disabled": 0, "rental_uris": {"android": "https://dc.lft.to/lastmile_qr_scan", "ios": "https://dc.lft.to/lastmile_qr_scan"}, "type": "electric_scooter", "lat": 38.93085033333333, "is_reserved": 0, "fusion_lat": 0.0}, {"bike_id": "319f790837bbbecd2e03db78041f5c97", "fusion_lon": 0.0, "lon": -76.99875733333333, "name": "319f790837bbbecd2e03db78041f5c97", "is_disabled": 0, "rental_uris": {"android": "https://dc.lft.to/lastmile_qr_scan", "ios": "https://dc.lft.to/lastmile_qr_scan"}, "type": "electric_scooter", "lat": 38.90027666666667, "is_reserved": 0, "fusion_lat": 0.0}, {"bike_id": "6505035268c7f8b55c8741717a866268", "fusion_lon": 0.0, "lon": -77.052087, "name": "6505035268c7f8b55c8741717a866268", "is_disabled": 0, "rental_uris": {"android": "https://dc.lft.to/lastmile_qr_scan", "ios": "https://dc.lft.to/lastmile_qr_scan"}, "type": "electric_scooter", "lat": 38.924340666666666, "is_reserved": 0, "fusion_lat": 0.0}, {"bike_id": "c10605504d43fa24a531c7f88f0a3675", "fusion_lon": 0.0, "lon": -77.0461905, "name": "c10605504d43fa24a531c7f88f0a3675", "is_disabled": 0, "rental_uris": {"android": "https://dc.lft.to/lastmile_qr_scan", "ios": "https://dc.lft.to/lastmile_qr_scan"}, "type": "electric_scooter", "lat": 38.90958583333333, "is_reserved": 0, "fusion_lat": 0.0}, {"bike_id": "58747a4cba7b6a293b38cf9e9a80f5a9", "fusion_lon": 0.0, "lon": -77.00370416666667, "name": "58747a4cba7b6a293b38cf9e9a80f5a9", "is_disabled": 0, "rental_uris": {"android": "https://dc.lft.to/lastmile_qr_scan", "ios": "https://dc.lft.to/lastmile_qr_scan"}, "type": "electric_scooter", "lat": 38.87565, "is_reserved": 0, "fusion_lat": 0.0}, {"bike_id": "e2ed46031b9cdff68be26b34d59022ae", "fusion_lon": 0.0, "lon": -77.028272, "name": "e2ed46031b9cdff68be26b34d59022ae", "is_disabled": 0, "rental_uris": {"android": "https://dc.lft.to/lastmile_qr_scan", "ios": "https://dc.lft.to/lastmile_qr_scan"}, "type": "electric_scooter", "lat": 38.93230333333333, "is_reserved": 0, "fusion_lat": 0.0}, {"bike_id": "775f7bd04e4177214e5ca056b6d86a06", "fusion_lon": 0.0, "lon": -77.0511015, "name": "775f7bd04e4177214e5ca056b6d86a06", "is_disabled": 0, "rental_uris": {"android": "https://dc.lft.to/lastmile_qr_scan", "ios": "https://dc.lft.to/lastmile_qr_scan"}, "type": "electric_scooter", "lat": 38.905277166666664, "is_reserved": 0, "fusion_lat": 0.0}, {"bike_id": "848f81af6d2174e924ae4a1e136a2869", "fusion_lon": 0.0, "lon": -76.99091783333333, "name": "848f81af6d2174e924ae4a1e136a2869", "is_disabled": 0, "rental_uris": {"android": "https://dc.lft.to/lastmile_qr_scan", "ios": "https://dc.lft.to/lastmile_qr_scan"}, "type": "electric_scooter", "lat": 38.882292166666666, "is_reserved": 0, "fusion_lat": 0.0}, {"bike_id": "cdf0bb3b17531f6096bad476ccf6031f", "fusion_lon": 0.0, "lon": -77.05584116666667, "name": "cdf0bb3b17531f6096bad476ccf6031f", "is_disabled": 0, "rental_uris": {"android": "https://dc.lft.to/lastmile_qr_scan", "ios": "https://dc.lft.to/lastmile_qr_scan"}, "type": "electric_scooter", "lat": 38.89325783333334, "is_reserved": 0, "fusion_lat": 0.0}, {"bike_id": "71b94b20dfa1b48e4be9d30849bc919c", "fusion_lon": 0.0, "lon": -76.98023733333333, "name": "71b94b20dfa1b48e4be9d30849bc919c", "is_disabled": 0, "rental_uris": {"android": "https://dc.lft.to/lastmile_qr_scan", "ios": "https://dc.lft.to/lastmile_qr_scan"}, "type": "electric_scooter", "lat": 38.90379466666667, "is_reserved": 0, "fusion_lat": 0.0}, {"bike_id": "2524fc37ac4407e9a07176f842a6569b", "fusion_lon": 0.0, "lon": -77.0465905, "name": "2524fc37ac4407e9a07176f842a6569b", "is_disabled": 0, "rental_uris": {"android": "https://dc.lft.to/lastmile_qr_scan", "ios": "https://dc.lft.to/lastmile_qr_scan"}, "type": "electric_scooter", "lat": 38.905489833333334, "is_reserved": 0, "fusion_lat": 0.0}, {"bike_id": "1259257487f66cbafaf598e0a000d68d", "fusion_lon": 0.0, "lon": -77.02440533333333, "name": "1259257487f66cbafaf598e0a000d68d", "is_disabled": 0, "rental_uris": {"android": "https://dc.lft.to/lastmile_qr_scan", "ios": "https://dc.lft.to/lastmile_qr_scan"}, "type": "electric_scooter", "lat": 38.9188965, "is_reserved": 0, "fusion_lat": 0.0}, {"bike_id": "d5c5d2c93fe29212d58c3936196a66a2", "fusion_lon": 0.0, "lon": -77.04147966666666, "name": "d5c5d2c93fe29212d58c3936196a66a2", "is_disabled": 0, "rental_uris": {"android": "https://dc.lft.to/lastmile_qr_scan", "ios": "https://dc.lft.to/lastmile_qr_scan"}, "type": "electric_scooter", "lat": 38.915933833333334, "is_reserved": 0, "fusion_lat": 0.0}, {"bike_id": "c01f97bfcc00841f40e394d1c49832b2", "fusion_lon": 0.0, "lon": -76.996167, "name": "c01f97bfcc00841f40e394d1c49832b2", "is_disabled": 0, "rental_uris": {"android": "https://dc.lft.to/lastmile_qr_scan", "ios": "https://dc.lft.to/lastmile_qr_scan"}, "type": "electric_scooter", "lat": 38.90063166666667, "is_reserved": 0, "fusion_lat": 0.0}, {"bike_id": "4129703aa7727cc4b7bf2d180b87d26a", "fusion_lon": 0.0, "lon": -77.0509245, "name": "4129703aa7727cc4b7bf2d180b87d26a", "is_disabled": 0, "rental_uris": {"android": "https://dc.lft.to/lastmile_qr_scan", "ios": "https://dc.lft.to/lastmile_qr_scan"}, "type": "electric_bike", "lat": 38.813308, "is_reserved": 0, "fusion_lat": 0.0}, {"bike_id": "fb02e399bd56c89d3d40b5d935786e83", "fusion_lon": 0.0, "lon": -77.02343433333333, "name": "fb02e399bd56c89d3d40b5d935786e83", "is_disabled": 0, "rental_uris": {"android": "https://dc.lft.to/lastmile_qr_scan", "ios": "https://dc.lft.to/lastmile_qr_scan"}, "type": "electric_scooter", "lat": 38.90722366666667, "is_reserved": 0, "fusion_lat": 0.0}, {"bike_id": "ebc878a03a944625b28f43a5ece13367", "fusion_lon": 0.0, "lon": -77.11599333333334, "name": "ebc878a03a944625b28f43a5ece13367", "is_disabled": 0, "rental_uris": {"android": "https://dc.lft.to/lastmile_qr_scan", "ios": "https://dc.lft.to/lastmile_qr_scan"}, "type": "electric_bike", "lat": 39.074948, "is_reserved": 0, "fusion_lat": 0.0}, {"bike_id": "8388b01c3f9ec45811fb42d71bff990e", "fusion_lon": 0.0, "lon": -76.98633716666667, "name": "8388b01c3f9ec45811fb42d71bff990e", "is_disabled": 0, "rental_uris": {"android": "https://dc.lft.to/lastmile_qr_scan", "ios": "https://dc.lft.to/lastmile_qr_scan"}, "type": "electric_scooter", "lat": 38.88039666666667, "is_reserved": 0, "fusion_lat": 0.0}, {"bike_id": "7e1b162e64e17fa9fbede028886585c8", "fusion_lon": 0.0, "lon": -77.0217045, "name": "7e1b162e64e17fa9fbede028886585c8", "is_disabled": 0, "rental_uris": {"android": "https://dc.lft.to/lastmile_qr_scan", "ios": "https://dc.lft.to/lastmile_qr_scan"}, "type": "electric_scooter", "lat": 38.909592833333335, "is_reserved": 0, "fusion_lat": 0.0}, {"bike_id": "87ecd3d906c5c4570db3474d5f180be4", "fusion_lon": 0.0, "lon": -77.0366025, "name": "87ecd3d906c5c4570db3474d5f180be4", "is_disabled": 0, "rental_uris": {"android": "https://dc.lft.to/lastmile_qr_scan", "ios": "https://dc.lft.to/lastmile_qr_scan"}, "type": "electric_scooter", "lat": 38.9237945, "is_reserved": 0, "fusion_lat": 0.0}, {"bike_id": "8db319f8ddd084dbfa9643537016b6c2", "fusion_lon": 0.0, "lon": -76.997867, "name": "8db319f8ddd084dbfa9643537016b6c2", "is_disabled": 0, "rental_uris": {"android": "https://dc.lft.to/lastmile_qr_scan", "ios": "https://dc.lft.to/lastmile_qr_scan"}, "type": "electric_scooter", "lat": 38.90901, "is_reserved": 0, "fusion_lat": 0.0}, {"bike_id": "7b3660fd799cb97a1f2c62bf9d6be661", "fusion_lon": 0.0, "lon": -77.11018966666667, "name": "7b3660fd799cb97a1f2c62bf9d6be661", "is_disabled": 0, "rental_uris": {"android": "https://dc.lft.to/lastmile_qr_scan", "ios": "https://dc.lft.to/lastmile_qr_scan"}, "type": "electric_bike", "lat": 38.847407833333335, "is_reserved": 0, "fusion_lat": 0.0}, {"bike_id": "9e7ee9881df8812dbd84b7666d8bf3b7", "fusion_lon": 0.0, "lon": -76.98462866666667, "name": "9e7ee9881df8812dbd84b7666d8bf3b7", "is_disabled": 0, "rental_uris": {"android": "https://dc.lft.to/lastmile_qr_scan", "ios": "https://dc.lft.to/lastmile_qr_scan"}, "type": "electric_scooter", "lat": 38.8801035, "is_reserved": 0, "fusion_lat": 0.0}, {"bike_id": "c0f52a56e3940e08f3a34270059ea5e2", "fusion_lon": 0.0, "lon": -77.01779666666667, "name": "c0f52a56e3940e08f3a34270059ea5e2", "is_disabled": 0, "rental_uris": {"android": "https://dc.lft.to/lastmile_qr_scan", "ios": "https://dc.lft.to/lastmile_qr_scan"}, "type": "electric_scooter", "lat": 38.887184, "is_reserved": 0, "fusion_lat": 0.0}, {"bike_id": "28845636cc899a0920126ea7db3108e4", "fusion_lon": 0.0, "lon": -77.027161, "name": "28845636cc899a0920126ea7db3108e4", "is_disabled": 0, "rental_uris": {"android": "https://dc.lft.to/lastmile_qr_scan", "ios": "https://dc.lft.to/lastmile_qr_scan"}, "type": "electric_scooter", "lat": 38.88128566666666, "is_reserved": 0, "fusion_lat": 0.0}, {"bike_id": "616931683e01a455ab0470e3c026d406", "fusion_lon": 0.0, "lon": -76.97703883333334, "name": "616931683e01a455ab0470e3c026d406", "is_disabled": 0, "rental_uris": {"android": "https://dc.lft.to/lastmile_qr_scan", "ios": "https://dc.lft.to/lastmile_qr_scan"}, "type": "electric_bike", "lat": 38.9491175, "is_reserved": 0, "fusion_lat": 0.0}, {"bike_id": "7eef81f15b7c6407bfd3086d85ede924", "fusion_lon": 0.0, "lon": -77.03286833333334, "name": "7eef81f15b7c6407bfd3086d85ede924", "is_disabled": 0, "rental_uris": {"android": "https://dc.lft.to/lastmile_qr_scan", "ios": "https://dc.lft.to/lastmile_qr_scan"}, "type": "electric_scooter", "lat": 38.9000335, "is_reserved": 0, "fusion_lat": 0.0}, {"bike_id": "a1b1a8412c74e52d22d63eddde25a061", "fusion_lon": 0.0, "lon": -76.88376983333333, "name": "a1b1a8412c74e52d22d63eddde25a061", "is_disabled": 0, "rental_uris": {"android": "https://dc.lft.to/lastmile_qr_scan", "ios": "https://dc.lft.to/lastmile_qr_scan"}, "type": "electric_bike", "lat": 38.9981375, "is_reserved": 0, "fusion_lat": 0.0}, {"bike_id": "98464388118067b0e5d723be7dc8d03e", "fusion_lon": 0.0, "lon": -76.95141166666667, "name": "98464388118067b0e5d723be7dc8d03e", "is_disabled": 0, "rental_uris": {"android": "https://dc.lft.to/lastmile_qr_scan", "ios": "https://dc.lft.to/lastmile_qr_scan"}, "type": "electric_scooter", "lat": 38.890334833333334, "is_reserved": 0, "fusion_lat": 0.0}, {"bike_id": "f4f4b0f8f86ce1fa22cc0e3aff9c268e", "fusion_lon": 0.0, "lon": -77.052628, "name": "f4f4b0f8f86ce1fa22cc0e3aff9c268e", "is_disabled": 0, "rental_uris": {"android": "https://dc.lft.to/lastmile_qr_scan", "ios": "https://dc.lft.to/lastmile_qr_scan"}, "type": "electric_scooter", "lat": 38.92569966666667, "is_reserved": 0, "fusion_lat": 0.0}, {"bike_id": "c83b2e1c91df15c814492d949bec40cd", "fusion_lon": 0.0, "lon": -77.36090933333334, "name": "c83b2e1c91df15c814492d949bec40cd", "is_disabled": 0, "rental_uris": {"android": "https://dc.lft.to/lastmile_qr_scan", "ios": "https://dc.lft.to/lastmile_qr_scan"}, "type": "electric_bike", "lat": 38.93956383333333, "is_reserved": 0, "fusion_lat": 0.0}, {"bike_id": "1fa20d70bfb0486699737e336cda0bc0", "fusion_lon": 0.0, "lon": -77.02100783333333, "name": "1fa20d70bfb0486699737e336cda0bc0", "is_disabled": 0, "rental_uris": {"android": "https://dc.lft.to/lastmile_qr_scan", "ios": "https://dc.lft.to/lastmile_qr_scan"}, "type": "electric_scooter", "lat": 38.92411083333333, "is_reserved": 0, "fusion_lat": 0.0}, {"bike_id": "41338cf99a5aef362e63708eed67ed20", "fusion_lon": 0.0, "lon": -77.00153016666667, "name": "41338cf99a5aef362e63708eed67ed20", "is_disabled": 0, "rental_uris": {"android": "https://dc.lft.to/lastmile_qr_scan", "ios": "https://dc.lft.to/lastmile_qr_scan"}, "type": "electric_scooter", "lat": 38.92338733333333, "is_reserved": 0, "fusion_lat": 0.0}, {"bike_id": "262403aec50e807d87d1f2ac81252f26", "fusion_lon": 0.0, "lon": -77.02982333333334, "name": "262403aec50e807d87d1f2ac81252f26", "is_disabled": 0, "rental_uris": {"android": "https://dc.lft.to/lastmile_qr_scan", "ios": "https://dc.lft.to/lastmile_qr_scan"}, "type": "electric_scooter", "lat": 38.895582166666664, "is_reserved": 0, "fusion_lat": 0.0}, {"bike_id": "47d12ecb237f33819d7b3b51f7625715", "fusion_lon": 0.0, "lon": -77.02379233333333, "name": "47d12ecb237f33819d7b3b51f7625715", "is_disabled": 0, "rental_uris": {"android": "https://dc.lft.to/lastmile_qr_scan", "ios": "https://dc.lft.to/lastmile_qr_scan"}, "type": "electric_scooter", "lat": 38.919573166666666, "is_reserved": 0, "fusion_lat": 0.0}, {"bike_id": "a889b3cd8dcfc2437985c564183259b0", "fusion_lon": 0.0, "lon": -77.01995366666667, "name": "a889b3cd8dcfc2437985c564183259b0", "is_disabled": 0, "rental_uris": {"android": "https://dc.lft.to/lastmile_qr_scan", "ios": "https://dc.lft.to/lastmile_qr_scan"}, "type": "electric_scooter", "lat": 38.897468833333335, "is_reserved": 0, "fusion_lat": 0.0}, {"bike_id": "22978e94361fdd964ac36a47495a4218", "fusion_lon": 0.0, "lon": -77.04343366666667, "name": "22978e94361fdd964ac36a47495a4218", "is_disabled": 0, "rental_uris": {"android": "https://dc.lft.to/lastmile_qr_scan", "ios": "https://dc.lft.to/lastmile_qr_scan"}, "type": "electric_scooter", "lat": 38.907283166666666, "is_reserved": 0, "fusion_lat": 0.0}, {"bike_id": "eb97597577035315b6c7a56cf906ffc6", "fusion_lon": 0.0, "lon": -77.0861385, "name": "eb97597577035315b6c7a56cf906ffc6", "is_disabled": 0, "rental_uris": {"android": "https://dc.lft.to/lastmile_qr_scan", "ios": "https://dc.lft.to/lastmile_qr_scan"}, "type": "electric_bike", "lat": 38.89101466666666, "is_reserved": 0, "fusion_lat": 0.0}, {"bike_id": "2f8b27cd61e0375dfcdb79933dca354c", "fusion_lon": 0.0, "lon": -77.03974783333334, "name": "2f8b27cd61e0375dfcdb79933dca354c", "is_disabled": 0, "rental_uris": {"android": "https://dc.lft.to/lastmile_qr_scan", "ios": "https://dc.lft.to/lastmile_qr_scan"}, "type": "electric_scooter", "lat": 38.91188866666667, "is_reserved": 0, "fusion_lat": 0.0}, {"bike_id": "962bcbb1ac431de3580ed3a21915df0e", "fusion_lon": 0.0, "lon": -77.02390766666667, "name": "962bcbb1ac431de3580ed3a21915df0e", "is_disabled": 0, "rental_uris": {"android": "https://dc.lft.to/lastmile_qr_scan", "ios": "https://dc.lft.to/lastmile_qr_scan"}, "type": "electric_scooter", "lat": 38.916026333333335, "is_reserved": 0, "fusion_lat": 0.0}, {"bike_id": "0deb9e1ad4ce815573e9d2fd7141d376", "fusion_lon": 0.0, "lon": -77.0348945, "name": "0deb9e1ad4ce815573e9d2fd7141d376", "is_disabled": 0, "rental_uris": {"android": "https://dc.lft.to/lastmile_qr_scan", "ios": "https://dc.lft.to/lastmile_qr_scan"}, "type": "electric_scooter", "lat": 38.91852, "is_reserved": 0, "fusion_lat": 0.0}, {"bike_id": "cf61362637e6987ecdf1797e6d7f762c", "fusion_lon": 0.0, "lon": -77.0262585, "name": "cf61362637e6987ecdf1797e6d7f762c", "is_disabled": 0, "rental_uris": {"android": "https://dc.lft.to/lastmile_qr_scan", "ios": "https://dc.lft.to/lastmile_qr_scan"}, "type": "electric_bike", "lat": 38.962272166666665, "is_reserved": 0, "fusion_lat": 0.0}, {"bike_id": "4424af062f2681bffd09e47478484704", "fusion_lon": 0.0, "lon": -77.02822666666667, "name": "4424af062f2681bffd09e47478484704", "is_disabled": 0, "rental_uris": {"android": "https://dc.lft.to/lastmile_qr_scan", "ios": "https://dc.lft.to/lastmile_qr_scan"}, "type": "electric_bike", "lat": 38.964987666666666, "is_reserved": 0, "fusion_lat": 0.0}, {"bike_id": "e08a81381fac894eab39526c0b5993c3", "fusion_lon": 0.0, "lon": -77.036618, "name": "e08a81381fac894eab39526c0b5993c3", "is_disabled": 0, "rental_uris": {"android": "https://dc.lft.to/lastmile_qr_scan", "ios": "https://dc.lft.to/lastmile_qr_scan"}, "type": "electric_scooter", "lat": 38.92282083333333, "is_reserved": 0, "fusion_lat": 0.0}, {"bike_id": "48fc8f20048e5f248d5fe170a9c44668", "fusion_lon": 0.0, "lon": -76.9897555, "name": "48fc8f20048e5f248d5fe170a9c44668", "is_disabled": 0, "rental_uris": {"android": "https://dc.lft.to/lastmile_qr_scan", "ios": "https://dc.lft.to/lastmile_qr_scan"}, "type": "electric_scooter", "lat": 38.86491783333334, "is_reserved": 0, "fusion_lat": 0.0}, {"bike_id": "9514986e6d0ad5c9fc4fe5c3b1177f26", "fusion_lon": 0.0, "lon": -77.038376, "name": "9514986e6d0ad5c9fc4fe5c3b1177f26", "is_disabled": 0, "rental_uris": {"android": "https://dc.lft.to/lastmile_qr_scan", "ios": "https://dc.lft.to/lastmile_qr_scan"}, "type": "electric_scooter", "lat": 38.90851883333333, "is_reserved": 0, "fusion_lat": 0.0}, {"bike_id": "16caac2b4b7f6390f93521e9ab52cb32", "fusion_lon": 0.0, "lon": -76.95183983333334, "name": "16caac2b4b7f6390f93521e9ab52cb32", "is_disabled": 0, "rental_uris": {"android": "https://dc.lft.to/lastmile_qr_scan", "ios": "https://dc.lft.to/lastmile_qr_scan"}, "type": "electric_scooter", "lat": 38.907373666666665, "is_reserved": 0, "fusion_lat": 0.0}, {"bike_id": "09311fbe33b11db63a971d5b406c268d", "fusion_lon": 0.0, "lon": -77.01777416666667, "name": "09311fbe33b11db63a971d5b406c268d", "is_disabled": 0, "rental_uris": {"android": "https://dc.lft.to/lastmile_qr_scan", "ios": "https://dc.lft.to/lastmile_qr_scan"}, "type": "electric_scooter", "lat": 38.907782166666664, "is_reserved": 0, "fusion_lat": 0.0}, {"bike_id": "af997a4245303d57494e3878c6f7505e", "fusion_lon": 0.0, "lon": -77.0439775, "name": "af997a4245303d57494e3878c6f7505e", "is_disabled": 0, "rental_uris": {"android": "https://dc.lft.to/lastmile_qr_scan", "ios": "https://dc.lft.to/lastmile_qr_scan"}, "type": "electric_scooter", "lat": 38.920657166666665, "is_reserved": 0, "fusion_lat": 0.0}, {"bike_id": "584309676f236197dd8b206010ad21d4", "fusion_lon": 0.0, "lon": -77.05609666666666, "name": "584309676f236197dd8b206010ad21d4", "is_disabled": 0, "rental_uris": {"android": "https://dc.lft.to/lastmile_qr_scan", "ios": "https://dc.lft.to/lastmile_qr_scan"}, "type": "electric_scooter", "lat": 38.93160833333334, "is_reserved": 0, "fusion_lat": 0.0}, {"bike_id": "1c3fb989cd9b800d7b9e194f656c15b2", "fusion_lon": 0.0, "lon": -77.0056825, "name": "1c3fb989cd9b800d7b9e194f656c15b2", "is_disabled": 0, "rental_uris": {"android": "https://dc.lft.to/lastmile_qr_scan", "ios": "https://dc.lft.to/lastmile_qr_scan"}, "type": "electric_scooter", "lat": 38.88502, "is_reserved": 0, "fusion_lat": 0.0}, {"bike_id": "d7bbb53a33bca0970137e46a00f7ebe5", "fusion_lon": 0.0, "lon": -77.02423233333333, "name": "d7bbb53a33bca0970137e46a00f7ebe5", "is_disabled": 0, "rental_uris": {"android": "https://dc.lft.to/lastmile_qr_scan", "ios": "https://dc.lft.to/lastmile_qr_scan"}, "type": "electric_scooter", "lat": 38.926558666666665, "is_reserved": 0, "fusion_lat": 0.0}, {"bike_id": "987ca986e251f955cf4ab5677ab12afc", "fusion_lon": 0.0, "lon": -77.08189383333334, "name": "987ca986e251f955cf4ab5677ab12afc", "is_disabled": 0, "rental_uris": {"android": "https://dc.lft.to/lastmile_qr_scan", "ios": "https://dc.lft.to/lastmile_qr_scan"}, "type": "electric_bike", "lat": 38.855641, "is_reserved": 0, "fusion_lat": 0.0}, {"bike_id": "53b013ad8766d2bec7c81d3ccd59f4f9", "fusion_lon": 0.0, "lon": -77.03174133333333, "name": "53b013ad8766d2bec7c81d3ccd59f4f9", "is_disabled": 0, "rental_uris": {"android": "https://dc.lft.to/lastmile_qr_scan", "ios": "https://dc.lft.to/lastmile_qr_scan"}, "type": "electric_scooter", "lat": 38.921095666666666, "is_reserved": 0, "fusion_lat": 0.0}, {"bike_id": "281e9997e9b09c067ebe089ec7519b51", "fusion_lon": 0.0, "lon": -77.00141183333334, "name": "281e9997e9b09c067ebe089ec7519b51", "is_disabled": 0, "rental_uris": {"android": "https://dc.lft.to/lastmile_qr_scan", "ios": "https://dc.lft.to/lastmile_qr_scan"}, "type": "electric_scooter", "lat": 38.905111166666664, "is_reserved": 0, "fusion_lat": 0.0}, {"bike_id": "69fa9c29c8a54337c4fc911a62df3224", "fusion_lon": 0.0, "lon": -76.93734916666666, "name": "69fa9c29c8a54337c4fc911a62df3224", "is_disabled": 0, "rental_uris": {"android": "https://dc.lft.to/lastmile_qr_scan", "ios": "https://dc.lft.to/lastmile_qr_scan"}, "type": "electric_scooter", "lat": 38.890156166666664, "is_reserved": 0, "fusion_lat": 0.0}, {"bike_id": "b00ab1795a21b7c78d49982d0962be3d", "fusion_lon": 0.0, "lon": -77.0419345, "name": "b00ab1795a21b7c78d49982d0962be3d", "is_disabled": 0, "rental_uris": {"android": "https://dc.lft.to/lastmile_qr_scan", "ios": "https://dc.lft.to/lastmile_qr_scan"}, "type": "electric_scooter", "lat": 38.905869333333335, "is_reserved": 0, "fusion_lat": 0.0}, {"bike_id": "026bff6aca4b3749e9536e037ef3da8a", "fusion_lon": 0.0, "lon": -77.03241683333333, "name": "026bff6aca4b3749e9536e037ef3da8a", "is_disabled": 0, "rental_uris": {"android": "https://dc.lft.to/lastmile_qr_scan", "ios": "https://dc.lft.to/lastmile_qr_scan"}, "type": "electric_scooter", "lat": 38.92014733333333, "is_reserved": 0, "fusion_lat": 0.0}, {"bike_id": "050e6a060f1125319c64df71e726893d", "fusion_lon": 0.0, "lon": -77.03054733333333, "name": "050e6a060f1125319c64df71e726893d", "is_disabled": 0, "rental_uris": {"android": "https://dc.lft.to/lastmile_qr_scan", "ios": "https://dc.lft.to/lastmile_qr_scan"}, "type": "electric_scooter", "lat": 38.88412616666667, "is_reserved": 0, "fusion_lat": 0.0}, {"bike_id": "2056818f71a118201248980895488f8c", "fusion_lon": 0.0, "lon": -77.02951116666667, "name": "2056818f71a118201248980895488f8c", "is_disabled": 0, "rental_uris": {"android": "https://dc.lft.to/lastmile_qr_scan", "ios": "https://dc.lft.to/lastmile_qr_scan"}, "type": "electric_scooter", "lat": 38.90490066666667, "is_reserved": 0, "fusion_lat": 0.0}, {"bike_id": "77719b6006739f11617cf2bb2133c1a2", "fusion_lon": 0.0, "lon": -77.0569135, "name": "77719b6006739f11617cf2bb2133c1a2", "is_disabled": 0, "rental_uris": {"android": "https://dc.lft.to/lastmile_qr_scan", "ios": "https://dc.lft.to/lastmile_qr_scan"}, "type": "electric_bike", "lat": 38.935282, "is_reserved": 0, "fusion_lat": 0.0}, {"bike_id": "4c874f90a47e1f7752a2f08a1c8df3cf", "fusion_lon": 0.0, "lon": -76.98275233333334, "name": "4c874f90a47e1f7752a2f08a1c8df3cf", "is_disabled": 0, "rental_uris": {"android": "https://dc.lft.to/lastmile_qr_scan", "ios": "https://dc.lft.to/lastmile_qr_scan"}, "type": "electric_scooter", "lat": 38.904323166666664, "is_reserved": 0, "fusion_lat": 0.0}, {"bike_id": "bb09c40e13611fefbe290f9106c7b3d0", "fusion_lon": 0.0, "lon": -77.04176966666667, "name": "bb09c40e13611fefbe290f9106c7b3d0", "is_disabled": 0, "rental_uris": {"android": "https://dc.lft.to/lastmile_qr_scan", "ios": "https://dc.lft.to/lastmile_qr_scan"}, "type": "electric_scooter", "lat": 38.9164795, "is_reserved": 0, "fusion_lat": 0.0}, {"bike_id": "1d3356d79f0e95db4405bf00f36b6fb3", "fusion_lon": 0.0, "lon": -77.02258383333333, "name": "1d3356d79f0e95db4405bf00f36b6fb3", "is_disabled": 0, "rental_uris": {"android": "https://dc.lft.to/lastmile_qr_scan", "ios": "https://dc.lft.to/lastmile_qr_scan"}, "type": "electric_scooter", "lat": 38.923046, "is_reserved": 0, "fusion_lat": 0.0}, {"bike_id": "254877559a978999d7d67579ee544b59", "fusion_lon": 0.0, "lon": -77.02720166666667, "name": "254877559a978999d7d67579ee544b59", "is_disabled": 0, "rental_uris": {"android": "https://dc.lft.to/lastmile_qr_scan", "ios": "https://dc.lft.to/lastmile_qr_scan"}, "type": "electric_scooter", "lat": 38.89609333333333, "is_reserved": 0, "fusion_lat": 0.0}, {"bike_id": "5dda00b063062aaf174c10ccad19fd82", "fusion_lon": 0.0, "lon": -76.99556466666667, "name": "5dda00b063062aaf174c10ccad19fd82", "is_disabled": 0, "rental_uris": {"android": "https://dc.lft.to/lastmile_qr_scan", "ios": "https://dc.lft.to/lastmile_qr_scan"}, "type": "electric_scooter", "lat": 38.88264, "is_reserved": 0, "fusion_lat": 0.0}, {"bike_id": "40726c87854259a3d36b7df2048d4df7", "fusion_lon": 0.0, "lon": -76.98524883333333, "name": "40726c87854259a3d36b7df2048d4df7", "is_disabled": 0, "rental_uris": {"android": "https://dc.lft.to/lastmile_qr_scan", "ios": "https://dc.lft.to/lastmile_qr_scan"}, "type": "electric_scooter", "lat": 38.866657833333335, "is_reserved": 0, "fusion_lat": 0.0}, {"bike_id": "d68456606902593d37704cde95a1cebd", "fusion_lon": 0.0, "lon": -76.99778383333333, "name": "d68456606902593d37704cde95a1cebd", "is_disabled": 0, "rental_uris": {"android": "https://dc.lft.to/lastmile_qr_scan", "ios": "https://dc.lft.to/lastmile_qr_scan"}, "type": "electric_scooter", "lat": 38.84430583333334, "is_reserved": 0, "fusion_lat": 0.0}, {"bike_id": "f71fb5cae710801f99dde10a3ceb044d", "fusion_lon": 0.0, "lon": -76.98311483333333, "name": "f71fb5cae710801f99dde10a3ceb044d", "is_disabled": 0, "rental_uris": {"android": "https://dc.lft.to/lastmile_qr_scan", "ios": "https://dc.lft.to/lastmile_qr_scan"}, "type": "electric_scooter", "lat": 38.86888116666667, "is_reserved": 0, "fusion_lat": 0.0}, {"bike_id": "7dc5c14f89fe947238036f9c748db155", "fusion_lon": 0.0, "lon": -77.043653, "name": "7dc5c14f89fe947238036f9c748db155", "is_disabled": 0, "rental_uris": {"android": "https://dc.lft.to/lastmile_qr_scan", "ios": "https://dc.lft.to/lastmile_qr_scan"}, "type": "electric_scooter", "lat": 38.9215365, "is_reserved": 0, "fusion_lat": 0.0}, {"bike_id": "afbbad791c3dbd4de8bdac353abd7d69", "fusion_lon": 0.0, "lon": -77.0005325, "name": "afbbad791c3dbd4de8bdac353abd7d69", "is_disabled": 0, "rental_uris": {"android": "https://dc.lft.to/lastmile_qr_scan", "ios": "https://dc.lft.to/lastmile_qr_scan"}, "type": "electric_scooter", "lat": 38.87519266666666, "is_reserved": 0, "fusion_lat": 0.0}, {"bike_id": "ed7a43bb52cb32492766d1f60b0dc7c4", "fusion_lon": 0.0, "lon": -77.07713566666666, "name": "ed7a43bb52cb32492766d1f60b0dc7c4", "is_disabled": 0, "rental_uris": {"android": "https://dc.lft.to/lastmile_qr_scan", "ios": "https://dc.lft.to/lastmile_qr_scan"}, "type": "electric_scooter", "lat": 38.9438175, "is_reserved": 0, "fusion_lat": 0.0}, {"bike_id": "5670f91e395aeec5cb6927bc3f393469", "fusion_lon": 0.0, "lon": -76.9948335, "name": "5670f91e395aeec5cb6927bc3f393469", "is_disabled": 0, "rental_uris": {"android": "https://dc.lft.to/lastmile_qr_scan", "ios": "https://dc.lft.to/lastmile_qr_scan"}, "type": "electric_scooter", "lat": 38.904173, "is_reserved": 0, "fusion_lat": 0.0}, {"bike_id": "7d83ab661f42864fa6b4e3a86a7b814a", "fusion_lon": 0.0, "lon": -77.02572316666667, "name": "7d83ab661f42864fa6b4e3a86a7b814a", "is_disabled": 0, "rental_uris": {"android": "https://dc.lft.to/lastmile_qr_scan", "ios": "https://dc.lft.to/lastmile_qr_scan"}, "type": "electric_bike", "lat": 38.9204625, "is_reserved": 0, "fusion_lat": 0.0}, {"bike_id": "a43911f3edf2ecdec3c7f1bfccd2e372", "fusion_lon": 0.0, "lon": -77.04928716666667, "name": "a43911f3edf2ecdec3c7f1bfccd2e372", "is_disabled": 0, "rental_uris": {"android": "https://dc.lft.to/lastmile_qr_scan", "ios": "https://dc.lft.to/lastmile_qr_scan"}, "type": "electric_bike", "lat": 39.02929366666667, "is_reserved": 0, "fusion_lat": 0.0}, {"bike_id": "288a057444fd122f81e07e268cfb11fe", "fusion_lon": 0.0, "lon": -76.98155966666667, "name": "288a057444fd122f81e07e268cfb11fe", "is_disabled": 0, "rental_uris": {"android": "https://dc.lft.to/lastmile_qr_scan", "ios": "https://dc.lft.to/lastmile_qr_scan"}, "type": "electric_bike", "lat": 38.92262016666667, "is_reserved": 0, "fusion_lat": 0.0}, {"bike_id": "c18eb325104faac1eb84c2d16d1c2e98", "fusion_lon": 0.0, "lon": -77.04426316666667, "name": "c18eb325104faac1eb84c2d16d1c2e98", "is_disabled": 0, "rental_uris": {"android": "https://dc.lft.to/lastmile_qr_scan", "ios": "https://dc.lft.to/lastmile_qr_scan"}, "type": "electric_scooter", "lat": 38.921214, "is_reserved": 0, "fusion_lat": 0.0}, {"bike_id": "581ee34ceb92960e5a993d64b1bf977f", "fusion_lon": 0.0, "lon": -77.00341866666666, "name": "581ee34ceb92960e5a993d64b1bf977f", "is_disabled": 0, "rental_uris": {"android": "https://dc.lft.to/lastmile_qr_scan", "ios": "https://dc.lft.to/lastmile_qr_scan"}, "type": "electric_scooter", "lat": 38.907264166666664, "is_reserved": 0, "fusion_lat": 0.0}, {"bike_id": "b2fc3cd6778d34bfddf6ba5c8e3330da", "fusion_lon": 0.0, "lon": -77.029842, "name": "b2fc3cd6778d34bfddf6ba5c8e3330da", "is_disabled": 0, "rental_uris": {"android": "https://dc.lft.to/lastmile_qr_scan", "ios": "https://dc.lft.to/lastmile_qr_scan"}, "type": "electric_scooter", "lat": 38.931187333333334, "is_reserved": 0, "fusion_lat": 0.0}, {"bike_id": "60b861003b15d0303c2b4279a3f8271a", "fusion_lon": 0.0, "lon": -77.02942283333333, "name": "60b861003b15d0303c2b4279a3f8271a", "is_disabled": 0, "rental_uris": {"android": "https://dc.lft.to/lastmile_qr_scan", "ios": "https://dc.lft.to/lastmile_qr_scan"}, "type": "electric_scooter", "lat": 38.91699883333333, "is_reserved": 0, "fusion_lat": 0.0}, {"bike_id": "8c6c653e52994126b7196d1fe802280d", "fusion_lon": 0.0, "lon": -77.029782, "name": "8c6c653e52994126b7196d1fe802280d", "is_disabled": 0, "rental_uris": {"android": "https://dc.lft.to/lastmile_qr_scan", "ios": "https://dc.lft.to/lastmile_qr_scan"}, "type": "electric_scooter", "lat": 38.906995, "is_reserved": 0, "fusion_lat": 0.0}, {"bike_id": "9cf87f9e594c025197461f9f616e5c2e", "fusion_lon": 0.0, "lon": -77.0390615, "name": "9cf87f9e594c025197461f9f616e5c2e", "is_disabled": 0, "rental_uris": {"android": "https://dc.lft.to/lastmile_qr_scan", "ios": "https://dc.lft.to/lastmile_qr_scan"}, "type": "electric_scooter", "lat": 38.914188833333334, "is_reserved": 0, "fusion_lat": 0.0}, {"bike_id": "66fecce119465f0c160e0d43709b27cd", "fusion_lon": 0.0, "lon": -77.0416995, "name": "66fecce119465f0c160e0d43709b27cd", "is_disabled": 0, "rental_uris": {"android": "https://dc.lft.to/lastmile_qr_scan", "ios": "https://dc.lft.to/lastmile_qr_scan"}, "type": "electric_scooter", "lat": 38.913005, "is_reserved": 0, "fusion_lat": 0.0}, {"bike_id": "f67a87e020d583016ce6f85a3f8b8a03", "fusion_lon": 0.0, "lon": -77.029082, "name": "f67a87e020d583016ce6f85a3f8b8a03", "is_disabled": 0, "rental_uris": {"android": "https://dc.lft.to/lastmile_qr_scan", "ios": "https://dc.lft.to/lastmile_qr_scan"}, "type": "electric_scooter", "lat": 38.915523, "is_reserved": 0, "fusion_lat": 0.0}, {"bike_id": "18c3704c1a3f20476772af10c1f00581", "fusion_lon": 0.0, "lon": -77.029477, "name": "18c3704c1a3f20476772af10c1f00581", "is_disabled": 0, "rental_uris": {"android": "https://dc.lft.to/lastmile_qr_scan", "ios": "https://dc.lft.to/lastmile_qr_scan"}, "type": "electric_scooter", "lat": 38.8994625, "is_reserved": 0, "fusion_lat": 0.0}, {"bike_id": "341368f299dca5b291eba07732ea6731", "fusion_lon": 0.0, "lon": -76.99874483333333, "name": "341368f299dca5b291eba07732ea6731", "is_disabled": 0, "rental_uris": {"android": "https://dc.lft.to/lastmile_qr_scan", "ios": "https://dc.lft.to/lastmile_qr_scan"}, "type": "electric_scooter", "lat": 38.90034633333333, "is_reserved": 0, "fusion_lat": 0.0}, {"bike_id": "e5cde9e8679aff86a24b6968ae975cd9", "fusion_lon": 0.0, "lon": -76.99907266666666, "name": "e5cde9e8679aff86a24b6968ae975cd9", "is_disabled": 0, "rental_uris": {"android": "https://dc.lft.to/lastmile_qr_scan", "ios": "https://dc.lft.to/lastmile_qr_scan"}, "type": "electric_scooter", "lat": 38.94815216666667, "is_reserved": 0, "fusion_lat": 0.0}, {"bike_id": "ef9cfd688b1ee0a799ec3ebd4b8c755e", "fusion_lon": 0.0, "lon": -77.04707983333333, "name": "ef9cfd688b1ee0a799ec3ebd4b8c755e", "is_disabled": 0, "rental_uris": {"android": "https://dc.lft.to/lastmile_qr_scan", "ios": "https://dc.lft.to/lastmile_qr_scan"}, "type": "electric_scooter", "lat": 38.92104833333333, "is_reserved": 0, "fusion_lat": 0.0}, {"bike_id": "91b3ca025a8494ee000a7b3149b9bbaa", "fusion_lon": 0.0, "lon": -77.02214166666667, "name": "91b3ca025a8494ee000a7b3149b9bbaa", "is_disabled": 0, "rental_uris": {"android": "https://dc.lft.to/lastmile_qr_scan", "ios": "https://dc.lft.to/lastmile_qr_scan"}, "type": "electric_scooter", "lat": 38.915531, "is_reserved": 0, "fusion_lat": 0.0}, {"bike_id": "38e44a1e30cf8e486e84a8201a51480d", "fusion_lon": 0.0, "lon": -77.03586266666667, "name": "38e44a1e30cf8e486e84a8201a51480d", "is_disabled": 0, "rental_uris": {"android": "https://dc.lft.to/lastmile_qr_scan", "ios": "https://dc.lft.to/lastmile_qr_scan"}, "type": "electric_scooter", "lat": 38.936723666666666, "is_reserved": 0, "fusion_lat": 0.0}, {"bike_id": "1983da7548a93916eff28d62bb36264c", "fusion_lon": 0.0, "lon": -77.13896483333333, "name": "1983da7548a93916eff28d62bb36264c", "is_disabled": 0, "rental_uris": {"android": "https://dc.lft.to/lastmile_qr_scan", "ios": "https://dc.lft.to/lastmile_qr_scan"}, "type": "electric_bike", "lat": 38.896805666666666, "is_reserved": 0, "fusion_lat": 0.0}, {"bike_id": "f20fb8cdb3a6429529a69817d49fd9b2", "fusion_lon": 0.0, "lon": -76.97956583333334, "name": "f20fb8cdb3a6429529a69817d49fd9b2", "is_disabled": 0, "rental_uris": {"android": "https://dc.lft.to/lastmile_qr_scan", "ios": "https://dc.lft.to/lastmile_qr_scan"}, "type": "electric_scooter", "lat": 38.91688966666667, "is_reserved": 0, "fusion_lat": 0.0}, {"bike_id": "b216449598a69603174340506c4417e5", "fusion_lon": 0.0, "lon": -77.03349966666667, "name": "b216449598a69603174340506c4417e5", "is_disabled": 0, "rental_uris": {"android": "https://dc.lft.to/lastmile_qr_scan", "ios": "https://dc.lft.to/lastmile_qr_scan"}, "type": "electric_scooter", "lat": 38.885045, "is_reserved": 0, "fusion_lat": 0.0}, {"bike_id": "db0e1389736aff0959f3d04cc97b7ed4", "fusion_lon": 0.0, "lon": -77.06344433333334, "name": "db0e1389736aff0959f3d04cc97b7ed4", "is_disabled": 0, "rental_uris": {"android": "https://dc.lft.to/lastmile_qr_scan", "ios": "https://dc.lft.to/lastmile_qr_scan"}, "type": "electric_scooter", "lat": 38.90674683333334, "is_reserved": 0, "fusion_lat": 0.0}, {"bike_id": "db5d71ec8993695cc60e467ec924ff0b", "fusion_lon": 0.0, "lon": -77.04233483333333, "name": "db5d71ec8993695cc60e467ec924ff0b", "is_disabled": 0, "rental_uris": {"android": "https://dc.lft.to/lastmile_qr_scan", "ios": "https://dc.lft.to/lastmile_qr_scan"}, "type": "electric_scooter", "lat": 38.917842, "is_reserved": 0, "fusion_lat": 0.0}, {"bike_id": "910c210a8bd7d5fa68a378ea6e78a8a5", "fusion_lon": 0.0, "lon": -77.0451525, "name": "910c210a8bd7d5fa68a378ea6e78a8a5", "is_disabled": 0, "rental_uris": {"android": "https://dc.lft.to/lastmile_qr_scan", "ios": "https://dc.lft.to/lastmile_qr_scan"}, "type": "electric_scooter", "lat": 38.88600233333333, "is_reserved": 0, "fusion_lat": 0.0}, {"bike_id": "b9bd7b1605b16b46880f1b6d0a7e4146", "fusion_lon": 0.0, "lon": -77.11052616666667, "name": "b9bd7b1605b16b46880f1b6d0a7e4146", "is_disabled": 0, "rental_uris": {"android": "https://dc.lft.to/lastmile_qr_scan", "ios": "https://dc.lft.to/lastmile_qr_scan"}, "type": "electric_bike", "lat": 38.870756166666666, "is_reserved": 0, "fusion_lat": 0.0}, {"bike_id": "431449d3db3ea06d1fa91f0f8f29574b", "fusion_lon": 0.0, "lon": -77.0230265, "name": "431449d3db3ea06d1fa91f0f8f29574b", "is_disabled": 0, "rental_uris": {"android": "https://dc.lft.to/lastmile_qr_scan", "ios": "https://dc.lft.to/lastmile_qr_scan"}, "type": "electric_scooter", "lat": 38.916136333333334, "is_reserved": 0, "fusion_lat": 0.0}, {"bike_id": "26830a7948831967da7151b4e16ac425", "fusion_lon": 0.0, "lon": -76.93197633333334, "name": "26830a7948831967da7151b4e16ac425", "is_disabled": 0, "rental_uris": {"android": "https://dc.lft.to/lastmile_qr_scan", "ios": "https://dc.lft.to/lastmile_qr_scan"}, "type": "electric_scooter", "lat": 38.8987685, "is_reserved": 0, "fusion_lat": 0.0}, {"bike_id": "b21a6fb5e8214bdf2282ec8203c7886c", "fusion_lon": 0.0, "lon": -77.03469033333333, "name": "b21a6fb5e8214bdf2282ec8203c7886c", "is_disabled": 0, "rental_uris": {"android": "https://dc.lft.to/lastmile_qr_scan", "ios": "https://dc.lft.to/lastmile_qr_scan"}, "type": "electric_scooter", "lat": 38.9225305, "is_reserved": 0, "fusion_lat": 0.0}, {"bike_id": "763c6becf8b26c91cc93158ea97e7279", "fusion_lon": 0.0, "lon": -77.0551925, "name": "763c6becf8b26c91cc93158ea97e7279", "is_disabled": 0, "rental_uris": {"android": "https://dc.lft.to/lastmile_qr_scan", "ios": "https://dc.lft.to/lastmile_qr_scan"}, "type": "electric_scooter", "lat": 38.909344833333336, "is_reserved": 0, "fusion_lat": 0.0}, {"bike_id": "9119c2dd6e7f068db281134cf2ee41a3", "fusion_lon": 0.0, "lon": -77.04468133333333, "name": "9119c2dd6e7f068db281134cf2ee41a3", "is_disabled": 0, "rental_uris": {"android": "https://dc.lft.to/lastmile_qr_scan", "ios": "https://dc.lft.to/lastmile_qr_scan"}, "type": "electric_scooter", "lat": 38.91257483333333, "is_reserved": 0, "fusion_lat": 0.0}, {"bike_id": "cfb31eabc2dec7bd41d67a34b08e0c89", "fusion_lon": 0.0, "lon": -77.02970333333333, "name": "cfb31eabc2dec7bd41d67a34b08e0c89", "is_disabled": 0, "rental_uris": {"android": "https://dc.lft.to/lastmile_qr_scan", "ios": "https://dc.lft.to/lastmile_qr_scan"}, "type": "electric_scooter", "lat": 38.91589916666667, "is_reserved": 0, "fusion_lat": 0.0}, {"bike_id": "45c9d99456875f8dfce84431b8d21a32", "fusion_lon": 0.0, "lon": -77.09963416666666, "name": "45c9d99456875f8dfce84431b8d21a32", "is_disabled": 0, "rental_uris": {"android": "https://dc.lft.to/lastmile_qr_scan", "ios": "https://dc.lft.to/lastmile_qr_scan"}, "type": "electric_bike", "lat": 38.857885833333334, "is_reserved": 0, "fusion_lat": 0.0}, {"bike_id": "a197085b0cc96c1f2e1f05e19c1ec23b", "fusion_lon": 0.0, "lon": -77.001994, "name": "a197085b0cc96c1f2e1f05e19c1ec23b", "is_disabled": 0, "rental_uris": {"android": "https://dc.lft.to/lastmile_qr_scan", "ios": "https://dc.lft.to/lastmile_qr_scan"}, "type": "electric_scooter", "lat": 38.9003735, "is_reserved": 0, "fusion_lat": 0.0}, {"bike_id": "c2d470f6b5ac52c8530bd08038e3d2d5", "fusion_lon": 0.0, "lon": -76.9243755, "name": "c2d470f6b5ac52c8530bd08038e3d2d5", "is_disabled": 0, "rental_uris": {"android": "https://dc.lft.to/lastmile_qr_scan", "ios": "https://dc.lft.to/lastmile_qr_scan"}, "type": "electric_scooter", "lat": 38.901740833333335, "is_reserved": 0, "fusion_lat": 0.0}, {"bike_id": "7406acdc072562ccd60606089390c22f", "fusion_lon": 0.0, "lon": -76.99853033333333, "name": "7406acdc072562ccd60606089390c22f", "is_disabled": 0, "rental_uris": {"android": "https://dc.lft.to/lastmile_qr_scan", "ios": "https://dc.lft.to/lastmile_qr_scan"}, "type": "electric_scooter", "lat": 38.88752733333333, "is_reserved": 0, "fusion_lat": 0.0}, {"bike_id": "cf2f9f59f9467aad8d157e190120761a", "fusion_lon": 0.0, "lon": -77.05289766666667, "name": "cf2f9f59f9467aad8d157e190120761a", "is_disabled": 0, "rental_uris": {"android": "https://dc.lft.to/lastmile_qr_scan", "ios": "https://dc.lft.to/lastmile_qr_scan"}, "type": "electric_scooter", "lat": 38.92796, "is_reserved": 0, "fusion_lat": 0.0}, {"bike_id": "e9c108c8795558aed7282e239a315fb9", "fusion_lon": 0.0, "lon": -77.0271205, "name": "e9c108c8795558aed7282e239a315fb9", "is_disabled": 0, "rental_uris": {"android": "https://dc.lft.to/lastmile_qr_scan", "ios": "https://dc.lft.to/lastmile_qr_scan"}, "type": "electric_scooter", "lat": 38.90670733333333, "is_reserved": 0, "fusion_lat": 0.0}, {"bike_id": "91ef140b0d2436aad29e92c2b7ee6f81", "fusion_lon": 0.0, "lon": -76.99609933333333, "name": "91ef140b0d2436aad29e92c2b7ee6f81", "is_disabled": 0, "rental_uris": {"android": "https://dc.lft.to/lastmile_qr_scan", "ios": "https://dc.lft.to/lastmile_qr_scan"}, "type": "electric_scooter", "lat": 38.903616666666665, "is_reserved": 0, "fusion_lat": 0.0}, {"bike_id": "49c170e4f3e41150d707b75e048d90a5", "fusion_lon": 0.0, "lon": -77.04803783333334, "name": "49c170e4f3e41150d707b75e048d90a5", "is_disabled": 0, "rental_uris": {"android": "https://dc.lft.to/lastmile_qr_scan", "ios": "https://dc.lft.to/lastmile_qr_scan"}, "type": "electric_scooter", "lat": 38.892199, "is_reserved": 0, "fusion_lat": 0.0}, {"bike_id": "4794834ecef0083e90290daa9d94806e", "fusion_lon": 0.0, "lon": -77.032534, "name": "4794834ecef0083e90290daa9d94806e", "is_disabled": 0, "rental_uris": {"android": "https://dc.lft.to/lastmile_qr_scan", "ios": "https://dc.lft.to/lastmile_qr_scan"}, "type": "electric_scooter", "lat": 38.92856666666667, "is_reserved": 0, "fusion_lat": 0.0}, {"bike_id": "700c4a2258a83619277beeaa16ecf63a", "fusion_lon": 0.0, "lon": -77.0258995, "name": "700c4a2258a83619277beeaa16ecf63a", "is_disabled": 0, "rental_uris": {"android": "https://dc.lft.to/lastmile_qr_scan", "ios": "https://dc.lft.to/lastmile_qr_scan"}, "type": "electric_scooter", "lat": 38.90523366666667, "is_reserved": 0, "fusion_lat": 0.0}, {"bike_id": "1bc7167b4980ff1acfa0774506ce2d5b", "fusion_lon": 0.0, "lon": -77.0256095, "name": "1bc7167b4980ff1acfa0774506ce2d5b", "is_disabled": 0, "rental_uris": {"android": "https://dc.lft.to/lastmile_qr_scan", "ios": "https://dc.lft.to/lastmile_qr_scan"}, "type": "electric_scooter", "lat": 38.925325, "is_reserved": 0, "fusion_lat": 0.0}, {"bike_id": "b61bc7ff56ae1f1338188ff8a82b482a", "fusion_lon": 0.0, "lon": -77.02695633333333, "name": "b61bc7ff56ae1f1338188ff8a82b482a", "is_disabled": 0, "rental_uris": {"android": "https://dc.lft.to/lastmile_qr_scan", "ios": "https://dc.lft.to/lastmile_qr_scan"}, "type": "electric_scooter", "lat": 38.924028166666666, "is_reserved": 0, "fusion_lat": 0.0}, {"bike_id": "0cc19e2e126b4382c94176119337495c", "fusion_lon": 0.0, "lon": -76.98617183333333, "name": "0cc19e2e126b4382c94176119337495c", "is_disabled": 0, "rental_uris": {"android": "https://dc.lft.to/lastmile_qr_scan", "ios": "https://dc.lft.to/lastmile_qr_scan"}, "type": "electric_scooter", "lat": 38.938304333333335, "is_reserved": 0, "fusion_lat": 0.0}, {"bike_id": "00827fe4810828ccb51dd8c555309b9e", "fusion_lon": 0.0, "lon": -77.01857066666666, "name": "00827fe4810828ccb51dd8c555309b9e", "is_disabled": 0, "rental_uris": {"android": "https://dc.lft.to/lastmile_qr_scan", "ios": "https://dc.lft.to/lastmile_qr_scan"}, "type": "electric_scooter", "lat": 38.91525333333333, "is_reserved": 0, "fusion_lat": 0.0}, {"bike_id": "34f0f835793c792304071bc4f81ee7ed", "fusion_lon": 0.0, "lon": -77.02719966666666, "name": "34f0f835793c792304071bc4f81ee7ed", "is_disabled": 0, "rental_uris": {"android": "https://dc.lft.to/lastmile_qr_scan", "ios": "https://dc.lft.to/lastmile_qr_scan"}, "type": "electric_scooter", "lat": 38.949517166666666, "is_reserved": 0, "fusion_lat": 0.0}, {"bike_id": "78eb0be7518762594e93c0f8d450b358", "fusion_lon": 0.0, "lon": -77.01223366666666, "name": "78eb0be7518762594e93c0f8d450b358", "is_disabled": 0, "rental_uris": {"android": "https://dc.lft.to/lastmile_qr_scan", "ios": "https://dc.lft.to/lastmile_qr_scan"}, "type": "electric_scooter", "lat": 38.915449833333334, "is_reserved": 0, "fusion_lat": 0.0}, {"bike_id": "5ac14137d97a785bc89db0b1ef81dda9", "fusion_lon": 0.0, "lon": -76.93614316666667, "name": "5ac14137d97a785bc89db0b1ef81dda9", "is_disabled": 0, "rental_uris": {"android": "https://dc.lft.to/lastmile_qr_scan", "ios": "https://dc.lft.to/lastmile_qr_scan"}, "type": "electric_scooter", "lat": 38.8866825, "is_reserved": 0, "fusion_lat": 0.0}, {"bike_id": "7d2dce2492c98bba9a8b5a1afed9c0d2", "fusion_lon": 0.0, "lon": -76.997725, "name": "7d2dce2492c98bba9a8b5a1afed9c0d2", "is_disabled": 0, "rental_uris": {"android": "https://dc.lft.to/lastmile_qr_scan", "ios": "https://dc.lft.to/lastmile_qr_scan"}, "type": "electric_scooter", "lat": 38.90912083333333, "is_reserved": 0, "fusion_lat": 0.0}, {"bike_id": "6716cbdf6efa316c910b13c3cc9c4708", "fusion_lon": 0.0, "lon": -77.02512183333333, "name": "6716cbdf6efa316c910b13c3cc9c4708", "is_disabled": 0, "rental_uris": {"android": "https://dc.lft.to/lastmile_qr_scan", "ios": "https://dc.lft.to/lastmile_qr_scan"}, "type": "electric_scooter", "lat": 38.915591166666665, "is_reserved": 0, "fusion_lat": 0.0}, {"bike_id": "bb9e516591ba8b4c5d96f42380f95b5c", "fusion_lon": 0.0, "lon": -77.01221633333333, "name": "bb9e516591ba8b4c5d96f42380f95b5c", "is_disabled": 0, "rental_uris": {"android": "https://dc.lft.to/lastmile_qr_scan", "ios": "https://dc.lft.to/lastmile_qr_scan"}, "type": "electric_scooter", "lat": 38.915266333333335, "is_reserved": 0, "fusion_lat": 0.0}, {"bike_id": "1c8fe8accd498b6d8ac18a18ee524022", "fusion_lon": 0.0, "lon": -76.995715, "name": "1c8fe8accd498b6d8ac18a18ee524022", "is_disabled": 0, "rental_uris": {"android": "https://dc.lft.to/lastmile_qr_scan", "ios": "https://dc.lft.to/lastmile_qr_scan"}, "type": "electric_scooter", "lat": 38.92027933333333, "is_reserved": 0, "fusion_lat": 0.0}, {"bike_id": "18cf5992a97f4c35b5718d36d8762d49", "fusion_lon": 0.0, "lon": -77.0517125, "name": "18cf5992a97f4c35b5718d36d8762d49", "is_disabled": 0, "rental_uris": {"android": "https://dc.lft.to/lastmile_qr_scan", "ios": "https://dc.lft.to/lastmile_qr_scan"}, "type": "electric_scooter", "lat": 38.900638, "is_reserved": 0, "fusion_lat": 0.0}, {"bike_id": "0a987b2fc6caf7fed01e91857b900c33", "fusion_lon": 0.0, "lon": -77.02817033333334, "name": "0a987b2fc6caf7fed01e91857b900c33", "is_disabled": 0, "rental_uris": {"android": "https://dc.lft.to/lastmile_qr_scan", "ios": "https://dc.lft.to/lastmile_qr_scan"}, "type": "electric_scooter", "lat": 38.916858166666664, "is_reserved": 0, "fusion_lat": 0.0}, {"bike_id": "1936f7e1954475edcd6bc8a805f8b2a9", "fusion_lon": 0.0, "lon": -77.04096416666667, "name": "1936f7e1954475edcd6bc8a805f8b2a9", "is_disabled": 0, "rental_uris": {"android": "https://dc.lft.to/lastmile_qr_scan", "ios": "https://dc.lft.to/lastmile_qr_scan"}, "type": "electric_scooter", "lat": 38.91785216666667, "is_reserved": 0, "fusion_lat": 0.0}, {"bike_id": "903a378206aa9362cdb7dc2fb0cf8722", "fusion_lon": 0.0, "lon": -77.052271, "name": "903a378206aa9362cdb7dc2fb0cf8722", "is_disabled": 0, "rental_uris": {"android": "https://dc.lft.to/lastmile_qr_scan", "ios": "https://dc.lft.to/lastmile_qr_scan"}, "type": "electric_scooter", "lat": 38.924594666666664, "is_reserved": 0, "fusion_lat": 0.0}, {"bike_id": "5666fd152a342b6d32d45397b5288441", "fusion_lon": 0.0, "lon": -77.04201233333333, "name": "5666fd152a342b6d32d45397b5288441", "is_disabled": 0, "rental_uris": {"android": "https://dc.lft.to/lastmile_qr_scan", "ios": "https://dc.lft.to/lastmile_qr_scan"}, "type": "electric_scooter", "lat": 38.9112705, "is_reserved": 0, "fusion_lat": 0.0}, {"bike_id": "2e63b6ea481c764c16b5f6007a4c823b", "fusion_lon": 0.0, "lon": -77.04222333333334, "name": "2e63b6ea481c764c16b5f6007a4c823b", "is_disabled": 0, "rental_uris": {"android": "https://dc.lft.to/lastmile_qr_scan", "ios": "https://dc.lft.to/lastmile_qr_scan"}, "type": "electric_scooter", "lat": 38.9206285, "is_reserved": 0, "fusion_lat": 0.0}, {"bike_id": "aeb860b891fa023ff279afd7ca7fd32e", "fusion_lon": 0.0, "lon": -77.02764, "name": "aeb860b891fa023ff279afd7ca7fd32e", "is_disabled": 0, "rental_uris": {"android": "https://dc.lft.to/lastmile_qr_scan", "ios": "https://dc.lft.to/lastmile_qr_scan"}, "type": "electric_scooter", "lat": 38.9542375, "is_reserved": 0, "fusion_lat": 0.0}, {"bike_id": "0f5535e820e9e1eb25000900b1aa6304", "fusion_lon": 0.0, "lon": -76.9652805, "name": "0f5535e820e9e1eb25000900b1aa6304", "is_disabled": 0, "rental_uris": {"android": "https://dc.lft.to/lastmile_qr_scan", "ios": "https://dc.lft.to/lastmile_qr_scan"}, "type": "electric_scooter", "lat": 38.87627283333333, "is_reserved": 0, "fusion_lat": 0.0}, {"bike_id": "f60b22d9afaa48280ddb5d0d27f073a8", "fusion_lon": 0.0, "lon": -77.02663733333333, "name": "f60b22d9afaa48280ddb5d0d27f073a8", "is_disabled": 0, "rental_uris": {"android": "https://dc.lft.to/lastmile_qr_scan", "ios": "https://dc.lft.to/lastmile_qr_scan"}, "type": "electric_scooter", "lat": 38.8812065, "is_reserved": 0, "fusion_lat": 0.0}, {"bike_id": "3822321196c269bb1acf8b2d6cb23c4a", "fusion_lon": 0.0, "lon": -77.04330433333334, "name": "3822321196c269bb1acf8b2d6cb23c4a", "is_disabled": 0, "rental_uris": {"android": "https://dc.lft.to/lastmile_qr_scan", "ios": "https://dc.lft.to/lastmile_qr_scan"}, "type": "electric_scooter", "lat": 38.8922145, "is_reserved": 0, "fusion_lat": 0.0}, {"bike_id": "a0ac03a42672d094b9b15d4852720f37", "fusion_lon": 0.0, "lon": -76.909756, "name": "a0ac03a42672d094b9b15d4852720f37", "is_disabled": 0, "rental_uris": {"android": "https://dc.lft.to/lastmile_qr_scan", "ios": "https://dc.lft.to/lastmile_qr_scan"}, "type": "electric_bike", "lat": 38.85413616666666, "is_reserved": 0, "fusion_lat": 0.0}, {"bike_id": "7e4ae798f5867748e56e5d4a55582c1e", "fusion_lon": 0.0, "lon": -77.01712733333333, "name": "7e4ae798f5867748e56e5d4a55582c1e", "is_disabled": 0, "rental_uris": {"android": "https://dc.lft.to/lastmile_qr_scan", "ios": "https://dc.lft.to/lastmile_qr_scan"}, "type": "electric_scooter", "lat": 38.9174225, "is_reserved": 0, "fusion_lat": 0.0}, {"bike_id": "f9fe7f127e7414e3dff4f55f00d2e880", "fusion_lon": 0.0, "lon": -77.00708583333333, "name": "f9fe7f127e7414e3dff4f55f00d2e880", "is_disabled": 0, "rental_uris": {"android": "https://dc.lft.to/lastmile_qr_scan", "ios": "https://dc.lft.to/lastmile_qr_scan"}, "type": "electric_scooter", "lat": 38.905989166666664, "is_reserved": 0, "fusion_lat": 0.0}, {"bike_id": "a75c56d947d2a5bf22be48316d832ac8", "fusion_lon": 0.0, "lon": -77.03137466666666, "name": "a75c56d947d2a5bf22be48316d832ac8", "is_disabled": 0, "rental_uris": {"android": "https://dc.lft.to/lastmile_qr_scan", "ios": "https://dc.lft.to/lastmile_qr_scan"}, "type": "electric_scooter", "lat": 38.9237535, "is_reserved": 0, "fusion_lat": 0.0}, {"bike_id": "f570e8ff6535835f970966d1b0b628ab", "fusion_lon": 0.0, "lon": -77.03660083333334, "name": "f570e8ff6535835f970966d1b0b628ab", "is_disabled": 0, "rental_uris": {"android": "https://dc.lft.to/lastmile_qr_scan", "ios": "https://dc.lft.to/lastmile_qr_scan"}, "type": "electric_scooter", "lat": 38.922875833333336, "is_reserved": 0, "fusion_lat": 0.0}, {"bike_id": "3de5d336e70d19e28a44e23048492ce4", "fusion_lon": 0.0, "lon": -77.02493333333334, "name": "3de5d336e70d19e28a44e23048492ce4", "is_disabled": 0, "rental_uris": {"android": "https://dc.lft.to/lastmile_qr_scan", "ios": "https://dc.lft.to/lastmile_qr_scan"}, "type": "electric_scooter", "lat": 38.941879, "is_reserved": 0, "fusion_lat": 0.0}, {"bike_id": "46a49229d46e025c6d09c73d495e1f5c", "fusion_lon": 0.0, "lon": -77.04606033333333, "name": "46a49229d46e025c6d09c73d495e1f5c", "is_disabled": 0, "rental_uris": {"android": "https://dc.lft.to/lastmile_qr_scan", "ios": "https://dc.lft.to/lastmile_qr_scan"}, "type": "electric_scooter", "lat": 38.91927183333333, "is_reserved": 0, "fusion_lat": 0.0}, {"bike_id": "287be5fc6b53d3dcd939917472a90619", "fusion_lon": 0.0, "lon": -77.0828, "name": "287be5fc6b53d3dcd939917472a90619", "is_disabled": 0, "rental_uris": {"android": "https://dc.lft.to/lastmile_qr_scan", "ios": "https://dc.lft.to/lastmile_qr_scan"}, "type": "electric_scooter", "lat": 38.930163666666665, "is_reserved": 0, "fusion_lat": 0.0}, {"bike_id": "f84e9290db767522efaaca6309f8e07e", "fusion_lon": 0.0, "lon": -76.98327516666667, "name": "f84e9290db767522efaaca6309f8e07e", "is_disabled": 0, "rental_uris": {"android": "https://dc.lft.to/lastmile_qr_scan", "ios": "https://dc.lft.to/lastmile_qr_scan"}, "type": "electric_scooter", "lat": 38.908652833333335, "is_reserved": 0, "fusion_lat": 0.0}, {"bike_id": "ac2b57ad86a0079dd784ca01ece55b4a", "fusion_lon": 0.0, "lon": -77.03468033333333, "name": "ac2b57ad86a0079dd784ca01ece55b4a", "is_disabled": 0, "rental_uris": {"android": "https://dc.lft.to/lastmile_qr_scan", "ios": "https://dc.lft.to/lastmile_qr_scan"}, "type": "electric_scooter", "lat": 38.9046075, "is_reserved": 0, "fusion_lat": 0.0}, {"bike_id": "46c90a6b84bd6e49053af80db9fc8908", "fusion_lon": 0.0, "lon": -77.04414633333333, "name": "46c90a6b84bd6e49053af80db9fc8908", "is_disabled": 0, "rental_uris": {"android": "https://dc.lft.to/lastmile_qr_scan", "ios": "https://dc.lft.to/lastmile_qr_scan"}, "type": "electric_scooter", "lat": 38.91774566666667, "is_reserved": 0, "fusion_lat": 0.0}, {"bike_id": "d68816f494f5fb077c49b24c913569a3", "fusion_lon": 0.0, "lon": -76.99700916666667, "name": "d68816f494f5fb077c49b24c913569a3", "is_disabled": 0, "rental_uris": {"android": "https://dc.lft.to/lastmile_qr_scan", "ios": "https://dc.lft.to/lastmile_qr_scan"}, "type": "electric_scooter", "lat": 38.908328833333336, "is_reserved": 0, "fusion_lat": 0.0}, {"bike_id": "2e461ab59e908fb6a53523da4cf2c25a", "fusion_lon": 0.0, "lon": -77.0102535, "name": "2e461ab59e908fb6a53523da4cf2c25a", "is_disabled": 0, "rental_uris": {"android": "https://dc.lft.to/lastmile_qr_scan", "ios": "https://dc.lft.to/lastmile_qr_scan"}, "type": "electric_scooter", "lat": 38.917052166666664, "is_reserved": 0, "fusion_lat": 0.0}, {"bike_id": "717d58f33f7f099de9163e2ffd45aec4", "fusion_lon": 0.0, "lon": -77.03331183333333, "name": "717d58f33f7f099de9163e2ffd45aec4", "is_disabled": 0, "rental_uris": {"android": "https://dc.lft.to/lastmile_qr_scan", "ios": "https://dc.lft.to/lastmile_qr_scan"}, "type": "electric_scooter", "lat": 38.91360666666667, "is_reserved": 0, "fusion_lat": 0.0}, {"bike_id": "717cd6acc695135045c7127c717f9550", "fusion_lon": 0.0, "lon": -76.9912925, "name": "717cd6acc695135045c7127c717f9550", "is_disabled": 0, "rental_uris": {"android": "https://dc.lft.to/lastmile_qr_scan", "ios": "https://dc.lft.to/lastmile_qr_scan"}, "type": "electric_scooter", "lat": 38.862016, "is_reserved": 0, "fusion_lat": 0.0}, {"bike_id": "cd4db4f41e1c36281b94ec2a50e52477", "fusion_lon": 0.0, "lon": -77.005749, "name": "cd4db4f41e1c36281b94ec2a50e52477", "is_disabled": 0, "rental_uris": {"android": "https://dc.lft.to/lastmile_qr_scan", "ios": "https://dc.lft.to/lastmile_qr_scan"}, "type": "electric_scooter", "lat": 38.87309483333333, "is_reserved": 0, "fusion_lat": 0.0}, {"bike_id": "195a0a61e33715e39d032107ba7924e0", "fusion_lon": 0.0, "lon": -77.03460283333334, "name": "195a0a61e33715e39d032107ba7924e0", "is_disabled": 0, "rental_uris": {"android": "https://dc.lft.to/lastmile_qr_scan", "ios": "https://dc.lft.to/lastmile_qr_scan"}, "type": "electric_scooter", "lat": 38.917430833333334, "is_reserved": 0, "fusion_lat": 0.0}, {"bike_id": "d691d1abf66a8afb5efaa9d10a4073d7", "fusion_lon": 0.0, "lon": -77.03904433333334, "name": "d691d1abf66a8afb5efaa9d10a4073d7", "is_disabled": 0, "rental_uris": {"android": "https://dc.lft.to/lastmile_qr_scan", "ios": "https://dc.lft.to/lastmile_qr_scan"}, "type": "electric_scooter", "lat": 38.9141435, "is_reserved": 0, "fusion_lat": 0.0}, {"bike_id": "d583fff30ad619e754774925209bed8d", "fusion_lon": 0.0, "lon": -77.0271905, "name": "d583fff30ad619e754774925209bed8d", "is_disabled": 0, "rental_uris": {"android": "https://dc.lft.to/lastmile_qr_scan", "ios": "https://dc.lft.to/lastmile_qr_scan"}, "type": "electric_scooter", "lat": 38.91692283333333, "is_reserved": 0, "fusion_lat": 0.0}, {"bike_id": "686e5aa1db5b899ea7e3b86233806b91", "fusion_lon": 0.0, "lon": -77.03444083333333, "name": "686e5aa1db5b899ea7e3b86233806b91", "is_disabled": 0, "rental_uris": {"android": "https://dc.lft.to/lastmile_qr_scan", "ios": "https://dc.lft.to/lastmile_qr_scan"}, "type": "electric_scooter", "lat": 38.907276, "is_reserved": 0, "fusion_lat": 0.0}, {"bike_id": "8935116350c9fdf6625c6d25cbbd2ffe", "fusion_lon": 0.0, "lon": -77.04014583333333, "name": "8935116350c9fdf6625c6d25cbbd2ffe", "is_disabled": 0, "rental_uris": {"android": "https://dc.lft.to/lastmile_qr_scan", "ios": "https://dc.lft.to/lastmile_qr_scan"}, "type": "electric_scooter", "lat": 38.918210333333334, "is_reserved": 0, "fusion_lat": 0.0}, {"bike_id": "54e243f81e174b99a48b380ab3d93bcb", "fusion_lon": 0.0, "lon": -77.033932, "name": "54e243f81e174b99a48b380ab3d93bcb", "is_disabled": 0, "rental_uris": {"android": "https://dc.lft.to/lastmile_qr_scan", "ios": "https://dc.lft.to/lastmile_qr_scan"}, "type": "electric_scooter", "lat": 38.919704833333334, "is_reserved": 0, "fusion_lat": 0.0}, {"bike_id": "3dd783efe02f75c2a0a526498aea0336", "fusion_lon": 0.0, "lon": -77.0249165, "name": "3dd783efe02f75c2a0a526498aea0336", "is_disabled": 0, "rental_uris": {"android": "https://dc.lft.to/lastmile_qr_scan", "ios": "https://dc.lft.to/lastmile_qr_scan"}, "type": "electric_scooter", "lat": 38.941817, "is_reserved": 0, "fusion_lat": 0.0}, {"bike_id": "01a989acd13dbbbfd5380d41c77b4ff0", "fusion_lon": 0.0, "lon": -77.03295716666666, "name": "01a989acd13dbbbfd5380d41c77b4ff0", "is_disabled": 0, "rental_uris": {"android": "https://dc.lft.to/lastmile_qr_scan", "ios": "https://dc.lft.to/lastmile_qr_scan"}, "type": "electric_scooter", "lat": 38.947142666666664, "is_reserved": 0, "fusion_lat": 0.0}, {"bike_id": "c5ae973b5dc64585f7c65abb3d756169", "fusion_lon": 0.0, "lon": -77.04185066666666, "name": "c5ae973b5dc64585f7c65abb3d756169", "is_disabled": 0, "rental_uris": {"android": "https://dc.lft.to/lastmile_qr_scan", "ios": "https://dc.lft.to/lastmile_qr_scan"}, "type": "electric_scooter", "lat": 38.89288833333333, "is_reserved": 0, "fusion_lat": 0.0}, {"bike_id": "1d19ec19cc455f2e986ff4feea8933ea", "fusion_lon": 0.0, "lon": -77.0471885, "name": "1d19ec19cc455f2e986ff4feea8933ea", "is_disabled": 0, "rental_uris": {"android": "https://dc.lft.to/lastmile_qr_scan", "ios": "https://dc.lft.to/lastmile_qr_scan"}, "type": "electric_scooter", "lat": 38.92227283333333, "is_reserved": 0, "fusion_lat": 0.0}, {"bike_id": "8a5bcfd39dbf50cf0908ecc3d81d85d3", "fusion_lon": 0.0, "lon": -77.02384116666667, "name": "8a5bcfd39dbf50cf0908ecc3d81d85d3", "is_disabled": 0, "rental_uris": {"android": "https://dc.lft.to/lastmile_qr_scan", "ios": "https://dc.lft.to/lastmile_qr_scan"}, "type": "electric_scooter", "lat": 38.909547, "is_reserved": 0, "fusion_lat": 0.0}, {"bike_id": "2532e6d4de9e66473b5a14546ddd1e4a", "fusion_lon": 0.0, "lon": -76.997061, "name": "2532e6d4de9e66473b5a14546ddd1e4a", "is_disabled": 0, "rental_uris": {"android": "https://dc.lft.to/lastmile_qr_scan", "ios": "https://dc.lft.to/lastmile_qr_scan"}, "type": "electric_scooter", "lat": 38.84425183333333, "is_reserved": 0, "fusion_lat": 0.0}, {"bike_id": "27285a41f2e9698523707ee9f1333ecd", "fusion_lon": 0.0, "lon": -76.998717, "name": "27285a41f2e9698523707ee9f1333ecd", "is_disabled": 0, "rental_uris": {"android": "https://dc.lft.to/lastmile_qr_scan", "ios": "https://dc.lft.to/lastmile_qr_scan"}, "type": "electric_scooter", "lat": 38.90030983333333, "is_reserved": 0, "fusion_lat": 0.0}, {"bike_id": "cb13be09a3bd7e65949a4eede4016a2f", "fusion_lon": 0.0, "lon": -76.933496, "name": "cb13be09a3bd7e65949a4eede4016a2f", "is_disabled": 0, "rental_uris": {"android": "https://dc.lft.to/lastmile_qr_scan", "ios": "https://dc.lft.to/lastmile_qr_scan"}, "type": "electric_scooter", "lat": 38.89907933333333, "is_reserved": 0, "fusion_lat": 0.0}, {"bike_id": "5bf5cc17a33d32c02af3bf1d00152c8c", "fusion_lon": 0.0, "lon": -77.03463916666666, "name": "5bf5cc17a33d32c02af3bf1d00152c8c", "is_disabled": 0, "rental_uris": {"android": "https://dc.lft.to/lastmile_qr_scan", "ios": "https://dc.lft.to/lastmile_qr_scan"}, "type": "electric_scooter", "lat": 38.908035, "is_reserved": 0, "fusion_lat": 0.0}, {"bike_id": "3d162c51f9756a8e88a4d9f188c4f80c", "fusion_lon": 0.0, "lon": -77.04174383333333, "name": "3d162c51f9756a8e88a4d9f188c4f80c", "is_disabled": 0, "rental_uris": {"android": "https://dc.lft.to/lastmile_qr_scan", "ios": "https://dc.lft.to/lastmile_qr_scan"}, "type": "electric_scooter", "lat": 38.9185775, "is_reserved": 0, "fusion_lat": 0.0}, {"bike_id": "e7322f257cf5892adc09a35a73807438", "fusion_lon": 0.0, "lon": -77.02694383333333, "name": "e7322f257cf5892adc09a35a73807438", "is_disabled": 0, "rental_uris": {"android": "https://dc.lft.to/lastmile_qr_scan", "ios": "https://dc.lft.to/lastmile_qr_scan"}, "type": "electric_scooter", "lat": 38.91121366666667, "is_reserved": 0, "fusion_lat": 0.0}, {"bike_id": "a1ac0127fddc1d73606f97a4ab0e1a63", "fusion_lon": 0.0, "lon": -77.01766466666666, "name": "a1ac0127fddc1d73606f97a4ab0e1a63", "is_disabled": 0, "rental_uris": {"android": "https://dc.lft.to/lastmile_qr_scan", "ios": "https://dc.lft.to/lastmile_qr_scan"}, "type": "electric_scooter", "lat": 38.902647, "is_reserved": 0, "fusion_lat": 0.0}, {"bike_id": "3afc7fa3e63bd8db29b4c2f074647cc4", "fusion_lon": 0.0, "lon": -77.0433375, "name": "3afc7fa3e63bd8db29b4c2f074647cc4", "is_disabled": 0, "rental_uris": {"android": "https://dc.lft.to/lastmile_qr_scan", "ios": "https://dc.lft.to/lastmile_qr_scan"}, "type": "electric_scooter", "lat": 38.89223033333333, "is_reserved": 0, "fusion_lat": 0.0}, {"bike_id": "82fb061102701bd215dcdfc09ac40c8a", "fusion_lon": 0.0, "lon": -76.98075916666667, "name": "82fb061102701bd215dcdfc09ac40c8a", "is_disabled": 0, "rental_uris": {"android": "https://dc.lft.to/lastmile_qr_scan", "ios": "https://dc.lft.to/lastmile_qr_scan"}, "type": "electric_bike", "lat": 38.90171216666667, "is_reserved": 0, "fusion_lat": 0.0}, {"bike_id": "0c36c3354aa6a3261d7ceed6069e3770", "fusion_lon": 0.0, "lon": -77.03261916666666, "name": "0c36c3354aa6a3261d7ceed6069e3770", "is_disabled": 0, "rental_uris": {"android": "https://dc.lft.to/lastmile_qr_scan", "ios": "https://dc.lft.to/lastmile_qr_scan"}, "type": "electric_scooter", "lat": 38.937745166666666, "is_reserved": 0, "fusion_lat": 0.0}, {"bike_id": "97266eb21eaa7f7441095b11880af5e8", "fusion_lon": 0.0, "lon": -77.04835516666667, "name": "97266eb21eaa7f7441095b11880af5e8", "is_disabled": 0, "rental_uris": {"android": "https://dc.lft.to/lastmile_qr_scan", "ios": "https://dc.lft.to/lastmile_qr_scan"}, "type": "electric_scooter", "lat": 38.9103365, "is_reserved": 0, "fusion_lat": 0.0}, {"bike_id": "b80d098a5d875fa6c014735144dd5cb0", "fusion_lon": 0.0, "lon": -77.029823, "name": "b80d098a5d875fa6c014735144dd5cb0", "is_disabled": 0, "rental_uris": {"android": "https://dc.lft.to/lastmile_qr_scan", "ios": "https://dc.lft.to/lastmile_qr_scan"}, "type": "electric_scooter", "lat": 38.906149666666664, "is_reserved": 0, "fusion_lat": 0.0}, {"bike_id": "36120ccff931f7f0b30c08a90005f6dd", "fusion_lon": 0.0, "lon": -77.041395, "name": "36120ccff931f7f0b30c08a90005f6dd", "is_disabled": 0, "rental_uris": {"android": "https://dc.lft.to/lastmile_qr_scan", "ios": "https://dc.lft.to/lastmile_qr_scan"}, "type": "electric_scooter", "lat": 38.893486333333335, "is_reserved": 0, "fusion_lat": 0.0}, {"bike_id": "2f162e1708fc7a6c6bb6711960b7011f", "fusion_lon": 0.0, "lon": -76.99943716666667, "name": "2f162e1708fc7a6c6bb6711960b7011f", "is_disabled": 0, "rental_uris": {"android": "https://dc.lft.to/lastmile_qr_scan", "ios": "https://dc.lft.to/lastmile_qr_scan"}, "type": "electric_scooter", "lat": 38.842955, "is_reserved": 0, "fusion_lat": 0.0}, {"bike_id": "006f9a6ed36b6bb22814245cd983db9f", "fusion_lon": 0.0, "lon": -77.03436483333333, "name": "006f9a6ed36b6bb22814245cd983db9f", "is_disabled": 0, "rental_uris": {"android": "https://dc.lft.to/lastmile_qr_scan", "ios": "https://dc.lft.to/lastmile_qr_scan"}, "type": "electric_scooter", "lat": 38.90432783333333, "is_reserved": 0, "fusion_lat": 0.0}, {"bike_id": "4e5b3c3f1f8b63653bdef43eb801531d", "fusion_lon": 0.0, "lon": -77.032649, "name": "4e5b3c3f1f8b63653bdef43eb801531d", "is_disabled": 0, "rental_uris": {"android": "https://dc.lft.to/lastmile_qr_scan", "ios": "https://dc.lft.to/lastmile_qr_scan"}, "type": "electric_scooter", "lat": 38.9140345, "is_reserved": 0, "fusion_lat": 0.0}, {"bike_id": "af5dcaec0e77c62f42fba351094cca50", "fusion_lon": 0.0, "lon": -76.981143, "name": "af5dcaec0e77c62f42fba351094cca50", "is_disabled": 0, "rental_uris": {"android": "https://dc.lft.to/lastmile_qr_scan", "ios": "https://dc.lft.to/lastmile_qr_scan"}, "type": "electric_bike", "lat": 38.91474, "is_reserved": 0, "fusion_lat": 0.0}, {"bike_id": "3c6424da9cbb66f1b6c7d5b8ce020d52", "fusion_lon": 0.0, "lon": -77.04194833333334, "name": "3c6424da9cbb66f1b6c7d5b8ce020d52", "is_disabled": 0, "rental_uris": {"android": "https://dc.lft.to/lastmile_qr_scan", "ios": "https://dc.lft.to/lastmile_qr_scan"}, "type": "electric_scooter", "lat": 38.926209, "is_reserved": 0, "fusion_lat": 0.0}, {"bike_id": "470cab983abc643d0711f2c449f4f1b0", "fusion_lon": 0.0, "lon": -76.91157966666667, "name": "470cab983abc643d0711f2c449f4f1b0", "is_disabled": 0, "rental_uris": {"android": "https://dc.lft.to/lastmile_qr_scan", "ios": "https://dc.lft.to/lastmile_qr_scan"}, "type": "electric_scooter", "lat": 38.894101166666665, "is_reserved": 0, "fusion_lat": 0.0}, {"bike_id": "ed8dc63d7af50cb4fb256cdc1a840daf", "fusion_lon": 0.0, "lon": -77.0032805, "name": "ed8dc63d7af50cb4fb256cdc1a840daf", "is_disabled": 0, "rental_uris": {"android": "https://dc.lft.to/lastmile_qr_scan", "ios": "https://dc.lft.to/lastmile_qr_scan"}, "type": "electric_scooter", "lat": 38.9026065, "is_reserved": 0, "fusion_lat": 0.0}, {"bike_id": "d1a2132febbfad2e361ba7881f44f6ac", "fusion_lon": 0.0, "lon": -77.02005466666667, "name": "d1a2132febbfad2e361ba7881f44f6ac", "is_disabled": 0, "rental_uris": {"android": "https://dc.lft.to/lastmile_qr_scan", "ios": "https://dc.lft.to/lastmile_qr_scan"}, "type": "electric_scooter", "lat": 38.91308633333333, "is_reserved": 0, "fusion_lat": 0.0}, {"bike_id": "e5fad066d206938d35aaa42f1dd985dd", "fusion_lon": 0.0, "lon": -77.022035, "name": "e5fad066d206938d35aaa42f1dd985dd", "is_disabled": 0, "rental_uris": {"android": "https://dc.lft.to/lastmile_qr_scan", "ios": "https://dc.lft.to/lastmile_qr_scan"}, "type": "electric_scooter", "lat": 38.9114645, "is_reserved": 0, "fusion_lat": 0.0}, {"bike_id": "821151b77ea972776b771fc17339cf89", "fusion_lon": 0.0, "lon": -77.040854, "name": "821151b77ea972776b771fc17339cf89", "is_disabled": 0, "rental_uris": {"android": "https://dc.lft.to/lastmile_qr_scan", "ios": "https://dc.lft.to/lastmile_qr_scan"}, "type": "electric_scooter", "lat": 38.916970666666664, "is_reserved": 0, "fusion_lat": 0.0}, {"bike_id": "505ffd37cf304a4cd73186d1e6f1ad1d", "fusion_lon": 0.0, "lon": -77.05421633333333, "name": "505ffd37cf304a4cd73186d1e6f1ad1d", "is_disabled": 0, "rental_uris": {"android": "https://dc.lft.to/lastmile_qr_scan", "ios": "https://dc.lft.to/lastmile_qr_scan"}, "type": "electric_scooter", "lat": 38.902522, "is_reserved": 0, "fusion_lat": 0.0}, {"bike_id": "5262b8cbef15f068bb99290962512753", "fusion_lon": 0.0, "lon": -77.024104, "name": "5262b8cbef15f068bb99290962512753", "is_disabled": 0, "rental_uris": {"android": "https://dc.lft.to/lastmile_qr_scan", "ios": "https://dc.lft.to/lastmile_qr_scan"}, "type": "electric_scooter", "lat": 38.897208, "is_reserved": 0, "fusion_lat": 0.0}, {"bike_id": "2b77b9df6cc8b7061e9787fa4cffe16c", "fusion_lon": 0.0, "lon": -77.05139933333334, "name": "2b77b9df6cc8b7061e9787fa4cffe16c", "is_disabled": 0, "rental_uris": {"android": "https://dc.lft.to/lastmile_qr_scan", "ios": "https://dc.lft.to/lastmile_qr_scan"}, "type": "electric_scooter", "lat": 38.9054775, "is_reserved": 0, "fusion_lat": 0.0}, {"bike_id": "6d43e0c2943794bc35aa121f105d921b", "fusion_lon": 0.0, "lon": -77.03229766666666, "name": "6d43e0c2943794bc35aa121f105d921b", "is_disabled": 0, "rental_uris": {"android": "https://dc.lft.to/lastmile_qr_scan", "ios": "https://dc.lft.to/lastmile_qr_scan"}, "type": "electric_scooter", "lat": 38.91405733333333, "is_reserved": 0, "fusion_lat": 0.0}, {"bike_id": "b95720562b1d996f5d07883b83dd45a6", "fusion_lon": 0.0, "lon": -77.03241733333333, "name": "b95720562b1d996f5d07883b83dd45a6", "is_disabled": 0, "rental_uris": {"android": "https://dc.lft.to/lastmile_qr_scan", "ios": "https://dc.lft.to/lastmile_qr_scan"}, "type": "electric_scooter", "lat": 38.927603500000004, "is_reserved": 0, "fusion_lat": 0.0}, {"bike_id": "f2e6a33a3c00faa71c9a7d00f6057b0e", "fusion_lon": 0.0, "lon": -77.00198683333333, "name": "f2e6a33a3c00faa71c9a7d00f6057b0e", "is_disabled": 0, "rental_uris": {"android": "https://dc.lft.to/lastmile_qr_scan", "ios": "https://dc.lft.to/lastmile_qr_scan"}, "type": "electric_scooter", "lat": 38.90243983333333, "is_reserved": 0, "fusion_lat": 0.0}, {"bike_id": "0119b9918b91e81968bf148a851f43ea", "fusion_lon": 0.0, "lon": -77.03344466666667, "name": "0119b9918b91e81968bf148a851f43ea", "is_disabled": 0, "rental_uris": {"android": "https://dc.lft.to/lastmile_qr_scan", "ios": "https://dc.lft.to/lastmile_qr_scan"}, "type": "electric_scooter", "lat": 38.898330666666666, "is_reserved": 0, "fusion_lat": 0.0}, {"bike_id": "af2ef59a21028d78f075b970ee4a2166", "fusion_lon": 0.0, "lon": -77.03110983333333, "name": "af2ef59a21028d78f075b970ee4a2166", "is_disabled": 0, "rental_uris": {"android": "https://dc.lft.to/lastmile_qr_scan", "ios": "https://dc.lft.to/lastmile_qr_scan"}, "type": "electric_scooter", "lat": 38.91692183333333, "is_reserved": 0, "fusion_lat": 0.0}, {"bike_id": "e21ab9386025cbd78d74a5a19975de7f", "fusion_lon": 0.0, "lon": -77.0252245, "name": "e21ab9386025cbd78d74a5a19975de7f", "is_disabled": 0, "rental_uris": {"android": "https://dc.lft.to/lastmile_qr_scan", "ios": "https://dc.lft.to/lastmile_qr_scan"}, "type": "electric_scooter", "lat": 38.9148575, "is_reserved": 0, "fusion_lat": 0.0}, {"bike_id": "343203c2a90a444e320d329b1f9a2327", "fusion_lon": 0.0, "lon": -77.02692, "name": "343203c2a90a444e320d329b1f9a2327", "is_disabled": 0, "rental_uris": {"android": "https://dc.lft.to/lastmile_qr_scan", "ios": "https://dc.lft.to/lastmile_qr_scan"}, "type": "electric_scooter", "lat": 38.906768666666665, "is_reserved": 0, "fusion_lat": 0.0}, {"bike_id": "ca4bacc85f0c3aff59a343dea667154c", "fusion_lon": 0.0, "lon": -77.02307133333333, "name": "ca4bacc85f0c3aff59a343dea667154c", "is_disabled": 0, "rental_uris": {"android": "https://dc.lft.to/lastmile_qr_scan", "ios": "https://dc.lft.to/lastmile_qr_scan"}, "type": "electric_scooter", "lat": 38.896675333333334, "is_reserved": 0, "fusion_lat": 0.0}, {"bike_id": "5f22215d2bfe3ab728379c9dd61cda1e", "fusion_lon": 0.0, "lon": -77.22215483333333, "name": "5f22215d2bfe3ab728379c9dd61cda1e", "is_disabled": 0, "rental_uris": {"android": "https://dc.lft.to/lastmile_qr_scan", "ios": "https://dc.lft.to/lastmile_qr_scan"}, "type": "electric_bike", "lat": 38.92855766666667, "is_reserved": 0, "fusion_lat": 0.0}, {"bike_id": "54dafae7e271487dc28c8051676c614e", "fusion_lon": 0.0, "lon": -76.97892883333333, "name": "54dafae7e271487dc28c8051676c614e", "is_disabled": 0, "rental_uris": {"android": "https://dc.lft.to/lastmile_qr_scan", "ios": "https://dc.lft.to/lastmile_qr_scan"}, "type": "electric_bike", "lat": 38.915841, "is_reserved": 0, "fusion_lat": 0.0}, {"bike_id": "dc9a836345ba98e8ed69591ce4c18beb", "fusion_lon": 0.0, "lon": -77.1784135, "name": "dc9a836345ba98e8ed69591ce4c18beb", "is_disabled": 0, "rental_uris": {"android": "https://dc.lft.to/lastmile_qr_scan", "ios": "https://dc.lft.to/lastmile_qr_scan"}, "type": "electric_bike", "lat": 39.0885265, "is_reserved": 0, "fusion_lat": 0.0}, {"bike_id": "c36c9e036b3e12a60b84c2b9dfbdbcb9", "fusion_lon": 0.0, "lon": -76.93990766666667, "name": "c36c9e036b3e12a60b84c2b9dfbdbcb9", "is_disabled": 0, "rental_uris": {"android": "https://dc.lft.to/lastmile_qr_scan", "ios": "https://dc.lft.to/lastmile_qr_scan"}, "type": "electric_scooter", "lat": 38.899796, "is_reserved": 0, "fusion_lat": 0.0}, {"bike_id": "6c3af72eb53b5defa626d197d08d2917", "fusion_lon": 0.0, "lon": -77.03196683333333, "name": "6c3af72eb53b5defa626d197d08d2917", "is_disabled": 0, "rental_uris": {"android": "https://dc.lft.to/lastmile_qr_scan", "ios": "https://dc.lft.to/lastmile_qr_scan"}, "type": "electric_scooter", "lat": 38.918149166666666, "is_reserved": 0, "fusion_lat": 0.0}, {"bike_id": "76e2faa3793e3244525dd2aebe60a7f0", "fusion_lon": 0.0, "lon": -77.03149616666667, "name": "76e2faa3793e3244525dd2aebe60a7f0", "is_disabled": 0, "rental_uris": {"android": "https://dc.lft.to/lastmile_qr_scan", "ios": "https://dc.lft.to/lastmile_qr_scan"}, "type": "electric_scooter", "lat": 38.92795866666667, "is_reserved": 0, "fusion_lat": 0.0}, {"bike_id": "b0bccfd250e28d428d7b76fe03cb3969", "fusion_lon": 0.0, "lon": -77.02841266666667, "name": "b0bccfd250e28d428d7b76fe03cb3969", "is_disabled": 0, "rental_uris": {"android": "https://dc.lft.to/lastmile_qr_scan", "ios": "https://dc.lft.to/lastmile_qr_scan"}, "type": "electric_bike", "lat": 38.93418283333333, "is_reserved": 0, "fusion_lat": 0.0}, {"bike_id": "d63a65fbb768cbc235433dc02b454dd6", "fusion_lon": 0.0, "lon": -76.96532483333333, "name": "d63a65fbb768cbc235433dc02b454dd6", "is_disabled": 0, "rental_uris": {"android": "https://dc.lft.to/lastmile_qr_scan", "ios": "https://dc.lft.to/lastmile_qr_scan"}, "type": "electric_bike", "lat": 38.874753166666665, "is_reserved": 0, "fusion_lat": 0.0}, {"bike_id": "683adc5285a15016a5a2e6d66168f7dd", "fusion_lon": 0.0, "lon": -77.01110833333334, "name": "683adc5285a15016a5a2e6d66168f7dd", "is_disabled": 0, "rental_uris": {"android": "https://dc.lft.to/lastmile_qr_scan", "ios": "https://dc.lft.to/lastmile_qr_scan"}, "type": "electric_scooter", "lat": 38.89530666666667, "is_reserved": 0, "fusion_lat": 0.0}, {"bike_id": "37788dbeb6bff49eb900c15351cf7b77", "fusion_lon": 0.0, "lon": -77.012237, "name": "37788dbeb6bff49eb900c15351cf7b77", "is_disabled": 0, "rental_uris": {"android": "https://dc.lft.to/lastmile_qr_scan", "ios": "https://dc.lft.to/lastmile_qr_scan"}, "type": "electric_scooter", "lat": 38.91528616666667, "is_reserved": 0, "fusion_lat": 0.0}, {"bike_id": "e3df17b2ca3ca4225736053b90512725", "fusion_lon": 0.0, "lon": -77.03580733333334, "name": "e3df17b2ca3ca4225736053b90512725", "is_disabled": 0, "rental_uris": {"android": "https://dc.lft.to/lastmile_qr_scan", "ios": "https://dc.lft.to/lastmile_qr_scan"}, "type": "electric_scooter", "lat": 38.934765, "is_reserved": 0, "fusion_lat": 0.0}, {"bike_id": "f443cf47d3103f0822eb3569807a34ec", "fusion_lon": 0.0, "lon": -77.03671033333333, "name": "f443cf47d3103f0822eb3569807a34ec", "is_disabled": 0, "rental_uris": {"android": "https://dc.lft.to/lastmile_qr_scan", "ios": "https://dc.lft.to/lastmile_qr_scan"}, "type": "electric_scooter", "lat": 38.930895666666665, "is_reserved": 0, "fusion_lat": 0.0}, {"bike_id": "7f3f21b3b3fb8e4e380042ff9114898a", "fusion_lon": 0.0, "lon": -77.02690833333334, "name": "7f3f21b3b3fb8e4e380042ff9114898a", "is_disabled": 0, "rental_uris": {"android": "https://dc.lft.to/lastmile_qr_scan", "ios": "https://dc.lft.to/lastmile_qr_scan"}, "type": "electric_scooter", "lat": 38.912664, "is_reserved": 0, "fusion_lat": 0.0}, {"bike_id": "2012a180593889ad62e8f2899c265fc7", "fusion_lon": 0.0, "lon": -77.02175983333333, "name": "2012a180593889ad62e8f2899c265fc7", "is_disabled": 0, "rental_uris": {"android": "https://dc.lft.to/lastmile_qr_scan", "ios": "https://dc.lft.to/lastmile_qr_scan"}, "type": "electric_scooter", "lat": 38.89889333333333, "is_reserved": 0, "fusion_lat": 0.0}, {"bike_id": "2e6a90e122b9a9bec460a2440d5655bd", "fusion_lon": 0.0, "lon": -77.022064, "name": "2e6a90e122b9a9bec460a2440d5655bd", "is_disabled": 0, "rental_uris": {"android": "https://dc.lft.to/lastmile_qr_scan", "ios": "https://dc.lft.to/lastmile_qr_scan"}, "type": "electric_scooter", "lat": 38.902032166666665, "is_reserved": 0, "fusion_lat": 0.0}, {"bike_id": "e87817c188c30ede85ec3a7ca8e27aab", "fusion_lon": 0.0, "lon": -76.98978433333333, "name": "e87817c188c30ede85ec3a7ca8e27aab", "is_disabled": 0, "rental_uris": {"android": "https://dc.lft.to/lastmile_qr_scan", "ios": "https://dc.lft.to/lastmile_qr_scan"}, "type": "electric_scooter", "lat": 38.864960333333336, "is_reserved": 0, "fusion_lat": 0.0}, {"bike_id": "b6e8da5aa464509aaa9e80ff71f89609", "fusion_lon": 0.0, "lon": -77.03861, "name": "b6e8da5aa464509aaa9e80ff71f89609", "is_disabled": 0, "rental_uris": {"android": "https://dc.lft.to/lastmile_qr_scan", "ios": "https://dc.lft.to/lastmile_qr_scan"}, "type": "electric_scooter", "lat": 38.93253883333333, "is_reserved": 0, "fusion_lat": 0.0}, {"bike_id": "77137d5d3effff5db0abe77a5f0f7a5b", "fusion_lon": 0.0, "lon": -77.04020016666666, "name": "77137d5d3effff5db0abe77a5f0f7a5b", "is_disabled": 0, "rental_uris": {"android": "https://dc.lft.to/lastmile_qr_scan", "ios": "https://dc.lft.to/lastmile_qr_scan"}, "type": "electric_scooter", "lat": 38.9216655, "is_reserved": 0, "fusion_lat": 0.0}, {"bike_id": "4c665ac7c5b1371b9d43802f20ffa580", "fusion_lon": 0.0, "lon": -77.00212233333333, "name": "4c665ac7c5b1371b9d43802f20ffa580", "is_disabled": 0, "rental_uris": {"android": "https://dc.lft.to/lastmile_qr_scan", "ios": "https://dc.lft.to/lastmile_qr_scan"}, "type": "electric_scooter", "lat": 38.920471166666665, "is_reserved": 0, "fusion_lat": 0.0}, {"bike_id": "f234c014776e6ae2ac80068398606baa", "fusion_lon": 0.0, "lon": -76.99515266666667, "name": "f234c014776e6ae2ac80068398606baa", "is_disabled": 0, "rental_uris": {"android": "https://dc.lft.to/lastmile_qr_scan", "ios": "https://dc.lft.to/lastmile_qr_scan"}, "type": "electric_scooter", "lat": 38.86253816666667, "is_reserved": 0, "fusion_lat": 0.0}, {"bike_id": "6d5e0785712055c2436047ca24f1f58c", "fusion_lon": 0.0, "lon": -77.00127133333334, "name": "6d5e0785712055c2436047ca24f1f58c", "is_disabled": 0, "rental_uris": {"android": "https://dc.lft.to/lastmile_qr_scan", "ios": "https://dc.lft.to/lastmile_qr_scan"}, "type": "electric_scooter", "lat": 38.87792483333333, "is_reserved": 0, "fusion_lat": 0.0}, {"bike_id": "8745431434e6fc76c32c904a7ae975b2", "fusion_lon": 0.0, "lon": -77.04970083333333, "name": "8745431434e6fc76c32c904a7ae975b2", "is_disabled": 0, "rental_uris": {"android": "https://dc.lft.to/lastmile_qr_scan", "ios": "https://dc.lft.to/lastmile_qr_scan"}, "type": "electric_bike", "lat": 38.832199833333334, "is_reserved": 0, "fusion_lat": 0.0}, {"bike_id": "4c8909347400547067a6634c698a49a0", "fusion_lon": 0.0, "lon": -77.00935066666666, "name": "4c8909347400547067a6634c698a49a0", "is_disabled": 0, "rental_uris": {"android": "https://dc.lft.to/lastmile_qr_scan", "ios": "https://dc.lft.to/lastmile_qr_scan"}, "type": "electric_scooter", "lat": 38.918094333333336, "is_reserved": 0, "fusion_lat": 0.0}, {"bike_id": "c6dd54ed0b3275819732bc4549e9fb50", "fusion_lon": 0.0, "lon": -77.03215833333333, "name": "c6dd54ed0b3275819732bc4549e9fb50", "is_disabled": 0, "rental_uris": {"android": "https://dc.lft.to/lastmile_qr_scan", "ios": "https://dc.lft.to/lastmile_qr_scan"}, "type": "electric_scooter", "lat": 38.915496833333336, "is_reserved": 0, "fusion_lat": 0.0}, {"bike_id": "94b4cf769c2cae0e17595ea990186031", "fusion_lon": 0.0, "lon": -77.10133983333333, "name": "94b4cf769c2cae0e17595ea990186031", "is_disabled": 0, "rental_uris": {"android": "https://dc.lft.to/lastmile_qr_scan", "ios": "https://dc.lft.to/lastmile_qr_scan"}, "type": "electric_bike", "lat": 38.852083, "is_reserved": 0, "fusion_lat": 0.0}, {"bike_id": "2ecfee91a18f49f54d6182775c003365", "fusion_lon": 0.0, "lon": -77.02311033333334, "name": "2ecfee91a18f49f54d6182775c003365", "is_disabled": 0, "rental_uris": {"android": "https://dc.lft.to/lastmile_qr_scan", "ios": "https://dc.lft.to/lastmile_qr_scan"}, "type": "electric_scooter", "lat": 38.9096945, "is_reserved": 0, "fusion_lat": 0.0}, {"bike_id": "af9b869f1b66d932d7a46a1291170efb", "fusion_lon": 0.0, "lon": -76.93185033333333, "name": "af9b869f1b66d932d7a46a1291170efb", "is_disabled": 0, "rental_uris": {"android": "https://dc.lft.to/lastmile_qr_scan", "ios": "https://dc.lft.to/lastmile_qr_scan"}, "type": "electric_scooter", "lat": 38.89874533333333, "is_reserved": 0, "fusion_lat": 0.0}, {"bike_id": "72bbed11a5ac5baeeb7ca8dc5bd9111f", "fusion_lon": 0.0, "lon": -77.0241835, "name": "72bbed11a5ac5baeeb7ca8dc5bd9111f", "is_disabled": 0, "rental_uris": {"android": "https://dc.lft.to/lastmile_qr_scan", "ios": "https://dc.lft.to/lastmile_qr_scan"}, "type": "electric_scooter", "lat": 38.921918166666664, "is_reserved": 0, "fusion_lat": 0.0}, {"bike_id": "b3555634a038381ac2b0cb848faa3fd6", "fusion_lon": 0.0, "lon": -77.02183816666667, "name": "b3555634a038381ac2b0cb848faa3fd6", "is_disabled": 0, "rental_uris": {"android": "https://dc.lft.to/lastmile_qr_scan", "ios": "https://dc.lft.to/lastmile_qr_scan"}, "type": "electric_scooter", "lat": 38.914220666666665, "is_reserved": 0, "fusion_lat": 0.0}, {"bike_id": "e3ac2f44a59be4f0c31567c652121cc4", "fusion_lon": 0.0, "lon": -76.965381, "name": "e3ac2f44a59be4f0c31567c652121cc4", "is_disabled": 0, "rental_uris": {"android": "https://dc.lft.to/lastmile_qr_scan", "ios": "https://dc.lft.to/lastmile_qr_scan"}, "type": "electric_scooter", "lat": 38.9184125, "is_reserved": 0, "fusion_lat": 0.0}, {"bike_id": "f8b836623a7b1c7dabfaa3c73cd297b5", "fusion_lon": 0.0, "lon": -77.034622, "name": "f8b836623a7b1c7dabfaa3c73cd297b5", "is_disabled": 0, "rental_uris": {"android": "https://dc.lft.to/lastmile_qr_scan", "ios": "https://dc.lft.to/lastmile_qr_scan"}, "type": "electric_scooter", "lat": 38.90869633333333, "is_reserved": 0, "fusion_lat": 0.0}, {"bike_id": "3ce1e0942946c2eb1f8073df81579b61", "fusion_lon": 0.0, "lon": -77.02370683333334, "name": "3ce1e0942946c2eb1f8073df81579b61", "is_disabled": 0, "rental_uris": {"android": "https://dc.lft.to/lastmile_qr_scan", "ios": "https://dc.lft.to/lastmile_qr_scan"}, "type": "electric_scooter", "lat": 38.89218266666666, "is_reserved": 0, "fusion_lat": 0.0}, {"bike_id": "7f3beb2d9d73e9465c4abf555cf1504c", "fusion_lon": 0.0, "lon": -77.007327, "name": "7f3beb2d9d73e9465c4abf555cf1504c", "is_disabled": 0, "rental_uris": {"android": "https://dc.lft.to/lastmile_qr_scan", "ios": "https://dc.lft.to/lastmile_qr_scan"}, "type": "electric_scooter", "lat": 38.898323500000004, "is_reserved": 0, "fusion_lat": 0.0}, {"bike_id": "09dd7f0e4d439cbc93cdde7f32ad0069", "fusion_lon": 0.0, "lon": -77.02904216666667, "name": "09dd7f0e4d439cbc93cdde7f32ad0069", "is_disabled": 0, "rental_uris": {"android": "https://dc.lft.to/lastmile_qr_scan", "ios": "https://dc.lft.to/lastmile_qr_scan"}, "type": "electric_scooter", "lat": 38.925703166666665, "is_reserved": 0, "fusion_lat": 0.0}, {"bike_id": "23baa075e899254f87c3f3a6b46a6c4e", "fusion_lon": 0.0, "lon": -77.04098166666667, "name": "23baa075e899254f87c3f3a6b46a6c4e", "is_disabled": 0, "rental_uris": {"android": "https://dc.lft.to/lastmile_qr_scan", "ios": "https://dc.lft.to/lastmile_qr_scan"}, "type": "electric_scooter", "lat": 38.90507016666667, "is_reserved": 0, "fusion_lat": 0.0}, {"bike_id": "ad48af94671c9ec2de4c2ad52e30dee9", "fusion_lon": 0.0, "lon": -77.0007195, "name": "ad48af94671c9ec2de4c2ad52e30dee9", "is_disabled": 0, "rental_uris": {"android": "https://dc.lft.to/lastmile_qr_scan", "ios": "https://dc.lft.to/lastmile_qr_scan"}, "type": "electric_scooter", "lat": 38.925493833333334, "is_reserved": 0, "fusion_lat": 0.0}, {"bike_id": "5c56ed57a4a92e71a51cefcde6889795", "fusion_lon": 0.0, "lon": -77.0418195, "name": "5c56ed57a4a92e71a51cefcde6889795", "is_disabled": 0, "rental_uris": {"android": "https://dc.lft.to/lastmile_qr_scan", "ios": "https://dc.lft.to/lastmile_qr_scan"}, "type": "electric_scooter", "lat": 38.920516, "is_reserved": 0, "fusion_lat": 0.0}, {"bike_id": "12360fef1f63da2e559516b643585171", "fusion_lon": 0.0, "lon": -77.03440933333333, "name": "12360fef1f63da2e559516b643585171", "is_disabled": 0, "rental_uris": {"android": "https://dc.lft.to/lastmile_qr_scan", "ios": "https://dc.lft.to/lastmile_qr_scan"}, "type": "electric_scooter", "lat": 38.907490333333335, "is_reserved": 0, "fusion_lat": 0.0}, {"bike_id": "145f0b3534fe4482c8b8d6b6c94a9872", "fusion_lon": 0.0, "lon": -77.01801666666667, "name": "145f0b3534fe4482c8b8d6b6c94a9872", "is_disabled": 0, "rental_uris": {"android": "https://dc.lft.to/lastmile_qr_scan", "ios": "https://dc.lft.to/lastmile_qr_scan"}, "type": "electric_scooter", "lat": 38.90821283333333, "is_reserved": 0, "fusion_lat": 0.0}, {"bike_id": "4060100bf62926d2860c093f54698de6", "fusion_lon": 0.0, "lon": -77.0334545, "name": "4060100bf62926d2860c093f54698de6", "is_disabled": 0, "rental_uris": {"android": "https://dc.lft.to/lastmile_qr_scan", "ios": "https://dc.lft.to/lastmile_qr_scan"}, "type": "electric_scooter", "lat": 38.898377833333335, "is_reserved": 0, "fusion_lat": 0.0}, {"bike_id": "7c54da8d820c70c58f330e0576546f94", "fusion_lon": 0.0, "lon": -77.01654683333334, "name": "7c54da8d820c70c58f330e0576546f94", "is_disabled": 0, "rental_uris": {"android": "https://dc.lft.to/lastmile_qr_scan", "ios": "https://dc.lft.to/lastmile_qr_scan"}, "type": "electric_scooter", "lat": 38.915908, "is_reserved": 0, "fusion_lat": 0.0}, {"bike_id": "2802bc481f17bcc2f7915ecbb083b559", "fusion_lon": 0.0, "lon": -76.99086266666667, "name": "2802bc481f17bcc2f7915ecbb083b559", "is_disabled": 0, "rental_uris": {"android": "https://dc.lft.to/lastmile_qr_scan", "ios": "https://dc.lft.to/lastmile_qr_scan"}, "type": "electric_scooter", "lat": 38.92955466666667, "is_reserved": 0, "fusion_lat": 0.0}, {"bike_id": "6759e2c02e626b724d42b2938e9a3c77", "fusion_lon": 0.0, "lon": -77.0232805, "name": "6759e2c02e626b724d42b2938e9a3c77", "is_disabled": 0, "rental_uris": {"android": "https://dc.lft.to/lastmile_qr_scan", "ios": "https://dc.lft.to/lastmile_qr_scan"}, "type": "electric_scooter", "lat": 38.9270025, "is_reserved": 0, "fusion_lat": 0.0}, {"bike_id": "b62d99aba4aaf73cfc594fe7f3428c50", "fusion_lon": 0.0, "lon": -77.0350795, "name": "b62d99aba4aaf73cfc594fe7f3428c50", "is_disabled": 0, "rental_uris": {"android": "https://dc.lft.to/lastmile_qr_scan", "ios": "https://dc.lft.to/lastmile_qr_scan"}, "type": "electric_scooter", "lat": 38.9262995, "is_reserved": 0, "fusion_lat": 0.0}, {"bike_id": "3052b0cd0918089d404f72e00c6cd1d0", "fusion_lon": 0.0, "lon": -76.99859966666666, "name": "3052b0cd0918089d404f72e00c6cd1d0", "is_disabled": 0, "rental_uris": {"android": "https://dc.lft.to/lastmile_qr_scan", "ios": "https://dc.lft.to/lastmile_qr_scan"}, "type": "electric_scooter", "lat": 38.90016083333333, "is_reserved": 0, "fusion_lat": 0.0}, {"bike_id": "1ec9daaebe6e13c4f62a41d0a86eb8cf", "fusion_lon": 0.0, "lon": -76.98716033333334, "name": "1ec9daaebe6e13c4f62a41d0a86eb8cf", "is_disabled": 0, "rental_uris": {"android": "https://dc.lft.to/lastmile_qr_scan", "ios": "https://dc.lft.to/lastmile_qr_scan"}, "type": "electric_scooter", "lat": 38.86699133333333, "is_reserved": 0, "fusion_lat": 0.0}, {"bike_id": "9d1770e5dfbc6984e3f5459c887ad415", "fusion_lon": 0.0, "lon": -76.93544033333333, "name": "9d1770e5dfbc6984e3f5459c887ad415", "is_disabled": 0, "rental_uris": {"android": "https://dc.lft.to/lastmile_qr_scan", "ios": "https://dc.lft.to/lastmile_qr_scan"}, "type": "electric_bike", "lat": 38.9518275, "is_reserved": 0, "fusion_lat": 0.0}, {"bike_id": "344fc990a02200a1f068d5e49ee4fd40", "fusion_lon": 0.0, "lon": -77.02761183333334, "name": "344fc990a02200a1f068d5e49ee4fd40", "is_disabled": 0, "rental_uris": {"android": "https://dc.lft.to/lastmile_qr_scan", "ios": "https://dc.lft.to/lastmile_qr_scan"}, "type": "electric_scooter", "lat": 38.9072905, "is_reserved": 0, "fusion_lat": 0.0}, {"bike_id": "a6c334b459a62196ed55cfd05b629d5b", "fusion_lon": 0.0, "lon": -77.02209716666667, "name": "a6c334b459a62196ed55cfd05b629d5b", "is_disabled": 0, "rental_uris": {"android": "https://dc.lft.to/lastmile_qr_scan", "ios": "https://dc.lft.to/lastmile_qr_scan"}, "type": "electric_scooter", "lat": 38.87887116666667, "is_reserved": 0, "fusion_lat": 0.0}, {"bike_id": "c0401dd7769fac9b6b52e52d896d84bd", "fusion_lon": 0.0, "lon": -77.0340895, "name": "c0401dd7769fac9b6b52e52d896d84bd", "is_disabled": 0, "rental_uris": {"android": "https://dc.lft.to/lastmile_qr_scan", "ios": "https://dc.lft.to/lastmile_qr_scan"}, "type": "electric_scooter", "lat": 38.93068266666667, "is_reserved": 0, "fusion_lat": 0.0}, {"bike_id": "4ccc20c5d2982081d66a9131f4e3dca3", "fusion_lon": 0.0, "lon": -76.99763866666666, "name": "4ccc20c5d2982081d66a9131f4e3dca3", "is_disabled": 0, "rental_uris": {"android": "https://dc.lft.to/lastmile_qr_scan", "ios": "https://dc.lft.to/lastmile_qr_scan"}, "type": "electric_scooter", "lat": 38.887653, "is_reserved": 0, "fusion_lat": 0.0}, {"bike_id": "40e7ad4b1c0af06de41dacb6e0344353", "fusion_lon": 0.0, "lon": -77.00606883333333, "name": "40e7ad4b1c0af06de41dacb6e0344353", "is_disabled": 0, "rental_uris": {"android": "https://dc.lft.to/lastmile_qr_scan", "ios": "https://dc.lft.to/lastmile_qr_scan"}, "type": "electric_scooter", "lat": 38.90577066666667, "is_reserved": 0, "fusion_lat": 0.0}, {"bike_id": "0e41ff4817ffbb4d77cdcd4f62de863a", "fusion_lon": 0.0, "lon": -77.03719466666666, "name": "0e41ff4817ffbb4d77cdcd4f62de863a", "is_disabled": 0, "rental_uris": {"android": "https://dc.lft.to/lastmile_qr_scan", "ios": "https://dc.lft.to/lastmile_qr_scan"}, "type": "electric_scooter", "lat": 38.91808416666667, "is_reserved": 0, "fusion_lat": 0.0}, {"bike_id": "aaefdb5b8bd80e5eeca872a4f774e398", "fusion_lon": 0.0, "lon": -77.11851066666667, "name": "aaefdb5b8bd80e5eeca872a4f774e398", "is_disabled": 0, "rental_uris": {"android": "https://dc.lft.to/lastmile_qr_scan", "ios": "https://dc.lft.to/lastmile_qr_scan"}, "type": "electric_bike", "lat": 38.87732366666667, "is_reserved": 0, "fusion_lat": 0.0}, {"bike_id": "50dfb710b24ef8cf9fb70a06d6b80d6d", "fusion_lon": 0.0, "lon": -77.02762383333334, "name": "50dfb710b24ef8cf9fb70a06d6b80d6d", "is_disabled": 0, "rental_uris": {"android": "https://dc.lft.to/lastmile_qr_scan", "ios": "https://dc.lft.to/lastmile_qr_scan"}, "type": "electric_scooter", "lat": 38.907267166666664, "is_reserved": 0, "fusion_lat": 0.0}, {"bike_id": "1477b019a029f52078d2bd0b516242c8", "fusion_lon": 0.0, "lon": -77.01967283333333, "name": "1477b019a029f52078d2bd0b516242c8", "is_disabled": 0, "rental_uris": {"android": "https://dc.lft.to/lastmile_qr_scan", "ios": "https://dc.lft.to/lastmile_qr_scan"}, "type": "electric_scooter", "lat": 38.87838816666667, "is_reserved": 0, "fusion_lat": 0.0}, {"bike_id": "ed55ff6ec0215142b79ee097453b9fca", "fusion_lon": 0.0, "lon": -77.04902083333333, "name": "ed55ff6ec0215142b79ee097453b9fca", "is_disabled": 0, "rental_uris": {"android": "https://dc.lft.to/lastmile_qr_scan", "ios": "https://dc.lft.to/lastmile_qr_scan"}, "type": "electric_scooter", "lat": 38.889974333333335, "is_reserved": 0, "fusion_lat": 0.0}, {"bike_id": "342d137c1991a03e35aaafdb9de4d4b6", "fusion_lon": 0.0, "lon": -77.05993283333333, "name": "342d137c1991a03e35aaafdb9de4d4b6", "is_disabled": 0, "rental_uris": {"android": "https://dc.lft.to/lastmile_qr_scan", "ios": "https://dc.lft.to/lastmile_qr_scan"}, "type": "electric_scooter", "lat": 38.938251, "is_reserved": 0, "fusion_lat": 0.0}, {"bike_id": "494e39a3423586731e75d14201d48dcf", "fusion_lon": 0.0, "lon": -77.01536483333334, "name": "494e39a3423586731e75d14201d48dcf", "is_disabled": 0, "rental_uris": {"android": "https://dc.lft.to/lastmile_qr_scan", "ios": "https://dc.lft.to/lastmile_qr_scan"}, "type": "electric_scooter", "lat": 38.8874085, "is_reserved": 0, "fusion_lat": 0.0}, {"bike_id": "e1bab8a7663ebd6debc9812a37738db8", "fusion_lon": 0.0, "lon": -77.00822016666666, "name": "e1bab8a7663ebd6debc9812a37738db8", "is_disabled": 0, "rental_uris": {"android": "https://dc.lft.to/lastmile_qr_scan", "ios": "https://dc.lft.to/lastmile_qr_scan"}, "type": "electric_scooter", "lat": 38.91365533333333, "is_reserved": 0, "fusion_lat": 0.0}, {"bike_id": "911d23e001404f90e51094a0060ec138", "fusion_lon": 0.0, "lon": -77.0370025, "name": "911d23e001404f90e51094a0060ec138", "is_disabled": 0, "rental_uris": {"android": "https://dc.lft.to/lastmile_qr_scan", "ios": "https://dc.lft.to/lastmile_qr_scan"}, "type": "electric_scooter", "lat": 38.926084333333336, "is_reserved": 0, "fusion_lat": 0.0}, {"bike_id": "e82e3079460f71ba1f4ad29dbd9193c7", "fusion_lon": 0.0, "lon": -76.98572816666666, "name": "e82e3079460f71ba1f4ad29dbd9193c7", "is_disabled": 0, "rental_uris": {"android": "https://dc.lft.to/lastmile_qr_scan", "ios": "https://dc.lft.to/lastmile_qr_scan"}, "type": "electric_scooter", "lat": 38.906358833333336, "is_reserved": 0, "fusion_lat": 0.0},