{"data": {"bikes": [{"bike_id": "acf5a1752b7c9f220dc3543b97ba1aba", "lat": 38.9157445, "is_disabled": 0, "lon": -77.04618933333333, "fusion_lon": 0.0, "is_reserved": 0, "fusion_lat": 0.0, "rental_uris": {"android": "https://dc.lft.to/lastmile_qr_scan", "ios": "https://dc.lft.to/lastmile_qr_scan"}, "type": "electric_scooter", "name": "acf5a1752b7c9f220dc3543b97ba1aba"}, {"bike_id": "34702aa095619661d42a99735556c345", "lat": 38.901276, "is_disabled": 0, "lon": -77.03809016666666, "fusion_lon": 0.0, "is_reserved": 0, "fusion_lat": 0.0, "rental_uris": {"android": "https://dc.lft.to/lastmile_qr_scan", "ios": "https://dc.lft.to/lastmile_qr_scan"}, "type": "electric_scooter", "name": "34702aa095619661d42a99735556c345"}, {"bike_id": "08a8f6c6ba1e4f0a3929f103ce0a7c5c", "lat": 38.896028333333334, "is_disabled": 0, "lon": -77.054417, "fusion_lon": 0.0, "is_reserved": 0, "fusion_lat": 0.0, "rental_uris": {"android": "https://dc.lft.to/lastmile_qr_scan", "ios": "https://dc.lft.to/lastmile_qr_scan"}, "type": "electric_scooter", "name": "08a8f6c6ba1e4f0a3929f103ce0a7c5c"}, {"bike_id": "89ff9a9cc0aa18cc3082b32e685bcbd2", "lat": 38.91115166666667, "is_disabled": 0, "lon": -77.006054, "fusion_lon": 0.0, "is_reserved": 0, "fusion_lat": 0.0, "rental_uris": {"android": "https://dc.lft.to/lastmile_qr_scan", "ios": "https://dc.lft.to/lastmile_qr_scan"}, "type": "electric_scooter", "name": "89ff9a9cc0aa18cc3082b32e685bcbd2"}, {"bike_id": "4e089b44b5120b3505fcdd391d3a66f8", "lat": 38.92188766666666, "is_disabled": 0, "lon": -77.0320545, "fusion_lon": 0.0, "is_reserved": 0, "fusion_lat": 0.0, "rental_uris": {"android": "https://dc.lft.to/lastmile_qr_scan", "ios": "https://dc.lft.to/lastmile_qr_scan"}, "type": "electric_scooter", "name": "4e089b44b5120b3505fcdd391d3a66f8"}, {"bike_id": "353a021d34079ffef418af5786271f7a", "lat": 38.8972845, "is_disabled": 0, "lon": -77.04361033333333, "fusion_lon": 0.0, "is_reserved": 0, "fusion_lat": 0.0, "rental_uris": {"android": "https://dc.lft.to/lastmile_qr_scan", "ios": "https://dc.lft.to/lastmile_qr_scan"}, "type": "electric_scooter", "name": "353a021d34079ffef418af5786271f7a"}, {"bike_id": "59a30f3ad100f93ad18bd3efdfe0c908", "lat": 38.91815533333333, "is_disabled": 0, "lon": -77.02479133333334, "fusion_lon": 0.0, "is_reserved": 0, "fusion_lat": 0.0, "rental_uris": {"android": "https://dc.lft.to/lastmile_qr_scan", "ios": "https://dc.lft.to/lastmile_qr_scan"}, "type": "electric_scooter", "name": "59a30f3ad100f93ad18bd3efdfe0c908"}, {"bike_id": "c2697cd876a3724af4d88fddeb19b56c", "lat": 38.87694966666667, "is_disabled": 0, "lon": -77.018807, "fusion_lon": 0.0, "is_reserved": 0, "fusion_lat": 0.0, "rental_uris": {"android": "https://dc.lft.to/lastmile_qr_scan", "ios": "https://dc.lft.to/lastmile_qr_scan"}, "type": "electric_scooter", "name": "c2697cd876a3724af4d88fddeb19b56c"}, {"bike_id": "a8017f3e3289bf88eb57e3f8339c7054", "lat": 38.850891, "is_disabled": 0, "lon": -76.95707483333334, "fusion_lon": 0.0, "is_reserved": 0, "fusion_lat": 0.0, "rental_uris": {"android": "https://dc.lft.to/lastmile_qr_scan", "ios": "https://dc.lft.to/lastmile_qr_scan"}, "type": "electric_bike", "name": "a8017f3e3289bf88eb57e3f8339c7054"}, {"bike_id": "b334b5dee4a8d04af5ae43831ae8cfae", "lat": 38.926103166666664, "is_disabled": 0, "lon": -77.02155066666667, "fusion_lon": 0.0, "is_reserved": 0, "fusion_lat": 0.0, "rental_uris": {"android": "https://dc.lft.to/lastmile_qr_scan", "ios": "https://dc.lft.to/lastmile_qr_scan"}, "type": "electric_scooter", "name": "b334b5dee4a8d04af5ae43831ae8cfae"}, {"bike_id": "07c153d9ac0bff2c61dea9aa46675658", "lat": 38.905478, "is_disabled": 0, "lon": -77.00814683333333, "fusion_lon": 0.0, "is_reserved": 0, "fusion_lat": 0.0, "rental_uris": {"android": "https://dc.lft.to/lastmile_qr_scan", "ios": "https://dc.lft.to/lastmile_qr_scan"}, "type": "electric_scooter", "name": "07c153d9ac0bff2c61dea9aa46675658"}, {"bike_id": "feced6e3ce712606c51f9701d015e55b", "lat": 38.92109083333333, "is_disabled": 0, "lon": -77.02086633333333, "fusion_lon": 0.0, "is_reserved": 0, "fusion_lat": 0.0, "rental_uris": {"android": "https://dc.lft.to/lastmile_qr_scan", "ios": "https://dc.lft.to/lastmile_qr_scan"}, "type": "electric_scooter", "name": "feced6e3ce712606c51f9701d015e55b"}, {"bike_id": "3dde72799bd3ced2d013a995eaf8813b", "lat": 38.913566, "is_disabled": 0, "lon": -77.023008, "fusion_lon": 0.0, "is_reserved": 0, "fusion_lat": 0.0, "rental_uris": {"android": "https://dc.lft.to/lastmile_qr_scan", "ios": "https://dc.lft.to/lastmile_qr_scan"}, "type": "electric_scooter", "name": "3dde72799bd3ced2d013a995eaf8813b"}, {"bike_id": "8dacbdf02db1826e4484abd12c02028c", "lat": 38.91006216666667, "is_disabled": 0, "lon": -77.03446766666667, "fusion_lon": 0.0, "is_reserved": 0, "fusion_lat": 0.0, "rental_uris": {"android": "https://dc.lft.to/lastmile_qr_scan", "ios": "https://dc.lft.to/lastmile_qr_scan"}, "type": "electric_scooter", "name": "8dacbdf02db1826e4484abd12c02028c"}, {"bike_id": "bd4d562c9a173bc8b80e3e8268bcda22", "lat": 38.899645, "is_disabled": 0, "lon": -77.02032916666667, "fusion_lon": 0.0, "is_reserved": 0, "fusion_lat": 0.0, "rental_uris": {"android": "https://dc.lft.to/lastmile_qr_scan", "ios": "https://dc.lft.to/lastmile_qr_scan"}, "type": "electric_scooter", "name": "bd4d562c9a173bc8b80e3e8268bcda22"}, {"bike_id": "6635cf5b649201b6ac9753b2453d2e02", "lat": 38.886441833333336, "is_disabled": 0, "lon": -77.02132816666666, "fusion_lon": 0.0, "is_reserved": 0, "fusion_lat": 0.0, "rental_uris": {"android": "https://dc.lft.to/lastmile_qr_scan", "ios": "https://dc.lft.to/lastmile_qr_scan"}, "type": "electric_scooter", "name": "6635cf5b649201b6ac9753b2453d2e02"}, {"bike_id": "c63abb86f566d223c89edc41494d1751", "lat": 38.918193, "is_disabled": 0, "lon": -77.0253535, "fusion_lon": 0.0, "is_reserved": 0, "fusion_lat": 0.0, "rental_uris": {"android": "https://dc.lft.to/lastmile_qr_scan", "ios": "https://dc.lft.to/lastmile_qr_scan"}, "type": "electric_scooter", "name": "c63abb86f566d223c89edc41494d1751"}, {"bike_id": "7731d050b756266ac3f242d9275f6964", "lat": 38.9810605, "is_disabled": 0, "lon": -77.00760783333334, "fusion_lon": 0.0, "is_reserved": 0, "fusion_lat": 0.0, "rental_uris": {"android": "https://dc.lft.to/lastmile_qr_scan", "ios": "https://dc.lft.to/lastmile_qr_scan"}, "type": "electric_bike", "name": "7731d050b756266ac3f242d9275f6964"}, {"bike_id": "1fad2cbca9a5b6f8b20f8317077cb3a7", "lat": 38.92658316666667, "is_disabled": 0, "lon": -77.09014583333334, "fusion_lon": 0.0, "is_reserved": 0, "fusion_lat": 0.0, "rental_uris": {"android": "https://dc.lft.to/lastmile_qr_scan", "ios": "https://dc.lft.to/lastmile_qr_scan"}, "type": "electric_bike", "name": "1fad2cbca9a5b6f8b20f8317077cb3a7"}, {"bike_id": "07edbae7908ca5dec6cf18a7529c12a6", "lat": 38.9112065, "is_disabled": 0, "lon": -77.032154, "fusion_lon": 0.0, "is_reserved": 0, "fusion_lat": 0.0, "rental_uris": {"android": "https://dc.lft.to/lastmile_qr_scan", "ios": "https://dc.lft.to/lastmile_qr_scan"}, "type": "electric_scooter", "name": "07edbae7908ca5dec6cf18a7529c12a6"}, {"bike_id": "c394747c3a1b0ffaafe51e58e5dd7b86", "lat": 38.923231, "is_disabled": 0, "lon": -77.01953966666666, "fusion_lon": 0.0, "is_reserved": 0, "fusion_lat": 0.0, "rental_uris": {"android": "https://dc.lft.to/lastmile_qr_scan", "ios": "https://dc.lft.to/lastmile_qr_scan"}, "type": "electric_scooter", "name": "c394747c3a1b0ffaafe51e58e5dd7b86"}, {"bike_id": "7bc738ce329dbf4b28e9fc17045af33c", "lat": 38.897693833333335, "is_disabled": 0, "lon": -77.02219166666667, "fusion_lon": 0.0, "is_reserved": 0, "fusion_lat": 0.0, "rental_uris": {"android": "https://dc.lft.to/lastmile_qr_scan", "ios": "https://dc.lft.to/lastmile_qr_scan"}, "type": "electric_scooter", "name": "7bc738ce329dbf4b28e9fc17045af33c"}, {"bike_id": "78917236a9ffac54dd94276f9e1ed206", "lat": 38.89733533333333, "is_disabled": 0, "lon": -77.02694166666667, "fusion_lon": 0.0, "is_reserved": 0, "fusion_lat": 0.0, "rental_uris": {"android": "https://dc.lft.to/lastmile_qr_scan", "ios": "https://dc.lft.to/lastmile_qr_scan"}, "type": "electric_scooter", "name": "78917236a9ffac54dd94276f9e1ed206"}, {"bike_id": "8247f0525451e193ccffb68b0155e6ea", "lat": 38.8932275, "is_disabled": 0, "lon": -77.02595816666667, "fusion_lon": 0.0, "is_reserved": 0, "fusion_lat": 0.0, "rental_uris": {"android": "https://dc.lft.to/lastmile_qr_scan", "ios": "https://dc.lft.to/lastmile_qr_scan"}, "type": "electric_scooter", "name": "8247f0525451e193ccffb68b0155e6ea"}, {"bike_id": "2fea18ae5b1f02c5a569d7382eaf464e", "lat": 38.91818116666666, "is_disabled": 0, "lon": -77.04523883333333, "fusion_lon": 0.0, "is_reserved": 0, "fusion_lat": 0.0, "rental_uris": {"android": "https://dc.lft.to/lastmile_qr_scan", "ios": "https://dc.lft.to/lastmile_qr_scan"}, "type": "electric_scooter", "name": "2fea18ae5b1f02c5a569d7382eaf464e"}, {"bike_id": "0c1929e1175b6ffefd3ffc5c37d74220", "lat": 38.938486833333336, "is_disabled": 0, "lon": -77.02836783333333, "fusion_lon": 0.0, "is_reserved": 0, "fusion_lat": 0.0, "rental_uris": {"android": "https://dc.lft.to/lastmile_qr_scan", "ios": "https://dc.lft.to/lastmile_qr_scan"}, "type": "electric_scooter", "name": "0c1929e1175b6ffefd3ffc5c37d74220"}, {"bike_id": "9d1d0e8f0785c777fd1e45a1f685750f", "lat": 38.892221, "is_disabled": 0, "lon": -77.04511566666666, "fusion_lon": 0.0, "is_reserved": 0, "fusion_lat": 0.0, "rental_uris": {"android": "https://dc.lft.to/lastmile_qr_scan", "ios": "https://dc.lft.to/lastmile_qr_scan"}, "type": "electric_scooter", "name": "9d1d0e8f0785c777fd1e45a1f685750f"}, {"bike_id": "5e2a0a2d28307ee521783642e710e5a6", "lat": 38.929676666666666, "is_disabled": 0, "lon": -77.03772733333334, "fusion_lon": 0.0, "is_reserved": 0, "fusion_lat": 0.0, "rental_uris": {"android": "https://dc.lft.to/lastmile_qr_scan", "ios": "https://dc.lft.to/lastmile_qr_scan"}, "type": "electric_scooter", "name": "5e2a0a2d28307ee521783642e710e5a6"}, {"bike_id": "0fc47daf34089801422f857471d8fde9", "lat": 38.91687, "is_disabled": 0, "lon": -76.99421383333333, "fusion_lon": 0.0, "is_reserved": 0, "fusion_lat": 0.0, "rental_uris": {"android": "https://dc.lft.to/lastmile_qr_scan", "ios": "https://dc.lft.to/lastmile_qr_scan"}, "type": "electric_scooter", "name": "0fc47daf34089801422f857471d8fde9"}, {"bike_id": "40d0bcf969795e0988aff0ba4ba6cb16", "lat": 38.8922075, "is_disabled": 0, "lon": -77.0419835, "fusion_lon": 0.0, "is_reserved": 0, "fusion_lat": 0.0, "rental_uris": {"android": "https://dc.lft.to/lastmile_qr_scan", "ios": "https://dc.lft.to/lastmile_qr_scan"}, "type": "electric_scooter", "name": "40d0bcf969795e0988aff0ba4ba6cb16"}, {"bike_id": "47237785ca8b9b3ea15bf7079e757621", "lat": 38.920002833333335, "is_disabled": 0, "lon": -77.025177, "fusion_lon": 0.0, "is_reserved": 0, "fusion_lat": 0.0, "rental_uris": {"android": "https://dc.lft.to/lastmile_qr_scan", "ios": "https://dc.lft.to/lastmile_qr_scan"}, "type": "electric_scooter", "name": "47237785ca8b9b3ea15bf7079e757621"}, {"bike_id": "0b823c987d5cf2bd6f848a75e7fc07b7", "lat": 38.9104465, "is_disabled": 0, "lon": -77.03836533333333, "fusion_lon": 0.0, "is_reserved": 0, "fusion_lat": 0.0, "rental_uris": {"android": "https://dc.lft.to/lastmile_qr_scan", "ios": "https://dc.lft.to/lastmile_qr_scan"}, "type": "electric_scooter", "name": "0b823c987d5cf2bd6f848a75e7fc07b7"}, {"bike_id": "ba0f5b09c80d1f2c49a0e34f2a280f12", "lat": 38.923429666666664, "is_disabled": 0, "lon": -77.018985, "fusion_lon": 0.0, "is_reserved": 0, "fusion_lat": 0.0, "rental_uris": {"android": "https://dc.lft.to/lastmile_qr_scan", "ios": "https://dc.lft.to/lastmile_qr_scan"}, "type": "electric_scooter", "name": "ba0f5b09c80d1f2c49a0e34f2a280f12"}, {"bike_id": "b3ea52d9a8bbae1d285652a440b0adba", "lat": 38.909120333333334, "is_disabled": 0, "lon": -77.048986, "fusion_lon": 0.0, "is_reserved": 0, "fusion_lat": 0.0, "rental_uris": {"android": "https://dc.lft.to/lastmile_qr_scan", "ios": "https://dc.lft.to/lastmile_qr_scan"}, "type": "electric_scooter", "name": "b3ea52d9a8bbae1d285652a440b0adba"}, {"bike_id": "460bb86a85ed8d8169ed058bc22c3a54", "lat": 38.857838666666666, "is_disabled": 0, "lon": -76.97326616666666, "fusion_lon": 0.0, "is_reserved": 0, "fusion_lat": 0.0, "rental_uris": {"android": "https://dc.lft.to/lastmile_qr_scan", "ios": "https://dc.lft.to/lastmile_qr_scan"}, "type": "electric_bike", "name": "460bb86a85ed8d8169ed058bc22c3a54"}, {"bike_id": "7c5de69b09236df49e2948c70472b7b9", "lat": 38.934256833333336, "is_disabled": 0, "lon": -77.044263, "fusion_lon": 0.0, "is_reserved": 0, "fusion_lat": 0.0, "rental_uris": {"android": "https://dc.lft.to/lastmile_qr_scan", "ios": "https://dc.lft.to/lastmile_qr_scan"}, "type": "electric_scooter", "name": "7c5de69b09236df49e2948c70472b7b9"}, {"bike_id": "d3c09628174d904a4f0c14fa922d8b90", "lat": 38.921666, "is_disabled": 0, "lon": -77.022001, "fusion_lon": 0.0, "is_reserved": 0, "fusion_lat": 0.0, "rental_uris": {"android": "https://dc.lft.to/lastmile_qr_scan", "ios": "https://dc.lft.to/lastmile_qr_scan"}, "type": "electric_scooter", "name": "d3c09628174d904a4f0c14fa922d8b90"}, {"bike_id": "fdf0d70baf71fa4357013c6936b8614b", "lat": 38.900502333333336, "is_disabled": 0, "lon": -77.024139, "fusion_lon": 0.0, "is_reserved": 0, "fusion_lat": 0.0, "rental_uris": {"android": "https://dc.lft.to/lastmile_qr_scan", "ios": "https://dc.lft.to/lastmile_qr_scan"}, "type": "electric_scooter", "name": "fdf0d70baf71fa4357013c6936b8614b"}, {"bike_id": "45e0b6c6004cd9548b6b2f0c32ebee76", "lat": 38.87673816666667, "is_disabled": 0, "lon": -77.00936983333334, "fusion_lon": 0.0, "is_reserved": 0, "fusion_lat": 0.0, "rental_uris": {"android": "https://dc.lft.to/lastmile_qr_scan", "ios": "https://dc.lft.to/lastmile_qr_scan"}, "type": "electric_scooter", "name": "45e0b6c6004cd9548b6b2f0c32ebee76"}, {"bike_id": "b7996f89edbb5ac43cfac0a5cf68246b", "lat": 38.90974816666667, "is_disabled": 0, "lon": -76.99706583333334, "fusion_lon": 0.0, "is_reserved": 0, "fusion_lat": 0.0, "rental_uris": {"android": "https://dc.lft.to/lastmile_qr_scan", "ios": "https://dc.lft.to/lastmile_qr_scan"}, "type": "electric_scooter", "name": "b7996f89edbb5ac43cfac0a5cf68246b"}, {"bike_id": "4f9534be321fc579ede1d719369ef735", "lat": 38.88557483333334, "is_disabled": 0, "lon": -76.997942, "fusion_lon": 0.0, "is_reserved": 0, "fusion_lat": 0.0, "rental_uris": {"android": "https://dc.lft.to/lastmile_qr_scan", "ios": "https://dc.lft.to/lastmile_qr_scan"}, "type": "electric_scooter", "name": "4f9534be321fc579ede1d719369ef735"}, {"bike_id": "0977270c80f8bbc00af723627454b590", "lat": 38.862639333333334, "is_disabled": 0, "lon": -76.98349916666666, "fusion_lon": 0.0, "is_reserved": 0, "fusion_lat": 0.0, "rental_uris": {"android": "https://dc.lft.to/lastmile_qr_scan", "ios": "https://dc.lft.to/lastmile_qr_scan"}, "type": "electric_bike", "name": "0977270c80f8bbc00af723627454b590"}, {"bike_id": "090210e7e293aa5a2d103bc6cffdcd13", "lat": 38.89742716666667, "is_disabled": 0, "lon": -77.03972316666666, "fusion_lon": 0.0, "is_reserved": 0, "fusion_lat": 0.0, "rental_uris": {"android": "https://dc.lft.to/lastmile_qr_scan", "ios": "https://dc.lft.to/lastmile_qr_scan"}, "type": "electric_scooter", "name": "090210e7e293aa5a2d103bc6cffdcd13"}, {"bike_id": "14951b9dbd6295989c920687d94ad3c3", "lat": 38.905844, "is_disabled": 0, "lon": -77.04607, "fusion_lon": 0.0, "is_reserved": 0, "fusion_lat": 0.0, "rental_uris": {"android": "https://dc.lft.to/lastmile_qr_scan", "ios": "https://dc.lft.to/lastmile_qr_scan"}, "type": "electric_scooter", "name": "14951b9dbd6295989c920687d94ad3c3"}, {"bike_id": "0563d597e9f95acd235ace638ec3719e", "lat": 38.906573, "is_disabled": 0, "lon": -77.03858733333334, "fusion_lon": 0.0, "is_reserved": 0, "fusion_lat": 0.0, "rental_uris": {"android": "https://dc.lft.to/lastmile_qr_scan", "ios": "https://dc.lft.to/lastmile_qr_scan"}, "type": "electric_scooter", "name": "0563d597e9f95acd235ace638ec3719e"}, {"bike_id": "ac7b50f27986b32e1d083d6f7b9b77df", "lat": 38.86236183333333, "is_disabled": 0, "lon": -76.99592066666666, "fusion_lon": 0.0, "is_reserved": 0, "fusion_lat": 0.0, "rental_uris": {"android": "https://dc.lft.to/lastmile_qr_scan", "ios": "https://dc.lft.to/lastmile_qr_scan"}, "type": "electric_bike", "name": "ac7b50f27986b32e1d083d6f7b9b77df"}, {"bike_id": "e69b0af7ec1521e6a56be0a47e890e5e", "lat": 38.9176965, "is_disabled": 0, "lon": -77.02341266666667, "fusion_lon": 0.0, "is_reserved": 0, "fusion_lat": 0.0, "rental_uris": {"android": "https://dc.lft.to/lastmile_qr_scan", "ios": "https://dc.lft.to/lastmile_qr_scan"}, "type": "electric_scooter", "name": "e69b0af7ec1521e6a56be0a47e890e5e"}, {"bike_id": "946297b195e1f3357b61a86bccf4516d", "lat": 38.92028633333334, "is_disabled": 0, "lon": -77.02972733333333, "fusion_lon": 0.0, "is_reserved": 0, "fusion_lat": 0.0, "rental_uris": {"android": "https://dc.lft.to/lastmile_qr_scan", "ios": "https://dc.lft.to/lastmile_qr_scan"}, "type": "electric_scooter", "name": "946297b195e1f3357b61a86bccf4516d"}, {"bike_id": "b17cd544bf8626954eddd95790e3be51", "lat": 38.92257033333333, "is_disabled": 0, "lon": -77.02053916666667, "fusion_lon": 0.0, "is_reserved": 0, "fusion_lat": 0.0, "rental_uris": {"android": "https://dc.lft.to/lastmile_qr_scan", "ios": "https://dc.lft.to/lastmile_qr_scan"}, "type": "electric_scooter", "name": "b17cd544bf8626954eddd95790e3be51"}, {"bike_id": "d2df6d375da01dbf20dc5d918e564491", "lat": 38.917009666666665, "is_disabled": 0, "lon": -77.03328533333334, "fusion_lon": 0.0, "is_reserved": 0, "fusion_lat": 0.0, "rental_uris": {"android": "https://dc.lft.to/lastmile_qr_scan", "ios": "https://dc.lft.to/lastmile_qr_scan"}, "type": "electric_scooter", "name": "d2df6d375da01dbf20dc5d918e564491"}, {"bike_id": "c533dde0d28d52aadb6d25741f610fdb", "lat": 38.87785316666667, "is_disabled": 0, "lon": -76.99410316666666, "fusion_lon": 0.0, "is_reserved": 0, "fusion_lat": 0.0, "rental_uris": {"android": "https://dc.lft.to/lastmile_qr_scan", "ios": "https://dc.lft.to/lastmile_qr_scan"}, "type": "electric_scooter", "name": "c533dde0d28d52aadb6d25741f610fdb"}, {"bike_id": "65c402e6bc8ceea1eb1b73755db3ee6e", "lat": 38.892222833333335, "is_disabled": 0, "lon": -77.0278135, "fusion_lon": 0.0, "is_reserved": 0, "fusion_lat": 0.0, "rental_uris": {"android": "https://dc.lft.to/lastmile_qr_scan", "ios": "https://dc.lft.to/lastmile_qr_scan"}, "type": "electric_scooter", "name": "65c402e6bc8ceea1eb1b73755db3ee6e"}, {"bike_id": "cbbcff42ecd6ec821770ec774077af9d", "lat": 38.91145483333333, "is_disabled": 0, "lon": -77.04673466666667, "fusion_lon": 0.0, "is_reserved": 0, "fusion_lat": 0.0, "rental_uris": {"android": "https://dc.lft.to/lastmile_qr_scan", "ios": "https://dc.lft.to/lastmile_qr_scan"}, "type": "electric_scooter", "name": "cbbcff42ecd6ec821770ec774077af9d"}, {"bike_id": "2f07d7d75eb6f15ced78f3f98a84931b", "lat": 38.909986333333336, "is_disabled": 0, "lon": -77.04008033333334, "fusion_lon": 0.0, "is_reserved": 0, "fusion_lat": 0.0, "rental_uris": {"android": "https://dc.lft.to/lastmile_qr_scan", "ios": "https://dc.lft.to/lastmile_qr_scan"}, "type": "electric_scooter", "name": "2f07d7d75eb6f15ced78f3f98a84931b"}, {"bike_id": "a03838a501ae854baa26a0cd75ad1274", "lat": 38.90285016666667, "is_disabled": 0, "lon": -77.0357995, "fusion_lon": 0.0, "is_reserved": 0, "fusion_lat": 0.0, "rental_uris": {"android": "https://dc.lft.to/lastmile_qr_scan", "ios": "https://dc.lft.to/lastmile_qr_scan"}, "type": "electric_scooter", "name": "a03838a501ae854baa26a0cd75ad1274"}, {"bike_id": "ee27d50438e91db45653822aa4b31287", "lat": 38.903321166666665, "is_disabled": 0, "lon": -77.01085133333333, "fusion_lon": 0.0, "is_reserved": 0, "fusion_lat": 0.0, "rental_uris": {"android": "https://dc.lft.to/lastmile_qr_scan", "ios": "https://dc.lft.to/lastmile_qr_scan"}, "type": "electric_scooter", "name": "ee27d50438e91db45653822aa4b31287"}, {"bike_id": "5db6931597740e62179b8cf01825a221", "lat": 38.89255933333333, "is_disabled": 0, "lon": -77.04505266666666, "fusion_lon": 0.0, "is_reserved": 0, "fusion_lat": 0.0, "rental_uris": {"android": "https://dc.lft.to/lastmile_qr_scan", "ios": "https://dc.lft.to/lastmile_qr_scan"}, "type": "electric_scooter", "name": "5db6931597740e62179b8cf01825a221"}, {"bike_id": "4d63ea89655edfbdc27167cb0abf3790", "lat": 38.9105475, "is_disabled": 0, "lon": -77.0220855, "fusion_lon": 0.0, "is_reserved": 0, "fusion_lat": 0.0, "rental_uris": {"android": "https://dc.lft.to/lastmile_qr_scan", "ios": "https://dc.lft.to/lastmile_qr_scan"}, "type": "electric_scooter", "name": "4d63ea89655edfbdc27167cb0abf3790"}, {"bike_id": "d7fb84390e971e6e021d640adcf1fc59", "lat": 38.889869, "is_disabled": 0, "lon": -77.00328233333333, "fusion_lon": 0.0, "is_reserved": 0, "fusion_lat": 0.0, "rental_uris": {"android": "https://dc.lft.to/lastmile_qr_scan", "ios": "https://dc.lft.to/lastmile_qr_scan"}, "type": "electric_scooter", "name": "d7fb84390e971e6e021d640adcf1fc59"}, {"bike_id": "29a563acf669419dc16d4b0ecc55cad7", "lat": 38.937015, "is_disabled": 0, "lon": -77.05600166666666, "fusion_lon": 0.0, "is_reserved": 0, "fusion_lat": 0.0, "rental_uris": {"android": "https://dc.lft.to/lastmile_qr_scan", "ios": "https://dc.lft.to/lastmile_qr_scan"}, "type": "electric_scooter", "name": "29a563acf669419dc16d4b0ecc55cad7"}, {"bike_id": "4321a55500dc6d3b0c588262022eba83", "lat": 38.88775233333333, "is_disabled": 0, "lon": -77.03320433333333, "fusion_lon": 0.0, "is_reserved": 0, "fusion_lat": 0.0, "rental_uris": {"android": "https://dc.lft.to/lastmile_qr_scan", "ios": "https://dc.lft.to/lastmile_qr_scan"}, "type": "electric_scooter", "name": "4321a55500dc6d3b0c588262022eba83"}, {"bike_id": "cab5073d4cc09ce8565784c3d7df17c7", "lat": 38.94303216666667, "is_disabled": 0, "lon": -77.05936316666667, "fusion_lon": 0.0, "is_reserved": 0, "fusion_lat": 0.0, "rental_uris": {"android": "https://dc.lft.to/lastmile_qr_scan", "ios": "https://dc.lft.to/lastmile_qr_scan"}, "type": "electric_scooter", "name": "cab5073d4cc09ce8565784c3d7df17c7"}, {"bike_id": "4c1100bab69707f8f39bf8f843f1f5d8", "lat": 38.9241385, "is_disabled": 0, "lon": -76.9980105, "fusion_lon": 0.0, "is_reserved": 0, "fusion_lat": 0.0, "rental_uris": {"android": "https://dc.lft.to/lastmile_qr_scan", "ios": "https://dc.lft.to/lastmile_qr_scan"}, "type": "electric_scooter", "name": "4c1100bab69707f8f39bf8f843f1f5d8"}, {"bike_id": "0c74846dfe9ee119dd29de61d5e0fd91", "lat": 38.926719166666665, "is_disabled": 0, "lon": -76.99496683333334, "fusion_lon": 0.0, "is_reserved": 0, "fusion_lat": 0.0, "rental_uris": {"android": "https://dc.lft.to/lastmile_qr_scan", "ios": "https://dc.lft.to/lastmile_qr_scan"}, "type": "electric_scooter", "name": "0c74846dfe9ee119dd29de61d5e0fd91"}, {"bike_id": "6cd229530f44587327ed695a9ccc4c83", "lat": 38.873973, "is_disabled": 0, "lon": -76.9698295, "fusion_lon": 0.0, "is_reserved": 0, "fusion_lat": 0.0, "rental_uris": {"android": "https://dc.lft.to/lastmile_qr_scan", "ios": "https://dc.lft.to/lastmile_qr_scan"}, "type": "electric_scooter", "name": "6cd229530f44587327ed695a9ccc4c83"}, {"bike_id": "fe704b7836f39b1b0e21d8651ade9040", "lat": 38.9315005, "is_disabled": 0, "lon": -77.0319915, "fusion_lon": 0.0, "is_reserved": 0, "fusion_lat": 0.0, "rental_uris": {"android": "https://dc.lft.to/lastmile_qr_scan", "ios": "https://dc.lft.to/lastmile_qr_scan"}, "type": "electric_scooter", "name": "fe704b7836f39b1b0e21d8651ade9040"}, {"bike_id": "6d1f50e57a915a7ff1b3191b50dbb98a", "lat": 38.908628666666665, "is_disabled": 0, "lon": -77.0035545, "fusion_lon": 0.0, "is_reserved": 0, "fusion_lat": 0.0, "rental_uris": {"android": "https://dc.lft.to/lastmile_qr_scan", "ios": "https://dc.lft.to/lastmile_qr_scan"}, "type": "electric_scooter", "name": "6d1f50e57a915a7ff1b3191b50dbb98a"}, {"bike_id": "3a991ff157569c5d67d74bafc04107e6", "lat": 38.863313166666664, "is_disabled": 0, "lon": -76.98723816666667, "fusion_lon": 0.0, "is_reserved": 0, "fusion_lat": 0.0, "rental_uris": {"android": "https://dc.lft.to/lastmile_qr_scan", "ios": "https://dc.lft.to/lastmile_qr_scan"}, "type": "electric_bike", "name": "3a991ff157569c5d67d74bafc04107e6"}, {"bike_id": "ef9b8874cf62318a75271514d0c05fe6", "lat": 38.916123, "is_disabled": 0, "lon": -77.04665883333334, "fusion_lon": 0.0, "is_reserved": 0, "fusion_lat": 0.0, "rental_uris": {"android": "https://dc.lft.to/lastmile_qr_scan", "ios": "https://dc.lft.to/lastmile_qr_scan"}, "type": "electric_scooter", "name": "ef9b8874cf62318a75271514d0c05fe6"}, {"bike_id": "fb951d151ea6adf40bdffabd7264dee0", "lat": 38.912066833333334, "is_disabled": 0, "lon": -77.03839483333333, "fusion_lon": 0.0, "is_reserved": 0, "fusion_lat": 0.0, "rental_uris": {"android": "https://dc.lft.to/lastmile_qr_scan", "ios": "https://dc.lft.to/lastmile_qr_scan"}, "type": "electric_scooter", "name": "fb951d151ea6adf40bdffabd7264dee0"}, {"bike_id": "b7137d0c924944feb4967cd58dda8726", "lat": 38.906796666666665, "is_disabled": 0, "lon": -77.02696183333333, "fusion_lon": 0.0, "is_reserved": 0, "fusion_lat": 0.0, "rental_uris": {"android": "https://dc.lft.to/lastmile_qr_scan", "ios": "https://dc.lft.to/lastmile_qr_scan"}, "type": "electric_scooter", "name": "b7137d0c924944feb4967cd58dda8726"}, {"bike_id": "3cffdcc9974bc091f5d4dc3716e12d5f", "lat": 38.921133833333336, "is_disabled": 0, "lon": -77.04205433333334, "fusion_lon": 0.0, "is_reserved": 0, "fusion_lat": 0.0, "rental_uris": {"android": "https://dc.lft.to/lastmile_qr_scan", "ios": "https://dc.lft.to/lastmile_qr_scan"}, "type": "electric_scooter", "name": "3cffdcc9974bc091f5d4dc3716e12d5f"}, {"bike_id": "1b3e11fc9541de02d9707e3e0041f726", "lat": 38.91662383333333, "is_disabled": 0, "lon": -77.04382183333334, "fusion_lon": 0.0, "is_reserved": 0, "fusion_lat": 0.0, "rental_uris": {"android": "https://dc.lft.to/lastmile_qr_scan", "ios": "https://dc.lft.to/lastmile_qr_scan"}, "type": "electric_scooter", "name": "1b3e11fc9541de02d9707e3e0041f726"}, {"bike_id": "b73aa9d92c4ab40e7eaf6cc97673d9b4", "lat": 38.903067666666665, "is_disabled": 0, "lon": -76.97810983333333, "fusion_lon": 0.0, "is_reserved": 0, "fusion_lat": 0.0, "rental_uris": {"android": "https://dc.lft.to/lastmile_qr_scan", "ios": "https://dc.lft.to/lastmile_qr_scan"}, "type": "electric_scooter", "name": "b73aa9d92c4ab40e7eaf6cc97673d9b4"}, {"bike_id": "559734e6e2a5c109d8bb9a4dc30eeb4e", "lat": 38.89980416666667, "is_disabled": 0, "lon": -77.02121833333334, "fusion_lon": 0.0, "is_reserved": 0, "fusion_lat": 0.0, "rental_uris": {"android": "https://dc.lft.to/lastmile_qr_scan", "ios": "https://dc.lft.to/lastmile_qr_scan"}, "type": "electric_scooter", "name": "559734e6e2a5c109d8bb9a4dc30eeb4e"}, {"bike_id": "055b4196d9d6d56ccf063dfa14be9e23", "lat": 38.90409016666667, "is_disabled": 0, "lon": -76.9733385, "fusion_lon": 0.0, "is_reserved": 0, "fusion_lat": 0.0, "rental_uris": {"android": "https://dc.lft.to/lastmile_qr_scan", "ios": "https://dc.lft.to/lastmile_qr_scan"}, "type": "electric_scooter", "name": "055b4196d9d6d56ccf063dfa14be9e23"}, {"bike_id": "45309841019562d7da47f425c1961238", "lat": 38.837672833333336, "is_disabled": 0, "lon": -76.998361, "fusion_lon": 0.0, "is_reserved": 0, "fusion_lat": 0.0, "rental_uris": {"android": "https://dc.lft.to/lastmile_qr_scan", "ios": "https://dc.lft.to/lastmile_qr_scan"}, "type": "electric_scooter", "name": "45309841019562d7da47f425c1961238"}, {"bike_id": "e0f8bd14b7616890a9eeb15c8bcb5b3e", "lat": 38.9002205, "is_disabled": 0, "lon": -77.04653533333334, "fusion_lon": 0.0, "is_reserved": 0, "fusion_lat": 0.0, "rental_uris": {"android": "https://dc.lft.to/lastmile_qr_scan", "ios": "https://dc.lft.to/lastmile_qr_scan"}, "type": "electric_scooter", "name": "e0f8bd14b7616890a9eeb15c8bcb5b3e"}, {"bike_id": "a863960d03eecc062694234809836682", "lat": 38.926269166666664, "is_disabled": 0, "lon": -77.041992, "fusion_lon": 0.0, "is_reserved": 0, "fusion_lat": 0.0, "rental_uris": {"android": "https://dc.lft.to/lastmile_qr_scan", "ios": "https://dc.lft.to/lastmile_qr_scan"}, "type": "electric_scooter", "name": "a863960d03eecc062694234809836682"}, {"bike_id": "0cfc17341e664101926be64e0e25d8db", "lat": 38.90499416666667, "is_disabled": 0, "lon": -77.061229, "fusion_lon": 0.0, "is_reserved": 0, "fusion_lat": 0.0, "rental_uris": {"android": "https://dc.lft.to/lastmile_qr_scan", "ios": "https://dc.lft.to/lastmile_qr_scan"}, "type": "electric_scooter", "name": "0cfc17341e664101926be64e0e25d8db"}, {"bike_id": "9e2760e9fc73dbad7e07a6e219e7011c", "lat": 38.885168166666666, "is_disabled": 0, "lon": -77.02150416666667, "fusion_lon": 0.0, "is_reserved": 0, "fusion_lat": 0.0, "rental_uris": {"android": "https://dc.lft.to/lastmile_qr_scan", "ios": "https://dc.lft.to/lastmile_qr_scan"}, "type": "electric_scooter", "name": "9e2760e9fc73dbad7e07a6e219e7011c"}, {"bike_id": "22f4bd7ef2f35c8afbe72296bbb64890", "lat": 38.91497, "is_disabled": 0, "lon": -77.03211266666666, "fusion_lon": 0.0, "is_reserved": 0, "fusion_lat": 0.0, "rental_uris": {"android": "https://dc.lft.to/lastmile_qr_scan", "ios": "https://dc.lft.to/lastmile_qr_scan"}, "type": "electric_scooter", "name": "22f4bd7ef2f35c8afbe72296bbb64890"}, {"bike_id": "8aeee3ce89404c3458ff46509643736a", "lat": 38.90132766666667, "is_disabled": 0, "lon": -77.03247216666666, "fusion_lon": 0.0, "is_reserved": 0, "fusion_lat": 0.0, "rental_uris": {"android": "https://dc.lft.to/lastmile_qr_scan", "ios": "https://dc.lft.to/lastmile_qr_scan"}, "type": "electric_scooter", "name": "8aeee3ce89404c3458ff46509643736a"}, {"bike_id": "4547c3c1befabe9694253c27cb44a8c9", "lat": 38.956056833333335, "is_disabled": 0, "lon": -77.09028866666667, "fusion_lon": 0.0, "is_reserved": 0, "fusion_lat": 0.0, "rental_uris": {"android": "https://dc.lft.to/lastmile_qr_scan", "ios": "https://dc.lft.to/lastmile_qr_scan"}, "type": "electric_scooter", "name": "4547c3c1befabe9694253c27cb44a8c9"}, {"bike_id": "75a6104dfefa34fa3c8da940069c4667", "lat": 38.854555500000004, "is_disabled": 0, "lon": -76.97240483333333, "fusion_lon": 0.0, "is_reserved": 0, "fusion_lat": 0.0, "rental_uris": {"android": "https://dc.lft.to/lastmile_qr_scan", "ios": "https://dc.lft.to/lastmile_qr_scan"}, "type": "electric_scooter", "name": "75a6104dfefa34fa3c8da940069c4667"}, {"bike_id": "c2c0c77cf4055fbad0f8d6da7a4f38f5", "lat": 38.90101766666667, "is_disabled": 0, "lon": -77.02468716666667, "fusion_lon": 0.0, "is_reserved": 0, "fusion_lat": 0.0, "rental_uris": {"android": "https://dc.lft.to/lastmile_qr_scan", "ios": "https://dc.lft.to/lastmile_qr_scan"}, "type": "electric_scooter", "name": "c2c0c77cf4055fbad0f8d6da7a4f38f5"}, {"bike_id": "8eb9f28302c91cf0a0f7811a763d59e8", "lat": 38.89227316666667, "is_disabled": 0, "lon": -77.04368233333334, "fusion_lon": 0.0, "is_reserved": 0, "fusion_lat": 0.0, "rental_uris": {"android": "https://dc.lft.to/lastmile_qr_scan", "ios": "https://dc.lft.to/lastmile_qr_scan"}, "type": "electric_scooter", "name": "8eb9f28302c91cf0a0f7811a763d59e8"}, {"bike_id": "16e80c3b8c98927b0c0330f0d4fcf6b3", "lat": 38.81913516666667, "is_disabled": 0, "lon": -77.12654633333334, "fusion_lon": 0.0, "is_reserved": 0, "fusion_lat": 0.0, "rental_uris": {"android": "https://dc.lft.to/lastmile_qr_scan", "ios": "https://dc.lft.to/lastmile_qr_scan"}, "type": "electric_bike", "name": "16e80c3b8c98927b0c0330f0d4fcf6b3"}, {"bike_id": "0d3e73a10b92f0b47b147161807aa181", "lat": 38.91606616666667, "is_disabled": 0, "lon": -77.04631583333334, "fusion_lon": 0.0, "is_reserved": 0, "fusion_lat": 0.0, "rental_uris": {"android": "https://dc.lft.to/lastmile_qr_scan", "ios": "https://dc.lft.to/lastmile_qr_scan"}, "type": "electric_scooter", "name": "0d3e73a10b92f0b47b147161807aa181"}, {"bike_id": "39ceb1295bd10d3bb53e8e440b6faa96", "lat": 38.933029, "is_disabled": 0, "lon": -77.03589966666667, "fusion_lon": 0.0, "is_reserved": 0, "fusion_lat": 0.0, "rental_uris": {"android": "https://dc.lft.to/lastmile_qr_scan", "ios": "https://dc.lft.to/lastmile_qr_scan"}, "type": "electric_scooter", "name": "39ceb1295bd10d3bb53e8e440b6faa96"}, {"bike_id": "033159efbc777f059a6cb5dc8dde7b67", "lat": 38.927878, "is_disabled": 0, "lon": -77.03145383333333, "fusion_lon": 0.0, "is_reserved": 0, "fusion_lat": 0.0, "rental_uris": {"android": "https://dc.lft.to/lastmile_qr_scan", "ios": "https://dc.lft.to/lastmile_qr_scan"}, "type": "electric_scooter", "name": "033159efbc777f059a6cb5dc8dde7b67"}, {"bike_id": "6e3225b4e5d9d125e4c726aeddfbe424", "lat": 38.930647666666665, "is_disabled": 0, "lon": -77.0232085, "fusion_lon": 0.0, "is_reserved": 0, "fusion_lat": 0.0, "rental_uris": {"android": "https://dc.lft.to/lastmile_qr_scan", "ios": "https://dc.lft.to/lastmile_qr_scan"}, "type": "electric_scooter", "name": "6e3225b4e5d9d125e4c726aeddfbe424"}, {"bike_id": "ef10a6595f754a850b5f03d873b23bad", "lat": 38.914198999999996, "is_disabled": 0, "lon": -77.0323245, "fusion_lon": 0.0, "is_reserved": 0, "fusion_lat": 0.0, "rental_uris": {"android": "https://dc.lft.to/lastmile_qr_scan", "ios": "https://dc.lft.to/lastmile_qr_scan"}, "type": "electric_scooter", "name": "ef10a6595f754a850b5f03d873b23bad"}, {"bike_id": "2081da9eb324408a8267785fcf852cee", "lat": 38.866688333333336, "is_disabled": 0, "lon": -76.98371283333333, "fusion_lon": 0.0, "is_reserved": 0, "fusion_lat": 0.0, "rental_uris": {"android": "https://dc.lft.to/lastmile_qr_scan", "ios": "https://dc.lft.to/lastmile_qr_scan"}, "type": "electric_scooter", "name": "2081da9eb324408a8267785fcf852cee"}, {"bike_id": "61b5ed0bf615ac921f82f5539d85ced6", "lat": 38.936992333333336, "is_disabled": 0, "lon": -77.05597133333333, "fusion_lon": 0.0, "is_reserved": 0, "fusion_lat": 0.0, "rental_uris": {"android": "https://dc.lft.to/lastmile_qr_scan", "ios": "https://dc.lft.to/lastmile_qr_scan"}, "type": "electric_scooter", "name": "61b5ed0bf615ac921f82f5539d85ced6"}, {"bike_id": "e590153040ccdfcf0a41b69ff5513676", "lat": 38.90020966666667, "is_disabled": 0, "lon": -77.03712266666666, "fusion_lon": 0.0, "is_reserved": 0, "fusion_lat": 0.0, "rental_uris": {"android": "https://dc.lft.to/lastmile_qr_scan", "ios": "https://dc.lft.to/lastmile_qr_scan"}, "type": "electric_scooter", "name": "e590153040ccdfcf0a41b69ff5513676"}, {"bike_id": "f47ac70bb0ed0eeb44724bb349d58d0e", "lat": 38.91580283333333, "is_disabled": 0, "lon": -77.0318455, "fusion_lon": 0.0, "is_reserved": 0, "fusion_lat": 0.0, "rental_uris": {"android": "https://dc.lft.to/lastmile_qr_scan", "ios": "https://dc.lft.to/lastmile_qr_scan"}, "type": "electric_scooter", "name": "f47ac70bb0ed0eeb44724bb349d58d0e"}, {"bike_id": "03cb0b2f4ce82c4bb836a4fc8d0f9985", "lat": 38.924654333333336, "is_disabled": 0, "lon": -77.03951, "fusion_lon": 0.0, "is_reserved": 0, "fusion_lat": 0.0, "rental_uris": {"android": "https://dc.lft.to/lastmile_qr_scan", "ios": "https://dc.lft.to/lastmile_qr_scan"}, "type": "electric_scooter", "name": "03cb0b2f4ce82c4bb836a4fc8d0f9985"}, {"bike_id": "dc29a472c7434128573130f6a4c18bcb", "lat": 38.893417, "is_disabled": 0, "lon": -76.99161, "fusion_lon": 0.0, "is_reserved": 0, "fusion_lat": 0.0, "rental_uris": {"android": "https://dc.lft.to/lastmile_qr_scan", "ios": "https://dc.lft.to/lastmile_qr_scan"}, "type": "electric_scooter", "name": "dc29a472c7434128573130f6a4c18bcb"}, {"bike_id": "17586f37d4bb9fd45a6b294696f7f351", "lat": 38.9843215, "is_disabled": 0, "lon": -77.02676283333334, "fusion_lon": 0.0, "is_reserved": 0, "fusion_lat": 0.0, "rental_uris": {"android": "https://dc.lft.to/lastmile_qr_scan", "ios": "https://dc.lft.to/lastmile_qr_scan"}, "type": "electric_scooter", "name": "17586f37d4bb9fd45a6b294696f7f351"}, {"bike_id": "52ce8f28d4a59796764b1dfe6ebf277f", "lat": 38.928443, "is_disabled": 0, "lon": -77.03269366666666, "fusion_lon": 0.0, "is_reserved": 0, "fusion_lat": 0.0, "rental_uris": {"android": "https://dc.lft.to/lastmile_qr_scan", "ios": "https://dc.lft.to/lastmile_qr_scan"}, "type": "electric_scooter", "name": "52ce8f28d4a59796764b1dfe6ebf277f"}, {"bike_id": "a98f8936e568fdd3869fc6b822ef5e94", "lat": 38.87939016666667, "is_disabled": 0, "lon": -77.00773166666667, "fusion_lon": 0.0, "is_reserved": 0, "fusion_lat": 0.0, "rental_uris": {"android": "https://dc.lft.to/lastmile_qr_scan", "ios": "https://dc.lft.to/lastmile_qr_scan"}, "type": "electric_scooter", "name": "a98f8936e568fdd3869fc6b822ef5e94"}, {"bike_id": "9c4061bef9cd8ec7ab3393e642cf6b1a", "lat": 38.937413, "is_disabled": 0, "lon": -77.06871016666666, "fusion_lon": 0.0, "is_reserved": 0, "fusion_lat": 0.0, "rental_uris": {"android": "https://dc.lft.to/lastmile_qr_scan", "ios": "https://dc.lft.to/lastmile_qr_scan"}, "type": "electric_scooter", "name": "9c4061bef9cd8ec7ab3393e642cf6b1a"}, {"bike_id": "9e7d550cc2226d89d9554282c95594e7", "lat": 38.8921965, "is_disabled": 0, "lon": -77.02779933333333, "fusion_lon": 0.0, "is_reserved": 0, "fusion_lat": 0.0, "rental_uris": {"android": "https://dc.lft.to/lastmile_qr_scan", "ios": "https://dc.lft.to/lastmile_qr_scan"}, "type": "electric_scooter", "name": "9e7d550cc2226d89d9554282c95594e7"}, {"bike_id": "15ae023b9e8cda6ee332cf504d612130", "lat": 38.90823283333334, "is_disabled": 0, "lon": -76.99552116666666, "fusion_lon": 0.0, "is_reserved": 0, "fusion_lat": 0.0, "rental_uris": {"android": "https://dc.lft.to/lastmile_qr_scan", "ios": "https://dc.lft.to/lastmile_qr_scan"}, "type": "electric_bike", "name": "15ae023b9e8cda6ee332cf504d612130"}, {"bike_id": "25d11d47643797c6ef63d1b9fcdee1de", "lat": 38.838626166666664, "is_disabled": 0, "lon": -76.997021, "fusion_lon": 0.0, "is_reserved": 0, "fusion_lat": 0.0, "rental_uris": {"android": "https://dc.lft.to/lastmile_qr_scan", "ios": "https://dc.lft.to/lastmile_qr_scan"}, "type": "electric_bike", "name": "25d11d47643797c6ef63d1b9fcdee1de"}, {"bike_id": "11c08c8ac27a21f62ee30f2b83d0bf75", "lat": 38.938807, "is_disabled": 0, "lon": -77.03283433333333, "fusion_lon": 0.0, "is_reserved": 0, "fusion_lat": 0.0, "rental_uris": {"android": "https://dc.lft.to/lastmile_qr_scan", "ios": "https://dc.lft.to/lastmile_qr_scan"}, "type": "electric_scooter", "name": "11c08c8ac27a21f62ee30f2b83d0bf75"}, {"bike_id": "5491abac4cb4d04ad5eefad229adff2d", "lat": 38.97260083333333, "is_disabled": 0, "lon": -76.99277883333333, "fusion_lon": 0.0, "is_reserved": 0, "fusion_lat": 0.0, "rental_uris": {"android": "https://dc.lft.to/lastmile_qr_scan", "ios": "https://dc.lft.to/lastmile_qr_scan"}, "type": "electric_bike", "name": "5491abac4cb4d04ad5eefad229adff2d"}, {"bike_id": "408872d7dfdc17a855d7cf6feba4d7c7", "lat": 38.90310216666666, "is_disabled": 0, "lon": -77.05055266666666, "fusion_lon": 0.0, "is_reserved": 0, "fusion_lat": 0.0, "rental_uris": {"android": "https://dc.lft.to/lastmile_qr_scan", "ios": "https://dc.lft.to/lastmile_qr_scan"}, "type": "electric_scooter", "name": "408872d7dfdc17a855d7cf6feba4d7c7"}, {"bike_id": "a092777362618c6305154238f55fcdd3", "lat": 38.9126605, "is_disabled": 0, "lon": -77.03831133333334, "fusion_lon": 0.0, "is_reserved": 0, "fusion_lat": 0.0, "rental_uris": {"android": "https://dc.lft.to/lastmile_qr_scan", "ios": "https://dc.lft.to/lastmile_qr_scan"}, "type": "electric_scooter", "name": "a092777362618c6305154238f55fcdd3"}, {"bike_id": "8b3512fbc1abb09cfb34759db3476c34", "lat": 38.91330383333333, "is_disabled": 0, "lon": -77.03325833333334, "fusion_lon": 0.0, "is_reserved": 0, "fusion_lat": 0.0, "rental_uris": {"android": "https://dc.lft.to/lastmile_qr_scan", "ios": "https://dc.lft.to/lastmile_qr_scan"}, "type": "electric_scooter", "name": "8b3512fbc1abb09cfb34759db3476c34"}, {"bike_id": "1b7f2d7ec625f6e98b0591b0d1b9ff48", "lat": 38.90390933333333, "is_disabled": 0, "lon": -77.04799766666666, "fusion_lon": 0.0, "is_reserved": 0, "fusion_lat": 0.0, "rental_uris": {"android": "https://dc.lft.to/lastmile_qr_scan", "ios": "https://dc.lft.to/lastmile_qr_scan"}, "type": "electric_scooter", "name": "1b7f2d7ec625f6e98b0591b0d1b9ff48"}, {"bike_id": "a0d800de91a92896cadd9401106e1528", "lat": 38.88736816666667, "is_disabled": 0, "lon": -77.01530166666667, "fusion_lon": 0.0, "is_reserved": 0, "fusion_lat": 0.0, "rental_uris": {"android": "https://dc.lft.to/lastmile_qr_scan", "ios": "https://dc.lft.to/lastmile_qr_scan"}, "type": "electric_scooter", "name": "a0d800de91a92896cadd9401106e1528"}, {"bike_id": "11d0fbcbed61e1f77260ac96e0af5472", "lat": 38.83995516666667, "is_disabled": 0, "lon": -76.97700716666667, "fusion_lon": 0.0, "is_reserved": 0, "fusion_lat": 0.0, "rental_uris": {"android": "https://dc.lft.to/lastmile_qr_scan", "ios": "https://dc.lft.to/lastmile_qr_scan"}, "type": "electric_bike", "name": "11d0fbcbed61e1f77260ac96e0af5472"}, {"bike_id": "9c5d54d5b948f4c586110e284ae35e44", "lat": 38.898865, "is_disabled": 0, "lon": -77.009187, "fusion_lon": 0.0, "is_reserved": 0, "fusion_lat": 0.0, "rental_uris": {"android": "https://dc.lft.to/lastmile_qr_scan", "ios": "https://dc.lft.to/lastmile_qr_scan"}, "type": "electric_scooter", "name": "9c5d54d5b948f4c586110e284ae35e44"}, {"bike_id": "cb858749e823d7d2d511aa6e6a146941", "lat": 38.8717845, "is_disabled": 0, "lon": -77.0061055, "fusion_lon": 0.0, "is_reserved": 0, "fusion_lat": 0.0, "rental_uris": {"android": "https://dc.lft.to/lastmile_qr_scan", "ios": "https://dc.lft.to/lastmile_qr_scan"}, "type": "electric_scooter", "name": "cb858749e823d7d2d511aa6e6a146941"}, {"bike_id": "3c56dc80ceb72ffe8b7061f82240b09b", "lat": 38.90660883333334, "is_disabled": 0, "lon": -76.97937483333334, "fusion_lon": 0.0, "is_reserved": 0, "fusion_lat": 0.0, "rental_uris": {"android": "https://dc.lft.to/lastmile_qr_scan", "ios": "https://dc.lft.to/lastmile_qr_scan"}, "type": "electric_scooter", "name": "3c56dc80ceb72ffe8b7061f82240b09b"}, {"bike_id": "5db238efaeb78f710219269d02575b21", "lat": 38.923744, "is_disabled": 0, "lon": -77.03790933333333, "fusion_lon": 0.0, "is_reserved": 0, "fusion_lat": 0.0, "rental_uris": {"android": "https://dc.lft.to/lastmile_qr_scan", "ios": "https://dc.lft.to/lastmile_qr_scan"}, "type": "electric_scooter", "name": "5db238efaeb78f710219269d02575b21"}, {"bike_id": "5a771ace19efab81c60a0cd75377782e", "lat": 38.90559233333333, "is_disabled": 0, "lon": -77.04490316666667, "fusion_lon": 0.0, "is_reserved": 0, "fusion_lat": 0.0, "rental_uris": {"android": "https://dc.lft.to/lastmile_qr_scan", "ios": "https://dc.lft.to/lastmile_qr_scan"}, "type": "electric_scooter", "name": "5a771ace19efab81c60a0cd75377782e"}, {"bike_id": "424a1809fa4b0553088995367a702d78", "lat": 38.903666, "is_disabled": 0, "lon": -77.00133633333333, "fusion_lon": 0.0, "is_reserved": 0, "fusion_lat": 0.0, "rental_uris": {"android": "https://dc.lft.to/lastmile_qr_scan", "ios": "https://dc.lft.to/lastmile_qr_scan"}, "type": "electric_scooter", "name": "424a1809fa4b0553088995367a702d78"}, {"bike_id": "4e9954dde0ec5ea38b356e0b72fd339b", "lat": 38.89741316666667, "is_disabled": 0, "lon": -77.05525216666666, "fusion_lon": 0.0, "is_reserved": 0, "fusion_lat": 0.0, "rental_uris": {"android": "https://dc.lft.to/lastmile_qr_scan", "ios": "https://dc.lft.to/lastmile_qr_scan"}, "type": "electric_scooter", "name": "4e9954dde0ec5ea38b356e0b72fd339b"}, {"bike_id": "ed423b1e2941d25850e2d2bc6185dcdc", "lat": 38.87838283333333, "is_disabled": 0, "lon": -77.00032466666667, "fusion_lon": 0.0, "is_reserved": 0, "fusion_lat": 0.0, "rental_uris": {"android": "https://dc.lft.to/lastmile_qr_scan", "ios": "https://dc.lft.to/lastmile_qr_scan"}, "type": "electric_scooter", "name": "ed423b1e2941d25850e2d2bc6185dcdc"}, {"bike_id": "df7dda0998c029b256cc6aef4fef22b1", "lat": 38.932315, "is_disabled": 0, "lon": -77.0387715, "fusion_lon": 0.0, "is_reserved": 0, "fusion_lat": 0.0, "rental_uris": {"android": "https://dc.lft.to/lastmile_qr_scan", "ios": "https://dc.lft.to/lastmile_qr_scan"}, "type": "electric_scooter", "name": "df7dda0998c029b256cc6aef4fef22b1"}, {"bike_id": "ad2e252635363f4a03a8ff3f3639ca43", "lat": 38.918153, "is_disabled": 0, "lon": -77.02889483333334, "fusion_lon": 0.0, "is_reserved": 0, "fusion_lat": 0.0, "rental_uris": {"android": "https://dc.lft.to/lastmile_qr_scan", "ios": "https://dc.lft.to/lastmile_qr_scan"}, "type": "electric_scooter", "name": "ad2e252635363f4a03a8ff3f3639ca43"}, {"bike_id": "9e47379cc72c97049b59d3d83f39a8a6", "lat": 38.909224, "is_disabled": 0, "lon": -77.04416783333333, "fusion_lon": 0.0, "is_reserved": 0, "fusion_lat": 0.0, "rental_uris": {"android": "https://dc.lft.to/lastmile_qr_scan", "ios": "https://dc.lft.to/lastmile_qr_scan"}, "type": "electric_scooter", "name": "9e47379cc72c97049b59d3d83f39a8a6"}, {"bike_id": "102498a52bfa804ac8780c2bbc7e3c6d", "lat": 38.9613615, "is_disabled": 0, "lon": -77.00060216666667, "fusion_lon": 0.0, "is_reserved": 0, "fusion_lat": 0.0, "rental_uris": {"android": "https://dc.lft.to/lastmile_qr_scan", "ios": "https://dc.lft.to/lastmile_qr_scan"}, "type": "electric_scooter", "name": "102498a52bfa804ac8780c2bbc7e3c6d"}, {"bike_id": "8e553fc09ca5402a1047c1dfdae41c41", "lat": 38.920979, "is_disabled": 0, "lon": -77.04702533333334, "fusion_lon": 0.0, "is_reserved": 0, "fusion_lat": 0.0, "rental_uris": {"android": "https://dc.lft.to/lastmile_qr_scan", "ios": "https://dc.lft.to/lastmile_qr_scan"}, "type": "electric_scooter", "name": "8e553fc09ca5402a1047c1dfdae41c41"}, {"bike_id": "85fbf62b2b55d70015f8f921c552cd02", "lat": 38.8758235, "is_disabled": 0, "lon": -77.2341195, "fusion_lon": 0.0, "is_reserved": 0, "fusion_lat": 0.0, "rental_uris": {"android": "https://dc.lft.to/lastmile_qr_scan", "ios": "https://dc.lft.to/lastmile_qr_scan"}, "type": "electric_bike", "name": "85fbf62b2b55d70015f8f921c552cd02"}, {"bike_id": "a37911875e4c425efb1ca671f7f89c11", "lat": 38.92040633333333, "is_disabled": 0, "lon": -77.071748, "fusion_lon": 0.0, "is_reserved": 0, "fusion_lat": 0.0, "rental_uris": {"android": "https://dc.lft.to/lastmile_qr_scan", "ios": "https://dc.lft.to/lastmile_qr_scan"}, "type": "electric_bike", "name": "a37911875e4c425efb1ca671f7f89c11"}, {"bike_id": "f1861ae5d4f025ecd08d0202c967785b", "lat": 38.909453166666665, "is_disabled": 0, "lon": -76.995907, "fusion_lon": 0.0, "is_reserved": 0, "fusion_lat": 0.0, "rental_uris": {"android": "https://dc.lft.to/lastmile_qr_scan", "ios": "https://dc.lft.to/lastmile_qr_scan"}, "type": "electric_scooter", "name": "f1861ae5d4f025ecd08d0202c967785b"}, {"bike_id": "a0a2ea601e8405befe3b81b69ae7217b", "lat": 38.91187683333333, "is_disabled": 0, "lon": -77.01066766666666, "fusion_lon": 0.0, "is_reserved": 0, "fusion_lat": 0.0, "rental_uris": {"android": "https://dc.lft.to/lastmile_qr_scan", "ios": "https://dc.lft.to/lastmile_qr_scan"}, "type": "electric_scooter", "name": "a0a2ea601e8405befe3b81b69ae7217b"}, {"bike_id": "6a3aa57b94db3ef0a9f8a736d355c017", "lat": 38.941967166666664, "is_disabled": 0, "lon": -77.02437633333334, "fusion_lon": 0.0, "is_reserved": 0, "fusion_lat": 0.0, "rental_uris": {"android": "https://dc.lft.to/lastmile_qr_scan", "ios": "https://dc.lft.to/lastmile_qr_scan"}, "type": "electric_scooter", "name": "6a3aa57b94db3ef0a9f8a736d355c017"}, {"bike_id": "c7bb845fcf7f5e22b16097c2cee21de8", "lat": 38.91269166666667, "is_disabled": 0, "lon": -77.022305, "fusion_lon": 0.0, "is_reserved": 0, "fusion_lat": 0.0, "rental_uris": {"android": "https://dc.lft.to/lastmile_qr_scan", "ios": "https://dc.lft.to/lastmile_qr_scan"}, "type": "electric_scooter", "name": "c7bb845fcf7f5e22b16097c2cee21de8"}, {"bike_id": "7afc0b161514dae269aa9a644bff4641", "lat": 38.92238283333333, "is_disabled": 0, "lon": -77.02978533333334, "fusion_lon": 0.0, "is_reserved": 0, "fusion_lat": 0.0, "rental_uris": {"android": "https://dc.lft.to/lastmile_qr_scan", "ios": "https://dc.lft.to/lastmile_qr_scan"}, "type": "electric_scooter", "name": "7afc0b161514dae269aa9a644bff4641"}, {"bike_id": "b6a160cca6469b0700923a07fa9c1066", "lat": 38.89619966666667, "is_disabled": 0, "lon": -77.04663666666667, "fusion_lon": 0.0, "is_reserved": 0, "fusion_lat": 0.0, "rental_uris": {"android": "https://dc.lft.to/lastmile_qr_scan", "ios": "https://dc.lft.to/lastmile_qr_scan"}, "type": "electric_scooter", "name": "b6a160cca6469b0700923a07fa9c1066"}, {"bike_id": "5e1300ddf194dcef4727025dae243288", "lat": 38.9074955, "is_disabled": 0, "lon": -77.0230035, "fusion_lon": 0.0, "is_reserved": 0, "fusion_lat": 0.0, "rental_uris": {"android": "https://dc.lft.to/lastmile_qr_scan", "ios": "https://dc.lft.to/lastmile_qr_scan"}, "type": "electric_scooter", "name": "5e1300ddf194dcef4727025dae243288"}, {"bike_id": "e24dfd594356fcdd22460b26cf54138d", "lat": 38.881239666666666, "is_disabled": 0, "lon": -76.99346416666667, "fusion_lon": 0.0, "is_reserved": 0, "fusion_lat": 0.0, "rental_uris": {"android": "https://dc.lft.to/lastmile_qr_scan", "ios": "https://dc.lft.to/lastmile_qr_scan"}, "type": "electric_scooter", "name": "e24dfd594356fcdd22460b26cf54138d"}, {"bike_id": "f81620c89fdff3c0399be99ce9ce752c", "lat": 38.9126665, "is_disabled": 0, "lon": -77.01769633333333, "fusion_lon": 0.0, "is_reserved": 0, "fusion_lat": 0.0, "rental_uris": {"android": "https://dc.lft.to/lastmile_qr_scan", "ios": "https://dc.lft.to/lastmile_qr_scan"}, "type": "electric_scooter", "name": "f81620c89fdff3c0399be99ce9ce752c"}, {"bike_id": "8c059417e18cdfcb9fe94fad1af7d35c", "lat": 38.845096833333336, "is_disabled": 0, "lon": -76.99351983333334, "fusion_lon": 0.0, "is_reserved": 0, "fusion_lat": 0.0, "rental_uris": {"android": "https://dc.lft.to/lastmile_qr_scan", "ios": "https://dc.lft.to/lastmile_qr_scan"}, "type": "electric_bike", "name": "8c059417e18cdfcb9fe94fad1af7d35c"}, {"bike_id": "d52eb6279c488dfc9e552526f17a2d5c", "lat": 38.901282, "is_disabled": 0, "lon": -77.0405185, "fusion_lon": 0.0, "is_reserved": 0, "fusion_lat": 0.0, "rental_uris": {"android": "https://dc.lft.to/lastmile_qr_scan", "ios": "https://dc.lft.to/lastmile_qr_scan"}, "type": "electric_scooter", "name": "d52eb6279c488dfc9e552526f17a2d5c"}, {"bike_id": "19a20a86803a356776ceb4b3475c256f", "lat": 38.918526666666665, "is_disabled": 0, "lon": -77.02437183333333, "fusion_lon": 0.0, "is_reserved": 0, "fusion_lat": 0.0, "rental_uris": {"android": "https://dc.lft.to/lastmile_qr_scan", "ios": "https://dc.lft.to/lastmile_qr_scan"}, "type": "electric_scooter", "name": "19a20a86803a356776ceb4b3475c256f"}, {"bike_id": "16251cdc3b61f0a29c69b61cb0a8d699", "lat": 38.91056, "is_disabled": 0, "lon": -77.0198725, "fusion_lon": 0.0, "is_reserved": 0, "fusion_lat": 0.0, "rental_uris": {"android": "https://dc.lft.to/lastmile_qr_scan", "ios": "https://dc.lft.to/lastmile_qr_scan"}, "type": "electric_scooter", "name": "16251cdc3b61f0a29c69b61cb0a8d699"}, {"bike_id": "3a0561363ec3397ed6e2d63bfad2f7a8", "lat": 38.876869166666665, "is_disabled": 0, "lon": -77.0175715, "fusion_lon": 0.0, "is_reserved": 0, "fusion_lat": 0.0, "rental_uris": {"android": "https://dc.lft.to/lastmile_qr_scan", "ios": "https://dc.lft.to/lastmile_qr_scan"}, "type": "electric_scooter", "name": "3a0561363ec3397ed6e2d63bfad2f7a8"}, {"bike_id": "d76c0374f342a156d36e202b8b3768b2", "lat": 38.922278666666664, "is_disabled": 0, "lon": -77.04485816666667, "fusion_lon": 0.0, "is_reserved": 0, "fusion_lat": 0.0, "rental_uris": {"android": "https://dc.lft.to/lastmile_qr_scan", "ios": "https://dc.lft.to/lastmile_qr_scan"}, "type": "electric_scooter", "name": "d76c0374f342a156d36e202b8b3768b2"}, {"bike_id": "0462a21490ed6be8a47c248860d0ac7e", "lat": 38.90038283333333, "is_disabled": 0, "lon": -76.98556816666667, "fusion_lon": 0.0, "is_reserved": 0, "fusion_lat": 0.0, "rental_uris": {"android": "https://dc.lft.to/lastmile_qr_scan", "ios": "https://dc.lft.to/lastmile_qr_scan"}, "type": "electric_scooter", "name": "0462a21490ed6be8a47c248860d0ac7e"}, {"bike_id": "ee10f955426507cb473cce8087589895", "lat": 38.94149766666666, "is_disabled": 0, "lon": -77.00197383333334, "fusion_lon": 0.0, "is_reserved": 0, "fusion_lat": 0.0, "rental_uris": {"android": "https://dc.lft.to/lastmile_qr_scan", "ios": "https://dc.lft.to/lastmile_qr_scan"}, "type": "electric_bike", "name": "ee10f955426507cb473cce8087589895"}, {"bike_id": "6acb13ab531b387b9819ab852f4b6159", "lat": 38.93101983333333, "is_disabled": 0, "lon": -77.0247975, "fusion_lon": 0.0, "is_reserved": 0, "fusion_lat": 0.0, "rental_uris": {"android": "https://dc.lft.to/lastmile_qr_scan", "ios": "https://dc.lft.to/lastmile_qr_scan"}, "type": "electric_scooter", "name": "6acb13ab531b387b9819ab852f4b6159"}, {"bike_id": "e7abf4ee8a3367b700856a86f2622635", "lat": 38.90192583333334, "is_disabled": 0, "lon": -76.92634533333333, "fusion_lon": 0.0, "is_reserved": 0, "fusion_lat": 0.0, "rental_uris": {"android": "https://dc.lft.to/lastmile_qr_scan", "ios": "https://dc.lft.to/lastmile_qr_scan"}, "type": "electric_scooter", "name": "e7abf4ee8a3367b700856a86f2622635"}, {"bike_id": "84db5eedbfc0dd452e5d335a96b328d7", "lat": 38.893031666666666, "is_disabled": 0, "lon": -77.020425, "fusion_lon": 0.0, "is_reserved": 0, "fusion_lat": 0.0, "rental_uris": {"android": "https://dc.lft.to/lastmile_qr_scan", "ios": "https://dc.lft.to/lastmile_qr_scan"}, "type": "electric_scooter", "name": "84db5eedbfc0dd452e5d335a96b328d7"}, {"bike_id": "35a4bd019110c0cd5a02cd18391c77f2", "lat": 38.924809333333336, "is_disabled": 0, "lon": -77.02217783333333, "fusion_lon": 0.0, "is_reserved": 0, "fusion_lat": 0.0, "rental_uris": {"android": "https://dc.lft.to/lastmile_qr_scan", "ios": "https://dc.lft.to/lastmile_qr_scan"}, "type": "electric_scooter", "name": "35a4bd019110c0cd5a02cd18391c77f2"}, {"bike_id": "9b9700d897d8960e800f158edaa5543f", "lat": 38.905114166666664, "is_disabled": 0, "lon": -76.952077, "fusion_lon": 0.0, "is_reserved": 0, "fusion_lat": 0.0, "rental_uris": {"android": "https://dc.lft.to/lastmile_qr_scan", "ios": "https://dc.lft.to/lastmile_qr_scan"}, "type": "electric_scooter", "name": "9b9700d897d8960e800f158edaa5543f"}, {"bike_id": "4702a499ee29848fb0c0588c60f65873", "lat": 38.90010483333333, "is_disabled": 0, "lon": -77.029236, "fusion_lon": 0.0, "is_reserved": 0, "fusion_lat": 0.0, "rental_uris": {"android": "https://dc.lft.to/lastmile_qr_scan", "ios": "https://dc.lft.to/lastmile_qr_scan"}, "type": "electric_scooter", "name": "4702a499ee29848fb0c0588c60f65873"}, {"bike_id": "53cafc6de4e9105672fd54165daf6024", "lat": 38.90390983333333, "is_disabled": 0, "lon": -76.98488616666667, "fusion_lon": 0.0, "is_reserved": 0, "fusion_lat": 0.0, "rental_uris": {"android": "https://dc.lft.to/lastmile_qr_scan", "ios": "https://dc.lft.to/lastmile_qr_scan"}, "type": "electric_scooter", "name": "53cafc6de4e9105672fd54165daf6024"}, {"bike_id": "69b9c7337723790c2c7f40b4e1adde04", "lat": 38.9095665, "is_disabled": 0, "lon": -77.04886816666667, "fusion_lon": 0.0, "is_reserved": 0, "fusion_lat": 0.0, "rental_uris": {"android": "https://dc.lft.to/lastmile_qr_scan", "ios": "https://dc.lft.to/lastmile_qr_scan"}, "type": "electric_scooter", "name": "69b9c7337723790c2c7f40b4e1adde04"}, {"bike_id": "eb962f6237ab98b729a793a66de4d470", "lat": 38.91547966666667, "is_disabled": 0, "lon": -77.03247766666667, "fusion_lon": 0.0, "is_reserved": 0, "fusion_lat": 0.0, "rental_uris": {"android": "https://dc.lft.to/lastmile_qr_scan", "ios": "https://dc.lft.to/lastmile_qr_scan"}, "type": "electric_scooter", "name": "eb962f6237ab98b729a793a66de4d470"}, {"bike_id": "b06060396c707b59d251899f375d5064", "lat": 38.821336333333335, "is_disabled": 0, "lon": -77.001556, "fusion_lon": 0.0, "is_reserved": 0, "fusion_lat": 0.0, "rental_uris": {"android": "https://dc.lft.to/lastmile_qr_scan", "ios": "https://dc.lft.to/lastmile_qr_scan"}, "type": "electric_scooter", "name": "b06060396c707b59d251899f375d5064"}, {"bike_id": "1f3d7e106effb659fe48b92024f30f11", "lat": 38.914034666666666, "is_disabled": 0, "lon": -77.02837683333334, "fusion_lon": 0.0, "is_reserved": 0, "fusion_lat": 0.0, "rental_uris": {"android": "https://dc.lft.to/lastmile_qr_scan", "ios": "https://dc.lft.to/lastmile_qr_scan"}, "type": "electric_scooter", "name": "1f3d7e106effb659fe48b92024f30f11"}, {"bike_id": "1fe1cfb5c7aeefb6b833cc78a0eb9c0f", "lat": 38.8826925, "is_disabled": 0, "lon": -77.22826466666666, "fusion_lon": 0.0, "is_reserved": 0, "fusion_lat": 0.0, "rental_uris": {"android": "https://dc.lft.to/lastmile_qr_scan", "ios": "https://dc.lft.to/lastmile_qr_scan"}, "type": "electric_bike", "name": "1fe1cfb5c7aeefb6b833cc78a0eb9c0f"}, {"bike_id": "75376d2dfc0eee158feff5379a28d247", "lat": 38.894720666666664, "is_disabled": 0, "lon": -76.9496375, "fusion_lon": 0.0, "is_reserved": 0, "fusion_lat": 0.0, "rental_uris": {"android": "https://dc.lft.to/lastmile_qr_scan", "ios": "https://dc.lft.to/lastmile_qr_scan"}, "type": "electric_scooter", "name": "75376d2dfc0eee158feff5379a28d247"}, {"bike_id": "5dbf337548056af0fc88b6082f1b73d7", "lat": 38.91127816666667, "is_disabled": 0, "lon": -77.0219815, "fusion_lon": 0.0, "is_reserved": 0, "fusion_lat": 0.0, "rental_uris": {"android": "https://dc.lft.to/lastmile_qr_scan", "ios": "https://dc.lft.to/lastmile_qr_scan"}, "type": "electric_scooter", "name": "5dbf337548056af0fc88b6082f1b73d7"}, {"bike_id": "8d460a4ce6170f611433d14a8d0e1b80", "lat": 38.93304783333333, "is_disabled": 0, "lon": -77.0309495, "fusion_lon": 0.0, "is_reserved": 0, "fusion_lat": 0.0, "rental_uris": {"android": "https://dc.lft.to/lastmile_qr_scan", "ios": "https://dc.lft.to/lastmile_qr_scan"}, "type": "electric_scooter", "name": "8d460a4ce6170f611433d14a8d0e1b80"}, {"bike_id": "1f37c3f385c0ea43cd9708f521940dc3", "lat": 38.884425666666665, "is_disabled": 0, "lon": -77.01514616666667, "fusion_lon": 0.0, "is_reserved": 0, "fusion_lat": 0.0, "rental_uris": {"android": "https://dc.lft.to/lastmile_qr_scan", "ios": "https://dc.lft.to/lastmile_qr_scan"}, "type": "electric_scooter", "name": "1f37c3f385c0ea43cd9708f521940dc3"}, {"bike_id": "3bb88ffdbb6d05c14077c23c5e926306", "lat": 38.8922465, "is_disabled": 0, "lon": -77.04336183333334, "fusion_lon": 0.0, "is_reserved": 0, "fusion_lat": 0.0, "rental_uris": {"android": "https://dc.lft.to/lastmile_qr_scan", "ios": "https://dc.lft.to/lastmile_qr_scan"}, "type": "electric_scooter", "name": "3bb88ffdbb6d05c14077c23c5e926306"}, {"bike_id": "ad8275d256f6a2d424bf957006dd5228", "lat": 38.95247366666667, "is_disabled": 0, "lon": -77.007731, "fusion_lon": 0.0, "is_reserved": 0, "fusion_lat": 0.0, "rental_uris": {"android": "https://dc.lft.to/lastmile_qr_scan", "ios": "https://dc.lft.to/lastmile_qr_scan"}, "type": "electric_scooter", "name": "ad8275d256f6a2d424bf957006dd5228"}, {"bike_id": "e17fe704313ebfe3a65f00c0fdeafd22", "lat": 38.90475716666667, "is_disabled": 0, "lon": -77.03556266666666, "fusion_lon": 0.0, "is_reserved": 0, "fusion_lat": 0.0, "rental_uris": {"android": "https://dc.lft.to/lastmile_qr_scan", "ios": "https://dc.lft.to/lastmile_qr_scan"}, "type": "electric_scooter", "name": "e17fe704313ebfe3a65f00c0fdeafd22"}, {"bike_id": "a9576ab9c08861fe5487cd73838da765", "lat": 38.95656, "is_disabled": 0, "lon": -77.013155, "fusion_lon": 0.0, "is_reserved": 0, "fusion_lat": 0.0, "rental_uris": {"android": "https://dc.lft.to/lastmile_qr_scan", "ios": "https://dc.lft.to/lastmile_qr_scan"}, "type": "electric_scooter", "name": "a9576ab9c08861fe5487cd73838da765"}, {"bike_id": "7915fc022de6d5ba2d3749c2338ea6b8", "lat": 38.9215895, "is_disabled": 0, "lon": -77.033236, "fusion_lon": 0.0, "is_reserved": 0, "fusion_lat": 0.0, "rental_uris": {"android": "https://dc.lft.to/lastmile_qr_scan", "ios": "https://dc.lft.to/lastmile_qr_scan"}, "type": "electric_scooter", "name": "7915fc022de6d5ba2d3749c2338ea6b8"}, {"bike_id": "4924fd8aa86d1c5fff12caac6652643a", "lat": 38.90544666666667, "is_disabled": 0, "lon": -77.00562683333334, "fusion_lon": 0.0, "is_reserved": 0, "fusion_lat": 0.0, "rental_uris": {"android": "https://dc.lft.to/lastmile_qr_scan", "ios": "https://dc.lft.to/lastmile_qr_scan"}, "type": "electric_scooter", "name": "4924fd8aa86d1c5fff12caac6652643a"}, {"bike_id": "a2cc4460b48de9e88cdcf67c087cb0fd", "lat": 39.084341, "is_disabled": 0, "lon": -76.95160183333333, "fusion_lon": 0.0, "is_reserved": 0, "fusion_lat": 0.0, "rental_uris": {"android": "https://dc.lft.to/lastmile_qr_scan", "ios": "https://dc.lft.to/lastmile_qr_scan"}, "type": "electric_bike", "name": "a2cc4460b48de9e88cdcf67c087cb0fd"}, {"bike_id": "8990cfe733f9365d3a0f1d1a153a4e7c", "lat": 38.92402966666667, "is_disabled": 0, "lon": -77.04276933333334, "fusion_lon": 0.0, "is_reserved": 0, "fusion_lat": 0.0, "rental_uris": {"android": "https://dc.lft.to/lastmile_qr_scan", "ios": "https://dc.lft.to/lastmile_qr_scan"}, "type": "electric_scooter", "name": "8990cfe733f9365d3a0f1d1a153a4e7c"}, {"bike_id": "1d472fb645a2827407abb4a146dc8cb0", "lat": 38.88386083333333, "is_disabled": 0, "lon": -76.93041366666667, "fusion_lon": 0.0, "is_reserved": 0, "fusion_lat": 0.0, "rental_uris": {"android": "https://dc.lft.to/lastmile_qr_scan", "ios": "https://dc.lft.to/lastmile_qr_scan"}, "type": "electric_scooter", "name": "1d472fb645a2827407abb4a146dc8cb0"}, {"bike_id": "0ded3cddcdd8aa93ca564de9a2b771f9", "lat": 38.897654333333335, "is_disabled": 0, "lon": -77.03194233333333, "fusion_lon": 0.0, "is_reserved": 0, "fusion_lat": 0.0, "rental_uris": {"android": "https://dc.lft.to/lastmile_qr_scan", "ios": "https://dc.lft.to/lastmile_qr_scan"}, "type": "electric_scooter", "name": "0ded3cddcdd8aa93ca564de9a2b771f9"}, {"bike_id": "2db7eea4b9a817ef4a4ddd0700ff5dc9", "lat": 38.90856633333333, "is_disabled": 0, "lon": -77.03190916666667, "fusion_lon": 0.0, "is_reserved": 0, "fusion_lat": 0.0, "rental_uris": {"android": "https://dc.lft.to/lastmile_qr_scan", "ios": "https://dc.lft.to/lastmile_qr_scan"}, "type": "electric_scooter", "name": "2db7eea4b9a817ef4a4ddd0700ff5dc9"}, {"bike_id": "b5ba8f4f56414115edbf73c09f7664f0", "lat": 38.917753, "is_disabled": 0, "lon": -77.02299516666666, "fusion_lon": 0.0, "is_reserved": 0, "fusion_lat": 0.0, "rental_uris": {"android": "https://dc.lft.to/lastmile_qr_scan", "ios": "https://dc.lft.to/lastmile_qr_scan"}, "type": "electric_scooter", "name": "b5ba8f4f56414115edbf73c09f7664f0"}, {"bike_id": "1480bf4df54b83d1fe8f5d9f74126dad", "lat": 38.90160316666667, "is_disabled": 0, "lon": -77.039349, "fusion_lon": 0.0, "is_reserved": 0, "fusion_lat": 0.0, "rental_uris": {"android": "https://dc.lft.to/lastmile_qr_scan", "ios": "https://dc.lft.to/lastmile_qr_scan"}, "type": "electric_scooter", "name": "1480bf4df54b83d1fe8f5d9f74126dad"}, {"bike_id": "b4969b26d6eb063e6c8d36b0a102284c", "lat": 38.927895166666666, "is_disabled": 0, "lon": -77.02586333333333, "fusion_lon": 0.0, "is_reserved": 0, "fusion_lat": 0.0, "rental_uris": {"android": "https://dc.lft.to/lastmile_qr_scan", "ios": "https://dc.lft.to/lastmile_qr_scan"}, "type": "electric_scooter", "name": "b4969b26d6eb063e6c8d36b0a102284c"}, {"bike_id": "015962e6664ece63cb3031d4dbd3e864", "lat": 38.8974075, "is_disabled": 0, "lon": -77.02704, "fusion_lon": 0.0, "is_reserved": 0, "fusion_lat": 0.0, "rental_uris": {"android": "https://dc.lft.to/lastmile_qr_scan", "ios": "https://dc.lft.to/lastmile_qr_scan"}, "type": "electric_scooter", "name": "015962e6664ece63cb3031d4dbd3e864"}, {"bike_id": "a24c6b2d7fa37b7050e30c2ed1b142cb", "lat": 38.91762266666667, "is_disabled": 0, "lon": -77.0239275, "fusion_lon": 0.0, "is_reserved": 0, "fusion_lat": 0.0, "rental_uris": {"android": "https://dc.lft.to/lastmile_qr_scan", "ios": "https://dc.lft.to/lastmile_qr_scan"}, "type": "electric_scooter", "name": "a24c6b2d7fa37b7050e30c2ed1b142cb"}, {"bike_id": "f133457e5b73dad83800ca6c3222724d", "lat": 38.92170183333333, "is_disabled": 0, "lon": -77.04140366666667, "fusion_lon": 0.0, "is_reserved": 0, "fusion_lat": 0.0, "rental_uris": {"android": "https://dc.lft.to/lastmile_qr_scan", "ios": "https://dc.lft.to/lastmile_qr_scan"}, "type": "electric_scooter", "name": "f133457e5b73dad83800ca6c3222724d"}, {"bike_id": "02a4484ed7523c70c38907f155c7acb4", "lat": 38.9264315, "is_disabled": 0, "lon": -77.05738533333333, "fusion_lon": 0.0, "is_reserved": 0, "fusion_lat": 0.0, "rental_uris": {"android": "https://dc.lft.to/lastmile_qr_scan", "ios": "https://dc.lft.to/lastmile_qr_scan"}, "type": "electric_scooter", "name": "02a4484ed7523c70c38907f155c7acb4"}, {"bike_id": "c172eca9079fa712a730f14f6d163de1", "lat": 38.917841, "is_disabled": 0, "lon": -77.0322215, "fusion_lon": 0.0, "is_reserved": 0, "fusion_lat": 0.0, "rental_uris": {"android": "https://dc.lft.to/lastmile_qr_scan", "ios": "https://dc.lft.to/lastmile_qr_scan"}, "type": "electric_scooter", "name": "c172eca9079fa712a730f14f6d163de1"}, {"bike_id": "4f15a55513d40ed057ba78e7c0f1def7", "lat": 38.93860566666667, "is_disabled": 0, "lon": -77.03389016666667, "fusion_lon": 0.0, "is_reserved": 0, "fusion_lat": 0.0, "rental_uris": {"android": "https://dc.lft.to/lastmile_qr_scan", "ios": "https://dc.lft.to/lastmile_qr_scan"}, "type": "electric_scooter", "name": "4f15a55513d40ed057ba78e7c0f1def7"}, {"bike_id": "b07d0a0bcba2497f4475ab7dec41c9aa", "lat": 38.897591166666665, "is_disabled": 0, "lon": -76.925855, "fusion_lon": 0.0, "is_reserved": 0, "fusion_lat": 0.0, "rental_uris": {"android": "https://dc.lft.to/lastmile_qr_scan", "ios": "https://dc.lft.to/lastmile_qr_scan"}, "type": "electric_scooter", "name": "b07d0a0bcba2497f4475ab7dec41c9aa"}, {"bike_id": "12499e4d6199398f259112fcf039c0e4", "lat": 38.92396183333334, "is_disabled": 0, "lon": -77.04095083333333, "fusion_lon": 0.0, "is_reserved": 0, "fusion_lat": 0.0, "rental_uris": {"android": "https://dc.lft.to/lastmile_qr_scan", "ios": "https://dc.lft.to/lastmile_qr_scan"}, "type": "electric_scooter", "name": "12499e4d6199398f259112fcf039c0e4"}, {"bike_id": "09f6d34225dab7d72d76d98400b1c9fe", "lat": 38.93173683333333, "is_disabled": 0, "lon": -76.99609016666666, "fusion_lon": 0.0, "is_reserved": 0, "fusion_lat": 0.0, "rental_uris": {"android": "https://dc.lft.to/lastmile_qr_scan", "ios": "https://dc.lft.to/lastmile_qr_scan"}, "type": "electric_scooter", "name": "09f6d34225dab7d72d76d98400b1c9fe"}, {"bike_id": "77a8e1bfc3cde2b180039e3d463f4609", "lat": 38.9178535, "is_disabled": 0, "lon": -77.04272316666666, "fusion_lon": 0.0, "is_reserved": 0, "fusion_lat": 0.0, "rental_uris": {"android": "https://dc.lft.to/lastmile_qr_scan", "ios": "https://dc.lft.to/lastmile_qr_scan"}, "type": "electric_scooter", "name": "77a8e1bfc3cde2b180039e3d463f4609"}, {"bike_id": "a393faa4d00961dc415e2cb07f12dfb6", "lat": 38.892346333333336, "is_disabled": 0, "lon": -77.04873466666666, "fusion_lon": 0.0, "is_reserved": 0, "fusion_lat": 0.0, "rental_uris": {"android": "https://dc.lft.to/lastmile_qr_scan", "ios": "https://dc.lft.to/lastmile_qr_scan"}, "type": "electric_scooter", "name": "a393faa4d00961dc415e2cb07f12dfb6"}, {"bike_id": "93ff9863d63adf43ba0c2863095aad93", "lat": 38.91800666666666, "is_disabled": 0, "lon": -77.03434983333334, "fusion_lon": 0.0, "is_reserved": 0, "fusion_lat": 0.0, "rental_uris": {"android": "https://dc.lft.to/lastmile_qr_scan", "ios": "https://dc.lft.to/lastmile_qr_scan"}, "type": "electric_scooter", "name": "93ff9863d63adf43ba0c2863095aad93"}, {"bike_id": "e11c10345953a5059bc7e60df7533f20", "lat": 38.900092, "is_disabled": 0, "lon": -77.011716, "fusion_lon": 0.0, "is_reserved": 0, "fusion_lat": 0.0, "rental_uris": {"android": "https://dc.lft.to/lastmile_qr_scan", "ios": "https://dc.lft.to/lastmile_qr_scan"}, "type": "electric_scooter", "name": "e11c10345953a5059bc7e60df7533f20"}, {"bike_id": "1524e09f1048f5c8531625aff494102c", "lat": 38.91337933333333, "is_disabled": 0, "lon": -77.04222416666667, "fusion_lon": 0.0, "is_reserved": 0, "fusion_lat": 0.0, "rental_uris": {"android": "https://dc.lft.to/lastmile_qr_scan", "ios": "https://dc.lft.to/lastmile_qr_scan"}, "type": "electric_scooter", "name": "1524e09f1048f5c8531625aff494102c"}, {"bike_id": "c4b24a9e3f33f5d4e9341b327914ae65", "lat": 38.89542816666667, "is_disabled": 0, "lon": -76.94929033333334, "fusion_lon": 0.0, "is_reserved": 0, "fusion_lat": 0.0, "rental_uris": {"android": "https://dc.lft.to/lastmile_qr_scan", "ios": "https://dc.lft.to/lastmile_qr_scan"}, "type": "electric_scooter", "name": "c4b24a9e3f33f5d4e9341b327914ae65"}, {"bike_id": "8febfd49e155ce2a204a35c56a6df2c2", "lat": 38.93240183333333, "is_disabled": 0, "lon": -77.03855516666667, "fusion_lon": 0.0, "is_reserved": 0, "fusion_lat": 0.0, "rental_uris": {"android": "https://dc.lft.to/lastmile_qr_scan", "ios": "https://dc.lft.to/lastmile_qr_scan"}, "type": "electric_scooter", "name": "8febfd49e155ce2a204a35c56a6df2c2"}, {"bike_id": "0938edf15b472c166f3e762e3ba34c43", "lat": 38.914092, "is_disabled": 0, "lon": -77.04078116666666, "fusion_lon": 0.0, "is_reserved": 0, "fusion_lat": 0.0, "rental_uris": {"android": "https://dc.lft.to/lastmile_qr_scan", "ios": "https://dc.lft.to/lastmile_qr_scan"}, "type": "electric_scooter", "name": "0938edf15b472c166f3e762e3ba34c43"}, {"bike_id": "056e70d41e77cdd724c7cb31f3f97a82", "lat": 38.9371035, "is_disabled": 0, "lon": -77.02397666666667, "fusion_lon": 0.0, "is_reserved": 0, "fusion_lat": 0.0, "rental_uris": {"android": "https://dc.lft.to/lastmile_qr_scan", "ios": "https://dc.lft.to/lastmile_qr_scan"}, "type": "electric_scooter", "name": "056e70d41e77cdd724c7cb31f3f97a82"}, {"bike_id": "4a6cc36327496daba10de19c86402387", "lat": 38.92072116666667, "is_disabled": 0, "lon": -77.02375983333333, "fusion_lon": 0.0, "is_reserved": 0, "fusion_lat": 0.0, "rental_uris": {"android": "https://dc.lft.to/lastmile_qr_scan", "ios": "https://dc.lft.to/lastmile_qr_scan"}, "type": "electric_scooter", "name": "4a6cc36327496daba10de19c86402387"}, {"bike_id": "a561353c1e4a45604a2736802516f854", "lat": 38.91639466666667, "is_disabled": 0, "lon": -77.03214933333334, "fusion_lon": 0.0, "is_reserved": 0, "fusion_lat": 0.0, "rental_uris": {"android": "https://dc.lft.to/lastmile_qr_scan", "ios": "https://dc.lft.to/lastmile_qr_scan"}, "type": "electric_scooter", "name": "a561353c1e4a45604a2736802516f854"}, {"bike_id": "3704d9f556ca63d278a45253c78448b4", "lat": 38.88640933333333, "is_disabled": 0, "lon": -76.98212933333333, "fusion_lon": 0.0, "is_reserved": 0, "fusion_lat": 0.0, "rental_uris": {"android": "https://dc.lft.to/lastmile_qr_scan", "ios": "https://dc.lft.to/lastmile_qr_scan"}, "type": "electric_scooter", "name": "3704d9f556ca63d278a45253c78448b4"}, {"bike_id": "35d44cb228cbfafe1edf2db8c5c78686", "lat": 38.8650395, "is_disabled": 0, "lon": -76.989892, "fusion_lon": 0.0, "is_reserved": 0, "fusion_lat": 0.0, "rental_uris": {"android": "https://dc.lft.to/lastmile_qr_scan", "ios": "https://dc.lft.to/lastmile_qr_scan"}, "type": "electric_scooter", "name": "35d44cb228cbfafe1edf2db8c5c78686"}, {"bike_id": "1b1e3fbfe5aa07c19b2e43446367050f", "lat": 38.88720466666667, "is_disabled": 0, "lon": -77.02195983333333, "fusion_lon": 0.0, "is_reserved": 0, "fusion_lat": 0.0, "rental_uris": {"android": "https://dc.lft.to/lastmile_qr_scan", "ios": "https://dc.lft.to/lastmile_qr_scan"}, "type": "electric_scooter", "name": "1b1e3fbfe5aa07c19b2e43446367050f"}, {"bike_id": "0c4a7d5e95dba3c4091f48966fe5e892", "lat": 38.92048466666667, "is_disabled": 0, "lon": -77.0243855, "fusion_lon": 0.0, "is_reserved": 0, "fusion_lat": 0.0, "rental_uris": {"android": "https://dc.lft.to/lastmile_qr_scan", "ios": "https://dc.lft.to/lastmile_qr_scan"}, "type": "electric_scooter", "name": "0c4a7d5e95dba3c4091f48966fe5e892"}, {"bike_id": "b16c43300020904a371534cb7c69bc2b", "lat": 38.91799, "is_disabled": 0, "lon": -77.04437766666666, "fusion_lon": 0.0, "is_reserved": 0, "fusion_lat": 0.0, "rental_uris": {"android": "https://dc.lft.to/lastmile_qr_scan", "ios": "https://dc.lft.to/lastmile_qr_scan"}, "type": "electric_scooter", "name": "b16c43300020904a371534cb7c69bc2b"}, {"bike_id": "3581cef957dae4c7cf260a1afd7856a1", "lat": 38.91756916666667, "is_disabled": 0, "lon": -77.03908916666667, "fusion_lon": 0.0, "is_reserved": 0, "fusion_lat": 0.0, "rental_uris": {"android": "https://dc.lft.to/lastmile_qr_scan", "ios": "https://dc.lft.to/lastmile_qr_scan"}, "type": "electric_scooter", "name": "3581cef957dae4c7cf260a1afd7856a1"}, {"bike_id": "e6c826c1be96f916cf33cf022ee081dc", "lat": 38.933922333333335, "is_disabled": 0, "lon": -77.04552533333333, "fusion_lon": 0.0, "is_reserved": 0, "fusion_lat": 0.0, "rental_uris": {"android": "https://dc.lft.to/lastmile_qr_scan", "ios": "https://dc.lft.to/lastmile_qr_scan"}, "type": "electric_scooter", "name": "e6c826c1be96f916cf33cf022ee081dc"}, {"bike_id": "0687fcc36cfc77d12d8b8d405e997c32", "lat": 38.897415333333335, "is_disabled": 0, "lon": -77.00921716666667, "fusion_lon": 0.0, "is_reserved": 0, "fusion_lat": 0.0, "rental_uris": {"android": "https://dc.lft.to/lastmile_qr_scan", "ios": "https://dc.lft.to/lastmile_qr_scan"}, "type": "electric_scooter", "name": "0687fcc36cfc77d12d8b8d405e997c32"}, {"bike_id": "92552f8a9abfd736e90aad8b82c385cc", "lat": 38.863656666666664, "is_disabled": 0, "lon": -76.9904155, "fusion_lon": 0.0, "is_reserved": 0, "fusion_lat": 0.0, "rental_uris": {"android": "https://dc.lft.to/lastmile_qr_scan", "ios": "https://dc.lft.to/lastmile_qr_scan"}, "type": "electric_scooter", "name": "92552f8a9abfd736e90aad8b82c385cc"}, {"bike_id": "61b03a004d27f64e70bddc30a9ce0293", "lat": 38.947016833333336, "is_disabled": 0, "lon": -77.01938633333333, "fusion_lon": 0.0, "is_reserved": 0, "fusion_lat": 0.0, "rental_uris": {"android": "https://dc.lft.to/lastmile_qr_scan", "ios": "https://dc.lft.to/lastmile_qr_scan"}, "type": "electric_scooter", "name": "61b03a004d27f64e70bddc30a9ce0293"}, {"bike_id": "90bab08f07d9c8b9218b2d3e8e68942f", "lat": 38.904757833333335, "is_disabled": 0, "lon": -77.03564366666667, "fusion_lon": 0.0, "is_reserved": 0, "fusion_lat": 0.0, "rental_uris": {"android": "https://dc.lft.to/lastmile_qr_scan", "ios": "https://dc.lft.to/lastmile_qr_scan"}, "type": "electric_scooter", "name": "90bab08f07d9c8b9218b2d3e8e68942f"}, {"bike_id": "0d415ffc9245aed56e08b8f67b645e3f", "lat": 38.898869166666664, "is_disabled": 0, "lon": -76.931769, "fusion_lon": 0.0, "is_reserved": 0, "fusion_lat": 0.0, "rental_uris": {"android": "https://dc.lft.to/lastmile_qr_scan", "ios": "https://dc.lft.to/lastmile_qr_scan"}, "type": "electric_scooter", "name": "0d415ffc9245aed56e08b8f67b645e3f"}, {"bike_id": "3bb7c12861268aabc5b8079354bebf63", "lat": 38.8772095, "is_disabled": 0, "lon": -77.017592, "fusion_lon": 0.0, "is_reserved": 0, "fusion_lat": 0.0, "rental_uris": {"android": "https://dc.lft.to/lastmile_qr_scan", "ios": "https://dc.lft.to/lastmile_qr_scan"}, "type": "electric_scooter", "name": "3bb7c12861268aabc5b8079354bebf63"}, {"bike_id": "886f0b6d80f4dc7652ae7f5910d2d0d5", "lat": 38.892205, "is_disabled": 0, "lon": -77.02370483333333, "fusion_lon": 0.0, "is_reserved": 0, "fusion_lat": 0.0, "rental_uris": {"android": "https://dc.lft.to/lastmile_qr_scan", "ios": "https://dc.lft.to/lastmile_qr_scan"}, "type": "electric_scooter", "name": "886f0b6d80f4dc7652ae7f5910d2d0d5"}, {"bike_id": "1dfc15b6aedbe6795ba30bc3f28fb1de", "lat": 38.905635, "is_disabled": 0, "lon": -77.0262285, "fusion_lon": 0.0, "is_reserved": 0, "fusion_lat": 0.0, "rental_uris": {"android": "https://dc.lft.to/lastmile_qr_scan", "ios": "https://dc.lft.to/lastmile_qr_scan"}, "type": "electric_scooter", "name": "1dfc15b6aedbe6795ba30bc3f28fb1de"}, {"bike_id": "5dabb0fca278f99805b2d5b3c428a7a2", "lat": 38.927118166666666, "is_disabled": 0, "lon": -77.05366483333333, "fusion_lon": 0.0, "is_reserved": 0, "fusion_lat": 0.0, "rental_uris": {"android": "https://dc.lft.to/lastmile_qr_scan", "ios": "https://dc.lft.to/lastmile_qr_scan"}, "type": "electric_scooter", "name": "5dabb0fca278f99805b2d5b3c428a7a2"}, {"bike_id": "96e1a01fced179adc0f59d527e402b47", "lat": 38.9199865, "is_disabled": 0, "lon": -77.02135666666666, "fusion_lon": 0.0, "is_reserved": 0, "fusion_lat": 0.0, "rental_uris": {"android": "https://dc.lft.to/lastmile_qr_scan", "ios": "https://dc.lft.to/lastmile_qr_scan"}, "type": "electric_scooter", "name": "96e1a01fced179adc0f59d527e402b47"}, {"bike_id": "c07ef6f7803889c4fae8bb1c0a99f25f", "lat": 38.905548333333336, "is_disabled": 0, "lon": -77.03251416666667, "fusion_lon": 0.0, "is_reserved": 0, "fusion_lat": 0.0, "rental_uris": {"android": "https://dc.lft.to/lastmile_qr_scan", "ios": "https://dc.lft.to/lastmile_qr_scan"}, "type": "electric_scooter", "name": "c07ef6f7803889c4fae8bb1c0a99f25f"}, {"bike_id": "ea8cf5f9cc29c7bda0d0cef0b0184ef2", "lat": 38.92352833333333, "is_disabled": 0, "lon": -77.01894133333333, "fusion_lon": 0.0, "is_reserved": 0, "fusion_lat": 0.0, "rental_uris": {"android": "https://dc.lft.to/lastmile_qr_scan", "ios": "https://dc.lft.to/lastmile_qr_scan"}, "type": "electric_scooter", "name": "ea8cf5f9cc29c7bda0d0cef0b0184ef2"}, {"bike_id": "14efc8260ae96c338340c83b242eed08", "lat": 38.90467233333333, "is_disabled": 0, "lon": -76.9950415, "fusion_lon": 0.0, "is_reserved": 0, "fusion_lat": 0.0, "rental_uris": {"android": "https://dc.lft.to/lastmile_qr_scan", "ios": "https://dc.lft.to/lastmile_qr_scan"}, "type": "electric_scooter", "name": "14efc8260ae96c338340c83b242eed08"}, {"bike_id": "f4cc71f8aa9ebc9f1975e0a87fd43b2b", "lat": 38.92256116666667, "is_disabled": 0, "lon": -77.020067, "fusion_lon": 0.0, "is_reserved": 0, "fusion_lat": 0.0, "rental_uris": {"android": "https://dc.lft.to/lastmile_qr_scan", "ios": "https://dc.lft.to/lastmile_qr_scan"}, "type": "electric_scooter", "name": "f4cc71f8aa9ebc9f1975e0a87fd43b2b"}, {"bike_id": "8cd6d51ac5ad129e2435755a5c359215", "lat": 38.919187666666666, "is_disabled": 0, "lon": -77.07942733333333, "fusion_lon": 0.0, "is_reserved": 0, "fusion_lat": 0.0, "rental_uris": {"android": "https://dc.lft.to/lastmile_qr_scan", "ios": "https://dc.lft.to/lastmile_qr_scan"}, "type": "electric_scooter", "name": "8cd6d51ac5ad129e2435755a5c359215"}, {"bike_id": "4f6ec39cc23833d7a2e9d7b029c54261", "lat": 38.8756625, "is_disabled": 0, "lon": -77.02049616666666, "fusion_lon": 0.0, "is_reserved": 0, "fusion_lat": 0.0, "rental_uris": {"android": "https://dc.lft.to/lastmile_qr_scan", "ios": "https://dc.lft.to/lastmile_qr_scan"}, "type": "electric_scooter", "name": "4f6ec39cc23833d7a2e9d7b029c54261"}, {"bike_id": "61ef56f1e2164d14d251e9334eb521ef", "lat": 38.92299466666667, "is_disabled": 0, "lon": -77.023237, "fusion_lon": 0.0, "is_reserved": 0, "fusion_lat": 0.0, "rental_uris": {"android": "https://dc.lft.to/lastmile_qr_scan", "ios": "https://dc.lft.to/lastmile_qr_scan"}, "type": "electric_scooter", "name": "61ef56f1e2164d14d251e9334eb521ef"}, {"bike_id": "4eea7e477793b89a787004dd9c72dcda", "lat": 38.91425316666667, "is_disabled": 0, "lon": -77.0459225, "fusion_lon": 0.0, "is_reserved": 0, "fusion_lat": 0.0, "rental_uris": {"android": "https://dc.lft.to/lastmile_qr_scan", "ios": "https://dc.lft.to/lastmile_qr_scan"}, "type": "electric_scooter", "name": "4eea7e477793b89a787004dd9c72dcda"}, {"bike_id": "c00b6ca411f239ebcba7fbf23e7270ae", "lat": 38.924602166666666, "is_disabled": 0, "lon": -77.039716, "fusion_lon": 0.0, "is_reserved": 0, "fusion_lat": 0.0, "rental_uris": {"android": "https://dc.lft.to/lastmile_qr_scan", "ios": "https://dc.lft.to/lastmile_qr_scan"}, "type": "electric_scooter", "name": "c00b6ca411f239ebcba7fbf23e7270ae"}, {"bike_id": "daf56cfbe06151936f6b5ad428ee285a", "lat": 38.857325333333335, "is_disabled": 0, "lon": -76.9910055, "fusion_lon": 0.0, "is_reserved": 0, "fusion_lat": 0.0, "rental_uris": {"android": "https://dc.lft.to/lastmile_qr_scan", "ios": "https://dc.lft.to/lastmile_qr_scan"}, "type": "electric_scooter", "name": "daf56cfbe06151936f6b5ad428ee285a"}, {"bike_id": "3833ae014a8ec7614c0e8dcc77bf6e88", "lat": 38.90698666666667, "is_disabled": 0, "lon": -77.045007, "fusion_lon": 0.0, "is_reserved": 0, "fusion_lat": 0.0, "rental_uris": {"android": "https://dc.lft.to/lastmile_qr_scan", "ios": "https://dc.lft.to/lastmile_qr_scan"}, "type": "electric_scooter", "name": "3833ae014a8ec7614c0e8dcc77bf6e88"}, {"bike_id": "9e29068c581610266ff8b167426e7187", "lat": 38.91318783333333, "is_disabled": 0, "lon": -77.04712816666667, "fusion_lon": 0.0, "is_reserved": 0, "fusion_lat": 0.0, "rental_uris": {"android": "https://dc.lft.to/lastmile_qr_scan", "ios": "https://dc.lft.to/lastmile_qr_scan"}, "type": "electric_scooter", "name": "9e29068c581610266ff8b167426e7187"}, {"bike_id": "ef316718876ec9632b7dec28b787c42b", "lat": 38.92139983333333, "is_disabled": 0, "lon": -77.01792883333333, "fusion_lon": 0.0, "is_reserved": 0, "fusion_lat": 0.0, "rental_uris": {"android": "https://dc.lft.to/lastmile_qr_scan", "ios": "https://dc.lft.to/lastmile_qr_scan"}, "type": "electric_scooter", "name": "ef316718876ec9632b7dec28b787c42b"}, {"bike_id": "fe11512953f00fa2b029f677645d085c", "lat": 38.87979266666667, "is_disabled": 0, "lon": -77.006031, "fusion_lon": 0.0, "is_reserved": 0, "fusion_lat": 0.0, "rental_uris": {"android": "https://dc.lft.to/lastmile_qr_scan", "ios": "https://dc.lft.to/lastmile_qr_scan"}, "type": "electric_scooter", "name": "fe11512953f00fa2b029f677645d085c"}, {"bike_id": "328f764f82bcadf81b1e662b0f6ef7c2", "lat": 38.91634083333334, "is_disabled": 0, "lon": -77.02554733333334, "fusion_lon": 0.0, "is_reserved": 0, "fusion_lat": 0.0, "rental_uris": {"android": "https://dc.lft.to/lastmile_qr_scan", "ios": "https://dc.lft.to/lastmile_qr_scan"}, "type": "electric_scooter", "name": "328f764f82bcadf81b1e662b0f6ef7c2"}, {"bike_id": "4a4bc7aafccd029727417b08c6e1dd1e", "lat": 38.8859115, "is_disabled": 0, "lon": -76.94052466666666, "fusion_lon": 0.0, "is_reserved": 0, "fusion_lat": 0.0, "rental_uris": {"android": "https://dc.lft.to/lastmile_qr_scan", "ios": "https://dc.lft.to/lastmile_qr_scan"}, "type": "electric_scooter", "name": "4a4bc7aafccd029727417b08c6e1dd1e"}, {"bike_id": "7344e9a3eafabff83e3c6938b36129a1", "lat": 38.924196, "is_disabled": 0, "lon": -77.01951716666666, "fusion_lon": 0.0, "is_reserved": 0, "fusion_lat": 0.0, "rental_uris": {"android": "https://dc.lft.to/lastmile_qr_scan", "ios": "https://dc.lft.to/lastmile_qr_scan"}, "type": "electric_scooter", "name": "7344e9a3eafabff83e3c6938b36129a1"}, {"bike_id": "96bb269f4c727bc54bbba9d09f882d7a", "lat": 38.909765, "is_disabled": 0, "lon": -76.99518433333333, "fusion_lon": 0.0, "is_reserved": 0, "fusion_lat": 0.0, "rental_uris": {"android": "https://dc.lft.to/lastmile_qr_scan", "ios": "https://dc.lft.to/lastmile_qr_scan"}, "type": "electric_scooter", "name": "96bb269f4c727bc54bbba9d09f882d7a"}, {"bike_id": "3b673eae42c1678861c0422be1062292", "lat": 38.88510466666666, "is_disabled": 0, "lon": -76.95288633333334, "fusion_lon": 0.0, "is_reserved": 0, "fusion_lat": 0.0, "rental_uris": {"android": "https://dc.lft.to/lastmile_qr_scan", "ios": "https://dc.lft.to/lastmile_qr_scan"}, "type": "electric_scooter", "name": "3b673eae42c1678861c0422be1062292"}, {"bike_id": "9abc9ec649c2322a52beed849f03a293", "lat": 38.91266483333333, "is_disabled": 0, "lon": -77.0420005, "fusion_lon": 0.0, "is_reserved": 0, "fusion_lat": 0.0, "rental_uris": {"android": "https://dc.lft.to/lastmile_qr_scan", "ios": "https://dc.lft.to/lastmile_qr_scan"}, "type": "electric_scooter", "name": "9abc9ec649c2322a52beed849f03a293"}, {"bike_id": "7df85d0a84b8b84c8fe24577adc71389", "lat": 38.912539833333334, "is_disabled": 0, "lon": -77.021079, "fusion_lon": 0.0, "is_reserved": 0, "fusion_lat": 0.0, "rental_uris": {"android": "https://dc.lft.to/lastmile_qr_scan", "ios": "https://dc.lft.to/lastmile_qr_scan"}, "type": "electric_scooter", "name": "7df85d0a84b8b84c8fe24577adc71389"}, {"bike_id": "5c46409dbebc77d15b0077cdc06defca", "lat": 38.91819666666667, "is_disabled": 0, "lon": -77.04006666666666, "fusion_lon": 0.0, "is_reserved": 0, "fusion_lat": 0.0, "rental_uris": {"android": "https://dc.lft.to/lastmile_qr_scan", "ios": "https://dc.lft.to/lastmile_qr_scan"}, "type": "electric_scooter", "name": "5c46409dbebc77d15b0077cdc06defca"}, {"bike_id": "aac42aa00286af8129495b774460ae87", "lat": 38.9081245, "is_disabled": 0, "lon": -77.0386595, "fusion_lon": 0.0, "is_reserved": 0, "fusion_lat": 0.0, "rental_uris": {"android": "https://dc.lft.to/lastmile_qr_scan", "ios": "https://dc.lft.to/lastmile_qr_scan"}, "type": "electric_scooter", "name": "aac42aa00286af8129495b774460ae87"}, {"bike_id": "510fdc00b0cbdde06c15f8c006c31359", "lat": 38.911739, "is_disabled": 0, "lon": -77.04162916666667, "fusion_lon": 0.0, "is_reserved": 0, "fusion_lat": 0.0, "rental_uris": {"android": "https://dc.lft.to/lastmile_qr_scan", "ios": "https://dc.lft.to/lastmile_qr_scan"}, "type": "electric_scooter", "name": "510fdc00b0cbdde06c15f8c006c31359"}, {"bike_id": "bdc3553ae7191342208bda6a08fecf71", "lat": 38.95085683333333, "is_disabled": 0, "lon": -77.06652683333333, "fusion_lon": 0.0, "is_reserved": 0, "fusion_lat": 0.0, "rental_uris": {"android": "https://dc.lft.to/lastmile_qr_scan", "ios": "https://dc.lft.to/lastmile_qr_scan"}, "type": "electric_bike", "name": "bdc3553ae7191342208bda6a08fecf71"}, {"bike_id": "de2ad495daca8de5a305f18ffe9a6644", "lat": 38.895034333333335, "is_disabled": 0, "lon": -76.988263, "fusion_lon": 0.0, "is_reserved": 0, "fusion_lat": 0.0, "rental_uris": {"android": "https://dc.lft.to/lastmile_qr_scan", "ios": "https://dc.lft.to/lastmile_qr_scan"}, "type": "electric_scooter", "name": "de2ad495daca8de5a305f18ffe9a6644"}, {"bike_id": "903c2b90d14c570af11edcab5b1c64f2", "lat": 38.922382, "is_disabled": 0, "lon": -77.0334905, "fusion_lon": 0.0, "is_reserved": 0, "fusion_lat": 0.0, "rental_uris": {"android": "https://dc.lft.to/lastmile_qr_scan", "ios": "https://dc.lft.to/lastmile_qr_scan"}, "type": "electric_scooter", "name": "903c2b90d14c570af11edcab5b1c64f2"}, {"bike_id": "2a5ebdd70b7199d39803b453cadacd2f", "lat": 38.9059815, "is_disabled": 0, "lon": -77.03322416666667, "fusion_lon": 0.0, "is_reserved": 0, "fusion_lat": 0.0, "rental_uris": {"android": "https://dc.lft.to/lastmile_qr_scan", "ios": "https://dc.lft.to/lastmile_qr_scan"}, "type": "electric_scooter", "name": "2a5ebdd70b7199d39803b453cadacd2f"}, {"bike_id": "9862fd4a8b45cd086ee4fc97ebdb2e09", "lat": 38.89916366666667, "is_disabled": 0, "lon": -77.02409616666667, "fusion_lon": 0.0, "is_reserved": 0, "fusion_lat": 0.0, "rental_uris": {"android": "https://dc.lft.to/lastmile_qr_scan", "ios": "https://dc.lft.to/lastmile_qr_scan"}, "type": "electric_scooter", "name": "9862fd4a8b45cd086ee4fc97ebdb2e09"}, {"bike_id": "4d4be78c493886637e3ef73343943185", "lat": 38.916516, "is_disabled": 0, "lon": -77.04162633333334, "fusion_lon": 0.0, "is_reserved": 0, "fusion_lat": 0.0, "rental_uris": {"android": "https://dc.lft.to/lastmile_qr_scan", "ios": "https://dc.lft.to/lastmile_qr_scan"}, "type": "electric_scooter", "name": "4d4be78c493886637e3ef73343943185"}, {"bike_id": "566112b42688d1df3b7494ef6337ba3b", "lat": 38.877313, "is_disabled": 0, "lon": -77.00678733333334, "fusion_lon": 0.0, "is_reserved": 0, "fusion_lat": 0.0, "rental_uris": {"android": "https://dc.lft.to/lastmile_qr_scan", "ios": "https://dc.lft.to/lastmile_qr_scan"}, "type": "electric_scooter", "name": "566112b42688d1df3b7494ef6337ba3b"}, {"bike_id": "8f35fb6013cc27e377274b353679118d", "lat": 38.9306385, "is_disabled": 0, "lon": -77.02328833333333, "fusion_lon": 0.0, "is_reserved": 0, "fusion_lat": 0.0, "rental_uris": {"android": "https://dc.lft.to/lastmile_qr_scan", "ios": "https://dc.lft.to/lastmile_qr_scan"}, "type": "electric_scooter", "name": "8f35fb6013cc27e377274b353679118d"}, {"bike_id": "2ee62b7695df55f05f4bdabcc65cb190", "lat": 38.8922435, "is_disabled": 0, "lon": -77.02780966666667, "fusion_lon": 0.0, "is_reserved": 0, "fusion_lat": 0.0, "rental_uris": {"android": "https://dc.lft.to/lastmile_qr_scan", "ios": "https://dc.lft.to/lastmile_qr_scan"}, "type": "electric_scooter", "name": "2ee62b7695df55f05f4bdabcc65cb190"}, {"bike_id": "6024e180ce14175536af13e4cc6145b5", "lat": 38.91191366666666, "is_disabled": 0, "lon": -77.03832833333334, "fusion_lon": 0.0, "is_reserved": 0, "fusion_lat": 0.0, "rental_uris": {"android": "https://dc.lft.to/lastmile_qr_scan", "ios": "https://dc.lft.to/lastmile_qr_scan"}, "type": "electric_scooter", "name": "6024e180ce14175536af13e4cc6145b5"}, {"bike_id": "53ce163950e41d0bf3a5fb7e8d523a3b", "lat": 38.902517833333334, "is_disabled": 0, "lon": -77.02754783333333, "fusion_lon": 0.0, "is_reserved": 0, "fusion_lat": 0.0, "rental_uris": {"android": "https://dc.lft.to/lastmile_qr_scan", "ios": "https://dc.lft.to/lastmile_qr_scan"}, "type": "electric_scooter", "name": "53ce163950e41d0bf3a5fb7e8d523a3b"}, {"bike_id": "8f9589c4db5e4c2495c9b961c208829b", "lat": 38.87863683333333, "is_disabled": 0, "lon": -77.02305116666666, "fusion_lon": 0.0, "is_reserved": 0, "fusion_lat": 0.0, "rental_uris": {"android": "https://dc.lft.to/lastmile_qr_scan", "ios": "https://dc.lft.to/lastmile_qr_scan"}, "type": "electric_scooter", "name": "8f9589c4db5e4c2495c9b961c208829b"}, {"bike_id": "168165ee25e8b93cac1ee9681ce404fd", "lat": 38.85773366666667, "is_disabled": 0, "lon": -76.98766133333334, "fusion_lon": 0.0, "is_reserved": 0, "fusion_lat": 0.0, "rental_uris": {"android": "https://dc.lft.to/lastmile_qr_scan", "ios": "https://dc.lft.to/lastmile_qr_scan"}, "type": "electric_bike", "name": "168165ee25e8b93cac1ee9681ce404fd"}, {"bike_id": "6bfdf20eb705e56b74a5beea690d743e", "lat": 38.933225, "is_disabled": 0, "lon": -77.03817866666667, "fusion_lon": 0.0, "is_reserved": 0, "fusion_lat": 0.0, "rental_uris": {"android": "https://dc.lft.to/lastmile_qr_scan", "ios": "https://dc.lft.to/lastmile_qr_scan"}, "type": "electric_scooter", "name": "6bfdf20eb705e56b74a5beea690d743e"}, {"bike_id": "50f4cf250d4937fc2f9da160dbb49ec1", "lat": 38.91358783333333, "is_disabled": 0, "lon": -77.04666233333333, "fusion_lon": 0.0, "is_reserved": 0, "fusion_lat": 0.0, "rental_uris": {"android": "https://dc.lft.to/lastmile_qr_scan", "ios": "https://dc.lft.to/lastmile_qr_scan"}, "type": "electric_scooter", "name": "50f4cf250d4937fc2f9da160dbb49ec1"}, {"bike_id": "5c47b26a707ab931065b7ce062f630b7", "lat": 38.899431166666666, "is_disabled": 0, "lon": -77.04183816666666, "fusion_lon": 0.0, "is_reserved": 0, "fusion_lat": 0.0, "rental_uris": {"android": "https://dc.lft.to/lastmile_qr_scan", "ios": "https://dc.lft.to/lastmile_qr_scan"}, "type": "electric_scooter", "name": "5c47b26a707ab931065b7ce062f630b7"}, {"bike_id": "fc9d363f134da095461dd6099b2744fb", "lat": 38.892324, "is_disabled": 0, "lon": -77.028375, "fusion_lon": 0.0, "is_reserved": 0, "fusion_lat": 0.0, "rental_uris": {"android": "https://dc.lft.to/lastmile_qr_scan", "ios": "https://dc.lft.to/lastmile_qr_scan"}, "type": "electric_scooter", "name": "fc9d363f134da095461dd6099b2744fb"}, {"bike_id": "f35409dda7fdd4fa3100b6288b9629dc", "lat": 38.910159166666666, "is_disabled": 0, "lon": -77.044568, "fusion_lon": 0.0, "is_reserved": 0, "fusion_lat": 0.0, "rental_uris": {"android": "https://dc.lft.to/lastmile_qr_scan", "ios": "https://dc.lft.to/lastmile_qr_scan"}, "type": "electric_scooter", "name": "f35409dda7fdd4fa3100b6288b9629dc"}, {"bike_id": "52453e3e2035dd3d7f2a9ae882f2cd1d", "lat": 38.859986166666665, "is_disabled": 0, "lon": -76.9855415, "fusion_lon": 0.0, "is_reserved": 0, "fusion_lat": 0.0, "rental_uris": {"android": "https://dc.lft.to/lastmile_qr_scan", "ios": "https://dc.lft.to/lastmile_qr_scan"}, "type": "electric_scooter", "name": "52453e3e2035dd3d7f2a9ae882f2cd1d"}, {"bike_id": "6354c544dcc2dd7acf6562ae4495d85d", "lat": 38.916393, "is_disabled": 0, "lon": -77.0321405, "fusion_lon": 0.0, "is_reserved": 0, "fusion_lat": 0.0, "rental_uris": {"android": "https://dc.lft.to/lastmile_qr_scan", "ios": "https://dc.lft.to/lastmile_qr_scan"}, "type": "electric_scooter", "name": "6354c544dcc2dd7acf6562ae4495d85d"}, {"bike_id": "7aef1af53ba9d6b3421593ecde744f60", "lat": 38.976572, "is_disabled": 0, "lon": -77.01917683333333, "fusion_lon": 0.0, "is_reserved": 0, "fusion_lat": 0.0, "rental_uris": {"android": "https://dc.lft.to/lastmile_qr_scan", "ios": "https://dc.lft.to/lastmile_qr_scan"}, "type": "electric_bike", "name": "7aef1af53ba9d6b3421593ecde744f60"}, {"bike_id": "c7fe5974298e26528dbeaed71c411adf", "lat": 38.90698483333333, "is_disabled": 0, "lon": -76.9885625, "fusion_lon": 0.0, "is_reserved": 0, "fusion_lat": 0.0, "rental_uris": {"android": "https://dc.lft.to/lastmile_qr_scan", "ios": "https://dc.lft.to/lastmile_qr_scan"}, "type": "electric_scooter", "name": "c7fe5974298e26528dbeaed71c411adf"}, {"bike_id": "86a022d2a99595f6016fdb7ec8cc6571", "lat": 38.8888705, "is_disabled": 0, "lon": -76.9903315, "fusion_lon": 0.0, "is_reserved": 0, "fusion_lat": 0.0, "rental_uris": {"android": "https://dc.lft.to/lastmile_qr_scan", "ios": "https://dc.lft.to/lastmile_qr_scan"}, "type": "electric_scooter", "name": "86a022d2a99595f6016fdb7ec8cc6571"}, {"bike_id": "e5f08f503cb76f462683dde809324232", "lat": 38.91546133333333, "is_disabled": 0, "lon": -77.03861916666666, "fusion_lon": 0.0, "is_reserved": 0, "fusion_lat": 0.0, "rental_uris": {"android": "https://dc.lft.to/lastmile_qr_scan", "ios": "https://dc.lft.to/lastmile_qr_scan"}, "type": "electric_scooter", "name": "e5f08f503cb76f462683dde809324232"}, {"bike_id": "6a32e62ee34826321c64089dc53c36b4", "lat": 38.911167166666665, "is_disabled": 0, "lon": -77.00750833333333, "fusion_lon": 0.0, "is_reserved": 0, "fusion_lat": 0.0, "rental_uris": {"android": "https://dc.lft.to/lastmile_qr_scan", "ios": "https://dc.lft.to/lastmile_qr_scan"}, "type": "electric_scooter", "name": "6a32e62ee34826321c64089dc53c36b4"}, {"bike_id": "f2cfa50a19b80b240edbf45799806809", "lat": 38.97521733333333, "is_disabled": 0, "lon": -77.017402, "fusion_lon": 0.0, "is_reserved": 0, "fusion_lat": 0.0, "rental_uris": {"android": "https://dc.lft.to/lastmile_qr_scan", "ios": "https://dc.lft.to/lastmile_qr_scan"}, "type": "electric_scooter", "name": "f2cfa50a19b80b240edbf45799806809"}, {"bike_id": "e9fe8217e55c4b72971e1903dde4474c", "lat": 38.93356883333333, "is_disabled": 0, "lon": -77.03658516666667, "fusion_lon": 0.0, "is_reserved": 0, "fusion_lat": 0.0, "rental_uris": {"android": "https://dc.lft.to/lastmile_qr_scan", "ios": "https://dc.lft.to/lastmile_qr_scan"}, "type": "electric_scooter", "name": "e9fe8217e55c4b72971e1903dde4474c"}, {"bike_id": "4f309dd3a556be9045166f97788b6361", "lat": 38.934714666666665, "is_disabled": 0, "lon": -77.041337, "fusion_lon": 0.0, "is_reserved": 0, "fusion_lat": 0.0, "rental_uris": {"android": "https://dc.lft.to/lastmile_qr_scan", "ios": "https://dc.lft.to/lastmile_qr_scan"}, "type": "electric_scooter", "name": "4f309dd3a556be9045166f97788b6361"}, {"bike_id": "e77a7741999a66ab549056797c507c40", "lat": 38.9056815, "is_disabled": 0, "lon": -77.03969, "fusion_lon": 0.0, "is_reserved": 0, "fusion_lat": 0.0, "rental_uris": {"android": "https://dc.lft.to/lastmile_qr_scan", "ios": "https://dc.lft.to/lastmile_qr_scan"}, "type": "electric_scooter", "name": "e77a7741999a66ab549056797c507c40"}, {"bike_id": "251f6c2f3dc21d26b17c13536f3ff8de", "lat": 38.909610666666666, "is_disabled": 0, "lon": -77.04457916666667, "fusion_lon": 0.0, "is_reserved": 0, "fusion_lat": 0.0, "rental_uris": {"android": "https://dc.lft.to/lastmile_qr_scan", "ios": "https://dc.lft.to/lastmile_qr_scan"}, "type": "electric_scooter", "name": "251f6c2f3dc21d26b17c13536f3ff8de"}, {"bike_id": "d51955b4d6ee46b7cc7767763edc43a2", "lat": 38.90091616666667, "is_disabled": 0, "lon": -77.04996516666667, "fusion_lon": 0.0, "is_reserved": 0, "fusion_lat": 0.0, "rental_uris": {"android": "https://dc.lft.to/lastmile_qr_scan", "ios": "https://dc.lft.to/lastmile_qr_scan"}, "type": "electric_scooter", "name": "d51955b4d6ee46b7cc7767763edc43a2"}, {"bike_id": "31c25cc4b33e6b5b0fc4ce15cf6a3368", "lat": 38.90368516666667, "is_disabled": 0, "lon": -77.00740316666666, "fusion_lon": 0.0, "is_reserved": 0, "fusion_lat": 0.0, "rental_uris": {"android": "https://dc.lft.to/lastmile_qr_scan", "ios": "https://dc.lft.to/lastmile_qr_scan"}, "type": "electric_scooter", "name": "31c25cc4b33e6b5b0fc4ce15cf6a3368"}, {"bike_id": "c9bac094f0bf321e07beb3a3e820babe", "lat": 38.905204166666664, "is_disabled": 0, "lon": -77.06378166666667, "fusion_lon": 0.0, "is_reserved": 0, "fusion_lat": 0.0, "rental_uris": {"android": "https://dc.lft.to/lastmile_qr_scan", "ios": "https://dc.lft.to/lastmile_qr_scan"}, "type": "electric_scooter", "name": "c9bac094f0bf321e07beb3a3e820babe"}, {"bike_id": "ed9c1cdd5af31944fed3337b5500c856", "lat": 38.907864333333336, "is_disabled": 0, "lon": -77.072553, "fusion_lon": 0.0, "is_reserved": 0, "fusion_lat": 0.0, "rental_uris": {"android": "https://dc.lft.to/lastmile_qr_scan", "ios": "https://dc.lft.to/lastmile_qr_scan"}, "type": "electric_scooter", "name": "ed9c1cdd5af31944fed3337b5500c856"}, {"bike_id": "78c0f8a08f6cb3671860d33569c4644f", "lat": 38.924411166666665, "is_disabled": 0, "lon": -77.02031183333334, "fusion_lon": 0.0, "is_reserved": 0, "fusion_lat": 0.0, "rental_uris": {"android": "https://dc.lft.to/lastmile_qr_scan", "ios": "https://dc.lft.to/lastmile_qr_scan"}, "type": "electric_scooter", "name": "78c0f8a08f6cb3671860d33569c4644f"}, {"bike_id": "b59a0e5bdbcbd6c3e8aab83469a2e66c", "lat": 38.89504016666667, "is_disabled": 0, "lon": -77.003343, "fusion_lon": 0.0, "is_reserved": 0, "fusion_lat": 0.0, "rental_uris": {"android": "https://dc.lft.to/lastmile_qr_scan", "ios": "https://dc.lft.to/lastmile_qr_scan"}, "type": "electric_scooter", "name": "b59a0e5bdbcbd6c3e8aab83469a2e66c"}, {"bike_id": "ac3a1e4c940935b7eebd8148e5b468ec", "lat": 38.905452, "is_disabled": 0, "lon": -76.986503, "fusion_lon": 0.0, "is_reserved": 0, "fusion_lat": 0.0, "rental_uris": {"android": "https://dc.lft.to/lastmile_qr_scan", "ios": "https://dc.lft.to/lastmile_qr_scan"}, "type": "electric_scooter", "name": "ac3a1e4c940935b7eebd8148e5b468ec"}, {"bike_id": "9a1320e5dced557068cc7da535fefac5", "lat": 38.88999716666667, "is_disabled": 0, "lon": -77.00349216666666, "fusion_lon": 0.0, "is_reserved": 0, "fusion_lat": 0.0, "rental_uris": {"android": "https://dc.lft.to/lastmile_qr_scan", "ios": "https://dc.lft.to/lastmile_qr_scan"}, "type": "electric_scooter", "name": "9a1320e5dced557068cc7da535fefac5"}, {"bike_id": "2ef2eca8e9c4031956444695d6a06cd6", "lat": 38.957819666666666, "is_disabled": 0, "lon": -77.02466283333334, "fusion_lon": 0.0, "is_reserved": 0, "fusion_lat": 0.0, "rental_uris": {"android": "https://dc.lft.to/lastmile_qr_scan", "ios": "https://dc.lft.to/lastmile_qr_scan"}, "type": "electric_scooter", "name": "2ef2eca8e9c4031956444695d6a06cd6"}, {"bike_id": "79dbc6c7d7cf6441fe9050d48a5d2ccc", "lat": 38.9154835, "is_disabled": 0, "lon": -77.0313855, "fusion_lon": 0.0, "is_reserved": 0, "fusion_lat": 0.0, "rental_uris": {"android": "https://dc.lft.to/lastmile_qr_scan", "ios": "https://dc.lft.to/lastmile_qr_scan"}, "type": "electric_scooter", "name": "79dbc6c7d7cf6441fe9050d48a5d2ccc"}, {"bike_id": "d2223e1888efd09c0f8cf87020ad49b8", "lat": 38.90962666666667, "is_disabled": 0, "lon": -77.04695166666667, "fusion_lon": 0.0, "is_reserved": 0, "fusion_lat": 0.0, "rental_uris": {"android": "https://dc.lft.to/lastmile_qr_scan", "ios": "https://dc.lft.to/lastmile_qr_scan"}, "type": "electric_scooter", "name": "d2223e1888efd09c0f8cf87020ad49b8"}, {"bike_id": "f501f3fc52353b715431d0cf15010174", "lat": 38.912947333333335, "is_disabled": 0, "lon": -77.01509416666667, "fusion_lon": 0.0, "is_reserved": 0, "fusion_lat": 0.0, "rental_uris": {"android": "https://dc.lft.to/lastmile_qr_scan", "ios": "https://dc.lft.to/lastmile_qr_scan"}, "type": "electric_scooter", "name": "f501f3fc52353b715431d0cf15010174"}, {"bike_id": "7d57de031b7e85128ff161a199a6ff9c", "lat": 38.89395783333333, "is_disabled": 0, "lon": -76.92304566666667, "fusion_lon": 0.0, "is_reserved": 0, "fusion_lat": 0.0, "rental_uris": {"android": "https://dc.lft.to/lastmile_qr_scan", "ios": "https://dc.lft.to/lastmile_qr_scan"}, "type": "electric_scooter", "name": "7d57de031b7e85128ff161a199a6ff9c"}, {"bike_id": "498f54d11a331b1a13b17c749602cea9", "lat": 38.92882516666667, "is_disabled": 0, "lon": -77.0328685, "fusion_lon": 0.0, "is_reserved": 0, "fusion_lat": 0.0, "rental_uris": {"android": "https://dc.lft.to/lastmile_qr_scan", "ios": "https://dc.lft.to/lastmile_qr_scan"}, "type": "electric_scooter", "name": "498f54d11a331b1a13b17c749602cea9"}, {"bike_id": "44369ef3758919cb44a9faef196698ca", "lat": 38.91763533333334, "is_disabled": 0, "lon": -77.02343033333334, "fusion_lon": 0.0, "is_reserved": 0, "fusion_lat": 0.0, "rental_uris": {"android": "https://dc.lft.to/lastmile_qr_scan", "ios": "https://dc.lft.to/lastmile_qr_scan"}, "type": "electric_scooter", "name": "44369ef3758919cb44a9faef196698ca"},