{"data": {"bikes": [{"type": "electric_bike", "rental_uris": {"ios": "https://dc.lft.to/lastmile_qr_scan", "android": "https://dc.lft.to/lastmile_qr_scan"}, "lon": -77.18742733333333, "fusion_lon": 0.0, "is_disabled": 0, "lat": 38.893508833333335, "bike_id": "5b1356ee4b0bb8c23a01818ab9a40c93", "name": "5b1356ee4b0bb8c23a01818ab9a40c93", "is_reserved": 0, "fusion_lat": 0.0}, {"type": "electric_scooter", "rental_uris": {"ios": "https://dc.lft.to/lastmile_qr_scan", "android": "https://dc.lft.to/lastmile_qr_scan"}, "lon": -77.04028616666666, "fusion_lon": 0.0, "is_disabled": 0, "lat": 38.91804466666667, "bike_id": "2f9c264442b0722269dc33956cc359ba", "name": "2f9c264442b0722269dc33956cc359ba", "is_reserved": 0, "fusion_lat": 0.0}, {"type": "electric_scooter", "rental_uris": {"ios": "https://dc.lft.to/lastmile_qr_scan", "android": "https://dc.lft.to/lastmile_qr_scan"}, "lon": -77.01289383333334, "fusion_lon": 0.0, "is_disabled": 0, "lat": 38.88148866666667, "bike_id": "b3ad65f662092ffdf01bb3984e11c4b8", "name": "b3ad65f662092ffdf01bb3984e11c4b8", "is_reserved": 0, "fusion_lat": 0.0}, {"type": "electric_bike", "rental_uris": {"ios": "https://dc.lft.to/lastmile_qr_scan", "android": "https://dc.lft.to/lastmile_qr_scan"}, "lon": -77.04416166666667, "fusion_lon": 0.0, "is_disabled": 0, "lat": 39.015669333333335, "bike_id": "59dedd73ee83ae4a4a36865d277e809b", "name": "59dedd73ee83ae4a4a36865d277e809b", "is_reserved": 0, "fusion_lat": 0.0}, {"type": "electric_scooter", "rental_uris": {"ios": "https://dc.lft.to/lastmile_qr_scan", "android": "https://dc.lft.to/lastmile_qr_scan"}, "lon": -77.0267645, "fusion_lon": 0.0, "is_disabled": 0, "lat": 38.899377, "bike_id": "7f28a16baae8720e471ffe1474c4ac95", "name": "7f28a16baae8720e471ffe1474c4ac95", "is_reserved": 0, "fusion_lat": 0.0}, {"type": "electric_scooter", "rental_uris": {"ios": "https://dc.lft.to/lastmile_qr_scan", "android": "https://dc.lft.to/lastmile_qr_scan"}, "lon": -77.0259455, "fusion_lon": 0.0, "is_disabled": 0, "lat": 38.90530916666667, "bike_id": "3785ceb5bfe321cb797f77dad92d0b99", "name": "3785ceb5bfe321cb797f77dad92d0b99", "is_reserved": 0, "fusion_lat": 0.0}, {"type": "electric_scooter", "rental_uris": {"ios": "https://dc.lft.to/lastmile_qr_scan", "android": "https://dc.lft.to/lastmile_qr_scan"}, "lon": -77.02690383333334, "fusion_lon": 0.0, "is_disabled": 0, "lat": 38.91688933333333, "bike_id": "9bdcd6a4947e8c4e99ff5ea4e99ee052", "name": "9bdcd6a4947e8c4e99ff5ea4e99ee052", "is_reserved": 0, "fusion_lat": 0.0}, {"type": "electric_scooter", "rental_uris": {"ios": "https://dc.lft.to/lastmile_qr_scan", "android": "https://dc.lft.to/lastmile_qr_scan"}, "lon": -77.04368616666666, "fusion_lon": 0.0, "is_disabled": 0, "lat": 38.89223116666667, "bike_id": "9206458e0854a1301d0d065dcfe010f9", "name": "9206458e0854a1301d0d065dcfe010f9", "is_reserved": 0, "fusion_lat": 0.0}, {"type": "electric_scooter", "rental_uris": {"ios": "https://dc.lft.to/lastmile_qr_scan", "android": "https://dc.lft.to/lastmile_qr_scan"}, "lon": -77.0401065, "fusion_lon": 0.0, "is_disabled": 0, "lat": 38.92205033333333, "bike_id": "4c5c923aa3359cc036dedc6bd368aaad", "name": "4c5c923aa3359cc036dedc6bd368aaad", "is_reserved": 0, "fusion_lat": 0.0}, {"type": "electric_scooter", "rental_uris": {"ios": "https://dc.lft.to/lastmile_qr_scan", "android": "https://dc.lft.to/lastmile_qr_scan"}, "lon": -77.02336966666667, "fusion_lon": 0.0, "is_disabled": 0, "lat": 38.9177185, "bike_id": "90f804d15704680c70419619d0ac11b5", "name": "90f804d15704680c70419619d0ac11b5", "is_reserved": 0, "fusion_lat": 0.0}, {"type": "electric_scooter", "rental_uris": {"ios": "https://dc.lft.to/lastmile_qr_scan", "android": "https://dc.lft.to/lastmile_qr_scan"}, "lon": -77.0279035, "fusion_lon": 0.0, "is_disabled": 0, "lat": 38.9612825, "bike_id": "e4262e3e90d1ad6c013e779f432ffb0e", "name": "e4262e3e90d1ad6c013e779f432ffb0e", "is_reserved": 0, "fusion_lat": 0.0}, {"type": "electric_scooter", "rental_uris": {"ios": "https://dc.lft.to/lastmile_qr_scan", "android": "https://dc.lft.to/lastmile_qr_scan"}, "lon": -77.04475233333334, "fusion_lon": 0.0, "is_disabled": 0, "lat": 38.91532733333333, "bike_id": "339eaa0c28ec1432c2e7ef268de84646", "name": "339eaa0c28ec1432c2e7ef268de84646", "is_reserved": 0, "fusion_lat": 0.0}, {"type": "electric_scooter", "rental_uris": {"ios": "https://dc.lft.to/lastmile_qr_scan", "android": "https://dc.lft.to/lastmile_qr_scan"}, "lon": -77.04244733333333, "fusion_lon": 0.0, "is_disabled": 0, "lat": 38.9076785, "bike_id": "5a8339015041cb23916dda394a559c4d", "name": "5a8339015041cb23916dda394a559c4d", "is_reserved": 0, "fusion_lat": 0.0}, {"type": "electric_scooter", "rental_uris": {"ios": "https://dc.lft.to/lastmile_qr_scan", "android": "https://dc.lft.to/lastmile_qr_scan"}, "lon": -77.03079116666666, "fusion_lon": 0.0, "is_disabled": 0, "lat": 38.91113166666667, "bike_id": "20369c006d4058cede52348e3cd5ba44", "name": "20369c006d4058cede52348e3cd5ba44", "is_reserved": 0, "fusion_lat": 0.0}, {"type": "electric_scooter", "rental_uris": {"ios": "https://dc.lft.to/lastmile_qr_scan", "android": "https://dc.lft.to/lastmile_qr_scan"}, "lon": -76.9463495, "fusion_lon": 0.0, "is_disabled": 0, "lat": 38.898444833333336, "bike_id": "d2baafdacda8135a7736204a57a7177b", "name": "d2baafdacda8135a7736204a57a7177b", "is_reserved": 0, "fusion_lat": 0.0}, {"type": "electric_bike", "rental_uris": {"ios": "https://dc.lft.to/lastmile_qr_scan", "android": "https://dc.lft.to/lastmile_qr_scan"}, "lon": -77.038215, "fusion_lon": 0.0, "is_disabled": 0, "lat": 38.914116166666666, "bike_id": "9bf06deff31dc6476978126b3a322cef", "name": "9bf06deff31dc6476978126b3a322cef", "is_reserved": 0, "fusion_lat": 0.0}, {"type": "electric_scooter", "rental_uris": {"ios": "https://dc.lft.to/lastmile_qr_scan", "android": "https://dc.lft.to/lastmile_qr_scan"}, "lon": -77.0386815, "fusion_lon": 0.0, "is_disabled": 0, "lat": 38.9155545, "bike_id": "f7d8362d4e3938ea4d47dd02dba86995", "name": "f7d8362d4e3938ea4d47dd02dba86995", "is_reserved": 0, "fusion_lat": 0.0}, {"type": "electric_scooter", "rental_uris": {"ios": "https://dc.lft.to/lastmile_qr_scan", "android": "https://dc.lft.to/lastmile_qr_scan"}, "lon": -77.03662566666667, "fusion_lon": 0.0, "is_disabled": 0, "lat": 38.917240666666665, "bike_id": "74bcb6854b92cea7351e7dbbe734fe52", "name": "74bcb6854b92cea7351e7dbbe734fe52", "is_reserved": 0, "fusion_lat": 0.0}, {"type": "electric_scooter", "rental_uris": {"ios": "https://dc.lft.to/lastmile_qr_scan", "android": "https://dc.lft.to/lastmile_qr_scan"}, "lon": -77.03849816666667, "fusion_lon": 0.0, "is_disabled": 0, "lat": 38.932538, "bike_id": "f1fdf68a9751b5593aed0da7b27b4758", "name": "f1fdf68a9751b5593aed0da7b27b4758", "is_reserved": 0, "fusion_lat": 0.0}, {"type": "electric_scooter", "rental_uris": {"ios": "https://dc.lft.to/lastmile_qr_scan", "android": "https://dc.lft.to/lastmile_qr_scan"}, "lon": -77.03287316666666, "fusion_lon": 0.0, "is_disabled": 0, "lat": 38.899352666666665, "bike_id": "581f11a4d16c1647e14c30f26f984e6b", "name": "581f11a4d16c1647e14c30f26f984e6b", "is_reserved": 0, "fusion_lat": 0.0}, {"type": "electric_scooter", "rental_uris": {"ios": "https://dc.lft.to/lastmile_qr_scan", "android": "https://dc.lft.to/lastmile_qr_scan"}, "lon": -77.026085, "fusion_lon": 0.0, "is_disabled": 0, "lat": 38.914157833333334, "bike_id": "4a3ab757845809acc27be77e688770d8", "name": "4a3ab757845809acc27be77e688770d8", "is_reserved": 0, "fusion_lat": 0.0}, {"type": "electric_bike", "rental_uris": {"ios": "https://dc.lft.to/lastmile_qr_scan", "android": "https://dc.lft.to/lastmile_qr_scan"}, "lon": -77.01036966666666, "fusion_lon": 0.0, "is_disabled": 0, "lat": 38.95878183333333, "bike_id": "cc343e0a0b8aafbfff1a6d6ad205d841", "name": "cc343e0a0b8aafbfff1a6d6ad205d841", "is_reserved": 0, "fusion_lat": 0.0}, {"type": "electric_scooter", "rental_uris": {"ios": "https://dc.lft.to/lastmile_qr_scan", "android": "https://dc.lft.to/lastmile_qr_scan"}, "lon": -77.02517616666667, "fusion_lon": 0.0, "is_disabled": 0, "lat": 38.919665333333334, "bike_id": "1118aca59ce86afa00a16c01f956903b", "name": "1118aca59ce86afa00a16c01f956903b", "is_reserved": 0, "fusion_lat": 0.0}, {"type": "electric_bike", "rental_uris": {"ios": "https://dc.lft.to/lastmile_qr_scan", "android": "https://dc.lft.to/lastmile_qr_scan"}, "lon": -77.033531, "fusion_lon": 0.0, "is_disabled": 0, "lat": 38.963204, "bike_id": "4c9ab40993a34defb630e4f406959e89", "name": "4c9ab40993a34defb630e4f406959e89", "is_reserved": 0, "fusion_lat": 0.0}, {"type": "electric_scooter", "rental_uris": {"ios": "https://dc.lft.to/lastmile_qr_scan", "android": "https://dc.lft.to/lastmile_qr_scan"}, "lon": -77.03261283333333, "fusion_lon": 0.0, "is_disabled": 0, "lat": 38.91925066666667, "bike_id": "1d603055699b8c900838d2dcdb70efc7", "name": "1d603055699b8c900838d2dcdb70efc7", "is_reserved": 0, "fusion_lat": 0.0}, {"type": "electric_scooter", "rental_uris": {"ios": "https://dc.lft.to/lastmile_qr_scan", "android": "https://dc.lft.to/lastmile_qr_scan"}, "lon": -77.02434416666667, "fusion_lon": 0.0, "is_disabled": 0, "lat": 38.937955, "bike_id": "51817b78ad95bf0441b42e9645cbeb76", "name": "51817b78ad95bf0441b42e9645cbeb76", "is_reserved": 0, "fusion_lat": 0.0}, {"type": "electric_scooter", "rental_uris": {"ios": "https://dc.lft.to/lastmile_qr_scan", "android": "https://dc.lft.to/lastmile_qr_scan"}, "lon": -77.0274995, "fusion_lon": 0.0, "is_disabled": 0, "lat": 38.927800833333336, "bike_id": "0f08c702d3fd0d691837b49ff58d233e", "name": "0f08c702d3fd0d691837b49ff58d233e", "is_reserved": 0, "fusion_lat": 0.0}, {"type": "electric_scooter", "rental_uris": {"ios": "https://dc.lft.to/lastmile_qr_scan", "android": "https://dc.lft.to/lastmile_qr_scan"}, "lon": -77.03220683333333, "fusion_lon": 0.0, "is_disabled": 0, "lat": 38.90973016666667, "bike_id": "9743d047b1ac9276bf0afe12be10281e", "name": "9743d047b1ac9276bf0afe12be10281e", "is_reserved": 0, "fusion_lat": 0.0}, {"type": "electric_scooter", "rental_uris": {"ios": "https://dc.lft.to/lastmile_qr_scan", "android": "https://dc.lft.to/lastmile_qr_scan"}, "lon": -77.03211633333333, "fusion_lon": 0.0, "is_disabled": 0, "lat": 38.917178, "bike_id": "c3683dbbd270a9023f78b6eaaaf10d02", "name": "c3683dbbd270a9023f78b6eaaaf10d02", "is_reserved": 0, "fusion_lat": 0.0}, {"type": "electric_scooter", "rental_uris": {"ios": "https://dc.lft.to/lastmile_qr_scan", "android": "https://dc.lft.to/lastmile_qr_scan"}, "lon": -77.02177633333334, "fusion_lon": 0.0, "is_disabled": 0, "lat": 38.892987833333336, "bike_id": "9b755fc0af5f75469cb18377ddf28297", "name": "9b755fc0af5f75469cb18377ddf28297", "is_reserved": 0, "fusion_lat": 0.0}, {"type": "electric_scooter", "rental_uris": {"ios": "https://dc.lft.to/lastmile_qr_scan", "android": "https://dc.lft.to/lastmile_qr_scan"}, "lon": -76.97810066666666, "fusion_lon": 0.0, "is_disabled": 0, "lat": 38.894541333333336, "bike_id": "0b2068d76e884df2b9395c6fa518e0ca", "name": "0b2068d76e884df2b9395c6fa518e0ca", "is_reserved": 0, "fusion_lat": 0.0}, {"type": "electric_scooter", "rental_uris": {"ios": "https://dc.lft.to/lastmile_qr_scan", "android": "https://dc.lft.to/lastmile_qr_scan"}, "lon": -77.0210555, "fusion_lon": 0.0, "is_disabled": 0, "lat": 38.945787833333334, "bike_id": "c4bca32b0485038771e8e616dd22ad02", "name": "c4bca32b0485038771e8e616dd22ad02", "is_reserved": 0, "fusion_lat": 0.0}, {"type": "electric_scooter", "rental_uris": {"ios": "https://dc.lft.to/lastmile_qr_scan", "android": "https://dc.lft.to/lastmile_qr_scan"}, "lon": -77.03195866666667, "fusion_lon": 0.0, "is_disabled": 0, "lat": 38.9163145, "bike_id": "15e61ff09f6aa91836b5e06fc080b7b6", "name": "15e61ff09f6aa91836b5e06fc080b7b6", "is_reserved": 0, "fusion_lat": 0.0}, {"type": "electric_bike", "rental_uris": {"ios": "https://dc.lft.to/lastmile_qr_scan", "android": "https://dc.lft.to/lastmile_qr_scan"}, "lon": -77.07903666666667, "fusion_lon": 0.0, "is_disabled": 0, "lat": 38.83930616666667, "bike_id": "ad26b5bc41cc432511b3041e816935d0", "name": "ad26b5bc41cc432511b3041e816935d0", "is_reserved": 0, "fusion_lat": 0.0}, {"type": "electric_bike", "rental_uris": {"ios": "https://dc.lft.to/lastmile_qr_scan", "android": "https://dc.lft.to/lastmile_qr_scan"}, "lon": -76.9821625, "fusion_lon": 0.0, "is_disabled": 0, "lat": 38.985063, "bike_id": "41259e3a494ce1d914b517fbb2cba5e8", "name": "41259e3a494ce1d914b517fbb2cba5e8", "is_reserved": 0, "fusion_lat": 0.0}, {"type": "electric_bike", "rental_uris": {"ios": "https://dc.lft.to/lastmile_qr_scan", "android": "https://dc.lft.to/lastmile_qr_scan"}, "lon": -77.06861266666667, "fusion_lon": 0.0, "is_disabled": 0, "lat": 38.805735, "bike_id": "e325c03ba4b24f9c84e9130ba40758c8", "name": "e325c03ba4b24f9c84e9130ba40758c8", "is_reserved": 0, "fusion_lat": 0.0}, {"type": "electric_bike", "rental_uris": {"ios": "https://dc.lft.to/lastmile_qr_scan", "android": "https://dc.lft.to/lastmile_qr_scan"}, "lon": -77.0177405, "fusion_lon": 0.0, "is_disabled": 0, "lat": 38.982714, "bike_id": "fa5b8f3873a9fb6511e0ee1029dc052b", "name": "fa5b8f3873a9fb6511e0ee1029dc052b", "is_reserved": 0, "fusion_lat": 0.0}, {"type": "electric_scooter", "rental_uris": {"ios": "https://dc.lft.to/lastmile_qr_scan", "android": "https://dc.lft.to/lastmile_qr_scan"}, "lon": -77.05001366666667, "fusion_lon": 0.0, "is_disabled": 0, "lat": 38.892306, "bike_id": "90fba62b9eb6f342b671ccc826645c99", "name": "90fba62b9eb6f342b671ccc826645c99", "is_reserved": 0, "fusion_lat": 0.0}, {"type": "electric_scooter", "rental_uris": {"ios": "https://dc.lft.to/lastmile_qr_scan", "android": "https://dc.lft.to/lastmile_qr_scan"}, "lon": -77.03120933333334, "fusion_lon": 0.0, "is_disabled": 0, "lat": 38.95928633333333, "bike_id": "e717fdeb76e180015871ca2f972bb5fe", "name": "e717fdeb76e180015871ca2f972bb5fe", "is_reserved": 0, "fusion_lat": 0.0}, {"type": "electric_scooter", "rental_uris": {"ios": "https://dc.lft.to/lastmile_qr_scan", "android": "https://dc.lft.to/lastmile_qr_scan"}, "lon": -77.022878, "fusion_lon": 0.0, "is_disabled": 0, "lat": 38.9165765, "bike_id": "5952bbacc27bc54cb8cb287ca29291ba", "name": "5952bbacc27bc54cb8cb287ca29291ba", "is_reserved": 0, "fusion_lat": 0.0}, {"type": "electric_scooter", "rental_uris": {"ios": "https://dc.lft.to/lastmile_qr_scan", "android": "https://dc.lft.to/lastmile_qr_scan"}, "lon": -77.05030016666667, "fusion_lon": 0.0, "is_disabled": 0, "lat": 38.92362466666667, "bike_id": "d819bda9b643fe5d50acd427c2c704a9", "name": "d819bda9b643fe5d50acd427c2c704a9", "is_reserved": 0, "fusion_lat": 0.0}, {"type": "electric_scooter", "rental_uris": {"ios": "https://dc.lft.to/lastmile_qr_scan", "android": "https://dc.lft.to/lastmile_qr_scan"}, "lon": -77.02540416666666, "fusion_lon": 0.0, "is_disabled": 0, "lat": 38.92368316666666, "bike_id": "8a8af15664f4e38569c8f9a1dbd6c6ca", "name": "8a8af15664f4e38569c8f9a1dbd6c6ca", "is_reserved": 0, "fusion_lat": 0.0}, {"type": "electric_scooter", "rental_uris": {"ios": "https://dc.lft.to/lastmile_qr_scan", "android": "https://dc.lft.to/lastmile_qr_scan"}, "lon": -77.02199233333333, "fusion_lon": 0.0, "is_disabled": 0, "lat": 38.93295233333333, "bike_id": "23ba80ed0db850b388c084bc33498f08", "name": "23ba80ed0db850b388c084bc33498f08", "is_reserved": 0, "fusion_lat": 0.0}, {"type": "electric_scooter", "rental_uris": {"ios": "https://dc.lft.to/lastmile_qr_scan", "android": "https://dc.lft.to/lastmile_qr_scan"}, "lon": -77.03760316666667, "fusion_lon": 0.0, "is_disabled": 0, "lat": 38.916915, "bike_id": "68c81ea49291d19fe98396b72137646a", "name": "68c81ea49291d19fe98396b72137646a", "is_reserved": 0, "fusion_lat": 0.0}, {"type": "electric_scooter", "rental_uris": {"ios": "https://dc.lft.to/lastmile_qr_scan", "android": "https://dc.lft.to/lastmile_qr_scan"}, "lon": -77.03765666666666, "fusion_lon": 0.0, "is_disabled": 0, "lat": 38.91129216666667, "bike_id": "48b70b4afd24ba8084f397e5b5bdba8a", "name": "48b70b4afd24ba8084f397e5b5bdba8a", "is_reserved": 0, "fusion_lat": 0.0}, {"type": "electric_scooter", "rental_uris": {"ios": "https://dc.lft.to/lastmile_qr_scan", "android": "https://dc.lft.to/lastmile_qr_scan"}, "lon": -77.01354466666666, "fusion_lon": 0.0, "is_disabled": 0, "lat": 38.892389, "bike_id": "3eaa6f5e14a8041b6859f6612e23f820", "name": "3eaa6f5e14a8041b6859f6612e23f820", "is_reserved": 0, "fusion_lat": 0.0}, {"type": "electric_scooter", "rental_uris": {"ios": "https://dc.lft.to/lastmile_qr_scan", "android": "https://dc.lft.to/lastmile_qr_scan"}, "lon": -77.01538216666667, "fusion_lon": 0.0, "is_disabled": 0, "lat": 38.891631333333336, "bike_id": "c98f8550f1a18454f7491ac36aad8d71", "name": "c98f8550f1a18454f7491ac36aad8d71", "is_reserved": 0, "fusion_lat": 0.0}, {"type": "electric_scooter", "rental_uris": {"ios": "https://dc.lft.to/lastmile_qr_scan", "android": "https://dc.lft.to/lastmile_qr_scan"}, "lon": -77.02196316666667, "fusion_lon": 0.0, "is_disabled": 0, "lat": 38.914946666666665, "bike_id": "5432823be17de82fcd74cab1c0f8a8e3", "name": "5432823be17de82fcd74cab1c0f8a8e3", "is_reserved": 0, "fusion_lat": 0.0}, {"type": "electric_scooter", "rental_uris": {"ios": "https://dc.lft.to/lastmile_qr_scan", "android": "https://dc.lft.to/lastmile_qr_scan"}, "lon": -76.9898705, "fusion_lon": 0.0, "is_disabled": 0, "lat": 38.864960833333335, "bike_id": "a8e94aaaeca8dbb7209cbee318fabbe2", "name": "a8e94aaaeca8dbb7209cbee318fabbe2", "is_reserved": 0, "fusion_lat": 0.0}, {"type": "electric_scooter", "rental_uris": {"ios": "https://dc.lft.to/lastmile_qr_scan", "android": "https://dc.lft.to/lastmile_qr_scan"}, "lon": -77.037085, "fusion_lon": 0.0, "is_disabled": 0, "lat": 38.928228833333336, "bike_id": "4337ec5cc4a048bc0698762a3de5220e", "name": "4337ec5cc4a048bc0698762a3de5220e", "is_reserved": 0, "fusion_lat": 0.0}, {"type": "electric_bike", "rental_uris": {"ios": "https://dc.lft.to/lastmile_qr_scan", "android": "https://dc.lft.to/lastmile_qr_scan"}, "lon": -77.0508645, "fusion_lon": 0.0, "is_disabled": 0, "lat": 38.81331933333333, "bike_id": "023c8f14afdc5e6bdfb3e3d711cecd57", "name": "023c8f14afdc5e6bdfb3e3d711cecd57", "is_reserved": 0, "fusion_lat": 0.0}, {"type": "electric_scooter", "rental_uris": {"ios": "https://dc.lft.to/lastmile_qr_scan", "android": "https://dc.lft.to/lastmile_qr_scan"}, "lon": -77.00576416666667, "fusion_lon": 0.0, "is_disabled": 0, "lat": 38.88182416666667, "bike_id": "563b384db0ed250d0a2d1b968cf56ce1", "name": "563b384db0ed250d0a2d1b968cf56ce1", "is_reserved": 0, "fusion_lat": 0.0}, {"type": "electric_scooter", "rental_uris": {"ios": "https://dc.lft.to/lastmile_qr_scan", "android": "https://dc.lft.to/lastmile_qr_scan"}, "lon": -77.0339285, "fusion_lon": 0.0, "is_disabled": 0, "lat": 38.92457783333333, "bike_id": "25eed202de863abfbd11b59c062f8b7a", "name": "25eed202de863abfbd11b59c062f8b7a", "is_reserved": 0, "fusion_lat": 0.0}, {"type": "electric_scooter", "rental_uris": {"ios": "https://dc.lft.to/lastmile_qr_scan", "android": "https://dc.lft.to/lastmile_qr_scan"}, "lon": -77.01774966666666, "fusion_lon": 0.0, "is_disabled": 0, "lat": 38.887151333333335, "bike_id": "ba497e1d9241ac7af5d35b9788ab652c", "name": "ba497e1d9241ac7af5d35b9788ab652c", "is_reserved": 0, "fusion_lat": 0.0}, {"type": "electric_scooter", "rental_uris": {"ios": "https://dc.lft.to/lastmile_qr_scan", "android": "https://dc.lft.to/lastmile_qr_scan"}, "lon": -77.04337166666667, "fusion_lon": 0.0, "is_disabled": 0, "lat": 38.90834866666667, "bike_id": "c9982dd03f800bc04220db4347c5dc8d", "name": "c9982dd03f800bc04220db4347c5dc8d", "is_reserved": 0, "fusion_lat": 0.0}, {"type": "electric_bike", "rental_uris": {"ios": "https://dc.lft.to/lastmile_qr_scan", "android": "https://dc.lft.to/lastmile_qr_scan"}, "lon": -77.07516183333334, "fusion_lon": 0.0, "is_disabled": 0, "lat": 38.8480385, "bike_id": "c74e048eb3d35a13e1500d7a106840be", "name": "c74e048eb3d35a13e1500d7a106840be", "is_reserved": 0, "fusion_lat": 0.0}, {"type": "electric_scooter", "rental_uris": {"ios": "https://dc.lft.to/lastmile_qr_scan", "android": "https://dc.lft.to/lastmile_qr_scan"}, "lon": -76.9513045, "fusion_lon": 0.0, "is_disabled": 0, "lat": 38.890277, "bike_id": "9047998e0f97c41a95b3e93e4b346cba", "name": "9047998e0f97c41a95b3e93e4b346cba", "is_reserved": 0, "fusion_lat": 0.0}, {"type": "electric_scooter", "rental_uris": {"ios": "https://dc.lft.to/lastmile_qr_scan", "android": "https://dc.lft.to/lastmile_qr_scan"}, "lon": -77.02223966666666, "fusion_lon": 0.0, "is_disabled": 0, "lat": 38.9355445, "bike_id": "f1260a0a5d537d76f712004604eab5fb", "name": "f1260a0a5d537d76f712004604eab5fb", "is_reserved": 0, "fusion_lat": 0.0}, {"type": "electric_bike", "rental_uris": {"ios": "https://dc.lft.to/lastmile_qr_scan", "android": "https://dc.lft.to/lastmile_qr_scan"}, "lon": -77.039469, "fusion_lon": 0.0, "is_disabled": 0, "lat": 38.865025, "bike_id": "8f81512562feaf585b77cd71842ed846", "name": "8f81512562feaf585b77cd71842ed846", "is_reserved": 0, "fusion_lat": 0.0}, {"type": "electric_bike", "rental_uris": {"ios": "https://dc.lft.to/lastmile_qr_scan", "android": "https://dc.lft.to/lastmile_qr_scan"}, "lon": -77.11902516666666, "fusion_lon": 0.0, "is_disabled": 0, "lat": 39.07496616666667, "bike_id": "bd291c6adeae8b4fa5e102f507fd68a9", "name": "bd291c6adeae8b4fa5e102f507fd68a9", "is_reserved": 0, "fusion_lat": 0.0}, {"type": "electric_scooter", "rental_uris": {"ios": "https://dc.lft.to/lastmile_qr_scan", "android": "https://dc.lft.to/lastmile_qr_scan"}, "lon": -77.03725633333333, "fusion_lon": 0.0, "is_disabled": 0, "lat": 38.9307275, "bike_id": "a3c07176718b3d416e89d00c9f776277", "name": "a3c07176718b3d416e89d00c9f776277", "is_reserved": 0, "fusion_lat": 0.0}, {"type": "electric_bike", "rental_uris": {"ios": "https://dc.lft.to/lastmile_qr_scan", "android": "https://dc.lft.to/lastmile_qr_scan"}, "lon": -77.11798783333333, "fusion_lon": 0.0, "is_disabled": 0, "lat": 38.8737435, "bike_id": "e8477b2cdb7ee1403267482a1649aae7", "name": "e8477b2cdb7ee1403267482a1649aae7", "is_reserved": 0, "fusion_lat": 0.0}, {"type": "electric_bike", "rental_uris": {"ios": "https://dc.lft.to/lastmile_qr_scan", "android": "https://dc.lft.to/lastmile_qr_scan"}, "lon": -77.0261965, "fusion_lon": 0.0, "is_disabled": 0, "lat": 38.9693015, "bike_id": "038e69d0b2f16eef8c7fe873c436ef70", "name": "038e69d0b2f16eef8c7fe873c436ef70", "is_reserved": 0, "fusion_lat": 0.0}, {"type": "electric_scooter", "rental_uris": {"ios": "https://dc.lft.to/lastmile_qr_scan", "android": "https://dc.lft.to/lastmile_qr_scan"}, "lon": -77.031777, "fusion_lon": 0.0, "is_disabled": 0, "lat": 38.916183333333336, "bike_id": "190650b9d25ee0378b6b4c47ab39c559", "name": "190650b9d25ee0378b6b4c47ab39c559", "is_reserved": 0, "fusion_lat": 0.0}, {"type": "electric_scooter", "rental_uris": {"ios": "https://dc.lft.to/lastmile_qr_scan", "android": "https://dc.lft.to/lastmile_qr_scan"}, "lon": -76.96533883333333, "fusion_lon": 0.0, "is_disabled": 0, "lat": 38.87630866666667, "bike_id": "97903aab574119053c2e7275c4e3c7e0", "name": "97903aab574119053c2e7275c4e3c7e0", "is_reserved": 0, "fusion_lat": 0.0}, {"type": "electric_scooter", "rental_uris": {"ios": "https://dc.lft.to/lastmile_qr_scan", "android": "https://dc.lft.to/lastmile_qr_scan"}, "lon": -77.02289416666666, "fusion_lon": 0.0, "is_disabled": 0, "lat": 38.91445133333333, "bike_id": "489e8d57d113df23984753532a4d457d", "name": "489e8d57d113df23984753532a4d457d", "is_reserved": 0, "fusion_lat": 0.0}, {"type": "electric_scooter", "rental_uris": {"ios": "https://dc.lft.to/lastmile_qr_scan", "android": "https://dc.lft.to/lastmile_qr_scan"}, "lon": -77.03656183333334, "fusion_lon": 0.0, "is_disabled": 0, "lat": 38.922480666666665, "bike_id": "cb92e70f59744e678d43a78296f0482e", "name": "cb92e70f59744e678d43a78296f0482e", "is_reserved": 0, "fusion_lat": 0.0}, {"type": "electric_scooter", "rental_uris": {"ios": "https://dc.lft.to/lastmile_qr_scan", "android": "https://dc.lft.to/lastmile_qr_scan"}, "lon": -77.03897366666666, "fusion_lon": 0.0, "is_disabled": 0, "lat": 38.906425, "bike_id": "9d1aa6a48d4e6a790b0166a475a27dc9", "name": "9d1aa6a48d4e6a790b0166a475a27dc9", "is_reserved": 0, "fusion_lat": 0.0}, {"type": "electric_scooter", "rental_uris": {"ios": "https://dc.lft.to/lastmile_qr_scan", "android": "https://dc.lft.to/lastmile_qr_scan"}, "lon": -77.04507733333334, "fusion_lon": 0.0, "is_disabled": 0, "lat": 38.9157085, "bike_id": "677c6f13435529a55ead2a6aef5b0464", "name": "677c6f13435529a55ead2a6aef5b0464", "is_reserved": 0, "fusion_lat": 0.0}, {"type": "electric_bike", "rental_uris": {"ios": "https://dc.lft.to/lastmile_qr_scan", "android": "https://dc.lft.to/lastmile_qr_scan"}, "lon": -77.02097533333334, "fusion_lon": 0.0, "is_disabled": 0, "lat": 38.937142, "bike_id": "cd3d3ab77ddb5edca567e1467108a8dd", "name": "cd3d3ab77ddb5edca567e1467108a8dd", "is_reserved": 0, "fusion_lat": 0.0}, {"type": "electric_scooter", "rental_uris": {"ios": "https://dc.lft.to/lastmile_qr_scan", "android": "https://dc.lft.to/lastmile_qr_scan"}, "lon": -76.96519166666667, "fusion_lon": 0.0, "is_disabled": 0, "lat": 38.87632116666666, "bike_id": "17091eb03e138664d6bdf7e65ddd32de", "name": "17091eb03e138664d6bdf7e65ddd32de", "is_reserved": 0, "fusion_lat": 0.0}, {"type": "electric_scooter", "rental_uris": {"ios": "https://dc.lft.to/lastmile_qr_scan", "android": "https://dc.lft.to/lastmile_qr_scan"}, "lon": -77.044799, "fusion_lon": 0.0, "is_disabled": 0, "lat": 38.911092833333335, "bike_id": "712f20fbb4ef36d0152166c6f12ae15f", "name": "712f20fbb4ef36d0152166c6f12ae15f", "is_reserved": 0, "fusion_lat": 0.0}, {"type": "electric_scooter", "rental_uris": {"ios": "https://dc.lft.to/lastmile_qr_scan", "android": "https://dc.lft.to/lastmile_qr_scan"}, "lon": -77.029923, "fusion_lon": 0.0, "is_disabled": 0, "lat": 38.907393666666664, "bike_id": "612e3ea95a0b6936c3671ddb1d59ab2e", "name": "612e3ea95a0b6936c3671ddb1d59ab2e", "is_reserved": 0, "fusion_lat": 0.0}, {"type": "electric_scooter", "rental_uris": {"ios": "https://dc.lft.to/lastmile_qr_scan", "android": "https://dc.lft.to/lastmile_qr_scan"}, "lon": -76.937357, "fusion_lon": 0.0, "is_disabled": 0, "lat": 38.89012133333333, "bike_id": "5e544e7692051c3c8cebb5fcc015707a", "name": "5e544e7692051c3c8cebb5fcc015707a", "is_reserved": 0, "fusion_lat": 0.0}, {"type": "electric_scooter", "rental_uris": {"ios": "https://dc.lft.to/lastmile_qr_scan", "android": "https://dc.lft.to/lastmile_qr_scan"}, "lon": -77.04657433333334, "fusion_lon": 0.0, "is_disabled": 0, "lat": 38.90549583333333, "bike_id": "dafc0004c8a1ccce2f41d7a1614b69b8", "name": "dafc0004c8a1ccce2f41d7a1614b69b8", "is_reserved": 0, "fusion_lat": 0.0}, {"type": "electric_scooter", "rental_uris": {"ios": "https://dc.lft.to/lastmile_qr_scan", "android": "https://dc.lft.to/lastmile_qr_scan"}, "lon": -77.02975583333334, "fusion_lon": 0.0, "is_disabled": 0, "lat": 38.932415166666665, "bike_id": "bc48f67a95c3d5005b6c1195df91ace2", "name": "bc48f67a95c3d5005b6c1195df91ace2", "is_reserved": 0, "fusion_lat": 0.0}, {"type": "electric_scooter", "rental_uris": {"ios": "https://dc.lft.to/lastmile_qr_scan", "android": "https://dc.lft.to/lastmile_qr_scan"}, "lon": -77.02212566666667, "fusion_lon": 0.0, "is_disabled": 0, "lat": 38.8874295, "bike_id": "cad6633b77e63a95f8b06d00a230b59b", "name": "cad6633b77e63a95f8b06d00a230b59b", "is_reserved": 0, "fusion_lat": 0.0}, {"type": "electric_scooter", "rental_uris": {"ios": "https://dc.lft.to/lastmile_qr_scan", "android": "https://dc.lft.to/lastmile_qr_scan"}, "lon": -77.044641, "fusion_lon": 0.0, "is_disabled": 0, "lat": 38.91118216666667, "bike_id": "4355f49e83f116cddf214b873d3d1f7e", "name": "4355f49e83f116cddf214b873d3d1f7e", "is_reserved": 0, "fusion_lat": 0.0}, {"type": "electric_scooter", "rental_uris": {"ios": "https://dc.lft.to/lastmile_qr_scan", "android": "https://dc.lft.to/lastmile_qr_scan"}, "lon": -77.034643, "fusion_lon": 0.0, "is_disabled": 0, "lat": 38.91822716666667, "bike_id": "b14e5a378c9087710966f5bbae1fbde6", "name": "b14e5a378c9087710966f5bbae1fbde6", "is_reserved": 0, "fusion_lat": 0.0}, {"type": "electric_scooter", "rental_uris": {"ios": "https://dc.lft.to/lastmile_qr_scan", "android": "https://dc.lft.to/lastmile_qr_scan"}, "lon": -76.97634016666666, "fusion_lon": 0.0, "is_disabled": 0, "lat": 38.851948, "bike_id": "1dd0f3d0b918b0d247a6fcf6d0505956", "name": "1dd0f3d0b918b0d247a6fcf6d0505956", "is_reserved": 0, "fusion_lat": 0.0}, {"type": "electric_scooter", "rental_uris": {"ios": "https://dc.lft.to/lastmile_qr_scan", "android": "https://dc.lft.to/lastmile_qr_scan"}, "lon": -77.017552, "fusion_lon": 0.0, "is_disabled": 0, "lat": 38.90274733333333, "bike_id": "0fa90d1203ddf9d414a0b55719efec7f", "name": "0fa90d1203ddf9d414a0b55719efec7f", "is_reserved": 0, "fusion_lat": 0.0}, {"type": "electric_scooter", "rental_uris": {"ios": "https://dc.lft.to/lastmile_qr_scan", "android": "https://dc.lft.to/lastmile_qr_scan"}, "lon": -77.0307745, "fusion_lon": 0.0, "is_disabled": 0, "lat": 38.885865, "bike_id": "589fd678bb770475bb71d038f88ea25d", "name": "589fd678bb770475bb71d038f88ea25d", "is_reserved": 0, "fusion_lat": 0.0}, {"type": "electric_scooter", "rental_uris": {"ios": "https://dc.lft.to/lastmile_qr_scan", "android": "https://dc.lft.to/lastmile_qr_scan"}, "lon": -77.04361833333333, "fusion_lon": 0.0, "is_disabled": 0, "lat": 38.920635833333336, "bike_id": "421587c5c00855f93f0aef12d5350158", "name": "421587c5c00855f93f0aef12d5350158", "is_reserved": 0, "fusion_lat": 0.0}, {"type": "electric_scooter", "rental_uris": {"ios": "https://dc.lft.to/lastmile_qr_scan", "android": "https://dc.lft.to/lastmile_qr_scan"}, "lon": -77.03792116666666, "fusion_lon": 0.0, "is_disabled": 0, "lat": 38.909628166666664, "bike_id": "81b57d18853ca620bbe1ff233a93af5a", "name": "81b57d18853ca620bbe1ff233a93af5a", "is_reserved": 0, "fusion_lat": 0.0}, {"type": "electric_scooter", "rental_uris": {"ios": "https://dc.lft.to/lastmile_qr_scan", "android": "https://dc.lft.to/lastmile_qr_scan"}, "lon": -76.98981566666667, "fusion_lon": 0.0, "is_disabled": 0, "lat": 38.8650335, "bike_id": "6b2db2bac3c44b3b475a67c02dd93f19", "name": "6b2db2bac3c44b3b475a67c02dd93f19", "is_reserved": 0, "fusion_lat": 0.0}, {"type": "electric_scooter", "rental_uris": {"ios": "https://dc.lft.to/lastmile_qr_scan", "android": "https://dc.lft.to/lastmile_qr_scan"}, "lon": -77.02813866666666, "fusion_lon": 0.0, "is_disabled": 0, "lat": 38.9025725, "bike_id": "a3f8873544b9bebe5597ad17469445ce", "name": "a3f8873544b9bebe5597ad17469445ce", "is_reserved": 0, "fusion_lat": 0.0}, {"type": "electric_scooter", "rental_uris": {"ios": "https://dc.lft.to/lastmile_qr_scan", "android": "https://dc.lft.to/lastmile_qr_scan"}, "lon": -77.03075133333333, "fusion_lon": 0.0, "is_disabled": 0, "lat": 38.89961183333333, "bike_id": "7688e458936c7de240760e53dcb52b8b", "name": "7688e458936c7de240760e53dcb52b8b", "is_reserved": 0, "fusion_lat": 0.0}, {"type": "electric_scooter", "rental_uris": {"ios": "https://dc.lft.to/lastmile_qr_scan", "android": "https://dc.lft.to/lastmile_qr_scan"}, "lon": -77.03477383333333, "fusion_lon": 0.0, "is_disabled": 0, "lat": 38.906504166666664, "bike_id": "d48ec37cf912bfcb6751eac82b28b4c1", "name": "d48ec37cf912bfcb6751eac82b28b4c1", "is_reserved": 0, "fusion_lat": 0.0}, {"type": "electric_scooter", "rental_uris": {"ios": "https://dc.lft.to/lastmile_qr_scan", "android": "https://dc.lft.to/lastmile_qr_scan"}, "lon": -77.0414225, "fusion_lon": 0.0, "is_disabled": 0, "lat": 38.893462166666666, "bike_id": "1af5bd35930f6862b02e53674cc8dc38", "name": "1af5bd35930f6862b02e53674cc8dc38", "is_reserved": 0, "fusion_lat": 0.0}, {"type": "electric_bike", "rental_uris": {"ios": "https://dc.lft.to/lastmile_qr_scan", "android": "https://dc.lft.to/lastmile_qr_scan"}, "lon": -76.895368, "fusion_lon": 0.0, "is_disabled": 0, "lat": 38.94552, "bike_id": "ad7976dfdeca828d45ab4384120db9cb", "name": "ad7976dfdeca828d45ab4384120db9cb", "is_reserved": 0, "fusion_lat": 0.0}, {"type": "electric_scooter", "rental_uris": {"ios": "https://dc.lft.to/lastmile_qr_scan", "android": "https://dc.lft.to/lastmile_qr_scan"}, "lon": -77.04468016666667, "fusion_lon": 0.0, "is_disabled": 0, "lat": 38.89617166666667, "bike_id": "0ac35842e9fdc43e26db0be9d5113441", "name": "0ac35842e9fdc43e26db0be9d5113441", "is_reserved": 0, "fusion_lat": 0.0}, {"type": "electric_scooter", "rental_uris": {"ios": "https://dc.lft.to/lastmile_qr_scan", "android": "https://dc.lft.to/lastmile_qr_scan"}, "lon": -77.02597983333334, "fusion_lon": 0.0, "is_disabled": 0, "lat": 38.907326, "bike_id": "90b7e34fcd90be44932cc74560a377b0", "name": "90b7e34fcd90be44932cc74560a377b0", "is_reserved": 0, "fusion_lat": 0.0}, {"type": "electric_bike", "rental_uris": {"ios": "https://dc.lft.to/lastmile_qr_scan", "android": "https://dc.lft.to/lastmile_qr_scan"}, "lon": -76.9798215, "fusion_lon": 0.0, "is_disabled": 0, "lat": 38.953741666666666, "bike_id": "c69f34bc0a10b64bee72534529bfa65e", "name": "c69f34bc0a10b64bee72534529bfa65e", "is_reserved": 0, "fusion_lat": 0.0}, {"type": "electric_scooter", "rental_uris": {"ios": "https://dc.lft.to/lastmile_qr_scan", "android": "https://dc.lft.to/lastmile_qr_scan"}, "lon": -77.0320475, "fusion_lon": 0.0, "is_disabled": 0, "lat": 38.9157155, "bike_id": "6e0e1bad1832f91ed591af8c6e7bd239", "name": "6e0e1bad1832f91ed591af8c6e7bd239", "is_reserved": 0, "fusion_lat": 0.0}, {"type": "electric_scooter", "rental_uris": {"ios": "https://dc.lft.to/lastmile_qr_scan", "android": "https://dc.lft.to/lastmile_qr_scan"}, "lon": -77.03675133333333, "fusion_lon": 0.0, "is_disabled": 0, "lat": 38.9170945, "bike_id": "86400b807653d5622766dcfc47261be8", "name": "86400b807653d5622766dcfc47261be8", "is_reserved": 0, "fusion_lat": 0.0}, {"type": "electric_scooter", "rental_uris": {"ios": "https://dc.lft.to/lastmile_qr_scan", "android": "https://dc.lft.to/lastmile_qr_scan"}, "lon": -77.03216133333333, "fusion_lon": 0.0, "is_disabled": 0, "lat": 38.892209666666666, "bike_id": "9884216f026d86e577a12ba4169d6b1a", "name": "9884216f026d86e577a12ba4169d6b1a", "is_reserved": 0, "fusion_lat": 0.0}, {"type": "electric_scooter", "rental_uris": {"ios": "https://dc.lft.to/lastmile_qr_scan", "android": "https://dc.lft.to/lastmile_qr_scan"}, "lon": -77.024084, "fusion_lon": 0.0, "is_disabled": 0, "lat": 38.957044833333335, "bike_id": "5d01f7fed00b2ebe8caa9d7f7b53ea20", "name": "5d01f7fed00b2ebe8caa9d7f7b53ea20", "is_reserved": 0, "fusion_lat": 0.0}, {"type": "electric_scooter", "rental_uris": {"ios": "https://dc.lft.to/lastmile_qr_scan", "android": "https://dc.lft.to/lastmile_qr_scan"}, "lon": -77.04169116666667, "fusion_lon": 0.0, "is_disabled": 0, "lat": 38.905104666666666, "bike_id": "cccc1dd5260bdb533c269beb37f3b06c", "name": "cccc1dd5260bdb533c269beb37f3b06c", "is_reserved": 0, "fusion_lat": 0.0}, {"type": "electric_scooter", "rental_uris": {"ios": "https://dc.lft.to/lastmile_qr_scan", "android": "https://dc.lft.to/lastmile_qr_scan"}, "lon": -77.0278585, "fusion_lon": 0.0, "is_disabled": 0, "lat": 38.89934216666666, "bike_id": "484194f47899db64c13f0de10e36e953", "name": "484194f47899db64c13f0de10e36e953", "is_reserved": 0, "fusion_lat": 0.0}, {"type": "electric_scooter", "rental_uris": {"ios": "https://dc.lft.to/lastmile_qr_scan", "android": "https://dc.lft.to/lastmile_qr_scan"}, "lon": -77.038617, "fusion_lon": 0.0, "is_disabled": 0, "lat": 38.912358, "bike_id": "80c7b8ef1d343ff1e98b9a729ab9afce", "name": "80c7b8ef1d343ff1e98b9a729ab9afce", "is_reserved": 0, "fusion_lat": 0.0}, {"type": "electric_scooter", "rental_uris": {"ios": "https://dc.lft.to/lastmile_qr_scan", "android": "https://dc.lft.to/lastmile_qr_scan"}, "lon": -77.00373816666666, "fusion_lon": 0.0, "is_disabled": 0, "lat": 38.882626333333334, "bike_id": "485cc1b973f341a9c00d985258d1609d", "name": "485cc1b973f341a9c00d985258d1609d", "is_reserved": 0, "fusion_lat": 0.0}, {"type": "electric_scooter", "rental_uris": {"ios": "https://dc.lft.to/lastmile_qr_scan", "android": "https://dc.lft.to/lastmile_qr_scan"}, "lon": -77.04345133333334, "fusion_lon": 0.0, "is_disabled": 0, "lat": 38.905204166666664, "bike_id": "daac1d72028ec27148e6451f912037d8", "name": "daac1d72028ec27148e6451f912037d8", "is_reserved": 0, "fusion_lat": 0.0}, {"type": "electric_bike", "rental_uris": {"ios": "https://dc.lft.to/lastmile_qr_scan", "android": "https://dc.lft.to/lastmile_qr_scan"}, "lon": -77.03584366666666, "fusion_lon": 0.0, "is_disabled": 0, "lat": 38.90705333333333, "bike_id": "d4c7c289624533166e93cd36af3dfa5c", "name": "d4c7c289624533166e93cd36af3dfa5c", "is_reserved": 0, "fusion_lat": 0.0}, {"type": "electric_scooter", "rental_uris": {"ios": "https://dc.lft.to/lastmile_qr_scan", "android": "https://dc.lft.to/lastmile_qr_scan"}, "lon": -77.03662933333334, "fusion_lon": 0.0, "is_disabled": 0, "lat": 38.91861316666667, "bike_id": "1e2c9106df186dffdb214b5d17b08887", "name": "1e2c9106df186dffdb214b5d17b08887", "is_reserved": 0, "fusion_lat": 0.0}, {"type": "electric_scooter", "rental_uris": {"ios": "https://dc.lft.to/lastmile_qr_scan", "android": "https://dc.lft.to/lastmile_qr_scan"}, "lon": -77.02982583333333, "fusion_lon": 0.0, "is_disabled": 0, "lat": 38.930640833333335, "bike_id": "891aed40ddc95f3f9f11bddde115fad3", "name": "891aed40ddc95f3f9f11bddde115fad3", "is_reserved": 0, "fusion_lat": 0.0}, {"type": "electric_scooter", "rental_uris": {"ios": "https://dc.lft.to/lastmile_qr_scan", "android": "https://dc.lft.to/lastmile_qr_scan"}, "lon": -77.01079783333333, "fusion_lon": 0.0, "is_disabled": 0, "lat": 38.907204166666666, "bike_id": "c7bec13048c1908ebeaf7ab20be28c76", "name": "c7bec13048c1908ebeaf7ab20be28c76", "is_reserved": 0, "fusion_lat": 0.0}, {"type": "electric_scooter", "rental_uris": {"ios": "https://dc.lft.to/lastmile_qr_scan", "android": "https://dc.lft.to/lastmile_qr_scan"}, "lon": -77.00404383333333, "fusion_lon": 0.0, "is_disabled": 0, "lat": 38.9054045, "bike_id": "d72d9b2a1715e4a4e39acef774459fc6", "name": "d72d9b2a1715e4a4e39acef774459fc6", "is_reserved": 0, "fusion_lat": 0.0}, {"type": "electric_scooter", "rental_uris": {"ios": "https://dc.lft.to/lastmile_qr_scan", "android": "https://dc.lft.to/lastmile_qr_scan"}, "lon": -76.95413533333334, "fusion_lon": 0.0, "is_disabled": 0, "lat": 38.89000083333333, "bike_id": "632c8460f8710ce110db48bf4b46a6a9", "name": "632c8460f8710ce110db48bf4b46a6a9", "is_reserved": 0, "fusion_lat": 0.0}, {"type": "electric_scooter", "rental_uris": {"ios": "https://dc.lft.to/lastmile_qr_scan", "android": "https://dc.lft.to/lastmile_qr_scan"}, "lon": -77.0417295, "fusion_lon": 0.0, "is_disabled": 0, "lat": 38.91547083333333, "bike_id": "1804fb585330cd0f1df7e260645fda10", "name": "1804fb585330cd0f1df7e260645fda10", "is_reserved": 0, "fusion_lat": 0.0}, {"type": "electric_scooter", "rental_uris": {"ios": "https://dc.lft.to/lastmile_qr_scan", "android": "https://dc.lft.to/lastmile_qr_scan"}, "lon": -77.04188683333334, "fusion_lon": 0.0, "is_disabled": 0, "lat": 38.9051875, "bike_id": "44094e9f55f76361319b791591185203", "name": "44094e9f55f76361319b791591185203", "is_reserved": 0, "fusion_lat": 0.0}, {"type": "electric_scooter", "rental_uris": {"ios": "https://dc.lft.to/lastmile_qr_scan", "android": "https://dc.lft.to/lastmile_qr_scan"}, "lon": -77.052374, "fusion_lon": 0.0, "is_disabled": 0, "lat": 38.924655, "bike_id": "329de47b6c85365dba9a7c2c152eed6c", "name": "329de47b6c85365dba9a7c2c152eed6c", "is_reserved": 0, "fusion_lat": 0.0}, {"type": "electric_scooter", "rental_uris": {"ios": "https://dc.lft.to/lastmile_qr_scan", "android": "https://dc.lft.to/lastmile_qr_scan"}, "lon": -77.02248116666667, "fusion_lon": 0.0, "is_disabled": 0, "lat": 38.87863083333333, "bike_id": "6ab4853913c9876683b3df144ab63b75", "name": "6ab4853913c9876683b3df144ab63b75", "is_reserved": 0, "fusion_lat": 0.0}, {"type": "electric_scooter", "rental_uris": {"ios": "https://dc.lft.to/lastmile_qr_scan", "android": "https://dc.lft.to/lastmile_qr_scan"}, "lon": -77.028411, "fusion_lon": 0.0, "is_disabled": 0, "lat": 38.89230633333333, "bike_id": "36f6eafc78563a28c1ef0bbef251cd75", "name": "36f6eafc78563a28c1ef0bbef251cd75", "is_reserved": 0, "fusion_lat": 0.0}, {"type": "electric_bike", "rental_uris": {"ios": "https://dc.lft.to/lastmile_qr_scan", "android": "https://dc.lft.to/lastmile_qr_scan"}, "lon": -77.04981183333334, "fusion_lon": 0.0, "is_disabled": 0, "lat": 38.8321855, "bike_id": "dd12c757d0eb23cb54cdba17b2632144", "name": "dd12c757d0eb23cb54cdba17b2632144", "is_reserved": 0, "fusion_lat": 0.0}, {"type": "electric_scooter", "rental_uris": {"ios": "https://dc.lft.to/lastmile_qr_scan", "android": "https://dc.lft.to/lastmile_qr_scan"}, "lon": -77.02493383333334, "fusion_lon": 0.0, "is_disabled": 0, "lat": 38.91952, "bike_id": "33cbd581dd4bdbd9ebb781885e0492ef", "name": "33cbd581dd4bdbd9ebb781885e0492ef", "is_reserved": 0, "fusion_lat": 0.0}, {"type": "electric_scooter", "rental_uris": {"ios": "https://dc.lft.to/lastmile_qr_scan", "android": "https://dc.lft.to/lastmile_qr_scan"}, "lon": -77.02597766666666, "fusion_lon": 0.0, "is_disabled": 0, "lat": 38.9169055, "bike_id": "cf22095efc99d486be47abb3fc0f62f4", "name": "cf22095efc99d486be47abb3fc0f62f4", "is_reserved": 0, "fusion_lat": 0.0}, {"type": "electric_scooter", "rental_uris": {"ios": "https://dc.lft.to/lastmile_qr_scan", "android": "https://dc.lft.to/lastmile_qr_scan"}, "lon": -76.99518216666667, "fusion_lon": 0.0, "is_disabled": 0, "lat": 38.8625535, "bike_id": "8b3c408137386ac2aee95b5101df391f", "name": "8b3c408137386ac2aee95b5101df391f", "is_reserved": 0, "fusion_lat": 0.0}, {"type": "electric_bike", "rental_uris": {"ios": "https://dc.lft.to/lastmile_qr_scan", "android": "https://dc.lft.to/lastmile_qr_scan"}, "lon": -77.03430033333333, "fusion_lon": 0.0, "is_disabled": 0, "lat": 38.9661865, "bike_id": "92abc4ab1fbbd3086410db0e0eba7779", "name": "92abc4ab1fbbd3086410db0e0eba7779", "is_reserved": 0, "fusion_lat": 0.0}, {"type": "electric_scooter", "rental_uris": {"ios": "https://dc.lft.to/lastmile_qr_scan", "android": "https://dc.lft.to/lastmile_qr_scan"}, "lon": -77.045077, "fusion_lon": 0.0, "is_disabled": 0, "lat": 38.91967116666667, "bike_id": "02873c5d98e2703a309b3e12159859a9", "name": "02873c5d98e2703a309b3e12159859a9", "is_reserved": 0, "fusion_lat": 0.0}, {"type": "electric_scooter", "rental_uris": {"ios": "https://dc.lft.to/lastmile_qr_scan", "android": "https://dc.lft.to/lastmile_qr_scan"}, "lon": -76.9898735, "fusion_lon": 0.0, "is_disabled": 0, "lat": 38.864976166666665, "bike_id": "2b179abc32953d0400807a54b1709079", "name": "2b179abc32953d0400807a54b1709079", "is_reserved": 0, "fusion_lat": 0.0}, {"type": "electric_scooter", "rental_uris": {"ios": "https://dc.lft.to/lastmile_qr_scan", "android": "https://dc.lft.to/lastmile_qr_scan"}, "lon": -77.044904, "fusion_lon": 0.0, "is_disabled": 0, "lat": 38.9094345, "bike_id": "8f5f2bccdc6a590b919a8a02aa27d3be", "name": "8f5f2bccdc6a590b919a8a02aa27d3be", "is_reserved": 0, "fusion_lat": 0.0}, {"type": "electric_scooter", "rental_uris": {"ios": "https://dc.lft.to/lastmile_qr_scan", "android": "https://dc.lft.to/lastmile_qr_scan"}, "lon": -77.00212233333333, "fusion_lon": 0.0, "is_disabled": 0, "lat": 38.92047433333333, "bike_id": "6ee8dca2180099df8e4502d85f402ef2", "name": "6ee8dca2180099df8e4502d85f402ef2", "is_reserved": 0, "fusion_lat": 0.0}, {"type": "electric_scooter", "rental_uris": {"ios": "https://dc.lft.to/lastmile_qr_scan", "android": "https://dc.lft.to/lastmile_qr_scan"}, "lon": -77.03579583333334, "fusion_lon": 0.0, "is_disabled": 0, "lat": 38.934733333333334, "bike_id": "d12daf974777b1048e2c959dd99e6959", "name": "d12daf974777b1048e2c959dd99e6959", "is_reserved": 0, "fusion_lat": 0.0}, {"type": "electric_scooter", "rental_uris": {"ios": "https://dc.lft.to/lastmile_qr_scan", "android": "https://dc.lft.to/lastmile_qr_scan"}, "lon": -77.02786, "fusion_lon": 0.0, "is_disabled": 0, "lat": 38.896981833333335, "bike_id": "20cae32a8ac223ce2e4d4e6458550f61", "name": "20cae32a8ac223ce2e4d4e6458550f61", "is_reserved": 0, "fusion_lat": 0.0}, {"type": "electric_scooter", "rental_uris": {"ios": "https://dc.lft.to/lastmile_qr_scan", "android": "https://dc.lft.to/lastmile_qr_scan"}, "lon": -77.0347235, "fusion_lon": 0.0, "is_disabled": 0, "lat": 38.92262233333334, "bike_id": "757f4a0ddfb0ccf1ec48c80860032e91", "name": "757f4a0ddfb0ccf1ec48c80860032e91", "is_reserved": 0, "fusion_lat": 0.0}, {"type": "electric_scooter", "rental_uris": {"ios": "https://dc.lft.to/lastmile_qr_scan", "android": "https://dc.lft.to/lastmile_qr_scan"}, "lon": -77.0502665, "fusion_lon": 0.0, "is_disabled": 0, "lat": 38.92357033333333, "bike_id": "bb9581052d2b90001aca08445b4e24ef", "name": "bb9581052d2b90001aca08445b4e24ef", "is_reserved": 0, "fusion_lat": 0.0}, {"type": "electric_scooter", "rental_uris": {"ios": "https://dc.lft.to/lastmile_qr_scan", "android": "https://dc.lft.to/lastmile_qr_scan"}, "lon": -77.04156116666667, "fusion_lon": 0.0, "is_disabled": 0, "lat": 38.902903333333335, "bike_id": "030464f414628738f98664858ee19ae3", "name": "030464f414628738f98664858ee19ae3", "is_reserved": 0, "fusion_lat": 0.0}, {"type": "electric_scooter", "rental_uris": {"ios": "https://dc.lft.to/lastmile_qr_scan", "android": "https://dc.lft.to/lastmile_qr_scan"}, "lon": -77.032692, "fusion_lon": 0.0, "is_disabled": 0, "lat": 38.92857466666667, "bike_id": "1ab0ad1e675d665291c9bb149aad8ce9", "name": "1ab0ad1e675d665291c9bb149aad8ce9", "is_reserved": 0, "fusion_lat": 0.0}, {"type": "electric_scooter", "rental_uris": {"ios": "https://dc.lft.to/lastmile_qr_scan", "android": "https://dc.lft.to/lastmile_qr_scan"}, "lon": -77.0421235, "fusion_lon": 0.0, "is_disabled": 0, "lat": 38.91122266666667, "bike_id": "94e87509f47c1314e07a625c7e228f9c", "name": "94e87509f47c1314e07a625c7e228f9c", "is_reserved": 0, "fusion_lat": 0.0}, {"type": "electric_bike", "rental_uris": {"ios": "https://dc.lft.to/lastmile_qr_scan", "android": "https://dc.lft.to/lastmile_qr_scan"}, "lon": -77.09965333333334, "fusion_lon": 0.0, "is_disabled": 0, "lat": 38.857857833333334, "bike_id": "403c6f2f0b6a954e6f57f003e909306d", "name": "403c6f2f0b6a954e6f57f003e909306d", "is_reserved": 0, "fusion_lat": 0.0}, {"type": "electric_scooter", "rental_uris": {"ios": "https://dc.lft.to/lastmile_qr_scan", "android": "https://dc.lft.to/lastmile_qr_scan"}, "lon": -77.03289383333333, "fusion_lon": 0.0, "is_disabled": 0, "lat": 38.956487, "bike_id": "b2195a9a8f0fbd240a3cfae2c86e3452", "name": "b2195a9a8f0fbd240a3cfae2c86e3452", "is_reserved": 0, "fusion_lat": 0.0}, {"type": "electric_scooter", "rental_uris": {"ios": "https://dc.lft.to/lastmile_qr_scan", "android": "https://dc.lft.to/lastmile_qr_scan"}, "lon": -77.07058266666667, "fusion_lon": 0.0, "is_disabled": 0, "lat": 38.919184666666666, "bike_id": "a93a1558d95016e623218459b1eda2f7", "name": "a93a1558d95016e623218459b1eda2f7", "is_reserved": 0, "fusion_lat": 0.0}, {"type": "electric_bike", "rental_uris": {"ios": "https://dc.lft.to/lastmile_qr_scan", "android": "https://dc.lft.to/lastmile_qr_scan"}, "lon": -76.970091, "fusion_lon": 0.0, "is_disabled": 0, "lat": 38.863673666666664, "bike_id": "7c1f18d474fabb8b70a9b8e1f8863a3c", "name": "7c1f18d474fabb8b70a9b8e1f8863a3c", "is_reserved": 0, "fusion_lat": 0.0}, {"type": "electric_scooter", "rental_uris": {"ios": "https://dc.lft.to/lastmile_qr_scan", "android": "https://dc.lft.to/lastmile_qr_scan"}, "lon": -76.99497366666667, "fusion_lon": 0.0, "is_disabled": 0, "lat": 38.862421499999996, "bike_id": "95fc6b49162ce4d579e0ec3a37268f6f", "name": "95fc6b49162ce4d579e0ec3a37268f6f", "is_reserved": 0, "fusion_lat": 0.0}, {"type": "electric_scooter", "rental_uris": {"ios": "https://dc.lft.to/lastmile_qr_scan", "android": "https://dc.lft.to/lastmile_qr_scan"}, "lon": -76.98414766666667, "fusion_lon": 0.0, "is_disabled": 0, "lat": 38.863319, "bike_id": "3fe4bb7487152d7d3555b68c8ad80e16", "name": "3fe4bb7487152d7d3555b68c8ad80e16", "is_reserved": 0, "fusion_lat": 0.0}, {"type": "electric_scooter", "rental_uris": {"ios": "https://dc.lft.to/lastmile_qr_scan", "android": "https://dc.lft.to/lastmile_qr_scan"}, "lon": -76.93373783333334, "fusion_lon": 0.0, "is_disabled": 0, "lat": 38.89889316666667, "bike_id": "804a02351a7b129e613b01b37a1f92c3", "name": "804a02351a7b129e613b01b37a1f92c3", "is_reserved": 0, "fusion_lat": 0.0}, {"type": "electric_scooter", "rental_uris": {"ios": "https://dc.lft.to/lastmile_qr_scan", "android": "https://dc.lft.to/lastmile_qr_scan"}, "lon": -77.03206016666667, "fusion_lon": 0.0, "is_disabled": 0, "lat": 38.91375, "bike_id": "1d7904bea721ce90b3084902a133728a", "name": "1d7904bea721ce90b3084902a133728a", "is_reserved": 0, "fusion_lat": 0.0}, {"type": "electric_bike", "rental_uris": {"ios": "https://dc.lft.to/lastmile_qr_scan", "android": "https://dc.lft.to/lastmile_qr_scan"}, "lon": -77.00840483333333, "fusion_lon": 0.0, "is_disabled": 0, "lat": 38.82878616666667, "bike_id": "4e0c58558f0544419b52f24a156a66e2", "name": "4e0c58558f0544419b52f24a156a66e2", "is_reserved": 0, "fusion_lat": 0.0}, {"type": "electric_scooter", "rental_uris": {"ios": "https://dc.lft.to/lastmile_qr_scan", "android": "https://dc.lft.to/lastmile_qr_scan"}, "lon": -77.04273233333333, "fusion_lon": 0.0, "is_disabled": 0, "lat": 38.910348666666664, "bike_id": "6d190ccfc07359eb88928f00d9b85dbd", "name": "6d190ccfc07359eb88928f00d9b85dbd", "is_reserved": 0, "fusion_lat": 0.0}, {"type": "electric_scooter", "rental_uris": {"ios": "https://dc.lft.to/lastmile_qr_scan", "android": "https://dc.lft.to/lastmile_qr_scan"}, "lon": -77.00200833333334, "fusion_lon": 0.0, "is_disabled": 0, "lat": 38.90238316666667, "bike_id": "37d86b8b3971535e0b8509884326f93b", "name": "37d86b8b3971535e0b8509884326f93b", "is_reserved": 0, "fusion_lat": 0.0}, {"type": "electric_scooter", "rental_uris": {"ios": "https://dc.lft.to/lastmile_qr_scan", "android": "https://dc.lft.to/lastmile_qr_scan"}, "lon": -77.03160116666666, "fusion_lon": 0.0, "is_disabled": 0, "lat": 38.9140735, "bike_id": "4473d8e800462b226d67fca0fbc205f5", "name": "4473d8e800462b226d67fca0fbc205f5", "is_reserved": 0, "fusion_lat": 0.0}, {"type": "electric_scooter", "rental_uris": {"ios": "https://dc.lft.to/lastmile_qr_scan", "android": "https://dc.lft.to/lastmile_qr_scan"}, "lon": -77.00053316666667, "fusion_lon": 0.0, "is_disabled": 0, "lat": 38.920284333333335, "bike_id": "882c7ad16757be5029ce30803f1c6b9d", "name": "882c7ad16757be5029ce30803f1c6b9d", "is_reserved": 0, "fusion_lat": 0.0}, {"type": "electric_scooter", "rental_uris": {"ios": "https://dc.lft.to/lastmile_qr_scan", "android": "https://dc.lft.to/lastmile_qr_scan"}, "lon": -77.03754133333334, "fusion_lon": 0.0, "is_disabled": 0, "lat": 38.936033333333334, "bike_id": "feb99b5c1fdd570a559b2e6c27d18ed0", "name": "feb99b5c1fdd570a559b2e6c27d18ed0", "is_reserved": 0, "fusion_lat": 0.0}, {"type": "electric_scooter", "rental_uris": {"ios": "https://dc.lft.to/lastmile_qr_scan", "android": "https://dc.lft.to/lastmile_qr_scan"}, "lon": -77.04877016666667, "fusion_lon": 0.0, "is_disabled": 0, "lat": 38.909833166666665, "bike_id": "c740e8e8778ac44b04e126eb2f71d3ef", "name": "c740e8e8778ac44b04e126eb2f71d3ef", "is_reserved": 0, "fusion_lat": 0.0}, {"type": "electric_scooter", "rental_uris": {"ios": "https://dc.lft.to/lastmile_qr_scan", "android": "https://dc.lft.to/lastmile_qr_scan"}, "lon": -77.01759366666667, "fusion_lon": 0.0, "is_disabled": 0, "lat": 38.902653666666666, "bike_id": "bfe7d294f55ab94c42ba5eb227f9a9a6", "name": "bfe7d294f55ab94c42ba5eb227f9a9a6", "is_reserved": 0, "fusion_lat": 0.0}, {"type": "electric_scooter", "rental_uris": {"ios": "https://dc.lft.to/lastmile_qr_scan", "android": "https://dc.lft.to/lastmile_qr_scan"}, "lon": -77.01741583333333, "fusion_lon": 0.0, "is_disabled": 0, "lat": 38.920367, "bike_id": "4d6fa176dc690a2e95eaccadf21ad3d0", "name": "4d6fa176dc690a2e95eaccadf21ad3d0", "is_reserved": 0, "fusion_lat": 0.0}, {"type": "electric_scooter", "rental_uris": {"ios": "https://dc.lft.to/lastmile_qr_scan", "android": "https://dc.lft.to/lastmile_qr_scan"}, "lon": -77.03189566666667, "fusion_lon": 0.0, "is_disabled": 0, "lat": 38.91328883333333, "bike_id": "cf0eee35844e4ef5f92af103401f2568", "name": "cf0eee35844e4ef5f92af103401f2568", "is_reserved": 0, "fusion_lat": 0.0}, {"type": "electric_scooter", "rental_uris": {"ios": "https://dc.lft.to/lastmile_qr_scan", "android": "https://dc.lft.to/lastmile_qr_scan"}, "lon": -77.032124, "fusion_lon": 0.0, "is_disabled": 0, "lat": 38.895694, "bike_id": "00eec4ffc594502604a5f60614e667c7", "name": "00eec4ffc594502604a5f60614e667c7", "is_reserved": 0, "fusion_lat": 0.0}, {"type": "electric_scooter", "rental_uris": {"ios": "https://dc.lft.to/lastmile_qr_scan", "android": "https://dc.lft.to/lastmile_qr_scan"}, "lon": -77.01064316666667, "fusion_lon": 0.0, "is_disabled": 0, "lat": 38.895992666666665, "bike_id": "950ea333ba556252950aadf9c5e74e34", "name": "950ea333ba556252950aadf9c5e74e34", "is_reserved": 0, "fusion_lat": 0.0}, {"type": "electric_scooter", "rental_uris": {"ios": "https://dc.lft.to/lastmile_qr_scan", "android": "https://dc.lft.to/lastmile_qr_scan"}, "lon": -76.9352385, "fusion_lon": 0.0, "is_disabled": 0, "lat": 38.87896633333333, "bike_id": "71da497a5a6e866cacf4fb93bc9b92ae", "name": "71da497a5a6e866cacf4fb93bc9b92ae", "is_reserved": 0, "fusion_lat": 0.0}, {"type": "electric_scooter", "rental_uris": {"ios": "https://dc.lft.to/lastmile_qr_scan", "android": "https://dc.lft.to/lastmile_qr_scan"}, "lon": -77.041999, "fusion_lon": 0.0, "is_disabled": 0, "lat": 38.892219833333336, "bike_id": "2f0fde1db9e201831f6f4a006b533774", "name": "2f0fde1db9e201831f6f4a006b533774", "is_reserved": 0, "fusion_lat": 0.0}, {"type": "electric_scooter", "rental_uris": {"ios": "https://dc.lft.to/lastmile_qr_scan", "android": "https://dc.lft.to/lastmile_qr_scan"}, "lon": -77.068885, "fusion_lon": 0.0, "is_disabled": 0, "lat": 38.90417683333333, "bike_id": "9649ec5203cc4efc76d335b3f8063ff1", "name": "9649ec5203cc4efc76d335b3f8063ff1", "is_reserved": 0, "fusion_lat": 0.0}, {"type": "electric_scooter", "rental_uris": {"ios": "https://dc.lft.to/lastmile_qr_scan", "android": "https://dc.lft.to/lastmile_qr_scan"}, "lon": -77.036444, "fusion_lon": 0.0, "is_disabled": 0, "lat": 38.92080166666667, "bike_id": "9e067b761d14a72edcc82516dcd6540c", "name": "9e067b761d14a72edcc82516dcd6540c", "is_reserved": 0, "fusion_lat": 0.0}, {"type": "electric_scooter", "rental_uris": {"ios": "https://dc.lft.to/lastmile_qr_scan", "android": "https://dc.lft.to/lastmile_qr_scan"}, "lon": -77.053316, "fusion_lon": 0.0, "is_disabled": 0, "lat": 38.9233565, "bike_id": "273be640281a70488347c2f7e3561467", "name": "273be640281a70488347c2f7e3561467", "is_reserved": 0, "fusion_lat": 0.0}, {"type": "electric_scooter", "rental_uris": {"ios": "https://dc.lft.to/lastmile_qr_scan", "android": "https://dc.lft.to/lastmile_qr_scan"}, "lon": -76.99390716666667, "fusion_lon": 0.0, "is_disabled": 0, "lat": 38.910112, "bike_id": "4dc2eeeb63ed4ba9590372826e1390db", "name": "4dc2eeeb63ed4ba9590372826e1390db", "is_reserved": 0, "fusion_lat": 0.0}, {"type": "electric_scooter", "rental_uris": {"ios": "https://dc.lft.to/lastmile_qr_scan", "android": "https://dc.lft.to/lastmile_qr_scan"}, "lon": -77.03683566666666, "fusion_lon": 0.0, "is_disabled": 0, "lat": 38.91915216666666, "bike_id": "35a83000deec680b97e5aa87d6a7ecd3", "name": "35a83000deec680b97e5aa87d6a7ecd3", "is_reserved": 0, "fusion_lat": 0.0}, {"type": "electric_scooter", "rental_uris": {"ios": "https://dc.lft.to/lastmile_qr_scan", "android": "https://dc.lft.to/lastmile_qr_scan"}, "lon": -77.033202, "fusion_lon": 0.0, "is_disabled": 0, "lat": 38.89902383333333, "bike_id": "af6396ae53fc6a6f8eeedae68d98a004", "name": "af6396ae53fc6a6f8eeedae68d98a004", "is_reserved": 0, "fusion_lat": 0.0}, {"type": "electric_scooter", "rental_uris": {"ios": "https://dc.lft.to/lastmile_qr_scan", "android": "https://dc.lft.to/lastmile_qr_scan"}, "lon": -77.048663, "fusion_lon": 0.0, "is_disabled": 0, "lat": 38.9095705, "bike_id": "44f078b111d9cb540f3de6e48518932e", "name": "44f078b111d9cb540f3de6e48518932e", "is_reserved": 0, "fusion_lat": 0.0}, {"type": "electric_scooter", "rental_uris": {"ios": "https://dc.lft.to/lastmile_qr_scan", "android": "https://dc.lft.to/lastmile_qr_scan"}, "lon": -77.01773316666667, "fusion_lon": 0.0, "is_disabled": 0, "lat": 38.88591433333333, "bike_id": "9b10eae3fc86d6afea12724b24e95e1c", "name": "9b10eae3fc86d6afea12724b24e95e1c", "is_reserved": 0, "fusion_lat": 0.0}, {"type": "electric_bike", "rental_uris": {"ios": "https://dc.lft.to/lastmile_qr_scan", "android": "https://dc.lft.to/lastmile_qr_scan"}, "lon": -77.1160935, "fusion_lon": 0.0, "is_disabled": 0, "lat": 38.85491116666667, "bike_id": "4d502a31c3678f5b4f337216b0f5d071", "name": "4d502a31c3678f5b4f337216b0f5d071", "is_reserved": 0, "fusion_lat": 0.0}, {"type": "electric_scooter", "rental_uris": {"ios": "https://dc.lft.to/lastmile_qr_scan", "android": "https://dc.lft.to/lastmile_qr_scan"}, "lon": -77.04156633333334, "fusion_lon": 0.0, "is_disabled": 0, "lat": 38.934180166666664, "bike_id": "b8e457f6a39e6f632af798ac3a90c3e4", "name": "b8e457f6a39e6f632af798ac3a90c3e4", "is_reserved": 0, "fusion_lat": 0.0}, {"type": "electric_bike", "rental_uris": {"ios": "https://dc.lft.to/lastmile_qr_scan", "android": "https://dc.lft.to/lastmile_qr_scan"}, "lon": -76.98812683333334, "fusion_lon": 0.0, "is_disabled": 0, "lat": 38.91138183333333, "bike_id": "864f20bc7eb9cb22815941fc1e2ffd1d", "name": "864f20bc7eb9cb22815941fc1e2ffd1d", "is_reserved": 0, "fusion_lat": 0.0}, {"type": "electric_scooter", "rental_uris": {"ios": "https://dc.lft.to/lastmile_qr_scan", "android": "https://dc.lft.to/lastmile_qr_scan"}, "lon": -77.02694416666667, "fusion_lon": 0.0, "is_disabled": 0, "lat": 38.91123233333333, "bike_id": "10b5324c3f8d1fec77548b5028beb3c1", "name": "10b5324c3f8d1fec77548b5028beb3c1", "is_reserved": 0, "fusion_lat": 0.0}, {"type": "electric_scooter", "rental_uris": {"ios": "https://dc.lft.to/lastmile_qr_scan", "android": "https://dc.lft.to/lastmile_qr_scan"}, "lon": -77.02140766666666, "fusion_lon": 0.0, "is_disabled": 0, "lat": 38.8860305, "bike_id": "0eb4bfda95416bb78759bcfd2cd3d53b", "name": "0eb4bfda95416bb78759bcfd2cd3d53b", "is_reserved": 0, "fusion_lat": 0.0}, {"type": "electric_scooter", "rental_uris": {"ios": "https://dc.lft.to/lastmile_qr_scan", "android": "https://dc.lft.to/lastmile_qr_scan"}, "lon": -77.03640066666667, "fusion_lon": 0.0, "is_disabled": 0, "lat": 38.916181, "bike_id": "200bc8b6872eaf6284d145c1b2c8b1eb", "name": "200bc8b6872eaf6284d145c1b2c8b1eb", "is_reserved": 0, "fusion_lat": 0.0}, {"type": "electric_scooter", "rental_uris": {"ios": "https://dc.lft.to/lastmile_qr_scan", "android": "https://dc.lft.to/lastmile_qr_scan"}, "lon": -77.037842, "fusion_lon": 0.0, "is_disabled": 0, "lat": 38.9302255, "bike_id": "d413da9b736e4246b27825d5c0cadc98", "name": "d413da9b736e4246b27825d5c0cadc98", "is_reserved": 0, "fusion_lat": 0.0}, {"type": "electric_bike", "rental_uris": {"ios": "https://dc.lft.to/lastmile_qr_scan", "android": "https://dc.lft.to/lastmile_qr_scan"}, "lon": -77.09843583333334, "fusion_lon": 0.0, "is_disabled": 0, "lat": 38.848420833333336, "bike_id": "167b3b2e224deed54c8e71751491c986", "name": "167b3b2e224deed54c8e71751491c986", "is_reserved": 0, "fusion_lat": 0.0}, {"type": "electric_bike", "rental_uris": {"ios": "https://dc.lft.to/lastmile_qr_scan", "android": "https://dc.lft.to/lastmile_qr_scan"}, "lon": -77.08843966666667, "fusion_lon": 0.0, "is_disabled": 0, "lat": 38.96685983333333, "bike_id": "b88a2b2eaadeb573db6c1967d695959b", "name": "b88a2b2eaadeb573db6c1967d695959b", "is_reserved": 0, "fusion_lat": 0.0}, {"type": "electric_scooter", "rental_uris": {"ios": "https://dc.lft.to/lastmile_qr_scan", "android": "https://dc.lft.to/lastmile_qr_scan"}, "lon": -77.0261685, "fusion_lon": 0.0, "is_disabled": 0, "lat": 38.9307705, "bike_id": "aa1e14c0fc4904ed12e02cc691d58353", "name": "aa1e14c0fc4904ed12e02cc691d58353", "is_reserved": 0, "fusion_lat": 0.0}, {"type": "electric_scooter", "rental_uris": {"ios": "https://dc.lft.to/lastmile_qr_scan", "android": "https://dc.lft.to/lastmile_qr_scan"}, "lon": -77.0269335, "fusion_lon": 0.0, "is_disabled": 0, "lat": 38.9067985, "bike_id": "13e7be1282ade1aca0ab9f427a50f183", "name": "13e7be1282ade1aca0ab9f427a50f183", "is_reserved": 0, "fusion_lat": 0.0}, {"type": "electric_scooter", "rental_uris": {"ios": "https://dc.lft.to/lastmile_qr_scan", "android": "https://dc.lft.to/lastmile_qr_scan"}, "lon": -77.02974316666666, "fusion_lon": 0.0, "is_disabled": 0, "lat": 38.9168125, "bike_id": "a1fd0554415ef6d369e3fae6dbaea496", "name": "a1fd0554415ef6d369e3fae6dbaea496", "is_reserved": 0, "fusion_lat": 0.0}, {"type": "electric_bike", "rental_uris": {"ios": "https://dc.lft.to/lastmile_qr_scan", "android": "https://dc.lft.to/lastmile_qr_scan"}, "lon": -77.101358, "fusion_lon": 0.0, "is_disabled": 0, "lat": 38.85204066666667, "bike_id": "a52149cae755f34a3e0cc1047d9dc1f1", "name": "a52149cae755f34a3e0cc1047d9dc1f1", "is_reserved": 0, "fusion_lat": 0.0}, {"type": "electric_scooter", "rental_uris": {"ios": "https://dc.lft.to/lastmile_qr_scan", "android": "https://dc.lft.to/lastmile_qr_scan"}, "lon": -77.01481933333334, "fusion_lon": 0.0, "is_disabled": 0, "lat": 38.88815983333333, "bike_id": "4f6d4de95a37533e43b6a9e856e1b5f2", "name": "4f6d4de95a37533e43b6a9e856e1b5f2", "is_reserved": 0, "fusion_lat": 0.0}, {"type": "electric_scooter", "rental_uris": {"ios": "https://dc.lft.to/lastmile_qr_scan", "android": "https://dc.lft.to/lastmile_qr_scan"}, "lon": -77.0240835, "fusion_lon": 0.0, "is_disabled": 0, "lat": 38.891920666666664, "bike_id": "506d758cf3eebc1aeb2e173971183d18", "name": "506d758cf3eebc1aeb2e173971183d18", "is_reserved": 0, "fusion_lat": 0.0}, {"type": "electric_scooter", "rental_uris": {"ios": "https://dc.lft.to/lastmile_qr_scan", "android": "https://dc.lft.to/lastmile_qr_scan"}, "lon": -77.026127, "fusion_lon": 0.0, "is_disabled": 0, "lat": 38.905697333333336, "bike_id": "974213a6b7a98e108bd9f86a6942840b", "name": "974213a6b7a98e108bd9f86a6942840b", "is_reserved": 0, "fusion_lat": 0.0}, {"type": "electric_bike", "rental_uris": {"ios": "https://dc.lft.to/lastmile_qr_scan", "android": "https://dc.lft.to/lastmile_qr_scan"}, "lon": -77.03428766666667, "fusion_lon": 0.0, "is_disabled": 0, "lat": 38.924297833333334, "bike_id": "88c14d8dda374c9eab7325b27a9918f8", "name": "88c14d8dda374c9eab7325b27a9918f8", "is_reserved": 0, "fusion_lat": 0.0}, {"type": "electric_scooter", "rental_uris": {"ios": "https://dc.lft.to/lastmile_qr_scan", "android": "https://dc.lft.to/lastmile_qr_scan"}, "lon": -77.02909316666667, "fusion_lon": 0.0, "is_disabled": 0, "lat": 38.9256715, "bike_id": "6ae152b1b4ae82d5b3940ab401a7ed7b", "name": "6ae152b1b4ae82d5b3940ab401a7ed7b", "is_reserved": 0, "fusion_lat": 0.0}, {"type": "electric_scooter", "rental_uris": {"ios": "https://dc.lft.to/lastmile_qr_scan", "android": "https://dc.lft.to/lastmile_qr_scan"}, "lon": -77.03097883333334, "fusion_lon": 0.0, "is_disabled": 0, "lat": 38.87918333333333, "bike_id": "3563e81d1e2f85c43d3bec2f99cdef4f", "name": "3563e81d1e2f85c43d3bec2f99cdef4f", "is_reserved": 0, "fusion_lat": 0.0}, {"type": "electric_scooter", "rental_uris": {"ios": "https://dc.lft.to/lastmile_qr_scan", "android": "https://dc.lft.to/lastmile_qr_scan"}, "lon": -77.0176895, "fusion_lon": 0.0, "is_disabled": 0, "lat": 38.877188333333336, "bike_id": "ce6663bf9697907cb5adba13c73d77c9", "name": "ce6663bf9697907cb5adba13c73d77c9", "is_reserved": 0, "fusion_lat": 0.0}, {"type": "electric_scooter", "rental_uris": {"ios": "https://dc.lft.to/lastmile_qr_scan", "android": "https://dc.lft.to/lastmile_qr_scan"}, "lon": -77.04100016666666, "fusion_lon": 0.0, "is_disabled": 0, "lat": 38.90490916666667, "bike_id": "01678f6284576b51ecc727e4c4b328d4", "name": "01678f6284576b51ecc727e4c4b328d4", "is_reserved": 0, "fusion_lat": 0.0}, {"type": "electric_scooter", "rental_uris": {"ios": "https://dc.lft.to/lastmile_qr_scan", "android": "https://dc.lft.to/lastmile_qr_scan"}, "lon": -76.93183633333334, "fusion_lon": 0.0, "is_disabled": 0, "lat": 38.898763, "bike_id": "f829a61ad09335c4d51289dbb8fde5c0", "name": "f829a61ad09335c4d51289dbb8fde5c0", "is_reserved": 0, "fusion_lat": 0.0}, {"type": "electric_scooter", "rental_uris": {"ios": "https://dc.lft.to/lastmile_qr_scan", "android": "https://dc.lft.to/lastmile_qr_scan"}, "lon": -77.03201783333333, "fusion_lon": 0.0, "is_disabled": 0, "lat": 38.90951483333333, "bike_id": "0f7d5b43b269ee0eaf55fc3750e4eb9f", "name": "0f7d5b43b269ee0eaf55fc3750e4eb9f", "is_reserved": 0, "fusion_lat": 0.0}, {"type": "electric_scooter", "rental_uris": {"ios": "https://dc.lft.to/lastmile_qr_scan", "android": "https://dc.lft.to/lastmile_qr_scan"}, "lon": -77.02693783333333, "fusion_lon": 0.0, "is_disabled": 0, "lat": 38.918237, "bike_id": "c80dc71667b269f8b4038fb14dea08a6", "name": "c80dc71667b269f8b4038fb14dea08a6", "is_reserved": 0, "fusion_lat": 0.0}, {"type": "electric_scooter", "rental_uris": {"ios": "https://dc.lft.to/lastmile_qr_scan", "android": "https://dc.lft.to/lastmile_qr_scan"}, "lon": -77.02666583333334, "fusion_lon": 0.0, "is_disabled": 0, "lat": 38.917059, "bike_id": "4b267ae2c4b3f74009eb344674ab1dcd", "name": "4b267ae2c4b3f74009eb344674ab1dcd", "is_reserved": 0, "fusion_lat": 0.0}, {"type": "electric_scooter", "rental_uris": {"ios": "https://dc.lft.to/lastmile_qr_scan", "android": "https://dc.lft.to/lastmile_qr_scan"}, "lon": -77.03394216666666, "fusion_lon": 0.0, "is_disabled": 0, "lat": 38.90707116666667, "bike_id": "75da6461e3b4946c6aafbe4a1f8c5b30", "name": "75da6461e3b4946c6aafbe4a1f8c5b30", "is_reserved": 0, "fusion_lat": 0.0}, {"type": "electric_scooter", "rental_uris": {"ios": "https://dc.lft.to/lastmile_qr_scan", "android": "https://dc.lft.to/lastmile_qr_scan"}, "lon": -77.041497, "fusion_lon": 0.0, "is_disabled": 0, "lat": 38.8922165, "bike_id": "2d8d5f224bb3493cdd1ff6d7867bed17", "name": "2d8d5f224bb3493cdd1ff6d7867bed17", "is_reserved": 0, "fusion_lat": 0.0}, {"type": "electric_scooter", "rental_uris": {"ios": "https://dc.lft.to/lastmile_qr_scan", "android": "https://dc.lft.to/lastmile_qr_scan"}, "lon": -76.96540133333333, "fusion_lon": 0.0, "is_disabled": 0, "lat": 38.91841983333333, "bike_id": "7e477a03de060b00b483b7324e97b335", "name": "7e477a03de060b00b483b7324e97b335", "is_reserved": 0, "fusion_lat": 0.0}, {"type": "electric_scooter", "rental_uris": {"ios": "https://dc.lft.to/lastmile_qr_scan", "android": "https://dc.lft.to/lastmile_qr_scan"}, "lon": -77.02971133333334, "fusion_lon": 0.0, "is_disabled": 0, "lat": 38.92279116666667, "bike_id": "94d3e542b087496cd1c7105a2ebcebc1", "name": "94d3e542b087496cd1c7105a2ebcebc1", "is_reserved": 0, "fusion_lat": 0.0}, {"type": "electric_scooter", "rental_uris": {"ios": "https://dc.lft.to/lastmile_qr_scan", "android": "https://dc.lft.to/lastmile_qr_scan"}, "lon": -77.0314625, "fusion_lon": 0.0, "is_disabled": 0, "lat": 38.88763, "bike_id": "2a1ed1290b72b51d6f8732966f09fef2", "name": "2a1ed1290b72b51d6f8732966f09fef2", "is_reserved": 0, "fusion_lat": 0.0}, {"type": "electric_scooter", "rental_uris": {"ios": "https://dc.lft.to/lastmile_qr_scan", "android": "https://dc.lft.to/lastmile_qr_scan"}, "lon": -77.01780083333334, "fusion_lon": 0.0, "is_disabled": 0, "lat": 38.887177333333334, "bike_id": "34a321b205b7c810f1182911a7a07c4a", "name": "34a321b205b7c810f1182911a7a07c4a", "is_reserved": 0, "fusion_lat": 0.0}, {"type": "electric_scooter", "rental_uris": {"ios": "https://dc.lft.to/lastmile_qr_scan", "android": "https://dc.lft.to/lastmile_qr_scan"}, "lon": -77.0344165, "fusion_lon": 0.0, "is_disabled": 0, "lat": 38.91846733333333, "bike_id": "33dea1d9e8400b776cc4dc6d1df7782f", "name": "33dea1d9e8400b776cc4dc6d1df7782f", "is_reserved": 0, "fusion_lat": 0.0}, {"type": "electric_bike", "rental_uris": {"ios": "https://dc.lft.to/lastmile_qr_scan", "android": "https://dc.lft.to/lastmile_qr_scan"}, "lon": -77.0217105, "fusion_lon": 0.0, "is_disabled": 0, "lat": 38.9574735, "bike_id": "24171d00f8aade9c3fd30b7e207c628f", "name": "24171d00f8aade9c3fd30b7e207c628f", "is_reserved": 0, "fusion_lat": 0.0}, {"type": "electric_bike", "rental_uris": {"ios": "https://dc.lft.to/lastmile_qr_scan", "android": "https://dc.lft.to/lastmile_qr_scan"}, "lon": -76.93545366666666, "fusion_lon": 0.0, "is_disabled": 0, "lat": 38.9555345, "bike_id": "a19efc6506e234629bdf9084441409c1", "name": "a19efc6506e234629bdf9084441409c1", "is_reserved": 0, "fusion_lat": 0.0}, {"type": "electric_scooter", "rental_uris": {"ios": "https://dc.lft.to/lastmile_qr_scan", "android": "https://dc.lft.to/lastmile_qr_scan"}, "lon": -77.027162, "fusion_lon": 0.0, "is_disabled": 0, "lat": 38.906786833333335, "bike_id": "583a149ef1dbe4844c517ca7c470b862", "name": "583a149ef1dbe4844c517ca7c470b862", "is_reserved": 0, "fusion_lat": 0.0}, {"type": "electric_bike", "rental_uris": {"ios": "https://dc.lft.to/lastmile_qr_scan", "android": "https://dc.lft.to/lastmile_qr_scan"}, "lon": -77.03058616666667, "fusion_lon": 0.0, "is_disabled": 0, "lat": 38.959570166666666, "bike_id": "a39490e89c7b3c7116e98a01cd494140", "name": "a39490e89c7b3c7116e98a01cd494140", "is_reserved": 0, "fusion_lat": 0.0}, {"type": "electric_scooter", "rental_uris": {"ios": "https://dc.lft.to/lastmile_qr_scan", "android": "https://dc.lft.to/lastmile_qr_scan"}, "lon": -77.0449065, "fusion_lon": 0.0, "is_disabled": 0, "lat": 38.9077675, "bike_id": "92bb1f51c214a8aa83162e1cb390edc8", "name": "92bb1f51c214a8aa83162e1cb390edc8", "is_reserved": 0, "fusion_lat": 0.0}, {"type": "electric_scooter", "rental_uris": {"ios": "https://dc.lft.to/lastmile_qr_scan", "android": "https://dc.lft.to/lastmile_qr_scan"}, "lon": -77.03415283333334, "fusion_lon": 0.0, "is_disabled": 0, "lat": 38.92747983333334, "bike_id": "ce80e1a24cc9e4c52a297c5dce43296a", "name": "ce80e1a24cc9e4c52a297c5dce43296a", "is_reserved": 0, "fusion_lat": 0.0}, {"type": "electric_scooter", "rental_uris": {"ios": "https://dc.lft.to/lastmile_qr_scan", "android": "https://dc.lft.to/lastmile_qr_scan"}, "lon": -77.0317105, "fusion_lon": 0.0, "is_disabled": 0, "lat": 38.89217766666667, "bike_id": "881867f5795789b27069312480402786", "name": "881867f5795789b27069312480402786", "is_reserved": 0, "fusion_lat": 0.0}, {"type": "electric_scooter", "rental_uris": {"ios": "https://dc.lft.to/lastmile_qr_scan", "android": "https://dc.lft.to/lastmile_qr_scan"}, "lon": -76.993651, "fusion_lon": 0.0, "is_disabled": 0, "lat": 38.92838866666666, "bike_id": "2006f6e9a1efd7d3a053195a3272d1f4", "name": "2006f6e9a1efd7d3a053195a3272d1f4", "is_reserved": 0, "fusion_lat": 0.0}, {"type": "electric_scooter", "rental_uris": {"ios": "https://dc.lft.to/lastmile_qr_scan", "android": "https://dc.lft.to/lastmile_qr_scan"}, "lon": -76.97924866666666, "fusion_lon": 0.0, "is_disabled": 0, "lat": 38.90503116666667, "bike_id": "86a6d9b459b70c2c2fb0c72c57b6f77a", "name": "86a6d9b459b70c2c2fb0c72c57b6f77a", "is_reserved": 0, "fusion_lat": 0.0}, {"type": "electric_scooter", "rental_uris": {"ios": "https://dc.lft.to/lastmile_qr_scan", "android": "https://dc.lft.to/lastmile_qr_scan"}, "lon": -77.04274783333334, "fusion_lon": 0.0, "is_disabled": 0, "lat": 38.913394, "bike_id": "53a99eb972925cfb349b3031c5a86af4", "name": "53a99eb972925cfb349b3031c5a86af4", "is_reserved": 0, "fusion_lat": 0.0}, {"type": "electric_scooter", "rental_uris": {"ios": "https://dc.lft.to/lastmile_qr_scan", "android": "https://dc.lft.to/lastmile_qr_scan"}, "lon": -77.0317415, "fusion_lon": 0.0, "is_disabled": 0, "lat": 38.91874716666667, "bike_id": "c8769c8178a174a493c68ab0ba5e3bee", "name": "c8769c8178a174a493c68ab0ba5e3bee", "is_reserved": 0, "fusion_lat": 0.0}, {"type": "electric_scooter", "rental_uris": {"ios": "https://dc.lft.to/lastmile_qr_scan", "android": "https://dc.lft.to/lastmile_qr_scan"}, "lon": -77.0321965, "fusion_lon": 0.0, "is_disabled": 0, "lat": 38.892260666666665, "bike_id": "8a860abbffcde2565de01e1b08c9152b", "name": "8a860abbffcde2565de01e1b08c9152b", "is_reserved": 0, "fusion_lat": 0.0}, {"type": "electric_scooter", "rental_uris": {"ios": "https://dc.lft.to/lastmile_qr_scan", "android": "https://dc.lft.to/lastmile_qr_scan"}, "lon": -77.03198833333333, "fusion_lon": 0.0, "is_disabled": 0, "lat": 38.921137, "bike_id": "3342f50f96d7cba495ff0d65f214098f", "name": "3342f50f96d7cba495ff0d65f214098f", "is_reserved": 0, "fusion_lat": 0.0}, {"type": "electric_scooter", "rental_uris": {"ios": "https://dc.lft.to/lastmile_qr_scan", "android": "https://dc.lft.to/lastmile_qr_scan"}, "lon": -77.0383515, "fusion_lon": 0.0, "is_disabled": 0, "lat": 38.9111355, "bike_id": "321c3de2da5b607440b71ebbfa47e350", "name": "321c3de2da5b607440b71ebbfa47e350", "is_reserved": 0, "fusion_lat": 0.0}, {"type": "electric_scooter", "rental_uris": {"ios": "https://dc.lft.to/lastmile_qr_scan", "android": "https://dc.lft.to/lastmile_qr_scan"}, "lon": -77.03223833333334, "fusion_lon": 0.0, "is_disabled": 0, "lat": 38.89219533333333, "bike_id": "097ef4875bbcf55d484991f9c815ad9e", "name": "097ef4875bbcf55d484991f9c815ad9e", "is_reserved": 0, "fusion_lat": 0.0}, {"type": "electric_scooter", "rental_uris": {"ios": "https://dc.lft.to/lastmile_qr_scan", "android": "https://dc.lft.to/lastmile_qr_scan"}, "lon": -77.03662483333333, "fusion_lon": 0.0, "is_disabled": 0, "lat": 38.917203666666666, "bike_id": "4434d74dea72a96eb06e94d8888cd4dc", "name": "4434d74dea72a96eb06e94d8888cd4dc", "is_reserved": 0, "fusion_lat": 0.0}, {"type": "electric_scooter", "rental_uris": {"ios": "https://dc.lft.to/lastmile_qr_scan", "android": "https://dc.lft.to/lastmile_qr_scan"}, "lon": -77.04052483333334, "fusion_lon": 0.0, "is_disabled": 0, "lat": 38.899042666666666, "bike_id": "afc5c366845bd3d9ef427948f0dd9b6d", "name": "afc5c366845bd3d9ef427948f0dd9b6d", "is_reserved": 0, "fusion_lat": 0.0}, {"type": "electric_scooter", "rental_uris": {"ios": "https://dc.lft.to/lastmile_qr_scan", "android": "https://dc.lft.to/lastmile_qr_scan"}, "lon": -77.027244, "fusion_lon": 0.0, "is_disabled": 0, "lat": 38.9518295, "bike_id": "86657596dc3b496f1972272077c2673c", "name": "86657596dc3b496f1972272077c2673c", "is_reserved": 0, "fusion_lat": 0.0}, {"type": "electric_scooter", "rental_uris": {"ios": "https://dc.lft.to/lastmile_qr_scan", "android": "https://dc.lft.to/lastmile_qr_scan"}, "lon": -77.03933183333334, "fusion_lon": 0.0, "is_disabled": 0, "lat": 38.91551116666667, "bike_id": "9f0be1e6fcd3595c8a927ec8ca944dd6", "name": "9f0be1e6fcd3595c8a927ec8ca944dd6", "is_reserved": 0, "fusion_lat": 0.0}, {"type": "electric_scooter", "rental_uris": {"ios": "https://dc.lft.to/lastmile_qr_scan", "android": "https://dc.lft.to/lastmile_qr_scan"}, "lon": -77.00340183333333, "fusion_lon": 0.0, "is_disabled": 0, "lat": 38.88739416666667, "bike_id": "f7c0cd5120df0bd26be7734cb336b60e", "name": "f7c0cd5120df0bd26be7734cb336b60e", "is_reserved": 0, "fusion_lat": 0.0}, {"type": "electric_scooter", "rental_uris": {"ios": "https://dc.lft.to/lastmile_qr_scan", "android": "https://dc.lft.to/lastmile_qr_scan"}, "lon": -77.03670616666666, "fusion_lon": 0.0, "is_disabled": 0, "lat": 38.90288616666667, "bike_id": "6a26c2778d20e079ca03c47f595ee50d", "name": "6a26c2778d20e079ca03c47f595ee50d", "is_reserved": 0, "fusion_lat": 0.0}, {"type": "electric_scooter", "rental_uris": {"ios": "https://dc.lft.to/lastmile_qr_scan", "android": "https://dc.lft.to/lastmile_qr_scan"}, "lon": -77.03183016666667, "fusion_lon": 0.0, "is_disabled": 0, "lat": 38.913282833333334, "bike_id": "fe92d8ac3f28c969e570135cb61e8ea5", "name": "fe92d8ac3f28c969e570135cb61e8ea5", "is_reserved": 0, "fusion_lat": 0.0}, {"type": "electric_scooter", "rental_uris": {"ios": "https://dc.lft.to/lastmile_qr_scan", "android": "https://dc.lft.to/lastmile_qr_scan"}, "lon": -77.02796983333333, "fusion_lon": 0.0, "is_disabled": 0, "lat": 38.917094166666665, "bike_id": "0c681ecafa8c9d44d3a7558ce8ba12c2", "name": "0c681ecafa8c9d44d3a7558ce8ba12c2", "is_reserved": 0, "fusion_lat": 0.0}, {"type": "electric_scooter", "rental_uris": {"ios": "https://dc.lft.to/lastmile_qr_scan", "android": "https://dc.lft.to/lastmile_qr_scan"}, "lon": -77.03294683333333, "fusion_lon": 0.0, "is_disabled": 0, "lat": 38.95639283333333, "bike_id": "e24a432c1c5e4c3ffd01138b32d7ac97", "name": "e24a432c1c5e4c3ffd01138b32d7ac97", "is_reserved": 0, "fusion_lat": 0.0}, {"type": "electric_scooter", "rental_uris": {"ios": "https://dc.lft.to/lastmile_qr_scan", "android": "https://dc.lft.to/lastmile_qr_scan"}, "lon": -77.04236333333333, "fusion_lon": 0.0, "is_disabled": 0, "lat": 38.921979666666665, "bike_id": "125388ba9675b263f1279f9903e9ef96", "name": "125388ba9675b263f1279f9903e9ef96", "is_reserved": 0, "fusion_lat": 0.0}, {"type": "electric_scooter", "rental_uris": {"ios": "https://dc.lft.to/lastmile_qr_scan", "android": "https://dc.lft.to/lastmile_qr_scan"}, "lon": -77.02694166666667, "fusion_lon": 0.0, "is_disabled": 0, "lat": 38.91124, "bike_id": "bddfae20905cb87d2b8be8040b3e0a7d", "name": "bddfae20905cb87d2b8be8040b3e0a7d", "is_reserved": 0, "fusion_lat": 0.0}, {"type": "electric_scooter", "rental_uris": {"ios": "https://dc.lft.to/lastmile_qr_scan", "android": "https://dc.lft.to/lastmile_qr_scan"}, "lon": -77.04149983333333, "fusion_lon": 0.0, "is_disabled": 0, "lat": 38.8922105, "bike_id": "b87905d49ee54d3b9495725dd4b2876e", "name": "b87905d49ee54d3b9495725dd4b2876e", "is_reserved": 0, "fusion_lat": 0.0}, {"type": "electric_bike", "rental_uris": {"ios": "https://dc.lft.to/lastmile_qr_scan", "android": "https://dc.lft.to/lastmile_qr_scan"}, "lon": -77.12730166666667, "fusion_lon": 0.0, "is_disabled": 0, "lat": 38.89558983333333, "bike_id": "fff395f53638f29e68ae4b74916453ab", "name": "fff395f53638f29e68ae4b74916453ab", "is_reserved": 0, "fusion_lat": 0.0}, {"type": "electric_scooter", "rental_uris": {"ios": "https://dc.lft.to/lastmile_qr_scan", "android": "https://dc.lft.to/lastmile_qr_scan"}, "lon": -76.988894, "fusion_lon": 0.0, "is_disabled": 0, "lat": 38.866626333333336, "bike_id": "5d384bd43ad28a2300e7deb118877f3c", "name": "5d384bd43ad28a2300e7deb118877f3c", "is_reserved": 0, "fusion_lat": 0.0}, {"type": "electric_scooter", "rental_uris": {"ios": "https://dc.lft.to/lastmile_qr_scan", "android": "https://dc.lft.to/lastmile_qr_scan"}, "lon": -77.052699, "fusion_lon": 0.0, "is_disabled": 0, "lat": 38.92549833333333, "bike_id": "79079cc455eeee38f7334b7188478dc1", "name": "79079cc455eeee38f7334b7188478dc1", "is_reserved": 0, "fusion_lat": 0.0}, {"type": "electric_scooter", "rental_uris": {"ios": "https://dc.lft.to/lastmile_qr_scan", "android": "https://dc.lft.to/lastmile_qr_scan"}, "lon": -77.0523805, "fusion_lon": 0.0, "is_disabled": 0, "lat": 38.92338133333333, "bike_id": "30f6f580f63cc2f1b45772f85bd55dc3", "name": "30f6f580f63cc2f1b45772f85bd55dc3", "is_reserved": 0, "fusion_lat": 0.0}, {"type": "electric_scooter", "rental_uris": {"ios": "https://dc.lft.to/lastmile_qr_scan", "android": "https://dc.lft.to/lastmile_qr_scan"}, "lon": -77.057652, "fusion_lon": 0.0, "is_disabled": 0, "lat": 38.923812, "bike_id": "6f8feaec10c92e240e7562bf0a480972", "name": "6f8feaec10c92e240e7562bf0a480972", "is_reserved": 0, "fusion_lat": 0.0}, {"type": "electric_bike", "rental_uris": {"ios": "https://dc.lft.to/lastmile_qr_scan", "android": "https://dc.lft.to/lastmile_qr_scan"}, "lon": -77.0262525, "fusion_lon": 0.0, "is_disabled": 0, "lat": 38.96224566666667, "bike_id": "c8a265ea73ea0657ca55c3d693b292a5", "name": "c8a265ea73ea0657ca55c3d693b292a5", "is_reserved": 0, "fusion_lat": 0.0}, {"type": "electric_scooter", "rental_uris": {"ios": "https://dc.lft.to/lastmile_qr_scan", "android": "https://dc.lft.to/lastmile_qr_scan"}, "lon": -77.03665016666666, "fusion_lon": 0.0, "is_disabled": 0, "lat": 38.92245666666667, "bike_id": "4c58022e07b6a5b15895c72e71be3704", "name": "4c58022e07b6a5b15895c72e71be3704", "is_reserved": 0, "fusion_lat": 0.0}, {"type": "electric_scooter", "rental_uris": {"ios": "https://dc.lft.to/lastmile_qr_scan", "android": "https://dc.lft.to/lastmile_qr_scan"}, "lon": -77.020103, "fusion_lon": 0.0, "is_disabled": 0, "lat": 38.92413633333334, "bike_id": "886d5f546d75dd72702e922c0639a5dc", "name": "886d5f546d75dd72702e922c0639a5dc", "is_reserved": 0, "fusion_lat": 0.0}, {"type": "electric_scooter", "rental_uris": {"ios": "https://dc.lft.to/lastmile_qr_scan", "android": "https://dc.lft.to/lastmile_qr_scan"}, "lon": -77.01348616666667, "fusion_lon": 0.0, "is_disabled": 0, "lat": 38.8866375, "bike_id": "4f216d568798c07f0b941d90c4ddd993", "name": "4f216d568798c07f0b941d90c4ddd993", "is_reserved": 0, "fusion_lat": 0.0}, {"type": "electric_scooter", "rental_uris": {"ios": "https://dc.lft.to/lastmile_qr_scan", "android": "https://dc.lft.to/lastmile_qr_scan"}, "lon": -77.02250916666667, "fusion_lon": 0.0, "is_disabled": 0, "lat": 38.87859983333333, "bike_id": "6922678b78296ec1ff51cc36e954eef8", "name": "6922678b78296ec1ff51cc36e954eef8", "is_reserved": 0, "fusion_lat": 0.0}, {"type": "electric_scooter", "rental_uris": {"ios": "https://dc.lft.to/lastmile_qr_scan", "android": "https://dc.lft.to/lastmile_qr_scan"}, "lon": -77.0385565, "fusion_lon": 0.0, "is_disabled": 0, "lat": 38.91016466666667, "bike_id": "62eb295fd0040fc47fc4151cb44a53c1", "name": "62eb295fd0040fc47fc4151cb44a53c1", "is_reserved": 0, "fusion_lat": 0.0}, {"type": "electric_bike", "rental_uris": {"ios": "https://dc.lft.to/lastmile_qr_scan", "android": "https://dc.lft.to/lastmile_qr_scan"}, "lon": -77.107787, "fusion_lon": 0.0, "is_disabled": 0, "lat": 38.892201666666665, "bike_id": "185229a4a479080a069bccbdb873711a", "name": "185229a4a479080a069bccbdb873711a", "is_reserved": 0, "fusion_lat": 0.0}, {"type": "electric_scooter", "rental_uris": {"ios": "https://dc.lft.to/lastmile_qr_scan", "android": "https://dc.lft.to/lastmile_qr_scan"}, "lon": -76.96525233333334, "fusion_lon": 0.0, "is_disabled": 0, "lat": 38.8762845, "bike_id": "6c7c0690a25496b5ecd7b911ba169e58", "name": "6c7c0690a25496b5ecd7b911ba169e58", "is_reserved": 0, "fusion_lat": 0.0}, {"type": "electric_scooter", "rental_uris": {"ios": "https://dc.lft.to/lastmile_qr_scan", "android": "https://dc.lft.to/lastmile_qr_scan"}, "lon": -77.00460316666667, "fusion_lon": 0.0, "is_disabled": 0, "lat": 38.911426666666664, "bike_id": "80cd9dbb342843db422a4f13cce50856", "name": "80cd9dbb342843db422a4f13cce50856", "is_reserved": 0, "fusion_lat": 0.0}, {"type": "electric_scooter", "rental_uris": {"ios": "https://dc.lft.to/lastmile_qr_scan", "android": "https://dc.lft.to/lastmile_qr_scan"}, "lon": -77.00591216666666, "fusion_lon": 0.0, "is_disabled": 0, "lat": 38.90634166666667, "bike_id": "ad1e7a3fffaa9740b3aab060e590d059", "name": "ad1e7a3fffaa9740b3aab060e590d059", "is_reserved": 0, "fusion_lat": 0.0}, {"type": "electric_scooter", "rental_uris": {"ios": "https://dc.lft.to/lastmile_qr_scan", "android": "https://dc.lft.to/lastmile_qr_scan"}, "lon": -77.02313583333333, "fusion_lon": 0.0, "is_disabled": 0, "lat": 38.9018355, "bike_id": "263529ca0fbfb16e76bc704b9b356c0e", "name": "263529ca0fbfb16e76bc704b9b356c0e", "is_reserved": 0, "fusion_lat": 0.0}, {"type": "electric_bike", "rental_uris": {"ios": "https://dc.lft.to/lastmile_qr_scan", "android": "https://dc.lft.to/lastmile_qr_scan"}, "lon": -77.033492, "fusion_lon": 0.0, "is_disabled": 0, "lat": 38.969404833333336, "bike_id": "cdc60f84d0a4c1a910632e7082a6682d", "name": "cdc60f84d0a4c1a910632e7082a6682d", "is_reserved": 0, "fusion_lat": 0.0}, {"type": "electric_scooter", "rental_uris": {"ios": "https://dc.lft.to/lastmile_qr_scan", "android": "https://dc.lft.to/lastmile_qr_scan"}, "lon": -77.02172783333333, "fusion_lon": 0.0, "is_disabled": 0, "lat": 38.94290316666667, "bike_id": "fc3afb6fa361b559047f9ffbfa7208ca", "name": "fc3afb6fa361b559047f9ffbfa7208ca", "is_reserved": 0, "fusion_lat": 0.0}, {"type": "electric_scooter", "rental_uris": {"ios": "https://dc.lft.to/lastmile_qr_scan", "android": "https://dc.lft.to/lastmile_qr_scan"}, "lon": -77.00578016666667, "fusion_lon": 0.0, "is_disabled": 0, "lat": 38.9088475, "bike_id": "642a652f81efdf1db3f87913fbd33288", "name": "642a652f81efdf1db3f87913fbd33288", "is_reserved": 0, "fusion_lat": 0.0}, {"type": "electric_scooter", "rental_uris": {"ios": "https://dc.lft.to/lastmile_qr_scan", "android": "https://dc.lft.to/lastmile_qr_scan"}, "lon": -76.93145666666666, "fusion_lon": 0.0, "is_disabled": 0, "lat": 38.89338633333333, "bike_id": "b9f4d95566a63e323e1647658d89c558", "name": "b9f4d95566a63e323e1647658d89c558", "is_reserved": 0, "fusion_lat": 0.0}, {"type": "electric_scooter", "rental_uris": {"ios": "https://dc.lft.to/lastmile_qr_scan", "android": "https://dc.lft.to/lastmile_qr_scan"}, "lon": -76.99939933333333, "fusion_lon": 0.0, "is_disabled": 0, "lat": 38.88974783333333, "bike_id": "69bf9c19ede8cef322a8b6094b27952c", "name": "69bf9c19ede8cef322a8b6094b27952c", "is_reserved": 0, "fusion_lat": 0.0}, {"type": "electric_scooter", "rental_uris": {"ios": "https://dc.lft.to/lastmile_qr_scan", "android": "https://dc.lft.to/lastmile_qr_scan"}, "lon": -76.9858155, "fusion_lon": 0.0, "is_disabled": 0, "lat": 38.85449116666667, "bike_id": "ca66a57ac4811f58e492a40e21f7b03e", "name": "ca66a57ac4811f58e492a40e21f7b03e", "is_reserved": 0, "fusion_lat": 0.0}, {"type": "electric_scooter", "rental_uris": {"ios": "https://dc.lft.to/lastmile_qr_scan", "android": "https://dc.lft.to/lastmile_qr_scan"}, "lon": -77.04331066666667, "fusion_lon": 0.0, "is_disabled": 0, "lat": 38.892232666666665, "bike_id": "9bfcf77d05c26ae1f9f40e2460380c10", "name": "9bfcf77d05c26ae1f9f40e2460380c10", "is_reserved": 0, "fusion_lat": 0.0}, {"type": "electric_scooter", "rental_uris": {"ios": "https://dc.lft.to/lastmile_qr_scan", "android": "https://dc.lft.to/lastmile_qr_scan"}, "lon": -77.03951783333333, "fusion_lon": 0.0, "is_disabled": 0, "lat": 38.90255616666666, "bike_id": "8a20c0adbf6fc2c43721bcd712b9f900", "name": "8a20c0adbf6fc2c43721bcd712b9f900", "is_reserved": 0, "fusion_lat": 0.0}, {"type": "electric_bike", "rental_uris": {"ios": "https://dc.lft.to/lastmile_qr_scan", "android": "https://dc.lft.to/lastmile_qr_scan"}, "lon": -76.97202133333333, "fusion_lon": 0.0, "is_disabled": 0, "lat": 38.9177095, "bike_id": "83c218f51775886d7646080862d682f7", "name": "83c218f51775886d7646080862d682f7", "is_reserved": 0, "fusion_lat": 0.0}, {"type": "electric_scooter", "rental_uris": {"ios": "https://dc.lft.to/lastmile_qr_scan", "android": "https://dc.lft.to/lastmile_qr_scan"}, "lon": -76.9820885, "fusion_lon": 0.0, "is_disabled": 0, "lat": 38.901965833333335, "bike_id": "6f5ffeeb9f27f6f5b10282db40904886", "name": "6f5ffeeb9f27f6f5b10282db40904886", "is_reserved": 0, "fusion_lat": 0.0}, {"type": "electric_scooter", "rental_uris": {"ios": "https://dc.lft.to/lastmile_qr_scan", "android": "https://dc.lft.to/lastmile_qr_scan"}, "lon": -77.07338683333333, "fusion_lon": 0.0, "is_disabled": 0, "lat": 38.933512666666665, "bike_id": "633a53cf8d2a501077d3c74402427738", "name": "633a53cf8d2a501077d3c74402427738", "is_reserved": 0, "fusion_lat": 0.0}, {"type": "electric_scooter", "rental_uris": {"ios": "https://dc.lft.to/lastmile_qr_scan", "android": "https://dc.lft.to/lastmile_qr_scan"}, "lon": -77.04330633333333, "fusion_lon": 0.0, "is_disabled": 0, "lat": 38.89224016666667, "bike_id": "3223bf559895acf713f820b64719fbf5", "name": "3223bf559895acf713f820b64719fbf5", "is_reserved": 0, "fusion_lat": 0.0}, {"type": "electric_scooter", "rental_uris": {"ios": "https://dc.lft.to/lastmile_qr_scan", "android": "https://dc.lft.to/lastmile_qr_scan"}, "lon": -77.01719416666667, "fusion_lon": 0.0, "is_disabled": 0, "lat": 38.915834333333336, "bike_id": "767ae0ae5a0a20b5991fa0707b275480", "name": "767ae0ae5a0a20b5991fa0707b275480", "is_reserved": 0, "fusion_lat": 0.0}, {"type": "electric_scooter", "rental_uris": {"ios": "https://dc.lft.to/lastmile_qr_scan", "android": "https://dc.lft.to/lastmile_qr_scan"}, "lon": -77.04175083333334, "fusion_lon": 0.0, "is_disabled": 0, "lat": 38.91802583333333, "bike_id": "74741546c7763ce784dbc0d966f4be03", "name": "74741546c7763ce784dbc0d966f4be03", "is_reserved": 0, "fusion_lat": 0.0}, {"type": "electric_scooter", "rental_uris": {"ios": "https://dc.lft.to/lastmile_qr_scan", "android": "https://dc.lft.to/lastmile_qr_scan"}, "lon": -77.02463616666667, "fusion_lon": 0.0, "is_disabled": 0, "lat": 38.9183895, "bike_id": "948f88344669e84abb967c8304fffc00", "name": "948f88344669e84abb967c8304fffc00", "is_reserved": 0, "fusion_lat": 0.0}, {"type": "electric_scooter", "rental_uris": {"ios": "https://dc.lft.to/lastmile_qr_scan", "android": "https://dc.lft.to/lastmile_qr_scan"}, "lon": -77.02709983333334, "fusion_lon": 0.0, "is_disabled": 0, "lat": 38.90458733333333, "bike_id": "a9e4a0e5315208b9e0df8f8555346eaa", "name": "a9e4a0e5315208b9e0df8f8555346eaa", "is_reserved": 0, "fusion_lat": 0.0}, {"type": "electric_scooter", "rental_uris": {"ios": "https://dc.lft.to/lastmile_qr_scan", "android": "https://dc.lft.to/lastmile_qr_scan"}, "lon": -77.03987666666667, "fusion_lon": 0.0, "is_disabled": 0, "lat": 38.89223883333333, "bike_id": "74a9a4dc2da9eb86e1433405e14e940f", "name": "74a9a4dc2da9eb86e1433405e14e940f", "is_reserved": 0, "fusion_lat": 0.0}, {"type": "electric_scooter", "rental_uris": {"ios": "https://dc.lft.to/lastmile_qr_scan", "android": "https://dc.lft.to/lastmile_qr_scan"}, "lon": -77.00433733333334, "fusion_lon": 0.0, "is_disabled": 0, "lat": 38.876430166666665, "bike_id": "f56493b734d638fe54b1d6ff99ecb220", "name": "f56493b734d638fe54b1d6ff99ecb220", "is_reserved": 0, "fusion_lat": 0.0}, {"type": "electric_scooter", "rental_uris": {"ios": "https://dc.lft.to/lastmile_qr_scan", "android": "https://dc.lft.to/lastmile_qr_scan"}, "lon": -77.03228366666667, "fusion_lon": 0.0, "is_disabled": 0, "lat": 38.90958366666667, "bike_id": "ab4b35f84e77ff85465dd139d65cde57", "name": "ab4b35f84e77ff85465dd139d65cde57", "is_reserved": 0, "fusion_lat": 0.0}, {"type": "electric_scooter", "rental_uris": {"ios": "https://dc.lft.to/lastmile_qr_scan", "android": "https://dc.lft.to/lastmile_qr_scan"}, "lon": -77.02854433333333, "fusion_lon": 0.0, "is_disabled": 0, "lat": 38.92566816666667, "bike_id": "d2f4c66d1c68ab59466aab7f05ee4f89", "name": "d2f4c66d1c68ab59466aab7f05ee4f89", "is_reserved": 0, "fusion_lat": 0.0}, {"type": "electric_scooter", "rental_uris": {"ios": "https://dc.lft.to/lastmile_qr_scan", "android": "https://dc.lft.to/lastmile_qr_scan"}, "lon": -77.0322035, "fusion_lon": 0.0, "is_disabled": 0, "lat": 38.89223033333333, "bike_id": "c56f3d652574139edc87017305541006", "name": "c56f3d652574139edc87017305541006", "is_reserved": 0, "fusion_lat": 0.0}, {"type": "electric_scooter", "rental_uris": {"ios": "https://dc.lft.to/lastmile_qr_scan", "android": "https://dc.lft.to/lastmile_qr_scan"}, "lon": -77.046871, "fusion_lon": 0.0, "is_disabled": 0, "lat": 38.897452666666666, "bike_id": "488a4a8c33d5f24405eba890e608016c", "name": "488a4a8c33d5f24405eba890e608016c", "is_reserved": 0, "fusion_lat": 0.0}, {"type": "electric_scooter", "rental_uris": {"ios": "https://dc.lft.to/lastmile_qr_scan", "android": "https://dc.lft.to/lastmile_qr_scan"}, "lon": -77.00309216666666, "fusion_lon": 0.0, "is_disabled": 0, "lat": 38.924767, "bike_id": "f5fde09da4bad9f67329a5648f2ad3b8", "name": "f5fde09da4bad9f67329a5648f2ad3b8", "is_reserved": 0, "fusion_lat": 0.0}, {"type": "electric_scooter", "rental_uris": {"ios": "https://dc.lft.to/lastmile_qr_scan", "android": "https://dc.lft.to/lastmile_qr_scan"}, "lon": -76.95337033333334, "fusion_lon": 0.0, "is_disabled": 0, "lat": 38.89238733333333, "bike_id": "32fbb32cd2419819e8ead28dc735ce8e", "name": "32fbb32cd2419819e8ead28dc735ce8e", "is_reserved": 0, "fusion_lat": 0.0}, {"type": "electric_scooter", "rental_uris": {"ios": "https://dc.lft.to/lastmile_qr_scan", "android": "https://dc.lft.to/lastmile_qr_scan"}, "lon": -77.04171266666667, "fusion_lon": 0.0, "is_disabled": 0, "lat": 38.917271, "bike_id": "4cc11d3187446b02d5a8330b1c307675", "name": "4cc11d3187446b02d5a8330b1c307675", "is_reserved": 0, "fusion_lat": 0.0}, {"type": "electric_scooter", "rental_uris": {"ios": "https://dc.lft.to/lastmile_qr_scan", "android": "https://dc.lft.to/lastmile_qr_scan"}, "lon": -76.98615233333334, "fusion_lon": 0.0, "is_disabled": 0, "lat": 38.880016166666664, "bike_id": "e7501b832bf8484499d40566dec590bc", "name": "e7501b832bf8484499d40566dec590bc", "is_reserved": 0, "fusion_lat": 0.0}, {"type": "electric_scooter", "rental_uris": {"ios": "https://dc.lft.to/lastmile_qr_scan", "android": "https://dc.lft.to/lastmile_qr_scan"}, "lon": -77.0136295, "fusion_lon": 0.0, "is_disabled": 0, "lat": 38.864174, "bike_id": "64fb153b8c4596aa46fc23d0ed7949b3", "name": "64fb153b8c4596aa46fc23d0ed7949b3", "is_reserved": 0, "fusion_lat": 0.0}, {"type": "electric_scooter", "rental_uris": {"ios": "https://dc.lft.to/lastmile_qr_scan", "android": "https://dc.lft.to/lastmile_qr_scan"}, "lon": -77.00615166666667, "fusion_lon": 0.0, "is_disabled": 0, "lat": 38.87180166666667, "bike_id": "5d57c898bbfd7f9a3ddaafa2e8e728a7", "name": "5d57c898bbfd7f9a3ddaafa2e8e728a7", "is_reserved": 0, "fusion_lat": 0.0}, {"type": "electric_scooter", "rental_uris": {"ios": "https://dc.lft.to/lastmile_qr_scan", "android": "https://dc.lft.to/lastmile_qr_scan"}, "lon": -77.04161533333334, "fusion_lon": 0.0, "is_disabled": 0, "lat": 38.915947833333334, "bike_id": "2a4d3425539fe929cf8cc9ed07df8133", "name": "2a4d3425539fe929cf8cc9ed07df8133", "is_reserved": 0, "fusion_lat": 0.0}, {"type": "electric_scooter", "rental_uris": {"ios": "https://dc.lft.to/lastmile_qr_scan", "android": "https://dc.lft.to/lastmile_qr_scan"}, "lon": -77.0220295, "fusion_lon": 0.0, "is_disabled": 0, "lat": 38.898637, "bike_id": "8bf505a772e4cc8a83124fdd8519df28", "name": "8bf505a772e4cc8a83124fdd8519df28", "is_reserved": 0, "fusion_lat": 0.0}, {"type": "electric_scooter", "rental_uris": {"ios": "https://dc.lft.to/lastmile_qr_scan", "android": "https://dc.lft.to/lastmile_qr_scan"}, "lon": -77.03590166666666, "fusion_lon": 0.0, "is_disabled": 0, "lat": 38.9375225, "bike_id": "0ae97f70fff570cbe1739cfdd948e506", "name": "0ae97f70fff570cbe1739cfdd948e506", "is_reserved": 0, "fusion_lat": 0.0}, {"type": "electric_scooter", "rental_uris": {"ios": "https://dc.lft.to/lastmile_qr_scan", "android": "https://dc.lft.to/lastmile_qr_scan"}, "lon": -77.0289505, "fusion_lon": 0.0, "is_disabled": 0, "lat": 38.907113, "bike_id": "0ee8f63005caad931f1a9ba5d0659084", "name": "0ee8f63005caad931f1a9ba5d0659084", "is_reserved": 0, "fusion_lat": 0.0}, {"type": "electric_scooter", "rental_uris": {"ios": "https://dc.lft.to/lastmile_qr_scan", "android": "https://dc.lft.to/lastmile_qr_scan"}, "lon": -77.02098183333334, "fusion_lon": 0.0, "is_disabled": 0, "lat": 38.91080516666667, "bike_id": "21b37dd152b1fe064f111d19a78f4175", "name": "21b37dd152b1fe064f111d19a78f4175", "is_reserved": 0, "fusion_lat": 0.0}, {"type": "electric_scooter", "rental_uris": {"ios": "https://dc.lft.to/lastmile_qr_scan", "android": "https://dc.lft.to/lastmile_qr_scan"}, "lon": -77.0216045, "fusion_lon": 0.0, "is_disabled": 0, "lat": 38.9396585, "bike_id": "1ea113999a17b1442c390605dd0c165c", "name": "1ea113999a17b1442c390605dd0c165c", "is_reserved": 0, "fusion_lat": 0.0}, {"type": "electric_scooter", "rental_uris": {"ios": "https://dc.lft.to/lastmile_qr_scan", "android": "https://dc.lft.to/lastmile_qr_scan"}, "lon": -77.02194316666667, "fusion_lon": 0.0, "is_disabled": 0, "lat": 38.91500116666667, "bike_id": "8eae93b48e2a3384160d8f2dd62a10dc", "name": "8eae93b48e2a3384160d8f2dd62a10dc", "is_reserved": 0, "fusion_lat": 0.0}, {"type": "electric_scooter", "rental_uris": {"ios": "https://dc.lft.to/lastmile_qr_scan", "android": "https://dc.lft.to/lastmile_qr_scan"}, "lon": -77.02127183333333, "fusion_lon": 0.0, "is_disabled": 0, "lat": 38.8874195, "bike_id": "4af3f38d0cbc6dc1a24db81ae8a7bddd", "name": "4af3f38d0cbc6dc1a24db81ae8a7bddd", "is_reserved": 0, "fusion_lat": 0.0}, {"type": "electric_scooter", "rental_uris": {"ios": "https://dc.lft.to/lastmile_qr_scan", "android": "https://dc.lft.to/lastmile_qr_scan"}, "lon": -77.06031133333333, "fusion_lon": 0.0, "is_disabled": 0, "lat": 38.94465566666667, "bike_id": "45281b352d0bf4d00873d5d8626fbafd", "name": "45281b352d0bf4d00873d5d8626fbafd", "is_reserved": 0, "fusion_lat": 0.0}, {"type": "electric_scooter", "rental_uris": {"ios": "https://dc.lft.to/lastmile_qr_scan", "android": "https://dc.lft.to/lastmile_qr_scan"}, "lon": -77.06054983333334, "fusion_lon": 0.0, "is_disabled": 0, "lat": 38.902338, "bike_id": "66397ec819e01faae0de28a336fd0c7d", "name": "66397ec819e01faae0de28a336fd0c7d", "is_reserved": 0, "fusion_lat": 0.0}, {"type": "electric_scooter", "rental_uris": {"ios": "https://dc.lft.to/lastmile_qr_scan", "android": "https://dc.lft.to/lastmile_qr_scan"}, "lon": -77.04688233333333, "fusion_lon": 0.0, "is_disabled": 0, "lat": 38.897598333333335, "bike_id": "e470314c914d6b94b5aad4365f5d4a07", "name": "e470314c914d6b94b5aad4365f5d4a07", "is_reserved": 0, "fusion_lat": 0.0}, {"type": "electric_scooter", "rental_uris": {"ios": "https://dc.lft.to/lastmile_qr_scan", "android": "https://dc.lft.to/lastmile_qr_scan"}, "lon": -77.04877783333333, "fusion_lon": 0.0, "is_disabled": 0, "lat": 38.90479766666667, "bike_id": "5280d8c0dd6f1eb5ec18eca4c59b222b", "name": "5280d8c0dd6f1eb5ec18eca4c59b222b", "is_reserved": 0, "fusion_lat": 0.0}, {"type": "electric_scooter", "rental_uris": {"ios": "https://dc.lft.to/lastmile_qr_scan", "android": "https://dc.lft.to/lastmile_qr_scan"}, "lon": -77.03242033333333, "fusion_lon": 0.0, "is_disabled": 0, "lat": 38.90873466666667, "bike_id": "3b974aedb683049938f950fb80718cfd", "name": "3b974aedb683049938f950fb80718cfd", "is_reserved": 0, "fusion_lat": 0.0}, {"type": "electric_scooter", "rental_uris": {"ios": "https://dc.lft.to/lastmile_qr_scan", "android": "https://dc.lft.to/lastmile_qr_scan"}, "lon": -77.0436215, "fusion_lon": 0.0, "is_disabled": 0, "lat": 38.90823066666667, "bike_id": "2ab99e3e342881abcd051be033d87f57", "name": "2ab99e3e342881abcd051be033d87f57", "is_reserved": 0, "fusion_lat": 0.0}, {"type": "electric_scooter", "rental_uris": {"ios": "https://dc.lft.to/lastmile_qr_scan", "android": "https://dc.lft.to/lastmile_qr_scan"}, "lon": -77.03177716666667, "fusion_lon": 0.0, "is_disabled": 0, "lat": 38.914162166666664, "bike_id": "23d2f62ca9bda3d26dcfbfdccd6c467d", "name": "23d2f62ca9bda3d26dcfbfdccd6c467d", "is_reserved": 0, "fusion_lat": 0.0}, {"type": "electric_scooter", "rental_uris": {"ios": "https://dc.lft.to/lastmile_qr_scan", "android": "https://dc.lft.to/lastmile_qr_scan"}, "lon": -77.027129, "fusion_lon": 0.0, "is_disabled": 0, "lat": 38.901393166666665, "bike_id": "1fa3a14c2dcc5df0a111b136215072f4", "name": "1fa3a14c2dcc5df0a111b136215072f4", "is_reserved": 0, "fusion_lat": 0.0}, {"type": "electric_scooter", "rental_uris": {"ios": "https://dc.lft.to/lastmile_qr_scan", "android": "https://dc.lft.to/lastmile_qr_scan"}, "lon": -77.03217033333334, "fusion_lon": 0.0, "is_disabled": 0, "lat": 38.909712, "bike_id": "44f8d436ebeafd6958f654bcdc5381b9", "name": "44f8d436ebeafd6958f654bcdc5381b9", "is_reserved": 0, "fusion_lat": 0.0}, {"type": "electric_scooter", "rental_uris": {"ios": "https://dc.lft.to/lastmile_qr_scan", "android": "https://dc.lft.to/lastmile_qr_scan"}, "lon": -76.93610633333333, "fusion_lon": 0.0, "is_disabled": 0, "lat": 38.89683983333333, "bike_id": "42f6440be943d240374bc404981341d0", "name": "42f6440be943d240374bc404981341d0", "is_reserved": 0, "fusion_lat": 0.0}, {"type": "electric_scooter", "rental_uris": {"ios": "https://dc.lft.to/lastmile_qr_scan", "android": "https://dc.lft.to/lastmile_qr_scan"}, "lon": -77.0522895, "fusion_lon": 0.0, "is_disabled": 0, "lat": 38.92494633333333, "bike_id": "e2c5736d4d19c1a9fad289c339cf58b5", "name": "e2c5736d4d19c1a9fad289c339cf58b5", "is_reserved": 0, "fusion_lat": 0.0}, {"type": "electric_scooter", "rental_uris": {"ios": "https://dc.lft.to/lastmile_qr_scan", "android": "https://dc.lft.to/lastmile_qr_scan"}, "lon": -77.0318845, "fusion_lon": 0.0, "is_disabled": 0, "lat": 38.9174675, "bike_id": "7b171cb0142162938a687cf007d103da", "name": "7b171cb0142162938a687cf007d103da", "is_reserved": 0, "fusion_lat": 0.0}, {"type": "electric_scooter", "rental_uris": {"ios": "https://dc.lft.to/lastmile_qr_scan", "android": "https://dc.lft.to/lastmile_qr_scan"},