{"data": {"bikes": [{"bike_id": "af62c1aa5bc0fd5a317188270a7caec6", "is_reserved": 0, "fusion_lon": 0.0, "lat": 38.9337635, "is_disabled": 0, "name": "af62c1aa5bc0fd5a317188270a7caec6", "fusion_lat": 0.0, "rental_uris": {"ios": "https://dc.lft.to/lastmile_qr_scan", "android": "https://dc.lft.to/lastmile_qr_scan"}, "lon": -77.03463516666666, "type": "electric_scooter"}, {"bike_id": "3d2edc5c8f1e605269e5632ab882f4d0", "is_reserved": 0, "fusion_lon": 0.0, "lat": 38.928566833333335, "is_disabled": 0, "name": "3d2edc5c8f1e605269e5632ab882f4d0", "fusion_lat": 0.0, "rental_uris": {"ios": "https://dc.lft.to/lastmile_qr_scan", "android": "https://dc.lft.to/lastmile_qr_scan"}, "lon": -77.037343, "type": "electric_scooter"}, {"bike_id": "87db8268acbc9a33f56513d4b774de98", "is_reserved": 0, "fusion_lon": 0.0, "lat": 38.94832266666667, "is_disabled": 0, "name": "87db8268acbc9a33f56513d4b774de98", "fusion_lat": 0.0, "rental_uris": {"ios": "https://dc.lft.to/lastmile_qr_scan", "android": "https://dc.lft.to/lastmile_qr_scan"}, "lon": -77.03895166666666, "type": "electric_bike"}, {"bike_id": "cb6d7d6f3cd50884531dbd0ac07f2512", "is_reserved": 0, "fusion_lon": 0.0, "lat": 38.917224, "is_disabled": 0, "name": "cb6d7d6f3cd50884531dbd0ac07f2512", "fusion_lat": 0.0, "rental_uris": {"ios": "https://dc.lft.to/lastmile_qr_scan", "android": "https://dc.lft.to/lastmile_qr_scan"}, "lon": -77.06830733333334, "type": "electric_scooter"}, {"bike_id": "0c3ca6d7b6edebfdb58be0d231e7dc15", "is_reserved": 0, "fusion_lon": 0.0, "lat": 38.894453, "is_disabled": 0, "name": "0c3ca6d7b6edebfdb58be0d231e7dc15", "fusion_lat": 0.0, "rental_uris": {"ios": "https://dc.lft.to/lastmile_qr_scan", "android": "https://dc.lft.to/lastmile_qr_scan"}, "lon": -77.03077183333333, "type": "electric_scooter"}, {"bike_id": "5382b32a4d981d089d5c67c3c35ba0a4", "is_reserved": 0, "fusion_lon": 0.0, "lat": 38.939085166666665, "is_disabled": 0, "name": "5382b32a4d981d089d5c67c3c35ba0a4", "fusion_lat": 0.0, "rental_uris": {"ios": "https://dc.lft.to/lastmile_qr_scan", "android": "https://dc.lft.to/lastmile_qr_scan"}, "lon": -77.07725366666666, "type": "electric_scooter"}, {"bike_id": "756e2ceba0d767ed09ec5b0948e1afd6", "is_reserved": 0, "fusion_lon": 0.0, "lat": 38.90602666666667, "is_disabled": 0, "name": "756e2ceba0d767ed09ec5b0948e1afd6", "fusion_lat": 0.0, "rental_uris": {"ios": "https://dc.lft.to/lastmile_qr_scan", "android": "https://dc.lft.to/lastmile_qr_scan"}, "lon": -77.0404005, "type": "electric_scooter"}, {"bike_id": "f5662ee67e3f17f0003645137a53ab18", "is_reserved": 0, "fusion_lon": 0.0, "lat": 38.87638116666667, "is_disabled": 0, "name": "f5662ee67e3f17f0003645137a53ab18", "fusion_lat": 0.0, "rental_uris": {"ios": "https://dc.lft.to/lastmile_qr_scan", "android": "https://dc.lft.to/lastmile_qr_scan"}, "lon": -77.00052266666667, "type": "electric_scooter"}, {"bike_id": "47ec4799db3d73d339a76a471b661d4c", "is_reserved": 0, "fusion_lon": 0.0, "lat": 38.937644, "is_disabled": 0, "name": "47ec4799db3d73d339a76a471b661d4c", "fusion_lat": 0.0, "rental_uris": {"ios": "https://dc.lft.to/lastmile_qr_scan", "android": "https://dc.lft.to/lastmile_qr_scan"}, "lon": -77.02264166666667, "type": "electric_scooter"}, {"bike_id": "6f7800b60ab37a399bdda1546395452e", "is_reserved": 0, "fusion_lon": 0.0, "lat": 38.839789833333334, "is_disabled": 0, "name": "6f7800b60ab37a399bdda1546395452e", "fusion_lat": 0.0, "rental_uris": {"ios": "https://dc.lft.to/lastmile_qr_scan", "android": "https://dc.lft.to/lastmile_qr_scan"}, "lon": -77.00565666666667, "type": "electric_bike"}, {"bike_id": "e56f5d1058a945a211cdb7f749709cf4", "is_reserved": 0, "fusion_lon": 0.0, "lat": 38.914113666666665, "is_disabled": 0, "name": "e56f5d1058a945a211cdb7f749709cf4", "fusion_lat": 0.0, "rental_uris": {"ios": "https://dc.lft.to/lastmile_qr_scan", "android": "https://dc.lft.to/lastmile_qr_scan"}, "lon": -77.038088, "type": "electric_scooter"}, {"bike_id": "d0a0d0d75695f1c5ec2c714f93198488", "is_reserved": 0, "fusion_lon": 0.0, "lat": 38.9005035, "is_disabled": 0, "name": "d0a0d0d75695f1c5ec2c714f93198488", "fusion_lat": 0.0, "rental_uris": {"ios": "https://dc.lft.to/lastmile_qr_scan", "android": "https://dc.lft.to/lastmile_qr_scan"}, "lon": -77.05130466666667, "type": "electric_scooter"}, {"bike_id": "4105f537bd50594940276e6b8e6d20b7", "is_reserved": 0, "fusion_lon": 0.0, "lat": 38.93080633333334, "is_disabled": 0, "name": "4105f537bd50594940276e6b8e6d20b7", "fusion_lat": 0.0, "rental_uris": {"ios": "https://dc.lft.to/lastmile_qr_scan", "android": "https://dc.lft.to/lastmile_qr_scan"}, "lon": -77.02798283333334, "type": "electric_scooter"}, {"bike_id": "b3203041c946a48113851245fef2b51e", "is_reserved": 0, "fusion_lon": 0.0, "lat": 38.9007125, "is_disabled": 0, "name": "b3203041c946a48113851245fef2b51e", "fusion_lat": 0.0, "rental_uris": {"ios": "https://dc.lft.to/lastmile_qr_scan", "android": "https://dc.lft.to/lastmile_qr_scan"}, "lon": -77.05060066666667, "type": "electric_scooter"}, {"bike_id": "6e321240cdd392c5356ca2897f6c024f", "is_reserved": 0, "fusion_lon": 0.0, "lat": 38.8665615, "is_disabled": 0, "name": "6e321240cdd392c5356ca2897f6c024f", "fusion_lat": 0.0, "rental_uris": {"ios": "https://dc.lft.to/lastmile_qr_scan", "android": "https://dc.lft.to/lastmile_qr_scan"}, "lon": -76.990164, "type": "electric_scooter"}, {"bike_id": "567eb296703d4e160fdd22759bb3be0b", "is_reserved": 0, "fusion_lon": 0.0, "lat": 38.898251, "is_disabled": 0, "name": "567eb296703d4e160fdd22759bb3be0b", "fusion_lat": 0.0, "rental_uris": {"ios": "https://dc.lft.to/lastmile_qr_scan", "android": "https://dc.lft.to/lastmile_qr_scan"}, "lon": -76.94653033333333, "type": "electric_scooter"}, {"bike_id": "063416ad60e9e4177e22fac15ee1b22f", "is_reserved": 0, "fusion_lon": 0.0, "lat": 38.90141283333333, "is_disabled": 0, "name": "063416ad60e9e4177e22fac15ee1b22f", "fusion_lat": 0.0, "rental_uris": {"ios": "https://dc.lft.to/lastmile_qr_scan", "android": "https://dc.lft.to/lastmile_qr_scan"}, "lon": -77.02915166666666, "type": "electric_scooter"}, {"bike_id": "eb283066dea6efa252cb6dfd11ba8c1d", "is_reserved": 0, "fusion_lon": 0.0, "lat": 38.90533083333333, "is_disabled": 0, "name": "eb283066dea6efa252cb6dfd11ba8c1d", "fusion_lat": 0.0, "rental_uris": {"ios": "https://dc.lft.to/lastmile_qr_scan", "android": "https://dc.lft.to/lastmile_qr_scan"}, "lon": -77.04845733333333, "type": "electric_scooter"}, {"bike_id": "2d25fa51fbff28995664e04cd154f1f9", "is_reserved": 0, "fusion_lon": 0.0, "lat": 38.919901833333334, "is_disabled": 0, "name": "2d25fa51fbff28995664e04cd154f1f9", "fusion_lat": 0.0, "rental_uris": {"ios": "https://dc.lft.to/lastmile_qr_scan", "android": "https://dc.lft.to/lastmile_qr_scan"}, "lon": -77.03470616666667, "type": "electric_scooter"}, {"bike_id": "8062c50e9c3ac9624c034c7670d038ea", "is_reserved": 0, "fusion_lon": 0.0, "lat": 38.88520166666667, "is_disabled": 0, "name": "8062c50e9c3ac9624c034c7670d038ea", "fusion_lat": 0.0, "rental_uris": {"ios": "https://dc.lft.to/lastmile_qr_scan", "android": "https://dc.lft.to/lastmile_qr_scan"}, "lon": -77.02099, "type": "electric_scooter"}, {"bike_id": "5d8666da53f85318817c4e61c4322953", "is_reserved": 0, "fusion_lon": 0.0, "lat": 38.928783, "is_disabled": 0, "name": "5d8666da53f85318817c4e61c4322953", "fusion_lat": 0.0, "rental_uris": {"ios": "https://dc.lft.to/lastmile_qr_scan", "android": "https://dc.lft.to/lastmile_qr_scan"}, "lon": -77.04046116666666, "type": "electric_scooter"}, {"bike_id": "07e9a9e47b2b6b3e6da4de6100807cb0", "is_reserved": 0, "fusion_lon": 0.0, "lat": 38.93674716666666, "is_disabled": 0, "name": "07e9a9e47b2b6b3e6da4de6100807cb0", "fusion_lat": 0.0, "rental_uris": {"ios": "https://dc.lft.to/lastmile_qr_scan", "android": "https://dc.lft.to/lastmile_qr_scan"}, "lon": -76.95199516666666, "type": "electric_bike"}, {"bike_id": "4285fea011df373bd4aa5f8a1798d065", "is_reserved": 0, "fusion_lon": 0.0, "lat": 38.884077, "is_disabled": 0, "name": "4285fea011df373bd4aa5f8a1798d065", "fusion_lat": 0.0, "rental_uris": {"ios": "https://dc.lft.to/lastmile_qr_scan", "android": "https://dc.lft.to/lastmile_qr_scan"}, "lon": -76.960574, "type": "electric_bike"}, {"bike_id": "2a835693e7326fedd4d49f0b2915722f", "is_reserved": 0, "fusion_lon": 0.0, "lat": 38.919604, "is_disabled": 0, "name": "2a835693e7326fedd4d49f0b2915722f", "fusion_lat": 0.0, "rental_uris": {"ios": "https://dc.lft.to/lastmile_qr_scan", "android": "https://dc.lft.to/lastmile_qr_scan"}, "lon": -76.978899, "type": "electric_bike"}, {"bike_id": "0a4f8607bf04f25984bf8950b54d3b57", "is_reserved": 0, "fusion_lon": 0.0, "lat": 38.9170945, "is_disabled": 0, "name": "0a4f8607bf04f25984bf8950b54d3b57", "fusion_lat": 0.0, "rental_uris": {"ios": "https://dc.lft.to/lastmile_qr_scan", "android": "https://dc.lft.to/lastmile_qr_scan"}, "lon": -77.0289035, "type": "electric_scooter"}, {"bike_id": "d6b962549b15e6db4c0be9c10d946939", "is_reserved": 0, "fusion_lon": 0.0, "lat": 38.905252, "is_disabled": 0, "name": "d6b962549b15e6db4c0be9c10d946939", "fusion_lat": 0.0, "rental_uris": {"ios": "https://dc.lft.to/lastmile_qr_scan", "android": "https://dc.lft.to/lastmile_qr_scan"}, "lon": -77.06781933333333, "type": "electric_bike"}, {"bike_id": "f94cac8e04e47cd13eddb84085493355", "is_reserved": 0, "fusion_lon": 0.0, "lat": 38.884943, "is_disabled": 0, "name": "f94cac8e04e47cd13eddb84085493355", "fusion_lat": 0.0, "rental_uris": {"ios": "https://dc.lft.to/lastmile_qr_scan", "android": "https://dc.lft.to/lastmile_qr_scan"}, "lon": -77.00723166666667, "type": "electric_scooter"}, {"bike_id": "407c73b7472af3f630fa8d1859aeb5ae", "is_reserved": 0, "fusion_lon": 0.0, "lat": 38.82781683333333, "is_disabled": 0, "name": "407c73b7472af3f630fa8d1859aeb5ae", "fusion_lat": 0.0, "rental_uris": {"ios": "https://dc.lft.to/lastmile_qr_scan", "android": "https://dc.lft.to/lastmile_qr_scan"}, "lon": -77.00916966666666, "type": "electric_bike"}, {"bike_id": "d945bc4a6cbc57259be4d14047199913", "is_reserved": 0, "fusion_lon": 0.0, "lat": 39.00385166666667, "is_disabled": 0, "name": "d945bc4a6cbc57259be4d14047199913", "fusion_lat": 0.0, "rental_uris": {"ios": "https://dc.lft.to/lastmile_qr_scan", "android": "https://dc.lft.to/lastmile_qr_scan"}, "lon": -77.01300566666667, "type": "electric_bike"}, {"bike_id": "0b6396833a77ec4de6458f54b09a54e0", "is_reserved": 0, "fusion_lon": 0.0, "lat": 38.956492833333336, "is_disabled": 0, "name": "0b6396833a77ec4de6458f54b09a54e0", "fusion_lat": 0.0, "rental_uris": {"ios": "https://dc.lft.to/lastmile_qr_scan", "android": "https://dc.lft.to/lastmile_qr_scan"}, "lon": -77.0328965, "type": "electric_scooter"}, {"bike_id": "742b3e923be0c3c3b17b54e77ab10329", "is_reserved": 0, "fusion_lon": 0.0, "lat": 38.94153033333333, "is_disabled": 0, "name": "742b3e923be0c3c3b17b54e77ab10329", "fusion_lat": 0.0, "rental_uris": {"ios": "https://dc.lft.to/lastmile_qr_scan", "android": "https://dc.lft.to/lastmile_qr_scan"}, "lon": -77.00193883333333, "type": "electric_bike"}, {"bike_id": "c918841f025b65cdc890254f92cce2e4", "is_reserved": 0, "fusion_lon": 0.0, "lat": 38.9263, "is_disabled": 0, "name": "c918841f025b65cdc890254f92cce2e4", "fusion_lat": 0.0, "rental_uris": {"ios": "https://dc.lft.to/lastmile_qr_scan", "android": "https://dc.lft.to/lastmile_qr_scan"}, "lon": -77.035089, "type": "electric_scooter"}, {"bike_id": "6fddc402ff5e2ca22f10bc7f55d117fd", "is_reserved": 0, "fusion_lon": 0.0, "lat": 38.9059015, "is_disabled": 0, "name": "6fddc402ff5e2ca22f10bc7f55d117fd", "fusion_lat": 0.0, "rental_uris": {"ios": "https://dc.lft.to/lastmile_qr_scan", "android": "https://dc.lft.to/lastmile_qr_scan"}, "lon": -77.06517566666666, "type": "electric_scooter"}, {"bike_id": "aeb9d63afb551a57fa7fe3a4356453f0", "is_reserved": 0, "fusion_lon": 0.0, "lat": 38.9274745, "is_disabled": 0, "name": "aeb9d63afb551a57fa7fe3a4356453f0", "fusion_lat": 0.0, "rental_uris": {"ios": "https://dc.lft.to/lastmile_qr_scan", "android": "https://dc.lft.to/lastmile_qr_scan"}, "lon": -77.032693, "type": "electric_scooter"}, {"bike_id": "0cb768bb0614907fc6516a9c1a4948a6", "is_reserved": 0, "fusion_lon": 0.0, "lat": 38.923329333333335, "is_disabled": 0, "name": "0cb768bb0614907fc6516a9c1a4948a6", "fusion_lat": 0.0, "rental_uris": {"ios": "https://dc.lft.to/lastmile_qr_scan", "android": "https://dc.lft.to/lastmile_qr_scan"}, "lon": -77.04390333333333, "type": "electric_scooter"}, {"bike_id": "04706455e4e4b56881c840fdc8e06b3c", "is_reserved": 0, "fusion_lon": 0.0, "lat": 38.90510116666667, "is_disabled": 0, "name": "04706455e4e4b56881c840fdc8e06b3c", "fusion_lat": 0.0, "rental_uris": {"ios": "https://dc.lft.to/lastmile_qr_scan", "android": "https://dc.lft.to/lastmile_qr_scan"}, "lon": -77.06383733333334, "type": "electric_scooter"}, {"bike_id": "1d6a848d6955a8b9afbea82d25c8b44a", "is_reserved": 0, "fusion_lon": 0.0, "lat": 38.95780283333333, "is_disabled": 0, "name": "1d6a848d6955a8b9afbea82d25c8b44a", "fusion_lat": 0.0, "rental_uris": {"ios": "https://dc.lft.to/lastmile_qr_scan", "android": "https://dc.lft.to/lastmile_qr_scan"}, "lon": -77.02755766666667, "type": "electric_bike"}, {"bike_id": "fdac46a0ba23d91339218d522ff20ff2", "is_reserved": 0, "fusion_lon": 0.0, "lat": 38.9126975, "is_disabled": 0, "name": "fdac46a0ba23d91339218d522ff20ff2", "fusion_lat": 0.0, "rental_uris": {"ios": "https://dc.lft.to/lastmile_qr_scan", "android": "https://dc.lft.to/lastmile_qr_scan"}, "lon": -77.02210033333333, "type": "electric_scooter"}, {"bike_id": "10548cddba332d98b96494e167c80383", "is_reserved": 0, "fusion_lon": 0.0, "lat": 38.920589166666666, "is_disabled": 0, "name": "10548cddba332d98b96494e167c80383", "fusion_lat": 0.0, "rental_uris": {"ios": "https://dc.lft.to/lastmile_qr_scan", "android": "https://dc.lft.to/lastmile_qr_scan"}, "lon": -77.0297565, "type": "electric_scooter"}, {"bike_id": "ec722f35707c0dd8127e5b03e22979c7", "is_reserved": 0, "fusion_lon": 0.0, "lat": 38.90577183333333, "is_disabled": 0, "name": "ec722f35707c0dd8127e5b03e22979c7", "fusion_lat": 0.0, "rental_uris": {"ios": "https://dc.lft.to/lastmile_qr_scan", "android": "https://dc.lft.to/lastmile_qr_scan"}, "lon": -77.03625916666667, "type": "electric_scooter"}, {"bike_id": "95c6d65f3fc2e0feaf1fb21db007a3db", "is_reserved": 0, "fusion_lon": 0.0, "lat": 38.92030033333333, "is_disabled": 0, "name": "95c6d65f3fc2e0feaf1fb21db007a3db", "fusion_lat": 0.0, "rental_uris": {"ios": "https://dc.lft.to/lastmile_qr_scan", "android": "https://dc.lft.to/lastmile_qr_scan"}, "lon": -77.03397216666667, "type": "electric_scooter"}, {"bike_id": "b481c9c6ff4ed4f81ac45298d350b1cf", "is_reserved": 0, "fusion_lon": 0.0, "lat": 38.9072255, "is_disabled": 0, "name": "b481c9c6ff4ed4f81ac45298d350b1cf", "fusion_lat": 0.0, "rental_uris": {"ios": "https://dc.lft.to/lastmile_qr_scan", "android": "https://dc.lft.to/lastmile_qr_scan"}, "lon": -76.999501, "type": "electric_scooter"}, {"bike_id": "2955757d27056e3ea694fbc1050dce1a", "is_reserved": 0, "fusion_lon": 0.0, "lat": 38.92064666666667, "is_disabled": 0, "name": "2955757d27056e3ea694fbc1050dce1a", "fusion_lat": 0.0, "rental_uris": {"ios": "https://dc.lft.to/lastmile_qr_scan", "android": "https://dc.lft.to/lastmile_qr_scan"}, "lon": -76.97817016666667, "type": "electric_scooter"}, {"bike_id": "9e38955753eba9ab10d4837b82868747", "is_reserved": 0, "fusion_lon": 0.0, "lat": 38.91967866666667, "is_disabled": 0, "name": "9e38955753eba9ab10d4837b82868747", "fusion_lat": 0.0, "rental_uris": {"ios": "https://dc.lft.to/lastmile_qr_scan", "android": "https://dc.lft.to/lastmile_qr_scan"}, "lon": -77.00102866666667, "type": "electric_scooter"}, {"bike_id": "4f5a2bfd8c18d6d3318e256b96ed60c8", "is_reserved": 0, "fusion_lon": 0.0, "lat": 38.896691, "is_disabled": 0, "name": "4f5a2bfd8c18d6d3318e256b96ed60c8", "fusion_lat": 0.0, "rental_uris": {"ios": "https://dc.lft.to/lastmile_qr_scan", "android": "https://dc.lft.to/lastmile_qr_scan"}, "lon": -77.02966216666667, "type": "electric_scooter"}, {"bike_id": "bfcae1af785d77a1dd42e8d48aad33e5", "is_reserved": 0, "fusion_lon": 0.0, "lat": 38.923421, "is_disabled": 0, "name": "bfcae1af785d77a1dd42e8d48aad33e5", "fusion_lat": 0.0, "rental_uris": {"ios": "https://dc.lft.to/lastmile_qr_scan", "android": "https://dc.lft.to/lastmile_qr_scan"}, "lon": -77.01897633333333, "type": "electric_scooter"}, {"bike_id": "5207daa05ae76812ccd6d9cbbb075f1a", "is_reserved": 0, "fusion_lon": 0.0, "lat": 38.918613666666666, "is_disabled": 0, "name": "5207daa05ae76812ccd6d9cbbb075f1a", "fusion_lat": 0.0, "rental_uris": {"ios": "https://dc.lft.to/lastmile_qr_scan", "android": "https://dc.lft.to/lastmile_qr_scan"}, "lon": -77.04172383333334, "type": "electric_scooter"}, {"bike_id": "9035a7460ba8723e7c30b09502970645", "is_reserved": 0, "fusion_lon": 0.0, "lat": 38.9361345, "is_disabled": 0, "name": "9035a7460ba8723e7c30b09502970645", "fusion_lat": 0.0, "rental_uris": {"ios": "https://dc.lft.to/lastmile_qr_scan", "android": "https://dc.lft.to/lastmile_qr_scan"}, "lon": -77.032054, "type": "electric_scooter"}, {"bike_id": "0b84efa6bf00e013f1f0914071066aa0", "is_reserved": 0, "fusion_lon": 0.0, "lat": 38.901393, "is_disabled": 0, "name": "0b84efa6bf00e013f1f0914071066aa0", "fusion_lat": 0.0, "rental_uris": {"ios": "https://dc.lft.to/lastmile_qr_scan", "android": "https://dc.lft.to/lastmile_qr_scan"}, "lon": -77.04487216666666, "type": "electric_scooter"}, {"bike_id": "1c06d88a4889c2d483f80400abeffe4e", "is_reserved": 0, "fusion_lon": 0.0, "lat": 38.9335115, "is_disabled": 0, "name": "1c06d88a4889c2d483f80400abeffe4e", "fusion_lat": 0.0, "rental_uris": {"ios": "https://dc.lft.to/lastmile_qr_scan", "android": "https://dc.lft.to/lastmile_qr_scan"}, "lon": -77.05864133333333, "type": "electric_scooter"}, {"bike_id": "8eaa2e0368812c6ffb6e61d07034cd88", "is_reserved": 0, "fusion_lon": 0.0, "lat": 38.8623925, "is_disabled": 0, "name": "8eaa2e0368812c6ffb6e61d07034cd88", "fusion_lat": 0.0, "rental_uris": {"ios": "https://dc.lft.to/lastmile_qr_scan", "android": "https://dc.lft.to/lastmile_qr_scan"}, "lon": -76.99481916666667, "type": "electric_scooter"}, {"bike_id": "15d1e251716a3b1e5dc72fd1bbc61400", "is_reserved": 0, "fusion_lon": 0.0, "lat": 38.91113566666667, "is_disabled": 0, "name": "15d1e251716a3b1e5dc72fd1bbc61400", "fusion_lat": 0.0, "rental_uris": {"ios": "https://dc.lft.to/lastmile_qr_scan", "android": "https://dc.lft.to/lastmile_qr_scan"}, "lon": -77.06527683333333, "type": "electric_scooter"}, {"bike_id": "4cb951abea4c67d75ae9e93f6d8b3bdb", "is_reserved": 0, "fusion_lon": 0.0, "lat": 38.89994133333333, "is_disabled": 0, "name": "4cb951abea4c67d75ae9e93f6d8b3bdb", "fusion_lat": 0.0, "rental_uris": {"ios": "https://dc.lft.to/lastmile_qr_scan", "android": "https://dc.lft.to/lastmile_qr_scan"}, "lon": -77.011292, "type": "electric_scooter"}, {"bike_id": "bfbb49e5811dbe5e45039994048db25c", "is_reserved": 0, "fusion_lon": 0.0, "lat": 38.903132666666664, "is_disabled": 0, "name": "bfbb49e5811dbe5e45039994048db25c", "fusion_lat": 0.0, "rental_uris": {"ios": "https://dc.lft.to/lastmile_qr_scan", "android": "https://dc.lft.to/lastmile_qr_scan"}, "lon": -77.03984183333333, "type": "electric_scooter"}, {"bike_id": "f069a33d465b3310034b4ab2d971c76b", "is_reserved": 0, "fusion_lon": 0.0, "lat": 38.8981695, "is_disabled": 0, "name": "f069a33d465b3310034b4ab2d971c76b", "fusion_lat": 0.0, "rental_uris": {"ios": "https://dc.lft.to/lastmile_qr_scan", "android": "https://dc.lft.to/lastmile_qr_scan"}, "lon": -77.02986616666666, "type": "electric_scooter"}, {"bike_id": "187b4ef9c9c4b467820fcb78930d8583", "is_reserved": 0, "fusion_lon": 0.0, "lat": 38.905200666666666, "is_disabled": 0, "name": "187b4ef9c9c4b467820fcb78930d8583", "fusion_lat": 0.0, "rental_uris": {"ios": "https://dc.lft.to/lastmile_qr_scan", "android": "https://dc.lft.to/lastmile_qr_scan"}, "lon": -77.041676, "type": "electric_scooter"}, {"bike_id": "79dd24995014c5f30590cddcd6a258c9", "is_reserved": 0, "fusion_lon": 0.0, "lat": 38.9053235, "is_disabled": 0, "name": "79dd24995014c5f30590cddcd6a258c9", "fusion_lat": 0.0, "rental_uris": {"ios": "https://dc.lft.to/lastmile_qr_scan", "android": "https://dc.lft.to/lastmile_qr_scan"}, "lon": -76.9980995, "type": "electric_bike"}, {"bike_id": "73c519a7f26750da52087d2a0003504d", "is_reserved": 0, "fusion_lon": 0.0, "lat": 38.94152883333334, "is_disabled": 0, "name": "73c519a7f26750da52087d2a0003504d", "fusion_lat": 0.0, "rental_uris": {"ios": "https://dc.lft.to/lastmile_qr_scan", "android": "https://dc.lft.to/lastmile_qr_scan"}, "lon": -77.03649916666667, "type": "electric_scooter"}, {"bike_id": "9052db810b087d4e37435670b6c76bd9", "is_reserved": 0, "fusion_lon": 0.0, "lat": 38.922926833333335, "is_disabled": 0, "name": "9052db810b087d4e37435670b6c76bd9", "fusion_lat": 0.0, "rental_uris": {"ios": "https://dc.lft.to/lastmile_qr_scan", "android": "https://dc.lft.to/lastmile_qr_scan"}, "lon": -77.0207575, "type": "electric_scooter"}, {"bike_id": "ca8b3456d9536e3ac7c8c0dde34adbfa", "is_reserved": 0, "fusion_lon": 0.0, "lat": 38.89672016666667, "is_disabled": 0, "name": "ca8b3456d9536e3ac7c8c0dde34adbfa", "fusion_lat": 0.0, "rental_uris": {"ios": "https://dc.lft.to/lastmile_qr_scan", "android": "https://dc.lft.to/lastmile_qr_scan"}, "lon": -77.05395883333334, "type": "electric_scooter"}, {"bike_id": "f4a2ccaf8a579c4de1313a4c4b46ebda", "is_reserved": 0, "fusion_lon": 0.0, "lat": 38.88445333333333, "is_disabled": 0, "name": "f4a2ccaf8a579c4de1313a4c4b46ebda", "fusion_lat": 0.0, "rental_uris": {"ios": "https://dc.lft.to/lastmile_qr_scan", "android": "https://dc.lft.to/lastmile_qr_scan"}, "lon": -76.95750033333333, "type": "electric_scooter"}, {"bike_id": "dedd5c494fd5b3d9bcc3d2ac63b70042", "is_reserved": 0, "fusion_lon": 0.0, "lat": 38.99090983333333, "is_disabled": 0, "name": "dedd5c494fd5b3d9bcc3d2ac63b70042", "fusion_lat": 0.0, "rental_uris": {"ios": "https://dc.lft.to/lastmile_qr_scan", "android": "https://dc.lft.to/lastmile_qr_scan"}, "lon": -76.874967, "type": "electric_bike"}, {"bike_id": "d43da7d4607ad7f5cbe0d803423df652", "is_reserved": 0, "fusion_lon": 0.0, "lat": 38.913313333333335, "is_disabled": 0, "name": "d43da7d4607ad7f5cbe0d803423df652", "fusion_lat": 0.0, "rental_uris": {"ios": "https://dc.lft.to/lastmile_qr_scan", "android": "https://dc.lft.to/lastmile_qr_scan"}, "lon": -77.03043283333334, "type": "electric_scooter"}, {"bike_id": "de850dc8c3a1f570b0a109d3944f3e96", "is_reserved": 0, "fusion_lon": 0.0, "lat": 38.924065, "is_disabled": 0, "name": "de850dc8c3a1f570b0a109d3944f3e96", "fusion_lat": 0.0, "rental_uris": {"ios": "https://dc.lft.to/lastmile_qr_scan", "android": "https://dc.lft.to/lastmile_qr_scan"}, "lon": -77.02544383333333, "type": "electric_scooter"}, {"bike_id": "32278b3bc2463a4572f9e3523f67530c", "is_reserved": 0, "fusion_lon": 0.0, "lat": 38.867016166666666, "is_disabled": 0, "name": "32278b3bc2463a4572f9e3523f67530c", "fusion_lat": 0.0, "rental_uris": {"ios": "https://dc.lft.to/lastmile_qr_scan", "android": "https://dc.lft.to/lastmile_qr_scan"}, "lon": -76.98709966666667, "type": "electric_scooter"}, {"bike_id": "75ae9c8a95812f2640c9f15f51fd81bc", "is_reserved": 0, "fusion_lon": 0.0, "lat": 38.92290166666667, "is_disabled": 0, "name": "75ae9c8a95812f2640c9f15f51fd81bc", "fusion_lat": 0.0, "rental_uris": {"ios": "https://dc.lft.to/lastmile_qr_scan", "android": "https://dc.lft.to/lastmile_qr_scan"}, "lon": -77.03203183333333, "type": "electric_scooter"}, {"bike_id": "9a2d2ae7e008824eb736e2dc722df0b9", "is_reserved": 0, "fusion_lon": 0.0, "lat": 38.917068666666665, "is_disabled": 0, "name": "9a2d2ae7e008824eb736e2dc722df0b9", "fusion_lat": 0.0, "rental_uris": {"ios": "https://dc.lft.to/lastmile_qr_scan", "android": "https://dc.lft.to/lastmile_qr_scan"}, "lon": -77.00113466666667, "type": "electric_scooter"}, {"bike_id": "17f906ec1652b5e8f1b37f9b9c550552", "is_reserved": 0, "fusion_lon": 0.0, "lat": 38.9518365, "is_disabled": 0, "name": "17f906ec1652b5e8f1b37f9b9c550552", "fusion_lat": 0.0, "rental_uris": {"ios": "https://dc.lft.to/lastmile_qr_scan", "android": "https://dc.lft.to/lastmile_qr_scan"}, "lon": -76.93547266666667, "type": "electric_bike"}, {"bike_id": "30c886e808986ed5433ee340e0389ac0", "is_reserved": 0, "fusion_lon": 0.0, "lat": 38.87369016666667, "is_disabled": 0, "name": "30c886e808986ed5433ee340e0389ac0", "fusion_lat": 0.0, "rental_uris": {"ios": "https://dc.lft.to/lastmile_qr_scan", "android": "https://dc.lft.to/lastmile_qr_scan"}, "lon": -77.00028883333333, "type": "electric_bike"}, {"bike_id": "91f3d39d7954e0b539aa8c8324e7fb12", "is_reserved": 0, "fusion_lon": 0.0, "lat": 38.95642433333333, "is_disabled": 0, "name": "91f3d39d7954e0b539aa8c8324e7fb12", "fusion_lat": 0.0, "rental_uris": {"ios": "https://dc.lft.to/lastmile_qr_scan", "android": "https://dc.lft.to/lastmile_qr_scan"}, "lon": -76.99748016666666, "type": "electric_bike"}, {"bike_id": "362a08984f78819d567c422bbb43e00f", "is_reserved": 0, "fusion_lon": 0.0, "lat": 38.897426833333334, "is_disabled": 0, "name": "362a08984f78819d567c422bbb43e00f", "fusion_lat": 0.0, "rental_uris": {"ios": "https://dc.lft.to/lastmile_qr_scan", "android": "https://dc.lft.to/lastmile_qr_scan"}, "lon": -77.02197616666666, "type": "electric_scooter"}, {"bike_id": "c4deb01e3317fb8c5a7511d1d2838aeb", "is_reserved": 0, "fusion_lon": 0.0, "lat": 38.91695, "is_disabled": 0, "name": "c4deb01e3317fb8c5a7511d1d2838aeb", "fusion_lat": 0.0, "rental_uris": {"ios": "https://dc.lft.to/lastmile_qr_scan", "android": "https://dc.lft.to/lastmile_qr_scan"}, "lon": -77.02891583333333, "type": "electric_scooter"}, {"bike_id": "0c732b9da2b35de9c042c7653d2d6075", "is_reserved": 0, "fusion_lon": 0.0, "lat": 38.88297083333333, "is_disabled": 0, "name": "0c732b9da2b35de9c042c7653d2d6075", "fusion_lat": 0.0, "rental_uris": {"ios": "https://dc.lft.to/lastmile_qr_scan", "android": "https://dc.lft.to/lastmile_qr_scan"}, "lon": -77.01785366666667, "type": "electric_scooter"}, {"bike_id": "560b8d480a020f7c746f33fc619b54fc", "is_reserved": 0, "fusion_lon": 0.0, "lat": 38.90744466666666, "is_disabled": 0, "name": "560b8d480a020f7c746f33fc619b54fc", "fusion_lat": 0.0, "rental_uris": {"ios": "https://dc.lft.to/lastmile_qr_scan", "android": "https://dc.lft.to/lastmile_qr_scan"}, "lon": -77.00155783333334, "type": "electric_scooter"}, {"bike_id": "9ee3c6bd1b8e56849ca7ff31cde172ae", "is_reserved": 0, "fusion_lon": 0.0, "lat": 38.915824666666666, "is_disabled": 0, "name": "9ee3c6bd1b8e56849ca7ff31cde172ae", "fusion_lat": 0.0, "rental_uris": {"ios": "https://dc.lft.to/lastmile_qr_scan", "android": "https://dc.lft.to/lastmile_qr_scan"}, "lon": -77.04469, "type": "electric_scooter"}, {"bike_id": "de70061d4945f6da0017196966cd1799", "is_reserved": 0, "fusion_lon": 0.0, "lat": 38.90151633333333, "is_disabled": 0, "name": "de70061d4945f6da0017196966cd1799", "fusion_lat": 0.0, "rental_uris": {"ios": "https://dc.lft.to/lastmile_qr_scan", "android": "https://dc.lft.to/lastmile_qr_scan"}, "lon": -76.9306395, "type": "electric_scooter"}, {"bike_id": "9be99e12b5cc4a77f469d68ace7c7de7", "is_reserved": 0, "fusion_lon": 0.0, "lat": 38.926925833333335, "is_disabled": 0, "name": "9be99e12b5cc4a77f469d68ace7c7de7", "fusion_lat": 0.0, "rental_uris": {"ios": "https://dc.lft.to/lastmile_qr_scan", "android": "https://dc.lft.to/lastmile_qr_scan"}, "lon": -77.09562066666666, "type": "electric_scooter"}, {"bike_id": "963b00d74b9a53f86297f394f4f5fd3e", "is_reserved": 0, "fusion_lon": 0.0, "lat": 38.918717, "is_disabled": 0, "name": "963b00d74b9a53f86297f394f4f5fd3e", "fusion_lat": 0.0, "rental_uris": {"ios": "https://dc.lft.to/lastmile_qr_scan", "android": "https://dc.lft.to/lastmile_qr_scan"}, "lon": -77.04377216666667, "type": "electric_scooter"}, {"bike_id": "8d592e510a6af46a38476e5c6e740b87", "is_reserved": 0, "fusion_lon": 0.0, "lat": 38.9038065, "is_disabled": 0, "name": "8d592e510a6af46a38476e5c6e740b87", "fusion_lat": 0.0, "rental_uris": {"ios": "https://dc.lft.to/lastmile_qr_scan", "android": "https://dc.lft.to/lastmile_qr_scan"}, "lon": -77.03214166666666, "type": "electric_scooter"}, {"bike_id": "2e2d713769eac1261dee5253fdcacf11", "is_reserved": 0, "fusion_lon": 0.0, "lat": 38.9406655, "is_disabled": 0, "name": "2e2d713769eac1261dee5253fdcacf11", "fusion_lat": 0.0, "rental_uris": {"ios": "https://dc.lft.to/lastmile_qr_scan", "android": "https://dc.lft.to/lastmile_qr_scan"}, "lon": -76.99461616666666, "type": "electric_scooter"}, {"bike_id": "b9275aa89dddeecee3406cf147c2ab49", "is_reserved": 0, "fusion_lon": 0.0, "lat": 38.9247115, "is_disabled": 0, "name": "b9275aa89dddeecee3406cf147c2ab49", "fusion_lat": 0.0, "rental_uris": {"ios": "https://dc.lft.to/lastmile_qr_scan", "android": "https://dc.lft.to/lastmile_qr_scan"}, "lon": -77.0376135, "type": "electric_scooter"}, {"bike_id": "1002e491768e12da342ef7288b2b811d", "is_reserved": 0, "fusion_lon": 0.0, "lat": 38.92225916666666, "is_disabled": 0, "name": "1002e491768e12da342ef7288b2b811d", "fusion_lat": 0.0, "rental_uris": {"ios": "https://dc.lft.to/lastmile_qr_scan", "android": "https://dc.lft.to/lastmile_qr_scan"}, "lon": -77.03330666666666, "type": "electric_scooter"}, {"bike_id": "9af21c5f2ec5fed0872c81158167f424", "is_reserved": 0, "fusion_lon": 0.0, "lat": 38.928725166666666, "is_disabled": 0, "name": "9af21c5f2ec5fed0872c81158167f424", "fusion_lat": 0.0, "rental_uris": {"ios": "https://dc.lft.to/lastmile_qr_scan", "android": "https://dc.lft.to/lastmile_qr_scan"}, "lon": -77.03344133333333, "type": "electric_scooter"}, {"bike_id": "1f88c010bfac8f06b34cf7cb9bb01146", "is_reserved": 0, "fusion_lon": 0.0, "lat": 38.924445, "is_disabled": 0, "name": "1f88c010bfac8f06b34cf7cb9bb01146", "fusion_lat": 0.0, "rental_uris": {"ios": "https://dc.lft.to/lastmile_qr_scan", "android": "https://dc.lft.to/lastmile_qr_scan"}, "lon": -76.993295, "type": "electric_scooter"}, {"bike_id": "e1aae7367f4c6b8a02372dd0b0f2e03e", "is_reserved": 0, "fusion_lon": 0.0, "lat": 38.917378666666664, "is_disabled": 0, "name": "e1aae7367f4c6b8a02372dd0b0f2e03e", "fusion_lat": 0.0, "rental_uris": {"ios": "https://dc.lft.to/lastmile_qr_scan", "android": "https://dc.lft.to/lastmile_qr_scan"}, "lon": -77.01027866666666, "type": "electric_scooter"}, {"bike_id": "fc4e4275a794719d0ddcba2cefc6019e", "is_reserved": 0, "fusion_lon": 0.0, "lat": 38.9008045, "is_disabled": 0, "name": "fc4e4275a794719d0ddcba2cefc6019e", "fusion_lat": 0.0, "rental_uris": {"ios": "https://dc.lft.to/lastmile_qr_scan", "android": "https://dc.lft.to/lastmile_qr_scan"}, "lon": -77.02447116666667, "type": "electric_scooter"}, {"bike_id": "9ba5c280f4c12093592e55a22149835a", "is_reserved": 0, "fusion_lon": 0.0, "lat": 38.91567466666667, "is_disabled": 0, "name": "9ba5c280f4c12093592e55a22149835a", "fusion_lat": 0.0, "rental_uris": {"ios": "https://dc.lft.to/lastmile_qr_scan", "android": "https://dc.lft.to/lastmile_qr_scan"}, "lon": -77.022878, "type": "electric_scooter"}, {"bike_id": "638de3a6a1895591fe96f98bda8f5ffd", "is_reserved": 0, "fusion_lon": 0.0, "lat": 38.943989, "is_disabled": 0, "name": "638de3a6a1895591fe96f98bda8f5ffd", "fusion_lat": 0.0, "rental_uris": {"ios": "https://dc.lft.to/lastmile_qr_scan", "android": "https://dc.lft.to/lastmile_qr_scan"}, "lon": -77.03892783333333, "type": "electric_scooter"}, {"bike_id": "cf9e8bd153c0a2f27116712edbd30e82", "is_reserved": 0, "fusion_lon": 0.0, "lat": 38.90113066666667, "is_disabled": 0, "name": "cf9e8bd153c0a2f27116712edbd30e82", "fusion_lat": 0.0, "rental_uris": {"ios": "https://dc.lft.to/lastmile_qr_scan", "android": "https://dc.lft.to/lastmile_qr_scan"}, "lon": -77.043879, "type": "electric_scooter"}, {"bike_id": "3e424c0762e407b59cce527e33d1f795", "is_reserved": 0, "fusion_lon": 0.0, "lat": 38.87878333333333, "is_disabled": 0, "name": "3e424c0762e407b59cce527e33d1f795", "fusion_lat": 0.0, "rental_uris": {"ios": "https://dc.lft.to/lastmile_qr_scan", "android": "https://dc.lft.to/lastmile_qr_scan"}, "lon": -77.02303566666667, "type": "electric_scooter"}, {"bike_id": "8509b353758fe080821e225d864abf43", "is_reserved": 0, "fusion_lon": 0.0, "lat": 38.89877883333333, "is_disabled": 0, "name": "8509b353758fe080821e225d864abf43", "fusion_lat": 0.0, "rental_uris": {"ios": "https://dc.lft.to/lastmile_qr_scan", "android": "https://dc.lft.to/lastmile_qr_scan"}, "lon": -76.93158933333333, "type": "electric_scooter"}, {"bike_id": "4591894e13c55f61fb3136c19118c688", "is_reserved": 0, "fusion_lon": 0.0, "lat": 38.914061, "is_disabled": 0, "name": "4591894e13c55f61fb3136c19118c688", "fusion_lat": 0.0, "rental_uris": {"ios": "https://dc.lft.to/lastmile_qr_scan", "android": "https://dc.lft.to/lastmile_qr_scan"}, "lon": -77.001576, "type": "electric_scooter"}, {"bike_id": "8879c2e47525725805dd43adcce240f0", "is_reserved": 0, "fusion_lon": 0.0, "lat": 38.9291395, "is_disabled": 0, "name": "8879c2e47525725805dd43adcce240f0", "fusion_lat": 0.0, "rental_uris": {"ios": "https://dc.lft.to/lastmile_qr_scan", "android": "https://dc.lft.to/lastmile_qr_scan"}, "lon": -77.03175233333333, "type": "electric_scooter"}, {"bike_id": "eed4950a5f754ee6b53bdc5687689fd4", "is_reserved": 0, "fusion_lon": 0.0, "lat": 38.902619333333334, "is_disabled": 0, "name": "eed4950a5f754ee6b53bdc5687689fd4", "fusion_lat": 0.0, "rental_uris": {"ios": "https://dc.lft.to/lastmile_qr_scan", "android": "https://dc.lft.to/lastmile_qr_scan"}, "lon": -77.05912666666667, "type": "electric_scooter"}, {"bike_id": "cb9de44501e4edf9be7a42d47ba6022f", "is_reserved": 0, "fusion_lon": 0.0, "lat": 38.916805333333336, "is_disabled": 0, "name": "cb9de44501e4edf9be7a42d47ba6022f", "fusion_lat": 0.0, "rental_uris": {"ios": "https://dc.lft.to/lastmile_qr_scan", "android": "https://dc.lft.to/lastmile_qr_scan"}, "lon": -77.02975866666667, "type": "electric_scooter"}, {"bike_id": "ad6d6780cadf320996fd4d6a9fe7bf71", "is_reserved": 0, "fusion_lon": 0.0, "lat": 38.89623183333333, "is_disabled": 0, "name": "ad6d6780cadf320996fd4d6a9fe7bf71", "fusion_lat": 0.0, "rental_uris": {"ios": "https://dc.lft.to/lastmile_qr_scan", "android": "https://dc.lft.to/lastmile_qr_scan"}, "lon": -76.99844733333333, "type": "electric_scooter"}, {"bike_id": "a89acd14711f1ae70bd7abfcfd782d1a", "is_reserved": 0, "fusion_lon": 0.0, "lat": 38.86908, "is_disabled": 0, "name": "a89acd14711f1ae70bd7abfcfd782d1a", "fusion_lat": 0.0, "rental_uris": {"ios": "https://dc.lft.to/lastmile_qr_scan", "android": "https://dc.lft.to/lastmile_qr_scan"}, "lon": -77.131783, "type": "electric_bike"}, {"bike_id": "8e61192dfc509e6977d22024f7611491", "is_reserved": 0, "fusion_lon": 0.0, "lat": 38.904689833333336, "is_disabled": 0, "name": "8e61192dfc509e6977d22024f7611491", "fusion_lat": 0.0, "rental_uris": {"ios": "https://dc.lft.to/lastmile_qr_scan", "android": "https://dc.lft.to/lastmile_qr_scan"}, "lon": -77.04345416666666, "type": "electric_scooter"}, {"bike_id": "b9332c6a149ce01de253c32974b9cf2a", "is_reserved": 0, "fusion_lon": 0.0, "lat": 38.9064675, "is_disabled": 0, "name": "b9332c6a149ce01de253c32974b9cf2a", "fusion_lat": 0.0, "rental_uris": {"ios": "https://dc.lft.to/lastmile_qr_scan", "android": "https://dc.lft.to/lastmile_qr_scan"}, "lon": -77.03846483333334, "type": "electric_scooter"}, {"bike_id": "ed43180aef8fc8d8e3812bad0db1c74a", "is_reserved": 0, "fusion_lon": 0.0, "lat": 38.89004833333333, "is_disabled": 0, "name": "ed43180aef8fc8d8e3812bad0db1c74a", "fusion_lat": 0.0, "rental_uris": {"ios": "https://dc.lft.to/lastmile_qr_scan", "android": "https://dc.lft.to/lastmile_qr_scan"}, "lon": -77.04898966666667, "type": "electric_scooter"}, {"bike_id": "f273058e217edb1190f6a716690229a4", "is_reserved": 0, "fusion_lon": 0.0, "lat": 38.9264095, "is_disabled": 0, "name": "f273058e217edb1190f6a716690229a4", "fusion_lat": 0.0, "rental_uris": {"ios": "https://dc.lft.to/lastmile_qr_scan", "android": "https://dc.lft.to/lastmile_qr_scan"}, "lon": -77.03835, "type": "electric_scooter"}, {"bike_id": "1823ee81b975e4c7195cf814d02de38e", "is_reserved": 0, "fusion_lon": 0.0, "lat": 38.907265, "is_disabled": 0, "name": "1823ee81b975e4c7195cf814d02de38e", "fusion_lat": 0.0, "rental_uris": {"ios": "https://dc.lft.to/lastmile_qr_scan", "android": "https://dc.lft.to/lastmile_qr_scan"}, "lon": -77.043556, "type": "electric_scooter"}, {"bike_id": "c56dc9ffc41abff3dd2357bd7ff1ccac", "is_reserved": 0, "fusion_lon": 0.0, "lat": 38.90683933333333, "is_disabled": 0, "name": "c56dc9ffc41abff3dd2357bd7ff1ccac", "fusion_lat": 0.0, "rental_uris": {"ios": "https://dc.lft.to/lastmile_qr_scan", "android": "https://dc.lft.to/lastmile_qr_scan"}, "lon": -77.01341783333334, "type": "electric_scooter"}, {"bike_id": "bd8cd593b9e0d427fbcfd1af9deb5c53", "is_reserved": 0, "fusion_lon": 0.0, "lat": 38.906381, "is_disabled": 0, "name": "bd8cd593b9e0d427fbcfd1af9deb5c53", "fusion_lat": 0.0, "rental_uris": {"ios": "https://dc.lft.to/lastmile_qr_scan", "android": "https://dc.lft.to/lastmile_qr_scan"}, "lon": -77.011385, "type": "electric_scooter"}, {"bike_id": "d95a507046c317f9555460dad5fdccda", "is_reserved": 0, "fusion_lon": 0.0, "lat": 38.932617, "is_disabled": 0, "name": "d95a507046c317f9555460dad5fdccda", "fusion_lat": 0.0, "rental_uris": {"ios": "https://dc.lft.to/lastmile_qr_scan", "android": "https://dc.lft.to/lastmile_qr_scan"}, "lon": -77.03262033333333, "type": "electric_scooter"}, {"bike_id": "ba350e85918da7570e423db3d8fb2b6d", "is_reserved": 0, "fusion_lon": 0.0, "lat": 38.893883, "is_disabled": 0, "name": "ba350e85918da7570e423db3d8fb2b6d", "fusion_lat": 0.0, "rental_uris": {"ios": "https://dc.lft.to/lastmile_qr_scan", "android": "https://dc.lft.to/lastmile_qr_scan"}, "lon": -77.02251816666667, "type": "electric_bike"}, {"bike_id": "7211602802bd418e69ae88cdf6a3b227", "is_reserved": 0, "fusion_lon": 0.0, "lat": 38.92245916666667, "is_disabled": 0, "name": "7211602802bd418e69ae88cdf6a3b227", "fusion_lat": 0.0, "rental_uris": {"ios": "https://dc.lft.to/lastmile_qr_scan", "android": "https://dc.lft.to/lastmile_qr_scan"}, "lon": -77.01007866666667, "type": "electric_scooter"}, {"bike_id": "8f33bef61e740fd5427127d87df31a99", "is_reserved": 0, "fusion_lon": 0.0, "lat": 38.91804116666667, "is_disabled": 0, "name": "8f33bef61e740fd5427127d87df31a99", "fusion_lat": 0.0, "rental_uris": {"ios": "https://dc.lft.to/lastmile_qr_scan", "android": "https://dc.lft.to/lastmile_qr_scan"}, "lon": -77.03181633333334, "type": "electric_scooter"}, {"bike_id": "ad8927f8b149d5392b1a2bea862c02a0", "is_reserved": 0, "fusion_lon": 0.0, "lat": 38.89609166666666, "is_disabled": 0, "name": "ad8927f8b149d5392b1a2bea862c02a0", "fusion_lat": 0.0, "rental_uris": {"ios": "https://dc.lft.to/lastmile_qr_scan", "android": "https://dc.lft.to/lastmile_qr_scan"}, "lon": -77.02850933333333, "type": "electric_scooter"}, {"bike_id": "eaa60fb33d681001c0174bdef4542be7", "is_reserved": 0, "fusion_lon": 0.0, "lat": 38.92251366666667, "is_disabled": 0, "name": "eaa60fb33d681001c0174bdef4542be7", "fusion_lat": 0.0, "rental_uris": {"ios": "https://dc.lft.to/lastmile_qr_scan", "android": "https://dc.lft.to/lastmile_qr_scan"}, "lon": -77.03068016666667, "type": "electric_scooter"}, {"bike_id": "4143792a1900fb76eede2f30bd2cd9c3", "is_reserved": 0, "fusion_lon": 0.0, "lat": 38.8919725, "is_disabled": 0, "name": "4143792a1900fb76eede2f30bd2cd9c3", "fusion_lat": 0.0, "rental_uris": {"ios": "https://dc.lft.to/lastmile_qr_scan", "android": "https://dc.lft.to/lastmile_qr_scan"}, "lon": -77.0298045, "type": "electric_scooter"}, {"bike_id": "f0714a235dc8221095fb5e4d86ed9b65", "is_reserved": 0, "fusion_lon": 0.0, "lat": 38.89797466666667, "is_disabled": 0, "name": "f0714a235dc8221095fb5e4d86ed9b65", "fusion_lat": 0.0, "rental_uris": {"ios": "https://dc.lft.to/lastmile_qr_scan", "android": "https://dc.lft.to/lastmile_qr_scan"}, "lon": -77.03296533333334, "type": "electric_scooter"}, {"bike_id": "0e942a7137f7adbdf305b67978736d9a", "is_reserved": 0, "fusion_lon": 0.0, "lat": 38.908642, "is_disabled": 0, "name": "0e942a7137f7adbdf305b67978736d9a", "fusion_lat": 0.0, "rental_uris": {"ios": "https://dc.lft.to/lastmile_qr_scan", "android": "https://dc.lft.to/lastmile_qr_scan"}, "lon": -77.04439066666667, "type": "electric_scooter"}, {"bike_id": "ce9a491d4454f48f1803c2bbe9f65fed", "is_reserved": 0, "fusion_lon": 0.0, "lat": 38.908309, "is_disabled": 0, "name": "ce9a491d4454f48f1803c2bbe9f65fed", "fusion_lat": 0.0, "rental_uris": {"ios": "https://dc.lft.to/lastmile_qr_scan", "android": "https://dc.lft.to/lastmile_qr_scan"}, "lon": -77.04341916666667, "type": "electric_scooter"}, {"bike_id": "dcdd44e91036da7e87d9e989bc5126c8", "is_reserved": 0, "fusion_lon": 0.0, "lat": 38.83935966666667, "is_disabled": 0, "name": "dcdd44e91036da7e87d9e989bc5126c8", "fusion_lat": 0.0, "rental_uris": {"ios": "https://dc.lft.to/lastmile_qr_scan", "android": "https://dc.lft.to/lastmile_qr_scan"}, "lon": -77.07898566666667, "type": "electric_bike"}, {"bike_id": "6c0efe1bff2c6e834a3a2c0dc4355082", "is_reserved": 0, "fusion_lon": 0.0, "lat": 38.914094, "is_disabled": 0, "name": "6c0efe1bff2c6e834a3a2c0dc4355082", "fusion_lat": 0.0, "rental_uris": {"ios": "https://dc.lft.to/lastmile_qr_scan", "android": "https://dc.lft.to/lastmile_qr_scan"}, "lon": -77.02082316666667, "type": "electric_scooter"}, {"bike_id": "e95ed5ed028988c102ba61fac617557d", "is_reserved": 0, "fusion_lon": 0.0, "lat": 38.84283933333333, "is_disabled": 0, "name": "e95ed5ed028988c102ba61fac617557d", "fusion_lat": 0.0, "rental_uris": {"ios": "https://dc.lft.to/lastmile_qr_scan", "android": "https://dc.lft.to/lastmile_qr_scan"}, "lon": -76.98840316666667, "type": "electric_bike"}, {"bike_id": "678a94d0ddf4b788c1d04c22c30d717a", "is_reserved": 0, "fusion_lon": 0.0, "lat": 38.89819683333333, "is_disabled": 0, "name": "678a94d0ddf4b788c1d04c22c30d717a", "fusion_lat": 0.0, "rental_uris": {"ios": "https://dc.lft.to/lastmile_qr_scan", "android": "https://dc.lft.to/lastmile_qr_scan"}, "lon": -77.0330885, "type": "electric_scooter"}, {"bike_id": "ad6697bf26c454c4170312af30bf9033", "is_reserved": 0, "fusion_lon": 0.0, "lat": 38.88489033333333, "is_disabled": 0, "name": "ad6697bf26c454c4170312af30bf9033", "fusion_lat": 0.0, "rental_uris": {"ios": "https://dc.lft.to/lastmile_qr_scan", "android": "https://dc.lft.to/lastmile_qr_scan"}, "lon": -77.00727183333333, "type": "electric_scooter"}, {"bike_id": "b3ed354b19c5a2c111c5af894beecb3e", "is_reserved": 0, "fusion_lon": 0.0, "lat": 38.9059145, "is_disabled": 0, "name": "b3ed354b19c5a2c111c5af894beecb3e", "fusion_lat": 0.0, "rental_uris": {"ios": "https://dc.lft.to/lastmile_qr_scan", "android": "https://dc.lft.to/lastmile_qr_scan"}, "lon": -77.016141, "type": "electric_scooter"}, {"bike_id": "3b89caa9f995b497cb35eca1f9c37398", "is_reserved": 0, "fusion_lon": 0.0, "lat": 38.90313283333333, "is_disabled": 0, "name": "3b89caa9f995b497cb35eca1f9c37398", "fusion_lat": 0.0, "rental_uris": {"ios": "https://dc.lft.to/lastmile_qr_scan", "android": "https://dc.lft.to/lastmile_qr_scan"}, "lon": -77.03336016666667, "type": "electric_scooter"}, {"bike_id": "16e7003224f668ec0413f68ac07fda76", "is_reserved": 0, "fusion_lon": 0.0, "lat": 38.9000895, "is_disabled": 0, "name": "16e7003224f668ec0413f68ac07fda76", "fusion_lat": 0.0, "rental_uris": {"ios": "https://dc.lft.to/lastmile_qr_scan", "android": "https://dc.lft.to/lastmile_qr_scan"}, "lon": -77.01161733333333, "type": "electric_scooter"}, {"bike_id": "6d93be2ae10e1a6aed34d2bfe159abbf", "is_reserved": 0, "fusion_lon": 0.0, "lat": 38.8955755, "is_disabled": 0, "name": "6d93be2ae10e1a6aed34d2bfe159abbf", "fusion_lat": 0.0, "rental_uris": {"ios": "https://dc.lft.to/lastmile_qr_scan", "android": "https://dc.lft.to/lastmile_qr_scan"}, "lon": -76.93046533333333, "type": "electric_scooter"}, {"bike_id": "b084af2ffc7c2d7110c657424580f982", "is_reserved": 0, "fusion_lon": 0.0, "lat": 38.898714166666664, "is_disabled": 0, "name": "b084af2ffc7c2d7110c657424580f982", "fusion_lat": 0.0, "rental_uris": {"ios": "https://dc.lft.to/lastmile_qr_scan", "android": "https://dc.lft.to/lastmile_qr_scan"}, "lon": -77.0327915, "type": "electric_scooter"}, {"bike_id": "4d72b5447261856b28615cdf206e703b", "is_reserved": 0, "fusion_lon": 0.0, "lat": 39.0581155, "is_disabled": 0, "name": "4d72b5447261856b28615cdf206e703b", "fusion_lat": 0.0, "rental_uris": {"ios": "https://dc.lft.to/lastmile_qr_scan", "android": "https://dc.lft.to/lastmile_qr_scan"}, "lon": -77.12623916666666, "type": "electric_bike"}, {"bike_id": "2dfc3cbcb229194e5142f9c77291693b", "is_reserved": 0, "fusion_lon": 0.0, "lat": 38.91600966666667, "is_disabled": 0, "name": "2dfc3cbcb229194e5142f9c77291693b", "fusion_lat": 0.0, "rental_uris": {"ios": "https://dc.lft.to/lastmile_qr_scan", "android": "https://dc.lft.to/lastmile_qr_scan"}, "lon": -76.98376183333333, "type": "electric_scooter"}, {"bike_id": "e8f53dae8676433227bc646d689f3e05", "is_reserved": 0, "fusion_lon": 0.0, "lat": 38.8984595, "is_disabled": 0, "name": "e8f53dae8676433227bc646d689f3e05", "fusion_lat": 0.0, "rental_uris": {"ios": "https://dc.lft.to/lastmile_qr_scan", "android": "https://dc.lft.to/lastmile_qr_scan"}, "lon": -77.0288225, "type": "electric_scooter"}, {"bike_id": "42ef308c72cb0e4daa5e22494f739e35", "is_reserved": 0, "fusion_lon": 0.0, "lat": 38.846099833333334, "is_disabled": 0, "name": "42ef308c72cb0e4daa5e22494f739e35", "fusion_lat": 0.0, "rental_uris": {"ios": "https://dc.lft.to/lastmile_qr_scan", "android": "https://dc.lft.to/lastmile_qr_scan"}, "lon": -76.97833033333333, "type": "electric_bike"}, {"bike_id": "bd19b77d4ff0821b715c04c10d63e015", "is_reserved": 0, "fusion_lon": 0.0, "lat": 38.91478633333333, "is_disabled": 0, "name": "bd19b77d4ff0821b715c04c10d63e015", "fusion_lat": 0.0, "rental_uris": {"ios": "https://dc.lft.to/lastmile_qr_scan", "android": "https://dc.lft.to/lastmile_qr_scan"}, "lon": -77.00831783333334, "type": "electric_scooter"}, {"bike_id": "a002a6d37a4b4f06c696e6a29e0f0870", "is_reserved": 0, "fusion_lon": 0.0, "lat": 38.969561666666664, "is_disabled": 0, "name": "a002a6d37a4b4f06c696e6a29e0f0870", "fusion_lat": 0.0, "rental_uris": {"ios": "https://dc.lft.to/lastmile_qr_scan", "android": "https://dc.lft.to/lastmile_qr_scan"}, "lon": -76.95651033333333, "type": "electric_bike"}, {"bike_id": "142182d119533b5822f2488a8eb7e494", "is_reserved": 0, "fusion_lon": 0.0, "lat": 38.918072333333335, "is_disabled": 0, "name": "142182d119533b5822f2488a8eb7e494", "fusion_lat": 0.0, "rental_uris": {"ios": "https://dc.lft.to/lastmile_qr_scan", "android": "https://dc.lft.to/lastmile_qr_scan"}, "lon": -77.03437066666666, "type": "electric_scooter"}, {"bike_id": "75331a9cbcc28af985a232e028976c78", "is_reserved": 0, "fusion_lon": 0.0, "lat": 38.903789833333335, "is_disabled": 0, "name": "75331a9cbcc28af985a232e028976c78", "fusion_lat": 0.0, "rental_uris": {"ios": "https://dc.lft.to/lastmile_qr_scan", "android": "https://dc.lft.to/lastmile_qr_scan"}, "lon": -77.04161483333333, "type": "electric_scooter"}, {"bike_id": "de84c228235e8acd057751f15492792c", "is_reserved": 0, "fusion_lon": 0.0, "lat": 38.91377133333334, "is_disabled": 0, "name": "de84c228235e8acd057751f15492792c", "fusion_lat": 0.0, "rental_uris": {"ios": "https://dc.lft.to/lastmile_qr_scan", "android": "https://dc.lft.to/lastmile_qr_scan"}, "lon": -77.01984866666666, "type": "electric_scooter"}, {"bike_id": "5bfa7d395b1d787f0624f6e4d7eba624", "is_reserved": 0, "fusion_lon": 0.0, "lat": 38.842938833333335, "is_disabled": 0, "name": "5bfa7d395b1d787f0624f6e4d7eba624", "fusion_lat": 0.0, "rental_uris": {"ios": "https://dc.lft.to/lastmile_qr_scan", "android": "https://dc.lft.to/lastmile_qr_scan"}, "lon": -76.99947383333334, "type": "electric_scooter"}, {"bike_id": "3dfb551b6cd24a217e94f845f6c332a4", "is_reserved": 0, "fusion_lon": 0.0, "lat": 38.913849166666665, "is_disabled": 0, "name": "3dfb551b6cd24a217e94f845f6c332a4", "fusion_lat": 0.0, "rental_uris": {"ios": "https://dc.lft.to/lastmile_qr_scan", "android": "https://dc.lft.to/lastmile_qr_scan"}, "lon": -77.0179525, "type": "electric_scooter"}, {"bike_id": "79ce5de683f24415f852a1b493297032", "is_reserved": 0, "fusion_lon": 0.0, "lat": 38.898325666666665, "is_disabled": 0, "name": "79ce5de683f24415f852a1b493297032", "fusion_lat": 0.0, "rental_uris": {"ios": "https://dc.lft.to/lastmile_qr_scan", "android": "https://dc.lft.to/lastmile_qr_scan"}, "lon": -77.0074615, "type": "electric_scooter"}, {"bike_id": "5d006d89b9da6ffcac98411b1b0b7d6d", "is_reserved": 0, "fusion_lon": 0.0, "lat": 38.90284366666667, "is_disabled": 0, "name": "5d006d89b9da6ffcac98411b1b0b7d6d", "fusion_lat": 0.0, "rental_uris": {"ios": "https://dc.lft.to/lastmile_qr_scan", "android": "https://dc.lft.to/lastmile_qr_scan"}, "lon": -77.06109116666667, "type": "electric_scooter"}, {"bike_id": "e20d980e60559344ae62298149b51073", "is_reserved": 0, "fusion_lon": 0.0, "lat": 38.90133183333333, "is_disabled": 0, "name": "e20d980e60559344ae62298149b51073", "fusion_lat": 0.0, "rental_uris": {"ios": "https://dc.lft.to/lastmile_qr_scan", "android": "https://dc.lft.to/lastmile_qr_scan"}, "lon": -76.9807965, "type": "electric_scooter"}, {"bike_id": "57fb2cd3ff472751efe2c55a18d1a943", "is_reserved": 0, "fusion_lon": 0.0, "lat": 38.899079666666665, "is_disabled": 0, "name": "57fb2cd3ff472751efe2c55a18d1a943", "fusion_lat": 0.0, "rental_uris": {"ios": "https://dc.lft.to/lastmile_qr_scan", "android": "https://dc.lft.to/lastmile_qr_scan"}, "lon": -77.03946583333334, "type": "electric_scooter"}, {"bike_id": "d22de7fab2af20e9a5e43d09d9a7640b", "is_reserved": 0, "fusion_lon": 0.0, "lat": 38.933517, "is_disabled": 0, "name": "d22de7fab2af20e9a5e43d09d9a7640b", "fusion_lat": 0.0, "rental_uris": {"ios": "https://dc.lft.to/lastmile_qr_scan", "android": "https://dc.lft.to/lastmile_qr_scan"}, "lon": -77.069334, "type": "electric_scooter"}, {"bike_id": "f38099ab4bff930da65319594e8140d4", "is_reserved": 0, "fusion_lon": 0.0, "lat": 38.919934833333336, "is_disabled": 0, "name": "f38099ab4bff930da65319594e8140d4", "fusion_lat": 0.0, "rental_uris": {"ios": "https://dc.lft.to/lastmile_qr_scan", "android": "https://dc.lft.to/lastmile_qr_scan"}, "lon": -77.03486283333334, "type": "electric_scooter"}, {"bike_id": "80cd698f0f42b4c3bf4bfc07ed87a30a", "is_reserved": 0, "fusion_lon": 0.0, "lat": 38.90282416666667, "is_disabled": 0, "name": "80cd698f0f42b4c3bf4bfc07ed87a30a", "fusion_lat": 0.0, "rental_uris": {"ios": "https://dc.lft.to/lastmile_qr_scan", "android": "https://dc.lft.to/lastmile_qr_scan"}, "lon": -77.03846616666667, "type": "electric_scooter"}, {"bike_id": "f7acc38a9a9fd6adfc94ec03aec7cfaf", "is_reserved": 0, "fusion_lon": 0.0, "lat": 38.89739616666667, "is_disabled": 0, "name": "f7acc38a9a9fd6adfc94ec03aec7cfaf", "fusion_lat": 0.0, "rental_uris": {"ios": "https://dc.lft.to/lastmile_qr_scan", "android": "https://dc.lft.to/lastmile_qr_scan"}, "lon": -77.04346583333333, "type": "electric_scooter"}, {"bike_id": "471d301edbe1faada14795eb1db84d83", "is_reserved": 0, "fusion_lon": 0.0, "lat": 38.885299833333335, "is_disabled": 0, "name": "471d301edbe1faada14795eb1db84d83", "fusion_lat": 0.0, "rental_uris": {"ios": "https://dc.lft.to/lastmile_qr_scan", "android": "https://dc.lft.to/lastmile_qr_scan"}, "lon": -77.00582966666667, "type": "electric_scooter"}, {"bike_id": "3164f4725760a5af19781a9558182256", "is_reserved": 0, "fusion_lon": 0.0, "lat": 38.9006585, "is_disabled": 0, "name": "3164f4725760a5af19781a9558182256", "fusion_lat": 0.0, "rental_uris": {"ios": "https://dc.lft.to/lastmile_qr_scan", "android": "https://dc.lft.to/lastmile_qr_scan"}, "lon": -76.98714133333333, "type": "electric_scooter"}, {"bike_id": "eb3e2af0f38ac8930e949f937d450568", "is_reserved": 0, "fusion_lon": 0.0, "lat": 38.91124533333333, "is_disabled": 0, "name": "eb3e2af0f38ac8930e949f937d450568", "fusion_lat": 0.0, "rental_uris": {"ios": "https://dc.lft.to/lastmile_qr_scan", "android": "https://dc.lft.to/lastmile_qr_scan"}, "lon": -77.03717383333333, "type": "electric_scooter"}, {"bike_id": "c946878b4dbc35299de9d662e7d780a3", "is_reserved": 0, "fusion_lon": 0.0, "lat": 38.98503616666667, "is_disabled": 0, "name": "c946878b4dbc35299de9d662e7d780a3", "fusion_lat": 0.0, "rental_uris": {"ios": "https://dc.lft.to/lastmile_qr_scan", "android": "https://dc.lft.to/lastmile_qr_scan"}, "lon": -76.98192316666666, "type": "electric_bike"}, {"bike_id": "8a4d549bf2b8abb045dafc51ad36bb83", "is_reserved": 0, "fusion_lon": 0.0, "lat": 38.932319, "is_disabled": 0, "name": "8a4d549bf2b8abb045dafc51ad36bb83", "fusion_lat": 0.0, "rental_uris": {"ios": "https://dc.lft.to/lastmile_qr_scan", "android": "https://dc.lft.to/lastmile_qr_scan"}, "lon": -77.0382645, "type": "electric_scooter"}, {"bike_id": "1220d68ab3cf4ba13131b3d587d1f439", "is_reserved": 0, "fusion_lon": 0.0, "lat": 38.869862833333336, "is_disabled": 0, "name": "1220d68ab3cf4ba13131b3d587d1f439", "fusion_lat": 0.0, "rental_uris": {"ios": "https://dc.lft.to/lastmile_qr_scan", "android": "https://dc.lft.to/lastmile_qr_scan"}, "lon": -76.95988416666667, "type": "electric_bike"}, {"bike_id": "93cc04e67fd85cbe1808b2c2e64c0fb9", "is_reserved": 0, "fusion_lon": 0.0, "lat": 38.87879433333333, "is_disabled": 0, "name": "93cc04e67fd85cbe1808b2c2e64c0fb9", "fusion_lat": 0.0, "rental_uris": {"ios": "https://dc.lft.to/lastmile_qr_scan", "android": "https://dc.lft.to/lastmile_qr_scan"}, "lon": -77.00611666666667, "type": "electric_scooter"}, {"bike_id": "b80ffbe75fa8a6dce8666392a2bcb319", "is_reserved": 0, "fusion_lon": 0.0, "lat": 38.862419833333334, "is_disabled": 0, "name": "b80ffbe75fa8a6dce8666392a2bcb319", "fusion_lat": 0.0, "rental_uris": {"ios": "https://dc.lft.to/lastmile_qr_scan", "android": "https://dc.lft.to/lastmile_qr_scan"}, "lon": -76.99497133333334, "type": "electric_scooter"}, {"bike_id": "4479d0c081df52da7c1ae32cddf8b62d", "is_reserved": 0, "fusion_lon": 0.0, "lat": 38.914401833333336, "is_disabled": 0, "name": "4479d0c081df52da7c1ae32cddf8b62d", "fusion_lat": 0.0, "rental_uris": {"ios": "https://dc.lft.to/lastmile_qr_scan", "android": "https://dc.lft.to/lastmile_qr_scan"}, "lon": -77.02194333333334, "type": "electric_scooter"}, {"bike_id": "5d849d30b3565da5a6d4410b131a644e", "is_reserved": 0, "fusion_lon": 0.0, "lat": 38.86566916666666, "is_disabled": 0, "name": "5d849d30b3565da5a6d4410b131a644e", "fusion_lat": 0.0, "rental_uris": {"ios": "https://dc.lft.to/lastmile_qr_scan", "android": "https://dc.lft.to/lastmile_qr_scan"}, "lon": -76.98546683333333, "type": "electric_scooter"}, {"bike_id": "e1aacd6037f43f7591d12a51a1144af8", "is_reserved": 0, "fusion_lon": 0.0, "lat": 38.944641, "is_disabled": 0, "name": "e1aacd6037f43f7591d12a51a1144af8", "fusion_lat": 0.0, "rental_uris": {"ios": "https://dc.lft.to/lastmile_qr_scan", "android": "https://dc.lft.to/lastmile_qr_scan"}, "lon": -77.00657933333333, "type": "electric_scooter"}, {"bike_id": "e016c5c35aa0e15b754d224a32938588", "is_reserved": 0, "fusion_lon": 0.0, "lat": 38.907987166666665, "is_disabled": 0, "name": "e016c5c35aa0e15b754d224a32938588", "fusion_lat": 0.0, "rental_uris": {"ios": "https://dc.lft.to/lastmile_qr_scan", "android": "https://dc.lft.to/lastmile_qr_scan"}, "lon": -77.03668483333334, "type": "electric_scooter"}, {"bike_id": "abb7a0901923af7ef7992ec3cced563b", "is_reserved": 0, "fusion_lon": 0.0, "lat": 38.93018583333333, "is_disabled": 0, "name": "abb7a0901923af7ef7992ec3cced563b", "fusion_lat": 0.0, "rental_uris": {"ios": "https://dc.lft.to/lastmile_qr_scan", "android": "https://dc.lft.to/lastmile_qr_scan"}, "lon": -77.023393, "type": "electric_scooter"}, {"bike_id": "860218490e0ef087587ddf69843768d5", "is_reserved": 0, "fusion_lon": 0.0, "lat": 38.893852833333334, "is_disabled": 0, "name": "860218490e0ef087587ddf69843768d5", "fusion_lat": 0.0, "rental_uris": {"ios": "https://dc.lft.to/lastmile_qr_scan", "android": "https://dc.lft.to/lastmile_qr_scan"}, "lon": -77.00599683333333, "type": "electric_scooter"}, {"bike_id": "0bd158bc1e64ba9901bedf1117871a18", "is_reserved": 0, "fusion_lon": 0.0, "lat": 38.822658, "is_disabled": 0, "name": "0bd158bc1e64ba9901bedf1117871a18", "fusion_lat": 0.0, "rental_uris": {"ios": "https://dc.lft.to/lastmile_qr_scan", "android": "https://dc.lft.to/lastmile_qr_scan"}, "lon": -77.05807583333333, "type": "electric_bike"}, {"bike_id": "711ff5e1d22bf3ed3519c46925ebd9c4", "is_reserved": 0, "fusion_lon": 0.0, "lat": 38.90263733333333, "is_disabled": 0, "name": "711ff5e1d22bf3ed3519c46925ebd9c4", "fusion_lat": 0.0, "rental_uris": {"ios": "https://dc.lft.to/lastmile_qr_scan", "android": "https://dc.lft.to/lastmile_qr_scan"}, "lon": -77.0398395, "type": "electric_scooter"}, {"bike_id": "ffc628ad6d578da8770cfc4c231da018", "is_reserved": 0, "fusion_lon": 0.0, "lat": 38.902904, "is_disabled": 0, "name": "ffc628ad6d578da8770cfc4c231da018", "fusion_lat": 0.0, "rental_uris": {"ios": "https://dc.lft.to/lastmile_qr_scan", "android": "https://dc.lft.to/lastmile_qr_scan"}, "lon": -77.01732933333334, "type": "electric_scooter"}, {"bike_id": "a239ae4ff91667a3ed897ebd515064b4", "is_reserved": 0, "fusion_lon": 0.0, "lat": 38.87006066666667, "is_disabled": 0, "name": "a239ae4ff91667a3ed897ebd515064b4", "fusion_lat": 0.0, "rental_uris": {"ios": "https://dc.lft.to/lastmile_qr_scan", "android": "https://dc.lft.to/lastmile_qr_scan"}, "lon": -77.0122815, "type": "electric_scooter"}, {"bike_id": "508099a3130385e5066f5bb2b2b98eea", "is_reserved": 0, "fusion_lon": 0.0, "lat": 38.941818166666664, "is_disabled": 0, "name": "508099a3130385e5066f5bb2b2b98eea", "fusion_lat": 0.0, "rental_uris": {"ios": "https://dc.lft.to/lastmile_qr_scan", "android": "https://dc.lft.to/lastmile_qr_scan"}, "lon": -77.03652666666666, "type": "electric_scooter"}, {"bike_id": "b9e82ffc2e8f72103f5b1105292a3e59", "is_reserved": 0, "fusion_lon": 0.0, "lat": 38.882864833333336, "is_disabled": 0, "name": "b9e82ffc2e8f72103f5b1105292a3e59", "fusion_lat": 0.0, "rental_uris": {"ios": "https://dc.lft.to/lastmile_qr_scan", "android": "https://dc.lft.to/lastmile_qr_scan"}, "lon": -76.98609083333334, "type": "electric_scooter"}, {"bike_id": "7ea4aefc8ae92b2c83841ee3f6722eeb", "is_reserved": 0, "fusion_lon": 0.0, "lat": 38.91333183333333, "is_disabled": 0, "name": "7ea4aefc8ae92b2c83841ee3f6722eeb", "fusion_lat": 0.0, "rental_uris": {"ios": "https://dc.lft.to/lastmile_qr_scan", "android": "https://dc.lft.to/lastmile_qr_scan"}, "lon": -77.0481145, "type": "electric_scooter"}, {"bike_id": "436a4aa295de19c634763dadb5ee4f87", "is_reserved": 0, "fusion_lon": 0.0, "lat": 38.900021833333334, "is_disabled": 0, "name": "436a4aa295de19c634763dadb5ee4f87", "fusion_lat": 0.0, "rental_uris": {"ios": "https://dc.lft.to/lastmile_qr_scan", "android": "https://dc.lft.to/lastmile_qr_scan"}, "lon": -77.0330635, "type": "electric_scooter"}, {"bike_id": "22ea888636a86a9daaae44b2f7f605d0", "is_reserved": 0, "fusion_lon": 0.0, "lat": 38.9039345, "is_disabled": 0, "name": "22ea888636a86a9daaae44b2f7f605d0", "fusion_lat": 0.0, "rental_uris": {"ios": "https://dc.lft.to/lastmile_qr_scan", "android": "https://dc.lft.to/lastmile_qr_scan"}, "lon": -77.04437216666666, "type": "electric_scooter"}, {"bike_id": "0058274f374dc21355fe3f5069f19163", "is_reserved": 0, "fusion_lon": 0.0, "lat": 38.89852716666667, "is_disabled": 0, "name": "0058274f374dc21355fe3f5069f19163", "fusion_lat": 0.0, "rental_uris": {"ios": "https://dc.lft.to/lastmile_qr_scan", "android": "https://dc.lft.to/lastmile_qr_scan"}, "lon": -77.032175, "type": "electric_scooter"}, {"bike_id": "8e1d262a29cd487225b15df4919b8cc8", "is_reserved": 0, "fusion_lon": 0.0, "lat": 38.9174455, "is_disabled": 0, "name": "8e1d262a29cd487225b15df4919b8cc8", "fusion_lat": 0.0, "rental_uris": {"ios": "https://dc.lft.to/lastmile_qr_scan", "android": "https://dc.lft.to/lastmile_qr_scan"}, "lon": -77.04418616666666, "type": "electric_scooter"}, {"bike_id": "96dc469971c8c244f0025a1f0a691a9b", "is_reserved": 0, "fusion_lon": 0.0, "lat": 38.919806, "is_disabled": 0, "name": "96dc469971c8c244f0025a1f0a691a9b", "fusion_lat": 0.0, "rental_uris": {"ios": "https://dc.lft.to/lastmile_qr_scan", "android": "https://dc.lft.to/lastmile_qr_scan"}, "lon": -77.0444605, "type": "electric_scooter"}, {"bike_id": "54559f7979ef5c46c8e2ed30eb96fa1e", "is_reserved": 0, "fusion_lon": 0.0, "lat": 38.900185, "is_disabled": 0, "name": "54559f7979ef5c46c8e2ed30eb96fa1e", "fusion_lat": 0.0, "rental_uris": {"ios": "https://dc.lft.to/lastmile_qr_scan", "android": "https://dc.lft.to/lastmile_qr_scan"}, "lon": -77.04391916666667, "type": "electric_scooter"}, {"bike_id": "6aed8289df6761c7de105a31ecc06741", "is_reserved": 0, "fusion_lon": 0.0, "lat": 38.90571383333333, "is_disabled": 0, "name": "6aed8289df6761c7de105a31ecc06741", "fusion_lat": 0.0, "rental_uris": {"ios": "https://dc.lft.to/lastmile_qr_scan", "android": "https://dc.lft.to/lastmile_qr_scan"}, "lon": -77.015083, "type": "electric_scooter"}, {"bike_id": "97a87cfb43f5a2a0deb40d9117d9dba8", "is_reserved": 0, "fusion_lon": 0.0, "lat": 38.934862, "is_disabled": 0, "name": "97a87cfb43f5a2a0deb40d9117d9dba8", "fusion_lat": 0.0, "rental_uris": {"ios": "https://dc.lft.to/lastmile_qr_scan", "android": "https://dc.lft.to/lastmile_qr_scan"}, "lon": -77.03281983333333, "type": "electric_scooter"}, {"bike_id": "f90ad82176a4a3ebdf117b123b90ee1a", "is_reserved": 0, "fusion_lon": 0.0, "lat": 38.90242933333333, "is_disabled": 0, "name": "f90ad82176a4a3ebdf117b123b90ee1a", "fusion_lat": 0.0, "rental_uris": {"ios": "https://dc.lft.to/lastmile_qr_scan", "android": "https://dc.lft.to/lastmile_qr_scan"}, "lon": -76.97410783333333, "type": "electric_scooter"}, {"bike_id": "c11de850b07217f7d8101615dfcb734c", "is_reserved": 0, "fusion_lon": 0.0, "lat": 38.91729483333334, "is_disabled": 0, "name": "c11de850b07217f7d8101615dfcb734c", "fusion_lat": 0.0, "rental_uris": {"ios": "https://dc.lft.to/lastmile_qr_scan", "android": "https://dc.lft.to/lastmile_qr_scan"}, "lon": -77.03650733333333, "type": "electric_scooter"}, {"bike_id": "c6afda416ea01ee6b6b956efda3e1bb3", "is_reserved": 0, "fusion_lon": 0.0, "lat": 38.915945666666666, "is_disabled": 0, "name": "c6afda416ea01ee6b6b956efda3e1bb3", "fusion_lat": 0.0, "rental_uris": {"ios": "https://dc.lft.to/lastmile_qr_scan", "android": "https://dc.lft.to/lastmile_qr_scan"}, "lon": -77.041726, "type": "electric_scooter"}, {"bike_id": "72663577c7a619e992f587208be5fa45", "is_reserved": 0, "fusion_lon": 0.0, "lat": 38.8616095, "is_disabled": 0, "name": "72663577c7a619e992f587208be5fa45", "fusion_lat": 0.0, "rental_uris": {"ios": "https://dc.lft.to/lastmile_qr_scan", "android": "https://dc.lft.to/lastmile_qr_scan"}, "lon": -77.130951, "type": "electric_bike"}, {"bike_id": "330a1a0824af1bdbcdf25a4ad807874f", "is_reserved": 0, "fusion_lon": 0.0, "lat": 38.909540666666665, "is_disabled": 0, "name": "330a1a0824af1bdbcdf25a4ad807874f", "fusion_lat": 0.0, "rental_uris": {"ios": "https://dc.lft.to/lastmile_qr_scan", "android": "https://dc.lft.to/lastmile_qr_scan"}, "lon": -76.98479133333333, "type": "electric_scooter"}, {"bike_id": "026d866989c221d217eab2d24c8dd2b9", "is_reserved": 0, "fusion_lon": 0.0, "lat": 38.89186483333334, "is_disabled": 0, "name": "026d866989c221d217eab2d24c8dd2b9", "fusion_lat": 0.0, "rental_uris": {"ios": "https://dc.lft.to/lastmile_qr_scan", "android": "https://dc.lft.to/lastmile_qr_scan"}, "lon": -77.0153235, "type": "electric_scooter"}, {"bike_id": "cb62bad7acbbb04579d6061210c733d7", "is_reserved": 0, "fusion_lon": 0.0, "lat": 38.898002, "is_disabled": 0, "name": "cb62bad7acbbb04579d6061210c733d7", "fusion_lat": 0.0, "rental_uris": {"ios": "https://dc.lft.to/lastmile_qr_scan", "android": "https://dc.lft.to/lastmile_qr_scan"}, "lon": -77.00592916666666, "type": "electric_bike"}, {"bike_id": "dfac057c3a111d473e2579beb811efb9", "is_reserved": 0, "fusion_lon": 0.0, "lat": 38.94187316666667, "is_disabled": 0, "name": "dfac057c3a111d473e2579beb811efb9", "fusion_lat": 0.0, "rental_uris": {"ios": "https://dc.lft.to/lastmile_qr_scan", "android": "https://dc.lft.to/lastmile_qr_scan"}, "lon": -77.01699133333334, "type": "electric_scooter"}, {"bike_id": "159c3877ec28db554efe66ece0f66c4d", "is_reserved": 0, "fusion_lon": 0.0, "lat": 38.96769466666667, "is_disabled": 0, "name": "159c3877ec28db554efe66ece0f66c4d", "fusion_lat": 0.0, "rental_uris": {"ios": "https://dc.lft.to/lastmile_qr_scan", "android": "https://dc.lft.to/lastmile_qr_scan"}, "lon": -77.09159716666667, "type": "electric_bike"}, {"bike_id": "8b1b1b0f7fbc27691bbd417efc959cd4", "is_reserved": 0, "fusion_lon": 0.0, "lat": 38.913348, "is_disabled": 0, "name": "8b1b1b0f7fbc27691bbd417efc959cd4", "fusion_lat": 0.0, "rental_uris": {"ios": "https://dc.lft.to/lastmile_qr_scan", "android": "https://dc.lft.to/lastmile_qr_scan"}, "lon": -77.04845066666667, "type": "electric_scooter"}, {"bike_id": "bc8398437dfa29d56f489dc19eb0cc85", "is_reserved": 0, "fusion_lon": 0.0, "lat": 38.9166155, "is_disabled": 0, "name": "bc8398437dfa29d56f489dc19eb0cc85", "fusion_lat": 0.0, "rental_uris": {"ios": "https://dc.lft.to/lastmile_qr_scan", "android": "https://dc.lft.to/lastmile_qr_scan"}, "lon": -77.02273383333333, "type": "electric_scooter"}, {"bike_id": "f7a29b0b79612fb42e6999b09ae2f282", "is_reserved": 0, "fusion_lon": 0.0, "lat": 38.87658016666666, "is_disabled": 0, "name": "f7a29b0b79612fb42e6999b09ae2f282", "fusion_lat": 0.0, "rental_uris": {"ios": "https://dc.lft.to/lastmile_qr_scan", "android": "https://dc.lft.to/lastmile_qr_scan"}, "lon": -77.0045135, "type": "electric_scooter"}, {"bike_id": "7632a3582773e49da6c2029509112604", "is_reserved": 0, "fusion_lon": 0.0, "lat": 38.94213333333333, "is_disabled": 0, "name": "7632a3582773e49da6c2029509112604", "fusion_lat": 0.0, "rental_uris": {"ios": "https://dc.lft.to/lastmile_qr_scan", "android": "https://dc.lft.to/lastmile_qr_scan"}, "lon": -77.0358655, "type": "electric_scooter"}, {"bike_id": "e436a3d5e8b454ca36cba322ce8f8e0c", "is_reserved": 0, "fusion_lon": 0.0, "lat": 38.92123083333333, "is_disabled": 0, "name": "e436a3d5e8b454ca36cba322ce8f8e0c", "fusion_lat": 0.0, "rental_uris": {"ios": "https://dc.lft.to/lastmile_qr_scan", "android": "https://dc.lft.to/lastmile_qr_scan"}, "lon": -77.03647383333333, "type": "electric_scooter"}, {"bike_id": "56927d937f00bc180e658b3a7282c44e", "is_reserved": 0, "fusion_lon": 0.0, "lat": 38.90185733333333, "is_disabled": 0, "name": "56927d937f00bc180e658b3a7282c44e", "fusion_lat": 0.0, "rental_uris": {"ios": "https://dc.lft.to/lastmile_qr_scan", "android": "https://dc.lft.to/lastmile_qr_scan"}, "lon": -76.92995783333333, "type": "electric_scooter"}, {"bike_id": "2417313a44d066610fdca077a5dc06a6", "is_reserved": 0, "fusion_lon": 0.0, "lat": 38.91704716666667, "is_disabled": 0, "name": "2417313a44d066610fdca077a5dc06a6", "fusion_lat": 0.0, "rental_uris": {"ios": "https://dc.lft.to/lastmile_qr_scan", "android": "https://dc.lft.to/lastmile_qr_scan"}, "lon": -77.024114, "type": "electric_scooter"}, {"bike_id": "c424c9747cee9449598ef66060a12a4a", "is_reserved": 0, "fusion_lon": 0.0, "lat": 38.90672583333333, "is_disabled": 0, "name": "c424c9747cee9449598ef66060a12a4a", "fusion_lat": 0.0, "rental_uris": {"ios": "https://dc.lft.to/lastmile_qr_scan", "android": "https://dc.lft.to/lastmile_qr_scan"}, "lon": -77.034551, "type": "electric_scooter"}, {"bike_id": "ec3675103bd226e8559cc061f82f12ec", "is_reserved": 0, "fusion_lon": 0.0, "lat": 38.914881, "is_disabled": 0, "name": "ec3675103bd226e8559cc061f82f12ec", "fusion_lat": 0.0, "rental_uris": {"ios": "https://dc.lft.to/lastmile_qr_scan", "android": "https://dc.lft.to/lastmile_qr_scan"}, "lon": -77.04085016666667, "type": "electric_scooter"}, {"bike_id": "a771f3f7b00a47deb52878995d5b1a36", "is_reserved": 0, "fusion_lon": 0.0, "lat": 38.87849116666667, "is_disabled": 0, "name": "a771f3f7b00a47deb52878995d5b1a36", "fusion_lat": 0.0, "rental_uris": {"ios": "https://dc.lft.to/lastmile_qr_scan", "android": "https://dc.lft.to/lastmile_qr_scan"}, "lon": -76.988462, "type": "electric_scooter"}, {"bike_id": "cd0881fbf9af55c5194ed63f2a7a4294", "is_reserved": 0, "fusion_lon": 0.0, "lat": 38.884062166666666, "is_disabled": 0, "name": "cd0881fbf9af55c5194ed63f2a7a4294", "fusion_lat": 0.0, "rental_uris": {"ios": "https://dc.lft.to/lastmile_qr_scan", "android": "https://dc.lft.to/lastmile_qr_scan"}, "lon": -77.0262465, "type": "electric_scooter"}, {"bike_id": "9333849eb348f923001a63d23cfdabcd", "is_reserved": 0, "fusion_lon": 0.0, "lat": 38.90858866666667, "is_disabled": 0, "name": "9333849eb348f923001a63d23cfdabcd", "fusion_lat": 0.0, "rental_uris": {"ios": "https://dc.lft.to/lastmile_qr_scan", "android": "https://dc.lft.to/lastmile_qr_scan"}, "lon": -77.027304, "type": "electric_scooter"}, {"bike_id": "befe889d40cb045668628e3371d2ae5f", "is_reserved": 0, "fusion_lon": 0.0, "lat": 38.918778833333334, "is_disabled": 0, "name": "befe889d40cb045668628e3371d2ae5f", "fusion_lat": 0.0, "rental_uris": {"ios": "https://dc.lft.to/lastmile_qr_scan", "android": "https://dc.lft.to/lastmile_qr_scan"}, "lon": -77.04313916666666, "type": "electric_scooter"}, {"bike_id": "df0c88206d2a66c098ac0052c96e5683", "is_reserved": 0, "fusion_lon": 0.0, "lat": 38.89736033333333, "is_disabled": 0, "name": "df0c88206d2a66c098ac0052c96e5683", "fusion_lat": 0.0, "rental_uris": {"ios": "https://dc.lft.to/lastmile_qr_scan", "android": "https://dc.lft.to/lastmile_qr_scan"}, "lon": -76.94718966666667, "type": "electric_scooter"}, {"bike_id": "0a2a88867cea3e3c6d981f4bda27a6de", "is_reserved": 0, "fusion_lon": 0.0, "lat": 38.88023666666667, "is_disabled": 0, "name": "0a2a88867cea3e3c6d981f4bda27a6de", "fusion_lat": 0.0, "rental_uris": {"ios": "https://dc.lft.to/lastmile_qr_scan", "android": "https://dc.lft.to/lastmile_qr_scan"}, "lon": -76.931277, "type": "electric_scooter"}, {"bike_id": "a29c4871e5e5b2fbc1e4f32afe8a7392", "is_reserved": 0, "fusion_lon": 0.0, "lat": 38.90970033333333, "is_disabled": 0, "name": "a29c4871e5e5b2fbc1e4f32afe8a7392", "fusion_lat": 0.0, "rental_uris": {"ios": "https://dc.lft.to/lastmile_qr_scan", "android": "https://dc.lft.to/lastmile_qr_scan"}, "lon": -77.03380183333333, "type": "electric_scooter"}, {"bike_id": "8f1abfbe2bc456ad6d9df0c392de12ff", "is_reserved": 0, "fusion_lon": 0.0, "lat": 38.899951, "is_disabled": 0, "name": "8f1abfbe2bc456ad6d9df0c392de12ff", "fusion_lat": 0.0, "rental_uris": {"ios": "https://dc.lft.to/lastmile_qr_scan", "android": "https://dc.lft.to/lastmile_qr_scan"}, "lon": -77.05572183333334, "type": "electric_scooter"}, {"bike_id": "91fd6773273e7c709cdcf1be0dbd14b8", "is_reserved": 0, "fusion_lon": 0.0, "lat": 38.894854, "is_disabled": 0, "name": "91fd6773273e7c709cdcf1be0dbd14b8", "fusion_lat": 0.0, "rental_uris": {"ios": "https://dc.lft.to/lastmile_qr_scan", "android": "https://dc.lft.to/lastmile_qr_scan"}, "lon": -77.02403316666667, "type": "electric_scooter"}, {"bike_id": "855dcaccb3d8a4df54d4cbe7bc20598a", "is_reserved": 0, "fusion_lon": 0.0, "lat": 38.9279685, "is_disabled": 0, "name": "855dcaccb3d8a4df54d4cbe7bc20598a", "fusion_lat": 0.0, "rental_uris": {"ios": "https://dc.lft.to/lastmile_qr_scan", "android": "https://dc.lft.to/lastmile_qr_scan"}, "lon": -77.05357116666667, "type": "electric_scooter"}, {"bike_id": "8db6cbcb2e26f75691ddcd4efa4805b4", "is_reserved": 0, "fusion_lon": 0.0, "lat": 38.924037, "is_disabled": 0, "name": "8db6cbcb2e26f75691ddcd4efa4805b4", "fusion_lat": 0.0, "rental_uris": {"ios": "https://dc.lft.to/lastmile_qr_scan", "android": "https://dc.lft.to/lastmile_qr_scan"}, "lon": -77.01959833333333, "type": "electric_scooter"}, {"bike_id": "77bce62185386091d2ef7eeb8fe9018a", "is_reserved": 0, "fusion_lon": 0.0, "lat": 38.909491333333335, "is_disabled": 0, "name": "77bce62185386091d2ef7eeb8fe9018a", "fusion_lat": 0.0, "rental_uris": {"ios": "https://dc.lft.to/lastmile_qr_scan", "android": "https://dc.lft.to/lastmile_qr_scan"}, "lon": -77.03203383333333, "type": "electric_scooter"}, {"bike_id": "034301cd44364482c406a7c373403405", "is_reserved": 0, "fusion_lon": 0.0, "lat": 38.827267, "is_disabled": 0, "name": "034301cd44364482c406a7c373403405", "fusion_lat": 0.0, "rental_uris": {"ios": "https://dc.lft.to/lastmile_qr_scan", "android": "https://dc.lft.to/lastmile_qr_scan"}, "lon": -77.00865716666667, "type": "electric_bike"}, {"bike_id": "34bc7bfcf9dced9a857b573a4a7e0d69", "is_reserved": 0, "fusion_lon": 0.0, "lat": 38.90061716666666, "is_disabled": 0, "name": "34bc7bfcf9dced9a857b573a4a7e0d69", "fusion_lat": 0.0, "rental_uris": {"ios": "https://dc.lft.to/lastmile_qr_scan", "android": "https://dc.lft.to/lastmile_qr_scan"}, "lon": -77.03187783333334, "type": "electric_scooter"}, {"bike_id": "1dbcee8c59ae47cb7fb0569f5eb3772f", "is_reserved": 0, "fusion_lon": 0.0, "lat": 38.884988166666666, "is_disabled": 0, "name": "1dbcee8c59ae47cb7fb0569f5eb3772f", "fusion_lat": 0.0, "rental_uris": {"ios": "https://dc.lft.to/lastmile_qr_scan", "android": "https://dc.lft.to/lastmile_qr_scan"}, "lon": -77.00728483333333, "type": "electric_scooter"}, {"bike_id": "f3627edf7140d17ffc2a8450c7651d38", "is_reserved": 0, "fusion_lon": 0.0, "lat": 38.935192666666666, "is_disabled": 0, "name": "f3627edf7140d17ffc2a8450c7651d38", "fusion_lat": 0.0, "rental_uris": {"ios": "https://dc.lft.to/lastmile_qr_scan", "android": "https://dc.lft.to/lastmile_qr_scan"}, "lon": -77.03298883333333, "type": "electric_scooter"}, {"bike_id": "db4fd42dca78077ed36b4f3ab6959cdf", "is_reserved": 0, "fusion_lon": 0.0, "lat": 38.90274466666666, "is_disabled": 0, "name": "db4fd42dca78077ed36b4f3ab6959cdf", "fusion_lat": 0.0, "rental_uris": {"ios": "https://dc.lft.to/lastmile_qr_scan", "android": "https://dc.lft.to/lastmile_qr_scan"}, "lon": -77.038554, "type": "electric_scooter"}, {"bike_id": "c91687815717cb0765eec9c908bfa395", "is_reserved": 0, "fusion_lon": 0.0, "lat": 38.9751695, "is_disabled": 0, "name": "c91687815717cb0765eec9c908bfa395", "fusion_lat": 0.0, "rental_uris": {"ios": "https://dc.lft.to/lastmile_qr_scan", "android": "https://dc.lft.to/lastmile_qr_scan"}, "lon": -77.01740083333334, "type": "electric_scooter"}, {"bike_id": "34e1832f44f78b64a738a3d3422604fd", "is_reserved": 0, "fusion_lon": 0.0, "lat": 38.84294833333333, "is_disabled": 0, "name": "34e1832f44f78b64a738a3d3422604fd", "fusion_lat": 0.0, "rental_uris": {"ios": "https://dc.lft.to/lastmile_qr_scan", "android": "https://dc.lft.to/lastmile_qr_scan"}, "lon": -76.99947283333333, "type": "electric_scooter"}, {"bike_id": "9ade0f4d55dcd658c8c5c6642370f87e", "is_reserved": 0, "fusion_lon": 0.0, "lat": 38.85249533333333, "is_disabled": 0, "name": "9ade0f4d55dcd658c8c5c6642370f87e", "fusion_lat": 0.0, "rental_uris": {"ios": "https://dc.lft.to/lastmile_qr_scan", "android": "https://dc.lft.to/lastmile_qr_scan"}, "lon": -77.11425216666666, "type": "electric_bike"}, {"bike_id": "29501cf6e51e55a31c6862e5cecf3e4a", "is_reserved": 0, "fusion_lon": 0.0, "lat": 38.90515716666667, "is_disabled": 0, "name": "29501cf6e51e55a31c6862e5cecf3e4a", "fusion_lat": 0.0, "rental_uris": {"ios": "https://dc.lft.to/lastmile_qr_scan", "android": "https://dc.lft.to/lastmile_qr_scan"}, "lon": -77.0638055, "type": "electric_scooter"}, {"bike_id": "ecb79f07648ee2697d119869498f99c2", "is_reserved": 0, "fusion_lon": 0.0, "lat": 38.902835833333334, "is_disabled": 0, "name": "ecb79f07648ee2697d119869498f99c2", "fusion_lat": 0.0, "rental_uris": {"ios": "https://dc.lft.to/lastmile_qr_scan", "android": "https://dc.lft.to/lastmile_qr_scan"}, "lon": -77.03449816666667, "type": "electric_scooter"}, {"bike_id": "3c3929a88d128e42e6443db5c6c4d725", "is_reserved": 0, "fusion_lon": 0.0, "lat": 38.902419333333334, "is_disabled": 0, "name": "3c3929a88d128e42e6443db5c6c4d725", "fusion_lat": 0.0, "rental_uris": {"ios": "https://dc.lft.to/lastmile_qr_scan", "android": "https://dc.lft.to/lastmile_qr_scan"}, "lon": -77.0396385, "type": "electric_scooter"}, {"bike_id": "3808893bb2c15b8d299edd1981a93cac", "is_reserved": 0, "fusion_lon": 0.0, "lat": 38.88366716666667, "is_disabled": 0, "name": "3808893bb2c15b8d299edd1981a93cac", "fusion_lat": 0.0, "rental_uris": {"ios": "https://dc.lft.to/lastmile_qr_scan", "android": "https://dc.lft.to/lastmile_qr_scan"}, "lon": -77.01939383333334, "type": "electric_scooter"}, {"bike_id": "174b554959266e30b50dd32fc449ee80", "is_reserved": 0, "fusion_lon": 0.0, "lat": 38.9010505, "is_disabled": 0, "name": "174b554959266e30b50dd32fc449ee80", "fusion_lat": 0.0, "rental_uris": {"ios": "https://dc.lft.to/lastmile_qr_scan", "android": "https://dc.lft.to/lastmile_qr_scan"}, "lon": -77.04981816666667, "type": "electric_scooter"}, {"bike_id": "a02177ce55aebb9aab0d40e496d4c33a", "is_reserved": 0, "fusion_lon": 0.0, "lat": 38.9103725, "is_disabled": 0, "name": "a02177ce55aebb9aab0d40e496d4c33a", "fusion_lat": 0.0, "rental_uris": {"ios": "https://dc.lft.to/lastmile_qr_scan", "android": "https://dc.lft.to/lastmile_qr_scan"}, "lon": -77.02221933333334, "type": "electric_scooter"}, {"bike_id": "089edfb8d277a53d8422c2351752e53b", "is_reserved": 0, "fusion_lon": 0.0, "lat": 38.899496666666664, "is_disabled": 0, "name": "089edfb8d277a53d8422c2351752e53b", "fusion_lat": 0.0, "rental_uris": {"ios": "https://dc.lft.to/lastmile_qr_scan", "android": "https://dc.lft.to/lastmile_qr_scan"}, "lon": -77.02971666666667, "type": "electric_scooter"}, {"bike_id": "907569f35125d817ae66c1211d82c2fd", "is_reserved": 0, "fusion_lon": 0.0, "lat": 38.9120245, "is_disabled": 0, "name": "907569f35125d817ae66c1211d82c2fd", "fusion_lat": 0.0, "rental_uris": {"ios": "https://dc.lft.to/lastmile_qr_scan", "android": "https://dc.lft.to/lastmile_qr_scan"}, "lon": -77.029522, "type": "electric_scooter"}, {"bike_id": "d178f24eca40a3f5b5d5ebeb84da31d0", "is_reserved": 0, "fusion_lon": 0.0, "lat": 38.927476, "is_disabled": 0, "name": "d178f24eca40a3f5b5d5ebeb84da31d0", "fusion_lat": 0.0, "rental_uris": {"ios": "https://dc.lft.to/lastmile_qr_scan", "android": "https://dc.lft.to/lastmile_qr_scan"}, "lon": -77.05370866666667, "type": "electric_scooter"}, {"bike_id": "729e00016d0a86eb369222d698a432cd", "is_reserved": 0, "fusion_lon": 0.0, "lat": 38.886768833333335, "is_disabled": 0, "name": "729e00016d0a86eb369222d698a432cd", "fusion_lat": 0.0, "rental_uris": {"ios": "https://dc.lft.to/lastmile_qr_scan", "android": "https://dc.lft.to/lastmile_qr_scan"}, "lon": -77.01372866666667, "type": "electric_scooter"}, {"bike_id": "fea309326acd5359d0abfd737ff56161", "is_reserved": 0, "fusion_lon": 0.0, "lat": 38.917164166666666, "is_disabled": 0, "name": "fea309326acd5359d0abfd737ff56161", "fusion_lat": 0.0, "rental_uris": {"ios": "https://dc.lft.to/lastmile_qr_scan", "android": "https://dc.lft.to/lastmile_qr_scan"}, "lon": -77.01215433333333, "type": "electric_scooter"}, {"bike_id": "e9a12bfb7b2569e8200564b8af661df4", "is_reserved": 0, "fusion_lon": 0.0, "lat": 38.906413, "is_disabled": 0, "name": "e9a12bfb7b2569e8200564b8af661df4", "fusion_lat": 0.0, "rental_uris": {"ios": "https://dc.lft.to/lastmile_qr_scan", "android": "https://dc.lft.to/lastmile_qr_scan"}, "lon": -77.03900916666667, "type": "electric_scooter"}, {"bike_id": "9a2bf37884d2309bf0c117a55bb3fe70", "is_reserved": 0, "fusion_lon": 0.0, "lat": 38.80225333333333, "is_disabled": 0, "name": "9a2bf37884d2309bf0c117a55bb3fe70", "fusion_lat": 0.0, "rental_uris": {"ios": "https://dc.lft.to/lastmile_qr_scan", "android": "https://dc.lft.to/lastmile_qr_scan"}, "lon": -77.079122, "type": "electric_bike"}, {"bike_id": "a876b0dfb96051222d5b14fb40fe1d36", "is_reserved": 0, "fusion_lon": 0.0, "lat": 38.931989333333334, "is_disabled": 0, "name": "a876b0dfb96051222d5b14fb40fe1d36", "fusion_lat": 0.0, "rental_uris": {"ios": "https://dc.lft.to/lastmile_qr_scan", "android": "https://dc.lft.to/lastmile_qr_scan"}, "lon": -77.03869566666667, "type": "electric_scooter"}, {"bike_id": "f27922aed0d7f38f9238cd161a1b0d8d", "is_reserved": 0, "fusion_lon": 0.0, "lat": 38.906888333333335, "is_disabled": 0, "name": "f27922aed0d7f38f9238cd161a1b0d8d", "fusion_lat": 0.0, "rental_uris": {"ios": "https://dc.lft.to/lastmile_qr_scan", "android": "https://dc.lft.to/lastmile_qr_scan"}, "lon": -76.95183783333333, "type": "electric_bike"}, {"bike_id": "4f27028183c1836d2e54d977011bc7c7", "is_reserved": 0, "fusion_lon": 0.0, "lat": 38.944147666666666, "is_disabled": 0, "name": "4f27028183c1836d2e54d977011bc7c7", "fusion_lat": 0.0, "rental_uris": {"ios": "https://dc.lft.to/lastmile_qr_scan", "android": "https://dc.lft.to/lastmile_qr_scan"}, "lon": -77.05520333333334, "type": "electric_scooter"}, {"bike_id": "bbff382744faf606ba0fb62dee2cf173", "is_reserved": 0, "fusion_lon": 0.0, "lat": 38.901525, "is_disabled": 0, "name": "bbff382744faf606ba0fb62dee2cf173", "fusion_lat": 0.0, "rental_uris": {"ios": "https://dc.lft.to/lastmile_qr_scan", "android": "https://dc.lft.to/lastmile_qr_scan"}, "lon": -77.03347333333333, "type": "electric_scooter"}, {"bike_id": "6c882bbae79739f810c9e3ef61fabd5c", "is_reserved": 0, "fusion_lon": 0.0, "lat": 38.9295025, "is_disabled": 0, "name": "6c882bbae79739f810c9e3ef61fabd5c", "fusion_lat": 0.0, "rental_uris": {"ios": "https://dc.lft.to/lastmile_qr_scan", "android": "https://dc.lft.to/lastmile_qr_scan"}, "lon": -77.04403416666666, "type": "electric_scooter"}, {"bike_id": "05859b5b30838f5a179af20aa90fd3d6", "is_reserved": 0, "fusion_lon": 0.0, "lat": 38.9328345, "is_disabled": 0, "name": "05859b5b30838f5a179af20aa90fd3d6", "fusion_lat": 0.0, "rental_uris": {"ios": "https://dc.lft.to/lastmile_qr_scan", "android": "https://dc.lft.to/lastmile_qr_scan"}, "lon": -77.02966783333333, "type": "electric_scooter"}, {"bike_id": "297be876f04e60e738ce2f2fa628e536", "is_reserved": 0, "fusion_lon": 0.0, "lat": 38.90234483333333, "is_disabled": 0, "name": "297be876f04e60e738ce2f2fa628e536", "fusion_lat": 0.0, "rental_uris": {"ios": "https://dc.lft.to/lastmile_qr_scan", "android": "https://dc.lft.to/lastmile_qr_scan"}, "lon": -77.01758333333333, "type": "electric_scooter"}, {"bike_id": "5e18e5f8ea27de0496f1371b3e2e3392", "is_reserved": 0, "fusion_lon": 0.0, "lat": 38.88533066666667, "is_disabled": 0, "name": "5e18e5f8ea27de0496f1371b3e2e3392", "fusion_lat": 0.0, "rental_uris": {"ios": "https://dc.lft.to/lastmile_qr_scan", "android": "https://dc.lft.to/lastmile_qr_scan"}, "lon": -77.005807, "type": "electric_scooter"}, {"bike_id": "77b13fd0b49cd1faa0dba3e2aaef80aa", "is_reserved": 0, "fusion_lon": 0.0, "lat": 38.908469833333335, "is_disabled": 0, "name": "77b13fd0b49cd1faa0dba3e2aaef80aa", "fusion_lat": 0.0, "rental_uris": {"ios": "https://dc.lft.to/lastmile_qr_scan", "android": "https://dc.lft.to/lastmile_qr_scan"}, "lon": -77.03183416666667, "type": "electric_scooter"}, {"bike_id": "c8c397430f3f7e751b1260612571d565", "is_reserved": 0, "fusion_lon": 0.0, "lat": 38.92702933333333, "is_disabled": 0, "name": "c8c397430f3f7e751b1260612571d565", "fusion_lat": 0.0, "rental_uris": {"ios": "https://dc.lft.to/lastmile_qr_scan", "android": "https://dc.lft.to/lastmile_qr_scan"}, "lon": -77.020825, "type": "electric_scooter"}, {"bike_id": "1b67695369b39102bbfaf2027c036783", "is_reserved": 0, "fusion_lon": 0.0, "lat": 38.905416333333335, "is_disabled": 0, "name": "1b67695369b39102bbfaf2027c036783", "fusion_lat": 0.0, "rental_uris": {"ios": "https://dc.lft.to/lastmile_qr_scan", "android": "https://dc.lft.to/lastmile_qr_scan"}, "lon": -77.04492183333333, "type": "electric_scooter"}, {"bike_id": "1dacfd72de7294dd0858958bb7c3abc0", "is_reserved": 0, "fusion_lon": 0.0, "lat": 39.05637316666667, "is_disabled": 0, "name": "1dacfd72de7294dd0858958bb7c3abc0", "fusion_lat": 0.0, "rental_uris": {"ios": "https://dc.lft.to/lastmile_qr_scan", "android": "https://dc.lft.to/lastmile_qr_scan"}, "lon": -77.12527866666667, "type": "electric_bike"}, {"bike_id": "e0ddef78585213b5ab72475550124f5e", "is_reserved": 0, "fusion_lon": 0.0, "lat": 38.91723966666667, "is_disabled": 0, "name": "e0ddef78585213b5ab72475550124f5e", "fusion_lat": 0.0, "rental_uris": {"ios": "https://dc.lft.to/lastmile_qr_scan", "android": "https://dc.lft.to/lastmile_qr_scan"}, "lon": -77.036592, "type": "electric_scooter"}, {"bike_id": "8f3748b7df0b3c642199ea3d61a66317", "is_reserved": 0, "fusion_lon": 0.0, "lat": 38.9021975, "is_disabled": 0, "name": "8f3748b7df0b3c642199ea3d61a66317", "fusion_lat": 0.0, "rental_uris": {"ios": "https://dc.lft.to/lastmile_qr_scan", "android": "https://dc.lft.to/lastmile_qr_scan"}, "lon": -77.02332683333333, "type": "electric_scooter"}, {"bike_id": "16ba067c70e2c82957a6c70e579d5f69", "is_reserved": 0, "fusion_lon": 0.0, "lat": 38.89850333333333, "is_disabled": 0, "name": "16ba067c70e2c82957a6c70e579d5f69", "fusion_lat": 0.0, "rental_uris": {"ios": "https://dc.lft.to/lastmile_qr_scan", "android": "https://dc.lft.to/lastmile_qr_scan"}, "lon": -76.981724, "type": "electric_scooter"}, {"bike_id": "4d518fe5c3e7f54016fe0da0f32f3d7a", "is_reserved": 0, "fusion_lon": 0.0, "lat": 38.907037, "is_disabled": 0, "name": "4d518fe5c3e7f54016fe0da0f32f3d7a", "fusion_lat": 0.0, "rental_uris": {"ios": "https://dc.lft.to/lastmile_qr_scan", "android": "https://dc.lft.to/lastmile_qr_scan"}, "lon": -76.98697583333333, "type": "electric_scooter"}, {"bike_id": "486a150aa43b004f9a7240662ac803b0", "is_reserved": 0, "fusion_lon": 0.0, "lat": 38.918423833333335, "is_disabled": 0, "name": "486a150aa43b004f9a7240662ac803b0", "fusion_lat": 0.0, "rental_uris": {"ios": "https://dc.lft.to/lastmile_qr_scan", "android": "https://dc.lft.to/lastmile_qr_scan"}, "lon": -77.02274133333333, "type": "electric_scooter"}, {"bike_id": "0a5e7925c3fbc077462d4df79a63edaa", "is_reserved": 0, "fusion_lon": 0.0, "lat": 38.928233166666665, "is_disabled": 0, "name": "0a5e7925c3fbc077462d4df79a63edaa", "fusion_lat": 0.0, "rental_uris": {"ios": "https://dc.lft.to/lastmile_qr_scan", "android": "https://dc.lft.to/lastmile_qr_scan"}, "lon": -77.02257183333333, "type": "electric_scooter"}, {"bike_id": "03eaa4f661ef151c1dfb8d7c08a9795e", "is_reserved": 0, "fusion_lon": 0.0, "lat": 38.90375816666667, "is_disabled": 0, "name": "03eaa4f661ef151c1dfb8d7c08a9795e", "fusion_lat": 0.0, "rental_uris": {"ios": "https://dc.lft.to/lastmile_qr_scan", "android": "https://dc.lft.to/lastmile_qr_scan"}, "lon": -77.04196616666667, "type": "electric_scooter"}, {"bike_id": "19ab5e2f493c40edc2e5a15c587b59bd", "is_reserved": 0, "fusion_lon": 0.0, "lat": 38.911935166666666, "is_disabled": 0, "name": "19ab5e2f493c40edc2e5a15c587b59bd", "fusion_lat": 0.0, "rental_uris": {"ios": "https://dc.lft.to/lastmile_qr_scan", "android": "https://dc.lft.to/lastmile_qr_scan"}, "lon": -77.06085866666666, "type": "electric_scooter"}, {"bike_id": "373585e051cd3d57060faedba3594c58", "is_reserved": 0, "fusion_lon": 0.0, "lat": 38.8849595, "is_disabled": 0, "name": "373585e051cd3d57060faedba3594c58", "fusion_lat": 0.0, "rental_uris": {"ios": "https://dc.lft.to/lastmile_qr_scan", "android": "https://dc.lft.to/lastmile_qr_scan"}, "lon": -77.007258, "type": "electric_scooter"}, {"bike_id": "7ab7fa6657ca7c41d726c3098fd58c79", "is_reserved": 0, "fusion_lon": 0.0, "lat": 38.902325833333336, "is_disabled": 0, "name": "7ab7fa6657ca7c41d726c3098fd58c79", "fusion_lat": 0.0, "rental_uris": {"ios": "https://dc.lft.to/lastmile_qr_scan", "android": "https://dc.lft.to/lastmile_qr_scan"}, "lon": -77.02992366666666, "type": "electric_scooter"}, {"bike_id": "622e0747d68c4ecbd26b5bd25369de57", "is_reserved": 0, "fusion_lon": 0.0, "lat": 38.90064733333333, "is_disabled": 0, "name": "622e0747d68c4ecbd26b5bd25369de57", "fusion_lat": 0.0, "rental_uris": {"ios": "https://dc.lft.to/lastmile_qr_scan", "android": "https://dc.lft.to/lastmile_qr_scan"}, "lon": -77.0501895, "type": "electric_bike"}, {"bike_id": "f2f26d497a26c6887d43e3737969745c", "is_reserved": 0, "fusion_lon": 0.0, "lat": 38.9136115, "is_disabled": 0, "name": "f2f26d497a26c6887d43e3737969745c", "fusion_lat": 0.0, "rental_uris": {"ios": "https://dc.lft.to/lastmile_qr_scan", "android": "https://dc.lft.to/lastmile_qr_scan"}, "lon": -77.046675, "type": "electric_scooter"}, {"bike_id": "0e81366f27d86e81123b259cf37fb5a0", "is_reserved": 0, "fusion_lon": 0.0, "lat": 38.905654166666665, "is_disabled": 0, "name": "0e81366f27d86e81123b259cf37fb5a0", "fusion_lat": 0.0, "rental_uris": {"ios": "https://dc.lft.to/lastmile_qr_scan", "android": "https://dc.lft.to/lastmile_qr_scan"}, "lon": -77.03629533333333, "type": "electric_scooter"}, {"bike_id": "63c6a3aed247b778e7dfe26189842f81", "is_reserved": 0, "fusion_lon": 0.0, "lat": 38.90660583333333, "is_disabled": 0, "name": "63c6a3aed247b778e7dfe26189842f81", "fusion_lat": 0.0, "rental_uris": {"ios": "https://dc.lft.to/lastmile_qr_scan", "android": "https://dc.lft.to/lastmile_qr_scan"}, "lon": -77.00879833333333, "type": "electric_scooter"}, {"bike_id": "f7332a57619ab19b3bb48e7feccdf55a", "is_reserved": 0, "fusion_lon": 0.0, "lat": 38.93207666666667, "is_disabled": 0, "name": "f7332a57619ab19b3bb48e7feccdf55a", "fusion_lat": 0.0, "rental_uris": {"ios": "https://dc.lft.to/lastmile_qr_scan", "android": "https://dc.lft.to/lastmile_qr_scan"}, "lon": -77.027344, "type": "electric_scooter"}, {"bike_id": "6a824df07df59c7b38ef360af867bd55", "is_reserved": 0, "fusion_lon": 0.0, "lat": 38.935846, "is_disabled": 0, "name": "6a824df07df59c7b38ef360af867bd55", "fusion_lat": 0.0, "rental_uris": {"ios": "https://dc.lft.to/lastmile_qr_scan", "android": "https://dc.lft.to/lastmile_qr_scan"}, "lon": -77.05841283333334, "type": "electric_bike"}, {"bike_id": "b5a656be3e07c4fb473a52fb7bc61009", "is_reserved": 0, "fusion_lon": 0.0, "lat": 38.91204583333333, "is_disabled": 0, "name": "b5a656be3e07c4fb473a52fb7bc61009", "fusion_lat": 0.0, "rental_uris": {"ios": "https://dc.lft.to/lastmile_qr_scan", "android": "https://dc.lft.to/lastmile_qr_scan"}, "lon": -77.07312716666667, "type": "electric_scooter"}, {"bike_id": "122ce6f3fbe11560bd5283515e414e8f", "is_reserved": 0, "fusion_lon": 0.0, "lat": 38.95959883333333, "is_disabled": 0, "name": "122ce6f3fbe11560bd5283515e414e8f", "fusion_lat": 0.0, "rental_uris": {"ios": "https://dc.lft.to/lastmile_qr_scan", "android": "https://dc.lft.to/lastmile_qr_scan"}, "lon": -77.1008745, "type": "electric_bike"}, {"bike_id": "362de1f89c20dfcc97b6c5ab9efd14e7", "is_reserved": 0, "fusion_lon": 0.0, "lat": 38.897241666666666, "is_disabled": 0, "name": "362de1f89c20dfcc97b6c5ab9efd14e7", "fusion_lat": 0.0, "rental_uris": {"ios": "https://dc.lft.to/lastmile_qr_scan", "android": "https://dc.lft.to/lastmile_qr_scan"}, "lon": -77.0271885, "type": "electric_scooter"}, {"bike_id": "7986de2c393c546928c86f40ad807eb0", "is_reserved": 0, "fusion_lon": 0.0, "lat": 38.906663333333334, "is_disabled": 0, "name": "7986de2c393c546928c86f40ad807eb0", "fusion_lat": 0.0, "rental_uris": {"ios": "https://dc.lft.to/lastmile_qr_scan", "android": "https://dc.lft.to/lastmile_qr_scan"}, "lon": -77.07522533333334, "type": "electric_scooter"}, {"bike_id": "9e042ae07834dc00b3613a0699bcce98", "is_reserved": 0, "fusion_lon": 0.0, "lat": 38.9259315, "is_disabled": 0, "name": "9e042ae07834dc00b3613a0699bcce98", "fusion_lat": 0.0, "rental_uris": {"ios": "https://dc.lft.to/lastmile_qr_scan", "android": "https://dc.lft.to/lastmile_qr_scan"}, "lon": -77.004791, "type": "electric_scooter"}, {"bike_id": "41bfb014f38ada4cfe9cdbe7e5368fa9", "is_reserved": 0, "fusion_lon": 0.0, "lat": 38.909319333333336, "is_disabled": 0, "name": "41bfb014f38ada4cfe9cdbe7e5368fa9", "fusion_lat": 0.0, "rental_uris": {"ios": "https://dc.lft.to/lastmile_qr_scan", "android": "https://dc.lft.to/lastmile_qr_scan"}, "lon": -76.999717, "type": "electric_scooter"}, {"bike_id": "e4632a36dd9ebe8b2a9db2f8c02c0ab7", "is_reserved": 0, "fusion_lon": 0.0, "lat": 38.903722333333334, "is_disabled": 0, "name": "e4632a36dd9ebe8b2a9db2f8c02c0ab7", "fusion_lat": 0.0, "rental_uris": {"ios": "https://dc.lft.to/lastmile_qr_scan", "android": "https://dc.lft.to/lastmile_qr_scan"}, "lon": -77.031586, "type": "electric_scooter"}, {"bike_id": "ff89005bfa480dd8be53a256a0622018", "is_reserved": 0, "fusion_lon": 0.0, "lat": 38.935331, "is_disabled": 0, "name": "ff89005bfa480dd8be53a256a0622018", "fusion_lat": 0.0, "rental_uris": {"ios": "https://dc.lft.to/lastmile_qr_scan", "android": "https://dc.lft.to/lastmile_qr_scan"}, "lon": -77.02853516666667, "type": "electric_scooter"}, {"bike_id": "e322eddcb765c03c1d6efe9b900fcf75", "is_reserved": 0, "fusion_lon": 0.0, "lat": 38.8923085, "is_disabled": 0, "name": "e322eddcb765c03c1d6efe9b900fcf75", "fusion_lat": 0.0, "rental_uris": {"ios": "https://dc.lft.to/lastmile_qr_scan", "android": "https://dc.lft.to/lastmile_qr_scan"}, "lon": -77.0499735, "type": "electric_scooter"}, {"bike_id": "b9fdf8edea572ae1c5142ad5e35dc40f", "is_reserved": 0, "fusion_lon": 0.0, "lat": 38.892359166666665, "is_disabled": 0, "name": "b9fdf8edea572ae1c5142ad5e35dc40f", "fusion_lat": 0.0, "rental_uris": {"ios": "https://dc.lft.to/lastmile_qr_scan", "android": "https://dc.lft.to/lastmile_qr_scan"}, "lon": -77.028172, "type": "electric_scooter"}, {"bike_id": "9377dd5bbd1012f25f263d7cd882d99a", "is_reserved": 0, "fusion_lon": 0.0, "lat": 38.88362983333333, "is_disabled": 0, "name": "9377dd5bbd1012f25f263d7cd882d99a", "fusion_lat": 0.0, "rental_uris": {"ios": "https://dc.lft.to/lastmile_qr_scan", "android": "https://dc.lft.to/lastmile_qr_scan"}, "lon": -77.031727, "type": "electric_scooter"}, {"bike_id": "ff013615a2c7869ae252f79c20af3391", "is_reserved": 0, "fusion_lon": 0.0, "lat": 38.91541266666667, "is_disabled": 0, "name": "ff013615a2c7869ae252f79c20af3391", "fusion_lat": 0.0, "rental_uris": {"ios": "https://dc.lft.to/lastmile_qr_scan", "android": "https://dc.lft.to/lastmile_qr_scan"}, "lon": -77.03792466666667, "type": "electric_scooter"}, {"bike_id": "ec6b157faa17c883dd1c1bc4db05701c", "is_reserved": 0, "fusion_lon": 0.0, "lat": 38.931704833333335, "is_disabled": 0, "name": "ec6b157faa17c883dd1c1bc4db05701c", "fusion_lat": 0.0, "rental_uris": {"ios": "https://dc.lft.to/lastmile_qr_scan", "android": "https://dc.lft.to/lastmile_qr_scan"}, "lon": -77.05636233333334, "type": "electric_scooter"}, {"bike_id": "32c41279035e19c6cc796c7903243b80", "is_reserved": 0, "fusion_lon": 0.0, "lat": 38.887732, "is_disabled": 0, "name": "32c41279035e19c6cc796c7903243b80", "fusion_lat": 0.0, "rental_uris": {"ios": "https://dc.lft.to/lastmile_qr_scan", "android": "https://dc.lft.to/lastmile_qr_scan"}, "lon": -76.93262166666666, "type": "electric_scooter"}, {"bike_id": "90fd96b8d7aa7c01b6eee15834cc8783", "is_reserved": 0, "fusion_lon": 0.0, "lat": 38.897725666666666, "is_disabled": 0, "name": "90fd96b8d7aa7c01b6eee15834cc8783", "fusion_lat": 0.0, "rental_uris": {"ios": "https://dc.lft.to/lastmile_qr_scan", "android": "https://dc.lft.to/lastmile_qr_scan"}, "lon": -77.054477, "type": "electric_scooter"}, {"bike_id": "01d63228b749362881baccb1dbcc9687", "is_reserved": 0, "fusion_lon": 0.0, "lat": 38.8982095, "is_disabled": 0, "name": "01d63228b749362881baccb1dbcc9687", "fusion_lat": 0.0, "rental_uris": {"ios": "https://dc.lft.to/lastmile_qr_scan", "android": "https://dc.lft.to/lastmile_qr_scan"}, "lon": -76.94651466666667, "type": "electric_scooter"}, {"bike_id": "6aa6dc529587b5cd39e3c5a079eefa8e", "is_reserved": 0, "fusion_lon": 0.0, "lat": 38.9024005, "is_disabled": 0, "name": "6aa6dc529587b5cd39e3c5a079eefa8e", "fusion_lat": 0.0, "rental_uris": {"ios": "https://dc.lft.to/lastmile_qr_scan", "android": "https://dc.lft.to/lastmile_qr_scan"}, "lon": -77.06065016666666, "type": "electric_scooter"}, {"bike_id": "173fc1bab648552ee9fdcef32f3dc8d7", "is_reserved": 0, "fusion_lon": 0.0, "lat": 38.890895, "is_disabled": 0, "name": "173fc1bab648552ee9fdcef32f3dc8d7", "fusion_lat": 0.0, "rental_uris": {"ios": "https://dc.lft.to/lastmile_qr_scan", "android": "https://dc.lft.to/lastmile_qr_scan"}, "lon": -76.94394083333333, "type": "electric_scooter"}, {"bike_id": "789292a4aa4e4a3939c459c5c2c9cfc4", "is_reserved": 0, "fusion_lon": 0.0, "lat": 38.896613, "is_disabled": 0, "name": "789292a4aa4e4a3939c459c5c2c9cfc4", "fusion_lat": 0.0, "rental_uris": {"ios": "https://dc.lft.to/lastmile_qr_scan", "android": "https://dc.lft.to/lastmile_qr_scan"}, "lon": -77.025862, "type": "electric_scooter"}, {"bike_id": "2d18598ce6d471892209e4b8c1bf5dfe", "is_reserved": 0, "fusion_lon": 0.0, "lat": 38.923578166666665, "is_disabled": 0, "name": "2d18598ce6d471892209e4b8c1bf5dfe", "fusion_lat": 0.0, "rental_uris": {"ios": "https://dc.lft.to/lastmile_qr_scan", "android": "https://dc.lft.to/lastmile_qr_scan"}, "lon": -77.01912483333334, "type": "electric_scooter"}, {"bike_id": "884cb53535398117cd7b97f36ef441b8", "is_reserved": 0, "fusion_lon": 0.0, "lat": 38.92394733333333, "is_disabled": 0, "name": "884cb53535398117cd7b97f36ef441b8", "fusion_lat": 0.0, "rental_uris": {"ios": "https://dc.lft.to/lastmile_qr_scan", "android": "https://dc.lft.to/lastmile_qr_scan"}, "lon": -77.04059566666666, "type": "electric_scooter"}, {"bike_id": "2073d4b0e1eff6aea928a00717be0ab2", "is_reserved": 0, "fusion_lon": 0.0, "lat": 38.8983645, "is_disabled": 0, "name": "2073d4b0e1eff6aea928a00717be0ab2", "fusion_lat": 0.0, "rental_uris": {"ios": "https://dc.lft.to/lastmile_qr_scan", "android": "https://dc.lft.to/lastmile_qr_scan"}, "lon": -76.946527, "type": "electric_scooter"}, {"bike_id": "8f91f5385a540e19b302876d1da5e081", "is_reserved": 0, "fusion_lon": 0.0, "lat": 38.82262516666667, "is_disabled": 0, "name": "8f91f5385a540e19b302876d1da5e081", "fusion_lat": 0.0, "rental_uris": {"ios": "https://dc.lft.to/lastmile_qr_scan", "android": "https://dc.lft.to/lastmile_qr_scan"}, "lon": -77.00552166666667, "type": "electric_bike"}, {"bike_id": "1f4e6ea4cb50d9f75822c9ff7072ce07", "is_reserved": 0, "fusion_lon": 0.0, "lat": 38.92597816666667, "is_disabled": 0, "name": "1f4e6ea4cb50d9f75822c9ff7072ce07", "fusion_lat": 0.0, "rental_uris": {"ios": "https://dc.lft.to/lastmile_qr_scan", "android": "https://dc.lft.to/lastmile_qr_scan"}, "lon": -77.02128333333333, "type": "electric_scooter"}, {"bike_id": "ce344fe1e97bafc38f1e25a8e53a92a9", "is_reserved": 0, "fusion_lon": 0.0, "lat": 38.8936615, "is_disabled": 0, "name": "ce344fe1e97bafc38f1e25a8e53a92a9", "fusion_lat": 0.0, "rental_uris": {"ios": "https://dc.lft.to/lastmile_qr_scan", "android": "https://dc.lft.to/lastmile_qr_scan"}, "lon": -77.028507, "type": "electric_scooter"}, {"bike_id": "4c126fcf41e5babdba843a118e2052e8", "is_reserved": 0, "fusion_lon": 0.0, "lat": 38.89894266666667, "is_disabled": 0, "name": "4c126fcf41e5babdba843a118e2052e8", "fusion_lat": 0.0, "rental_uris": {"ios": "https://dc.lft.to/lastmile_qr_scan", "android": "https://dc.lft.to/lastmile_qr_scan"}, "lon": -77.03291833333333, "type": "electric_scooter"}, {"bike_id": "84b8c33f471f036916ab2cc8e115adc8", "is_reserved": 0, "fusion_lon": 0.0, "lat": 38.9006275, "is_disabled": 0, "name": "84b8c33f471f036916ab2cc8e115adc8", "fusion_lat": 0.0, "rental_uris": {"ios": "https://dc.lft.to/lastmile_qr_scan", "android": "https://dc.lft.to/lastmile_qr_scan"}, "lon": -77.03196883333334, "type": "electric_scooter"}, {"bike_id": "da84a889b91710991de96ace3599f209", "is_reserved": 0, "fusion_lon": 0.0, "lat": 38.910434333333335, "is_disabled": 0, "name": "da84a889b91710991de96ace3599f209", "fusion_lat": 0.0, "rental_uris": {"ios": "https://dc.lft.to/lastmile_qr_scan", "android": "https://dc.lft.to/lastmile_qr_scan"}, "lon": -77.03580966666667, "type": "electric_scooter"}, {"bike_id": "f038690df0451b6c7f68cf1d9258a444", "is_reserved": 0, "fusion_lon": 0.0, "lat": 38.8863825, "is_disabled": 0, "name": "f038690df0451b6c7f68cf1d9258a444", "fusion_lat": 0.0, "rental_uris": {"ios": "https://dc.lft.to/lastmile_qr_scan", "android": "https://dc.lft.to/lastmile_qr_scan"}, "lon": -76.954691, "type": "electric_bike"}, {"bike_id": "9c8fb748e9e218e5dd3d612e0b16ab2e", "is_reserved": 0, "fusion_lon": 0.0, "lat": 38.9336605, "is_disabled": 0, "name": "9c8fb748e9e218e5dd3d612e0b16ab2e", "fusion_lat": 0.0, "rental_uris": {"ios": "https://dc.lft.to/lastmile_qr_scan", "android": "https://dc.lft.to/lastmile_qr_scan"}, "lon": -77.05729516666666, "type": "electric_scooter"}, {"bike_id": "fe5ae6f4dfbd0b06c80af633316a97c3", "is_reserved": 0, "fusion_lon": 0.0, "lat": 38.8974755, "is_disabled": 0, "name": "fe5ae6f4dfbd0b06c80af633316a97c3", "fusion_lat": 0.0, "rental_uris": {"ios": "https://dc.lft.to/lastmile_qr_scan", "android": "https://dc.lft.to/lastmile_qr_scan"}, "lon": -77.02730516666666, "type": "electric_scooter"},