{"data": {"bikes": [{"is_disabled": 0, "is_reserved": 0, "fusion_lat": 0.0, "lat": 38.909291833333334, "fusion_lon": 0.0, "rental_uris": {"ios": "https://dc.lft.to/lastmile_qr_scan", "android": "https://dc.lft.to/lastmile_qr_scan"}, "lon": -77.04576883333333, "bike_id": "cdecd8f31ad6ade41b2dbd89a38f60f9", "type": "electric_scooter", "name": "cdecd8f31ad6ade41b2dbd89a38f60f9"}, {"is_disabled": 0, "is_reserved": 0, "fusion_lat": 0.0, "lat": 38.88408483333333, "fusion_lon": 0.0, "rental_uris": {"ios": "https://dc.lft.to/lastmile_qr_scan", "android": "https://dc.lft.to/lastmile_qr_scan"}, "lon": -77.04581466666667, "bike_id": "e841e8622506f569d586daa09d0ef098", "type": "electric_bike", "name": "e841e8622506f569d586daa09d0ef098"}, {"is_disabled": 0, "is_reserved": 0, "fusion_lat": 0.0, "lat": 38.924391, "fusion_lon": 0.0, "rental_uris": {"ios": "https://dc.lft.to/lastmile_qr_scan", "android": "https://dc.lft.to/lastmile_qr_scan"}, "lon": -77.02022666666667, "bike_id": "4099402ffcfd538c71382fd6bc525fed", "type": "electric_scooter", "name": "4099402ffcfd538c71382fd6bc525fed"}, {"is_disabled": 0, "is_reserved": 0, "fusion_lat": 0.0, "lat": 38.9166745, "fusion_lon": 0.0, "rental_uris": {"ios": "https://dc.lft.to/lastmile_qr_scan", "android": "https://dc.lft.to/lastmile_qr_scan"}, "lon": -77.0004865, "bike_id": "598109db6539bed962867e385c1f5dd5", "type": "electric_scooter", "name": "598109db6539bed962867e385c1f5dd5"}, {"is_disabled": 0, "is_reserved": 0, "fusion_lat": 0.0, "lat": 38.899344166666666, "fusion_lon": 0.0, "rental_uris": {"ios": "https://dc.lft.to/lastmile_qr_scan", "android": "https://dc.lft.to/lastmile_qr_scan"}, "lon": -77.00160583333333, "bike_id": "f2370b472cb216a785427c0fcc4f070a", "type": "electric_bike", "name": "f2370b472cb216a785427c0fcc4f070a"}, {"is_disabled": 0, "is_reserved": 0, "fusion_lat": 0.0, "lat": 38.89212783333333, "fusion_lon": 0.0, "rental_uris": {"ios": "https://dc.lft.to/lastmile_qr_scan", "android": "https://dc.lft.to/lastmile_qr_scan"}, "lon": -76.92922, "bike_id": "4b26163b6d5ce82d00ea0e38c5af8afb", "type": "electric_scooter", "name": "4b26163b6d5ce82d00ea0e38c5af8afb"}, {"is_disabled": 0, "is_reserved": 0, "fusion_lat": 0.0, "lat": 38.90741533333333, "fusion_lon": 0.0, "rental_uris": {"ios": "https://dc.lft.to/lastmile_qr_scan", "android": "https://dc.lft.to/lastmile_qr_scan"}, "lon": -77.041598, "bike_id": "52bcaf66bcd225b261aa6a5428bb68d5", "type": "electric_scooter", "name": "52bcaf66bcd225b261aa6a5428bb68d5"}, {"is_disabled": 0, "is_reserved": 0, "fusion_lat": 0.0, "lat": 38.893991, "fusion_lon": 0.0, "rental_uris": {"ios": "https://dc.lft.to/lastmile_qr_scan", "android": "https://dc.lft.to/lastmile_qr_scan"}, "lon": -77.023747, "bike_id": "7eb637688673cdfec67886443fbdd4d7", "type": "electric_scooter", "name": "7eb637688673cdfec67886443fbdd4d7"}, {"is_disabled": 0, "is_reserved": 0, "fusion_lat": 0.0, "lat": 38.894269666666666, "fusion_lon": 0.0, "rental_uris": {"ios": "https://dc.lft.to/lastmile_qr_scan", "android": "https://dc.lft.to/lastmile_qr_scan"}, "lon": -77.055948, "bike_id": "3a382fd70880a098a608a98f7a058053", "type": "electric_scooter", "name": "3a382fd70880a098a608a98f7a058053"}, {"is_disabled": 0, "is_reserved": 0, "fusion_lat": 0.0, "lat": 38.89519333333333, "fusion_lon": 0.0, "rental_uris": {"ios": "https://dc.lft.to/lastmile_qr_scan", "android": "https://dc.lft.to/lastmile_qr_scan"}, "lon": -77.023071, "bike_id": "8e3b2cc2b2681cd8bfe5eacba346c1df", "type": "electric_scooter", "name": "8e3b2cc2b2681cd8bfe5eacba346c1df"}, {"is_disabled": 0, "is_reserved": 0, "fusion_lat": 0.0, "lat": 38.920743333333334, "fusion_lon": 0.0, "rental_uris": {"ios": "https://dc.lft.to/lastmile_qr_scan", "android": "https://dc.lft.to/lastmile_qr_scan"}, "lon": -77.02565816666667, "bike_id": "8d2a666ae0c0e9c5fb1b987ec15e9657", "type": "electric_scooter", "name": "8d2a666ae0c0e9c5fb1b987ec15e9657"}, {"is_disabled": 0, "is_reserved": 0, "fusion_lat": 0.0, "lat": 38.901355333333335, "fusion_lon": 0.0, "rental_uris": {"ios": "https://dc.lft.to/lastmile_qr_scan", "android": "https://dc.lft.to/lastmile_qr_scan"}, "lon": -77.03955183333333, "bike_id": "1f2119fdcd3ce4dacff63be31c82597f", "type": "electric_scooter", "name": "1f2119fdcd3ce4dacff63be31c82597f"}, {"is_disabled": 0, "is_reserved": 0, "fusion_lat": 0.0, "lat": 38.89223583333333, "fusion_lon": 0.0, "rental_uris": {"ios": "https://dc.lft.to/lastmile_qr_scan", "android": "https://dc.lft.to/lastmile_qr_scan"}, "lon": -77.02776816666666, "bike_id": "68a8da452c7b9fd6f4e8614a6cdb1f06", "type": "electric_scooter", "name": "68a8da452c7b9fd6f4e8614a6cdb1f06"}, {"is_disabled": 0, "is_reserved": 0, "fusion_lat": 0.0, "lat": 38.897462, "fusion_lon": 0.0, "rental_uris": {"ios": "https://dc.lft.to/lastmile_qr_scan", "android": "https://dc.lft.to/lastmile_qr_scan"}, "lon": -77.021614, "bike_id": "8ecbcc0d66f90465b089788de67e53ed", "type": "electric_scooter", "name": "8ecbcc0d66f90465b089788de67e53ed"}, {"is_disabled": 0, "is_reserved": 0, "fusion_lat": 0.0, "lat": 38.89745383333333, "fusion_lon": 0.0, "rental_uris": {"ios": "https://dc.lft.to/lastmile_qr_scan", "android": "https://dc.lft.to/lastmile_qr_scan"}, "lon": -77.02163366666667, "bike_id": "b4f703a0e4febae6a91c44dc8ec9dc2a", "type": "electric_scooter", "name": "b4f703a0e4febae6a91c44dc8ec9dc2a"}, {"is_disabled": 0, "is_reserved": 0, "fusion_lat": 0.0, "lat": 38.909618333333334, "fusion_lon": 0.0, "rental_uris": {"ios": "https://dc.lft.to/lastmile_qr_scan", "android": "https://dc.lft.to/lastmile_qr_scan"}, "lon": -77.04923116666667, "bike_id": "b7e2c7c4ca8aa352a26f08ae17cfea91", "type": "electric_scooter", "name": "b7e2c7c4ca8aa352a26f08ae17cfea91"}, {"is_disabled": 0, "is_reserved": 0, "fusion_lat": 0.0, "lat": 38.8898065, "fusion_lon": 0.0, "rental_uris": {"ios": "https://dc.lft.to/lastmile_qr_scan", "android": "https://dc.lft.to/lastmile_qr_scan"}, "lon": -76.98181033333333, "bike_id": "5f64bb19c8affb4db49c776e112ee4e6", "type": "electric_scooter", "name": "5f64bb19c8affb4db49c776e112ee4e6"}, {"is_disabled": 0, "is_reserved": 0, "fusion_lat": 0.0, "lat": 38.9243505, "fusion_lon": 0.0, "rental_uris": {"ios": "https://dc.lft.to/lastmile_qr_scan", "android": "https://dc.lft.to/lastmile_qr_scan"}, "lon": -77.019463, "bike_id": "1cf742c5b9ca8f8c562bd78059646316", "type": "electric_scooter", "name": "1cf742c5b9ca8f8c562bd78059646316"}, {"is_disabled": 0, "is_reserved": 0, "fusion_lat": 0.0, "lat": 38.90498383333333, "fusion_lon": 0.0, "rental_uris": {"ios": "https://dc.lft.to/lastmile_qr_scan", "android": "https://dc.lft.to/lastmile_qr_scan"}, "lon": -77.02958033333333, "bike_id": "ad97f4f105e84fc228cb2dfcd91142c7", "type": "electric_scooter", "name": "ad97f4f105e84fc228cb2dfcd91142c7"}, {"is_disabled": 0, "is_reserved": 0, "fusion_lat": 0.0, "lat": 38.888754, "fusion_lon": 0.0, "rental_uris": {"ios": "https://dc.lft.to/lastmile_qr_scan", "android": "https://dc.lft.to/lastmile_qr_scan"}, "lon": -77.00173983333333, "bike_id": "0fa4bca3b0f1401a1847fcec725310f7", "type": "electric_scooter", "name": "0fa4bca3b0f1401a1847fcec725310f7"}, {"is_disabled": 0, "is_reserved": 0, "fusion_lat": 0.0, "lat": 38.89939866666667, "fusion_lon": 0.0, "rental_uris": {"ios": "https://dc.lft.to/lastmile_qr_scan", "android": "https://dc.lft.to/lastmile_qr_scan"}, "lon": -76.9376, "bike_id": "b6b6aff1c686b9e3187819e9674976dc", "type": "electric_scooter", "name": "b6b6aff1c686b9e3187819e9674976dc"}, {"is_disabled": 0, "is_reserved": 0, "fusion_lat": 0.0, "lat": 38.9175035, "fusion_lon": 0.0, "rental_uris": {"ios": "https://dc.lft.to/lastmile_qr_scan", "android": "https://dc.lft.to/lastmile_qr_scan"}, "lon": -77.010825, "bike_id": "1158c160daff471d8faa2defd7b6d915", "type": "electric_scooter", "name": "1158c160daff471d8faa2defd7b6d915"}, {"is_disabled": 0, "is_reserved": 0, "fusion_lat": 0.0, "lat": 38.8708265, "fusion_lon": 0.0, "rental_uris": {"ios": "https://dc.lft.to/lastmile_qr_scan", "android": "https://dc.lft.to/lastmile_qr_scan"}, "lon": -77.010776, "bike_id": "4b59be28e859447ba6f3f34ff80ec1ec", "type": "electric_scooter", "name": "4b59be28e859447ba6f3f34ff80ec1ec"}, {"is_disabled": 0, "is_reserved": 0, "fusion_lat": 0.0, "lat": 38.87646683333333, "fusion_lon": 0.0, "rental_uris": {"ios": "https://dc.lft.to/lastmile_qr_scan", "android": "https://dc.lft.to/lastmile_qr_scan"}, "lon": -77.00205966666667, "bike_id": "5ecc96ab761cf07c83f2567943d179e0", "type": "electric_scooter", "name": "5ecc96ab761cf07c83f2567943d179e0"}, {"is_disabled": 0, "is_reserved": 0, "fusion_lat": 0.0, "lat": 38.928323166666665, "fusion_lon": 0.0, "rental_uris": {"ios": "https://dc.lft.to/lastmile_qr_scan", "android": "https://dc.lft.to/lastmile_qr_scan"}, "lon": -77.059679, "bike_id": "9624bcd4c2c4a95aefc9b9311df7d0a1", "type": "electric_bike", "name": "9624bcd4c2c4a95aefc9b9311df7d0a1"}, {"is_disabled": 0, "is_reserved": 0, "fusion_lat": 0.0, "lat": 38.918131, "fusion_lon": 0.0, "rental_uris": {"ios": "https://dc.lft.to/lastmile_qr_scan", "android": "https://dc.lft.to/lastmile_qr_scan"}, "lon": -77.00007883333333, "bike_id": "55213e2393727518366188fbff12a252", "type": "electric_scooter", "name": "55213e2393727518366188fbff12a252"}, {"is_disabled": 0, "is_reserved": 0, "fusion_lat": 0.0, "lat": 38.911818833333335, "fusion_lon": 0.0, "rental_uris": {"ios": "https://dc.lft.to/lastmile_qr_scan", "android": "https://dc.lft.to/lastmile_qr_scan"}, "lon": -77.0120765, "bike_id": "8a023a1e32584fc6258c097fb6149c1e", "type": "electric_scooter", "name": "8a023a1e32584fc6258c097fb6149c1e"}, {"is_disabled": 0, "is_reserved": 0, "fusion_lat": 0.0, "lat": 38.888491, "fusion_lon": 0.0, "rental_uris": {"ios": "https://dc.lft.to/lastmile_qr_scan", "android": "https://dc.lft.to/lastmile_qr_scan"}, "lon": -77.0490695, "bike_id": "451b4918b322d9f3b04d559350eb8f45", "type": "electric_scooter", "name": "451b4918b322d9f3b04d559350eb8f45"}, {"is_disabled": 0, "is_reserved": 0, "fusion_lat": 0.0, "lat": 38.948566666666665, "fusion_lon": 0.0, "rental_uris": {"ios": "https://dc.lft.to/lastmile_qr_scan", "android": "https://dc.lft.to/lastmile_qr_scan"}, "lon": -77.021102, "bike_id": "f7291c19c76f30f0c52802e3ebd313b9", "type": "electric_scooter", "name": "f7291c19c76f30f0c52802e3ebd313b9"}, {"is_disabled": 0, "is_reserved": 0, "fusion_lat": 0.0, "lat": 38.92357233333333, "fusion_lon": 0.0, "rental_uris": {"ios": "https://dc.lft.to/lastmile_qr_scan", "android": "https://dc.lft.to/lastmile_qr_scan"}, "lon": -77.03317416666667, "bike_id": "18f856b6ed0a2106c1b61d2e8a17a40a", "type": "electric_scooter", "name": "18f856b6ed0a2106c1b61d2e8a17a40a"}, {"is_disabled": 0, "is_reserved": 0, "fusion_lat": 0.0, "lat": 38.92104633333334, "fusion_lon": 0.0, "rental_uris": {"ios": "https://dc.lft.to/lastmile_qr_scan", "android": "https://dc.lft.to/lastmile_qr_scan"}, "lon": -77.0175625, "bike_id": "9fdc3145e15854eb3b7f6642eacde33e", "type": "electric_scooter", "name": "9fdc3145e15854eb3b7f6642eacde33e"}, {"is_disabled": 0, "is_reserved": 0, "fusion_lat": 0.0, "lat": 38.87101916666667, "fusion_lon": 0.0, "rental_uris": {"ios": "https://dc.lft.to/lastmile_qr_scan", "android": "https://dc.lft.to/lastmile_qr_scan"}, "lon": -77.01206883333333, "bike_id": "ca3ea68b3ab1006c6c570522de4af9d5", "type": "electric_scooter", "name": "ca3ea68b3ab1006c6c570522de4af9d5"}, {"is_disabled": 0, "is_reserved": 0, "fusion_lat": 0.0, "lat": 38.88484866666667, "fusion_lon": 0.0, "rental_uris": {"ios": "https://dc.lft.to/lastmile_qr_scan", "android": "https://dc.lft.to/lastmile_qr_scan"}, "lon": -77.02368033333333, "bike_id": "cad066c4b4046a8c5ce9c4d49312e494", "type": "electric_scooter", "name": "cad066c4b4046a8c5ce9c4d49312e494"}, {"is_disabled": 0, "is_reserved": 0, "fusion_lat": 0.0, "lat": 38.912741833333335, "fusion_lon": 0.0, "rental_uris": {"ios": "https://dc.lft.to/lastmile_qr_scan", "android": "https://dc.lft.to/lastmile_qr_scan"}, "lon": -77.04551733333334, "bike_id": "2f22cbcee270b8fe0d1dfab296716363", "type": "electric_scooter", "name": "2f22cbcee270b8fe0d1dfab296716363"}, {"is_disabled": 0, "is_reserved": 0, "fusion_lat": 0.0, "lat": 38.92174933333333, "fusion_lon": 0.0, "rental_uris": {"ios": "https://dc.lft.to/lastmile_qr_scan", "android": "https://dc.lft.to/lastmile_qr_scan"}, "lon": -77.0181985, "bike_id": "482adb6803bf99abc8715aad1a7bc789", "type": "electric_scooter", "name": "482adb6803bf99abc8715aad1a7bc789"}, {"is_disabled": 0, "is_reserved": 0, "fusion_lat": 0.0, "lat": 38.94104516666667, "fusion_lon": 0.0, "rental_uris": {"ios": "https://dc.lft.to/lastmile_qr_scan", "android": "https://dc.lft.to/lastmile_qr_scan"}, "lon": -76.95626716666666, "bike_id": "2ba7cd6b793d742e3bb11d411f904d78", "type": "electric_bike", "name": "2ba7cd6b793d742e3bb11d411f904d78"}, {"is_disabled": 0, "is_reserved": 0, "fusion_lat": 0.0, "lat": 38.9064705, "fusion_lon": 0.0, "rental_uris": {"ios": "https://dc.lft.to/lastmile_qr_scan", "android": "https://dc.lft.to/lastmile_qr_scan"}, "lon": -77.05315216666666, "bike_id": "da3950f6a82de120ca9e4588d1ff4d55", "type": "electric_scooter", "name": "da3950f6a82de120ca9e4588d1ff4d55"}, {"is_disabled": 0, "is_reserved": 0, "fusion_lat": 0.0, "lat": 38.96767783333333, "fusion_lon": 0.0, "rental_uris": {"ios": "https://dc.lft.to/lastmile_qr_scan", "android": "https://dc.lft.to/lastmile_qr_scan"}, "lon": -77.03422583333334, "bike_id": "fc2a3f7b7e743fd8db23ddbc584ac047", "type": "electric_scooter", "name": "fc2a3f7b7e743fd8db23ddbc584ac047"}, {"is_disabled": 0, "is_reserved": 0, "fusion_lat": 0.0, "lat": 38.92155666666667, "fusion_lon": 0.0, "rental_uris": {"ios": "https://dc.lft.to/lastmile_qr_scan", "android": "https://dc.lft.to/lastmile_qr_scan"}, "lon": -77.035053, "bike_id": "8cbe8ba68d232c5051c318a3d9607da1", "type": "electric_scooter", "name": "8cbe8ba68d232c5051c318a3d9607da1"}, {"is_disabled": 0, "is_reserved": 0, "fusion_lat": 0.0, "lat": 38.927793333333334, "fusion_lon": 0.0, "rental_uris": {"ios": "https://dc.lft.to/lastmile_qr_scan", "android": "https://dc.lft.to/lastmile_qr_scan"}, "lon": -77.05262416666666, "bike_id": "a6a5aec80a0f93545519347585e560f5", "type": "electric_scooter", "name": "a6a5aec80a0f93545519347585e560f5"}, {"is_disabled": 0, "is_reserved": 0, "fusion_lat": 0.0, "lat": 38.9078, "fusion_lon": 0.0, "rental_uris": {"ios": "https://dc.lft.to/lastmile_qr_scan", "android": "https://dc.lft.to/lastmile_qr_scan"}, "lon": -77.035458, "bike_id": "2e6395e95a819337bc90133325f8864c", "type": "electric_scooter", "name": "2e6395e95a819337bc90133325f8864c"}, {"is_disabled": 0, "is_reserved": 0, "fusion_lat": 0.0, "lat": 38.8866815, "fusion_lon": 0.0, "rental_uris": {"ios": "https://dc.lft.to/lastmile_qr_scan", "android": "https://dc.lft.to/lastmile_qr_scan"}, "lon": -77.16232766666667, "bike_id": "9f9b74e1f3d6b85e5ea6f410e1bef5b0", "type": "electric_bike", "name": "9f9b74e1f3d6b85e5ea6f410e1bef5b0"}, {"is_disabled": 0, "is_reserved": 0, "fusion_lat": 0.0, "lat": 38.905104666666666, "fusion_lon": 0.0, "rental_uris": {"ios": "https://dc.lft.to/lastmile_qr_scan", "android": "https://dc.lft.to/lastmile_qr_scan"}, "lon": -77.02496416666666, "bike_id": "2ae23aeca87ae97fdd99c47cf5566fdc", "type": "electric_scooter", "name": "2ae23aeca87ae97fdd99c47cf5566fdc"}, {"is_disabled": 0, "is_reserved": 0, "fusion_lat": 0.0, "lat": 38.8993545, "fusion_lon": 0.0, "rental_uris": {"ios": "https://dc.lft.to/lastmile_qr_scan", "android": "https://dc.lft.to/lastmile_qr_scan"}, "lon": -77.0321405, "bike_id": "03f1efdc6dc7893622eca12bd14871aa", "type": "electric_scooter", "name": "03f1efdc6dc7893622eca12bd14871aa"}, {"is_disabled": 0, "is_reserved": 0, "fusion_lat": 0.0, "lat": 38.9275785, "fusion_lon": 0.0, "rental_uris": {"ios": "https://dc.lft.to/lastmile_qr_scan", "android": "https://dc.lft.to/lastmile_qr_scan"}, "lon": -77.03275483333333, "bike_id": "13118ede2fd947e343736eb413a78997", "type": "electric_scooter", "name": "13118ede2fd947e343736eb413a78997"}, {"is_disabled": 0, "is_reserved": 0, "fusion_lat": 0.0, "lat": 38.89882933333333, "fusion_lon": 0.0, "rental_uris": {"ios": "https://dc.lft.to/lastmile_qr_scan", "android": "https://dc.lft.to/lastmile_qr_scan"}, "lon": -77.05014216666666, "bike_id": "d4d5f4bb67c6c04ef7220cc3c9efacc6", "type": "electric_scooter", "name": "d4d5f4bb67c6c04ef7220cc3c9efacc6"}, {"is_disabled": 0, "is_reserved": 0, "fusion_lat": 0.0, "lat": 38.942187, "fusion_lon": 0.0, "rental_uris": {"ios": "https://dc.lft.to/lastmile_qr_scan", "android": "https://dc.lft.to/lastmile_qr_scan"}, "lon": -76.96129566666667, "bike_id": "8ccfe77286d303e3a9e26469bb3a406b", "type": "electric_bike", "name": "8ccfe77286d303e3a9e26469bb3a406b"}, {"is_disabled": 0, "is_reserved": 0, "fusion_lat": 0.0, "lat": 38.809853833333335, "fusion_lon": 0.0, "rental_uris": {"ios": "https://dc.lft.to/lastmile_qr_scan", "android": "https://dc.lft.to/lastmile_qr_scan"}, "lon": -77.07660516666667, "bike_id": "5a0266309d4479e44958624b8a0d429f", "type": "electric_bike", "name": "5a0266309d4479e44958624b8a0d429f"}, {"is_disabled": 0, "is_reserved": 0, "fusion_lat": 0.0, "lat": 38.909748, "fusion_lon": 0.0, "rental_uris": {"ios": "https://dc.lft.to/lastmile_qr_scan", "android": "https://dc.lft.to/lastmile_qr_scan"}, "lon": -77.011057, "bike_id": "bad5eb14900f4d0a4cb7e5b4f41e4443", "type": "electric_scooter", "name": "bad5eb14900f4d0a4cb7e5b4f41e4443"}, {"is_disabled": 0, "is_reserved": 0, "fusion_lat": 0.0, "lat": 38.9177125, "fusion_lon": 0.0, "rental_uris": {"ios": "https://dc.lft.to/lastmile_qr_scan", "android": "https://dc.lft.to/lastmile_qr_scan"}, "lon": -77.01496466666667, "bike_id": "7de728d20cd8ad802ece1dfdcae6d37f", "type": "electric_scooter", "name": "7de728d20cd8ad802ece1dfdcae6d37f"}, {"is_disabled": 0, "is_reserved": 0, "fusion_lat": 0.0, "lat": 38.92537216666667, "fusion_lon": 0.0, "rental_uris": {"ios": "https://dc.lft.to/lastmile_qr_scan", "android": "https://dc.lft.to/lastmile_qr_scan"}, "lon": -77.02559683333334, "bike_id": "3d681e64bf6664b8535791a71596375e", "type": "electric_scooter", "name": "3d681e64bf6664b8535791a71596375e"}, {"is_disabled": 0, "is_reserved": 0, "fusion_lat": 0.0, "lat": 38.930080833333335, "fusion_lon": 0.0, "rental_uris": {"ios": "https://dc.lft.to/lastmile_qr_scan", "android": "https://dc.lft.to/lastmile_qr_scan"}, "lon": -77.03803733333334, "bike_id": "6681d8c15a455a66a5c53dbb6a66a84e", "type": "electric_scooter", "name": "6681d8c15a455a66a5c53dbb6a66a84e"}, {"is_disabled": 0, "is_reserved": 0, "fusion_lat": 0.0, "lat": 38.917791, "fusion_lon": 0.0, "rental_uris": {"ios": "https://dc.lft.to/lastmile_qr_scan", "android": "https://dc.lft.to/lastmile_qr_scan"}, "lon": -77.03208733333334, "bike_id": "9a1a692a5754bb25f08f57c633678a86", "type": "electric_scooter", "name": "9a1a692a5754bb25f08f57c633678a86"}, {"is_disabled": 0, "is_reserved": 0, "fusion_lat": 0.0, "lat": 38.914218, "fusion_lon": 0.0, "rental_uris": {"ios": "https://dc.lft.to/lastmile_qr_scan", "android": "https://dc.lft.to/lastmile_qr_scan"}, "lon": -77.03303016666666, "bike_id": "9319944bf77ec44d420601c6604720b3", "type": "electric_scooter", "name": "9319944bf77ec44d420601c6604720b3"}, {"is_disabled": 0, "is_reserved": 0, "fusion_lat": 0.0, "lat": 38.893373833333335, "fusion_lon": 0.0, "rental_uris": {"ios": "https://dc.lft.to/lastmile_qr_scan", "android": "https://dc.lft.to/lastmile_qr_scan"}, "lon": -76.92892766666667, "bike_id": "1e87ba3a109b42798ba65fb0a05b0a60", "type": "electric_scooter", "name": "1e87ba3a109b42798ba65fb0a05b0a60"}, {"is_disabled": 0, "is_reserved": 0, "fusion_lat": 0.0, "lat": 38.92071266666667, "fusion_lon": 0.0, "rental_uris": {"ios": "https://dc.lft.to/lastmile_qr_scan", "android": "https://dc.lft.to/lastmile_qr_scan"}, "lon": -77.0245205, "bike_id": "8a7d6472016eb0dd577042f0aff35ee6", "type": "electric_scooter", "name": "8a7d6472016eb0dd577042f0aff35ee6"}, {"is_disabled": 0, "is_reserved": 0, "fusion_lat": 0.0, "lat": 38.924664166666666, "fusion_lon": 0.0, "rental_uris": {"ios": "https://dc.lft.to/lastmile_qr_scan", "android": "https://dc.lft.to/lastmile_qr_scan"}, "lon": -77.05758333333333, "bike_id": "fed13371e1ce6e1d40af2a7a3af50e22", "type": "electric_scooter", "name": "fed13371e1ce6e1d40af2a7a3af50e22"}, {"is_disabled": 0, "is_reserved": 0, "fusion_lat": 0.0, "lat": 38.92420766666667, "fusion_lon": 0.0, "rental_uris": {"ios": "https://dc.lft.to/lastmile_qr_scan", "android": "https://dc.lft.to/lastmile_qr_scan"}, "lon": -77.021305, "bike_id": "237cadfd0be5495f905fa0c22ec5d703", "type": "electric_scooter", "name": "237cadfd0be5495f905fa0c22ec5d703"}, {"is_disabled": 0, "is_reserved": 0, "fusion_lat": 0.0, "lat": 38.88733833333333, "fusion_lon": 0.0, "rental_uris": {"ios": "https://dc.lft.to/lastmile_qr_scan", "android": "https://dc.lft.to/lastmile_qr_scan"}, "lon": -77.03229466666667, "bike_id": "1fde13be8d42a7eefd51dfa8977729ae", "type": "electric_scooter", "name": "1fde13be8d42a7eefd51dfa8977729ae"}, {"is_disabled": 0, "is_reserved": 0, "fusion_lat": 0.0, "lat": 38.92864, "fusion_lon": 0.0, "rental_uris": {"ios": "https://dc.lft.to/lastmile_qr_scan", "android": "https://dc.lft.to/lastmile_qr_scan"}, "lon": -77.030469, "bike_id": "0d2911d8b6e1be9cc57c7bf32e4f51a5", "type": "electric_scooter", "name": "0d2911d8b6e1be9cc57c7bf32e4f51a5"}, {"is_disabled": 0, "is_reserved": 0, "fusion_lat": 0.0, "lat": 38.90766466666667, "fusion_lon": 0.0, "rental_uris": {"ios": "https://dc.lft.to/lastmile_qr_scan", "android": "https://dc.lft.to/lastmile_qr_scan"}, "lon": -77.00365166666667, "bike_id": "ea616972ed8e64d6a4570f2f3c1b9701", "type": "electric_scooter", "name": "ea616972ed8e64d6a4570f2f3c1b9701"}, {"is_disabled": 0, "is_reserved": 0, "fusion_lat": 0.0, "lat": 38.902247, "fusion_lon": 0.0, "rental_uris": {"ios": "https://dc.lft.to/lastmile_qr_scan", "android": "https://dc.lft.to/lastmile_qr_scan"}, "lon": -76.93176316666667, "bike_id": "bb552752aefb51028862ec25bd913130", "type": "electric_bike", "name": "bb552752aefb51028862ec25bd913130"}, {"is_disabled": 0, "is_reserved": 0, "fusion_lat": 0.0, "lat": 38.898105666666666, "fusion_lon": 0.0, "rental_uris": {"ios": "https://dc.lft.to/lastmile_qr_scan", "android": "https://dc.lft.to/lastmile_qr_scan"}, "lon": -76.97165616666666, "bike_id": "1bed0723de409196853005f881044795", "type": "electric_scooter", "name": "1bed0723de409196853005f881044795"}, {"is_disabled": 0, "is_reserved": 0, "fusion_lat": 0.0, "lat": 38.90977483333333, "fusion_lon": 0.0, "rental_uris": {"ios": "https://dc.lft.to/lastmile_qr_scan", "android": "https://dc.lft.to/lastmile_qr_scan"}, "lon": -77.031845, "bike_id": "27bd5e46d26fc3a4b3a85ef02b46bf72", "type": "electric_scooter", "name": "27bd5e46d26fc3a4b3a85ef02b46bf72"}, {"is_disabled": 0, "is_reserved": 0, "fusion_lat": 0.0, "lat": 38.92781033333333, "fusion_lon": 0.0, "rental_uris": {"ios": "https://dc.lft.to/lastmile_qr_scan", "android": "https://dc.lft.to/lastmile_qr_scan"}, "lon": -77.027288, "bike_id": "9fb121690fe9adf34a68c6760b7b0d76", "type": "electric_scooter", "name": "9fb121690fe9adf34a68c6760b7b0d76"}, {"is_disabled": 0, "is_reserved": 0, "fusion_lat": 0.0, "lat": 38.87657633333333, "fusion_lon": 0.0, "rental_uris": {"ios": "https://dc.lft.to/lastmile_qr_scan", "android": "https://dc.lft.to/lastmile_qr_scan"}, "lon": -77.00887483333334, "bike_id": "d99dfd1c6090bcbe8640a7653fa181e3", "type": "electric_scooter", "name": "d99dfd1c6090bcbe8640a7653fa181e3"}, {"is_disabled": 0, "is_reserved": 0, "fusion_lat": 0.0, "lat": 38.8836435, "fusion_lon": 0.0, "rental_uris": {"ios": "https://dc.lft.to/lastmile_qr_scan", "android": "https://dc.lft.to/lastmile_qr_scan"}, "lon": -76.92792566666667, "bike_id": "15c7fcfbb90d5a47ca4567a4eda44815", "type": "electric_scooter", "name": "15c7fcfbb90d5a47ca4567a4eda44815"}, {"is_disabled": 0, "is_reserved": 0, "fusion_lat": 0.0, "lat": 38.9132675, "fusion_lon": 0.0, "rental_uris": {"ios": "https://dc.lft.to/lastmile_qr_scan", "android": "https://dc.lft.to/lastmile_qr_scan"}, "lon": -77.032659, "bike_id": "8ef2894a0d619bea48b0880b91c95724", "type": "electric_scooter", "name": "8ef2894a0d619bea48b0880b91c95724"}, {"is_disabled": 0, "is_reserved": 0, "fusion_lat": 0.0, "lat": 38.92867416666667, "fusion_lon": 0.0, "rental_uris": {"ios": "https://dc.lft.to/lastmile_qr_scan", "android": "https://dc.lft.to/lastmile_qr_scan"}, "lon": -77.07893816666666, "bike_id": "b27084de87abe07ddf28d79ace49c6b2", "type": "electric_scooter", "name": "b27084de87abe07ddf28d79ace49c6b2"}, {"is_disabled": 0, "is_reserved": 0, "fusion_lat": 0.0, "lat": 38.90268716666667, "fusion_lon": 0.0, "rental_uris": {"ios": "https://dc.lft.to/lastmile_qr_scan", "android": "https://dc.lft.to/lastmile_qr_scan"}, "lon": -76.9285335, "bike_id": "caa560e2513be26a228d22e181118309", "type": "electric_scooter", "name": "caa560e2513be26a228d22e181118309"}, {"is_disabled": 0, "is_reserved": 0, "fusion_lat": 0.0, "lat": 38.90194733333333, "fusion_lon": 0.0, "rental_uris": {"ios": "https://dc.lft.to/lastmile_qr_scan", "android": "https://dc.lft.to/lastmile_qr_scan"}, "lon": -77.025157, "bike_id": "e52c8dd8d15ebdd5b1fad077a0ff68f0", "type": "electric_scooter", "name": "e52c8dd8d15ebdd5b1fad077a0ff68f0"}, {"is_disabled": 0, "is_reserved": 0, "fusion_lat": 0.0, "lat": 38.9112305, "fusion_lon": 0.0, "rental_uris": {"ios": "https://dc.lft.to/lastmile_qr_scan", "android": "https://dc.lft.to/lastmile_qr_scan"}, "lon": -77.04258683333333, "bike_id": "9db6f2d37f8eb8b97ca845fe80fc396f", "type": "electric_scooter", "name": "9db6f2d37f8eb8b97ca845fe80fc396f"}, {"is_disabled": 0, "is_reserved": 0, "fusion_lat": 0.0, "lat": 38.924587, "fusion_lon": 0.0, "rental_uris": {"ios": "https://dc.lft.to/lastmile_qr_scan", "android": "https://dc.lft.to/lastmile_qr_scan"}, "lon": -77.00210433333334, "bike_id": "bd84d5fed7ec68f6a2edbcba1566892b", "type": "electric_bike", "name": "bd84d5fed7ec68f6a2edbcba1566892b"}, {"is_disabled": 0, "is_reserved": 0, "fusion_lat": 0.0, "lat": 38.89250333333333, "fusion_lon": 0.0, "rental_uris": {"ios": "https://dc.lft.to/lastmile_qr_scan", "android": "https://dc.lft.to/lastmile_qr_scan"}, "lon": -77.03957833333334, "bike_id": "a304159f464c78f483e210590abae118", "type": "electric_scooter", "name": "a304159f464c78f483e210590abae118"}, {"is_disabled": 0, "is_reserved": 0, "fusion_lat": 0.0, "lat": 38.858068833333334, "fusion_lon": 0.0, "rental_uris": {"ios": "https://dc.lft.to/lastmile_qr_scan", "android": "https://dc.lft.to/lastmile_qr_scan"}, "lon": -76.98753916666666, "bike_id": "85177e6c8702e1a84e66ae51b086efae", "type": "electric_bike", "name": "85177e6c8702e1a84e66ae51b086efae"}, {"is_disabled": 0, "is_reserved": 0, "fusion_lat": 0.0, "lat": 38.9268625, "fusion_lon": 0.0, "rental_uris": {"ios": "https://dc.lft.to/lastmile_qr_scan", "android": "https://dc.lft.to/lastmile_qr_scan"}, "lon": -77.00861416666666, "bike_id": "e5025b0dc0305c2feaef617326b6b2bf", "type": "electric_scooter", "name": "e5025b0dc0305c2feaef617326b6b2bf"}, {"is_disabled": 0, "is_reserved": 0, "fusion_lat": 0.0, "lat": 39.026255666666664, "fusion_lon": 0.0, "rental_uris": {"ios": "https://dc.lft.to/lastmile_qr_scan", "android": "https://dc.lft.to/lastmile_qr_scan"}, "lon": -77.03878716666667, "bike_id": "69a17c6c9abb1c579f82fdaeb03cd92d", "type": "electric_bike", "name": "69a17c6c9abb1c579f82fdaeb03cd92d"}, {"is_disabled": 0, "is_reserved": 0, "fusion_lat": 0.0, "lat": 38.90509483333334, "fusion_lon": 0.0, "rental_uris": {"ios": "https://dc.lft.to/lastmile_qr_scan", "android": "https://dc.lft.to/lastmile_qr_scan"}, "lon": -77.02950133333333, "bike_id": "134cc612e25cf6d480f79f133554ec96", "type": "electric_bike", "name": "134cc612e25cf6d480f79f133554ec96"}, {"is_disabled": 0, "is_reserved": 0, "fusion_lat": 0.0, "lat": 38.909787333333334, "fusion_lon": 0.0, "rental_uris": {"ios": "https://dc.lft.to/lastmile_qr_scan", "android": "https://dc.lft.to/lastmile_qr_scan"}, "lon": -77.03376666666666, "bike_id": "3b6a9703c136f3b22fc8d85366bb7849", "type": "electric_scooter", "name": "3b6a9703c136f3b22fc8d85366bb7849"}, {"is_disabled": 0, "is_reserved": 0, "fusion_lat": 0.0, "lat": 38.88362133333333, "fusion_lon": 0.0, "rental_uris": {"ios": "https://dc.lft.to/lastmile_qr_scan", "android": "https://dc.lft.to/lastmile_qr_scan"}, "lon": -76.9577005, "bike_id": "22a36b25d28eef649e77e2710b91637d", "type": "electric_scooter", "name": "22a36b25d28eef649e77e2710b91637d"}, {"is_disabled": 0, "is_reserved": 0, "fusion_lat": 0.0, "lat": 38.94262533333333, "fusion_lon": 0.0, "rental_uris": {"ios": "https://dc.lft.to/lastmile_qr_scan", "android": "https://dc.lft.to/lastmile_qr_scan"}, "lon": -76.98453116666667, "bike_id": "77bc8a65bf76939a420210ed94640a26", "type": "electric_scooter", "name": "77bc8a65bf76939a420210ed94640a26"}, {"is_disabled": 0, "is_reserved": 0, "fusion_lat": 0.0, "lat": 38.896760666666665, "fusion_lon": 0.0, "rental_uris": {"ios": "https://dc.lft.to/lastmile_qr_scan", "android": "https://dc.lft.to/lastmile_qr_scan"}, "lon": -77.05109416666667, "bike_id": "ae5448feef382fd35eb6064492ef02fe", "type": "electric_scooter", "name": "ae5448feef382fd35eb6064492ef02fe"}, {"is_disabled": 0, "is_reserved": 0, "fusion_lat": 0.0, "lat": 38.9244765, "fusion_lon": 0.0, "rental_uris": {"ios": "https://dc.lft.to/lastmile_qr_scan", "android": "https://dc.lft.to/lastmile_qr_scan"}, "lon": -77.03896333333333, "bike_id": "b394880de304211cad758fe79fad03de", "type": "electric_scooter", "name": "b394880de304211cad758fe79fad03de"}, {"is_disabled": 0, "is_reserved": 0, "fusion_lat": 0.0, "lat": 38.8862475, "fusion_lon": 0.0, "rental_uris": {"ios": "https://dc.lft.to/lastmile_qr_scan", "android": "https://dc.lft.to/lastmile_qr_scan"}, "lon": -76.99019116666666, "bike_id": "4a5faa584e1f151266669ffa53f05379", "type": "electric_bike", "name": "4a5faa584e1f151266669ffa53f05379"}, {"is_disabled": 0, "is_reserved": 0, "fusion_lat": 0.0, "lat": 38.9069815, "fusion_lon": 0.0, "rental_uris": {"ios": "https://dc.lft.to/lastmile_qr_scan", "android": "https://dc.lft.to/lastmile_qr_scan"}, "lon": -76.95253183333334, "bike_id": "035d0f86e9fd872657c1a3b3e5ba99af", "type": "electric_bike", "name": "035d0f86e9fd872657c1a3b3e5ba99af"}, {"is_disabled": 0, "is_reserved": 0, "fusion_lat": 0.0, "lat": 38.94721883333333, "fusion_lon": 0.0, "rental_uris": {"ios": "https://dc.lft.to/lastmile_qr_scan", "android": "https://dc.lft.to/lastmile_qr_scan"}, "lon": -77.068066, "bike_id": "1591141e43df6326a85d3470958b8136", "type": "electric_scooter", "name": "1591141e43df6326a85d3470958b8136"}, {"is_disabled": 0, "is_reserved": 0, "fusion_lat": 0.0, "lat": 38.957101, "fusion_lon": 0.0, "rental_uris": {"ios": "https://dc.lft.to/lastmile_qr_scan", "android": "https://dc.lft.to/lastmile_qr_scan"}, "lon": -77.359738, "bike_id": "59bc78faf48d7cbc8c5503c2b0cf2d9d", "type": "electric_bike", "name": "59bc78faf48d7cbc8c5503c2b0cf2d9d"}, {"is_disabled": 0, "is_reserved": 0, "fusion_lat": 0.0, "lat": 38.88392366666667, "fusion_lon": 0.0, "rental_uris": {"ios": "https://dc.lft.to/lastmile_qr_scan", "android": "https://dc.lft.to/lastmile_qr_scan"}, "lon": -76.930392, "bike_id": "fd88dd8691197656fa4d9617a41375b6", "type": "electric_scooter", "name": "fd88dd8691197656fa4d9617a41375b6"}, {"is_disabled": 0, "is_reserved": 0, "fusion_lat": 0.0, "lat": 39.0843335, "fusion_lon": 0.0, "rental_uris": {"ios": "https://dc.lft.to/lastmile_qr_scan", "android": "https://dc.lft.to/lastmile_qr_scan"}, "lon": -76.95140516666666, "bike_id": "2130f2e053859f33f775b1fea277945f", "type": "electric_bike", "name": "2130f2e053859f33f775b1fea277945f"}, {"is_disabled": 0, "is_reserved": 0, "fusion_lat": 0.0, "lat": 38.88451666666667, "fusion_lon": 0.0, "rental_uris": {"ios": "https://dc.lft.to/lastmile_qr_scan", "android": "https://dc.lft.to/lastmile_qr_scan"}, "lon": -77.008974, "bike_id": "a0bfcae1b494df52e7b0e154ea27a3dc", "type": "electric_scooter", "name": "a0bfcae1b494df52e7b0e154ea27a3dc"}, {"is_disabled": 0, "is_reserved": 0, "fusion_lat": 0.0, "lat": 38.908593833333335, "fusion_lon": 0.0, "rental_uris": {"ios": "https://dc.lft.to/lastmile_qr_scan", "android": "https://dc.lft.to/lastmile_qr_scan"}, "lon": -77.00079266666667, "bike_id": "794ee300b774cd0ef9daf0b13ef8d8c7", "type": "electric_scooter", "name": "794ee300b774cd0ef9daf0b13ef8d8c7"}, {"is_disabled": 0, "is_reserved": 0, "fusion_lat": 0.0, "lat": 38.9178, "fusion_lon": 0.0, "rental_uris": {"ios": "https://dc.lft.to/lastmile_qr_scan", "android": "https://dc.lft.to/lastmile_qr_scan"}, "lon": -77.026916, "bike_id": "adc41da0a437c7f9b3f6589924cffe35", "type": "electric_scooter", "name": "adc41da0a437c7f9b3f6589924cffe35"}, {"is_disabled": 0, "is_reserved": 0, "fusion_lat": 0.0, "lat": 38.88376083333333, "fusion_lon": 0.0, "rental_uris": {"ios": "https://dc.lft.to/lastmile_qr_scan", "android": "https://dc.lft.to/lastmile_qr_scan"}, "lon": -76.92370016666666, "bike_id": "2c1b2af425b449dd96491fbb8913d094", "type": "electric_bike", "name": "2c1b2af425b449dd96491fbb8913d094"}, {"is_disabled": 0, "is_reserved": 0, "fusion_lat": 0.0, "lat": 38.924935833333336, "fusion_lon": 0.0, "rental_uris": {"ios": "https://dc.lft.to/lastmile_qr_scan", "android": "https://dc.lft.to/lastmile_qr_scan"}, "lon": -77.0269215, "bike_id": "67c5f139edf244845be7b5e36f2b1f95", "type": "electric_scooter", "name": "67c5f139edf244845be7b5e36f2b1f95"}, {"is_disabled": 0, "is_reserved": 0, "fusion_lat": 0.0, "lat": 38.892617666666666, "fusion_lon": 0.0, "rental_uris": {"ios": "https://dc.lft.to/lastmile_qr_scan", "android": "https://dc.lft.to/lastmile_qr_scan"}, "lon": -77.05020716666667, "bike_id": "4b6850988829458af433db25a1c5e81d", "type": "electric_scooter", "name": "4b6850988829458af433db25a1c5e81d"}, {"is_disabled": 0, "is_reserved": 0, "fusion_lat": 0.0, "lat": 38.9374075, "fusion_lon": 0.0, "rental_uris": {"ios": "https://dc.lft.to/lastmile_qr_scan", "android": "https://dc.lft.to/lastmile_qr_scan"}, "lon": -77.073593, "bike_id": "35929812107d0aaa39e9259333aa0508", "type": "electric_scooter", "name": "35929812107d0aaa39e9259333aa0508"}, {"is_disabled": 0, "is_reserved": 0, "fusion_lat": 0.0, "lat": 38.85906633333333, "fusion_lon": 0.0, "rental_uris": {"ios": "https://dc.lft.to/lastmile_qr_scan", "android": "https://dc.lft.to/lastmile_qr_scan"}, "lon": -77.09557933333333, "bike_id": "180ca8f14a27fb90dd9ada01e9e97fe3", "type": "electric_bike", "name": "180ca8f14a27fb90dd9ada01e9e97fe3"}, {"is_disabled": 0, "is_reserved": 0, "fusion_lat": 0.0, "lat": 38.88485883333333, "fusion_lon": 0.0, "rental_uris": {"ios": "https://dc.lft.to/lastmile_qr_scan", "android": "https://dc.lft.to/lastmile_qr_scan"}, "lon": -77.03173166666667, "bike_id": "805c0cb6817d884348071b94708fff21", "type": "electric_bike", "name": "805c0cb6817d884348071b94708fff21"}, {"is_disabled": 0, "is_reserved": 0, "fusion_lat": 0.0, "lat": 38.947959, "fusion_lon": 0.0, "rental_uris": {"ios": "https://dc.lft.to/lastmile_qr_scan", "android": "https://dc.lft.to/lastmile_qr_scan"}, "lon": -77.078897, "bike_id": "e73c8a878cfcccc55d64e94eddf65152", "type": "electric_scooter", "name": "e73c8a878cfcccc55d64e94eddf65152"}, {"is_disabled": 0, "is_reserved": 0, "fusion_lat": 0.0, "lat": 38.922824166666665, "fusion_lon": 0.0, "rental_uris": {"ios": "https://dc.lft.to/lastmile_qr_scan", "android": "https://dc.lft.to/lastmile_qr_scan"}, "lon": -77.02974883333333, "bike_id": "6b1a70a2d0d9b249c5efcb1daaf3d24d", "type": "electric_scooter", "name": "6b1a70a2d0d9b249c5efcb1daaf3d24d"}, {"is_disabled": 0, "is_reserved": 0, "fusion_lat": 0.0, "lat": 38.92677283333333, "fusion_lon": 0.0, "rental_uris": {"ios": "https://dc.lft.to/lastmile_qr_scan", "android": "https://dc.lft.to/lastmile_qr_scan"}, "lon": -77.01473683333333, "bike_id": "4220cb20159261839103893e4c60164c", "type": "electric_scooter", "name": "4220cb20159261839103893e4c60164c"}, {"is_disabled": 0, "is_reserved": 0, "fusion_lat": 0.0, "lat": 38.96386716666667, "fusion_lon": 0.0, "rental_uris": {"ios": "https://dc.lft.to/lastmile_qr_scan", "android": "https://dc.lft.to/lastmile_qr_scan"}, "lon": -77.01976833333333, "bike_id": "2dda596948ca68cae1dd393652806e73", "type": "electric_bike", "name": "2dda596948ca68cae1dd393652806e73"}, {"is_disabled": 0, "is_reserved": 0, "fusion_lat": 0.0, "lat": 38.87942, "fusion_lon": 0.0, "rental_uris": {"ios": "https://dc.lft.to/lastmile_qr_scan", "android": "https://dc.lft.to/lastmile_qr_scan"}, "lon": -77.00412616666667, "bike_id": "202204644932868197537d1059e1353d", "type": "electric_scooter", "name": "202204644932868197537d1059e1353d"}, {"is_disabled": 0, "is_reserved": 0, "fusion_lat": 0.0, "lat": 38.95104, "fusion_lon": 0.0, "rental_uris": {"ios": "https://dc.lft.to/lastmile_qr_scan", "android": "https://dc.lft.to/lastmile_qr_scan"}, "lon": -77.02195116666667, "bike_id": "76fd3d05fb51d953930acd8678438c91", "type": "electric_scooter", "name": "76fd3d05fb51d953930acd8678438c91"}, {"is_disabled": 0, "is_reserved": 0, "fusion_lat": 0.0, "lat": 38.917726, "fusion_lon": 0.0, "rental_uris": {"ios": "https://dc.lft.to/lastmile_qr_scan", "android": "https://dc.lft.to/lastmile_qr_scan"}, "lon": -77.0233945, "bike_id": "0d0272d18f80f4a8668ef16a71e94063", "type": "electric_scooter", "name": "0d0272d18f80f4a8668ef16a71e94063"}, {"is_disabled": 0, "is_reserved": 0, "fusion_lat": 0.0, "lat": 38.848123333333334, "fusion_lon": 0.0, "rental_uris": {"ios": "https://dc.lft.to/lastmile_qr_scan", "android": "https://dc.lft.to/lastmile_qr_scan"}, "lon": -77.0841515, "bike_id": "8d7a500e9ae01503c6697556d6e7bc46", "type": "electric_bike", "name": "8d7a500e9ae01503c6697556d6e7bc46"}, {"is_disabled": 0, "is_reserved": 0, "fusion_lat": 0.0, "lat": 38.9179155, "fusion_lon": 0.0, "rental_uris": {"ios": "https://dc.lft.to/lastmile_qr_scan", "android": "https://dc.lft.to/lastmile_qr_scan"}, "lon": -77.0317545, "bike_id": "5aa14d79b1fcea7a0881f8559052570a", "type": "electric_scooter", "name": "5aa14d79b1fcea7a0881f8559052570a"}, {"is_disabled": 0, "is_reserved": 0, "fusion_lat": 0.0, "lat": 38.908530166666665, "fusion_lon": 0.0, "rental_uris": {"ios": "https://dc.lft.to/lastmile_qr_scan", "android": "https://dc.lft.to/lastmile_qr_scan"}, "lon": -77.00073683333333, "bike_id": "b1f16f2b6de2f345f094313c48651b3c", "type": "electric_scooter", "name": "b1f16f2b6de2f345f094313c48651b3c"}, {"is_disabled": 0, "is_reserved": 0, "fusion_lat": 0.0, "lat": 38.934672666666664, "fusion_lon": 0.0, "rental_uris": {"ios": "https://dc.lft.to/lastmile_qr_scan", "android": "https://dc.lft.to/lastmile_qr_scan"}, "lon": -77.02407316666667, "bike_id": "5bcc014e7ee66366bbb50b4c723eaa79", "type": "electric_scooter", "name": "5bcc014e7ee66366bbb50b4c723eaa79"}, {"is_disabled": 0, "is_reserved": 0, "fusion_lat": 0.0, "lat": 38.892023, "fusion_lon": 0.0, "rental_uris": {"ios": "https://dc.lft.to/lastmile_qr_scan", "android": "https://dc.lft.to/lastmile_qr_scan"}, "lon": -77.03178333333334, "bike_id": "8f7792a5001372a5996b11f3377a25f8", "type": "electric_scooter", "name": "8f7792a5001372a5996b11f3377a25f8"}, {"is_disabled": 0, "is_reserved": 0, "fusion_lat": 0.0, "lat": 38.920568333333335, "fusion_lon": 0.0, "rental_uris": {"ios": "https://dc.lft.to/lastmile_qr_scan", "android": "https://dc.lft.to/lastmile_qr_scan"}, "lon": -76.9988315, "bike_id": "076c94f6b89ae81a0155310caecba5fa", "type": "electric_scooter", "name": "076c94f6b89ae81a0155310caecba5fa"}, {"is_disabled": 0, "is_reserved": 0, "fusion_lat": 0.0, "lat": 38.9324945, "fusion_lon": 0.0, "rental_uris": {"ios": "https://dc.lft.to/lastmile_qr_scan", "android": "https://dc.lft.to/lastmile_qr_scan"}, "lon": -77.0293585, "bike_id": "5e6a165409e0c9d1fc74db567e96cec4", "type": "electric_scooter", "name": "5e6a165409e0c9d1fc74db567e96cec4"}, {"is_disabled": 0, "is_reserved": 0, "fusion_lat": 0.0, "lat": 38.92559883333333, "fusion_lon": 0.0, "rental_uris": {"ios": "https://dc.lft.to/lastmile_qr_scan", "android": "https://dc.lft.to/lastmile_qr_scan"}, "lon": -77.037788, "bike_id": "3b9252ce4d7e8b53197c021e58ba5155", "type": "electric_scooter", "name": "3b9252ce4d7e8b53197c021e58ba5155"}, {"is_disabled": 0, "is_reserved": 0, "fusion_lat": 0.0, "lat": 38.922653833333335, "fusion_lon": 0.0, "rental_uris": {"ios": "https://dc.lft.to/lastmile_qr_scan", "android": "https://dc.lft.to/lastmile_qr_scan"}, "lon": -77.03657533333333, "bike_id": "7a978df42eb2932c11e917a27e47f3b7", "type": "electric_scooter", "name": "7a978df42eb2932c11e917a27e47f3b7"}, {"is_disabled": 0, "is_reserved": 0, "fusion_lat": 0.0, "lat": 38.92206316666667, "fusion_lon": 0.0, "rental_uris": {"ios": "https://dc.lft.to/lastmile_qr_scan", "android": "https://dc.lft.to/lastmile_qr_scan"}, "lon": -77.02045116666666, "bike_id": "e3c09e2c41714ad5850e20f579b25b80", "type": "electric_scooter", "name": "e3c09e2c41714ad5850e20f579b25b80"}, {"is_disabled": 0, "is_reserved": 0, "fusion_lat": 0.0, "lat": 38.8952305, "fusion_lon": 0.0, "rental_uris": {"ios": "https://dc.lft.to/lastmile_qr_scan", "android": "https://dc.lft.to/lastmile_qr_scan"}, "lon": -76.98112716666667, "bike_id": "4d4b6bb17bc49d07081e63c85d42c059", "type": "electric_scooter", "name": "4d4b6bb17bc49d07081e63c85d42c059"}, {"is_disabled": 0, "is_reserved": 0, "fusion_lat": 0.0, "lat": 38.88622983333333, "fusion_lon": 0.0, "rental_uris": {"ios": "https://dc.lft.to/lastmile_qr_scan", "android": "https://dc.lft.to/lastmile_qr_scan"}, "lon": -76.9263555, "bike_id": "5c7373b72d5375ced3144e862636c4db", "type": "electric_scooter", "name": "5c7373b72d5375ced3144e862636c4db"}, {"is_disabled": 0, "is_reserved": 0, "fusion_lat": 0.0, "lat": 38.92055766666667, "fusion_lon": 0.0, "rental_uris": {"ios": "https://dc.lft.to/lastmile_qr_scan", "android": "https://dc.lft.to/lastmile_qr_scan"}, "lon": -77.031344, "bike_id": "7fe9c735c26c625818a5c6b0c84633b6", "type": "electric_scooter", "name": "7fe9c735c26c625818a5c6b0c84633b6"}, {"is_disabled": 0, "is_reserved": 0, "fusion_lat": 0.0, "lat": 39.02647433333333, "fusion_lon": 0.0, "rental_uris": {"ios": "https://dc.lft.to/lastmile_qr_scan", "android": "https://dc.lft.to/lastmile_qr_scan"}, "lon": -77.03686066666667, "bike_id": "cfd45d80fd36be080f349ce1add97316", "type": "electric_bike", "name": "cfd45d80fd36be080f349ce1add97316"}, {"is_disabled": 0, "is_reserved": 0, "fusion_lat": 0.0, "lat": 38.914214333333334, "fusion_lon": 0.0, "rental_uris": {"ios": "https://dc.lft.to/lastmile_qr_scan", "android": "https://dc.lft.to/lastmile_qr_scan"}, "lon": -77.05214, "bike_id": "3244f566b4b1cba8b9ebdc86aca632c7", "type": "electric_scooter", "name": "3244f566b4b1cba8b9ebdc86aca632c7"}, {"is_disabled": 0, "is_reserved": 0, "fusion_lat": 0.0, "lat": 38.916600333333335, "fusion_lon": 0.0, "rental_uris": {"ios": "https://dc.lft.to/lastmile_qr_scan", "android": "https://dc.lft.to/lastmile_qr_scan"}, "lon": -77.04698683333334, "bike_id": "a40cec86849b47344996524d7c519965", "type": "electric_bike", "name": "a40cec86849b47344996524d7c519965"}, {"is_disabled": 0, "is_reserved": 0, "fusion_lat": 0.0, "lat": 38.943325333333334, "fusion_lon": 0.0, "rental_uris": {"ios": "https://dc.lft.to/lastmile_qr_scan", "android": "https://dc.lft.to/lastmile_qr_scan"}, "lon": -77.02692466666667, "bike_id": "d50c9dbd54864acb00a9908625151c59", "type": "electric_scooter", "name": "d50c9dbd54864acb00a9908625151c59"}, {"is_disabled": 0, "is_reserved": 0, "fusion_lat": 0.0, "lat": 38.901449166666666, "fusion_lon": 0.0, "rental_uris": {"ios": "https://dc.lft.to/lastmile_qr_scan", "android": "https://dc.lft.to/lastmile_qr_scan"}, "lon": -76.9740305, "bike_id": "ded7359d0ab7c7f68a0caa3804125a22", "type": "electric_scooter", "name": "ded7359d0ab7c7f68a0caa3804125a22"}, {"is_disabled": 0, "is_reserved": 0, "fusion_lat": 0.0, "lat": 38.897019, "fusion_lon": 0.0, "rental_uris": {"ios": "https://dc.lft.to/lastmile_qr_scan", "android": "https://dc.lft.to/lastmile_qr_scan"}, "lon": -77.0241935, "bike_id": "b9a07ca19359cb57d8d1ff8462e8fcf6", "type": "electric_bike", "name": "b9a07ca19359cb57d8d1ff8462e8fcf6"}, {"is_disabled": 0, "is_reserved": 0, "fusion_lat": 0.0, "lat": 38.92768233333334, "fusion_lon": 0.0, "rental_uris": {"ios": "https://dc.lft.to/lastmile_qr_scan", "android": "https://dc.lft.to/lastmile_qr_scan"}, "lon": -77.05271016666667, "bike_id": "be0c8e957d37108280aeddd1b4d2913b", "type": "electric_scooter", "name": "be0c8e957d37108280aeddd1b4d2913b"}, {"is_disabled": 0, "is_reserved": 0, "fusion_lat": 0.0, "lat": 38.90514866666667, "fusion_lon": 0.0, "rental_uris": {"ios": "https://dc.lft.to/lastmile_qr_scan", "android": "https://dc.lft.to/lastmile_qr_scan"}, "lon": -76.95204916666667, "bike_id": "088f1a418b0d87d6fbaa0678642dabfe", "type": "electric_scooter", "name": "088f1a418b0d87d6fbaa0678642dabfe"}, {"is_disabled": 0, "is_reserved": 0, "fusion_lat": 0.0, "lat": 38.9117585, "fusion_lon": 0.0, "rental_uris": {"ios": "https://dc.lft.to/lastmile_qr_scan", "android": "https://dc.lft.to/lastmile_qr_scan"}, "lon": -77.02827416666666, "bike_id": "7afa7dce825e48f0f3b25089d049c577", "type": "electric_scooter", "name": "7afa7dce825e48f0f3b25089d049c577"}, {"is_disabled": 0, "is_reserved": 0, "fusion_lat": 0.0, "lat": 38.906182, "fusion_lon": 0.0, "rental_uris": {"ios": "https://dc.lft.to/lastmile_qr_scan", "android": "https://dc.lft.to/lastmile_qr_scan"}, "lon": -77.12895783333333, "bike_id": "de5d40b1dad7741611f63e16083a6b81", "type": "electric_bike", "name": "de5d40b1dad7741611f63e16083a6b81"}, {"is_disabled": 0, "is_reserved": 0, "fusion_lat": 0.0, "lat": 38.9344835, "fusion_lon": 0.0, "rental_uris": {"ios": "https://dc.lft.to/lastmile_qr_scan", "android": "https://dc.lft.to/lastmile_qr_scan"}, "lon": -77.02979866666666, "bike_id": "4aa7e2c78557e2512dfdfefa555ea6ed", "type": "electric_scooter", "name": "4aa7e2c78557e2512dfdfefa555ea6ed"}, {"is_disabled": 0, "is_reserved": 0, "fusion_lat": 0.0, "lat": 38.933812, "fusion_lon": 0.0, "rental_uris": {"ios": "https://dc.lft.to/lastmile_qr_scan", "android": "https://dc.lft.to/lastmile_qr_scan"}, "lon": -77.02724116666667, "bike_id": "23704b28c78ff1d6160c710d34212c84", "type": "electric_scooter", "name": "23704b28c78ff1d6160c710d34212c84"}, {"is_disabled": 0, "is_reserved": 0, "fusion_lat": 0.0, "lat": 38.90609083333333, "fusion_lon": 0.0, "rental_uris": {"ios": "https://dc.lft.to/lastmile_qr_scan", "android": "https://dc.lft.to/lastmile_qr_scan"}, "lon": -77.056533, "bike_id": "a2acf6cbf8de9eb362e0938e312cf4fb", "type": "electric_scooter", "name": "a2acf6cbf8de9eb362e0938e312cf4fb"}, {"is_disabled": 0, "is_reserved": 0, "fusion_lat": 0.0, "lat": 38.90036516666667, "fusion_lon": 0.0, "rental_uris": {"ios": "https://dc.lft.to/lastmile_qr_scan", "android": "https://dc.lft.to/lastmile_qr_scan"}, "lon": -77.00377333333333, "bike_id": "90eb4a8b1478d342e6f88446eac073d4", "type": "electric_scooter", "name": "90eb4a8b1478d342e6f88446eac073d4"}, {"is_disabled": 0, "is_reserved": 0, "fusion_lat": 0.0, "lat": 38.892311, "fusion_lon": 0.0, "rental_uris": {"ios": "https://dc.lft.to/lastmile_qr_scan", "android": "https://dc.lft.to/lastmile_qr_scan"}, "lon": -77.043348, "bike_id": "0d332208f85f9e2481ea4fe47ec15397", "type": "electric_scooter", "name": "0d332208f85f9e2481ea4fe47ec15397"}, {"is_disabled": 0, "is_reserved": 0, "fusion_lat": 0.0, "lat": 38.90269883333333, "fusion_lon": 0.0, "rental_uris": {"ios": "https://dc.lft.to/lastmile_qr_scan", "android": "https://dc.lft.to/lastmile_qr_scan"}, "lon": -77.01158033333333, "bike_id": "4a382d73aab072dd834a261a63983813", "type": "electric_scooter", "name": "4a382d73aab072dd834a261a63983813"}, {"is_disabled": 0, "is_reserved": 0, "fusion_lat": 0.0, "lat": 38.91976066666667, "fusion_lon": 0.0, "rental_uris": {"ios": "https://dc.lft.to/lastmile_qr_scan", "android": "https://dc.lft.to/lastmile_qr_scan"}, "lon": -77.00211883333333, "bike_id": "a23d7cac518d58b23baaaa9a996abc70", "type": "electric_scooter", "name": "a23d7cac518d58b23baaaa9a996abc70"}, {"is_disabled": 0, "is_reserved": 0, "fusion_lat": 0.0, "lat": 38.933629833333335, "fusion_lon": 0.0, "rental_uris": {"ios": "https://dc.lft.to/lastmile_qr_scan", "android": "https://dc.lft.to/lastmile_qr_scan"}, "lon": -77.02646166666666, "bike_id": "e3610ef271def20214b97e7495e26dfb", "type": "electric_scooter", "name": "e3610ef271def20214b97e7495e26dfb"}, {"is_disabled": 0, "is_reserved": 0, "fusion_lat": 0.0, "lat": 38.921135166666666, "fusion_lon": 0.0, "rental_uris": {"ios": "https://dc.lft.to/lastmile_qr_scan", "android": "https://dc.lft.to/lastmile_qr_scan"}, "lon": -77.0469505, "bike_id": "685cd0fc4161cfcbcda5fe426a6965a0", "type": "electric_scooter", "name": "685cd0fc4161cfcbcda5fe426a6965a0"}, {"is_disabled": 0, "is_reserved": 0, "fusion_lat": 0.0, "lat": 38.92225666666667, "fusion_lon": 0.0, "rental_uris": {"ios": "https://dc.lft.to/lastmile_qr_scan", "android": "https://dc.lft.to/lastmile_qr_scan"}, "lon": -77.02037483333334, "bike_id": "87e651cb7f81bca0f452d7ac67e24291", "type": "electric_scooter", "name": "87e651cb7f81bca0f452d7ac67e24291"}, {"is_disabled": 0, "is_reserved": 0, "fusion_lat": 0.0, "lat": 38.936002, "fusion_lon": 0.0, "rental_uris": {"ios": "https://dc.lft.to/lastmile_qr_scan", "android": "https://dc.lft.to/lastmile_qr_scan"}, "lon": -77.05600933333334, "bike_id": "47772bdfdc7c8b01a9e35434e10290b1", "type": "electric_scooter", "name": "47772bdfdc7c8b01a9e35434e10290b1"}, {"is_disabled": 0, "is_reserved": 0, "fusion_lat": 0.0, "lat": 38.835892666666666, "fusion_lon": 0.0, "rental_uris": {"ios": "https://dc.lft.to/lastmile_qr_scan", "android": "https://dc.lft.to/lastmile_qr_scan"}, "lon": -76.99015183333333, "bike_id": "6b6d5d6422286072d70624e92423dcc3", "type": "electric_bike", "name": "6b6d5d6422286072d70624e92423dcc3"}, {"is_disabled": 0, "is_reserved": 0, "fusion_lat": 0.0, "lat": 38.89501883333333, "fusion_lon": 0.0, "rental_uris": {"ios": "https://dc.lft.to/lastmile_qr_scan", "android": "https://dc.lft.to/lastmile_qr_scan"}, "lon": -76.97414833333333, "bike_id": "afd553ea3b031147dcc39223aca4512b", "type": "electric_scooter", "name": "afd553ea3b031147dcc39223aca4512b"}, {"is_disabled": 0, "is_reserved": 0, "fusion_lat": 0.0, "lat": 38.850716, "fusion_lon": 0.0, "rental_uris": {"ios": "https://dc.lft.to/lastmile_qr_scan", "android": "https://dc.lft.to/lastmile_qr_scan"}, "lon": -76.98173, "bike_id": "95e34370749b8465ed0f6e2d7ea6295e", "type": "electric_bike", "name": "95e34370749b8465ed0f6e2d7ea6295e"}, {"is_disabled": 0, "is_reserved": 0, "fusion_lat": 0.0, "lat": 38.9175125, "fusion_lon": 0.0, "rental_uris": {"ios": "https://dc.lft.to/lastmile_qr_scan", "android": "https://dc.lft.to/lastmile_qr_scan"}, "lon": -77.01084333333333, "bike_id": "c82d1ec5c77380144d99dad58915bf80", "type": "electric_scooter", "name": "c82d1ec5c77380144d99dad58915bf80"}, {"is_disabled": 0, "is_reserved": 0, "fusion_lat": 0.0, "lat": 38.91192266666667, "fusion_lon": 0.0, "rental_uris": {"ios": "https://dc.lft.to/lastmile_qr_scan", "android": "https://dc.lft.to/lastmile_qr_scan"}, "lon": -77.04452966666666, "bike_id": "b9043bd7c25455ef32afb4b6e40fe048", "type": "electric_scooter", "name": "b9043bd7c25455ef32afb4b6e40fe048"}, {"is_disabled": 0, "is_reserved": 0, "fusion_lat": 0.0, "lat": 38.895195666666666, "fusion_lon": 0.0, "rental_uris": {"ios": "https://dc.lft.to/lastmile_qr_scan", "android": "https://dc.lft.to/lastmile_qr_scan"}, "lon": -77.023038, "bike_id": "9dd747b37df09fb23718ed53d52783bc", "type": "electric_scooter", "name": "9dd747b37df09fb23718ed53d52783bc"}, {"is_disabled": 0, "is_reserved": 0, "fusion_lat": 0.0, "lat": 38.896117333333336, "fusion_lon": 0.0, "rental_uris": {"ios": "https://dc.lft.to/lastmile_qr_scan", "android": "https://dc.lft.to/lastmile_qr_scan"}, "lon": -76.99807533333333, "bike_id": "e9210c2e824b6671ca182ec6574cb3fa", "type": "electric_scooter", "name": "e9210c2e824b6671ca182ec6574cb3fa"}, {"is_disabled": 0, "is_reserved": 0, "fusion_lat": 0.0, "lat": 38.91476433333333, "fusion_lon": 0.0, "rental_uris": {"ios": "https://dc.lft.to/lastmile_qr_scan", "android": "https://dc.lft.to/lastmile_qr_scan"}, "lon": -77.00199383333333, "bike_id": "0097bbabac7b7218a51809e455437924", "type": "electric_scooter", "name": "0097bbabac7b7218a51809e455437924"}, {"is_disabled": 0, "is_reserved": 0, "fusion_lat": 0.0, "lat": 38.92749833333333, "fusion_lon": 0.0, "rental_uris": {"ios": "https://dc.lft.to/lastmile_qr_scan", "android": "https://dc.lft.to/lastmile_qr_scan"}, "lon": -77.03269833333333, "bike_id": "d61c400cf8633d84ff8c06aee4cc0235", "type": "electric_scooter", "name": "d61c400cf8633d84ff8c06aee4cc0235"}, {"is_disabled": 0, "is_reserved": 0, "fusion_lat": 0.0, "lat": 38.9111755, "fusion_lon": 0.0, "rental_uris": {"ios": "https://dc.lft.to/lastmile_qr_scan", "android": "https://dc.lft.to/lastmile_qr_scan"}, "lon": -77.011668, "bike_id": "91ade1fd29128daf08910bc49f39a9fe", "type": "electric_scooter", "name": "91ade1fd29128daf08910bc49f39a9fe"}, {"is_disabled": 0, "is_reserved": 0, "fusion_lat": 0.0, "lat": 38.915508333333335, "fusion_lon": 0.0, "rental_uris": {"ios": "https://dc.lft.to/lastmile_qr_scan", "android": "https://dc.lft.to/lastmile_qr_scan"}, "lon": -77.0091525, "bike_id": "e909e4d8349a337f1aab76641608efa7", "type": "electric_scooter", "name": "e909e4d8349a337f1aab76641608efa7"}, {"is_disabled": 0, "is_reserved": 0, "fusion_lat": 0.0, "lat": 38.928679833333334, "fusion_lon": 0.0, "rental_uris": {"ios": "https://dc.lft.to/lastmile_qr_scan", "android": "https://dc.lft.to/lastmile_qr_scan"}, "lon": -77.01395066666667, "bike_id": "8debfff11ed009f8964a3bea822f8cf1", "type": "electric_scooter", "name": "8debfff11ed009f8964a3bea822f8cf1"}, {"is_disabled": 0, "is_reserved": 0, "fusion_lat": 0.0, "lat": 38.92078816666667, "fusion_lon": 0.0, "rental_uris": {"ios": "https://dc.lft.to/lastmile_qr_scan", "android": "https://dc.lft.to/lastmile_qr_scan"}, "lon": -77.02454366666667, "bike_id": "8ca2d26a167535652237d6641d2a5c03", "type": "electric_scooter", "name": "8ca2d26a167535652237d6641d2a5c03"}, {"is_disabled": 0, "is_reserved": 0, "fusion_lat": 0.0, "lat": 38.892502666666665, "fusion_lon": 0.0, "rental_uris": {"ios": "https://dc.lft.to/lastmile_qr_scan", "android": "https://dc.lft.to/lastmile_qr_scan"}, "lon": -77.03954533333334, "bike_id": "869c698ff1e10f4b91ff4779a37b0e1a", "type": "electric_scooter", "name": "869c698ff1e10f4b91ff4779a37b0e1a"}, {"is_disabled": 0, "is_reserved": 0, "fusion_lat": 0.0, "lat": 38.91055766666667, "fusion_lon": 0.0, "rental_uris": {"ios": "https://dc.lft.to/lastmile_qr_scan", "android": "https://dc.lft.to/lastmile_qr_scan"}, "lon": -77.043411, "bike_id": "cff613506cc91699efef21ad0a01e61c", "type": "electric_scooter", "name": "cff613506cc91699efef21ad0a01e61c"}, {"is_disabled": 0, "is_reserved": 0, "fusion_lat": 0.0, "lat": 38.92864266666667, "fusion_lon": 0.0, "rental_uris": {"ios": "https://dc.lft.to/lastmile_qr_scan", "android": "https://dc.lft.to/lastmile_qr_scan"}, "lon": -77.0288415, "bike_id": "0698ad9cccb3393eb744b2815bc18a41", "type": "electric_scooter", "name": "0698ad9cccb3393eb744b2815bc18a41"}, {"is_disabled": 0, "is_reserved": 0, "fusion_lat": 0.0, "lat": 38.93611633333333, "fusion_lon": 0.0, "rental_uris": {"ios": "https://dc.lft.to/lastmile_qr_scan", "android": "https://dc.lft.to/lastmile_qr_scan"}, "lon": -77.03875433333333, "bike_id": "c70b82475d622cd0e01ac26703522eb2", "type": "electric_scooter", "name": "c70b82475d622cd0e01ac26703522eb2"}, {"is_disabled": 0, "is_reserved": 0, "fusion_lat": 0.0, "lat": 38.91788283333333, "fusion_lon": 0.0, "rental_uris": {"ios": "https://dc.lft.to/lastmile_qr_scan", "android": "https://dc.lft.to/lastmile_qr_scan"}, "lon": -77.02298883333333, "bike_id": "823533a0e1273666f3b3dde9060eceff", "type": "electric_scooter", "name": "823533a0e1273666f3b3dde9060eceff"}, {"is_disabled": 0, "is_reserved": 0, "fusion_lat": 0.0, "lat": 38.90016516666667, "fusion_lon": 0.0, "rental_uris": {"ios": "https://dc.lft.to/lastmile_qr_scan", "android": "https://dc.lft.to/lastmile_qr_scan"}, "lon": -77.02188283333334, "bike_id": "ecc04adc2a75daa3c272bb970e4339a6", "type": "electric_scooter", "name": "ecc04adc2a75daa3c272bb970e4339a6"}, {"is_disabled": 0, "is_reserved": 0, "fusion_lat": 0.0, "lat": 38.8428275, "fusion_lon": 0.0, "rental_uris": {"ios": "https://dc.lft.to/lastmile_qr_scan", "android": "https://dc.lft.to/lastmile_qr_scan"}, "lon": -76.98841216666666, "bike_id": "4ffbbb5e9ff070fd7684400a64cb5036", "type": "electric_bike", "name": "4ffbbb5e9ff070fd7684400a64cb5036"}, {"is_disabled": 0, "is_reserved": 0, "fusion_lat": 0.0, "lat": 38.93424816666667, "fusion_lon": 0.0, "rental_uris": {"ios": "https://dc.lft.to/lastmile_qr_scan", "android": "https://dc.lft.to/lastmile_qr_scan"}, "lon": -77.042802, "bike_id": "6b9a1c75256cd28fb28d5be756b2be9d", "type": "electric_scooter", "name": "6b9a1c75256cd28fb28d5be756b2be9d"}, {"is_disabled": 0, "is_reserved": 0, "fusion_lat": 0.0, "lat": 38.92241833333333, "fusion_lon": 0.0, "rental_uris": {"ios": "https://dc.lft.to/lastmile_qr_scan", "android": "https://dc.lft.to/lastmile_qr_scan"}, "lon": -77.02267433333333, "bike_id": "451225f4d8f1daa9423560e6e89344f2", "type": "electric_scooter", "name": "451225f4d8f1daa9423560e6e89344f2"}, {"is_disabled": 0, "is_reserved": 0, "fusion_lat": 0.0, "lat": 38.8952025, "fusion_lon": 0.0, "rental_uris": {"ios": "https://dc.lft.to/lastmile_qr_scan", "android": "https://dc.lft.to/lastmile_qr_scan"}, "lon": -77.02594816666667, "bike_id": "e480f62da9db25587340e0c52e4250e6", "type": "electric_scooter", "name": "e480f62da9db25587340e0c52e4250e6"}, {"is_disabled": 0, "is_reserved": 0, "fusion_lat": 0.0, "lat": 38.88767333333333, "fusion_lon": 0.0, "rental_uris": {"ios": "https://dc.lft.to/lastmile_qr_scan", "android": "https://dc.lft.to/lastmile_qr_scan"}, "lon": -77.156598, "bike_id": "267973b362cc6f5535acdb0087585e26", "type": "electric_bike", "name": "267973b362cc6f5535acdb0087585e26"}, {"is_disabled": 0, "is_reserved": 0, "fusion_lat": 0.0, "lat": 38.929933, "fusion_lon": 0.0, "rental_uris": {"ios": "https://dc.lft.to/lastmile_qr_scan", "android": "https://dc.lft.to/lastmile_qr_scan"}, "lon": -77.03470266666666, "bike_id": "0b4699edec64cbfaffc48d844f26c9c4", "type": "electric_scooter", "name": "0b4699edec64cbfaffc48d844f26c9c4"}, {"is_disabled": 0, "is_reserved": 0, "fusion_lat": 0.0, "lat": 38.9089835, "fusion_lon": 0.0, "rental_uris": {"ios": "https://dc.lft.to/lastmile_qr_scan", "android": "https://dc.lft.to/lastmile_qr_scan"}, "lon": -76.99775683333333, "bike_id": "187d33d73139f1074b9f4604c6267d2a", "type": "electric_scooter", "name": "187d33d73139f1074b9f4604c6267d2a"}, {"is_disabled": 0, "is_reserved": 0, "fusion_lat": 0.0, "lat": 38.89542983333333, "fusion_lon": 0.0, "rental_uris": {"ios": "https://dc.lft.to/lastmile_qr_scan", "android": "https://dc.lft.to/lastmile_qr_scan"}, "lon": -77.026828, "bike_id": "b596d33727a98da2c8923e4c4d523df4", "type": "electric_scooter", "name": "b596d33727a98da2c8923e4c4d523df4"}, {"is_disabled": 0, "is_reserved": 0, "fusion_lat": 0.0, "lat": 38.90237466666667, "fusion_lon": 0.0, "rental_uris": {"ios": "https://dc.lft.to/lastmile_qr_scan", "android": "https://dc.lft.to/lastmile_qr_scan"}, "lon": -77.05341166666666, "bike_id": "8596a6d1e22cf266a8344de0ba65b5e3", "type": "electric_scooter", "name": "8596a6d1e22cf266a8344de0ba65b5e3"}, {"is_disabled": 0, "is_reserved": 0, "fusion_lat": 0.0, "lat": 38.89232416666667, "fusion_lon": 0.0, "rental_uris": {"ios": "https://dc.lft.to/lastmile_qr_scan", "android": "https://dc.lft.to/lastmile_qr_scan"}, "lon": -77.02968083333333, "bike_id": "b27213eb8ed7ad9706ac07c776f7d467", "type": "electric_scooter", "name": "b27213eb8ed7ad9706ac07c776f7d467"}, {"is_disabled": 0, "is_reserved": 0, "fusion_lat": 0.0, "lat": 38.895247166666664, "fusion_lon": 0.0, "rental_uris": {"ios": "https://dc.lft.to/lastmile_qr_scan", "android": "https://dc.lft.to/lastmile_qr_scan"}, "lon": -77.02302316666666, "bike_id": "238c5914a3dff8a81e31f0e34e7b2a13", "type": "electric_scooter", "name": "238c5914a3dff8a81e31f0e34e7b2a13"}, {"is_disabled": 0, "is_reserved": 0, "fusion_lat": 0.0, "lat": 38.92155116666667, "fusion_lon": 0.0, "rental_uris": {"ios": "https://dc.lft.to/lastmile_qr_scan", "android": "https://dc.lft.to/lastmile_qr_scan"}, "lon": -77.03382383333333, "bike_id": "803733a0f85decf0ac64c9a847dfde35", "type": "electric_scooter", "name": "803733a0f85decf0ac64c9a847dfde35"}, {"is_disabled": 0, "is_reserved": 0, "fusion_lat": 0.0, "lat": 38.9050325, "fusion_lon": 0.0, "rental_uris": {"ios": "https://dc.lft.to/lastmile_qr_scan", "android": "https://dc.lft.to/lastmile_qr_scan"}, "lon": -77.02949316666667, "bike_id": "9bcd45232f507b13ba21714e9a74ebdb", "type": "electric_scooter", "name": "9bcd45232f507b13ba21714e9a74ebdb"}, {"is_disabled": 0, "is_reserved": 0, "fusion_lat": 0.0, "lat": 38.883687, "fusion_lon": 0.0, "rental_uris": {"ios": "https://dc.lft.to/lastmile_qr_scan", "android": "https://dc.lft.to/lastmile_qr_scan"}, "lon": -76.9948165, "bike_id": "ae174e6f0546f8e5a0f941bea795d81e", "type": "electric_scooter", "name": "ae174e6f0546f8e5a0f941bea795d81e"}, {"is_disabled": 0, "is_reserved": 0, "fusion_lat": 0.0, "lat": 38.846016, "fusion_lon": 0.0, "rental_uris": {"ios": "https://dc.lft.to/lastmile_qr_scan", "android": "https://dc.lft.to/lastmile_qr_scan"}, "lon": -76.97416433333333, "bike_id": "6c89de9fb4c9eb68fd8fcfd4e579a90c", "type": "electric_scooter", "name": "6c89de9fb4c9eb68fd8fcfd4e579a90c"}, {"is_disabled": 0, "is_reserved": 0, "fusion_lat": 0.0, "lat": 38.905735166666666, "fusion_lon": 0.0, "rental_uris": {"ios": "https://dc.lft.to/lastmile_qr_scan", "android": "https://dc.lft.to/lastmile_qr_scan"}, "lon": -77.02506633333333, "bike_id": "78c45f2af1afa96bb41c787f289372a1", "type": "electric_scooter", "name": "78c45f2af1afa96bb41c787f289372a1"}, {"is_disabled": 0, "is_reserved": 0, "fusion_lat": 0.0, "lat": 38.936744833333336, "fusion_lon": 0.0, "rental_uris": {"ios": "https://dc.lft.to/lastmile_qr_scan", "android": "https://dc.lft.to/lastmile_qr_scan"}, "lon": -77.0358875, "bike_id": "664650105097bdcd5ee95e09bc557056", "type": "electric_scooter", "name": "664650105097bdcd5ee95e09bc557056"}, {"is_disabled": 0, "is_reserved": 0, "fusion_lat": 0.0, "lat": 38.88700016666667, "fusion_lon": 0.0, "rental_uris": {"ios": "https://dc.lft.to/lastmile_qr_scan", "android": "https://dc.lft.to/lastmile_qr_scan"}, "lon": -76.996121, "bike_id": "717444265b52d9122b59321dd55ebd02", "type": "electric_scooter", "name": "717444265b52d9122b59321dd55ebd02"}, {"is_disabled": 0, "is_reserved": 0, "fusion_lat": 0.0, "lat": 38.92991033333333, "fusion_lon": 0.0, "rental_uris": {"ios": "https://dc.lft.to/lastmile_qr_scan", "android": "https://dc.lft.to/lastmile_qr_scan"}, "lon": -77.034749, "bike_id": "d7d885d559453578cdbc119167a1c873", "type": "electric_scooter", "name": "d7d885d559453578cdbc119167a1c873"}, {"is_disabled": 0, "is_reserved": 0, "fusion_lat": 0.0, "lat": 38.917884, "fusion_lon": 0.0, "rental_uris": {"ios": "https://dc.lft.to/lastmile_qr_scan", "android": "https://dc.lft.to/lastmile_qr_scan"}, "lon": -77.02306683333333, "bike_id": "4780ecdd4db08ec1ca1368c861ca6c6b", "type": "electric_scooter", "name": "4780ecdd4db08ec1ca1368c861ca6c6b"}, {"is_disabled": 0, "is_reserved": 0, "fusion_lat": 0.0, "lat": 38.89258516666666, "fusion_lon": 0.0, "rental_uris": {"ios": "https://dc.lft.to/lastmile_qr_scan", "android": "https://dc.lft.to/lastmile_qr_scan"}, "lon": -77.04659, "bike_id": "ed2dec79ed81f722e8a84d4fdf24bc73", "type": "electric_scooter", "name": "ed2dec79ed81f722e8a84d4fdf24bc73"}, {"is_disabled": 0, "is_reserved": 0, "fusion_lat": 0.0, "lat": 38.89863033333334, "fusion_lon": 0.0, "rental_uris": {"ios": "https://dc.lft.to/lastmile_qr_scan", "android": "https://dc.lft.to/lastmile_qr_scan"}, "lon": -77.04880533333333, "bike_id": "8870d020ebcb2a66ca8577d85a54fd71", "type": "electric_scooter", "name": "8870d020ebcb2a66ca8577d85a54fd71"}, {"is_disabled": 0, "is_reserved": 0, "fusion_lat": 0.0, "lat": 38.87741966666667, "fusion_lon": 0.0, "rental_uris": {"ios": "https://dc.lft.to/lastmile_qr_scan", "android": "https://dc.lft.to/lastmile_qr_scan"}, "lon": -77.14872383333334, "bike_id": "ec18e4728a016e8a4721314641b81521", "type": "electric_bike", "name": "ec18e4728a016e8a4721314641b81521"}, {"is_disabled": 0, "is_reserved": 0, "fusion_lat": 0.0, "lat": 38.90042016666666, "fusion_lon": 0.0, "rental_uris": {"ios": "https://dc.lft.to/lastmile_qr_scan", "android": "https://dc.lft.to/lastmile_qr_scan"}, "lon": -77.0121905, "bike_id": "364cad98d991d79e9576ba4114a60167", "type": "electric_scooter", "name": "364cad98d991d79e9576ba4114a60167"}, {"is_disabled": 0, "is_reserved": 0, "fusion_lat": 0.0, "lat": 38.92200233333333, "fusion_lon": 0.0, "rental_uris": {"ios": "https://dc.lft.to/lastmile_qr_scan", "android": "https://dc.lft.to/lastmile_qr_scan"}, "lon": -76.996988, "bike_id": "8f76c18d0e4f86197d80447303436617", "type": "electric_scooter", "name": "8f76c18d0e4f86197d80447303436617"}, {"is_disabled": 0, "is_reserved": 0, "fusion_lat": 0.0, "lat": 38.885320166666666, "fusion_lon": 0.0, "rental_uris": {"ios": "https://dc.lft.to/lastmile_qr_scan", "android": "https://dc.lft.to/lastmile_qr_scan"}, "lon": -76.99617966666666, "bike_id": "41ce0f5c25abdd0d97d56e067cabdba1", "type": "electric_scooter", "name": "41ce0f5c25abdd0d97d56e067cabdba1"}, {"is_disabled": 0, "is_reserved": 0, "fusion_lat": 0.0, "lat": 39.005368833333335, "fusion_lon": 0.0, "rental_uris": {"ios": "https://dc.lft.to/lastmile_qr_scan", "android": "https://dc.lft.to/lastmile_qr_scan"}, "lon": -77.10404683333333, "bike_id": "023d867441d07be27e7985fd9b00230e", "type": "electric_bike", "name": "023d867441d07be27e7985fd9b00230e"}, {"is_disabled": 0, "is_reserved": 0, "fusion_lat": 0.0, "lat": 38.90467566666667, "fusion_lon": 0.0, "rental_uris": {"ios": "https://dc.lft.to/lastmile_qr_scan", "android": "https://dc.lft.to/lastmile_qr_scan"}, "lon": -77.06604866666666, "bike_id": "ac7322fdcc77f0912b6e3392f5605be5", "type": "electric_bike", "name": "ac7322fdcc77f0912b6e3392f5605be5"}, {"is_disabled": 0, "is_reserved": 0, "fusion_lat": 0.0, "lat": 38.88113116666667, "fusion_lon": 0.0, "rental_uris": {"ios": "https://dc.lft.to/lastmile_qr_scan", "android": "https://dc.lft.to/lastmile_qr_scan"}, "lon": -77.01233966666666, "bike_id": "e98ba2ac0d1bf2a0de890f6fd84bf2a2", "type": "electric_scooter", "name": "e98ba2ac0d1bf2a0de890f6fd84bf2a2"}, {"is_disabled": 0, "is_reserved": 0, "fusion_lat": 0.0, "lat": 38.913426666666666, "fusion_lon": 0.0, "rental_uris": {"ios": "https://dc.lft.to/lastmile_qr_scan", "android": "https://dc.lft.to/lastmile_qr_scan"}, "lon": -77.04352266666666, "bike_id": "a829509ad9bc221dfe62c33e8fc09302", "type": "electric_scooter", "name": "a829509ad9bc221dfe62c33e8fc09302"}, {"is_disabled": 0, "is_reserved": 0, "fusion_lat": 0.0, "lat": 38.93081216666667, "fusion_lon": 0.0, "rental_uris": {"ios": "https://dc.lft.to/lastmile_qr_scan", "android": "https://dc.lft.to/lastmile_qr_scan"}, "lon": -77.07767083333333, "bike_id": "b2fe6fa3c8c72559ed51912a3fbbbafe", "type": "electric_scooter", "name": "b2fe6fa3c8c72559ed51912a3fbbbafe"}, {"is_disabled": 0, "is_reserved": 0, "fusion_lat": 0.0, "lat": 38.925831333333335, "fusion_lon": 0.0, "rental_uris": {"ios": "https://dc.lft.to/lastmile_qr_scan", "android": "https://dc.lft.to/lastmile_qr_scan"}, "lon": -76.9949385, "bike_id": "2ddae7b68361ffb2797b7a032a63ec4e", "type": "electric_scooter", "name": "2ddae7b68361ffb2797b7a032a63ec4e"}, {"is_disabled": 0, "is_reserved": 0, "fusion_lat": 0.0, "lat": 38.892291, "fusion_lon": 0.0, "rental_uris": {"ios": "https://dc.lft.to/lastmile_qr_scan", "android": "https://dc.lft.to/lastmile_qr_scan"}, "lon": -77.0500655, "bike_id": "fcd02cac02372f6ac77358b2d1325ef6", "type": "electric_scooter", "name": "fcd02cac02372f6ac77358b2d1325ef6"}, {"is_disabled": 0, "is_reserved": 0, "fusion_lat": 0.0, "lat": 39.0038175, "fusion_lon": 0.0, "rental_uris": {"ios": "https://dc.lft.to/lastmile_qr_scan", "android": "https://dc.lft.to/lastmile_qr_scan"}, "lon": -77.01288883333334, "bike_id": "d82ef11af91e1d67106461e34a82817d", "type": "electric_bike", "name": "d82ef11af91e1d67106461e34a82817d"}, {"is_disabled": 0, "is_reserved": 0, "fusion_lat": 0.0, "lat": 38.92892833333333, "fusion_lon": 0.0, "rental_uris": {"ios": "https://dc.lft.to/lastmile_qr_scan", "android": "https://dc.lft.to/lastmile_qr_scan"}, "lon": -77.0322795, "bike_id": "408ac26412a88bb3e85ca6bedb0740d4", "type": "electric_scooter", "name": "408ac26412a88bb3e85ca6bedb0740d4"}, {"is_disabled": 0, "is_reserved": 0, "fusion_lat": 0.0, "lat": 38.9397985, "fusion_lon": 0.0, "rental_uris": {"ios": "https://dc.lft.to/lastmile_qr_scan", "android": "https://dc.lft.to/lastmile_qr_scan"}, "lon": -77.03428816666667, "bike_id": "37d99fb06ded2bb651ee138ad63384e5", "type": "electric_scooter", "name": "37d99fb06ded2bb651ee138ad63384e5"}, {"is_disabled": 0, "is_reserved": 0, "fusion_lat": 0.0, "lat": 38.920847, "fusion_lon": 0.0, "rental_uris": {"ios": "https://dc.lft.to/lastmile_qr_scan", "android": "https://dc.lft.to/lastmile_qr_scan"}, "lon": -77.02360033333333, "bike_id": "d2293a00659b323dbe65b501c126f428", "type": "electric_scooter", "name": "d2293a00659b323dbe65b501c126f428"}, {"is_disabled": 0, "is_reserved": 0, "fusion_lat": 0.0, "lat": 38.92038433333333, "fusion_lon": 0.0, "rental_uris": {"ios": "https://dc.lft.to/lastmile_qr_scan", "android": "https://dc.lft.to/lastmile_qr_scan"}, "lon": -76.979658, "bike_id": "c0f28d953422bc080b6d32b6be99843c", "type": "electric_bike", "name": "c0f28d953422bc080b6d32b6be99843c"}, {"is_disabled": 0, "is_reserved": 0, "fusion_lat": 0.0, "lat": 38.916099, "fusion_lon": 0.0, "rental_uris": {"ios": "https://dc.lft.to/lastmile_qr_scan", "android": "https://dc.lft.to/lastmile_qr_scan"}, "lon": -77.04349383333333, "bike_id": "67d11dc74d3ccfba13cae13f0242eb8e", "type": "electric_scooter", "name": "67d11dc74d3ccfba13cae13f0242eb8e"}, {"is_disabled": 0, "is_reserved": 0, "fusion_lat": 0.0, "lat": 38.846805833333335, "fusion_lon": 0.0, "rental_uris": {"ios": "https://dc.lft.to/lastmile_qr_scan", "android": "https://dc.lft.to/lastmile_qr_scan"}, "lon": -77.13936916666667, "bike_id": "1772754891de5b859ed729855e79c35c", "type": "electric_bike", "name": "1772754891de5b859ed729855e79c35c"}, {"is_disabled": 0, "is_reserved": 0, "fusion_lat": 0.0, "lat": 38.879454, "fusion_lon": 0.0, "rental_uris": {"ios": "https://dc.lft.to/lastmile_qr_scan", "android": "https://dc.lft.to/lastmile_qr_scan"}, "lon": -77.005305, "bike_id": "431f58ae8d1101dd57b1235af0c463d2", "type": "electric_scooter", "name": "431f58ae8d1101dd57b1235af0c463d2"}, {"is_disabled": 0, "is_reserved": 0, "fusion_lat": 0.0, "lat": 38.8928795, "fusion_lon": 0.0, "rental_uris": {"ios": "https://dc.lft.to/lastmile_qr_scan", "android": "https://dc.lft.to/lastmile_qr_scan"}, "lon": -77.04198283333334, "bike_id": "179aadc76de33aa8a330dee0cee7020f", "type": "electric_scooter", "name": "179aadc76de33aa8a330dee0cee7020f"}, {"is_disabled": 0, "is_reserved": 0, "fusion_lat": 0.0, "lat": 38.91562666666667, "fusion_lon": 0.0, "rental_uris": {"ios": "https://dc.lft.to/lastmile_qr_scan", "android": "https://dc.lft.to/lastmile_qr_scan"}, "lon": -77.0509735, "bike_id": "8d4040d1ad0c81e827a8e2284a4b6cca", "type": "electric_scooter", "name": "8d4040d1ad0c81e827a8e2284a4b6cca"}, {"is_disabled": 0, "is_reserved": 0, "fusion_lat": 0.0, "lat": 38.9112305, "fusion_lon": 0.0, "rental_uris": {"ios": "https://dc.lft.to/lastmile_qr_scan", "android": "https://dc.lft.to/lastmile_qr_scan"}, "lon": -76.99743916666667, "bike_id": "584e99d34ddf36f29a3825aacee37a41", "type": "electric_scooter", "name": "584e99d34ddf36f29a3825aacee37a41"}, {"is_disabled": 0, "is_reserved": 0, "fusion_lat": 0.0, "lat": 38.9108525, "fusion_lon": 0.0, "rental_uris": {"ios": "https://dc.lft.to/lastmile_qr_scan", "android": "https://dc.lft.to/lastmile_qr_scan"}, "lon": -77.02180966666667, "bike_id": "c47e12ccabb4294101bee8180d3399fc", "type": "electric_scooter", "name": "c47e12ccabb4294101bee8180d3399fc"}, {"is_disabled": 0, "is_reserved": 0, "fusion_lat": 0.0, "lat": 38.90512016666667, "fusion_lon": 0.0, "rental_uris": {"ios": "https://dc.lft.to/lastmile_qr_scan", "android": "https://dc.lft.to/lastmile_qr_scan"}, "lon": -77.06105966666667, "bike_id": "35021843f718f8f5991cf4771037debe", "type": "electric_scooter", "name": "35021843f718f8f5991cf4771037debe"}, {"is_disabled": 0, "is_reserved": 0, "fusion_lat": 0.0, "lat": 38.9678335, "fusion_lon": 0.0, "rental_uris": {"ios": "https://dc.lft.to/lastmile_qr_scan", "android": "https://dc.lft.to/lastmile_qr_scan"}, "lon": -76.99649933333333, "bike_id": "4c507910c801e015e1a9a66fb4ae8bea", "type": "electric_bike", "name": "4c507910c801e015e1a9a66fb4ae8bea"}, {"is_disabled": 0, "is_reserved": 0, "fusion_lat": 0.0, "lat": 38.90477333333333, "fusion_lon": 0.0, "rental_uris": {"ios": "https://dc.lft.to/lastmile_qr_scan", "android": "https://dc.lft.to/lastmile_qr_scan"}, "lon": -76.95061933333334, "bike_id": "970a3f4af61778011a58ac953226546b", "type": "electric_scooter", "name": "970a3f4af61778011a58ac953226546b"}, {"is_disabled": 0, "is_reserved": 0, "fusion_lat": 0.0, "lat": 38.901327333333334, "fusion_lon": 0.0, "rental_uris": {"ios": "https://dc.lft.to/lastmile_qr_scan", "android": "https://dc.lft.to/lastmile_qr_scan"}, "lon": -77.00284, "bike_id": "1c0ec7a6a80537a2067c99948f9a24fa", "type": "electric_scooter", "name": "1c0ec7a6a80537a2067c99948f9a24fa"}, {"is_disabled": 0, "is_reserved": 0, "fusion_lat": 0.0, "lat": 38.89711416666667, "fusion_lon": 0.0, "rental_uris": {"ios": "https://dc.lft.to/lastmile_qr_scan", "android": "https://dc.lft.to/lastmile_qr_scan"}, "lon": -77.04902383333334, "bike_id": "b4a5f87941ba5c279f6572af64f5faae", "type": "electric_scooter", "name": "b4a5f87941ba5c279f6572af64f5faae"}, {"is_disabled": 0, "is_reserved": 0, "fusion_lat": 0.0, "lat": 38.924369166666665, "fusion_lon": 0.0, "rental_uris": {"ios": "https://dc.lft.to/lastmile_qr_scan", "android": "https://dc.lft.to/lastmile_qr_scan"}, "lon": -77.0298095, "bike_id": "cb7506e8c0a71174a3a457369c4be9b8", "type": "electric_scooter", "name": "cb7506e8c0a71174a3a457369c4be9b8"}, {"is_disabled": 0, "is_reserved": 0, "fusion_lat": 0.0, "lat": 38.8551515, "fusion_lon": 0.0, "rental_uris": {"ios": "https://dc.lft.to/lastmile_qr_scan", "android": "https://dc.lft.to/lastmile_qr_scan"}, "lon": -76.99148466666666, "bike_id": "50373ee5eaec93db85b4033892a0a837", "type": "electric_scooter", "name": "50373ee5eaec93db85b4033892a0a837"}, {"is_disabled": 0, "is_reserved": 0, "fusion_lat": 0.0, "lat": 38.927885833333335, "fusion_lon": 0.0, "rental_uris": {"ios": "https://dc.lft.to/lastmile_qr_scan", "android": "https://dc.lft.to/lastmile_qr_scan"}, "lon": -77.02721866666667, "bike_id": "f1ca965781fa643b3e2c721a3e4d0cdb", "type": "electric_scooter", "name": "f1ca965781fa643b3e2c721a3e4d0cdb"}, {"is_disabled": 0, "is_reserved": 0, "fusion_lat": 0.0, "lat": 38.910408, "fusion_lon": 0.0, "rental_uris": {"ios": "https://dc.lft.to/lastmile_qr_scan", "android": "https://dc.lft.to/lastmile_qr_scan"}, "lon": -76.92335066666666, "bike_id": "8f218bf18507018ec019f76d4ae78235", "type": "electric_bike", "name": "8f218bf18507018ec019f76d4ae78235"}, {"is_disabled": 0, "is_reserved": 0, "fusion_lat": 0.0, "lat": 38.922735333333335, "fusion_lon": 0.0, "rental_uris": {"ios": "https://dc.lft.to/lastmile_qr_scan", "android": "https://dc.lft.to/lastmile_qr_scan"}, "lon": -77.03646116666667, "bike_id": "b3a7bb19e473af43408ef19cfccb26b3", "type": "electric_scooter", "name": "b3a7bb19e473af43408ef19cfccb26b3"}, {"is_disabled": 0, "is_reserved": 0, "fusion_lat": 0.0, "lat": 38.9135605, "fusion_lon": 0.0, "rental_uris": {"ios": "https://dc.lft.to/lastmile_qr_scan", "android": "https://dc.lft.to/lastmile_qr_scan"}, "lon": -76.97139366666667, "bike_id": "6e167244eed081f75d2b1cab4dc065ea", "type": "electric_scooter", "name": "6e167244eed081f75d2b1cab4dc065ea"}, {"is_disabled": 0, "is_reserved": 0, "fusion_lat": 0.0, "lat": 38.8838355, "fusion_lon": 0.0, "rental_uris": {"ios": "https://dc.lft.to/lastmile_qr_scan", "android": "https://dc.lft.to/lastmile_qr_scan"}, "lon": -77.0460755, "bike_id": "84f73bf98d878a4672c33c6532d37312", "type": "electric_scooter", "name": "84f73bf98d878a4672c33c6532d37312"}, {"is_disabled": 0, "is_reserved": 0, "fusion_lat": 0.0, "lat": 38.9251435, "fusion_lon": 0.0, "rental_uris": {"ios": "https://dc.lft.to/lastmile_qr_scan", "android": "https://dc.lft.to/lastmile_qr_scan"}, "lon": -77.02359916666667, "bike_id": "e506519c0b7e341939a01691202beb5e", "type": "electric_scooter", "name": "e506519c0b7e341939a01691202beb5e"}, {"is_disabled": 0, "is_reserved": 0, "fusion_lat": 0.0, "lat": 38.926520833333335, "fusion_lon": 0.0, "rental_uris": {"ios": "https://dc.lft.to/lastmile_qr_scan", "android": "https://dc.lft.to/lastmile_qr_scan"}, "lon": -77.03697283333334, "bike_id": "1a0f53fe8f27ff40bc98421da4241f4a", "type": "electric_scooter", "name": "1a0f53fe8f27ff40bc98421da4241f4a"}, {"is_disabled": 0, "is_reserved": 0, "fusion_lat": 0.0, "lat": 38.917176, "fusion_lon": 0.0, "rental_uris": {"ios": "https://dc.lft.to/lastmile_qr_scan", "android": "https://dc.lft.to/lastmile_qr_scan"}, "lon": -77.02310033333333, "bike_id": "7ef193ee9dac75ba3fdb3d6a474cc54f", "type": "electric_scooter", "name": "7ef193ee9dac75ba3fdb3d6a474cc54f"}, {"is_disabled": 0, "is_reserved": 0, "fusion_lat": 0.0, "lat": 38.892025833333335, "fusion_lon": 0.0, "rental_uris": {"ios": "https://dc.lft.to/lastmile_qr_scan", "android": "https://dc.lft.to/lastmile_qr_scan"}, "lon": -77.03178433333333, "bike_id": "78c1b8194622d5e6ddd2ba504e322def", "type": "electric_scooter", "name": "78c1b8194622d5e6ddd2ba504e322def"}, {"is_disabled": 0, "is_reserved": 0, "fusion_lat": 0.0, "lat": 38.90010933333333, "fusion_lon": 0.0, "rental_uris": {"ios": "https://dc.lft.to/lastmile_qr_scan", "android": "https://dc.lft.to/lastmile_qr_scan"}, "lon": -77.00668883333333, "bike_id": "425094bbe9540ff4daa203b2714cb1d6", "type": "electric_scooter", "name": "425094bbe9540ff4daa203b2714cb1d6"}, {"is_disabled": 0, "is_reserved": 0, "fusion_lat": 0.0, "lat": 38.9299115, "fusion_lon": 0.0, "rental_uris": {"ios": "https://dc.lft.to/lastmile_qr_scan", "android": "https://dc.lft.to/lastmile_qr_scan"}, "lon": -77.03891816666666, "bike_id": "9709b25b7d5a51c96d01d00ffff39a64", "type": "electric_scooter", "name": "9709b25b7d5a51c96d01d00ffff39a64"}, {"is_disabled": 0, "is_reserved": 0, "fusion_lat": 0.0, "lat": 38.92152683333333, "fusion_lon": 0.0, "rental_uris": {"ios": "https://dc.lft.to/lastmile_qr_scan", "android": "https://dc.lft.to/lastmile_qr_scan"}, "lon": -77.03647166666667, "bike_id": "76ee5e9634ca86f96debf19fc1964836", "type": "electric_scooter", "name": "76ee5e9634ca86f96debf19fc1964836"}, {"is_disabled": 0, "is_reserved": 0, "fusion_lat": 0.0, "lat": 38.92777, "fusion_lon": 0.0, "rental_uris": {"ios": "https://dc.lft.to/lastmile_qr_scan", "android": "https://dc.lft.to/lastmile_qr_scan"}, "lon": -77.05258866666667, "bike_id": "3bb2c32b802a44eb0bd33f7a72ebbebd", "type": "electric_scooter", "name": "3bb2c32b802a44eb0bd33f7a72ebbebd"}, {"is_disabled": 0, "is_reserved": 0, "fusion_lat": 0.0, "lat": 38.878448166666665, "fusion_lon": 0.0, "rental_uris": {"ios": "https://dc.lft.to/lastmile_qr_scan", "android": "https://dc.lft.to/lastmile_qr_scan"}, "lon": -76.98608916666667, "bike_id": "c934172a382022cbd8736b31ef9858bb", "type": "electric_scooter", "name": "c934172a382022cbd8736b31ef9858bb"}, {"is_disabled": 0, "is_reserved": 0, "fusion_lat": 0.0, "lat": 38.934814, "fusion_lon": 0.0, "rental_uris": {"ios": "https://dc.lft.to/lastmile_qr_scan", "android": "https://dc.lft.to/lastmile_qr_scan"}, "lon": -77.02414733333333, "bike_id": "111953bf1b867540a2c08f0ca2885ea1", "type": "electric_scooter", "name": "111953bf1b867540a2c08f0ca2885ea1"}, {"is_disabled": 0, "is_reserved": 0, "fusion_lat": 0.0, "lat": 38.982216333333334, "fusion_lon": 0.0, "rental_uris": {"ios": "https://dc.lft.to/lastmile_qr_scan", "android": "https://dc.lft.to/lastmile_qr_scan"}, "lon": -76.97813333333333, "bike_id": "0bcdf93f45fcfefc4c8f5924c183bc1e", "type": "electric_bike", "name": "0bcdf93f45fcfefc4c8f5924c183bc1e"}, {"is_disabled": 0, "is_reserved": 0, "fusion_lat": 0.0, "lat": 38.93607016666667, "fusion_lon": 0.0, "rental_uris": {"ios": "https://dc.lft.to/lastmile_qr_scan", "android": "https://dc.lft.to/lastmile_qr_scan"}, "lon": -77.05598266666667, "bike_id": "dfd7a2950577548d72772b73f45ca217", "type": "electric_scooter", "name": "dfd7a2950577548d72772b73f45ca217"}, {"is_disabled": 0, "is_reserved": 0, "fusion_lat": 0.0, "lat": 38.951132, "fusion_lon": 0.0, "rental_uris": {"ios": "https://dc.lft.to/lastmile_qr_scan", "android": "https://dc.lft.to/lastmile_qr_scan"}, "lon": -77.018868, "bike_id": "3cbaeec8075cb10ad7fee58552bbc84f", "type": "electric_scooter", "name": "3cbaeec8075cb10ad7fee58552bbc84f"}, {"is_disabled": 0, "is_reserved": 0, "fusion_lat": 0.0, "lat": 38.926153666666664, "fusion_lon": 0.0, "rental_uris": {"ios": "https://dc.lft.to/lastmile_qr_scan", "android": "https://dc.lft.to/lastmile_qr_scan"}, "lon": -77.00650283333333, "bike_id": "866aecf5f8fbe1d303995ead2c9138d2", "type": "electric_scooter", "name": "866aecf5f8fbe1d303995ead2c9138d2"}, {"is_disabled": 0, "is_reserved": 0, "fusion_lat": 0.0, "lat": 38.9236135, "fusion_lon": 0.0, "rental_uris": {"ios": "https://dc.lft.to/lastmile_qr_scan", "android": "https://dc.lft.to/lastmile_qr_scan"}, "lon": -77.05242633333333, "bike_id": "957140a6e154eabb1e736c54766cbb16", "type": "electric_scooter", "name": "957140a6e154eabb1e736c54766cbb16"}, {"is_disabled": 0, "is_reserved": 0, "fusion_lat": 0.0, "lat": 38.88385383333333, "fusion_lon": 0.0, "rental_uris": {"ios": "https://dc.lft.to/lastmile_qr_scan", "android": "https://dc.lft.to/lastmile_qr_scan"}, "lon": -77.04611483333333, "bike_id": "70eb0b9d47d70661b253c33e75c28be7", "type": "electric_scooter", "name": "70eb0b9d47d70661b253c33e75c28be7"}, {"is_disabled": 0, "is_reserved": 0, "fusion_lat": 0.0, "lat": 38.963641, "fusion_lon": 0.0, "rental_uris": {"ios": "https://dc.lft.to/lastmile_qr_scan", "android": "https://dc.lft.to/lastmile_qr_scan"}, "lon": -77.03443266666666, "bike_id": "7975c7649fd1f98daac890d7f652c31f", "type": "electric_scooter", "name": "7975c7649fd1f98daac890d7f652c31f"}, {"is_disabled": 0, "is_reserved": 0, "fusion_lat": 0.0, "lat": 38.89225483333333, "fusion_lon": 0.0, "rental_uris": {"ios": "https://dc.lft.to/lastmile_qr_scan", "android": "https://dc.lft.to/lastmile_qr_scan"}, "lon": -77.02779, "bike_id": "423d8f8b3d73bc4bedb496567f9b3639", "type": "electric_scooter", "name": "423d8f8b3d73bc4bedb496567f9b3639"}, {"is_disabled": 0, "is_reserved": 0, "fusion_lat": 0.0, "lat": 38.924921, "fusion_lon": 0.0, "rental_uris": {"ios": "https://dc.lft.to/lastmile_qr_scan", "android": "https://dc.lft.to/lastmile_qr_scan"}, "lon": -77.03216933333333, "bike_id": "3f595852c40321ea7ac7e5ebe0dbe007", "type": "electric_scooter", "name": "3f595852c40321ea7ac7e5ebe0dbe007"}, {"is_disabled": 0, "is_reserved": 0, "fusion_lat": 0.0, "lat": 38.904509833333336, "fusion_lon": 0.0, "rental_uris": {"ios": "https://dc.lft.to/lastmile_qr_scan", "android": "https://dc.lft.to/lastmile_qr_scan"}, "lon": -76.97305733333333, "bike_id": "d6fb92d7655002208f6ba303c2ae1907", "type": "electric_scooter", "name": "d6fb92d7655002208f6ba303c2ae1907"}, {"is_disabled": 0, "is_reserved": 0, "fusion_lat": 0.0, "lat": 38.842789, "fusion_lon": 0.0, "rental_uris": {"ios": "https://dc.lft.to/lastmile_qr_scan", "android": "https://dc.lft.to/lastmile_qr_scan"}, "lon": -76.9883845, "bike_id": "5fe7aa645ffd89121c7967b9629a06df", "type": "electric_scooter", "name": "5fe7aa645ffd89121c7967b9629a06df"}, {"is_disabled": 0, "is_reserved": 0, "fusion_lat": 0.0, "lat": 38.87767566666667, "fusion_lon": 0.0, "rental_uris": {"ios": "https://dc.lft.to/lastmile_qr_scan", "android": "https://dc.lft.to/lastmile_qr_scan"}, "lon": -77.00442116666666, "bike_id": "afa0e4e1dc71218c04099d2a7f1d87fb", "type": "electric_scooter", "name": "afa0e4e1dc71218c04099d2a7f1d87fb"}, {"is_disabled": 0, "is_reserved": 0, "fusion_lat": 0.0, "lat": 38.895589, "fusion_lon": 0.0, "rental_uris": {"ios": "https://dc.lft.to/lastmile_qr_scan", "android": "https://dc.lft.to/lastmile_qr_scan"}, "lon": -77.046586, "bike_id": "4bf68121b7436b6e77570918648aabf1", "type": "electric_scooter", "name": "4bf68121b7436b6e77570918648aabf1"}, {"is_disabled": 0, "is_reserved": 0, "fusion_lat": 0.0, "lat": 38.9191555, "fusion_lon": 0.0, "rental_uris": {"ios": "https://dc.lft.to/lastmile_qr_scan", "android": "https://dc.lft.to/lastmile_qr_scan"}, "lon": -77.03443016666667, "bike_id": "2a46e12fbb1df7c942605bc2e687681c", "type": "electric_scooter", "name": "2a46e12fbb1df7c942605bc2e687681c"}, {"is_disabled": 0, "is_reserved": 0, "fusion_lat": 0.0, "lat": 38.924274833333335, "fusion_lon": 0.0, "rental_uris": {"ios": "https://dc.lft.to/lastmile_qr_scan", "android": "https://dc.lft.to/lastmile_qr_scan"}, "lon": -77.02303116666667, "bike_id": "d8383fdc25ac47a4c0792b515a23e2c7", "type": "electric_scooter", "name": "d8383fdc25ac47a4c0792b515a23e2c7"}, {"is_disabled": 0, "is_reserved": 0, "fusion_lat": 0.0, "lat": 38.925992, "fusion_lon": 0.0, "rental_uris": {"ios": "https://dc.lft.to/lastmile_qr_scan", "android": "https://dc.lft.to/lastmile_qr_scan"}, "lon": -77.0250225, "bike_id": "f96cca06ac4da4dc7e63ec1996f9feb6", "type": "electric_scooter", "name": "f96cca06ac4da4dc7e63ec1996f9feb6"}, {"is_disabled": 0, "is_reserved": 0, "fusion_lat": 0.0, "lat": 38.91825983333333, "fusion_lon": 0.0, "rental_uris": {"ios": "https://dc.lft.to/lastmile_qr_scan", "android": "https://dc.lft.to/lastmile_qr_scan"}, "lon": -77.02528816666667, "bike_id": "1049a26207eebee8c97797fab96b7878", "type": "electric_scooter", "name": "1049a26207eebee8c97797fab96b7878"}, {"is_disabled": 0, "is_reserved": 0, "fusion_lat": 0.0, "lat": 38.92658016666667, "fusion_lon": 0.0, "rental_uris": {"ios": "https://dc.lft.to/lastmile_qr_scan", "android": "https://dc.lft.to/lastmile_qr_scan"}, "lon": -77.024324, "bike_id": "46d615bb70ffb7ad975fd55fa6d29fe0", "type": "electric_scooter", "name": "46d615bb70ffb7ad975fd55fa6d29fe0"}, {"is_disabled": 0, "is_reserved": 0, "fusion_lat": 0.0, "lat": 38.92014366666667, "fusion_lon": 0.0, "rental_uris": {"ios": "https://dc.lft.to/lastmile_qr_scan", "android": "https://dc.lft.to/lastmile_qr_scan"}, "lon": -77.021705, "bike_id": "6a780b59fcad3537fe8189d68d310820", "type": "electric_scooter", "name": "6a780b59fcad3537fe8189d68d310820"}, {"is_disabled": 0, "is_reserved": 0, "fusion_lat": 0.0, "lat": 38.91349616666667, "fusion_lon": 0.0, "rental_uris": {"ios": "https://dc.lft.to/lastmile_qr_scan", "android": "https://dc.lft.to/lastmile_qr_scan"}, "lon": -77.03115416666667, "bike_id": "88690754e2b9a2b40aff80e7247cdc65", "type": "electric_scooter", "name": "88690754e2b9a2b40aff80e7247cdc65"}, {"is_disabled": 0, "is_reserved": 0, "fusion_lat": 0.0, "lat": 38.947209666666666, "fusion_lon": 0.0, "rental_uris": {"ios": "https://dc.lft.to/lastmile_qr_scan", "android": "https://dc.lft.to/lastmile_qr_scan"}, "lon": -77.02355266666666, "bike_id": "d59329357e221bd3c5526326a408b9aa", "type": "electric_scooter", "name": "d59329357e221bd3c5526326a408b9aa"}, {"is_disabled": 0, "is_reserved": 0, "fusion_lat": 0.0, "lat": 38.91790733333333, "fusion_lon": 0.0, "rental_uris": {"ios": "https://dc.lft.to/lastmile_qr_scan", "android": "https://dc.lft.to/lastmile_qr_scan"}, "lon": -77.02472716666666, "bike_id": "5f4afd0a68a4d4507312c62b9889d0b4", "type": "electric_scooter", "name": "5f4afd0a68a4d4507312c62b9889d0b4"}, {"is_disabled": 0, "is_reserved": 0, "fusion_lat": 0.0, "lat": 38.90194283333334, "fusion_lon": 0.0, "rental_uris": {"ios": "https://dc.lft.to/lastmile_qr_scan", "android": "https://dc.lft.to/lastmile_qr_scan"}, "lon": -77.05086833333333, "bike_id": "42b8bafb4e21a067dcb04996e7ba6aaa", "type": "electric_scooter", "name": "42b8bafb4e21a067dcb04996e7ba6aaa"}, {"is_disabled": 0, "is_reserved": 0, "fusion_lat": 0.0, "lat": 38.89731416666667, "fusion_lon": 0.0, "rental_uris": {"ios": "https://dc.lft.to/lastmile_qr_scan", "android": "https://dc.lft.to/lastmile_qr_scan"}, "lon": -77.02409566666667, "bike_id": "66e95ab4153da8e1d156853243ae6e40", "type": "electric_scooter", "name": "66e95ab4153da8e1d156853243ae6e40"}, {"is_disabled": 0, "is_reserved": 0, "fusion_lat": 0.0, "lat": 38.904022499999996, "fusion_lon": 0.0, "rental_uris": {"ios": "https://dc.lft.to/lastmile_qr_scan", "android": "https://dc.lft.to/lastmile_qr_scan"}, "lon": -77.062983, "bike_id": "9b9bff38f8d70e06451c6bf80ff7ab94", "type": "electric_scooter", "name": "9b9bff38f8d70e06451c6bf80ff7ab94"}, {"is_disabled": 0, "is_reserved": 0, "fusion_lat": 0.0, "lat": 38.922414333333336, "fusion_lon": 0.0, "rental_uris": {"ios": "https://dc.lft.to/lastmile_qr_scan", "android": "https://dc.lft.to/lastmile_qr_scan"}, "lon": -77.0351975, "bike_id": "db2f7e6e98723627089bd019b424c6af", "type": "electric_scooter", "name": "db2f7e6e98723627089bd019b424c6af"}, {"is_disabled": 0, "is_reserved": 0, "fusion_lat": 0.0, "lat": 38.905193833333335, "fusion_lon": 0.0, "rental_uris": {"ios": "https://dc.lft.to/lastmile_qr_scan", "android": "https://dc.lft.to/lastmile_qr_scan"}, "lon": -77.00928483333334, "bike_id": "9e66e2030dd63ce13dd32c9bf5891373", "type": "electric_scooter", "name": "9e66e2030dd63ce13dd32c9bf5891373"}, {"is_disabled": 0, "is_reserved": 0, "fusion_lat": 0.0, "lat": 38.90426933333333, "fusion_lon": 0.0, "rental_uris": {"ios": "https://dc.lft.to/lastmile_qr_scan", "android": "https://dc.lft.to/lastmile_qr_scan"}, "lon": -77.0611585, "bike_id": "405e07e267b775711644fdf956233257", "type": "electric_scooter", "name": "405e07e267b775711644fdf956233257"}, {"is_disabled": 0, "is_reserved": 0, "fusion_lat": 0.0, "lat": 38.90418833333333, "fusion_lon": 0.0, "rental_uris": {"ios": "https://dc.lft.to/lastmile_qr_scan", "android": "https://dc.lft.to/lastmile_qr_scan"}, "lon": -77.029654, "bike_id": "56ba08dba065d4c566326718b7dac54c", "type": "electric_scooter", "name": "56ba08dba065d4c566326718b7dac54c"}, {"is_disabled": 0, "is_reserved": 0, "fusion_lat": 0.0, "lat": 38.928839833333335, "fusion_lon": 0.0, "rental_uris": {"ios": "https://dc.lft.to/lastmile_qr_scan", "android": "https://dc.lft.to/lastmile_qr_scan"}, "lon": -77.03992833333334, "bike_id": "67119cf05fc3ad78741d82661ef86428", "type": "electric_scooter", "name": "67119cf05fc3ad78741d82661ef86428"}, {"is_disabled": 0, "is_reserved": 0, "fusion_lat": 0.0, "lat": 38.918274, "fusion_lon": 0.0, "rental_uris": {"ios": "https://dc.lft.to/lastmile_qr_scan", "android": "https://dc.lft.to/lastmile_qr_scan"}, "lon": -77.02420783333334, "bike_id": "608a1c069ef6ff7be5a456e16aca05ee", "type": "electric_scooter", "name": "608a1c069ef6ff7be5a456e16aca05ee"}, {"is_disabled": 0, "is_reserved": 0, "fusion_lat": 0.0, "lat": 38.91958783333333, "fusion_lon": 0.0, "rental_uris": {"ios": "https://dc.lft.to/lastmile_qr_scan", "android": "https://dc.lft.to/lastmile_qr_scan"}, "lon": -77.02305266666667, "bike_id": "531ec5a9a16613b2ae88a8103ea52025", "type": "electric_scooter", "name": "531ec5a9a16613b2ae88a8103ea52025"}, {"is_disabled": 0, "is_reserved": 0, "fusion_lat": 0.0, "lat": 38.89981916666667, "fusion_lon": 0.0, "rental_uris": {"ios": "https://dc.lft.to/lastmile_qr_scan", "android": "https://dc.lft.to/lastmile_qr_scan"}, "lon": -77.04175466666666, "bike_id": "ba003ea49111dc8bbfe4524c36703e01", "type": "electric_bike", "name": "ba003ea49111dc8bbfe4524c36703e01"}, {"is_disabled": 0, "is_reserved": 0, "fusion_lat": 0.0, "lat": 38.944523333333336, "fusion_lon": 0.0, "rental_uris": {"ios": "https://dc.lft.to/lastmile_qr_scan", "android": "https://dc.lft.to/lastmile_qr_scan"}, "lon": -77.032832, "bike_id": "a13837f6f65ee0c6dab2ff1f5b8cf8f4", "type": "electric_scooter", "name": "a13837f6f65ee0c6dab2ff1f5b8cf8f4"}, {"is_disabled": 0, "is_reserved": 0, "fusion_lat": 0.0, "lat": 38.90657366666667, "fusion_lon": 0.0, "rental_uris": {"ios": "https://dc.lft.to/lastmile_qr_scan", "android": "https://dc.lft.to/lastmile_qr_scan"}, "lon": -76.97941583333333, "bike_id": "8c049da8394c9cb927d2ea34d0478750", "type": "electric_scooter", "name": "8c049da8394c9cb927d2ea34d0478750"}, {"is_disabled": 0, "is_reserved": 0, "fusion_lat": 0.0, "lat": 38.80733466666667, "fusion_lon": 0.0, "rental_uris": {"ios": "https://dc.lft.to/lastmile_qr_scan", "android": "https://dc.lft.to/lastmile_qr_scan"}, "lon": -76.99262733333333, "bike_id": "2f4879adc29751542bb91ffff2928acb", "type": "electric_bike", "name": "2f4879adc29751542bb91ffff2928acb"}, {"is_disabled": 0, "is_reserved": 0, "fusion_lat": 0.0, "lat": 38.92453866666666, "fusion_lon": 0.0, "rental_uris": {"ios": "https://dc.lft.to/lastmile_qr_scan", "android": "https://dc.lft.to/lastmile_qr_scan"}, "lon": -77.02041816666667, "bike_id": "c9e7968ba35f390b6086ba18be24109e", "type": "electric_scooter", "name": "c9e7968ba35f390b6086ba18be24109e"}, {"is_disabled": 0, "is_reserved": 0, "fusion_lat": 0.0, "lat": 38.96225483333333, "fusion_lon": 0.0, "rental_uris": {"ios": "https://dc.lft.to/lastmile_qr_scan", "android": "https://dc.lft.to/lastmile_qr_scan"}, "lon": -77.02624916666667, "bike_id": "605d361eeac2413b2329f5a79f186964", "type": "electric_bike", "name": "605d361eeac2413b2329f5a79f186964"}, {"is_disabled": 0, "is_reserved": 0, "fusion_lat": 0.0, "lat": 38.9218905, "fusion_lon": 0.0, "rental_uris": {"ios": "https://dc.lft.to/lastmile_qr_scan", "android": "https://dc.lft.to/lastmile_qr_scan"}, "lon": -76.9985725, "bike_id": "a68547a3be4887008f3fd943231df005", "type": "electric_scooter", "name": "a68547a3be4887008f3fd943231df005"}, {"is_disabled": 0, "is_reserved": 0, "fusion_lat": 0.0, "lat": 38.881464666666666, "fusion_lon": 0.0, "rental_uris": {"ios": "https://dc.lft.to/lastmile_qr_scan", "android": "https://dc.lft.to/lastmile_qr_scan"}, "lon": -76.99624233333333, "bike_id": "d096e46ff830fbd81ae89ce833e35ebd", "type": "electric_scooter", "name": "d096e46ff830fbd81ae89ce833e35ebd"}, {"is_disabled": 0, "is_reserved": 0, "fusion_lat": 0.0, "lat": 38.93353283333333, "fusion_lon": 0.0, "rental_uris": {"ios": "https://dc.lft.to/lastmile_qr_scan", "android": "https://dc.lft.to/lastmile_qr_scan"}, "lon": -77.02561983333334, "bike_id": "1a8396082cf5b16b031a5564b60d51b6", "type": "electric_scooter", "name": "1a8396082cf5b16b031a5564b60d51b6"}, {"is_disabled": 0, "is_reserved": 0, "fusion_lat": 0.0, "lat": 38.91722866666667, "fusion_lon": 0.0, "rental_uris": {"ios": "https://dc.lft.to/lastmile_qr_scan", "android": "https://dc.lft.to/lastmile_qr_scan"}, "lon": -77.03861133333334, "bike_id": "1aee8b16709c00ef902553d42122ba7c", "type": "electric_scooter", "name": "1aee8b16709c00ef902553d42122ba7c"}, {"is_disabled": 0, "is_reserved": 0, "fusion_lat": 0.0, "lat": 38.8920635, "fusion_lon": 0.0, "rental_uris": {"ios": "https://dc.lft.to/lastmile_qr_scan", "android": "https://dc.lft.to/lastmile_qr_scan"}, "lon": -77.0029205, "bike_id": "5aea6cae8a311b98a04cca985e06f77d", "type": "electric_scooter", "name": "5aea6cae8a311b98a04cca985e06f77d"}, {"is_disabled": 0, "is_reserved": 0, "fusion_lat": 0.0, "lat": 38.923409, "fusion_lon": 0.0, "rental_uris": {"ios": "https://dc.lft.to/lastmile_qr_scan", "android": "https://dc.lft.to/lastmile_qr_scan"}, "lon": -76.9987435, "bike_id": "f1908d8cac70b6ce5fff6d4f90d60d69", "type": "electric_scooter", "name": "f1908d8cac70b6ce5fff6d4f90d60d69"}, {"is_disabled": 0, "is_reserved": 0, "fusion_lat": 0.0, "lat": 38.87474683333333, "fusion_lon": 0.0, "rental_uris": {"ios": "https://dc.lft.to/lastmile_qr_scan", "android": "https://dc.lft.to/lastmile_qr_scan"}, "lon": -77.005171, "bike_id": "4eab98fb7204edb19ecb7e411f6fb779", "type": "electric_scooter", "name": "4eab98fb7204edb19ecb7e411f6fb779"}, {"is_disabled": 0, "is_reserved": 0, "fusion_lat": 0.0, "lat": 38.892350666666665, "fusion_lon": 0.0, "rental_uris": {"ios": "https://dc.lft.to/lastmile_qr_scan", "android": "https://dc.lft.to/lastmile_qr_scan"}, "lon": -77.02383983333333, "bike_id": "bd8b86e67c0455b9f3e67eaa04920b52", "type": "electric_scooter", "name": "bd8b86e67c0455b9f3e67eaa04920b52"}, {"is_disabled": 0, "is_reserved": 0, "fusion_lat": 0.0, "lat": 38.94182216666667, "fusion_lon": 0.0, "rental_uris": {"ios": "https://dc.lft.to/lastmile_qr_scan", "android": "https://dc.lft.to/lastmile_qr_scan"}, "lon": -77.03394533333334, "bike_id": "9f227e0f5dddfbd467a040b997715ecc", "type": "electric_scooter", "name": "9f227e0f5dddfbd467a040b997715ecc"}, {"is_disabled": 0, "is_reserved": 0, "fusion_lat": 0.0, "lat": 38.91524033333334, "fusion_lon": 0.0, "rental_uris": {"ios": "https://dc.lft.to/lastmile_qr_scan", "android": "https://dc.lft.to/lastmile_qr_scan"}, "lon": -76.98361083333333, "bike_id": "c8535d62a428d57c1e15162aa4cb740d", "type": "electric_scooter", "name": "c8535d62a428d57c1e15162aa4cb740d"}, {"is_disabled": 0, "is_reserved": 0, "fusion_lat": 0.0, "lat": 38.920264833333334, "fusion_lon": 0.0, "rental_uris": {"ios": "https://dc.lft.to/lastmile_qr_scan", "android": "https://dc.lft.to/lastmile_qr_scan"}, "lon": -76.99976866666667, "bike_id": "05bd5e8f1687922316e5a022fbb1a013", "type": "electric_scooter", "name": "05bd5e8f1687922316e5a022fbb1a013"}, {"is_disabled": 0, "is_reserved": 0, "fusion_lat": 0.0, "lat": 38.898528666666664, "fusion_lon": 0.0, "rental_uris": {"ios": "https://dc.lft.to/lastmile_qr_scan", "android": "https://dc.lft.to/lastmile_qr_scan"}, "lon": -77.00192766666666, "bike_id": "b6b554216e4050fa2a6c15236fc5c05f", "type": "electric_scooter", "name": "b6b554216e4050fa2a6c15236fc5c05f"}, {"is_disabled": 0, "is_reserved": 0, "fusion_lat": 0.0, "lat": 38.93041816666667, "fusion_lon": 0.0, "rental_uris": {"ios": "https://dc.lft.to/lastmile_qr_scan", "android": "https://dc.lft.to/lastmile_qr_scan"}, "lon": -77.02966633333334, "bike_id": "4dd6e4d98080def4ffcd66bed0ef315e", "type": "electric_scooter", "name": "4dd6e4d98080def4ffcd66bed0ef315e"}, {"is_disabled": 0, "is_reserved": 0, "fusion_lat": 0.0, "lat": 38.921725333333335, "fusion_lon": 0.0, "rental_uris": {"ios": "https://dc.lft.to/lastmile_qr_scan", "android": "https://dc.lft.to/lastmile_qr_scan"}, "lon": -77.01815083333334, "bike_id": "efd4ddb8c8b3e8ba808816d24e6b585b", "type": "electric_scooter", "name": "efd4ddb8c8b3e8ba808816d24e6b585b"}, {"is_disabled": 0, "is_reserved": 0, "fusion_lat": 0.0, "lat": 38.92855183333333, "fusion_lon": 0.0, "rental_uris": {"ios": "https://dc.lft.to/lastmile_qr_scan", "android": "https://dc.lft.to/lastmile_qr_scan"}, "lon": -77.013943, "bike_id": "5d962993bc1d576a0b8953680711bf7e", "type": "electric_scooter", "name": "5d962993bc1d576a0b8953680711bf7e"}, {"is_disabled": 0, "is_reserved": 0, "fusion_lat": 0.0, "lat": 38.91408066666666, "fusion_lon": 0.0, "rental_uris": {"ios": "https://dc.lft.to/lastmile_qr_scan", "android": "https://dc.lft.to/lastmile_qr_scan"}, "lon": -77.0308875, "bike_id": "d713617a45aedeef5e3c3f5704dba7a1", "type": "electric_scooter", "name": "d713617a45aedeef5e3c3f5704dba7a1"}, {"is_disabled": 0, "is_reserved": 0, "fusion_lat": 0.0, "lat": 38.881255333333335, "fusion_lon": 0.0, "rental_uris": {"ios": "https://dc.lft.to/lastmile_qr_scan", "android": "https://dc.lft.to/lastmile_qr_scan"}, "lon": -76.9928265, "bike_id": "3dc9c19507dcb7ad98ce7c01a46aeff5", "type": "electric_scooter", "name": "3dc9c19507dcb7ad98ce7c01a46aeff5"}, {"is_disabled": 0, "is_reserved": 0, "fusion_lat": 0.0, "lat": 38.960229166666664, "fusion_lon": 0.0, "rental_uris": {"ios": "https://dc.lft.to/lastmile_qr_scan", "android": "https://dc.lft.to/lastmile_qr_scan"}, "lon": -77.02824183333334, "bike_id": "1db9210c037aae04e7c399625da085b1", "type": "electric_scooter", "name": "1db9210c037aae04e7c399625da085b1"}, {"is_disabled": 0, "is_reserved": 0, "fusion_lat": 0.0, "lat": 38.90784283333333, "fusion_lon": 0.0, "rental_uris": {"ios": "https://dc.lft.to/lastmile_qr_scan", "android": "https://dc.lft.to/lastmile_qr_scan"}, "lon": -77.04510733333333, "bike_id": "b6268fadd7bea3cd06960b5aac20e2c9", "type": "electric_scooter", "name": "b6268fadd7bea3cd06960b5aac20e2c9"}, {"is_disabled": 0, "is_reserved": 0, "fusion_lat": 0.0, "lat": 38.90549933333333, "fusion_lon": 0.0, "rental_uris": {"ios": "https://dc.lft.to/lastmile_qr_scan", "android": "https://dc.lft.to/lastmile_qr_scan"},