{"data": {"bikes": [{"fusion_lat": 0.0, "type": "electric_scooter", "name": "5373f0635fab49a22e6fe88bc65553a4", "fusion_lon": 0.0, "bike_id": "5373f0635fab49a22e6fe88bc65553a4", "is_reserved": 0, "rental_uris": {"android": "https://dc.lft.to/lastmile_qr_scan", "ios": "https://dc.lft.to/lastmile_qr_scan"}, "lat": 38.88732266666667, "is_disabled": 0, "lon": -77.02581066666667}, {"fusion_lat": 0.0, "type": "electric_scooter", "name": "f1598a3460cb12fdb9046f4030d5879f", "fusion_lon": 0.0, "bike_id": "f1598a3460cb12fdb9046f4030d5879f", "is_reserved": 0, "rental_uris": {"android": "https://dc.lft.to/lastmile_qr_scan", "ios": "https://dc.lft.to/lastmile_qr_scan"}, "lat": 38.868958166666665, "is_disabled": 0, "lon": -76.982313}, {"fusion_lat": 0.0, "type": "electric_scooter", "name": "f35bb9df05bccd67c1cd9248c54fe580", "fusion_lon": 0.0, "bike_id": "f35bb9df05bccd67c1cd9248c54fe580", "is_reserved": 0, "rental_uris": {"android": "https://dc.lft.to/lastmile_qr_scan", "ios": "https://dc.lft.to/lastmile_qr_scan"}, "lat": 38.91188966666667, "is_disabled": 0, "lon": -77.03016766666667}, {"fusion_lat": 0.0, "type": "electric_scooter", "name": "c9d9378267d573ea72db383a362d1a73", "fusion_lon": 0.0, "bike_id": "c9d9378267d573ea72db383a362d1a73", "is_reserved": 0, "rental_uris": {"android": "https://dc.lft.to/lastmile_qr_scan", "ios": "https://dc.lft.to/lastmile_qr_scan"}, "lat": 38.898144, "is_disabled": 0, "lon": -77.043516}, {"fusion_lat": 0.0, "type": "electric_scooter", "name": "a4bffba683b93caad493da03cc3aae63", "fusion_lon": 0.0, "bike_id": "a4bffba683b93caad493da03cc3aae63", "is_reserved": 0, "rental_uris": {"android": "https://dc.lft.to/lastmile_qr_scan", "ios": "https://dc.lft.to/lastmile_qr_scan"}, "lat": 38.9243685, "is_disabled": 0, "lon": -77.0520145}, {"fusion_lat": 0.0, "type": "electric_scooter", "name": "38543b431d08cd8f30f8147d22f82d5c", "fusion_lon": 0.0, "bike_id": "38543b431d08cd8f30f8147d22f82d5c", "is_reserved": 0, "rental_uris": {"android": "https://dc.lft.to/lastmile_qr_scan", "ios": "https://dc.lft.to/lastmile_qr_scan"}, "lat": 38.8763045, "is_disabled": 0, "lon": -77.00937366666666}, {"fusion_lat": 0.0, "type": "electric_scooter", "name": "b6bd3272cb9e0505d18e5035e7743134", "fusion_lon": 0.0, "bike_id": "b6bd3272cb9e0505d18e5035e7743134", "is_reserved": 0, "rental_uris": {"android": "https://dc.lft.to/lastmile_qr_scan", "ios": "https://dc.lft.to/lastmile_qr_scan"}, "lat": 38.89350666666667, "is_disabled": 0, "lon": -77.04195583333333}, {"fusion_lat": 0.0, "type": "electric_scooter", "name": "cdb72049a533afda5c9d60d8851b493f", "fusion_lon": 0.0, "bike_id": "cdb72049a533afda5c9d60d8851b493f", "is_reserved": 0, "rental_uris": {"android": "https://dc.lft.to/lastmile_qr_scan", "ios": "https://dc.lft.to/lastmile_qr_scan"}, "lat": 38.92828433333333, "is_disabled": 0, "lon": -77.01398966666666}, {"fusion_lat": 0.0, "type": "electric_scooter", "name": "bf0242da4d8c5340710d6daf5a4abcf8", "fusion_lon": 0.0, "bike_id": "bf0242da4d8c5340710d6daf5a4abcf8", "is_reserved": 0, "rental_uris": {"android": "https://dc.lft.to/lastmile_qr_scan", "ios": "https://dc.lft.to/lastmile_qr_scan"}, "lat": 38.903513, "is_disabled": 0, "lon": -77.03302983333333}, {"fusion_lat": 0.0, "type": "electric_scooter", "name": "0fb160d3daaae91c172a7d81348146fc", "fusion_lon": 0.0, "bike_id": "0fb160d3daaae91c172a7d81348146fc", "is_reserved": 0, "rental_uris": {"android": "https://dc.lft.to/lastmile_qr_scan", "ios": "https://dc.lft.to/lastmile_qr_scan"}, "lat": 38.893662, "is_disabled": 0, "lon": -76.94996866666666}, {"fusion_lat": 0.0, "type": "electric_scooter", "name": "c8e1d273f469182c03a407ab0629255b", "fusion_lon": 0.0, "bike_id": "c8e1d273f469182c03a407ab0629255b", "is_reserved": 0, "rental_uris": {"android": "https://dc.lft.to/lastmile_qr_scan", "ios": "https://dc.lft.to/lastmile_qr_scan"}, "lat": 38.892205, "is_disabled": 0, "lon": -77.0437315}, {"fusion_lat": 0.0, "type": "electric_scooter", "name": "a8ed2323db7c83633b2ac5e6889d7752", "fusion_lon": 0.0, "bike_id": "a8ed2323db7c83633b2ac5e6889d7752", "is_reserved": 0, "rental_uris": {"android": "https://dc.lft.to/lastmile_qr_scan", "ios": "https://dc.lft.to/lastmile_qr_scan"}, "lat": 38.86698633333334, "is_disabled": 0, "lon": -76.9871245}, {"fusion_lat": 0.0, "type": "electric_scooter", "name": "8f1297635e9038f32fd5e368c50c686d", "fusion_lon": 0.0, "bike_id": "8f1297635e9038f32fd5e368c50c686d", "is_reserved": 0, "rental_uris": {"android": "https://dc.lft.to/lastmile_qr_scan", "ios": "https://dc.lft.to/lastmile_qr_scan"}, "lat": 38.8924795, "is_disabled": 0, "lon": -77.04655233333334}, {"fusion_lat": 0.0, "type": "electric_scooter", "name": "c99bebbf8258c5f40c2b69d2d8decf59", "fusion_lon": 0.0, "bike_id": "c99bebbf8258c5f40c2b69d2d8decf59", "is_reserved": 0, "rental_uris": {"android": "https://dc.lft.to/lastmile_qr_scan", "ios": "https://dc.lft.to/lastmile_qr_scan"}, "lat": 38.930822, "is_disabled": 0, "lon": -77.004122}, {"fusion_lat": 0.0, "type": "electric_scooter", "name": "c4491a7783762f36ddfc8a2f94d41fa5", "fusion_lon": 0.0, "bike_id": "c4491a7783762f36ddfc8a2f94d41fa5", "is_reserved": 0, "rental_uris": {"android": "https://dc.lft.to/lastmile_qr_scan", "ios": "https://dc.lft.to/lastmile_qr_scan"}, "lat": 38.905930833333336, "is_disabled": 0, "lon": -77.02195583333334}, {"fusion_lat": 0.0, "type": "electric_scooter", "name": "c2613c8e5162218e3df7f1fc1491f657", "fusion_lon": 0.0, "bike_id": "c2613c8e5162218e3df7f1fc1491f657", "is_reserved": 0, "rental_uris": {"android": "https://dc.lft.to/lastmile_qr_scan", "ios": "https://dc.lft.to/lastmile_qr_scan"}, "lat": 38.90241133333333, "is_disabled": 0, "lon": -77.0264755}, {"fusion_lat": 0.0, "type": "electric_scooter", "name": "9d130eb68156be68e788859c4499a224", "fusion_lon": 0.0, "bike_id": "9d130eb68156be68e788859c4499a224", "is_reserved": 0, "rental_uris": {"android": "https://dc.lft.to/lastmile_qr_scan", "ios": "https://dc.lft.to/lastmile_qr_scan"}, "lat": 38.91702633333333, "is_disabled": 0, "lon": -77.00120533333333}, {"fusion_lat": 0.0, "type": "electric_scooter", "name": "2a0f91a86e0508815667722862f76827", "fusion_lon": 0.0, "bike_id": "2a0f91a86e0508815667722862f76827", "is_reserved": 0, "rental_uris": {"android": "https://dc.lft.to/lastmile_qr_scan", "ios": "https://dc.lft.to/lastmile_qr_scan"}, "lat": 38.8921905, "is_disabled": 0, "lon": -77.04374033333333}, {"fusion_lat": 0.0, "type": "electric_scooter", "name": "7fdad1c543c7dacae1747582c35df194", "fusion_lon": 0.0, "bike_id": "7fdad1c543c7dacae1747582c35df194", "is_reserved": 0, "rental_uris": {"android": "https://dc.lft.to/lastmile_qr_scan", "ios": "https://dc.lft.to/lastmile_qr_scan"}, "lat": 38.91461666666667, "is_disabled": 0, "lon": -77.00908366666667}, {"fusion_lat": 0.0, "type": "electric_scooter", "name": "ac5c78c0ecb7daa8ed64981460dfdc2b", "fusion_lon": 0.0, "bike_id": "ac5c78c0ecb7daa8ed64981460dfdc2b", "is_reserved": 0, "rental_uris": {"android": "https://dc.lft.to/lastmile_qr_scan", "ios": "https://dc.lft.to/lastmile_qr_scan"}, "lat": 38.904706166666664, "is_disabled": 0, "lon": -77.02807133333333}, {"fusion_lat": 0.0, "type": "electric_bike", "name": "162c81a88452d08686cd47d5e7285e09", "fusion_lon": 0.0, "bike_id": "162c81a88452d08686cd47d5e7285e09", "is_reserved": 0, "rental_uris": {"android": "https://dc.lft.to/lastmile_qr_scan", "ios": "https://dc.lft.to/lastmile_qr_scan"}, "lat": 38.959276, "is_disabled": 0, "lon": -76.9253535}, {"fusion_lat": 0.0, "type": "electric_scooter", "name": "d3fcd37aadfb8a8c2e658fa5ef08f031", "fusion_lon": 0.0, "bike_id": "d3fcd37aadfb8a8c2e658fa5ef08f031", "is_reserved": 0, "rental_uris": {"android": "https://dc.lft.to/lastmile_qr_scan", "ios": "https://dc.lft.to/lastmile_qr_scan"}, "lat": 38.91530083333333, "is_disabled": 0, "lon": -77.02175366666667}, {"fusion_lat": 0.0, "type": "electric_scooter", "name": "a75e2452da5d60b920a12640e513a298", "fusion_lon": 0.0, "bike_id": "a75e2452da5d60b920a12640e513a298", "is_reserved": 0, "rental_uris": {"android": "https://dc.lft.to/lastmile_qr_scan", "ios": "https://dc.lft.to/lastmile_qr_scan"}, "lat": 38.902470666666666, "is_disabled": 0, "lon": -77.01836583333333}, {"fusion_lat": 0.0, "type": "electric_scooter", "name": "51878404463d7075baf90fc575ae7f9e", "fusion_lon": 0.0, "bike_id": "51878404463d7075baf90fc575ae7f9e", "is_reserved": 0, "rental_uris": {"android": "https://dc.lft.to/lastmile_qr_scan", "ios": "https://dc.lft.to/lastmile_qr_scan"}, "lat": 38.9074965, "is_disabled": 0, "lon": -77.0415025}, {"fusion_lat": 0.0, "type": "electric_scooter", "name": "ccb7b9eb4d72b7ad0d017fbd8c2655d2", "fusion_lon": 0.0, "bike_id": "ccb7b9eb4d72b7ad0d017fbd8c2655d2", "is_reserved": 0, "rental_uris": {"android": "https://dc.lft.to/lastmile_qr_scan", "ios": "https://dc.lft.to/lastmile_qr_scan"}, "lat": 38.9409635, "is_disabled": 0, "lon": -77.021161}, {"fusion_lat": 0.0, "type": "electric_scooter", "name": "2dab9ed5579b3b1cecfb537f352589e8", "fusion_lon": 0.0, "bike_id": "2dab9ed5579b3b1cecfb537f352589e8", "is_reserved": 0, "rental_uris": {"android": "https://dc.lft.to/lastmile_qr_scan", "ios": "https://dc.lft.to/lastmile_qr_scan"}, "lat": 38.916194833333336, "is_disabled": 0, "lon": -77.03161333333334}, {"fusion_lat": 0.0, "type": "electric_scooter", "name": "8cb679e024f9a57e8ed03249d23fe143", "fusion_lon": 0.0, "bike_id": "8cb679e024f9a57e8ed03249d23fe143", "is_reserved": 0, "rental_uris": {"android": "https://dc.lft.to/lastmile_qr_scan", "ios": "https://dc.lft.to/lastmile_qr_scan"}, "lat": 38.918217166666665, "is_disabled": 0, "lon": -77.02424133333334}, {"fusion_lat": 0.0, "type": "electric_bike", "name": "06faba426c50cd42781898c3c8d8919a", "fusion_lon": 0.0, "bike_id": "06faba426c50cd42781898c3c8d8919a", "is_reserved": 0, "rental_uris": {"android": "https://dc.lft.to/lastmile_qr_scan", "ios": "https://dc.lft.to/lastmile_qr_scan"}, "lat": 38.874762833333335, "is_disabled": 0, "lon": -76.96513066666667}, {"fusion_lat": 0.0, "type": "electric_bike", "name": "bff430aacf62a4169ea5dd1b7aa97269", "fusion_lon": 0.0, "bike_id": "bff430aacf62a4169ea5dd1b7aa97269", "is_reserved": 0, "rental_uris": {"android": "https://dc.lft.to/lastmile_qr_scan", "ios": "https://dc.lft.to/lastmile_qr_scan"}, "lat": 38.96898266666667, "is_disabled": 0, "lon": -76.994921}, {"fusion_lat": 0.0, "type": "electric_bike", "name": "0f2576d5f6039ec35fffb1d6db103ce5", "fusion_lon": 0.0, "bike_id": "0f2576d5f6039ec35fffb1d6db103ce5", "is_reserved": 0, "rental_uris": {"android": "https://dc.lft.to/lastmile_qr_scan", "ios": "https://dc.lft.to/lastmile_qr_scan"}, "lat": 38.96324466666667, "is_disabled": 0, "lon": -76.97360883333333}, {"fusion_lat": 0.0, "type": "electric_scooter", "name": "eca20657ed7d9a9846cab8e79c2ff148", "fusion_lon": 0.0, "bike_id": "eca20657ed7d9a9846cab8e79c2ff148", "is_reserved": 0, "rental_uris": {"android": "https://dc.lft.to/lastmile_qr_scan", "ios": "https://dc.lft.to/lastmile_qr_scan"}, "lat": 38.908643, "is_disabled": 0, "lon": -77.08596416666667}, {"fusion_lat": 0.0, "type": "electric_scooter", "name": "51bfdfd9e17065c78137208e592b3399", "fusion_lon": 0.0, "bike_id": "51bfdfd9e17065c78137208e592b3399", "is_reserved": 0, "rental_uris": {"android": "https://dc.lft.to/lastmile_qr_scan", "ios": "https://dc.lft.to/lastmile_qr_scan"}, "lat": 38.924253666666665, "is_disabled": 0, "lon": -77.05180983333334}, {"fusion_lat": 0.0, "type": "electric_scooter", "name": "1d63250b6331d71b7d081d40e4563c9e", "fusion_lon": 0.0, "bike_id": "1d63250b6331d71b7d081d40e4563c9e", "is_reserved": 0, "rental_uris": {"android": "https://dc.lft.to/lastmile_qr_scan", "ios": "https://dc.lft.to/lastmile_qr_scan"}, "lat": 38.92843, "is_disabled": 0, "lon": -77.01611783333334}, {"fusion_lat": 0.0, "type": "electric_scooter", "name": "9730b294ea6d8e82d401dfd7234e7065", "fusion_lon": 0.0, "bike_id": "9730b294ea6d8e82d401dfd7234e7065", "is_reserved": 0, "rental_uris": {"android": "https://dc.lft.to/lastmile_qr_scan", "ios": "https://dc.lft.to/lastmile_qr_scan"}, "lat": 38.887518, "is_disabled": 0, "lon": -77.03159866666667}, {"fusion_lat": 0.0, "type": "electric_scooter", "name": "2aa52678640d595b2c7cd693c1570b3f", "fusion_lon": 0.0, "bike_id": "2aa52678640d595b2c7cd693c1570b3f", "is_reserved": 0, "rental_uris": {"android": "https://dc.lft.to/lastmile_qr_scan", "ios": "https://dc.lft.to/lastmile_qr_scan"}, "lat": 38.9126955, "is_disabled": 0, "lon": -77.02251166666667}, {"fusion_lat": 0.0, "type": "electric_bike", "name": "b9b1701c5d90cef9aff2bcf129a63866", "fusion_lon": 0.0, "bike_id": "b9b1701c5d90cef9aff2bcf129a63866", "is_reserved": 0, "rental_uris": {"android": "https://dc.lft.to/lastmile_qr_scan", "ios": "https://dc.lft.to/lastmile_qr_scan"}, "lat": 38.88402583333333, "is_disabled": 0, "lon": -76.960597}, {"fusion_lat": 0.0, "type": "electric_scooter", "name": "8caf77032a41440cc245dd9bd1ab6bf5", "fusion_lon": 0.0, "bike_id": "8caf77032a41440cc245dd9bd1ab6bf5", "is_reserved": 0, "rental_uris": {"android": "https://dc.lft.to/lastmile_qr_scan", "ios": "https://dc.lft.to/lastmile_qr_scan"}, "lat": 38.912336833333335, "is_disabled": 0, "lon": -77.04488933333333}, {"fusion_lat": 0.0, "type": "electric_scooter", "name": "30b7b6c19a32d574798343ce1c23daf6", "fusion_lon": 0.0, "bike_id": "30b7b6c19a32d574798343ce1c23daf6", "is_reserved": 0, "rental_uris": {"android": "https://dc.lft.to/lastmile_qr_scan", "ios": "https://dc.lft.to/lastmile_qr_scan"}, "lat": 38.90664483333333, "is_disabled": 0, "lon": -77.0386255}, {"fusion_lat": 0.0, "type": "electric_scooter", "name": "5cb47d2541052cfe5f41eb3d6338b22f", "fusion_lon": 0.0, "bike_id": "5cb47d2541052cfe5f41eb3d6338b22f", "is_reserved": 0, "rental_uris": {"android": "https://dc.lft.to/lastmile_qr_scan", "ios": "https://dc.lft.to/lastmile_qr_scan"}, "lat": 38.9117675, "is_disabled": 0, "lon": -77.0449225}, {"fusion_lat": 0.0, "type": "electric_scooter", "name": "48f1ff0825456c3f5f36e07ae7472f84", "fusion_lon": 0.0, "bike_id": "48f1ff0825456c3f5f36e07ae7472f84", "is_reserved": 0, "rental_uris": {"android": "https://dc.lft.to/lastmile_qr_scan", "ios": "https://dc.lft.to/lastmile_qr_scan"}, "lat": 38.89728133333333, "is_disabled": 0, "lon": -77.009285}, {"fusion_lat": 0.0, "type": "electric_scooter", "name": "5025c7f54f14eb73258a24bcb3b838a3", "fusion_lon": 0.0, "bike_id": "5025c7f54f14eb73258a24bcb3b838a3", "is_reserved": 0, "rental_uris": {"android": "https://dc.lft.to/lastmile_qr_scan", "ios": "https://dc.lft.to/lastmile_qr_scan"}, "lat": 38.916711, "is_disabled": 0, "lon": -77.03209083333333}, {"fusion_lat": 0.0, "type": "electric_scooter", "name": "961e325e50952875436da4118d8c06df", "fusion_lon": 0.0, "bike_id": "961e325e50952875436da4118d8c06df", "is_reserved": 0, "rental_uris": {"android": "https://dc.lft.to/lastmile_qr_scan", "ios": "https://dc.lft.to/lastmile_qr_scan"}, "lat": 38.9044765, "is_disabled": 0, "lon": -77.04476133333333}, {"fusion_lat": 0.0, "type": "electric_scooter", "name": "f801346f68ded4af66cb1548612ebea1", "fusion_lon": 0.0, "bike_id": "f801346f68ded4af66cb1548612ebea1", "is_reserved": 0, "rental_uris": {"android": "https://dc.lft.to/lastmile_qr_scan", "ios": "https://dc.lft.to/lastmile_qr_scan"}, "lat": 38.922538833333334, "is_disabled": 0, "lon": -77.01952033333333}, {"fusion_lat": 0.0, "type": "electric_scooter", "name": "ed448223fb931c414fc934325e20ce03", "fusion_lon": 0.0, "bike_id": "ed448223fb931c414fc934325e20ce03", "is_reserved": 0, "rental_uris": {"android": "https://dc.lft.to/lastmile_qr_scan", "ios": "https://dc.lft.to/lastmile_qr_scan"}, "lat": 38.906076666666664, "is_disabled": 0, "lon": -77.03965083333334}, {"fusion_lat": 0.0, "type": "electric_scooter", "name": "ccb9891d0f14a7b35e1065692fc03f26", "fusion_lon": 0.0, "bike_id": "ccb9891d0f14a7b35e1065692fc03f26", "is_reserved": 0, "rental_uris": {"android": "https://dc.lft.to/lastmile_qr_scan", "ios": "https://dc.lft.to/lastmile_qr_scan"}, "lat": 38.89220983333333, "is_disabled": 0, "lon": -77.00224366666667}, {"fusion_lat": 0.0, "type": "electric_scooter", "name": "4850815b5b4acce93d464221982169ca", "fusion_lon": 0.0, "bike_id": "4850815b5b4acce93d464221982169ca", "is_reserved": 0, "rental_uris": {"android": "https://dc.lft.to/lastmile_qr_scan", "ios": "https://dc.lft.to/lastmile_qr_scan"}, "lat": 38.905562, "is_disabled": 0, "lon": -77.05017183333334}, {"fusion_lat": 0.0, "type": "electric_scooter", "name": "cf3a3a3512f1000ae069d2d2d980b2bb", "fusion_lon": 0.0, "bike_id": "cf3a3a3512f1000ae069d2d2d980b2bb", "is_reserved": 0, "rental_uris": {"android": "https://dc.lft.to/lastmile_qr_scan", "ios": "https://dc.lft.to/lastmile_qr_scan"}, "lat": 38.910619833333335, "is_disabled": 0, "lon": -77.04473133333333}, {"fusion_lat": 0.0, "type": "electric_scooter", "name": "6fbc97e3ce15636450f502aa161db8b3", "fusion_lon": 0.0, "bike_id": "6fbc97e3ce15636450f502aa161db8b3", "is_reserved": 0, "rental_uris": {"android": "https://dc.lft.to/lastmile_qr_scan", "ios": "https://dc.lft.to/lastmile_qr_scan"}, "lat": 38.9241145, "is_disabled": 0, "lon": -77.01955116666667}, {"fusion_lat": 0.0, "type": "electric_bike", "name": "e14685db8fa7e1c6da18b8b6d3ae8f82", "fusion_lon": 0.0, "bike_id": "e14685db8fa7e1c6da18b8b6d3ae8f82", "is_reserved": 0, "rental_uris": {"android": "https://dc.lft.to/lastmile_qr_scan", "ios": "https://dc.lft.to/lastmile_qr_scan"}, "lat": 38.92537183333334, "is_disabled": 0, "lon": -77.00118033333334}, {"fusion_lat": 0.0, "type": "electric_scooter", "name": "67f9593ac961f5c941fc731adf70dbaf", "fusion_lon": 0.0, "bike_id": "67f9593ac961f5c941fc731adf70dbaf", "is_reserved": 0, "rental_uris": {"android": "https://dc.lft.to/lastmile_qr_scan", "ios": "https://dc.lft.to/lastmile_qr_scan"}, "lat": 38.9326945, "is_disabled": 0, "lon": -77.02852233333333}, {"fusion_lat": 0.0, "type": "electric_bike", "name": "7b6cca7e548c6d3dd38b24b5bb704de4", "fusion_lon": 0.0, "bike_id": "7b6cca7e548c6d3dd38b24b5bb704de4", "is_reserved": 0, "rental_uris": {"android": "https://dc.lft.to/lastmile_qr_scan", "ios": "https://dc.lft.to/lastmile_qr_scan"}, "lat": 38.950633833333335, "is_disabled": 0, "lon": -77.06654633333333}, {"fusion_lat": 0.0, "type": "electric_scooter", "name": "dc6a66d6c8dea81e33ff9ebea6ef8370", "fusion_lon": 0.0, "bike_id": "dc6a66d6c8dea81e33ff9ebea6ef8370", "is_reserved": 0, "rental_uris": {"android": "https://dc.lft.to/lastmile_qr_scan", "ios": "https://dc.lft.to/lastmile_qr_scan"}, "lat": 38.866572, "is_disabled": 0, "lon": -76.98886633333333}, {"fusion_lat": 0.0, "type": "electric_scooter", "name": "10595512a2a0ba9f01ff6a7f27d12a09", "fusion_lon": 0.0, "bike_id": "10595512a2a0ba9f01ff6a7f27d12a09", "is_reserved": 0, "rental_uris": {"android": "https://dc.lft.to/lastmile_qr_scan", "ios": "https://dc.lft.to/lastmile_qr_scan"}, "lat": 38.90465316666667, "is_disabled": 0, "lon": -77.03799633333334}, {"fusion_lat": 0.0, "type": "electric_scooter", "name": "3aee393ff118b0574a5d90fa68348dd0", "fusion_lon": 0.0, "bike_id": "3aee393ff118b0574a5d90fa68348dd0", "is_reserved": 0, "rental_uris": {"android": "https://dc.lft.to/lastmile_qr_scan", "ios": "https://dc.lft.to/lastmile_qr_scan"}, "lat": 38.8714295, "is_disabled": 0, "lon": -77.00706583333333}, {"fusion_lat": 0.0, "type": "electric_bike", "name": "0bd71d08194df4f4a790cdc06e4b70f6", "fusion_lon": 0.0, "bike_id": "0bd71d08194df4f4a790cdc06e4b70f6", "is_reserved": 0, "rental_uris": {"android": "https://dc.lft.to/lastmile_qr_scan", "ios": "https://dc.lft.to/lastmile_qr_scan"}, "lat": 38.845031166666665, "is_disabled": 0, "lon": -76.99355416666667}, {"fusion_lat": 0.0, "type": "electric_scooter", "name": "43beb88b496a5610691e8a1068be5ebf", "fusion_lon": 0.0, "bike_id": "43beb88b496a5610691e8a1068be5ebf", "is_reserved": 0, "rental_uris": {"android": "https://dc.lft.to/lastmile_qr_scan", "ios": "https://dc.lft.to/lastmile_qr_scan"}, "lat": 38.91929616666667, "is_disabled": 0, "lon": -77.02506983333333}, {"fusion_lat": 0.0, "type": "electric_scooter", "name": "9d54bbf6fd445d6ffb6a7330c8545d87", "fusion_lon": 0.0, "bike_id": "9d54bbf6fd445d6ffb6a7330c8545d87", "is_reserved": 0, "rental_uris": {"android": "https://dc.lft.to/lastmile_qr_scan", "ios": "https://dc.lft.to/lastmile_qr_scan"}, "lat": 38.8972205, "is_disabled": 0, "lon": -77.01373383333333}, {"fusion_lat": 0.0, "type": "electric_scooter", "name": "052edd35312e2c7909f5cacac2b00765", "fusion_lon": 0.0, "bike_id": "052edd35312e2c7909f5cacac2b00765", "is_reserved": 0, "rental_uris": {"android": "https://dc.lft.to/lastmile_qr_scan", "ios": "https://dc.lft.to/lastmile_qr_scan"}, "lat": 38.87550133333333, "is_disabled": 0, "lon": -77.00523}, {"fusion_lat": 0.0, "type": "electric_scooter", "name": "37541660c51d5d7fa539d8a58e31a5ea", "fusion_lon": 0.0, "bike_id": "37541660c51d5d7fa539d8a58e31a5ea", "is_reserved": 0, "rental_uris": {"android": "https://dc.lft.to/lastmile_qr_scan", "ios": "https://dc.lft.to/lastmile_qr_scan"}, "lat": 38.91536966666666, "is_disabled": 0, "lon": -77.00345366666667}, {"fusion_lat": 0.0, "type": "electric_scooter", "name": "5c142d24270a658c033c8835be823bea", "fusion_lon": 0.0, "bike_id": "5c142d24270a658c033c8835be823bea", "is_reserved": 0, "rental_uris": {"android": "https://dc.lft.to/lastmile_qr_scan", "ios": "https://dc.lft.to/lastmile_qr_scan"}, "lat": 38.87435983333334, "is_disabled": 0, "lon": -77.00085516666667}, {"fusion_lat": 0.0, "type": "electric_scooter", "name": "7a0b99cee2b91c07dd3b92503ef60f5e", "fusion_lon": 0.0, "bike_id": "7a0b99cee2b91c07dd3b92503ef60f5e", "is_reserved": 0, "rental_uris": {"android": "https://dc.lft.to/lastmile_qr_scan", "ios": "https://dc.lft.to/lastmile_qr_scan"}, "lat": 38.92374916666667, "is_disabled": 0, "lon": -77.0302175}, {"fusion_lat": 0.0, "type": "electric_bike", "name": "95a8d4cf59ac00da55000c4fba678b36", "fusion_lon": 0.0, "bike_id": "95a8d4cf59ac00da55000c4fba678b36", "is_reserved": 0, "rental_uris": {"android": "https://dc.lft.to/lastmile_qr_scan", "ios": "https://dc.lft.to/lastmile_qr_scan"}, "lat": 38.98361766666667, "is_disabled": 0, "lon": -76.97217783333333}, {"fusion_lat": 0.0, "type": "electric_scooter", "name": "1e9ea9a3981a6be348c8725a9b441782", "fusion_lon": 0.0, "bike_id": "1e9ea9a3981a6be348c8725a9b441782", "is_reserved": 0, "rental_uris": {"android": "https://dc.lft.to/lastmile_qr_scan", "ios": "https://dc.lft.to/lastmile_qr_scan"}, "lat": 38.89953283333333, "is_disabled": 0, "lon": -76.97532766666667}, {"fusion_lat": 0.0, "type": "electric_scooter", "name": "e63c224b8d46fe2382c82b161b035b74", "fusion_lon": 0.0, "bike_id": "e63c224b8d46fe2382c82b161b035b74", "is_reserved": 0, "rental_uris": {"android": "https://dc.lft.to/lastmile_qr_scan", "ios": "https://dc.lft.to/lastmile_qr_scan"}, "lat": 38.91653316666667, "is_disabled": 0, "lon": -77.03199283333333}, {"fusion_lat": 0.0, "type": "electric_scooter", "name": "d2991c02b373fa09b0a136b6dc5e11e8", "fusion_lon": 0.0, "bike_id": "d2991c02b373fa09b0a136b6dc5e11e8", "is_reserved": 0, "rental_uris": {"android": "https://dc.lft.to/lastmile_qr_scan", "ios": "https://dc.lft.to/lastmile_qr_scan"}, "lat": 38.86651333333333, "is_disabled": 0, "lon": -76.98889033333333}, {"fusion_lat": 0.0, "type": "electric_scooter", "name": "fd0752b31cb0b6dacf97afd662d8acd7", "fusion_lon": 0.0, "bike_id": "fd0752b31cb0b6dacf97afd662d8acd7", "is_reserved": 0, "rental_uris": {"android": "https://dc.lft.to/lastmile_qr_scan", "ios": "https://dc.lft.to/lastmile_qr_scan"}, "lat": 38.89191266666667, "is_disabled": 0, "lon": -76.98859916666666}, {"fusion_lat": 0.0, "type": "electric_scooter", "name": "bc041ba71de32d83b59790f0301246e4", "fusion_lon": 0.0, "bike_id": "bc041ba71de32d83b59790f0301246e4", "is_reserved": 0, "rental_uris": {"android": "https://dc.lft.to/lastmile_qr_scan", "ios": "https://dc.lft.to/lastmile_qr_scan"}, "lat": 38.9247415, "is_disabled": 0, "lon": -77.022083}, {"fusion_lat": 0.0, "type": "electric_scooter", "name": "c96940db0107b50fa776c5aa7a49d684", "fusion_lon": 0.0, "bike_id": "c96940db0107b50fa776c5aa7a49d684", "is_reserved": 0, "rental_uris": {"android": "https://dc.lft.to/lastmile_qr_scan", "ios": "https://dc.lft.to/lastmile_qr_scan"}, "lat": 38.957431, "is_disabled": 0, "lon": -77.02070083333334}, {"fusion_lat": 0.0, "type": "electric_scooter", "name": "4f3adca2f25758e1a38767ba1c9de8d9", "fusion_lon": 0.0, "bike_id": "4f3adca2f25758e1a38767ba1c9de8d9", "is_reserved": 0, "rental_uris": {"android": "https://dc.lft.to/lastmile_qr_scan", "ios": "https://dc.lft.to/lastmile_qr_scan"}, "lat": 38.93112766666667, "is_disabled": 0, "lon": -77.0200455}, {"fusion_lat": 0.0, "type": "electric_scooter", "name": "7861f1ca59a89fe3baa00c246d48f847", "fusion_lon": 0.0, "bike_id": "7861f1ca59a89fe3baa00c246d48f847", "is_reserved": 0, "rental_uris": {"android": "https://dc.lft.to/lastmile_qr_scan", "ios": "https://dc.lft.to/lastmile_qr_scan"}, "lat": 38.908541166666666, "is_disabled": 0, "lon": -77.04299166666667}, {"fusion_lat": 0.0, "type": "electric_scooter", "name": "ab4c7e43f1ec4ab36ad1bd9ecb86bfcd", "fusion_lon": 0.0, "bike_id": "ab4c7e43f1ec4ab36ad1bd9ecb86bfcd", "is_reserved": 0, "rental_uris": {"android": "https://dc.lft.to/lastmile_qr_scan", "ios": "https://dc.lft.to/lastmile_qr_scan"}, "lat": 38.938641, "is_disabled": 0, "lon": -77.02646383333334}, {"fusion_lat": 0.0, "type": "electric_scooter", "name": "e3a169084223aeaaf7db94b46c02a342", "fusion_lon": 0.0, "bike_id": "e3a169084223aeaaf7db94b46c02a342", "is_reserved": 0, "rental_uris": {"android": "https://dc.lft.to/lastmile_qr_scan", "ios": "https://dc.lft.to/lastmile_qr_scan"}, "lat": 38.9111455, "is_disabled": 0, "lon": -77.03580966666667}, {"fusion_lat": 0.0, "type": "electric_scooter", "name": "35e8be53db5b62ca4276adce4f894ccb", "fusion_lon": 0.0, "bike_id": "35e8be53db5b62ca4276adce4f894ccb", "is_reserved": 0, "rental_uris": {"android": "https://dc.lft.to/lastmile_qr_scan", "ios": "https://dc.lft.to/lastmile_qr_scan"}, "lat": 38.910419166666664, "is_disabled": 0, "lon": -77.0412085}, {"fusion_lat": 0.0, "type": "electric_scooter", "name": "5cd1348e12bb148e36461e7ccd4a578e", "fusion_lon": 0.0, "bike_id": "5cd1348e12bb148e36461e7ccd4a578e", "is_reserved": 0, "rental_uris": {"android": "https://dc.lft.to/lastmile_qr_scan", "ios": "https://dc.lft.to/lastmile_qr_scan"}, "lat": 38.903532, "is_disabled": 0, "lon": -77.04325466666667}, {"fusion_lat": 0.0, "type": "electric_scooter", "name": "087f81f92c11e96484f91f3c5e5cc843", "fusion_lon": 0.0, "bike_id": "087f81f92c11e96484f91f3c5e5cc843", "is_reserved": 0, "rental_uris": {"android": "https://dc.lft.to/lastmile_qr_scan", "ios": "https://dc.lft.to/lastmile_qr_scan"}, "lat": 38.924424333333334, "is_disabled": 0, "lon": -77.05760016666666}, {"fusion_lat": 0.0, "type": "electric_scooter", "name": "466aa8325952bafa37bbd2935d7b8f44", "fusion_lon": 0.0, "bike_id": "466aa8325952bafa37bbd2935d7b8f44", "is_reserved": 0, "rental_uris": {"android": "https://dc.lft.to/lastmile_qr_scan", "ios": "https://dc.lft.to/lastmile_qr_scan"}, "lat": 38.9127255, "is_disabled": 0, "lon": -77.04754}, {"fusion_lat": 0.0, "type": "electric_scooter", "name": "2649b3c38b64ea6c3c64a61dc94822cc", "fusion_lon": 0.0, "bike_id": "2649b3c38b64ea6c3c64a61dc94822cc", "is_reserved": 0, "rental_uris": {"android": "https://dc.lft.to/lastmile_qr_scan", "ios": "https://dc.lft.to/lastmile_qr_scan"}, "lat": 38.9125275, "is_disabled": 0, "lon": -77.04421066666667}, {"fusion_lat": 0.0, "type": "electric_scooter", "name": "c703103a6ae462c15b6ebf9db5865fb7", "fusion_lon": 0.0, "bike_id": "c703103a6ae462c15b6ebf9db5865fb7", "is_reserved": 0, "rental_uris": {"android": "https://dc.lft.to/lastmile_qr_scan", "ios": "https://dc.lft.to/lastmile_qr_scan"}, "lat": 38.9144225, "is_disabled": 0, "lon": -77.0670925}, {"fusion_lat": 0.0, "type": "electric_scooter", "name": "0295038ae6b4190ed282d76934df1173", "fusion_lon": 0.0, "bike_id": "0295038ae6b4190ed282d76934df1173", "is_reserved": 0, "rental_uris": {"android": "https://dc.lft.to/lastmile_qr_scan", "ios": "https://dc.lft.to/lastmile_qr_scan"}, "lat": 38.897312666666664, "is_disabled": 0, "lon": -77.0547905}, {"fusion_lat": 0.0, "type": "electric_scooter", "name": "43b69ce4a1a53d82e10db4ec3042f798", "fusion_lon": 0.0, "bike_id": "43b69ce4a1a53d82e10db4ec3042f798", "is_reserved": 0, "rental_uris": {"android": "https://dc.lft.to/lastmile_qr_scan", "ios": "https://dc.lft.to/lastmile_qr_scan"}, "lat": 38.90269283333333, "is_disabled": 0, "lon": -77.045989}, {"fusion_lat": 0.0, "type": "electric_bike", "name": "a77a7116ec65ad813e583986a10cb335", "fusion_lon": 0.0, "bike_id": "a77a7116ec65ad813e583986a10cb335", "is_reserved": 0, "rental_uris": {"android": "https://dc.lft.to/lastmile_qr_scan", "ios": "https://dc.lft.to/lastmile_qr_scan"}, "lat": 39.05785066666667, "is_disabled": 0, "lon": -77.15022666666667}, {"fusion_lat": 0.0, "type": "electric_scooter", "name": "41321b6071ad7ac8751033ae597ee7bf", "fusion_lon": 0.0, "bike_id": "41321b6071ad7ac8751033ae597ee7bf", "is_reserved": 0, "rental_uris": {"android": "https://dc.lft.to/lastmile_qr_scan", "ios": "https://dc.lft.to/lastmile_qr_scan"}, "lat": 38.932475, "is_disabled": 0, "lon": -77.029462}, {"fusion_lat": 0.0, "type": "electric_scooter", "name": "fe65c13cfe4583ca769ffdbf6a24e34d", "fusion_lon": 0.0, "bike_id": "fe65c13cfe4583ca769ffdbf6a24e34d", "is_reserved": 0, "rental_uris": {"android": "https://dc.lft.to/lastmile_qr_scan", "ios": "https://dc.lft.to/lastmile_qr_scan"}, "lat": 38.891935, "is_disabled": 0, "lon": -77.027696}, {"fusion_lat": 0.0, "type": "electric_scooter", "name": "233a92657a4bda3d96542ea2f3a2a34e", "fusion_lon": 0.0, "bike_id": "233a92657a4bda3d96542ea2f3a2a34e", "is_reserved": 0, "rental_uris": {"android": "https://dc.lft.to/lastmile_qr_scan", "ios": "https://dc.lft.to/lastmile_qr_scan"}, "lat": 38.892190166666666, "is_disabled": 0, "lon": -77.02627816666667}, {"fusion_lat": 0.0, "type": "electric_bike", "name": "6a82a5c3ab5c78083d4fa69498d1f8bd", "fusion_lon": 0.0, "bike_id": "6a82a5c3ab5c78083d4fa69498d1f8bd", "is_reserved": 0, "rental_uris": {"android": "https://dc.lft.to/lastmile_qr_scan", "ios": "https://dc.lft.to/lastmile_qr_scan"}, "lat": 38.967425666666664, "is_disabled": 0, "lon": -76.98192366666666}, {"fusion_lat": 0.0, "type": "electric_scooter", "name": "55873cba702413f013ebf9cbc4cb0aa6", "fusion_lon": 0.0, "bike_id": "55873cba702413f013ebf9cbc4cb0aa6", "is_reserved": 0, "rental_uris": {"android": "https://dc.lft.to/lastmile_qr_scan", "ios": "https://dc.lft.to/lastmile_qr_scan"}, "lat": 38.90300933333333, "is_disabled": 0, "lon": -77.04339716666667}, {"fusion_lat": 0.0, "type": "electric_bike", "name": "1633b2437e4b8543865f034efeeb8849", "fusion_lon": 0.0, "bike_id": "1633b2437e4b8543865f034efeeb8849", "is_reserved": 0, "rental_uris": {"android": "https://dc.lft.to/lastmile_qr_scan", "ios": "https://dc.lft.to/lastmile_qr_scan"}, "lat": 39.014729, "is_disabled": 0, "lon": -77.0549525}, {"fusion_lat": 0.0, "type": "electric_scooter", "name": "cd102a210c4c16cd57a89aed84bbdc0c", "fusion_lon": 0.0, "bike_id": "cd102a210c4c16cd57a89aed84bbdc0c", "is_reserved": 0, "rental_uris": {"android": "https://dc.lft.to/lastmile_qr_scan", "ios": "https://dc.lft.to/lastmile_qr_scan"}, "lat": 38.91691183333333, "is_disabled": 0, "lon": -77.03765466666667}, {"fusion_lat": 0.0, "type": "electric_scooter", "name": "632d999c823ec13aff518cce6007b93d", "fusion_lon": 0.0, "bike_id": "632d999c823ec13aff518cce6007b93d", "is_reserved": 0, "rental_uris": {"android": "https://dc.lft.to/lastmile_qr_scan", "ios": "https://dc.lft.to/lastmile_qr_scan"}, "lat": 38.920584166666664, "is_disabled": 0, "lon": -77.025382}, {"fusion_lat": 0.0, "type": "electric_scooter", "name": "3f8a11442a32576c8d44a96c2c3bfec7", "fusion_lon": 0.0, "bike_id": "3f8a11442a32576c8d44a96c2c3bfec7", "is_reserved": 0, "rental_uris": {"android": "https://dc.lft.to/lastmile_qr_scan", "ios": "https://dc.lft.to/lastmile_qr_scan"}, "lat": 38.9233115, "is_disabled": 0, "lon": -77.03583}, {"fusion_lat": 0.0, "type": "electric_scooter", "name": "346802174e545526b4a7a9eb4ebbe323", "fusion_lon": 0.0, "bike_id": "346802174e545526b4a7a9eb4ebbe323", "is_reserved": 0, "rental_uris": {"android": "https://dc.lft.to/lastmile_qr_scan", "ios": "https://dc.lft.to/lastmile_qr_scan"}, "lat": 38.90248616666667, "is_disabled": 0, "lon": -77.02590683333334}, {"fusion_lat": 0.0, "type": "electric_scooter", "name": "2f0db33eda9a1827c5da351706d5f8f2", "fusion_lon": 0.0, "bike_id": "2f0db33eda9a1827c5da351706d5f8f2", "is_reserved": 0, "rental_uris": {"android": "https://dc.lft.to/lastmile_qr_scan", "ios": "https://dc.lft.to/lastmile_qr_scan"}, "lat": 38.90243816666667, "is_disabled": 0, "lon": -77.00197333333334}, {"fusion_lat": 0.0, "type": "electric_scooter", "name": "80993bc8b90fe448fea4509e16673e2e", "fusion_lon": 0.0, "bike_id": "80993bc8b90fe448fea4509e16673e2e", "is_reserved": 0, "rental_uris": {"android": "https://dc.lft.to/lastmile_qr_scan", "ios": "https://dc.lft.to/lastmile_qr_scan"}, "lat": 38.872052, "is_disabled": 0, "lon": -76.978374}, {"fusion_lat": 0.0, "type": "electric_scooter", "name": "f07ca4c7ac2aa590a02cb16f0c773649", "fusion_lon": 0.0, "bike_id": "f07ca4c7ac2aa590a02cb16f0c773649", "is_reserved": 0, "rental_uris": {"android": "https://dc.lft.to/lastmile_qr_scan", "ios": "https://dc.lft.to/lastmile_qr_scan"}, "lat": 38.884842, "is_disabled": 0, "lon": -76.926219}, {"fusion_lat": 0.0, "type": "electric_scooter", "name": "f9c4a22aec89d6a1744e4af061424868", "fusion_lon": 0.0, "bike_id": "f9c4a22aec89d6a1744e4af061424868", "is_reserved": 0, "rental_uris": {"android": "https://dc.lft.to/lastmile_qr_scan", "ios": "https://dc.lft.to/lastmile_qr_scan"}, "lat": 38.8833345, "is_disabled": 0, "lon": -77.01749283333334}, {"fusion_lat": 0.0, "type": "electric_scooter", "name": "ffc62d4a08747c7449af56f9ec12b504", "fusion_lon": 0.0, "bike_id": "ffc62d4a08747c7449af56f9ec12b504", "is_reserved": 0, "rental_uris": {"android": "https://dc.lft.to/lastmile_qr_scan", "ios": "https://dc.lft.to/lastmile_qr_scan"}, "lat": 38.95063666666667, "is_disabled": 0, "lon": -77.080151}, {"fusion_lat": 0.0, "type": "electric_scooter", "name": "98e6d5897995ece4fb058c1f447758ff", "fusion_lon": 0.0, "bike_id": "98e6d5897995ece4fb058c1f447758ff", "is_reserved": 0, "rental_uris": {"android": "https://dc.lft.to/lastmile_qr_scan", "ios": "https://dc.lft.to/lastmile_qr_scan"}, "lat": 38.897162, "is_disabled": 0, "lon": -77.02738033333333}, {"fusion_lat": 0.0, "type": "electric_scooter", "name": "37b72eff89941e9d6acd8f4e43f6c97a", "fusion_lon": 0.0, "bike_id": "37b72eff89941e9d6acd8f4e43f6c97a", "is_reserved": 0, "rental_uris": {"android": "https://dc.lft.to/lastmile_qr_scan", "ios": "https://dc.lft.to/lastmile_qr_scan"}, "lat": 38.8927715, "is_disabled": 0, "lon": -77.0487435}, {"fusion_lat": 0.0, "type": "electric_scooter", "name": "bef631bd469a2bc803952f531981314f", "fusion_lon": 0.0, "bike_id": "bef631bd469a2bc803952f531981314f", "is_reserved": 0, "rental_uris": {"android": "https://dc.lft.to/lastmile_qr_scan", "ios": "https://dc.lft.to/lastmile_qr_scan"}, "lat": 38.944301333333335, "is_disabled": 0, "lon": -77.02599783333334}, {"fusion_lat": 0.0, "type": "electric_scooter", "name": "cbd0d9839dd4db2d5dda9d007dd51c65", "fusion_lon": 0.0, "bike_id": "cbd0d9839dd4db2d5dda9d007dd51c65", "is_reserved": 0, "rental_uris": {"android": "https://dc.lft.to/lastmile_qr_scan", "ios": "https://dc.lft.to/lastmile_qr_scan"}, "lat": 38.9168505, "is_disabled": 0, "lon": -77.02293083333333}, {"fusion_lat": 0.0, "type": "electric_scooter", "name": "82dc69daa82aff65d6284778cf8fcd1b", "fusion_lon": 0.0, "bike_id": "82dc69daa82aff65d6284778cf8fcd1b", "is_reserved": 0, "rental_uris": {"android": "https://dc.lft.to/lastmile_qr_scan", "ios": "https://dc.lft.to/lastmile_qr_scan"}, "lat": 38.90547633333333, "is_disabled": 0, "lon": -77.032494}, {"fusion_lat": 0.0, "type": "electric_scooter", "name": "41f820646053b9a9fbe38a1076cab582", "fusion_lon": 0.0, "bike_id": "41f820646053b9a9fbe38a1076cab582", "is_reserved": 0, "rental_uris": {"android": "https://dc.lft.to/lastmile_qr_scan", "ios": "https://dc.lft.to/lastmile_qr_scan"}, "lat": 38.855371, "is_disabled": 0, "lon": -76.98418633333333}, {"fusion_lat": 0.0, "type": "electric_scooter", "name": "d4f6a4da4d379b3c3b1c74f643ca3840", "fusion_lon": 0.0, "bike_id": "d4f6a4da4d379b3c3b1c74f643ca3840", "is_reserved": 0, "rental_uris": {"android": "https://dc.lft.to/lastmile_qr_scan", "ios": "https://dc.lft.to/lastmile_qr_scan"}, "lat": 38.900816666666664, "is_disabled": 0, "lon": -76.93018633333334}, {"fusion_lat": 0.0, "type": "electric_scooter", "name": "9027ab3737cce999530da31213451b8a", "fusion_lon": 0.0, "bike_id": "9027ab3737cce999530da31213451b8a", "is_reserved": 0, "rental_uris": {"android": "https://dc.lft.to/lastmile_qr_scan", "ios": "https://dc.lft.to/lastmile_qr_scan"}, "lat": 38.91391516666667, "is_disabled": 0, "lon": -77.03331583333333}, {"fusion_lat": 0.0, "type": "electric_scooter", "name": "830b5e2a7c36e70708a59689a2411471", "fusion_lon": 0.0, "bike_id": "830b5e2a7c36e70708a59689a2411471", "is_reserved": 0, "rental_uris": {"android": "https://dc.lft.to/lastmile_qr_scan", "ios": "https://dc.lft.to/lastmile_qr_scan"}, "lat": 38.9000625, "is_disabled": 0, "lon": -77.0317305}, {"fusion_lat": 0.0, "type": "electric_scooter", "name": "c2daffebe95b671349c9a4343fec830b", "fusion_lon": 0.0, "bike_id": "c2daffebe95b671349c9a4343fec830b", "is_reserved": 0, "rental_uris": {"android": "https://dc.lft.to/lastmile_qr_scan", "ios": "https://dc.lft.to/lastmile_qr_scan"}, "lat": 38.94218583333333, "is_disabled": 0, "lon": -77.02499816666666}, {"fusion_lat": 0.0, "type": "electric_scooter", "name": "5a5786bf0ba76ff650ecc8fff2e0d44f", "fusion_lon": 0.0, "bike_id": "5a5786bf0ba76ff650ecc8fff2e0d44f", "is_reserved": 0, "rental_uris": {"android": "https://dc.lft.to/lastmile_qr_scan", "ios": "https://dc.lft.to/lastmile_qr_scan"}, "lat": 38.9366405, "is_disabled": 0, "lon": -77.03425516666667}, {"fusion_lat": 0.0, "type": "electric_scooter", "name": "236b3e761fe162b5f8089a00e294b118", "fusion_lon": 0.0, "bike_id": "236b3e761fe162b5f8089a00e294b118", "is_reserved": 0, "rental_uris": {"android": "https://dc.lft.to/lastmile_qr_scan", "ios": "https://dc.lft.to/lastmile_qr_scan"}, "lat": 38.9064105, "is_disabled": 0, "lon": -77.0059755}, {"fusion_lat": 0.0, "type": "electric_bike", "name": "e934a302ed3d1b582bcb30d15df6b9cc", "fusion_lon": 0.0, "bike_id": "e934a302ed3d1b582bcb30d15df6b9cc", "is_reserved": 0, "rental_uris": {"android": "https://dc.lft.to/lastmile_qr_scan", "ios": "https://dc.lft.to/lastmile_qr_scan"}, "lat": 38.929876166666666, "is_disabled": 0, "lon": -77.22580433333333}, {"fusion_lat": 0.0, "type": "electric_scooter", "name": "0171b9225abb61792d7e41698ff4c700", "fusion_lon": 0.0, "bike_id": "0171b9225abb61792d7e41698ff4c700", "is_reserved": 0, "rental_uris": {"android": "https://dc.lft.to/lastmile_qr_scan", "ios": "https://dc.lft.to/lastmile_qr_scan"}, "lat": 38.9161765, "is_disabled": 0, "lon": -77.0319655}, {"fusion_lat": 0.0, "type": "electric_scooter", "name": "54f9c76244b38c55c1b5b28c28556f02", "fusion_lon": 0.0, "bike_id": "54f9c76244b38c55c1b5b28c28556f02", "is_reserved": 0, "rental_uris": {"android": "https://dc.lft.to/lastmile_qr_scan", "ios": "https://dc.lft.to/lastmile_qr_scan"}, "lat": 38.928625333333336, "is_disabled": 0, "lon": -77.0331455}, {"fusion_lat": 0.0, "type": "electric_scooter", "name": "87a14ab093fb471c7ce3bf5ecbb7b6ad", "fusion_lon": 0.0, "bike_id": "87a14ab093fb471c7ce3bf5ecbb7b6ad", "is_reserved": 0, "rental_uris": {"android": "https://dc.lft.to/lastmile_qr_scan", "ios": "https://dc.lft.to/lastmile_qr_scan"}, "lat": 38.87154616666667, "is_disabled": 0, "lon": -76.97745283333333}, {"fusion_lat": 0.0, "type": "electric_scooter", "name": "affeed31af79f74854545f58a9fd03de", "fusion_lon": 0.0, "bike_id": "affeed31af79f74854545f58a9fd03de", "is_reserved": 0, "rental_uris": {"android": "https://dc.lft.to/lastmile_qr_scan", "ios": "https://dc.lft.to/lastmile_qr_scan"}, "lat": 38.916383333333336, "is_disabled": 0, "lon": -77.01077133333334}, {"fusion_lat": 0.0, "type": "electric_scooter", "name": "118302a3e3828b80bafaaa7a57686a47", "fusion_lon": 0.0, "bike_id": "118302a3e3828b80bafaaa7a57686a47", "is_reserved": 0, "rental_uris": {"android": "https://dc.lft.to/lastmile_qr_scan", "ios": "https://dc.lft.to/lastmile_qr_scan"}, "lat": 38.887292333333335, "is_disabled": 0, "lon": -77.0283155}, {"fusion_lat": 0.0, "type": "electric_scooter", "name": "dae34c55908cf730b74adbfe196a2907", "fusion_lon": 0.0, "bike_id": "dae34c55908cf730b74adbfe196a2907", "is_reserved": 0, "rental_uris": {"android": "https://dc.lft.to/lastmile_qr_scan", "ios": "https://dc.lft.to/lastmile_qr_scan"}, "lat": 38.90495883333333, "is_disabled": 0, "lon": -77.03038933333333}, {"fusion_lat": 0.0, "type": "electric_scooter", "name": "46cf4863cd0b185914f9280b8695ce93", "fusion_lon": 0.0, "bike_id": "46cf4863cd0b185914f9280b8695ce93", "is_reserved": 0, "rental_uris": {"android": "https://dc.lft.to/lastmile_qr_scan", "ios": "https://dc.lft.to/lastmile_qr_scan"}, "lat": 38.92058683333333, "is_disabled": 0, "lon": -77.02510766666667}, {"fusion_lat": 0.0, "type": "electric_scooter", "name": "afc0676a485a1e12887f09afec233212", "fusion_lon": 0.0, "bike_id": "afc0676a485a1e12887f09afec233212", "is_reserved": 0, "rental_uris": {"android": "https://dc.lft.to/lastmile_qr_scan", "ios": "https://dc.lft.to/lastmile_qr_scan"}, "lat": 38.8731565, "is_disabled": 0, "lon": -77.005796}, {"fusion_lat": 0.0, "type": "electric_scooter", "name": "f2204bebbf34a9d19c52fab37a4d79e0", "fusion_lon": 0.0, "bike_id": "f2204bebbf34a9d19c52fab37a4d79e0", "is_reserved": 0, "rental_uris": {"android": "https://dc.lft.to/lastmile_qr_scan", "ios": "https://dc.lft.to/lastmile_qr_scan"}, "lat": 38.862636, "is_disabled": 0, "lon": -76.99471783333334}, {"fusion_lat": 0.0, "type": "electric_scooter", "name": "3ba267e4784ff2928e4f1e464dd8cfbc", "fusion_lon": 0.0, "bike_id": "3ba267e4784ff2928e4f1e464dd8cfbc", "is_reserved": 0, "rental_uris": {"android": "https://dc.lft.to/lastmile_qr_scan", "ios": "https://dc.lft.to/lastmile_qr_scan"}, "lat": 38.888117, "is_disabled": 0, "lon": -76.93343033333333}, {"fusion_lat": 0.0, "type": "electric_scooter", "name": "c368490ccb0402b659d09df6eb3bc788", "fusion_lon": 0.0, "bike_id": "c368490ccb0402b659d09df6eb3bc788", "is_reserved": 0, "rental_uris": {"android": "https://dc.lft.to/lastmile_qr_scan", "ios": "https://dc.lft.to/lastmile_qr_scan"}, "lat": 38.893294166666664, "is_disabled": 0, "lon": -77.012049}, {"fusion_lat": 0.0, "type": "electric_scooter", "name": "cf6ae04170eb13db99008f35c0ce0b74", "fusion_lon": 0.0, "bike_id": "cf6ae04170eb13db99008f35c0ce0b74", "is_reserved": 0, "rental_uris": {"android": "https://dc.lft.to/lastmile_qr_scan", "ios": "https://dc.lft.to/lastmile_qr_scan"}, "lat": 38.89229566666667, "is_disabled": 0, "lon": -77.03198816666666}, {"fusion_lat": 0.0, "type": "electric_scooter", "name": "ce16cf7395e7512f4ad5ffcb9449f711", "fusion_lon": 0.0, "bike_id": "ce16cf7395e7512f4ad5ffcb9449f711", "is_reserved": 0, "rental_uris": {"android": "https://dc.lft.to/lastmile_qr_scan", "ios": "https://dc.lft.to/lastmile_qr_scan"}, "lat": 38.9197765, "is_disabled": 0, "lon": -77.02178183333334}, {"fusion_lat": 0.0, "type": "electric_scooter", "name": "eb7cb5ea623696cdd16c4ca0994403f4", "fusion_lon": 0.0, "bike_id": "eb7cb5ea623696cdd16c4ca0994403f4", "is_reserved": 0, "rental_uris": {"android": "https://dc.lft.to/lastmile_qr_scan", "ios": "https://dc.lft.to/lastmile_qr_scan"}, "lat": 38.902629, "is_disabled": 0, "lon": -77.02812416666667}, {"fusion_lat": 0.0, "type": "electric_scooter", "name": "b8dc80b50d41c7f156b20ce08b321411", "fusion_lon": 0.0, "bike_id": "b8dc80b50d41c7f156b20ce08b321411", "is_reserved": 0, "rental_uris": {"android": "https://dc.lft.to/lastmile_qr_scan", "ios": "https://dc.lft.to/lastmile_qr_scan"}, "lat": 38.920979333333335, "is_disabled": 0, "lon": -77.00437416666666}, {"fusion_lat": 0.0, "type": "electric_scooter", "name": "d363b60c07379066422ba91e23258f9a", "fusion_lon": 0.0, "bike_id": "d363b60c07379066422ba91e23258f9a", "is_reserved": 0, "rental_uris": {"android": "https://dc.lft.to/lastmile_qr_scan", "ios": "https://dc.lft.to/lastmile_qr_scan"}, "lat": 38.901489, "is_disabled": 0, "lon": -77.047843}, {"fusion_lat": 0.0, "type": "electric_scooter", "name": "c942b1b2ba97dcaf57007b22fb8c905c", "fusion_lon": 0.0, "bike_id": "c942b1b2ba97dcaf57007b22fb8c905c", "is_reserved": 0, "rental_uris": {"android": "https://dc.lft.to/lastmile_qr_scan", "ios": "https://dc.lft.to/lastmile_qr_scan"}, "lat": 38.9340175, "is_disabled": 0, "lon": -77.04131883333334}, {"fusion_lat": 0.0, "type": "electric_scooter", "name": "681a04ea1a1a8eb1235783d1e75e2386", "fusion_lon": 0.0, "bike_id": "681a04ea1a1a8eb1235783d1e75e2386", "is_reserved": 0, "rental_uris": {"android": "https://dc.lft.to/lastmile_qr_scan", "ios": "https://dc.lft.to/lastmile_qr_scan"}, "lat": 38.89220483333333, "is_disabled": 0, "lon": -77.04262166666666}, {"fusion_lat": 0.0, "type": "electric_scooter", "name": "2c926f7d2aa01ddc5b980d71c7b1bf1b", "fusion_lon": 0.0, "bike_id": "2c926f7d2aa01ddc5b980d71c7b1bf1b", "is_reserved": 0, "rental_uris": {"android": "https://dc.lft.to/lastmile_qr_scan", "ios": "https://dc.lft.to/lastmile_qr_scan"}, "lat": 38.9013545, "is_disabled": 0, "lon": -77.04751433333334}, {"fusion_lat": 0.0, "type": "electric_scooter", "name": "5ce8efbb28d439f06859db42be917256", "fusion_lon": 0.0, "bike_id": "5ce8efbb28d439f06859db42be917256", "is_reserved": 0, "rental_uris": {"android": "https://dc.lft.to/lastmile_qr_scan", "ios": "https://dc.lft.to/lastmile_qr_scan"}, "lat": 38.91804583333333, "is_disabled": 0, "lon": -77.02497066666666}, {"fusion_lat": 0.0, "type": "electric_scooter", "name": "317ceb1b06fad02163d6a316d9b912a1", "fusion_lon": 0.0, "bike_id": "317ceb1b06fad02163d6a316d9b912a1", "is_reserved": 0, "rental_uris": {"android": "https://dc.lft.to/lastmile_qr_scan", "ios": "https://dc.lft.to/lastmile_qr_scan"}, "lat": 38.89451016666667, "is_disabled": 0, "lon": -76.99830983333334}, {"fusion_lat": 0.0, "type": "electric_scooter", "name": "e881ade38b1a7b2b4f5fcce15789b9f3", "fusion_lon": 0.0, "bike_id": "e881ade38b1a7b2b4f5fcce15789b9f3", "is_reserved": 0, "rental_uris": {"android": "https://dc.lft.to/lastmile_qr_scan", "ios": "https://dc.lft.to/lastmile_qr_scan"}, "lat": 38.89099183333333, "is_disabled": 0, "lon": -77.00285133333334}, {"fusion_lat": 0.0, "type": "electric_scooter", "name": "c365b6f12ee5181ecbb4fc82a964409f", "fusion_lon": 0.0, "bike_id": "c365b6f12ee5181ecbb4fc82a964409f", "is_reserved": 0, "rental_uris": {"android": "https://dc.lft.to/lastmile_qr_scan", "ios": "https://dc.lft.to/lastmile_qr_scan"}, "lat": 38.91996616666667, "is_disabled": 0, "lon": -77.0220395}, {"fusion_lat": 0.0, "type": "electric_bike", "name": "d009ae8feb3b3a1a9559e74152c22256", "fusion_lon": 0.0, "bike_id": "d009ae8feb3b3a1a9559e74152c22256", "is_reserved": 0, "rental_uris": {"android": "https://dc.lft.to/lastmile_qr_scan", "ios": "https://dc.lft.to/lastmile_qr_scan"}, "lat": 38.89558483333333, "is_disabled": 0, "lon": -77.127367}, {"fusion_lat": 0.0, "type": "electric_scooter", "name": "98509ae2a086e5000898256cbcbdd863", "fusion_lon": 0.0, "bike_id": "98509ae2a086e5000898256cbcbdd863", "is_reserved": 0, "rental_uris": {"android": "https://dc.lft.to/lastmile_qr_scan", "ios": "https://dc.lft.to/lastmile_qr_scan"}, "lat": 38.86375816666666, "is_disabled": 0, "lon": -76.99056483333334}, {"fusion_lat": 0.0, "type": "electric_scooter", "name": "64c6212326bdba52989317413d217527", "fusion_lon": 0.0, "bike_id": "64c6212326bdba52989317413d217527", "is_reserved": 0, "rental_uris": {"android": "https://dc.lft.to/lastmile_qr_scan", "ios": "https://dc.lft.to/lastmile_qr_scan"}, "lat": 38.924626, "is_disabled": 0, "lon": -77.0575665}, {"fusion_lat": 0.0, "type": "electric_scooter", "name": "82fe16a778d7bf3f3fbe179b09508315", "fusion_lon": 0.0, "bike_id": "82fe16a778d7bf3f3fbe179b09508315", "is_reserved": 0, "rental_uris": {"android": "https://dc.lft.to/lastmile_qr_scan", "ios": "https://dc.lft.to/lastmile_qr_scan"}, "lat": 38.889608833333334, "is_disabled": 0, "lon": -76.93706566666667}, {"fusion_lat": 0.0, "type": "electric_scooter", "name": "4d54ea481ededd5e1f8922c239d7be49", "fusion_lon": 0.0, "bike_id": "4d54ea481ededd5e1f8922c239d7be49", "is_reserved": 0, "rental_uris": {"android": "https://dc.lft.to/lastmile_qr_scan", "ios": "https://dc.lft.to/lastmile_qr_scan"}, "lat": 38.9218305, "is_disabled": 0, "lon": -77.04238366666667}, {"fusion_lat": 0.0, "type": "electric_scooter", "name": "ffbdeba609bba522e758befeab4f4ea5", "fusion_lon": 0.0, "bike_id": "ffbdeba609bba522e758befeab4f4ea5", "is_reserved": 0, "rental_uris": {"android": "https://dc.lft.to/lastmile_qr_scan", "ios": "https://dc.lft.to/lastmile_qr_scan"}, "lat": 38.910090333333336, "is_disabled": 0, "lon": -76.99389683333334}, {"fusion_lat": 0.0, "type": "electric_scooter", "name": "4f4dea7c2793d7e5c8d0037bbea2c369", "fusion_lon": 0.0, "bike_id": "4f4dea7c2793d7e5c8d0037bbea2c369", "is_reserved": 0, "rental_uris": {"android": "https://dc.lft.to/lastmile_qr_scan", "ios": "https://dc.lft.to/lastmile_qr_scan"}, "lat": 38.921746666666664, "is_disabled": 0, "lon": -77.0468835}, {"fusion_lat": 0.0, "type": "electric_scooter", "name": "e070740529403bf2c457f245f2a0124b", "fusion_lon": 0.0, "bike_id": "e070740529403bf2c457f245f2a0124b", "is_reserved": 0, "rental_uris": {"android": "https://dc.lft.to/lastmile_qr_scan", "ios": "https://dc.lft.to/lastmile_qr_scan"}, "lat": 38.905032, "is_disabled": 0, "lon": -77.040561}, {"fusion_lat": 0.0, "type": "electric_scooter", "name": "8150da485643b3114d720c56b70ac905", "fusion_lon": 0.0, "bike_id": "8150da485643b3114d720c56b70ac905", "is_reserved": 0, "rental_uris": {"android": "https://dc.lft.to/lastmile_qr_scan", "ios": "https://dc.lft.to/lastmile_qr_scan"}, "lat": 38.89426866666667, "is_disabled": 0, "lon": -76.9487895}, {"fusion_lat": 0.0, "type": "electric_scooter", "name": "2fce00c4a69f842bd62bb7e352c1c864", "fusion_lon": 0.0, "bike_id": "2fce00c4a69f842bd62bb7e352c1c864", "is_reserved": 0, "rental_uris": {"android": "https://dc.lft.to/lastmile_qr_scan", "ios": "https://dc.lft.to/lastmile_qr_scan"}, "lat": 38.8984245, "is_disabled": 0, "lon": -76.94642516666667}, {"fusion_lat": 0.0, "type": "electric_scooter", "name": "303a29fc3a83fd9f1b4cc175823cb451", "fusion_lon": 0.0, "bike_id": "303a29fc3a83fd9f1b4cc175823cb451", "is_reserved": 0, "rental_uris": {"android": "https://dc.lft.to/lastmile_qr_scan", "ios": "https://dc.lft.to/lastmile_qr_scan"}, "lat": 38.934571166666665, "is_disabled": 0, "lon": -77.05780716666666}, {"fusion_lat": 0.0, "type": "electric_scooter", "name": "6163fb21d82f298b51eb540059a83303", "fusion_lon": 0.0, "bike_id": "6163fb21d82f298b51eb540059a83303", "is_reserved": 0, "rental_uris": {"android": "https://dc.lft.to/lastmile_qr_scan", "ios": "https://dc.lft.to/lastmile_qr_scan"}, "lat": 38.94899933333333, "is_disabled": 0, "lon": -77.0064445}, {"fusion_lat": 0.0, "type": "electric_scooter", "name": "fa1d69b8c6669f21ecb5a43d2afd1ea3", "fusion_lon": 0.0, "bike_id": "fa1d69b8c6669f21ecb5a43d2afd1ea3", "is_reserved": 0, "rental_uris": {"android": "https://dc.lft.to/lastmile_qr_scan", "ios": "https://dc.lft.to/lastmile_qr_scan"}, "lat": 38.860591, "is_disabled": 0, "lon": -76.98424716666666}, {"fusion_lat": 0.0, "type": "electric_bike", "name": "0bd42eac79fa87aace64c57f9cd3243d", "fusion_lon": 0.0, "bike_id": "0bd42eac79fa87aace64c57f9cd3243d", "is_reserved": 0, "rental_uris": {"android": "https://dc.lft.to/lastmile_qr_scan", "ios": "https://dc.lft.to/lastmile_qr_scan"}, "lat": 38.98423283333333, "is_disabled": 0, "lon": -77.09685983333334}, {"fusion_lat": 0.0, "type": "electric_scooter", "name": "a844d15ca0055340a61a0c4891ddcb7b", "fusion_lon": 0.0, "bike_id": "a844d15ca0055340a61a0c4891ddcb7b", "is_reserved": 0, "rental_uris": {"android": "https://dc.lft.to/lastmile_qr_scan", "ios": "https://dc.lft.to/lastmile_qr_scan"}, "lat": 38.88045916666667, "is_disabled": 0, "lon": -77.01994866666666}, {"fusion_lat": 0.0, "type": "electric_scooter", "name": "b409917dadcfc044dc24ddd8d5d11464", "fusion_lon": 0.0, "bike_id": "b409917dadcfc044dc24ddd8d5d11464", "is_reserved": 0, "rental_uris": {"android": "https://dc.lft.to/lastmile_qr_scan", "ios": "https://dc.lft.to/lastmile_qr_scan"}, "lat": 38.92288466666667, "is_disabled": 0, "lon": -77.02108066666666}, {"fusion_lat": 0.0, "type": "electric_scooter", "name": "3fedeb099dfcc67db27b189fff0bbbde", "fusion_lon": 0.0, "bike_id": "3fedeb099dfcc67db27b189fff0bbbde", "is_reserved": 0, "rental_uris": {"android": "https://dc.lft.to/lastmile_qr_scan", "ios": "https://dc.lft.to/lastmile_qr_scan"}, "lat": 38.89221833333333, "is_disabled": 0, "lon": -77.046842}, {"fusion_lat": 0.0, "type": "electric_scooter", "name": "8a9b1e88508a02159bcc3671bd25ec2f", "fusion_lon": 0.0, "bike_id": "8a9b1e88508a02159bcc3671bd25ec2f", "is_reserved": 0, "rental_uris": {"android": "https://dc.lft.to/lastmile_qr_scan", "ios": "https://dc.lft.to/lastmile_qr_scan"}, "lat": 38.901390666666664, "is_disabled": 0, "lon": -77.04359633333333}, {"fusion_lat": 0.0, "type": "electric_scooter", "name": "9652eeed8eba23a70ca38dd3c2febbca", "fusion_lon": 0.0, "bike_id": "9652eeed8eba23a70ca38dd3c2febbca", "is_reserved": 0, "rental_uris": {"android": "https://dc.lft.to/lastmile_qr_scan", "ios": "https://dc.lft.to/lastmile_qr_scan"}, "lat": 38.915649333333334, "is_disabled": 0, "lon": -77.03782483333333}, {"fusion_lat": 0.0, "type": "electric_scooter", "name": "34bd416a8e6ac2a1aac82304313c0967", "fusion_lon": 0.0, "bike_id": "34bd416a8e6ac2a1aac82304313c0967", "is_reserved": 0, "rental_uris": {"android": "https://dc.lft.to/lastmile_qr_scan", "ios": "https://dc.lft.to/lastmile_qr_scan"}, "lat": 38.9229995, "is_disabled": 0, "lon": -77.04456883333333}, {"fusion_lat": 0.0, "type": "electric_scooter", "name": "203e184dd253d48c4fdd26577f7a2908", "fusion_lon": 0.0, "bike_id": "203e184dd253d48c4fdd26577f7a2908", "is_reserved": 0, "rental_uris": {"android": "https://dc.lft.to/lastmile_qr_scan", "ios": "https://dc.lft.to/lastmile_qr_scan"}, "lat": 38.913959166666665, "is_disabled": 0, "lon": -77.031858}, {"fusion_lat": 0.0, "type": "electric_scooter", "name": "37e72ccfc6d6c7f3ad8454281c89612e", "fusion_lon": 0.0, "bike_id": "37e72ccfc6d6c7f3ad8454281c89612e", "is_reserved": 0, "rental_uris": {"android": "https://dc.lft.to/lastmile_qr_scan", "ios": "https://dc.lft.to/lastmile_qr_scan"}, "lat": 38.91966866666667, "is_disabled": 0, "lon": -77.023684}, {"fusion_lat": 0.0, "type": "electric_scooter", "name": "c2337c0c5f3020e5fd43755093577fe5", "fusion_lon": 0.0, "bike_id": "c2337c0c5f3020e5fd43755093577fe5", "is_reserved": 0, "rental_uris": {"android": "https://dc.lft.to/lastmile_qr_scan", "ios": "https://dc.lft.to/lastmile_qr_scan"}, "lat": 38.874636, "is_disabled": 0, "lon": -77.009632}, {"fusion_lat": 0.0, "type": "electric_scooter", "name": "67de658850167006e59565b167afb90f", "fusion_lon": 0.0, "bike_id": "67de658850167006e59565b167afb90f", "is_reserved": 0, "rental_uris": {"android": "https://dc.lft.to/lastmile_qr_scan", "ios": "https://dc.lft.to/lastmile_qr_scan"}, "lat": 38.903250166666666, "is_disabled": 0, "lon": -77.04339216666666}, {"fusion_lat": 0.0, "type": "electric_scooter", "name": "4c85781cc7e2554ea3e90193856804dc", "fusion_lon": 0.0, "bike_id": "4c85781cc7e2554ea3e90193856804dc", "is_reserved": 0, "rental_uris": {"android": "https://dc.lft.to/lastmile_qr_scan", "ios": "https://dc.lft.to/lastmile_qr_scan"}, "lat": 38.903104166666665, "is_disabled": 0, "lon": -77.059002}, {"fusion_lat": 0.0, "type": "electric_bike", "name": "eb1c03a9d68dafb3c0961296cc710914", "fusion_lon": 0.0, "bike_id": "eb1c03a9d68dafb3c0961296cc710914", "is_reserved": 0, "rental_uris": {"android": "https://dc.lft.to/lastmile_qr_scan", "ios": "https://dc.lft.to/lastmile_qr_scan"}, "lat": 38.877294166666665, "is_disabled": 0, "lon": -76.98110916666667}, {"fusion_lat": 0.0, "type": "electric_scooter", "name": "b7a8d6afd4c56fd092922e278c93c908", "fusion_lon": 0.0, "bike_id": "b7a8d6afd4c56fd092922e278c93c908", "is_reserved": 0, "rental_uris": {"android": "https://dc.lft.to/lastmile_qr_scan", "ios": "https://dc.lft.to/lastmile_qr_scan"}, "lat": 38.8872755, "is_disabled": 0, "lon": -77.0283145}, {"fusion_lat": 0.0, "type": "electric_scooter", "name": "2b5db6fb9ef7244acfe7920481334eb1", "fusion_lon": 0.0, "bike_id": "2b5db6fb9ef7244acfe7920481334eb1", "is_reserved": 0, "rental_uris": {"android": "https://dc.lft.to/lastmile_qr_scan", "ios": "https://dc.lft.to/lastmile_qr_scan"}, "lat": 38.8942195, "is_disabled": 0, "lon": -77.02412166666667}, {"fusion_lat": 0.0, "type": "electric_bike", "name": "57054c88eccc2df8fb39070d9efe04b3", "fusion_lon": 0.0, "bike_id": "57054c88eccc2df8fb39070d9efe04b3", "is_reserved": 0, "rental_uris": {"android": "https://dc.lft.to/lastmile_qr_scan", "ios": "https://dc.lft.to/lastmile_qr_scan"}, "lat": 38.872777, "is_disabled": 0, "lon": -77.23319533333333}, {"fusion_lat": 0.0, "type": "electric_scooter", "name": "409bef8dd74561716512912743477faf", "fusion_lon": 0.0, "bike_id": "409bef8dd74561716512912743477faf", "is_reserved": 0, "rental_uris": {"android": "https://dc.lft.to/lastmile_qr_scan", "ios": "https://dc.lft.to/lastmile_qr_scan"}, "lat": 38.9000835, "is_disabled": 0, "lon": -77.00101716666667}, {"fusion_lat": 0.0, "type": "electric_scooter", "name": "75125fd7c163ecd57b96a609cb1766e4", "fusion_lon": 0.0, "bike_id": "75125fd7c163ecd57b96a609cb1766e4", "is_reserved": 0, "rental_uris": {"android": "https://dc.lft.to/lastmile_qr_scan", "ios": "https://dc.lft.to/lastmile_qr_scan"}, "lat": 38.889996833333335, "is_disabled": 0, "lon": -77.0489775}, {"fusion_lat": 0.0, "type": "electric_scooter", "name": "32eef9f425e7109a90a7aac9313cb1ec", "fusion_lon": 0.0, "bike_id": "32eef9f425e7109a90a7aac9313cb1ec", "is_reserved": 0, "rental_uris": {"android": "https://dc.lft.to/lastmile_qr_scan", "ios": "https://dc.lft.to/lastmile_qr_scan"}, "lat": 38.92357483333333, "is_disabled": 0, "lon": -77.040259}, {"fusion_lat": 0.0, "type": "electric_bike", "name": "439b3f4c6c8e08406fcb84f7825a138c", "fusion_lon": 0.0, "bike_id": "439b3f4c6c8e08406fcb84f7825a138c", "is_reserved": 0, "rental_uris": {"android": "https://dc.lft.to/lastmile_qr_scan", "ios": "https://dc.lft.to/lastmile_qr_scan"}, "lat": 38.91015983333333, "is_disabled": 0, "lon": -77.22800933333333}, {"fusion_lat": 0.0, "type": "electric_scooter", "name": "f16a354bca598fdf15c5ce3da7e9cdeb", "fusion_lon": 0.0, "bike_id": "f16a354bca598fdf15c5ce3da7e9cdeb", "is_reserved": 0, "rental_uris": {"android": "https://dc.lft.to/lastmile_qr_scan", "ios": "https://dc.lft.to/lastmile_qr_scan"}, "lat": 38.87535916666667, "is_disabled": 0, "lon": -76.96914433333333}, {"fusion_lat": 0.0, "type": "electric_scooter", "name": "19dd771c29c10ca529cb36b1ea0ce881", "fusion_lon": 0.0, "bike_id": "19dd771c29c10ca529cb36b1ea0ce881", "is_reserved": 0, "rental_uris": {"android": "https://dc.lft.to/lastmile_qr_scan", "ios": "https://dc.lft.to/lastmile_qr_scan"}, "lat": 38.903838, "is_disabled": 0, "lon": -77.04482516666667}, {"fusion_lat": 0.0, "type": "electric_scooter", "name": "fcd66dfc43ab1d60d4d01da48d705601", "fusion_lon": 0.0, "bike_id": "fcd66dfc43ab1d60d4d01da48d705601", "is_reserved": 0, "rental_uris": {"android": "https://dc.lft.to/lastmile_qr_scan", "ios": "https://dc.lft.to/lastmile_qr_scan"}, "lat": 38.92051466666667, "is_disabled": 0, "lon": -77.02455616666667}, {"fusion_lat": 0.0, "type": "electric_bike", "name": "6b53216c185ea08a09df866e3a9b35a9", "fusion_lon": 0.0, "bike_id": "6b53216c185ea08a09df866e3a9b35a9", "is_reserved": 0, "rental_uris": {"android": "https://dc.lft.to/lastmile_qr_scan", "ios": "https://dc.lft.to/lastmile_qr_scan"}, "lat": 38.9422495, "is_disabled": 0, "lon": -76.966248}, {"fusion_lat": 0.0, "type": "electric_scooter", "name": "9ea00f771ee1baa0eb62146fe1cc52ae", "fusion_lon": 0.0, "bike_id": "9ea00f771ee1baa0eb62146fe1cc52ae", "is_reserved": 0, "rental_uris": {"android": "https://dc.lft.to/lastmile_qr_scan", "ios": "https://dc.lft.to/lastmile_qr_scan"}, "lat": 38.866961333333336, "is_disabled": 0, "lon": -76.985909}, {"fusion_lat": 0.0, "type": "electric_scooter", "name": "9c72c9669a0a6872682d68ae7a2cc3a0", "fusion_lon": 0.0, "bike_id": "9c72c9669a0a6872682d68ae7a2cc3a0", "is_reserved": 0, "rental_uris": {"android": "https://dc.lft.to/lastmile_qr_scan", "ios": "https://dc.lft.to/lastmile_qr_scan"}, "lat": 38.904267833333336, "is_disabled": 0, "lon": -77.05328183333333}, {"fusion_lat": 0.0, "type": "electric_scooter", "name": "15abf25ae40c7735b2e87cc15435a207", "fusion_lon": 0.0, "bike_id": "15abf25ae40c7735b2e87cc15435a207", "is_reserved": 0, "rental_uris": {"android": "https://dc.lft.to/lastmile_qr_scan", "ios": "https://dc.lft.to/lastmile_qr_scan"}, "lat": 38.9420425, "is_disabled": 0, "lon": -77.025172}, {"fusion_lat": 0.0, "type": "electric_bike", "name": "51c4284a8cb8547ca81c33cbe1bb1363", "fusion_lon": 0.0, "bike_id": "51c4284a8cb8547ca81c33cbe1bb1363", "is_reserved": 0, "rental_uris": {"android": "https://dc.lft.to/lastmile_qr_scan", "ios": "https://dc.lft.to/lastmile_qr_scan"}, "lat": 38.961373, "is_disabled": 0, "lon": -77.02294783333333}, {"fusion_lat": 0.0, "type": "electric_scooter", "name": "8a0355b510d7078f980bb8bbb7817c55", "fusion_lon": 0.0, "bike_id": "8a0355b510d7078f980bb8bbb7817c55", "is_reserved": 0, "rental_uris": {"android": "https://dc.lft.to/lastmile_qr_scan", "ios": "https://dc.lft.to/lastmile_qr_scan"}, "lat": 38.87192683333333, "is_disabled": 0, "lon": -77.01078466666667}, {"fusion_lat": 0.0, "type": "electric_scooter", "name": "065597bcd2b4b918027482e43befcbe9", "fusion_lon": 0.0, "bike_id": "065597bcd2b4b918027482e43befcbe9", "is_reserved": 0, "rental_uris": {"android": "https://dc.lft.to/lastmile_qr_scan", "ios": "https://dc.lft.to/lastmile_qr_scan"}, "lat": 38.90247433333333, "is_disabled": 0, "lon": -76.9955625}, {"fusion_lat": 0.0, "type": "electric_scooter", "name": "3b13b45137befd8c1fc7d17543b42fd3", "fusion_lon": 0.0, "bike_id": "3b13b45137befd8c1fc7d17543b42fd3", "is_reserved": 0, "rental_uris": {"android": "https://dc.lft.to/lastmile_qr_scan", "ios": "https://dc.lft.to/lastmile_qr_scan"}, "lat": 38.897317, "is_disabled": 0, "lon": -77.04358716666667}, {"fusion_lat": 0.0, "type": "electric_scooter", "name": "7547d7b1dc399466d0845f5a5b7b4339", "fusion_lon": 0.0, "bike_id": "7547d7b1dc399466d0845f5a5b7b4339", "is_reserved": 0, "rental_uris": {"android": "https://dc.lft.to/lastmile_qr_scan", "ios": "https://dc.lft.to/lastmile_qr_scan"}, "lat": 38.9205925, "is_disabled": 0, "lon": -77.02511033333333}, {"fusion_lat": 0.0, "type": "electric_scooter", "name": "c17c35cc0a8cbe62943a02004ea415a1", "fusion_lon": 0.0, "bike_id": "c17c35cc0a8cbe62943a02004ea415a1", "is_reserved": 0, "rental_uris": {"android": "https://dc.lft.to/lastmile_qr_scan", "ios": "https://dc.lft.to/lastmile_qr_scan"}, "lat": 38.876936, "is_disabled": 0, "lon": -77.00429816666667}, {"fusion_lat": 0.0, "type": "electric_bike", "name": "dc276fa088ca002f33cd4623fd43cb6e", "fusion_lon": 0.0, "bike_id": "dc276fa088ca002f33cd4623fd43cb6e", "is_reserved": 0, "rental_uris": {"android": "https://dc.lft.to/lastmile_qr_scan", "ios": "https://dc.lft.to/lastmile_qr_scan"}, "lat": 39.0527905, "is_disabled": 0, "lon": -77.08073066666667}, {"fusion_lat": 0.0, "type": "electric_scooter", "name": "4762ed46147ce0518b615ffe399f78f5", "fusion_lon": 0.0, "bike_id": "4762ed46147ce0518b615ffe399f78f5", "is_reserved": 0, "rental_uris": {"android": "https://dc.lft.to/lastmile_qr_scan", "ios": "https://dc.lft.to/lastmile_qr_scan"}, "lat": 38.911067833333334, "is_disabled": 0, "lon": -77.04479516666666}, {"fusion_lat": 0.0, "type": "electric_scooter", "name": "a65dc5fd36811b0bcc2ee2a6fa4409f7", "fusion_lon": 0.0, "bike_id": "a65dc5fd36811b0bcc2ee2a6fa4409f7", "is_reserved": 0, "rental_uris": {"android": "https://dc.lft.to/lastmile_qr_scan", "ios": "https://dc.lft.to/lastmile_qr_scan"}, "lat": 38.9845405, "is_disabled": 0, "lon": -77.02644733333334}, {"fusion_lat": 0.0, "type": "electric_scooter", "name": "bf83e1d36c05157b5a24b6d927e5ba84", "fusion_lon": 0.0, "bike_id": "bf83e1d36c05157b5a24b6d927e5ba84", "is_reserved": 0, "rental_uris": {"android": "https://dc.lft.to/lastmile_qr_scan", "ios": "https://dc.lft.to/lastmile_qr_scan"}, "lat": 38.9340655, "is_disabled": 0, "lon": -77.03269533333334}, {"fusion_lat": 0.0, "type": "electric_scooter", "name": "284b8ee5f93b90f81891cf07b03ff841", "fusion_lon": 0.0, "bike_id": "284b8ee5f93b90f81891cf07b03ff841", "is_reserved": 0, "rental_uris": {"android": "https://dc.lft.to/lastmile_qr_scan", "ios": "https://dc.lft.to/lastmile_qr_scan"}, "lat": 38.8782515, "is_disabled": 0, "lon": -76.96306416666667}, {"fusion_lat": 0.0, "type": "electric_scooter", "name": "5f5544273418eb8bad048aa30d22c45d", "fusion_lon": 0.0, "bike_id": "5f5544273418eb8bad048aa30d22c45d", "is_reserved": 0, "rental_uris": {"android": "https://dc.lft.to/lastmile_qr_scan", "ios": "https://dc.lft.to/lastmile_qr_scan"}, "lat": 38.908600166666666, "is_disabled": 0, "lon": -77.04563466666667}, {"fusion_lat": 0.0, "type": "electric_scooter", "name": "721ea2a626c71a87e391e97642337da4", "fusion_lon": 0.0, "bike_id": "721ea2a626c71a87e391e97642337da4", "is_reserved": 0, "rental_uris": {"android": "https://dc.lft.to/lastmile_qr_scan", "ios": "https://dc.lft.to/lastmile_qr_scan"}, "lat": 38.88726883333333, "is_disabled": 0, "lon": -77.02831283333333}, {"fusion_lat": 0.0, "type": "electric_bike", "name": "352d874e1632e4632f1e55215baef3a8", "fusion_lon": 0.0, "bike_id": "352d874e1632e4632f1e55215baef3a8", "is_reserved": 0, "rental_uris": {"android": "https://dc.lft.to/lastmile_qr_scan", "ios": "https://dc.lft.to/lastmile_qr_scan"}, "lat": 38.961035833333334, "is_disabled": 0, "lon": -76.92816233333333}, {"fusion_lat": 0.0, "type": "electric_scooter", "name": "ff1e571311eb6d119cfa25c7db55428d", "fusion_lon": 0.0, "bike_id": "ff1e571311eb6d119cfa25c7db55428d", "is_reserved": 0, "rental_uris": {"android": "https://dc.lft.to/lastmile_qr_scan", "ios": "https://dc.lft.to/lastmile_qr_scan"}, "lat": 38.869940166666666, "is_disabled": 0, "lon": -76.97588766666667}, {"fusion_lat": 0.0, "type": "electric_scooter", "name": "e45efb8ed6a2d42eca7238bfe0a4a50f", "fusion_lon": 0.0, "bike_id": "e45efb8ed6a2d42eca7238bfe0a4a50f", "is_reserved": 0, "rental_uris": {"android": "https://dc.lft.to/lastmile_qr_scan", "ios": "https://dc.lft.to/lastmile_qr_scan"}, "lat": 38.9231945, "is_disabled": 0, "lon": -77.02135333333334}, {"fusion_lat": 0.0, "type": "electric_bike", "name": "8df08416c3111777693887b24059441a", "fusion_lon": 0.0, "bike_id": "8df08416c3111777693887b24059441a", "is_reserved": 0, "rental_uris": {"android": "https://dc.lft.to/lastmile_qr_scan", "ios": "https://dc.lft.to/lastmile_qr_scan"}, "lat": 39.062927, "is_disabled": 0, "lon": -77.04979616666667}, {"fusion_lat": 0.0, "type": "electric_scooter", "name": "76df908e007bf49e51b51012ef3eea21", "fusion_lon": 0.0, "bike_id": "76df908e007bf49e51b51012ef3eea21", "is_reserved": 0, "rental_uris": {"android": "https://dc.lft.to/lastmile_qr_scan", "ios": "https://dc.lft.to/lastmile_qr_scan"}, "lat": 38.903535833333336, "is_disabled": 0, "lon": -77.02804933333333}, {"fusion_lat": 0.0, "type": "electric_scooter", "name": "0c789d4785028e17af89e3bedc205bdd", "fusion_lon": 0.0, "bike_id": "0c789d4785028e17af89e3bedc205bdd", "is_reserved": 0, "rental_uris": {"android": "https://dc.lft.to/lastmile_qr_scan", "ios": "https://dc.lft.to/lastmile_qr_scan"}, "lat": 38.899651166666665, "is_disabled": 0, "lon": -77.05002533333334}, {"fusion_lat": 0.0, "type": "electric_scooter", "name": "0b85f483a0aebd9dbf645dd10b210b11", "fusion_lon": 0.0, "bike_id": "0b85f483a0aebd9dbf645dd10b210b11", "is_reserved": 0, "rental_uris": {"android": "https://dc.lft.to/lastmile_qr_scan", "ios": "https://dc.lft.to/lastmile_qr_scan"}, "lat": 38.90630766666666, "is_disabled": 0, "lon": -77.04819716666667}, {"fusion_lat": 0.0, "type": "electric_scooter", "name": "3f4c2de1bbbe44450edc551689a1872f", "fusion_lon": 0.0, "bike_id": "3f4c2de1bbbe44450edc551689a1872f", "is_reserved": 0, "rental_uris": {"android": "https://dc.lft.to/lastmile_qr_scan", "ios": "https://dc.lft.to/lastmile_qr_scan"}, "lat": 38.8924515, "is_disabled": 0, "lon": -77.0465805}, {"fusion_lat": 0.0, "type": "electric_scooter", "name": "b02b1bb19dc8577bd5cfbe29ab66cbc6", "fusion_lon": 0.0, "bike_id": "b02b1bb19dc8577bd5cfbe29ab66cbc6", "is_reserved": 0, "rental_uris": {"android": "https://dc.lft.to/lastmile_qr_scan", "ios": "https://dc.lft.to/lastmile_qr_scan"}, "lat": 38.899157333333335, "is_disabled": 0, "lon": -76.9338045}, {"fusion_lat": 0.0, "type": "electric_scooter", "name": "dabc2f9e15e98e0a41d044eba8519fbf", "fusion_lon": 0.0, "bike_id": "dabc2f9e15e98e0a41d044eba8519fbf", "is_reserved": 0, "rental_uris": {"android": "https://dc.lft.to/lastmile_qr_scan", "ios": "https://dc.lft.to/lastmile_qr_scan"}, "lat": 38.9216925, "is_disabled": 0, "lon": -77.03821716666667}, {"fusion_lat": 0.0, "type": "electric_scooter", "name": "44a1b02503c0d193c7b8b658b1dfacad", "fusion_lon": 0.0, "bike_id": "44a1b02503c0d193c7b8b658b1dfacad", "is_reserved": 0, "rental_uris": {"android": "https://dc.lft.to/lastmile_qr_scan", "ios": "https://dc.lft.to/lastmile_qr_scan"}, "lat": 38.92403933333333, "is_disabled": 0, "lon": -77.0517245}, {"fusion_lat": 0.0, "type": "electric_scooter", "name": "29f7e248cbeda0b8d341aee3d8b89df5", "fusion_lon": 0.0, "bike_id": "29f7e248cbeda0b8d341aee3d8b89df5", "is_reserved": 0, "rental_uris": {"android": "https://dc.lft.to/lastmile_qr_scan", "ios": "https://dc.lft.to/lastmile_qr_scan"}, "lat": 38.915506, "is_disabled": 0, "lon": -77.03130983333334}, {"fusion_lat": 0.0, "type": "electric_scooter", "name": "9c4b0e3daa0361d9549f676730758982", "fusion_lon": 0.0, "bike_id": "9c4b0e3daa0361d9549f676730758982", "is_reserved": 0, "rental_uris": {"android": "https://dc.lft.to/lastmile_qr_scan", "ios": "https://dc.lft.to/lastmile_qr_scan"}, "lat": 38.939798, "is_disabled": 0, "lon": -77.02984383333333}, {"fusion_lat": 0.0, "type": "electric_scooter", "name": "5bc580a953a5ea69bc38f8ce55885c89", "fusion_lon": 0.0, "bike_id": "5bc580a953a5ea69bc38f8ce55885c89", "is_reserved": 0, "rental_uris": {"android": "https://dc.lft.to/lastmile_qr_scan", "ios": "https://dc.lft.to/lastmile_qr_scan"}, "lat": 38.89916733333333, "is_disabled": 0, "lon": -76.933802}, {"fusion_lat": 0.0, "type": "electric_scooter", "name": "5ece08b2f0c129dea541ab90ee8bd65a", "fusion_lon": 0.0, "bike_id": "5ece08b2f0c129dea541ab90ee8bd65a", "is_reserved": 0, "rental_uris": {"android": "https://dc.lft.to/lastmile_qr_scan", "ios": "https://dc.lft.to/lastmile_qr_scan"}, "lat": 38.89219083333333, "is_disabled": 0, "lon": -77.02348783333333}, {"fusion_lat": 0.0, "type": "electric_scooter", "name": "b10ab7c703ff72a4763d143b1e76b2e7", "fusion_lon": 0.0, "bike_id": "b10ab7c703ff72a4763d143b1e76b2e7", "is_reserved": 0, "rental_uris": {"android": "https://dc.lft.to/lastmile_qr_scan", "ios": "https://dc.lft.to/lastmile_qr_scan"}, "lat": 38.8830395, "is_disabled": 0, "lon": -76.97862916666666}, {"fusion_lat": 0.0, "type": "electric_scooter", "name": "c9ee7d8075fc27608e2c3a6aff371ed2", "fusion_lon": 0.0, "bike_id": "c9ee7d8075fc27608e2c3a6aff371ed2", "is_reserved": 0, "rental_uris": {"android": "https://dc.lft.to/lastmile_qr_scan", "ios": "https://dc.lft.to/lastmile_qr_scan"}, "lat": 38.8873765, "is_disabled": 0, "lon": -77.03363633333333}, {"fusion_lat": 0.0, "type": "electric_scooter", "name": "5a9325e9770aca97e41a1373d8314de2", "fusion_lon": 0.0, "bike_id": "5a9325e9770aca97e41a1373d8314de2", "is_reserved": 0, "rental_uris": {"android": "https://dc.lft.to/lastmile_qr_scan", "ios": "https://dc.lft.to/lastmile_qr_scan"}, "lat": 38.823765, "is_disabled": 0, "lon": -77.0118605}, {"fusion_lat": 0.0, "type": "electric_scooter", "name": "d7351af00f3ec7315470ad404667142d", "fusion_lon": 0.0, "bike_id": "d7351af00f3ec7315470ad404667142d", "is_reserved": 0, "rental_uris": {"android": "https://dc.lft.to/lastmile_qr_scan", "ios": "https://dc.lft.to/lastmile_qr_scan"}, "lat": 38.9091285, "is_disabled": 0, "lon": -77.07264166666667}, {"fusion_lat": 0.0, "type": "electric_scooter", "name": "6ac701f96969fa942f7d13cc09f6791f", "fusion_lon": 0.0, "bike_id": "6ac701f96969fa942f7d13cc09f6791f", "is_reserved": 0, "rental_uris": {"android": "https://dc.lft.to/lastmile_qr_scan", "ios": "https://dc.lft.to/lastmile_qr_scan"}, "lat": 38.904635999999996, "is_disabled": 0, "lon": -77.0391055}, {"fusion_lat": 0.0, "type": "electric_scooter", "name": "22f303f816e77a2c4e765448bf624635", "fusion_lon": 0.0, "bike_id": "22f303f816e77a2c4e765448bf624635", "is_reserved": 0, "rental_uris": {"android": "https://dc.lft.to/lastmile_qr_scan", "ios": "https://dc.lft.to/lastmile_qr_scan"}, "lat": 38.86699766666667, "is_disabled": 0, "lon": -76.98710283333334}, {"fusion_lat": 0.0, "type": "electric_scooter", "name": "99438749b9eca4c69131eba6cb2240d3", "fusion_lon": 0.0, "bike_id": "99438749b9eca4c69131eba6cb2240d3", "is_reserved": 0, "rental_uris": {"android": "https://dc.lft.to/lastmile_qr_scan", "ios": "https://dc.lft.to/lastmile_qr_scan"}, "lat": 38.90538133333333, "is_disabled": 0, "lon": -77.0504605}, {"fusion_lat": 0.0, "type": "electric_bike", "name": "e5c6c832f48c5efc9cba6d8934ba2d6a", "fusion_lon": 0.0, "bike_id": "e5c6c832f48c5efc9cba6d8934ba2d6a", "is_reserved": 0, "rental_uris": {"android": "https://dc.lft.to/lastmile_qr_scan", "ios": "https://dc.lft.to/lastmile_qr_scan"}, "lat": 38.8804175, "is_disabled": 0, "lon": -77.01128966666667}, {"fusion_lat": 0.0, "type": "electric_scooter", "name": "e9460497a64a2ff970562e5731097dbe", "fusion_lon": 0.0, "bike_id": "e9460497a64a2ff970562e5731097dbe", "is_reserved": 0, "rental_uris": {"android": "https://dc.lft.to/lastmile_qr_scan", "ios": "https://dc.lft.to/lastmile_qr_scan"}, "lat": 38.867313333333335, "is_disabled": 0, "lon": -76.98783716666667}, {"fusion_lat": 0.0, "type": "electric_scooter", "name": "2b54f53a6ced5abfacac6a50e07da237", "fusion_lon": 0.0, "bike_id": "2b54f53a6ced5abfacac6a50e07da237", "is_reserved": 0, "rental_uris": {"android": "https://dc.lft.to/lastmile_qr_scan", "ios": "https://dc.lft.to/lastmile_qr_scan"}, "lat": 38.937358, "is_disabled": 0, "lon": -77.03353433333334}, {"fusion_lat": 0.0, "type": "electric_scooter", "name": "cbbc6ce4a5862e416492268cdaa20daa", "fusion_lon": 0.0, "bike_id": "cbbc6ce4a5862e416492268cdaa20daa", "is_reserved": 0, "rental_uris": {"android": "https://dc.lft.to/lastmile_qr_scan", "ios": "https://dc.lft.to/lastmile_qr_scan"}, "lat": 38.871817, "is_disabled": 0, "lon": -77.00607966666666}, {"fusion_lat": 0.0, "type": "electric_scooter", "name": "552e9de71d7215075a2daa83fcedcca7", "fusion_lon": 0.0, "bike_id": "552e9de71d7215075a2daa83fcedcca7", "is_reserved": 0, "rental_uris": {"android": "https://dc.lft.to/lastmile_qr_scan", "ios": "https://dc.lft.to/lastmile_qr_scan"}, "lat": 38.924356333333336, "is_disabled": 0, "lon": -77.05198116666666}, {"fusion_lat": 0.0, "type": "electric_scooter", "name": "d643b0fb0f0e727dbc6fe798c79e07de", "fusion_lon": 0.0, "bike_id": "d643b0fb0f0e727dbc6fe798c79e07de", "is_reserved": 0, "rental_uris": {"android": "https://dc.lft.to/lastmile_qr_scan", "ios": "https://dc.lft.to/lastmile_qr_scan"}, "lat": 38.903830666666664, "is_disabled": 0, "lon": -77.038476}, {"fusion_lat": 0.0, "type": "electric_scooter", "name": "295e3a53d93d60d5853aeb2c4ddde454", "fusion_lon": 0.0, "bike_id": "295e3a53d93d60d5853aeb2c4ddde454", "is_reserved": 0, "rental_uris": {"android": "https://dc.lft.to/lastmile_qr_scan", "ios": "https://dc.lft.to/lastmile_qr_scan"}, "lat": 38.894060333333336, "is_disabled": 0, "lon": -77.0441845}, {"fusion_lat": 0.0, "type": "electric_scooter", "name": "82bad7ffa086c42d56e3724f8f3845dc", "fusion_lon": 0.0, "bike_id": "82bad7ffa086c42d56e3724f8f3845dc", "is_reserved": 0, "rental_uris": {"android": "https://dc.lft.to/lastmile_qr_scan", "ios": "https://dc.lft.to/lastmile_qr_scan"}, "lat": 38.89941833333334, "is_disabled": 0, "lon": -77.01451266666666}, {"fusion_lat": 0.0, "type": "electric_scooter", "name": "58df35b1212b369869b2a52a12712a83", "fusion_lon": 0.0, "bike_id": "58df35b1212b369869b2a52a12712a83", "is_reserved": 0, "rental_uris": {"android": "https://dc.lft.to/lastmile_qr_scan", "ios": "https://dc.lft.to/lastmile_qr_scan"}, "lat": 38.899621833333335, "is_disabled": 0, "lon": -77.05582883333334}, {"fusion_lat": 0.0, "type": "electric_scooter", "name": "6705cbecf43703c1410cb9a6734d3315", "fusion_lon": 0.0, "bike_id": "6705cbecf43703c1410cb9a6734d3315", "is_reserved": 0, "rental_uris": {"android": "https://dc.lft.to/lastmile_qr_scan", "ios": "https://dc.lft.to/lastmile_qr_scan"}, "lat": 38.90269833333333, "is_disabled": 0, "lon": -77.02828266666667}, {"fusion_lat": 0.0, "type": "electric_scooter", "name": "5aaf6e4161998e24f049334990f1a210", "fusion_lon": 0.0, "bike_id": "5aaf6e4161998e24f049334990f1a210", "is_reserved": 0, "rental_uris": {"android": "https://dc.lft.to/lastmile_qr_scan", "ios": "https://dc.lft.to/lastmile_qr_scan"}, "lat": 38.911509, "is_disabled": 0, "lon": -77.0434225}, {"fusion_lat": 0.0, "type": "electric_scooter", "name": "890228faa2305395585d7ef233b97c35", "fusion_lon": 0.0, "bike_id": "890228faa2305395585d7ef233b97c35", "is_reserved": 0, "rental_uris": {"android": "https://dc.lft.to/lastmile_qr_scan", "ios": "https://dc.lft.to/lastmile_qr_scan"}, "lat": 38.892231333333335, "is_disabled": 0, "lon": -77.02180833333334}, {"fusion_lat": 0.0, "type": "electric_scooter", "name": "592a953f6dadd1e09a79aff1e2bb7830", "fusion_lon": 0.0, "bike_id": "592a953f6dadd1e09a79aff1e2bb7830", "is_reserved": 0, "rental_uris": {"android": "https://dc.lft.to/lastmile_qr_scan", "ios": "https://dc.lft.to/lastmile_qr_scan"}, "lat": 38.92321333333334, "is_disabled": 0, "lon": -77.0195835}, {"fusion_lat": 0.0, "type": "electric_scooter", "name": "345278e9dce4c13cd4da16e0b9c0d004", "fusion_lon": 0.0, "bike_id": "345278e9dce4c13cd4da16e0b9c0d004", "is_reserved": 0, "rental_uris": {"android": "https://dc.lft.to/lastmile_qr_scan", "ios": "https://dc.lft.to/lastmile_qr_scan"}, "lat": 38.918916, "is_disabled": 0, "lon": -77.029716}, {"fusion_lat": 0.0, "type": "electric_scooter", "name": "85fb6b5164dd340bdcdf2c611a05b9f6", "fusion_lon": 0.0, "bike_id": "85fb6b5164dd340bdcdf2c611a05b9f6", "is_reserved": 0, "rental_uris": {"android": "https://dc.lft.to/lastmile_qr_scan", "ios": "https://dc.lft.to/lastmile_qr_scan"}, "lat": 38.9070875, "is_disabled": 0, "lon": -77.04091333333334}, {"fusion_lat": 0.0, "type": "electric_scooter", "name": "72f7727c8f34787ccf6938dfb533cac0", "fusion_lon": 0.0, "bike_id": "72f7727c8f34787ccf6938dfb533cac0", "is_reserved": 0, "rental_uris": {"android": "https://dc.lft.to/lastmile_qr_scan", "ios": "https://dc.lft.to/lastmile_qr_scan"}, "lat": 38.91984716666666, "is_disabled": 0, "lon": -77.03331816666666}, {"fusion_lat": 0.0, "type": "electric_scooter", "name": "d9beedbac7551632f82566229b212573", "fusion_lon": 0.0, "bike_id": "d9beedbac7551632f82566229b212573", "is_reserved": 0, "rental_uris": {"android": "https://dc.lft.to/lastmile_qr_scan", "ios": "https://dc.lft.to/lastmile_qr_scan"}, "lat": 38.892291, "is_disabled": 0, "lon": -77.03203783333333}, {"fusion_lat": 0.0, "type": "electric_scooter", "name": "cfb415d4aad0be8025f2cc91aa92418d", "fusion_lon": 0.0, "bike_id": "cfb415d4aad0be8025f2cc91aa92418d", "is_reserved": 0, "rental_uris": {"android": "https://dc.lft.to/lastmile_qr_scan", "ios": "https://dc.lft.to/lastmile_qr_scan"}, "lat": 38.901062, "is_disabled": 0, "lon": -77.031736}, {"fusion_lat": 0.0, "type": "electric_scooter", "name": "0a2bc2eb2572641216d5cd38360b9a5d", "fusion_lon": 0.0, "bike_id": "0a2bc2eb2572641216d5cd38360b9a5d", "is_reserved": 0, "rental_uris": {"android": "https://dc.lft.to/lastmile_qr_scan", "ios": "https://dc.lft.to/lastmile_qr_scan"}, "lat": 38.93042716666667, "is_disabled": 0, "lon": -77.03805783333334}, {"fusion_lat": 0.0, "type": "electric_scooter", "name": "6eac332ba794e4a5601ad26376ad0bc1", "fusion_lon": 0.0, "bike_id": "6eac332ba794e4a5601ad26376ad0bc1", "is_reserved": 0, "rental_uris": {"android": "https://dc.lft.to/lastmile_qr_scan", "ios": "https://dc.lft.to/lastmile_qr_scan"}, "lat": 38.94205133333333, "is_disabled": 0, "lon": -77.025149}, {"fusion_lat": 0.0, "type": "electric_scooter", "name": "9e11d1f2d2b50f0fec7334085494509b", "fusion_lon": 0.0, "bike_id": "9e11d1f2d2b50f0fec7334085494509b", "is_reserved": 0, "rental_uris": {"android": "https://dc.lft.to/lastmile_qr_scan", "ios": "https://dc.lft.to/lastmile_qr_scan"}, "lat": 38.8851035, "is_disabled": 0, "lon": -77.02017966666666}, {"fusion_lat": 0.0, "type": "electric_scooter", "name": "e58a9682228806e8af53b3ca5e06ce05", "fusion_lon": 0.0, "bike_id": "e58a9682228806e8af53b3ca5e06ce05", "is_reserved": 0, "rental_uris": {"android": "https://dc.lft.to/lastmile_qr_scan", "ios": "https://dc.lft.to/lastmile_qr_scan"}, "lat": 38.865509833333334, "is_disabled": 0, "lon": -76.98874883333333}, {"fusion_lat": 0.0, "type": "electric_scooter", "name": "5e4aa9f314dcf3691667441e34f9618e", "fusion_lon": 0.0, "bike_id": "5e4aa9f314dcf3691667441e34f9618e", "is_reserved": 0, "rental_uris": {"android": "https://dc.lft.to/lastmile_qr_scan", "ios": "https://dc.lft.to/lastmile_qr_scan"}, "lat": 38.90726883333333, "is_disabled": 0, "lon": -77.03478983333333}, {"fusion_lat": 0.0, "type": "electric_scooter", "name": "dcb90b25f7373e9b720f2aa4a1a7452d", "fusion_lon": 0.0, "bike_id": "dcb90b25f7373e9b720f2aa4a1a7452d", "is_reserved": 0, "rental_uris": {"android": "https://dc.lft.to/lastmile_qr_scan", "ios": "https://dc.lft.to/lastmile_qr_scan"}, "lat": 38.92030466666667, "is_disabled": 0, "lon": -76.984876}, {"fusion_lat": 0.0, "type": "electric_scooter", "name": "c3d140add01ce90fa97c4fa4ba522ed9", "fusion_lon": 0.0, "bike_id": "c3d140add01ce90fa97c4fa4ba522ed9", "is_reserved": 0, "rental_uris": {"android": "https://dc.lft.to/lastmile_qr_scan", "ios": "https://dc.lft.to/lastmile_qr_scan"}, "lat": 38.89807066666667, "is_disabled": 0, "lon": -77.03303716666667}, {"fusion_lat": 0.0, "type": "electric_scooter", "name": "d8cec87dd629517efd06dffa8deb206b", "fusion_lon": 0.0, "bike_id": "d8cec87dd629517efd06dffa8deb206b", "is_reserved": 0, "rental_uris": {"android": "https://dc.lft.to/lastmile_qr_scan", "ios": "https://dc.lft.to/lastmile_qr_scan"}, "lat": 38.892391333333336, "is_disabled": 0, "lon": -77.0173065}, {"fusion_lat": 0.0, "type": "electric_scooter", "name": "e2076b3c45846e9349046cedc918d451", "fusion_lon": 0.0, "bike_id": "e2076b3c45846e9349046cedc918d451", "is_reserved": 0, "rental_uris": {"android": "https://dc.lft.to/lastmile_qr_scan", "ios": "https://dc.lft.to/lastmile_qr_scan"}, "lat": 38.909453666666664, "is_disabled": 0, "lon": -77.04475266666667}, {"fusion_lat": 0.0, "type": "electric_scooter", "name": "b9d10a18835474f71c304fac510e2b60", "fusion_lon": 0.0, "bike_id": "b9d10a18835474f71c304fac510e2b60", "is_reserved": 0, "rental_uris": {"android": "https://dc.lft.to/lastmile_qr_scan", "ios": "https://dc.lft.to/lastmile_qr_scan"}, "lat": 38.95709883333333, "is_disabled": 0, "lon": -77.00283033333334}, {"fusion_lat": 0.0, "type": "electric_scooter", "name": "ad50cfc5b7c47fbb1b06fd2926208e8d", "fusion_lon": 0.0, "bike_id": "ad50cfc5b7c47fbb1b06fd2926208e8d", "is_reserved": 0, "rental_uris": {"android": "https://dc.lft.to/lastmile_qr_scan", "ios": "https://dc.lft.to/lastmile_qr_scan"}, "lat": 38.872253, "is_disabled": 0, "lon": -77.0117905}, {"fusion_lat": 0.0, "type": "electric_scooter", "name": "52dc28793d6dbc399ef408803eb4031b", "fusion_lon": 0.0, "bike_id": "52dc28793d6dbc399ef408803eb4031b", "is_reserved": 0, "rental_uris": {"android": "https://dc.lft.to/lastmile_qr_scan", "ios": "https://dc.lft.to/lastmile_qr_scan"}, "lat": 38.89369283333333, "is_disabled": 0, "lon": -77.04781483333333}, {"fusion_lat": 0.0, "type": "electric_scooter", "name": "d1851337e8c7e8b55cb39eda2bd00d48", "fusion_lon": 0.0, "bike_id": "d1851337e8c7e8b55cb39eda2bd00d48", "is_reserved": 0, "rental_uris": {"android": "https://dc.lft.to/lastmile_qr_scan", "ios": "https://dc.lft.to/lastmile_qr_scan"}, "lat": 38.91254816666667, "is_disabled": 0, "lon": -77.0111755}, {"fusion_lat": 0.0, "type": "electric_scooter", "name": "48221a36f125714500c915fa89e95586", "fusion_lon": 0.0, "bike_id": "48221a36f125714500c915fa89e95586", "is_reserved": 0, "rental_uris": {"android": "https://dc.lft.to/lastmile_qr_scan", "ios": "https://dc.lft.to/lastmile_qr_scan"}, "lat": 38.881462666666664, "is_disabled": 0, "lon": -76.99482833333333}, {"fusion_lat": 0.0, "type": "electric_scooter", "name": "e0f89bdef0aefb505b5fd817d356612f", "fusion_lon": 0.0, "bike_id": "e0f89bdef0aefb505b5fd817d356612f", "is_reserved": 0, "rental_uris": {"android": "https://dc.lft.to/lastmile_qr_scan", "ios": "https://dc.lft.to/lastmile_qr_scan"}, "lat": 38.92473533333333, "is_disabled": 0, "lon": -77.02275733333333}, {"fusion_lat": 0.0, "type": "electric_scooter", "name": "15853cafd873ee4d062a6905078a1cb1", "fusion_lon": 0.0, "bike_id": "15853cafd873ee4d062a6905078a1cb1", "is_reserved": 0, "rental_uris": {"android": "https://dc.lft.to/lastmile_qr_scan", "ios": "https://dc.lft.to/lastmile_qr_scan"}, "lat": 38.892174833333335, "is_disabled": 0, "lon": -77.0235085}, {"fusion_lat": 0.0, "type": "electric_scooter", "name": "0a70f24845ba583e2fd3f5102edae888", "fusion_lon": 0.0, "bike_id": "0a70f24845ba583e2fd3f5102edae888", "is_reserved": 0, "rental_uris": {"android": "https://dc.lft.to/lastmile_qr_scan", "ios": "https://dc.lft.to/lastmile_qr_scan"}, "lat": 38.903537166666666, "is_disabled": 0, "lon": -77.043349}, {"fusion_lat": 0.0, "type": "electric_scooter", "name": "a8308d051f4bda442717c766397b96a1", "fusion_lon": 0.0, "bike_id": "a8308d051f4bda442717c766397b96a1", "is_reserved": 0, "rental_uris": {"android": "https://dc.lft.to/lastmile_qr_scan", "ios": "https://dc.lft.to/lastmile_qr_scan"}, "lat": 38.915246333333336, "is_disabled": 0, "lon": -77.04620033333333}, {"fusion_lat": 0.0, "type": "electric_scooter", "name": "8d3a0162eef90b3126e5e73924e242b6", "fusion_lon": 0.0, "bike_id": "8d3a0162eef90b3126e5e73924e242b6", "is_reserved": 0, "rental_uris": {"android": "https://dc.lft.to/lastmile_qr_scan", "ios": "https://dc.lft.to/lastmile_qr_scan"}, "lat": 38.912539833333334, "is_disabled": 0, "lon": -77.02227483333333}, {"fusion_lat": 0.0, "type": "electric_scooter", "name": "77ed80599a6d25fc6fa858ede0067e3a", "fusion_lon": 0.0, "bike_id": "77ed80599a6d25fc6fa858ede0067e3a", "is_reserved": 0, "rental_uris": {"android": "https://dc.lft.to/lastmile_qr_scan", "ios": "https://dc.lft.to/lastmile_qr_scan"}, "lat": 38.892368166666664, "is_disabled": 0, "lon": -77.0321315}, {"fusion_lat": 0.0, "type": "electric_scooter", "name": "c27389d090b639341d7435072ad9875a", "fusion_lon": 0.0, "bike_id": "c27389d090b639341d7435072ad9875a", "is_reserved": 0, "rental_uris": {"android": "https://dc.lft.to/lastmile_qr_scan", "ios": "https://dc.lft.to/lastmile_qr_scan"}, "lat": 38.884852333333335, "is_disabled": 0, "lon": -77.02089883333333}, {"fusion_lat": 0.0, "type": "electric_scooter", "name": "73710dbc90939458673d635355cde04a", "fusion_lon": 0.0, "bike_id": "73710dbc90939458673d635355cde04a", "is_reserved": 0, "rental_uris": {"android": "https://dc.lft.to/lastmile_qr_scan", "ios": "https://dc.lft.to/lastmile_qr_scan"}, "lat": 38.905238833333335, "is_disabled": 0, "lon": -77.0619325}, {"fusion_lat": 0.0, "type": "electric_scooter", "name": "a0156750a28574e5188fc738e69410a9", "fusion_lon": 0.0, "bike_id": "a0156750a28574e5188fc738e69410a9", "is_reserved": 0, "rental_uris": {"android": "https://dc.lft.to/lastmile_qr_scan", "ios": "https://dc.lft.to/lastmile_qr_scan"}, "lat": 38.900371166666666, "is_disabled": 0, "lon": -76.9842715}, {"fusion_lat": 0.0, "type": "electric_scooter", "name": "d720b5962d1aca059c7ef47a93b4c008", "fusion_lon": 0.0, "bike_id": "d720b5962d1aca059c7ef47a93b4c008", "is_reserved": 0, "rental_uris": {"android": "https://dc.lft.to/lastmile_qr_scan", "ios": "https://dc.lft.to/lastmile_qr_scan"}, "lat": 38.884285166666665, "is_disabled": 0, "lon": -77.025849}, {"fusion_lat": 0.0, "type": "electric_bike", "name": "ba4d438093a95dfdf4fa8c1249a607b2", "fusion_lon": 0.0, "bike_id": "ba4d438093a95dfdf4fa8c1249a607b2", "is_reserved": 0, "rental_uris": {"android": "https://dc.lft.to/lastmile_qr_scan", "ios": "https://dc.lft.to/lastmile_qr_scan"}, "lat": 38.9681655, "is_disabled": 0, "lon": -77.00030216666667}, {"fusion_lat": 0.0, "type": "electric_scooter", "name": "286bfc8dd537cb6c1edb1a6407d5ac44", "fusion_lon": 0.0, "bike_id": "286bfc8dd537cb6c1edb1a6407d5ac44", "is_reserved": 0, "rental_uris": {"android": "https://dc.lft.to/lastmile_qr_scan", "ios": "https://dc.lft.to/lastmile_qr_scan"}, "lat": 38.90833266666667, "is_disabled": 0, "lon": -76.99701416666667}, {"fusion_lat": 0.0, "type": "electric_scooter", "name": "2686e86c5711a4db83259b193e7655e3", "fusion_lon": 0.0, "bike_id": "2686e86c5711a4db83259b193e7655e3", "is_reserved": 0, "rental_uris": {"android": "https://dc.lft.to/lastmile_qr_scan", "ios": "https://dc.lft.to/lastmile_qr_scan"}, "lat": 38.917335333333334, "is_disabled": 0, "lon": -77.023065}, {"fusion_lat": 0.0, "type": "electric_scooter", "name": "26094ce2055695ef8b1c83436389ddf6", "fusion_lon": 0.0, "bike_id": "26094ce2055695ef8b1c83436389ddf6", "is_reserved": 0, "rental_uris": {"android": "https://dc.lft.to/lastmile_qr_scan", "ios": "https://dc.lft.to/lastmile_qr_scan"}, "lat": 38.90567933333333, "is_disabled": 0, "lon": -77.0057045}, {"fusion_lat": 0.0, "type": "electric_scooter", "name": "fb3f2f7fb7ff5017befa6bc3916efcd3", "fusion_lon": 0.0, "bike_id": "fb3f2f7fb7ff5017befa6bc3916efcd3", "is_reserved": 0, "rental_uris": {"android": "https://dc.lft.to/lastmile_qr_scan", "ios": "https://dc.lft.to/lastmile_qr_scan"}, "lat": 38.9203425, "is_disabled": 0, "lon": -76.9973585}, {"fusion_lat": 0.0, "type": "electric_bike", "name": "182d83fe16e7856c9b37afe9629a808a", "fusion_lon": 0.0, "bike_id": "182d83fe16e7856c9b37afe9629a808a", "is_reserved": 0, "rental_uris": {"android": "https://dc.lft.to/lastmile_qr_scan", "ios": "https://dc.lft.to/lastmile_qr_scan"}, "lat": 39.0430445, "is_disabled": 0, "lon": -77.051608}, {"fusion_lat": 0.0, "type": "electric_scooter", "name": "f88f95d55084e8991a0601020160cf97", "fusion_lon": 0.0, "bike_id": "f88f95d55084e8991a0601020160cf97", "is_reserved": 0, "rental_uris": {"android": "https://dc.lft.to/lastmile_qr_scan", "ios": "https://dc.lft.to/lastmile_qr_scan"}, "lat": 38.916106166666665, "is_disabled": 0, "lon": -77.02171466666667}, {"fusion_lat": 0.0, "type": "electric_scooter", "name": "71c507dc5593e18d3064f1d2896130d7", "fusion_lon": 0.0, "bike_id": "71c507dc5593e18d3064f1d2896130d7", "is_reserved": 0, "rental_uris": {"android": "https://dc.lft.to/lastmile_qr_scan", "ios": "https://dc.lft.to/lastmile_qr_scan"}, "lat": 38.911817, "is_disabled": 0, "lon": -77.035047}, {"fusion_lat": 0.0, "type": "electric_scooter", "name": "60bc7f9fb9fd8936dc9411d470c22b02", "fusion_lon": 0.0, "bike_id": "60bc7f9fb9fd8936dc9411d470c22b02", "is_reserved": 0, "rental_uris": {"android": "https://dc.lft.to/lastmile_qr_scan", "ios": "https://dc.lft.to/lastmile_qr_scan"}, "lat": 38.89048183333333, "is_disabled": 0, "lon": -77.04760833333333}, {"fusion_lat": 0.0, "type": "electric_scooter", "name": "4a91ea72dabac51f9dd8ff99ece39d04", "fusion_lon": 0.0, "bike_id": "4a91ea72dabac51f9dd8ff99ece39d04", "is_reserved": 0, "rental_uris": {"android": "https://dc.lft.to/lastmile_qr_scan", "ios": "https://dc.lft.to/lastmile_qr_scan"}, "lat": 38.896069833333335, "is_disabled": 0, "lon": -76.99969466666667}, {"fusion_lat": 0.0, "type": "electric_scooter", "name": "d49c386b3276a9e26316ffe2a861596f", "fusion_lon": 0.0, "bike_id": "d49c386b3276a9e26316ffe2a861596f", "is_reserved": 0, "rental_uris": {"android": "https://dc.lft.to/lastmile_qr_scan", "ios": "https://dc.lft.to/lastmile_qr_scan"}, "lat": 38.89897, "is_disabled": 0, "lon": -77.03286883333334}, {"fusion_lat": 0.0, "type": "electric_bike", "name": "fde37a4fdbee92af2d568e45ca0e15c3", "fusion_lon": 0.0, "bike_id": "fde37a4fdbee92af2d568e45ca0e15c3", "is_reserved": 0, "rental_uris": {"android": "https://dc.lft.to/lastmile_qr_scan", "ios": "https://dc.lft.to/lastmile_qr_scan"}, "lat": 38.938278, "is_disabled": 0, "lon": -76.99481866666666}, {"fusion_lat": 0.0, "type": "electric_scooter", "name": "622803ee35a0465a353c1d031e42eaf6", "fusion_lon": 0.0, "bike_id": "622803ee35a0465a353c1d031e42eaf6", "is_reserved": 0, "rental_uris": {"android": "https://dc.lft.to/lastmile_qr_scan", "ios": "https://dc.lft.to/lastmile_qr_scan"}, "lat": 38.907298833333336, "is_disabled": 0, "lon": -76.98696633333333}, {"fusion_lat": 0.0, "type": "electric_scooter", "name": "4c286ac7beca7b51470d38e2b47efa6c", "fusion_lon": 0.0, "bike_id": "4c286ac7beca7b51470d38e2b47efa6c", "is_reserved": 0, "rental_uris": {"android": "https://dc.lft.to/lastmile_qr_scan", "ios": "https://dc.lft.to/lastmile_qr_scan"}, "lat": 38.9418305, "is_disabled": 0, "lon": -77.02492266666667}, {"fusion_lat": 0.0, "type": "electric_scooter", "name": "1cf5eee4c400d54048676658921799a4", "fusion_lon": 0.0, "bike_id": "1cf5eee4c400d54048676658921799a4", "is_reserved": 0, "rental_uris": {"android": "https://dc.lft.to/lastmile_qr_scan", "ios": "https://dc.lft.to/lastmile_qr_scan"}, "lat": 38.8923995, "is_disabled": 0, "lon": -77.02202816666667}, {"fusion_lat": 0.0, "type": "electric_scooter", "name": "72299e21cae61596cbfdc83d5827d6fd", "fusion_lon": 0.0, "bike_id": "72299e21cae61596cbfdc83d5827d6fd", "is_reserved": 0, "rental_uris": {"android": "https://dc.lft.to/lastmile_qr_scan", "ios": "https://dc.lft.to/lastmile_qr_scan"}, "lat": 38.92219566666667, "is_disabled": 0, "lon": -77.0432815}, {"fusion_lat": 0.0, "type": "electric_scooter", "name": "1a7de3b3d2eda7429a4b7117c934a472", "fusion_lon": 0.0, "bike_id": "1a7de3b3d2eda7429a4b7117c934a472", "is_reserved": 0, "rental_uris": {"android": "https://dc.lft.to/lastmile_qr_scan", "ios": "https://dc.lft.to/lastmile_qr_scan"}, "lat": 38.9171505, "is_disabled": 0, "lon": -77.02892366666667}, {"fusion_lat": 0.0, "type": "electric_scooter", "name": "5fa4c4725af26ca05672bf4617fb0fb0", "fusion_lon": 0.0, "bike_id": "5fa4c4725af26ca05672bf4617fb0fb0", "is_reserved": 0, "rental_uris": {"android": "https://dc.lft.to/lastmile_qr_scan", "ios": "https://dc.lft.to/lastmile_qr_scan"}, "lat": 38.862356, "is_disabled": 0, "lon": -76.99485233333333}, {"fusion_lat": 0.0, "type": "electric_scooter", "name": "dcf4351b4bc31ce48f26ddbbe72e47e0", "fusion_lon": 0.0, "bike_id": "dcf4351b4bc31ce48f26ddbbe72e47e0", "is_reserved": 0, "rental_uris": {"android": "https://dc.lft.to/lastmile_qr_scan", "ios": "https://dc.lft.to/lastmile_qr_scan"}, "lat": 38.90047416666667, "is_disabled": 0, "lon": -77.0319125}, {"fusion_lat": 0.0, "type": "electric_scooter", "name": "3a1f0c2ebed1c30dd8caaf60b293e426", "fusion_lon": 0.0, "bike_id": "3a1f0c2ebed1c30dd8caaf60b293e426", "is_reserved": 0, "rental_uris": {"android": "https://dc.lft.to/lastmile_qr_scan", "ios": "https://dc.lft.to/lastmile_qr_scan"}, "lat": 38.900511, "is_disabled": 0, "lon": -76.99854566666667}, {"fusion_lat": 0.0, "type": "electric_scooter", "name": "3e0adcb7b2571ed38c3ea34a6f8c03e1", "fusion_lon": 0.0, "bike_id": "3e0adcb7b2571ed38c3ea34a6f8c03e1", "is_reserved": 0, "rental_uris": {"android": "https://dc.lft.to/lastmile_qr_scan", "ios": "https://dc.lft.to/lastmile_qr_scan"}, "lat": 38.932966, "is_disabled": 0, "lon": -77.02057483333333}, {"fusion_lat": 0.0, "type": "electric_scooter", "name": "a601a1b0633a53bf93bfff08a8437c84", "fusion_lon": 0.0, "bike_id": "a601a1b0633a53bf93bfff08a8437c84", "is_reserved": 0, "rental_uris": {"android": "https://dc.lft.to/lastmile_qr_scan", "ios": "https://dc.lft.to/lastmile_qr_scan"}, "lat": 38.92370833333333, "is_disabled": 0, "lon": -77.01921016666667}, {"fusion_lat": 0.0, "type": "electric_scooter", "name": "e691e1a62acb9362e0f01c979cc82ebc", "fusion_lon": 0.0, "bike_id": "e691e1a62acb9362e0f01c979cc82ebc", "is_reserved": 0, "rental_uris": {"android": "https://dc.lft.to/lastmile_qr_scan", "ios": "https://dc.lft.to/lastmile_qr_scan"}, "lat": 38.9050755, "is_disabled": 0, "lon": -76.996133}, {"fusion_lat": 0.0, "type": "electric_scooter", "name": "b14e7408fd93fc4690d44ff70754d23e", "fusion_lon": 0.0, "bike_id": "b14e7408fd93fc4690d44ff70754d23e", "is_reserved": 0, "rental_uris": {"android": "https://dc.lft.to/lastmile_qr_scan", "ios": "https://dc.lft.to/lastmile_qr_scan"}, "lat": 38.92655116666667, "is_disabled": 0, "lon": -77.02425716666667}, {"fusion_lat": 0.0, "type": "electric_scooter", "name": "0ea4feda05ffd9fca8def8a08484b23d", "fusion_lon": 0.0, "bike_id": "0ea4feda05ffd9fca8def8a08484b23d", "is_reserved": 0, "rental_uris": {"android": "https://dc.lft.to/lastmile_qr_scan", "ios": "https://dc.lft.to/lastmile_qr_scan"}, "lat": 38.9311705, "is_disabled": 0, "lon": -77.02012033333334}, {"fusion_lat": 0.0, "type": "electric_scooter", "name": "81bbb6ebc9d39249a05060dfea2df440", "fusion_lon": 0.0, "bike_id": "81bbb6ebc9d39249a05060dfea2df440", "is_reserved": 0, "rental_uris": {"android": "https://dc.lft.to/lastmile_qr_scan", "ios": "https://dc.lft.to/lastmile_qr_scan"}, "lat": 38.8989085, "is_disabled": 0, "lon": -77.03957233333334}, {"fusion_lat": 0.0, "type": "electric_scooter", "name": "980856717e0edc93e62e8248b8e8e016", "fusion_lon": 0.0, "bike_id": "980856717e0edc93e62e8248b8e8e016", "is_reserved": 0, "rental_uris": {"android": "https://dc.lft.to/lastmile_qr_scan", "ios": "https://dc.lft.to/lastmile_qr_scan"}, "lat": 38.889881833333334, "is_disabled": 0, "lon": -76.98331766666666}, {"fusion_lat": 0.0, "type": "electric_scooter", "name": "049754de74ccb5bc12f3d2bcb0a080b7", "fusion_lon": 0.0, "bike_id": "049754de74ccb5bc12f3d2bcb0a080b7", "is_reserved": 0, "rental_uris": {"android": "https://dc.lft.to/lastmile_qr_scan", "ios": "https://dc.lft.to/lastmile_qr_scan"}, "lat": 38.89241083333334, "is_disabled": 0, "lon": -77.01726733333334}, {"fusion_lat": 0.0, "type": "electric_scooter", "name": "df0f3d29b79b1955208e5f258f664fed", "fusion_lon": 0.0, "bike_id": "df0f3d29b79b1955208e5f258f664fed", "is_reserved": 0, "rental_uris": {"android": "https://dc.lft.to/lastmile_qr_scan", "ios": "https://dc.lft.to/lastmile_qr_scan"}, "lat": 38.900167833333334, "is_disabled": 0, "lon": -77.04487283333333}, {"fusion_lat": 0.0, "type": "electric_scooter", "name": "d2d4574f3aa2ad441e3e649f9a70a95b", "fusion_lon": 0.0, "bike_id": "d2d4574f3aa2ad441e3e649f9a70a95b", "is_reserved": 0, "rental_uris": {"android": "https://dc.lft.to/lastmile_qr_scan", "ios": "https://dc.lft.to/lastmile_qr_scan"}, "lat": 38.9201845, "is_disabled": 0, "lon": -77.018026}, {"fusion_lat": 0.0, "type": "electric_scooter", "name": "8c28c6651b9cedb26e38cb87bc2a268e", "fusion_lon": 0.0, "bike_id": "8c28c6651b9cedb26e38cb87bc2a268e", "is_reserved": 0, "rental_uris": {"android": "https://dc.lft.to/lastmile_qr_scan", "ios": "https://dc.lft.to/lastmile_qr_scan"}, "lat": 38.9039115, "is_disabled": 0, "lon": -77.03849283333334}, {"fusion_lat": 0.0, "type": "electric_scooter", "name": "12a517d69f1909870a6f1bf1e7f4a025", "fusion_lon": 0.0, "bike_id": "12a517d69f1909870a6f1bf1e7f4a025", "is_reserved": 0, "rental_uris": {"android": "https://dc.lft.to/lastmile_qr_scan", "ios": "https://dc.lft.to/lastmile_qr_scan"}, "lat": 38.90398316666667, "is_disabled": 0, "lon": -77.024017}, {"fusion_lat": 0.0, "type": "electric_scooter", "name": "7cfb558dbc12b394c1ca16aa3ffa35a0", "fusion_lon": 0.0, "bike_id": "7cfb558dbc12b394c1ca16aa3ffa35a0", "is_reserved": 0, "rental_uris": {"android": "https://dc.lft.to/lastmile_qr_scan", "ios": "https://dc.lft.to/lastmile_qr_scan"}, "lat": 38.892211, "is_disabled": 0, "lon": -77.04507733333334}, {"fusion_lat": 0.0, "type": "electric_scooter", "name": "c1bfbc1985cdd5ee945ad1c2aec2e75d", "fusion_lon": 0.0, "bike_id": "c1bfbc1985cdd5ee945ad1c2aec2e75d", "is_reserved": 0, "rental_uris": {"android": "https://dc.lft.to/lastmile_qr_scan", "ios": "https://dc.lft.to/lastmile_qr_scan"},