{"data": {"bikes": [{"name": "37816517a2464ccdf773068acd13eaec", "is_reserved": 0, "type": "electric_scooter", "rental_uris": {"ios": "https://dc.lft.to/lastmile_qr_scan", "android": "https://dc.lft.to/lastmile_qr_scan"}, "lat": 38.9019125, "lon": -77.0432925, "bike_id": "37816517a2464ccdf773068acd13eaec", "fusion_lat": 0.0, "is_disabled": 0, "fusion_lon": 0.0}, {"name": "175883f2d8362f89fe0b6c00673e4dc4", "is_reserved": 0, "type": "electric_scooter", "rental_uris": {"ios": "https://dc.lft.to/lastmile_qr_scan", "android": "https://dc.lft.to/lastmile_qr_scan"}, "lat": 38.896325, "lon": -77.0213645, "bike_id": "175883f2d8362f89fe0b6c00673e4dc4", "fusion_lat": 0.0, "is_disabled": 0, "fusion_lon": 0.0}, {"name": "acec7dd19b397026e6bef88533d0dad9", "is_reserved": 0, "type": "electric_scooter", "rental_uris": {"ios": "https://dc.lft.to/lastmile_qr_scan", "android": "https://dc.lft.to/lastmile_qr_scan"}, "lat": 38.91775833333333, "lon": -77.0409785, "bike_id": "acec7dd19b397026e6bef88533d0dad9", "fusion_lat": 0.0, "is_disabled": 0, "fusion_lon": 0.0}, {"name": "5a1a4f9da865982b988626dd2c1603f4", "is_reserved": 0, "type": "electric_scooter", "rental_uris": {"ios": "https://dc.lft.to/lastmile_qr_scan", "android": "https://dc.lft.to/lastmile_qr_scan"}, "lat": 38.886172333333334, "lon": -77.0034905, "bike_id": "5a1a4f9da865982b988626dd2c1603f4", "fusion_lat": 0.0, "is_disabled": 0, "fusion_lon": 0.0}, {"name": "30fdc8b6adcf6407d675905d65d78f39", "is_reserved": 0, "type": "electric_scooter", "rental_uris": {"ios": "https://dc.lft.to/lastmile_qr_scan", "android": "https://dc.lft.to/lastmile_qr_scan"}, "lat": 38.89528033333333, "lon": -77.04928533333333, "bike_id": "30fdc8b6adcf6407d675905d65d78f39", "fusion_lat": 0.0, "is_disabled": 0, "fusion_lon": 0.0}, {"name": "13767272e2268db444987436fe45e104", "is_reserved": 0, "type": "electric_scooter", "rental_uris": {"ios": "https://dc.lft.to/lastmile_qr_scan", "android": "https://dc.lft.to/lastmile_qr_scan"}, "lat": 38.87187016666667, "lon": -77.01140216666667, "bike_id": "13767272e2268db444987436fe45e104", "fusion_lat": 0.0, "is_disabled": 0, "fusion_lon": 0.0}, {"name": "71ce51139fa76b25f6bedaf13a000d6f", "is_reserved": 0, "type": "electric_scooter", "rental_uris": {"ios": "https://dc.lft.to/lastmile_qr_scan", "android": "https://dc.lft.to/lastmile_qr_scan"}, "lat": 38.87480816666667, "lon": -77.00483233333334, "bike_id": "71ce51139fa76b25f6bedaf13a000d6f", "fusion_lat": 0.0, "is_disabled": 0, "fusion_lon": 0.0}, {"name": "251e790da96b140d4b91d0d3d8bbd811", "is_reserved": 0, "type": "electric_scooter", "rental_uris": {"ios": "https://dc.lft.to/lastmile_qr_scan", "android": "https://dc.lft.to/lastmile_qr_scan"}, "lat": 38.89226016666667, "lon": -77.0433325, "bike_id": "251e790da96b140d4b91d0d3d8bbd811", "fusion_lat": 0.0, "is_disabled": 0, "fusion_lon": 0.0}, {"name": "b0d2285fda45a881a3bea99c4aee180b", "is_reserved": 0, "type": "electric_scooter", "rental_uris": {"ios": "https://dc.lft.to/lastmile_qr_scan", "android": "https://dc.lft.to/lastmile_qr_scan"}, "lat": 38.8961115, "lon": -77.02209866666666, "bike_id": "b0d2285fda45a881a3bea99c4aee180b", "fusion_lat": 0.0, "is_disabled": 0, "fusion_lon": 0.0}, {"name": "bfbac5df70ff3f6ad31acc3f59aed22e", "is_reserved": 0, "type": "electric_bike", "rental_uris": {"ios": "https://dc.lft.to/lastmile_qr_scan", "android": "https://dc.lft.to/lastmile_qr_scan"}, "lat": 38.921116833333336, "lon": -76.9809635, "bike_id": "bfbac5df70ff3f6ad31acc3f59aed22e", "fusion_lat": 0.0, "is_disabled": 0, "fusion_lon": 0.0}, {"name": "8458e26764be77639937ec312673fed1", "is_reserved": 0, "type": "electric_scooter", "rental_uris": {"ios": "https://dc.lft.to/lastmile_qr_scan", "android": "https://dc.lft.to/lastmile_qr_scan"}, "lat": 38.917027833333336, "lon": -77.0368545, "bike_id": "8458e26764be77639937ec312673fed1", "fusion_lat": 0.0, "is_disabled": 0, "fusion_lon": 0.0}, {"name": "6677818d2b413a048b689147756a128b", "is_reserved": 0, "type": "electric_scooter", "rental_uris": {"ios": "https://dc.lft.to/lastmile_qr_scan", "android": "https://dc.lft.to/lastmile_qr_scan"}, "lat": 38.9462575, "lon": -77.0326535, "bike_id": "6677818d2b413a048b689147756a128b", "fusion_lat": 0.0, "is_disabled": 0, "fusion_lon": 0.0}, {"name": "ab8cce13fa534271decb5b1744a3bb70", "is_reserved": 0, "type": "electric_scooter", "rental_uris": {"ios": "https://dc.lft.to/lastmile_qr_scan", "android": "https://dc.lft.to/lastmile_qr_scan"}, "lat": 38.923116666666665, "lon": -77.0428015, "bike_id": "ab8cce13fa534271decb5b1744a3bb70", "fusion_lat": 0.0, "is_disabled": 0, "fusion_lon": 0.0}, {"name": "26eccc270f5deee67766ec7cb742f54a", "is_reserved": 0, "type": "electric_scooter", "rental_uris": {"ios": "https://dc.lft.to/lastmile_qr_scan", "android": "https://dc.lft.to/lastmile_qr_scan"}, "lat": 38.899208333333334, "lon": -76.9336875, "bike_id": "26eccc270f5deee67766ec7cb742f54a", "fusion_lat": 0.0, "is_disabled": 0, "fusion_lon": 0.0}, {"name": "90c35a321c4b1b67ccbf26678f575dcd", "is_reserved": 0, "type": "electric_scooter", "rental_uris": {"ios": "https://dc.lft.to/lastmile_qr_scan", "android": "https://dc.lft.to/lastmile_qr_scan"}, "lat": 38.8849095, "lon": -77.0072995, "bike_id": "90c35a321c4b1b67ccbf26678f575dcd", "fusion_lat": 0.0, "is_disabled": 0, "fusion_lon": 0.0}, {"name": "befa87f71f23c96d552fce6241137972", "is_reserved": 0, "type": "electric_scooter", "rental_uris": {"ios": "https://dc.lft.to/lastmile_qr_scan", "android": "https://dc.lft.to/lastmile_qr_scan"}, "lat": 38.86358716666667, "lon": -76.99061516666667, "bike_id": "befa87f71f23c96d552fce6241137972", "fusion_lat": 0.0, "is_disabled": 0, "fusion_lon": 0.0}, {"name": "d34b013055c23d2dc174898325a57593", "is_reserved": 0, "type": "electric_scooter", "rental_uris": {"ios": "https://dc.lft.to/lastmile_qr_scan", "android": "https://dc.lft.to/lastmile_qr_scan"}, "lat": 38.91414233333333, "lon": -77.02981533333333, "bike_id": "d34b013055c23d2dc174898325a57593", "fusion_lat": 0.0, "is_disabled": 0, "fusion_lon": 0.0}, {"name": "f3e9053954aef4386c5288ccbe09cff9", "is_reserved": 0, "type": "electric_scooter", "rental_uris": {"ios": "https://dc.lft.to/lastmile_qr_scan", "android": "https://dc.lft.to/lastmile_qr_scan"}, "lat": 38.91741916666667, "lon": -77.0238665, "bike_id": "f3e9053954aef4386c5288ccbe09cff9", "fusion_lat": 0.0, "is_disabled": 0, "fusion_lon": 0.0}, {"name": "f8e0aa5d468469b4611153ccdadadad2", "is_reserved": 0, "type": "electric_scooter", "rental_uris": {"ios": "https://dc.lft.to/lastmile_qr_scan", "android": "https://dc.lft.to/lastmile_qr_scan"}, "lat": 38.9321705, "lon": -77.03093633333333, "bike_id": "f8e0aa5d468469b4611153ccdadadad2", "fusion_lat": 0.0, "is_disabled": 0, "fusion_lon": 0.0}, {"name": "f766d93bfb2137e8ad34cf910f8994f3", "is_reserved": 0, "type": "electric_scooter", "rental_uris": {"ios": "https://dc.lft.to/lastmile_qr_scan", "android": "https://dc.lft.to/lastmile_qr_scan"}, "lat": 38.92123433333333, "lon": -77.04434116666667, "bike_id": "f766d93bfb2137e8ad34cf910f8994f3", "fusion_lat": 0.0, "is_disabled": 0, "fusion_lon": 0.0}, {"name": "d94f8ccfe07ab905838e8debd5f25f26", "is_reserved": 0, "type": "electric_scooter", "rental_uris": {"ios": "https://dc.lft.to/lastmile_qr_scan", "android": "https://dc.lft.to/lastmile_qr_scan"}, "lat": 38.895310333333335, "lon": -77.04339283333333, "bike_id": "d94f8ccfe07ab905838e8debd5f25f26", "fusion_lat": 0.0, "is_disabled": 0, "fusion_lon": 0.0}, {"name": "256a8a8197690b3f37fbeca5236e98df", "is_reserved": 0, "type": "electric_bike", "rental_uris": {"ios": "https://dc.lft.to/lastmile_qr_scan", "android": "https://dc.lft.to/lastmile_qr_scan"}, "lat": 39.03673883333333, "lon": -77.05110683333334, "bike_id": "256a8a8197690b3f37fbeca5236e98df", "fusion_lat": 0.0, "is_disabled": 0, "fusion_lon": 0.0}, {"name": "9add79c4f46148d82b43e1b26d8aa509", "is_reserved": 0, "type": "electric_scooter", "rental_uris": {"ios": "https://dc.lft.to/lastmile_qr_scan", "android": "https://dc.lft.to/lastmile_qr_scan"}, "lat": 38.90724933333333, "lon": -76.99816316666667, "bike_id": "9add79c4f46148d82b43e1b26d8aa509", "fusion_lat": 0.0, "is_disabled": 0, "fusion_lon": 0.0}, {"name": "a1d71ea6d4916f305d66b1af3c1abb4c", "is_reserved": 0, "type": "electric_scooter", "rental_uris": {"ios": "https://dc.lft.to/lastmile_qr_scan", "android": "https://dc.lft.to/lastmile_qr_scan"}, "lat": 38.92552533333333, "lon": -77.04176733333334, "bike_id": "a1d71ea6d4916f305d66b1af3c1abb4c", "fusion_lat": 0.0, "is_disabled": 0, "fusion_lon": 0.0}, {"name": "2dff56ffc16ae90d34c37959470f1b09", "is_reserved": 0, "type": "electric_scooter", "rental_uris": {"ios": "https://dc.lft.to/lastmile_qr_scan", "android": "https://dc.lft.to/lastmile_qr_scan"}, "lat": 38.92329766666667, "lon": -77.01974133333333, "bike_id": "2dff56ffc16ae90d34c37959470f1b09", "fusion_lat": 0.0, "is_disabled": 0, "fusion_lon": 0.0}, {"name": "9106b683da0842a77903b0d5a1b1102a", "is_reserved": 0, "type": "electric_scooter", "rental_uris": {"ios": "https://dc.lft.to/lastmile_qr_scan", "android": "https://dc.lft.to/lastmile_qr_scan"}, "lat": 38.93193083333333, "lon": -77.028351, "bike_id": "9106b683da0842a77903b0d5a1b1102a", "fusion_lat": 0.0, "is_disabled": 0, "fusion_lon": 0.0}, {"name": "6d92b95e5810c8e2f5934856baf49fd4", "is_reserved": 0, "type": "electric_scooter", "rental_uris": {"ios": "https://dc.lft.to/lastmile_qr_scan", "android": "https://dc.lft.to/lastmile_qr_scan"}, "lat": 38.901906, "lon": -76.92997333333334, "bike_id": "6d92b95e5810c8e2f5934856baf49fd4", "fusion_lat": 0.0, "is_disabled": 0, "fusion_lon": 0.0}, {"name": "9a6415354448ea5e35ba87bd7a13ada3", "is_reserved": 0, "type": "electric_bike", "rental_uris": {"ios": "https://dc.lft.to/lastmile_qr_scan", "android": "https://dc.lft.to/lastmile_qr_scan"}, "lat": 39.052007833333334, "lon": -77.1091615, "bike_id": "9a6415354448ea5e35ba87bd7a13ada3", "fusion_lat": 0.0, "is_disabled": 0, "fusion_lon": 0.0}, {"name": "39776af62197a36ba339589eb4c28810", "is_reserved": 0, "type": "electric_scooter", "rental_uris": {"ios": "https://dc.lft.to/lastmile_qr_scan", "android": "https://dc.lft.to/lastmile_qr_scan"}, "lat": 38.903271333333336, "lon": -77.046488, "bike_id": "39776af62197a36ba339589eb4c28810", "fusion_lat": 0.0, "is_disabled": 0, "fusion_lon": 0.0}, {"name": "d41df4231149b035ac679c69a08b5c92", "is_reserved": 0, "type": "electric_bike", "rental_uris": {"ios": "https://dc.lft.to/lastmile_qr_scan", "android": "https://dc.lft.to/lastmile_qr_scan"}, "lat": 38.898044, "lon": -77.00600266666666, "bike_id": "d41df4231149b035ac679c69a08b5c92", "fusion_lat": 0.0, "is_disabled": 0, "fusion_lon": 0.0}, {"name": "187140f6d16fc974015372cda2f35bb3", "is_reserved": 0, "type": "electric_scooter", "rental_uris": {"ios": "https://dc.lft.to/lastmile_qr_scan", "android": "https://dc.lft.to/lastmile_qr_scan"}, "lat": 38.905586666666665, "lon": -77.04001416666667, "bike_id": "187140f6d16fc974015372cda2f35bb3", "fusion_lat": 0.0, "is_disabled": 0, "fusion_lon": 0.0}, {"name": "5be98bb5553dc3382f6249b4c0368cba", "is_reserved": 0, "type": "electric_scooter", "rental_uris": {"ios": "https://dc.lft.to/lastmile_qr_scan", "android": "https://dc.lft.to/lastmile_qr_scan"}, "lat": 38.933681166666666, "lon": -77.03254766666667, "bike_id": "5be98bb5553dc3382f6249b4c0368cba", "fusion_lat": 0.0, "is_disabled": 0, "fusion_lon": 0.0}, {"name": "7026df991273d37ac33438888aa04c83", "is_reserved": 0, "type": "electric_scooter", "rental_uris": {"ios": "https://dc.lft.to/lastmile_qr_scan", "android": "https://dc.lft.to/lastmile_qr_scan"}, "lat": 38.917881333333334, "lon": -77.032098, "bike_id": "7026df991273d37ac33438888aa04c83", "fusion_lat": 0.0, "is_disabled": 0, "fusion_lon": 0.0}, {"name": "ee5c07b18b6c671fbed74be5bbe1c5be", "is_reserved": 0, "type": "electric_scooter", "rental_uris": {"ios": "https://dc.lft.to/lastmile_qr_scan", "android": "https://dc.lft.to/lastmile_qr_scan"}, "lat": 38.8979885, "lon": -76.99165233333333, "bike_id": "ee5c07b18b6c671fbed74be5bbe1c5be", "fusion_lat": 0.0, "is_disabled": 0, "fusion_lon": 0.0}, {"name": "e639ac9d6f1a75bed13b5d67cc401f51", "is_reserved": 0, "type": "electric_scooter", "rental_uris": {"ios": "https://dc.lft.to/lastmile_qr_scan", "android": "https://dc.lft.to/lastmile_qr_scan"}, "lat": 38.892181, "lon": -77.02657183333334, "bike_id": "e639ac9d6f1a75bed13b5d67cc401f51", "fusion_lat": 0.0, "is_disabled": 0, "fusion_lon": 0.0}, {"name": "c9b41a3a46a2c27d9b093fa083c93e47", "is_reserved": 0, "type": "electric_scooter", "rental_uris": {"ios": "https://dc.lft.to/lastmile_qr_scan", "android": "https://dc.lft.to/lastmile_qr_scan"}, "lat": 38.887478, "lon": -77.01408033333334, "bike_id": "c9b41a3a46a2c27d9b093fa083c93e47", "fusion_lat": 0.0, "is_disabled": 0, "fusion_lon": 0.0}, {"name": "cdcef92b6aec30a0fc7db71d78f03581", "is_reserved": 0, "type": "electric_scooter", "rental_uris": {"ios": "https://dc.lft.to/lastmile_qr_scan", "android": "https://dc.lft.to/lastmile_qr_scan"}, "lat": 38.9170595, "lon": -77.041734, "bike_id": "cdcef92b6aec30a0fc7db71d78f03581", "fusion_lat": 0.0, "is_disabled": 0, "fusion_lon": 0.0}, {"name": "4a084f16d4be10f914e4e06602e4e916", "is_reserved": 0, "type": "electric_scooter", "rental_uris": {"ios": "https://dc.lft.to/lastmile_qr_scan", "android": "https://dc.lft.to/lastmile_qr_scan"}, "lat": 38.916281166666664, "lon": -77.03208283333333, "bike_id": "4a084f16d4be10f914e4e06602e4e916", "fusion_lat": 0.0, "is_disabled": 0, "fusion_lon": 0.0}, {"name": "b84b61ccaea44272df17b2381759edb2", "is_reserved": 0, "type": "electric_scooter", "rental_uris": {"ios": "https://dc.lft.to/lastmile_qr_scan", "android": "https://dc.lft.to/lastmile_qr_scan"}, "lat": 38.903939333333334, "lon": -77.00558333333333, "bike_id": "b84b61ccaea44272df17b2381759edb2", "fusion_lat": 0.0, "is_disabled": 0, "fusion_lon": 0.0}, {"name": "dead4c6039f353534a50fc24f81d2ce2", "is_reserved": 0, "type": "electric_scooter", "rental_uris": {"ios": "https://dc.lft.to/lastmile_qr_scan", "android": "https://dc.lft.to/lastmile_qr_scan"}, "lat": 38.910827833333336, "lon": -77.02885966666666, "bike_id": "dead4c6039f353534a50fc24f81d2ce2", "fusion_lat": 0.0, "is_disabled": 0, "fusion_lon": 0.0}, {"name": "82882725cf56f4d7a2d2f230bf6217ce", "is_reserved": 0, "type": "electric_bike", "rental_uris": {"ios": "https://dc.lft.to/lastmile_qr_scan", "android": "https://dc.lft.to/lastmile_qr_scan"}, "lat": 39.088586, "lon": -77.17844166666667, "bike_id": "82882725cf56f4d7a2d2f230bf6217ce", "fusion_lat": 0.0, "is_disabled": 0, "fusion_lon": 0.0}, {"name": "53abf860d62e9e58238b4a852b0ed5fb", "is_reserved": 0, "type": "electric_scooter", "rental_uris": {"ios": "https://dc.lft.to/lastmile_qr_scan", "android": "https://dc.lft.to/lastmile_qr_scan"}, "lat": 38.89553466666667, "lon": -76.9565935, "bike_id": "53abf860d62e9e58238b4a852b0ed5fb", "fusion_lat": 0.0, "is_disabled": 0, "fusion_lon": 0.0}, {"name": "148d4cac0048190dc35b994474133cee", "is_reserved": 0, "type": "electric_scooter", "rental_uris": {"ios": "https://dc.lft.to/lastmile_qr_scan", "android": "https://dc.lft.to/lastmile_qr_scan"}, "lat": 38.91703733333333, "lon": -77.04291083333334, "bike_id": "148d4cac0048190dc35b994474133cee", "fusion_lat": 0.0, "is_disabled": 0, "fusion_lon": 0.0}, {"name": "cf61df28ea836d5badd1e2c0955d1085", "is_reserved": 0, "type": "electric_scooter", "rental_uris": {"ios": "https://dc.lft.to/lastmile_qr_scan", "android": "https://dc.lft.to/lastmile_qr_scan"}, "lat": 38.92584183333334, "lon": -77.04004333333333, "bike_id": "cf61df28ea836d5badd1e2c0955d1085", "fusion_lat": 0.0, "is_disabled": 0, "fusion_lon": 0.0}, {"name": "f6ad2d0d6fe644a7fdd424e4a8822ab7", "is_reserved": 0, "type": "electric_scooter", "rental_uris": {"ios": "https://dc.lft.to/lastmile_qr_scan", "android": "https://dc.lft.to/lastmile_qr_scan"}, "lat": 38.9124135, "lon": -77.009163, "bike_id": "f6ad2d0d6fe644a7fdd424e4a8822ab7", "fusion_lat": 0.0, "is_disabled": 0, "fusion_lon": 0.0}, {"name": "a0e7f8edf12f669eb424c252b7e2a5d1", "is_reserved": 0, "type": "electric_scooter", "rental_uris": {"ios": "https://dc.lft.to/lastmile_qr_scan", "android": "https://dc.lft.to/lastmile_qr_scan"}, "lat": 38.91023216666667, "lon": -77.06906983333333, "bike_id": "a0e7f8edf12f669eb424c252b7e2a5d1", "fusion_lat": 0.0, "is_disabled": 0, "fusion_lon": 0.0}, {"name": "620b3f5ab2d5bc48e80a2a16685a293b", "is_reserved": 0, "type": "electric_scooter", "rental_uris": {"ios": "https://dc.lft.to/lastmile_qr_scan", "android": "https://dc.lft.to/lastmile_qr_scan"}, "lat": 38.92350716666667, "lon": -77.05122, "bike_id": "620b3f5ab2d5bc48e80a2a16685a293b", "fusion_lat": 0.0, "is_disabled": 0, "fusion_lon": 0.0}, {"name": "f275754aacdf058e444e3088dbae0802", "is_reserved": 0, "type": "electric_scooter", "rental_uris": {"ios": "https://dc.lft.to/lastmile_qr_scan", "android": "https://dc.lft.to/lastmile_qr_scan"}, "lat": 38.866592833333335, "lon": -76.98880683333333, "bike_id": "f275754aacdf058e444e3088dbae0802", "fusion_lat": 0.0, "is_disabled": 0, "fusion_lon": 0.0}, {"name": "abeb9311ecf2de8078190c47933bafc0", "is_reserved": 0, "type": "electric_bike", "rental_uris": {"ios": "https://dc.lft.to/lastmile_qr_scan", "android": "https://dc.lft.to/lastmile_qr_scan"}, "lat": 38.886897833333336, "lon": -77.16087183333333, "bike_id": "abeb9311ecf2de8078190c47933bafc0", "fusion_lat": 0.0, "is_disabled": 0, "fusion_lon": 0.0}, {"name": "f6709b1aec94284a86d3a218a2c3be13", "is_reserved": 0, "type": "electric_scooter", "rental_uris": {"ios": "https://dc.lft.to/lastmile_qr_scan", "android": "https://dc.lft.to/lastmile_qr_scan"}, "lat": 38.892234333333334, "lon": -77.0264515, "bike_id": "f6709b1aec94284a86d3a218a2c3be13", "fusion_lat": 0.0, "is_disabled": 0, "fusion_lon": 0.0}, {"name": "b108cea6bde6442810b6a232b5c8ce55", "is_reserved": 0, "type": "electric_scooter", "rental_uris": {"ios": "https://dc.lft.to/lastmile_qr_scan", "android": "https://dc.lft.to/lastmile_qr_scan"}, "lat": 38.905587833333335, "lon": -77.02171816666667, "bike_id": "b108cea6bde6442810b6a232b5c8ce55", "fusion_lat": 0.0, "is_disabled": 0, "fusion_lon": 0.0}, {"name": "0a7bd8995d787fb9996048c9d5d27831", "is_reserved": 0, "type": "electric_scooter", "rental_uris": {"ios": "https://dc.lft.to/lastmile_qr_scan", "android": "https://dc.lft.to/lastmile_qr_scan"}, "lat": 38.90616166666667, "lon": -77.02819983333333, "bike_id": "0a7bd8995d787fb9996048c9d5d27831", "fusion_lat": 0.0, "is_disabled": 0, "fusion_lon": 0.0}, {"name": "ad857203f316955ac1a7877603e478ca", "is_reserved": 0, "type": "electric_scooter", "rental_uris": {"ios": "https://dc.lft.to/lastmile_qr_scan", "android": "https://dc.lft.to/lastmile_qr_scan"}, "lat": 38.91748466666667, "lon": -77.0367205, "bike_id": "ad857203f316955ac1a7877603e478ca", "fusion_lat": 0.0, "is_disabled": 0, "fusion_lon": 0.0}, {"name": "ee21415ba370871cd5429cbc6abc2b88", "is_reserved": 0, "type": "electric_scooter", "rental_uris": {"ios": "https://dc.lft.to/lastmile_qr_scan", "android": "https://dc.lft.to/lastmile_qr_scan"}, "lat": 38.85917033333333, "lon": -76.99719816666666, "bike_id": "ee21415ba370871cd5429cbc6abc2b88", "fusion_lat": 0.0, "is_disabled": 0, "fusion_lon": 0.0}, {"name": "f9e14f7066e37f55aa1e4cfaabcc4882", "is_reserved": 0, "type": "electric_bike", "rental_uris": {"ios": "https://dc.lft.to/lastmile_qr_scan", "android": "https://dc.lft.to/lastmile_qr_scan"}, "lat": 38.802369166666665, "lon": -77.079174, "bike_id": "f9e14f7066e37f55aa1e4cfaabcc4882", "fusion_lat": 0.0, "is_disabled": 0, "fusion_lon": 0.0}, {"name": "36dc0a85ce52d006c440df6747ef1ce6", "is_reserved": 0, "type": "electric_scooter", "rental_uris": {"ios": "https://dc.lft.to/lastmile_qr_scan", "android": "https://dc.lft.to/lastmile_qr_scan"}, "lat": 38.9171415, "lon": -77.03476433333333, "bike_id": "36dc0a85ce52d006c440df6747ef1ce6", "fusion_lat": 0.0, "is_disabled": 0, "fusion_lon": 0.0}, {"name": "3acaad8711153015d1f4d8bac468a1c7", "is_reserved": 0, "type": "electric_scooter", "rental_uris": {"ios": "https://dc.lft.to/lastmile_qr_scan", "android": "https://dc.lft.to/lastmile_qr_scan"}, "lat": 38.9213015, "lon": -77.02424916666666, "bike_id": "3acaad8711153015d1f4d8bac468a1c7", "fusion_lat": 0.0, "is_disabled": 0, "fusion_lon": 0.0}, {"name": "082b36f6a626ae798568e5af9a4854b5", "is_reserved": 0, "type": "electric_scooter", "rental_uris": {"ios": "https://dc.lft.to/lastmile_qr_scan", "android": "https://dc.lft.to/lastmile_qr_scan"}, "lat": 38.88325233333333, "lon": -76.99833416666667, "bike_id": "082b36f6a626ae798568e5af9a4854b5", "fusion_lat": 0.0, "is_disabled": 0, "fusion_lon": 0.0}, {"name": "c782d5cfbbe1184dd6556ea420f4f9c5", "is_reserved": 0, "type": "electric_scooter", "rental_uris": {"ios": "https://dc.lft.to/lastmile_qr_scan", "android": "https://dc.lft.to/lastmile_qr_scan"}, "lat": 38.9057125, "lon": -77.0347105, "bike_id": "c782d5cfbbe1184dd6556ea420f4f9c5", "fusion_lat": 0.0, "is_disabled": 0, "fusion_lon": 0.0}, {"name": "af998c8c85142ec5bfe3033a22db1598", "is_reserved": 0, "type": "electric_scooter", "rental_uris": {"ios": "https://dc.lft.to/lastmile_qr_scan", "android": "https://dc.lft.to/lastmile_qr_scan"}, "lat": 38.92798116666667, "lon": -77.0243485, "bike_id": "af998c8c85142ec5bfe3033a22db1598", "fusion_lat": 0.0, "is_disabled": 0, "fusion_lon": 0.0}, {"name": "467d0c0a4ccb57d8e873e851d9998993", "is_reserved": 0, "type": "electric_scooter", "rental_uris": {"ios": "https://dc.lft.to/lastmile_qr_scan", "android": "https://dc.lft.to/lastmile_qr_scan"}, "lat": 38.89939316666667, "lon": -77.0267845, "bike_id": "467d0c0a4ccb57d8e873e851d9998993", "fusion_lat": 0.0, "is_disabled": 0, "fusion_lon": 0.0}, {"name": "397bb0c74a21c07bdbaa827f88a165f5", "is_reserved": 0, "type": "electric_scooter", "rental_uris": {"ios": "https://dc.lft.to/lastmile_qr_scan", "android": "https://dc.lft.to/lastmile_qr_scan"}, "lat": 38.90885333333333, "lon": -76.998165, "bike_id": "397bb0c74a21c07bdbaa827f88a165f5", "fusion_lat": 0.0, "is_disabled": 0, "fusion_lon": 0.0}, {"name": "0ae644f9fee6526101ec42c5c94f50ca", "is_reserved": 0, "type": "electric_scooter", "rental_uris": {"ios": "https://dc.lft.to/lastmile_qr_scan", "android": "https://dc.lft.to/lastmile_qr_scan"}, "lat": 38.877983666666665, "lon": -77.0012615, "bike_id": "0ae644f9fee6526101ec42c5c94f50ca", "fusion_lat": 0.0, "is_disabled": 0, "fusion_lon": 0.0}, {"name": "30ff7b966eb899565574fb9308812575", "is_reserved": 0, "type": "electric_scooter", "rental_uris": {"ios": "https://dc.lft.to/lastmile_qr_scan", "android": "https://dc.lft.to/lastmile_qr_scan"}, "lat": 38.920541166666666, "lon": -77.03372716666667, "bike_id": "30ff7b966eb899565574fb9308812575", "fusion_lat": 0.0, "is_disabled": 0, "fusion_lon": 0.0}, {"name": "b271b4087f164a799a6e265efd0ec65a", "is_reserved": 0, "type": "electric_scooter", "rental_uris": {"ios": "https://dc.lft.to/lastmile_qr_scan", "android": "https://dc.lft.to/lastmile_qr_scan"}, "lat": 38.88142216666667, "lon": -76.94405833333333, "bike_id": "b271b4087f164a799a6e265efd0ec65a", "fusion_lat": 0.0, "is_disabled": 0, "fusion_lon": 0.0}, {"name": "8c32fea37595223bbc45a46865658b0b", "is_reserved": 0, "type": "electric_scooter", "rental_uris": {"ios": "https://dc.lft.to/lastmile_qr_scan", "android": "https://dc.lft.to/lastmile_qr_scan"}, "lat": 38.928862, "lon": -77.03363883333333, "bike_id": "8c32fea37595223bbc45a46865658b0b", "fusion_lat": 0.0, "is_disabled": 0, "fusion_lon": 0.0}, {"name": "f12440edddf03b8a3f54c634789a7ed9", "is_reserved": 0, "type": "electric_scooter", "rental_uris": {"ios": "https://dc.lft.to/lastmile_qr_scan", "android": "https://dc.lft.to/lastmile_qr_scan"}, "lat": 38.90715983333333, "lon": -77.0513535, "bike_id": "f12440edddf03b8a3f54c634789a7ed9", "fusion_lat": 0.0, "is_disabled": 0, "fusion_lon": 0.0}, {"name": "55ff50b53c9ad4820ba1e5177ccf4374", "is_reserved": 0, "type": "electric_bike", "rental_uris": {"ios": "https://dc.lft.to/lastmile_qr_scan", "android": "https://dc.lft.to/lastmile_qr_scan"}, "lat": 38.901246666666665, "lon": -77.0580005, "bike_id": "55ff50b53c9ad4820ba1e5177ccf4374", "fusion_lat": 0.0, "is_disabled": 0, "fusion_lon": 0.0}, {"name": "05a91d7af5e6dad0a635ad465c5b36da", "is_reserved": 0, "type": "electric_scooter", "rental_uris": {"ios": "https://dc.lft.to/lastmile_qr_scan", "android": "https://dc.lft.to/lastmile_qr_scan"}, "lat": 38.92538616666667, "lon": -77.0378095, "bike_id": "05a91d7af5e6dad0a635ad465c5b36da", "fusion_lat": 0.0, "is_disabled": 0, "fusion_lon": 0.0}, {"name": "ddac25c571fa33fdf625171270b8c760", "is_reserved": 0, "type": "electric_scooter", "rental_uris": {"ios": "https://dc.lft.to/lastmile_qr_scan", "android": "https://dc.lft.to/lastmile_qr_scan"}, "lat": 38.895746333333335, "lon": -77.032124, "bike_id": "ddac25c571fa33fdf625171270b8c760", "fusion_lat": 0.0, "is_disabled": 0, "fusion_lon": 0.0}, {"name": "91a197d62498e5a666978841b440c404", "is_reserved": 0, "type": "electric_scooter", "rental_uris": {"ios": "https://dc.lft.to/lastmile_qr_scan", "android": "https://dc.lft.to/lastmile_qr_scan"}, "lat": 38.92611933333333, "lon": -77.02167933333334, "bike_id": "91a197d62498e5a666978841b440c404", "fusion_lat": 0.0, "is_disabled": 0, "fusion_lon": 0.0}, {"name": "1a59febef51ca91cd50f17c26f83e62e", "is_reserved": 0, "type": "electric_scooter", "rental_uris": {"ios": "https://dc.lft.to/lastmile_qr_scan", "android": "https://dc.lft.to/lastmile_qr_scan"}, "lat": 38.92671966666666, "lon": -77.0077165, "bike_id": "1a59febef51ca91cd50f17c26f83e62e", "fusion_lat": 0.0, "is_disabled": 0, "fusion_lon": 0.0}, {"name": "690bdbe916c300d915d0afe711f9ad0d", "is_reserved": 0, "type": "electric_scooter", "rental_uris": {"ios": "https://dc.lft.to/lastmile_qr_scan", "android": "https://dc.lft.to/lastmile_qr_scan"}, "lat": 38.94186583333333, "lon": -77.02491566666667, "bike_id": "690bdbe916c300d915d0afe711f9ad0d", "fusion_lat": 0.0, "is_disabled": 0, "fusion_lon": 0.0}, {"name": "9190ade83701221da4814d98a8edb4a3", "is_reserved": 0, "type": "electric_scooter", "rental_uris": {"ios": "https://dc.lft.to/lastmile_qr_scan", "android": "https://dc.lft.to/lastmile_qr_scan"}, "lat": 38.9331715, "lon": -77.02799483333334, "bike_id": "9190ade83701221da4814d98a8edb4a3", "fusion_lat": 0.0, "is_disabled": 0, "fusion_lon": 0.0}, {"name": "1b33ca1db87889af53c630cfea0f1cfe", "is_reserved": 0, "type": "electric_scooter", "rental_uris": {"ios": "https://dc.lft.to/lastmile_qr_scan", "android": "https://dc.lft.to/lastmile_qr_scan"}, "lat": 38.84795316666667, "lon": -76.96713283333334, "bike_id": "1b33ca1db87889af53c630cfea0f1cfe", "fusion_lat": 0.0, "is_disabled": 0, "fusion_lon": 0.0}, {"name": "62192e5026bcfc894b3c89fe57daad0e", "is_reserved": 0, "type": "electric_bike", "rental_uris": {"ios": "https://dc.lft.to/lastmile_qr_scan", "android": "https://dc.lft.to/lastmile_qr_scan"}, "lat": 38.96620933333333, "lon": -76.9442725, "bike_id": "62192e5026bcfc894b3c89fe57daad0e", "fusion_lat": 0.0, "is_disabled": 0, "fusion_lon": 0.0}, {"name": "b12604bbe0ee26a714c921f75592fa1a", "is_reserved": 0, "type": "electric_scooter", "rental_uris": {"ios": "https://dc.lft.to/lastmile_qr_scan", "android": "https://dc.lft.to/lastmile_qr_scan"}, "lat": 38.918495666666665, "lon": -77.02332266666667, "bike_id": "b12604bbe0ee26a714c921f75592fa1a", "fusion_lat": 0.0, "is_disabled": 0, "fusion_lon": 0.0}, {"name": "b7dc4bd79ac70b142bf3ae71bc887280", "is_reserved": 0, "type": "electric_scooter", "rental_uris": {"ios": "https://dc.lft.to/lastmile_qr_scan", "android": "https://dc.lft.to/lastmile_qr_scan"}, "lat": 38.902376833333335, "lon": -77.0019855, "bike_id": "b7dc4bd79ac70b142bf3ae71bc887280", "fusion_lat": 0.0, "is_disabled": 0, "fusion_lon": 0.0}, {"name": "dabca969aed48430293fc68368929f29", "is_reserved": 0, "type": "electric_scooter", "rental_uris": {"ios": "https://dc.lft.to/lastmile_qr_scan", "android": "https://dc.lft.to/lastmile_qr_scan"}, "lat": 38.90532733333333, "lon": -77.05149466666667, "bike_id": "dabca969aed48430293fc68368929f29", "fusion_lat": 0.0, "is_disabled": 0, "fusion_lon": 0.0}, {"name": "b3cad4dc1404addc1d3617e59d09f8cd", "is_reserved": 0, "type": "electric_scooter", "rental_uris": {"ios": "https://dc.lft.to/lastmile_qr_scan", "android": "https://dc.lft.to/lastmile_qr_scan"}, "lat": 38.905114166666664, "lon": -77.0636425, "bike_id": "b3cad4dc1404addc1d3617e59d09f8cd", "fusion_lat": 0.0, "is_disabled": 0, "fusion_lon": 0.0}, {"name": "8da353edc69b0cd0da2f30b824d31acc", "is_reserved": 0, "type": "electric_scooter", "rental_uris": {"ios": "https://dc.lft.to/lastmile_qr_scan", "android": "https://dc.lft.to/lastmile_qr_scan"}, "lat": 38.8988235, "lon": -76.93198933333333, "bike_id": "8da353edc69b0cd0da2f30b824d31acc", "fusion_lat": 0.0, "is_disabled": 0, "fusion_lon": 0.0}, {"name": "4fd2ba5ead72831632a1d8f80a02ae64", "is_reserved": 0, "type": "electric_bike", "rental_uris": {"ios": "https://dc.lft.to/lastmile_qr_scan", "android": "https://dc.lft.to/lastmile_qr_scan"}, "lat": 38.89001483333333, "lon": -77.04893566666667, "bike_id": "4fd2ba5ead72831632a1d8f80a02ae64", "fusion_lat": 0.0, "is_disabled": 0, "fusion_lon": 0.0}, {"name": "ba9fe3a9c21c99d6fd7020510580a9ef", "is_reserved": 0, "type": "electric_scooter", "rental_uris": {"ios": "https://dc.lft.to/lastmile_qr_scan", "android": "https://dc.lft.to/lastmile_qr_scan"}, "lat": 38.903657833333334, "lon": -77.04980516666667, "bike_id": "ba9fe3a9c21c99d6fd7020510580a9ef", "fusion_lat": 0.0, "is_disabled": 0, "fusion_lon": 0.0}, {"name": "8fa219c40b84142bef7c49bb64a61f86", "is_reserved": 0, "type": "electric_scooter", "rental_uris": {"ios": "https://dc.lft.to/lastmile_qr_scan", "android": "https://dc.lft.to/lastmile_qr_scan"}, "lat": 38.866563166666666, "lon": -76.98517466666667, "bike_id": "8fa219c40b84142bef7c49bb64a61f86", "fusion_lat": 0.0, "is_disabled": 0, "fusion_lon": 0.0}, {"name": "2eabb588c63a196d7559b282a9fd7373", "is_reserved": 0, "type": "electric_scooter", "rental_uris": {"ios": "https://dc.lft.to/lastmile_qr_scan", "android": "https://dc.lft.to/lastmile_qr_scan"}, "lat": 38.910363833333335, "lon": -76.9855975, "bike_id": "2eabb588c63a196d7559b282a9fd7373", "fusion_lat": 0.0, "is_disabled": 0, "fusion_lon": 0.0}, {"name": "844a04fa5911c400fb253d77ec9a0697", "is_reserved": 0, "type": "electric_scooter", "rental_uris": {"ios": "https://dc.lft.to/lastmile_qr_scan", "android": "https://dc.lft.to/lastmile_qr_scan"}, "lat": 38.918728, "lon": -77.044806, "bike_id": "844a04fa5911c400fb253d77ec9a0697", "fusion_lat": 0.0, "is_disabled": 0, "fusion_lon": 0.0}, {"name": "e4e2cc2633e970e66b757ac51eb0f600", "is_reserved": 0, "type": "electric_scooter", "rental_uris": {"ios": "https://dc.lft.to/lastmile_qr_scan", "android": "https://dc.lft.to/lastmile_qr_scan"}, "lat": 38.90251966666666, "lon": -77.03264933333334, "bike_id": "e4e2cc2633e970e66b757ac51eb0f600", "fusion_lat": 0.0, "is_disabled": 0, "fusion_lon": 0.0}, {"name": "3486c16d629ccb3a039bc0e266a9402c", "is_reserved": 0, "type": "electric_scooter", "rental_uris": {"ios": "https://dc.lft.to/lastmile_qr_scan", "android": "https://dc.lft.to/lastmile_qr_scan"}, "lat": 38.901457, "lon": -77.04679766666666, "bike_id": "3486c16d629ccb3a039bc0e266a9402c", "fusion_lat": 0.0, "is_disabled": 0, "fusion_lon": 0.0}, {"name": "65f3c01213c8153ee07c04cca59d3c25", "is_reserved": 0, "type": "electric_scooter", "rental_uris": {"ios": "https://dc.lft.to/lastmile_qr_scan", "android": "https://dc.lft.to/lastmile_qr_scan"}, "lat": 38.9171375, "lon": -77.04073916666667, "bike_id": "65f3c01213c8153ee07c04cca59d3c25", "fusion_lat": 0.0, "is_disabled": 0, "fusion_lon": 0.0}, {"name": "7f321f0d081fcd123867b742b2c2cef3", "is_reserved": 0, "type": "electric_scooter", "rental_uris": {"ios": "https://dc.lft.to/lastmile_qr_scan", "android": "https://dc.lft.to/lastmile_qr_scan"}, "lat": 38.903115, "lon": -77.02898983333333, "bike_id": "7f321f0d081fcd123867b742b2c2cef3", "fusion_lat": 0.0, "is_disabled": 0, "fusion_lon": 0.0}, {"name": "be9b60bbe153c815ab577612e6c09308", "is_reserved": 0, "type": "electric_scooter", "rental_uris": {"ios": "https://dc.lft.to/lastmile_qr_scan", "android": "https://dc.lft.to/lastmile_qr_scan"}, "lat": 38.932737333333336, "lon": -77.0348875, "bike_id": "be9b60bbe153c815ab577612e6c09308", "fusion_lat": 0.0, "is_disabled": 0, "fusion_lon": 0.0}, {"name": "a2fcd8ba97e7ab0c838bae4677d5b335", "is_reserved": 0, "type": "electric_scooter", "rental_uris": {"ios": "https://dc.lft.to/lastmile_qr_scan", "android": "https://dc.lft.to/lastmile_qr_scan"}, "lat": 38.930821, "lon": -77.0279285, "bike_id": "a2fcd8ba97e7ab0c838bae4677d5b335", "fusion_lat": 0.0, "is_disabled": 0, "fusion_lon": 0.0}, {"name": "c6c52804875c7f0d63db619a5f1e3cbf", "is_reserved": 0, "type": "electric_scooter", "rental_uris": {"ios": "https://dc.lft.to/lastmile_qr_scan", "android": "https://dc.lft.to/lastmile_qr_scan"}, "lat": 38.924104166666666, "lon": -77.02739083333333, "bike_id": "c6c52804875c7f0d63db619a5f1e3cbf", "fusion_lat": 0.0, "is_disabled": 0, "fusion_lon": 0.0}, {"name": "7e183eea49fed62ea43443b5b8d17aaf", "is_reserved": 0, "type": "electric_scooter", "rental_uris": {"ios": "https://dc.lft.to/lastmile_qr_scan", "android": "https://dc.lft.to/lastmile_qr_scan"}, "lat": 38.92363533333334, "lon": -77.054225, "bike_id": "7e183eea49fed62ea43443b5b8d17aaf", "fusion_lat": 0.0, "is_disabled": 0, "fusion_lon": 0.0}, {"name": "308455fa916d66e4bd7d93beecb71a86", "is_reserved": 0, "type": "electric_scooter", "rental_uris": {"ios": "https://dc.lft.to/lastmile_qr_scan", "android": "https://dc.lft.to/lastmile_qr_scan"}, "lat": 38.913883, "lon": -77.01901033333333, "bike_id": "308455fa916d66e4bd7d93beecb71a86", "fusion_lat": 0.0, "is_disabled": 0, "fusion_lon": 0.0}, {"name": "24b3bc3574e1c946f38b52b91176d17e", "is_reserved": 0, "type": "electric_scooter", "rental_uris": {"ios": "https://dc.lft.to/lastmile_qr_scan", "android": "https://dc.lft.to/lastmile_qr_scan"}, "lat": 38.917131499999996, "lon": -77.0347755, "bike_id": "24b3bc3574e1c946f38b52b91176d17e", "fusion_lat": 0.0, "is_disabled": 0, "fusion_lon": 0.0}, {"name": "c59739058de37b9987c00da90f9d4d22", "is_reserved": 0, "type": "electric_scooter", "rental_uris": {"ios": "https://dc.lft.to/lastmile_qr_scan", "android": "https://dc.lft.to/lastmile_qr_scan"}, "lat": 38.9163075, "lon": -77.031706, "bike_id": "c59739058de37b9987c00da90f9d4d22", "fusion_lat": 0.0, "is_disabled": 0, "fusion_lon": 0.0}, {"name": "8fab5fd90dfc4d6e016b99c25023bb1e", "is_reserved": 0, "type": "electric_scooter", "rental_uris": {"ios": "https://dc.lft.to/lastmile_qr_scan", "android": "https://dc.lft.to/lastmile_qr_scan"}, "lat": 38.92991266666667, "lon": -77.0323555, "bike_id": "8fab5fd90dfc4d6e016b99c25023bb1e", "fusion_lat": 0.0, "is_disabled": 0, "fusion_lon": 0.0}, {"name": "2d254e28500c83fe07737e90986e4cce", "is_reserved": 0, "type": "electric_scooter", "rental_uris": {"ios": "https://dc.lft.to/lastmile_qr_scan", "android": "https://dc.lft.to/lastmile_qr_scan"}, "lat": 38.9066395, "lon": -77.04246766666667, "bike_id": "2d254e28500c83fe07737e90986e4cce", "fusion_lat": 0.0, "is_disabled": 0, "fusion_lon": 0.0}, {"name": "61a138f7f1a1704f68d31e42277a3626", "is_reserved": 0, "type": "electric_scooter", "rental_uris": {"ios": "https://dc.lft.to/lastmile_qr_scan", "android": "https://dc.lft.to/lastmile_qr_scan"}, "lat": 38.912245, "lon": -77.03202716666667, "bike_id": "61a138f7f1a1704f68d31e42277a3626", "fusion_lat": 0.0, "is_disabled": 0, "fusion_lon": 0.0}, {"name": "c05ab1a72b4b4e8bb01e3827d61cb980", "is_reserved": 0, "type": "electric_scooter", "rental_uris": {"ios": "https://dc.lft.to/lastmile_qr_scan", "android": "https://dc.lft.to/lastmile_qr_scan"}, "lat": 38.90371283333333, "lon": -77.03943666666666, "bike_id": "c05ab1a72b4b4e8bb01e3827d61cb980", "fusion_lat": 0.0, "is_disabled": 0, "fusion_lon": 0.0}, {"name": "83c8c02979ddb4d9e83f98c9a336e703", "is_reserved": 0, "type": "electric_scooter", "rental_uris": {"ios": "https://dc.lft.to/lastmile_qr_scan", "android": "https://dc.lft.to/lastmile_qr_scan"}, "lat": 38.956375333333334, "lon": -77.03308616666666, "bike_id": "83c8c02979ddb4d9e83f98c9a336e703", "fusion_lat": 0.0, "is_disabled": 0, "fusion_lon": 0.0}, {"name": "94e0f4c19cf382169e3a2112d4915930", "is_reserved": 0, "type": "electric_scooter", "rental_uris": {"ios": "https://dc.lft.to/lastmile_qr_scan", "android": "https://dc.lft.to/lastmile_qr_scan"}, "lat": 38.94300766666667, "lon": -77.058792, "bike_id": "94e0f4c19cf382169e3a2112d4915930", "fusion_lat": 0.0, "is_disabled": 0, "fusion_lon": 0.0}, {"name": "404edbf7e58712769efc76efcd7d1c85", "is_reserved": 0, "type": "electric_scooter", "rental_uris": {"ios": "https://dc.lft.to/lastmile_qr_scan", "android": "https://dc.lft.to/lastmile_qr_scan"}, "lat": 38.917206166666666, "lon": -77.02633016666667, "bike_id": "404edbf7e58712769efc76efcd7d1c85", "fusion_lat": 0.0, "is_disabled": 0, "fusion_lon": 0.0}, {"name": "e1ee4815a3704968dfe4372856dbd45c", "is_reserved": 0, "type": "electric_bike", "rental_uris": {"ios": "https://dc.lft.to/lastmile_qr_scan", "android": "https://dc.lft.to/lastmile_qr_scan"}, "lat": 38.86239466666667, "lon": -76.99080366666666, "bike_id": "e1ee4815a3704968dfe4372856dbd45c", "fusion_lat": 0.0, "is_disabled": 0, "fusion_lon": 0.0}, {"name": "00d8cf7274d5257d0285da2e14e77fc6", "is_reserved": 0, "type": "electric_scooter", "rental_uris": {"ios": "https://dc.lft.to/lastmile_qr_scan", "android": "https://dc.lft.to/lastmile_qr_scan"}, "lat": 38.9064275, "lon": -77.03463766666667, "bike_id": "00d8cf7274d5257d0285da2e14e77fc6", "fusion_lat": 0.0, "is_disabled": 0, "fusion_lon": 0.0}, {"name": "077c435f5a0abd34cdc68e0a2e3fb628", "is_reserved": 0, "type": "electric_scooter", "rental_uris": {"ios": "https://dc.lft.to/lastmile_qr_scan", "android": "https://dc.lft.to/lastmile_qr_scan"}, "lat": 38.95431983333334, "lon": -77.02764816666667, "bike_id": "077c435f5a0abd34cdc68e0a2e3fb628", "fusion_lat": 0.0, "is_disabled": 0, "fusion_lon": 0.0}, {"name": "b15d1dc5871ca6e30b8d14f122b0b895", "is_reserved": 0, "type": "electric_scooter", "rental_uris": {"ios": "https://dc.lft.to/lastmile_qr_scan", "android": "https://dc.lft.to/lastmile_qr_scan"}, "lat": 38.8927535, "lon": -76.94920783333333, "bike_id": "b15d1dc5871ca6e30b8d14f122b0b895", "fusion_lat": 0.0, "is_disabled": 0, "fusion_lon": 0.0}, {"name": "78b9f601107533673c96384691627db0", "is_reserved": 0, "type": "electric_scooter", "rental_uris": {"ios": "https://dc.lft.to/lastmile_qr_scan", "android": "https://dc.lft.to/lastmile_qr_scan"}, "lat": 38.9211425, "lon": -77.0318975, "bike_id": "78b9f601107533673c96384691627db0", "fusion_lat": 0.0, "is_disabled": 0, "fusion_lon": 0.0}, {"name": "69039a375f608aeb5c301798e7466608", "is_reserved": 0, "type": "electric_scooter", "rental_uris": {"ios": "https://dc.lft.to/lastmile_qr_scan", "android": "https://dc.lft.to/lastmile_qr_scan"}, "lat": 38.91805766666667, "lon": -77.00928583333334, "bike_id": "69039a375f608aeb5c301798e7466608", "fusion_lat": 0.0, "is_disabled": 0, "fusion_lon": 0.0}, {"name": "8fddeaf76d42bb42370cfd2441acd1b7", "is_reserved": 0, "type": "electric_scooter", "rental_uris": {"ios": "https://dc.lft.to/lastmile_qr_scan", "android": "https://dc.lft.to/lastmile_qr_scan"}, "lat": 38.9032085, "lon": -76.9779825, "bike_id": "8fddeaf76d42bb42370cfd2441acd1b7", "fusion_lat": 0.0, "is_disabled": 0, "fusion_lon": 0.0}, {"name": "7850a93ee0bec7142301c98c9622661c", "is_reserved": 0, "type": "electric_scooter", "rental_uris": {"ios": "https://dc.lft.to/lastmile_qr_scan", "android": "https://dc.lft.to/lastmile_qr_scan"}, "lat": 38.876423, "lon": -77.01587466666666, "bike_id": "7850a93ee0bec7142301c98c9622661c", "fusion_lat": 0.0, "is_disabled": 0, "fusion_lon": 0.0}, {"name": "a8ce94dda40fd59762ea5c5c09cc08f0", "is_reserved": 0, "type": "electric_bike", "rental_uris": {"ios": "https://dc.lft.to/lastmile_qr_scan", "android": "https://dc.lft.to/lastmile_qr_scan"}, "lat": 38.88046216666667, "lon": -76.98629016666666, "bike_id": "a8ce94dda40fd59762ea5c5c09cc08f0", "fusion_lat": 0.0, "is_disabled": 0, "fusion_lon": 0.0}, {"name": "311ce302d9337867aeb3843af721698a", "is_reserved": 0, "type": "electric_scooter", "rental_uris": {"ios": "https://dc.lft.to/lastmile_qr_scan", "android": "https://dc.lft.to/lastmile_qr_scan"}, "lat": 38.89916566666667, "lon": -77.01241116666667, "bike_id": "311ce302d9337867aeb3843af721698a", "fusion_lat": 0.0, "is_disabled": 0, "fusion_lon": 0.0}, {"name": "1433a2568e5e55d68600652bf53e10ed", "is_reserved": 0, "type": "electric_scooter", "rental_uris": {"ios": "https://dc.lft.to/lastmile_qr_scan", "android": "https://dc.lft.to/lastmile_qr_scan"}, "lat": 38.918459, "lon": -77.02317583333334, "bike_id": "1433a2568e5e55d68600652bf53e10ed", "fusion_lat": 0.0, "is_disabled": 0, "fusion_lon": 0.0}, {"name": "6846bb693ce21e4ae7aef1d03d0868f7", "is_reserved": 0, "type": "electric_scooter", "rental_uris": {"ios": "https://dc.lft.to/lastmile_qr_scan", "android": "https://dc.lft.to/lastmile_qr_scan"}, "lat": 38.944233, "lon": -77.063299, "bike_id": "6846bb693ce21e4ae7aef1d03d0868f7", "fusion_lat": 0.0, "is_disabled": 0, "fusion_lon": 0.0}, {"name": "7d7d45ab6516c384b9a0a6860d030d10", "is_reserved": 0, "type": "electric_scooter", "rental_uris": {"ios": "https://dc.lft.to/lastmile_qr_scan", "android": "https://dc.lft.to/lastmile_qr_scan"}, "lat": 38.9067005, "lon": -77.02707333333333, "bike_id": "7d7d45ab6516c384b9a0a6860d030d10", "fusion_lat": 0.0, "is_disabled": 0, "fusion_lon": 0.0}, {"name": "522d301428050b7faec7501792c61b1d", "is_reserved": 0, "type": "electric_scooter", "rental_uris": {"ios": "https://dc.lft.to/lastmile_qr_scan", "android": "https://dc.lft.to/lastmile_qr_scan"}, "lat": 38.892313, "lon": -77.04652083333333, "bike_id": "522d301428050b7faec7501792c61b1d", "fusion_lat": 0.0, "is_disabled": 0, "fusion_lon": 0.0}, {"name": "40ccccc936a0df9dda11834c1ada0c52", "is_reserved": 0, "type": "electric_scooter", "rental_uris": {"ios": "https://dc.lft.to/lastmile_qr_scan", "android": "https://dc.lft.to/lastmile_qr_scan"}, "lat": 38.9003205, "lon": -76.998966, "bike_id": "40ccccc936a0df9dda11834c1ada0c52", "fusion_lat": 0.0, "is_disabled": 0, "fusion_lon": 0.0}, {"name": "0b106e6e0d26f43e03856413c5989b1e", "is_reserved": 0, "type": "electric_bike", "rental_uris": {"ios": "https://dc.lft.to/lastmile_qr_scan", "android": "https://dc.lft.to/lastmile_qr_scan"}, "lat": 38.873505333333334, "lon": -77.10652116666667, "bike_id": "0b106e6e0d26f43e03856413c5989b1e", "fusion_lat": 0.0, "is_disabled": 0, "fusion_lon": 0.0}, {"name": "475414d4bb14d7a1f6acda599808e4ca", "is_reserved": 0, "type": "electric_scooter", "rental_uris": {"ios": "https://dc.lft.to/lastmile_qr_scan", "android": "https://dc.lft.to/lastmile_qr_scan"}, "lat": 38.9025335, "lon": -77.061762, "bike_id": "475414d4bb14d7a1f6acda599808e4ca", "fusion_lat": 0.0, "is_disabled": 0, "fusion_lon": 0.0}, {"name": "8b141d2514c00e1eddb24f842459a98d", "is_reserved": 0, "type": "electric_scooter", "rental_uris": {"ios": "https://dc.lft.to/lastmile_qr_scan", "android": "https://dc.lft.to/lastmile_qr_scan"}, "lat": 38.88492883333333, "lon": -77.00723983333333, "bike_id": "8b141d2514c00e1eddb24f842459a98d", "fusion_lat": 0.0, "is_disabled": 0, "fusion_lon": 0.0}, {"name": "153c090484a4ef51e31eafd155a334bb", "is_reserved": 0, "type": "electric_scooter", "rental_uris": {"ios": "https://dc.lft.to/lastmile_qr_scan", "android": "https://dc.lft.to/lastmile_qr_scan"}, "lat": 38.90242716666667, "lon": -77.0163795, "bike_id": "153c090484a4ef51e31eafd155a334bb", "fusion_lat": 0.0, "is_disabled": 0, "fusion_lon": 0.0}, {"name": "48771c4b3fbaffb11c7f9e8e901589ea", "is_reserved": 0, "type": "electric_scooter", "rental_uris": {"ios": "https://dc.lft.to/lastmile_qr_scan", "android": "https://dc.lft.to/lastmile_qr_scan"}, "lat": 38.92085816666667, "lon": -77.02367016666666, "bike_id": "48771c4b3fbaffb11c7f9e8e901589ea", "fusion_lat": 0.0, "is_disabled": 0, "fusion_lon": 0.0}, {"name": "0158298b29e6eb83629162cac3721e1a", "is_reserved": 0, "type": "electric_scooter", "rental_uris": {"ios": "https://dc.lft.to/lastmile_qr_scan", "android": "https://dc.lft.to/lastmile_qr_scan"}, "lat": 38.90027766666667, "lon": -76.98877666666667, "bike_id": "0158298b29e6eb83629162cac3721e1a", "fusion_lat": 0.0, "is_disabled": 0, "fusion_lon": 0.0}, {"name": "ea505205076378f7d7e099c043f10cde", "is_reserved": 0, "type": "electric_bike", "rental_uris": {"ios": "https://dc.lft.to/lastmile_qr_scan", "android": "https://dc.lft.to/lastmile_qr_scan"}, "lat": 38.867486666666665, "lon": -77.11710966666666, "bike_id": "ea505205076378f7d7e099c043f10cde", "fusion_lat": 0.0, "is_disabled": 0, "fusion_lon": 0.0}, {"name": "0dc45e21ca0054e6663a2026f9b1acd7", "is_reserved": 0, "type": "electric_scooter", "rental_uris": {"ios": "https://dc.lft.to/lastmile_qr_scan", "android": "https://dc.lft.to/lastmile_qr_scan"}, "lat": 38.84437366666667, "lon": -76.9970715, "bike_id": "0dc45e21ca0054e6663a2026f9b1acd7", "fusion_lat": 0.0, "is_disabled": 0, "fusion_lon": 0.0}, {"name": "0e417870d6da9424091c41c1c5b7550c", "is_reserved": 0, "type": "electric_scooter", "rental_uris": {"ios": "https://dc.lft.to/lastmile_qr_scan", "android": "https://dc.lft.to/lastmile_qr_scan"}, "lat": 38.912012, "lon": -77.03843516666667, "bike_id": "0e417870d6da9424091c41c1c5b7550c", "fusion_lat": 0.0, "is_disabled": 0, "fusion_lon": 0.0}, {"name": "94f7cdc3773b2e61aa8ee38c94dc6e24", "is_reserved": 0, "type": "electric_scooter", "rental_uris": {"ios": "https://dc.lft.to/lastmile_qr_scan", "android": "https://dc.lft.to/lastmile_qr_scan"}, "lat": 38.905232166666664, "lon": -77.05129383333333, "bike_id": "94f7cdc3773b2e61aa8ee38c94dc6e24", "fusion_lat": 0.0, "is_disabled": 0, "fusion_lon": 0.0}, {"name": "fbdf7058037e9f809512bb558f43e3c7", "is_reserved": 0, "type": "electric_scooter", "rental_uris": {"ios": "https://dc.lft.to/lastmile_qr_scan", "android": "https://dc.lft.to/lastmile_qr_scan"}, "lat": 38.87666883333333, "lon": -77.00446533333333, "bike_id": "fbdf7058037e9f809512bb558f43e3c7", "fusion_lat": 0.0, "is_disabled": 0, "fusion_lon": 0.0}, {"name": "f89fbed0b99c62c57001bc288d91f45b", "is_reserved": 0, "type": "electric_scooter", "rental_uris": {"ios": "https://dc.lft.to/lastmile_qr_scan", "android": "https://dc.lft.to/lastmile_qr_scan"}, "lat": 38.88992183333333, "lon": -77.00335033333333, "bike_id": "f89fbed0b99c62c57001bc288d91f45b", "fusion_lat": 0.0, "is_disabled": 0, "fusion_lon": 0.0}, {"name": "a5a8a7ed98de016fed3d88711e57fb94", "is_reserved": 0, "type": "electric_scooter", "rental_uris": {"ios": "https://dc.lft.to/lastmile_qr_scan", "android": "https://dc.lft.to/lastmile_qr_scan"}, "lat": 38.92359483333333, "lon": -77.02050383333334, "bike_id": "a5a8a7ed98de016fed3d88711e57fb94", "fusion_lat": 0.0, "is_disabled": 0, "fusion_lon": 0.0}, {"name": "adaa049e1e3196eb7e21684614d5db39", "is_reserved": 0, "type": "electric_scooter", "rental_uris": {"ios": "https://dc.lft.to/lastmile_qr_scan", "android": "https://dc.lft.to/lastmile_qr_scan"}, "lat": 38.900341166666664, "lon": -77.00223983333333, "bike_id": "adaa049e1e3196eb7e21684614d5db39", "fusion_lat": 0.0, "is_disabled": 0, "fusion_lon": 0.0}, {"name": "c50ecda40e0047db67b19d8594143cb5", "is_reserved": 0, "type": "electric_scooter", "rental_uris": {"ios": "https://dc.lft.to/lastmile_qr_scan", "android": "https://dc.lft.to/lastmile_qr_scan"}, "lat": 38.89565116666667, "lon": -77.01976166666667, "bike_id": "c50ecda40e0047db67b19d8594143cb5", "fusion_lat": 0.0, "is_disabled": 0, "fusion_lon": 0.0}, {"name": "199e646657696b0a9edf5be7a5ea57f1", "is_reserved": 0, "type": "electric_bike", "rental_uris": {"ios": "https://dc.lft.to/lastmile_qr_scan", "android": "https://dc.lft.to/lastmile_qr_scan"}, "lat": 38.90835533333333, "lon": -76.99702983333333, "bike_id": "199e646657696b0a9edf5be7a5ea57f1", "fusion_lat": 0.0, "is_disabled": 0, "fusion_lon": 0.0}, {"name": "0d41dff0745b25a1f91d8f5fc0a04fc8", "is_reserved": 0, "type": "electric_scooter", "rental_uris": {"ios": "https://dc.lft.to/lastmile_qr_scan", "android": "https://dc.lft.to/lastmile_qr_scan"}, "lat": 38.875552666666664, "lon": -77.006169, "bike_id": "0d41dff0745b25a1f91d8f5fc0a04fc8", "fusion_lat": 0.0, "is_disabled": 0, "fusion_lon": 0.0}, {"name": "b8afbc096befb63fe5f65c86ac17867e", "is_reserved": 0, "type": "electric_scooter", "rental_uris": {"ios": "https://dc.lft.to/lastmile_qr_scan", "android": "https://dc.lft.to/lastmile_qr_scan"}, "lat": 38.8856605, "lon": -76.99809116666667, "bike_id": "b8afbc096befb63fe5f65c86ac17867e", "fusion_lat": 0.0, "is_disabled": 0, "fusion_lon": 0.0}, {"name": "7fe56d190091c354d83b45ac9c9354a2", "is_reserved": 0, "type": "electric_scooter", "rental_uris": {"ios": "https://dc.lft.to/lastmile_qr_scan", "android": "https://dc.lft.to/lastmile_qr_scan"}, "lat": 38.90031966666667, "lon": -76.98765733333333, "bike_id": "7fe56d190091c354d83b45ac9c9354a2", "fusion_lat": 0.0, "is_disabled": 0, "fusion_lon": 0.0}, {"name": "6a78e3eca25f1377e5ef9ed5a6a9e123", "is_reserved": 0, "type": "electric_scooter", "rental_uris": {"ios": "https://dc.lft.to/lastmile_qr_scan", "android": "https://dc.lft.to/lastmile_qr_scan"}, "lat": 38.8960625, "lon": -77.00928416666666, "bike_id": "6a78e3eca25f1377e5ef9ed5a6a9e123", "fusion_lat": 0.0, "is_disabled": 0, "fusion_lon": 0.0}, {"name": "a57ab0d807207517116a41229bb80aa1", "is_reserved": 0, "type": "electric_scooter", "rental_uris": {"ios": "https://dc.lft.to/lastmile_qr_scan", "android": "https://dc.lft.to/lastmile_qr_scan"}, "lat": 38.97500083333333, "lon": -77.01697083333333, "bike_id": "a57ab0d807207517116a41229bb80aa1", "fusion_lat": 0.0, "is_disabled": 0, "fusion_lon": 0.0}, {"name": "4e24ad94d6192fcd782f42d1fb28325b", "is_reserved": 0, "type": "electric_scooter", "rental_uris": {"ios": "https://dc.lft.to/lastmile_qr_scan", "android": "https://dc.lft.to/lastmile_qr_scan"}, "lat": 38.90532116666667, "lon": -77.05022, "bike_id": "4e24ad94d6192fcd782f42d1fb28325b", "fusion_lat": 0.0, "is_disabled": 0, "fusion_lon": 0.0}, {"name": "898d2ce28fbfd4073fb084ac01517663", "is_reserved": 0, "type": "electric_scooter", "rental_uris": {"ios": "https://dc.lft.to/lastmile_qr_scan", "android": "https://dc.lft.to/lastmile_qr_scan"}, "lat": 38.907328666666665, "lon": -77.03353983333334, "bike_id": "898d2ce28fbfd4073fb084ac01517663", "fusion_lat": 0.0, "is_disabled": 0, "fusion_lon": 0.0}, {"name": "0fd56e80b169489ffe72723d58928a6c", "is_reserved": 0, "type": "electric_scooter", "rental_uris": {"ios": "https://dc.lft.to/lastmile_qr_scan", "android": "https://dc.lft.to/lastmile_qr_scan"}, "lat": 38.910419166666664, "lon": -77.04828133333334, "bike_id": "0fd56e80b169489ffe72723d58928a6c", "fusion_lat": 0.0, "is_disabled": 0, "fusion_lon": 0.0}, {"name": "c800ea82a55704f2542c14c0c5cec94f", "is_reserved": 0, "type": "electric_scooter", "rental_uris": {"ios": "https://dc.lft.to/lastmile_qr_scan", "android": "https://dc.lft.to/lastmile_qr_scan"}, "lat": 38.897516333333336, "lon": -77.00864816666666, "bike_id": "c800ea82a55704f2542c14c0c5cec94f", "fusion_lat": 0.0, "is_disabled": 0, "fusion_lon": 0.0}, {"name": "932e8f572c433fb939b03c68c05d0982", "is_reserved": 0, "type": "electric_scooter", "rental_uris": {"ios": "https://dc.lft.to/lastmile_qr_scan", "android": "https://dc.lft.to/lastmile_qr_scan"}, "lat": 38.9265665, "lon": -77.0415485, "bike_id": "932e8f572c433fb939b03c68c05d0982", "fusion_lat": 0.0, "is_disabled": 0, "fusion_lon": 0.0}, {"name": "a7f28491478e24a53fc759140fd38e13", "is_reserved": 0, "type": "electric_scooter", "rental_uris": {"ios": "https://dc.lft.to/lastmile_qr_scan", "android": "https://dc.lft.to/lastmile_qr_scan"}, "lat": 38.90143916666667, "lon": -76.9983305, "bike_id": "a7f28491478e24a53fc759140fd38e13", "fusion_lat": 0.0, "is_disabled": 0, "fusion_lon": 0.0}, {"name": "e80ffba1bb92ef31af110a5ce27d4a07", "is_reserved": 0, "type": "electric_scooter", "rental_uris": {"ios": "https://dc.lft.to/lastmile_qr_scan", "android": "https://dc.lft.to/lastmile_qr_scan"}, "lat": 38.97491866666667, "lon": -77.01696666666666, "bike_id": "e80ffba1bb92ef31af110a5ce27d4a07", "fusion_lat": 0.0, "is_disabled": 0, "fusion_lon": 0.0}, {"name": "110a0a961ad114966b51a7863661280e", "is_reserved": 0, "type": "electric_scooter", "rental_uris": {"ios": "https://dc.lft.to/lastmile_qr_scan", "android": "https://dc.lft.to/lastmile_qr_scan"}, "lat": 38.907311166666666, "lon": -77.0251005, "bike_id": "110a0a961ad114966b51a7863661280e", "fusion_lat": 0.0, "is_disabled": 0, "fusion_lon": 0.0}, {"name": "25a93c33cfb4f9adfdcd1008b77dcc0d", "is_reserved": 0, "type": "electric_scooter", "rental_uris": {"ios": "https://dc.lft.to/lastmile_qr_scan", "android": "https://dc.lft.to/lastmile_qr_scan"}, "lat": 38.910462333333335, "lon": -77.04838583333333, "bike_id": "25a93c33cfb4f9adfdcd1008b77dcc0d", "fusion_lat": 0.0, "is_disabled": 0, "fusion_lon": 0.0}, {"name": "667b945fa19a76d245017fb3b2a1ad57", "is_reserved": 0, "type": "electric_scooter", "rental_uris": {"ios": "https://dc.lft.to/lastmile_qr_scan", "android": "https://dc.lft.to/lastmile_qr_scan"}, "lat": 38.92671133333333, "lon": -77.0078095, "bike_id": "667b945fa19a76d245017fb3b2a1ad57", "fusion_lat": 0.0, "is_disabled": 0, "fusion_lon": 0.0}, {"name": "c02959c8035dbe10a4d70eadbe413ff4", "is_reserved": 0, "type": "electric_bike", "rental_uris": {"ios": "https://dc.lft.to/lastmile_qr_scan", "android": "https://dc.lft.to/lastmile_qr_scan"}, "lat": 38.9744215, "lon": -77.029897, "bike_id": "c02959c8035dbe10a4d70eadbe413ff4", "fusion_lat": 0.0, "is_disabled": 0, "fusion_lon": 0.0}, {"name": "ca5aedee0be6d6a9046167ae77534c26", "is_reserved": 0, "type": "electric_scooter", "rental_uris": {"ios": "https://dc.lft.to/lastmile_qr_scan", "android": "https://dc.lft.to/lastmile_qr_scan"}, "lat": 38.9005125, "lon": -76.9829265, "bike_id": "ca5aedee0be6d6a9046167ae77534c26", "fusion_lat": 0.0, "is_disabled": 0, "fusion_lon": 0.0}, {"name": "a5cc124abce9761a16e57f4c7838690b", "is_reserved": 0, "type": "electric_scooter", "rental_uris": {"ios": "https://dc.lft.to/lastmile_qr_scan", "android": "https://dc.lft.to/lastmile_qr_scan"}, "lat": 38.8975615, "lon": -77.03039183333334, "bike_id": "a5cc124abce9761a16e57f4c7838690b", "fusion_lat": 0.0, "is_disabled": 0, "fusion_lon": 0.0}, {"name": "359ba0ac755915ec0d39bf88dc4fd7a4", "is_reserved": 0, "type": "electric_scooter", "rental_uris": {"ios": "https://dc.lft.to/lastmile_qr_scan", "android": "https://dc.lft.to/lastmile_qr_scan"}, "lat": 38.93053333333334, "lon": -77.01997516666667, "bike_id": "359ba0ac755915ec0d39bf88dc4fd7a4", "fusion_lat": 0.0, "is_disabled": 0, "fusion_lon": 0.0}, {"name": "dcfa8fc6eb4a8572e1dc5b267fede227", "is_reserved": 0, "type": "electric_scooter", "rental_uris": {"ios": "https://dc.lft.to/lastmile_qr_scan", "android": "https://dc.lft.to/lastmile_qr_scan"}, "lat": 38.91769733333334, "lon": -77.0228115, "bike_id": "dcfa8fc6eb4a8572e1dc5b267fede227", "fusion_lat": 0.0, "is_disabled": 0, "fusion_lon": 0.0}, {"name": "d147b806ec2c0175780026c691638e66", "is_reserved": 0, "type": "electric_bike", "rental_uris": {"ios": "https://dc.lft.to/lastmile_qr_scan", "android": "https://dc.lft.to/lastmile_qr_scan"}, "lat": 38.854598333333335, "lon": -76.97239, "bike_id": "d147b806ec2c0175780026c691638e66", "fusion_lat": 0.0, "is_disabled": 0, "fusion_lon": 0.0}, {"name": "b5c7a62142a8003d0b2779b17f93db15", "is_reserved": 0, "type": "electric_scooter", "rental_uris": {"ios": "https://dc.lft.to/lastmile_qr_scan", "android": "https://dc.lft.to/lastmile_qr_scan"}, "lat": 38.88506, "lon": -77.00568933333334, "bike_id": "b5c7a62142a8003d0b2779b17f93db15", "fusion_lat": 0.0, "is_disabled": 0, "fusion_lon": 0.0}, {"name": "d2ebbc409379f334f111ef483396a1e4", "is_reserved": 0, "type": "electric_scooter", "rental_uris": {"ios": "https://dc.lft.to/lastmile_qr_scan", "android": "https://dc.lft.to/lastmile_qr_scan"}, "lat": 38.92347566666667, "lon": -77.03501116666666, "bike_id": "d2ebbc409379f334f111ef483396a1e4", "fusion_lat": 0.0, "is_disabled": 0, "fusion_lon": 0.0}, {"name": "e4234bb5e8a67799c5795de351c35a51", "is_reserved": 0, "type": "electric_scooter", "rental_uris": {"ios": "https://dc.lft.to/lastmile_qr_scan", "android": "https://dc.lft.to/lastmile_qr_scan"}, "lat": 38.91817566666667, "lon": -77.01361033333333, "bike_id": "e4234bb5e8a67799c5795de351c35a51", "fusion_lat": 0.0, "is_disabled": 0, "fusion_lon": 0.0}, {"name": "3f64d317cba348600f2c438ad58c1a60", "is_reserved": 0, "type": "electric_scooter", "rental_uris": {"ios": "https://dc.lft.to/lastmile_qr_scan", "android": "https://dc.lft.to/lastmile_qr_scan"}, "lat": 38.9360195, "lon": -77.03654066666667, "bike_id": "3f64d317cba348600f2c438ad58c1a60", "fusion_lat": 0.0, "is_disabled": 0, "fusion_lon": 0.0}, {"name": "ae52adfed75073014179d542c6f72175", "is_reserved": 0, "type": "electric_scooter", "rental_uris": {"ios": "https://dc.lft.to/lastmile_qr_scan", "android": "https://dc.lft.to/lastmile_qr_scan"}, "lat": 38.895434333333334, "lon": -77.00208133333334, "bike_id": "ae52adfed75073014179d542c6f72175", "fusion_lat": 0.0, "is_disabled": 0, "fusion_lon": 0.0}, {"name": "e8cf393c7380f974e6cbd251cdb44549", "is_reserved": 0, "type": "electric_scooter", "rental_uris": {"ios": "https://dc.lft.to/lastmile_qr_scan", "android": "https://dc.lft.to/lastmile_qr_scan"}, "lat": 38.9041185, "lon": -76.97333, "bike_id": "e8cf393c7380f974e6cbd251cdb44549", "fusion_lat": 0.0, "is_disabled": 0, "fusion_lon": 0.0}, {"name": "9a6c8c7a92c546ecbec72b50450ca42c", "is_reserved": 0, "type": "electric_scooter", "rental_uris": {"ios": "https://dc.lft.to/lastmile_qr_scan", "android": "https://dc.lft.to/lastmile_qr_scan"}, "lat": 38.90013233333333, "lon": -77.0004185, "bike_id": "9a6c8c7a92c546ecbec72b50450ca42c", "fusion_lat": 0.0, "is_disabled": 0, "fusion_lon": 0.0}, {"name": "988eae541aa19daa39106e0dfa032b0d", "is_reserved": 0, "type": "electric_scooter", "rental_uris": {"ios": "https://dc.lft.to/lastmile_qr_scan", "android": "https://dc.lft.to/lastmile_qr_scan"}, "lat": 38.892259, "lon": -77.04336583333334, "bike_id": "988eae541aa19daa39106e0dfa032b0d", "fusion_lat": 0.0, "is_disabled": 0, "fusion_lon": 0.0}, {"name": "959e76dbf1f806d3a9d6f84337ff3576", "is_reserved": 0, "type": "electric_scooter", "rental_uris": {"ios": "https://dc.lft.to/lastmile_qr_scan", "android": "https://dc.lft.to/lastmile_qr_scan"}, "lat": 38.89497183333334, "lon": -77.00293016666667, "bike_id": "959e76dbf1f806d3a9d6f84337ff3576", "fusion_lat": 0.0, "is_disabled": 0, "fusion_lon": 0.0}, {"name": "bb5d83fcee97d4864ec97a455b432ab9", "is_reserved": 0, "type": "electric_scooter", "rental_uris": {"ios": "https://dc.lft.to/lastmile_qr_scan", "android": "https://dc.lft.to/lastmile_qr_scan"}, "lat": 38.905315, "lon": -77.048947, "bike_id": "bb5d83fcee97d4864ec97a455b432ab9", "fusion_lat": 0.0, "is_disabled": 0, "fusion_lon": 0.0}, {"name": "52c18d2452bf440ed6d68261b6d7c7ba", "is_reserved": 0, "type": "electric_scooter", "rental_uris": {"ios": "https://dc.lft.to/lastmile_qr_scan", "android": "https://dc.lft.to/lastmile_qr_scan"}, "lat": 38.91679283333333, "lon": -77.02718616666667, "bike_id": "52c18d2452bf440ed6d68261b6d7c7ba", "fusion_lat": 0.0, "is_disabled": 0, "fusion_lon": 0.0}, {"name": "66189436cdf570cf20dda5bbb77548e6", "is_reserved": 0, "type": "electric_scooter", "rental_uris": {"ios": "https://dc.lft.to/lastmile_qr_scan", "android": "https://dc.lft.to/lastmile_qr_scan"}, "lat": 38.9078905, "lon": -77.0319955, "bike_id": "66189436cdf570cf20dda5bbb77548e6", "fusion_lat": 0.0, "is_disabled": 0, "fusion_lon": 0.0}, {"name": "de1f09b7f5e4065e9a708aa6e94af87c", "is_reserved": 0, "type": "electric_scooter", "rental_uris": {"ios": "https://dc.lft.to/lastmile_qr_scan", "android": "https://dc.lft.to/lastmile_qr_scan"}, "lat": 38.9435405, "lon": -77.06288816666667, "bike_id": "de1f09b7f5e4065e9a708aa6e94af87c", "fusion_lat": 0.0, "is_disabled": 0, "fusion_lon": 0.0}, {"name": "88268419fee4ff7bc016cce2b557bbef", "is_reserved": 0, "type": "electric_scooter", "rental_uris": {"ios": "https://dc.lft.to/lastmile_qr_scan", "android": "https://dc.lft.to/lastmile_qr_scan"}, "lat": 38.928416166666665, "lon": -76.993671, "bike_id": "88268419fee4ff7bc016cce2b557bbef", "fusion_lat": 0.0, "is_disabled": 0, "fusion_lon": 0.0}, {"name": "04787b008ca968006433902b55165c0b", "is_reserved": 0, "type": "electric_scooter", "rental_uris": {"ios": "https://dc.lft.to/lastmile_qr_scan", "android": "https://dc.lft.to/lastmile_qr_scan"}, "lat": 38.9216055, "lon": -77.03450733333334, "bike_id": "04787b008ca968006433902b55165c0b", "fusion_lat": 0.0, "is_disabled": 0, "fusion_lon": 0.0}, {"name": "01fcd168c727f5762269de1b9a39facd", "is_reserved": 0, "type": "electric_scooter", "rental_uris": {"ios": "https://dc.lft.to/lastmile_qr_scan", "android": "https://dc.lft.to/lastmile_qr_scan"}, "lat": 38.897365666666666, "lon": -77.0037765, "bike_id": "01fcd168c727f5762269de1b9a39facd", "fusion_lat": 0.0, "is_disabled": 0, "fusion_lon": 0.0}, {"name": "4838dd887aa34a696e73ddf4f69bd201", "is_reserved": 0, "type": "electric_scooter", "rental_uris": {"ios": "https://dc.lft.to/lastmile_qr_scan", "android": "https://dc.lft.to/lastmile_qr_scan"}, "lat": 38.90371366666667, "lon": -77.04981716666667, "bike_id": "4838dd887aa34a696e73ddf4f69bd201", "fusion_lat": 0.0, "is_disabled": 0, "fusion_lon": 0.0}, {"name": "289ac54af554da4bfbb83b2f24eb2f1a", "is_reserved": 0, "type": "electric_scooter", "rental_uris": {"ios": "https://dc.lft.to/lastmile_qr_scan", "android": "https://dc.lft.to/lastmile_qr_scan"}, "lat": 38.86255416666667, "lon": -76.98695566666666, "bike_id": "289ac54af554da4bfbb83b2f24eb2f1a", "fusion_lat": 0.0, "is_disabled": 0, "fusion_lon": 0.0}, {"name": "3204ccbcf1e32e858213e49f154d4773", "is_reserved": 0, "type": "electric_scooter", "rental_uris": {"ios": "https://dc.lft.to/lastmile_qr_scan", "android": "https://dc.lft.to/lastmile_qr_scan"}, "lat": 38.9096315, "lon": -77.023111, "bike_id": "3204ccbcf1e32e858213e49f154d4773", "fusion_lat": 0.0, "is_disabled": 0, "fusion_lon": 0.0}, {"name": "801327e6c595a99b2cf5c41f75c3e0a2", "is_reserved": 0, "type": "electric_scooter", "rental_uris": {"ios": "https://dc.lft.to/lastmile_qr_scan", "android": "https://dc.lft.to/lastmile_qr_scan"}, "lat": 38.9111455, "lon": -77.00378483333333, "bike_id": "801327e6c595a99b2cf5c41f75c3e0a2", "fusion_lat": 0.0, "is_disabled": 0, "fusion_lon": 0.0}, {"name": "6c9c001a734a753faddb507094b4e1ff", "is_reserved": 0, "type": "electric_scooter", "rental_uris": {"ios": "https://dc.lft.to/lastmile_qr_scan", "android": "https://dc.lft.to/lastmile_qr_scan"}, "lat": 38.93478283333334, "lon": -77.07271666666666, "bike_id": "6c9c001a734a753faddb507094b4e1ff", "fusion_lat": 0.0, "is_disabled": 0, "fusion_lon": 0.0}, {"name": "66aa99562e33d9dc37796e698dcc888a", "is_reserved": 0, "type": "electric_scooter", "rental_uris": {"ios": "https://dc.lft.to/lastmile_qr_scan", "android": "https://dc.lft.to/lastmile_qr_scan"}, "lat": 38.899674, "lon": -77.0218155, "bike_id": "66aa99562e33d9dc37796e698dcc888a", "fusion_lat": 0.0, "is_disabled": 0, "fusion_lon": 0.0}, {"name": "d6905427425e2aca62d9278ad4d2c986", "is_reserved": 0, "type": "electric_scooter", "rental_uris": {"ios": "https://dc.lft.to/lastmile_qr_scan", "android": "https://dc.lft.to/lastmile_qr_scan"}, "lat": 38.91459, "lon": -77.04155883333334, "bike_id": "d6905427425e2aca62d9278ad4d2c986", "fusion_lat": 0.0, "is_disabled": 0, "fusion_lon": 0.0}, {"name": "c1d191bf8a68f808ad56f1cd461ba18f", "is_reserved": 0, "type": "electric_scooter", "rental_uris": {"ios": "https://dc.lft.to/lastmile_qr_scan", "android": "https://dc.lft.to/lastmile_qr_scan"}, "lat": 38.912716833333334, "lon": -77.03468933333333, "bike_id": "c1d191bf8a68f808ad56f1cd461ba18f", "fusion_lat": 0.0, "is_disabled": 0, "fusion_lon": 0.0}, {"name": "e13ebbdcbbd55175aedd9821194bef2b", "is_reserved": 0, "type": "electric_scooter", "rental_uris": {"ios": "https://dc.lft.to/lastmile_qr_scan", "android": "https://dc.lft.to/lastmile_qr_scan"}, "lat": 38.9170485, "lon": -77.03273783333333, "bike_id": "e13ebbdcbbd55175aedd9821194bef2b", "fusion_lat": 0.0, "is_disabled": 0, "fusion_lon": 0.0}, {"name": "f63d896b9eeb5f3c1f5306b98b2b5b66", "is_reserved": 0, "type": "electric_scooter", "rental_uris": {"ios": "https://dc.lft.to/lastmile_qr_scan", "android": "https://dc.lft.to/lastmile_qr_scan"}, "lat": 38.91576533333333, "lon": -77.01998433333333, "bike_id": "f63d896b9eeb5f3c1f5306b98b2b5b66", "fusion_lat": 0.0, "is_disabled": 0, "fusion_lon": 0.0}, {"name": "43a678ba42390a8af1115d721bcf47cb", "is_reserved": 0, "type": "electric_scooter", "rental_uris": {"ios": "https://dc.lft.to/lastmile_qr_scan", "android": "https://dc.lft.to/lastmile_qr_scan"}, "lat": 38.904106666666664, "lon": -77.0465225, "bike_id": "43a678ba42390a8af1115d721bcf47cb", "fusion_lat": 0.0, "is_disabled": 0, "fusion_lon": 0.0}, {"name": "9eedec5855e274f37b383f6aaa71c026", "is_reserved": 0, "type": "electric_scooter", "rental_uris": {"ios": "https://dc.lft.to/lastmile_qr_scan", "android": "https://dc.lft.to/lastmile_qr_scan"}, "lat": 38.92088433333333, "lon": -77.02370266666667, "bike_id": "9eedec5855e274f37b383f6aaa71c026", "fusion_lat": 0.0, "is_disabled": 0, "fusion_lon": 0.0}, {"name": "a9252fcbc26264a6a3b31ecfc9a699c6", "is_reserved": 0, "type": "electric_scooter", "rental_uris": {"ios": "https://dc.lft.to/lastmile_qr_scan", "android": "https://dc.lft.to/lastmile_qr_scan"}, "lat": 38.894342, "lon": -77.02606183333333, "bike_id": "a9252fcbc26264a6a3b31ecfc9a699c6", "fusion_lat": 0.0, "is_disabled": 0, "fusion_lon": 0.0}, {"name": "134098700c118c7d21368b5fa3270225", "is_reserved": 0, "type": "electric_bike", "rental_uris": {"ios": "https://dc.lft.to/lastmile_qr_scan", "android": "https://dc.lft.to/lastmile_qr_scan"}, "lat": 38.93639266666667, "lon": -77.078256, "bike_id": "134098700c118c7d21368b5fa3270225", "fusion_lat": 0.0, "is_disabled": 0, "fusion_lon": 0.0}, {"name": "506913470bfb0507a442e4d9a92b8331", "is_reserved": 0, "type": "electric_bike", "rental_uris": {"ios": "https://dc.lft.to/lastmile_qr_scan", "android": "https://dc.lft.to/lastmile_qr_scan"}, "lat": 38.84277616666667, "lon": -76.98840266666667, "bike_id": "506913470bfb0507a442e4d9a92b8331", "fusion_lat": 0.0, "is_disabled": 0, "fusion_lon": 0.0}, {"name": "54f6b32dd06ee7f4c1a16976021c3bfc", "is_reserved": 0, "type": "electric_scooter", "rental_uris": {"ios": "https://dc.lft.to/lastmile_qr_scan", "android": "https://dc.lft.to/lastmile_qr_scan"}, "lat": 38.931553, "lon": -77.04227933333334, "bike_id": "54f6b32dd06ee7f4c1a16976021c3bfc", "fusion_lat": 0.0, "is_disabled": 0, "fusion_lon": 0.0}, {"name": "dfe4b508b116fc0aa38c0dd160aa7f5a", "is_reserved": 0, "type": "electric_scooter", "rental_uris": {"ios": "https://dc.lft.to/lastmile_qr_scan", "android": "https://dc.lft.to/lastmile_qr_scan"}, "lat": 38.919374833333336, "lon": -77.03435666666667, "bike_id": "dfe4b508b116fc0aa38c0dd160aa7f5a", "fusion_lat": 0.0, "is_disabled": 0, "fusion_lon": 0.0}, {"name": "2296728d02eb62b74321edf98d5a47a0", "is_reserved": 0, "type": "electric_scooter", "rental_uris": {"ios": "https://dc.lft.to/lastmile_qr_scan", "android": "https://dc.lft.to/lastmile_qr_scan"}, "lat": 38.91819916666667, "lon": -77.03262283333333, "bike_id": "2296728d02eb62b74321edf98d5a47a0", "fusion_lat": 0.0, "is_disabled": 0, "fusion_lon": 0.0}, {"name": "ad5ff749287ce6523fef609fbb0d5d60", "is_reserved": 0, "type": "electric_scooter", "rental_uris": {"ios": "https://dc.lft.to/lastmile_qr_scan", "android": "https://dc.lft.to/lastmile_qr_scan"}, "lat": 38.921561, "lon": -77.034828, "bike_id": "ad5ff749287ce6523fef609fbb0d5d60", "fusion_lat": 0.0, "is_disabled": 0, "fusion_lon": 0.0}, {"name": "0267ae7c35ea4cdfac921bc0fe3af8ba", "is_reserved": 0, "type": "electric_scooter", "rental_uris": {"ios": "https://dc.lft.to/lastmile_qr_scan", "android": "https://dc.lft.to/lastmile_qr_scan"}, "lat": 38.89503166666667, "lon": -77.02203266666666, "bike_id": "0267ae7c35ea4cdfac921bc0fe3af8ba", "fusion_lat": 0.0, "is_disabled": 0, "fusion_lon": 0.0}, {"name": "ca5d91ad0c5af7e8fa4f33fd8128aa6b", "is_reserved": 0, "type": "electric_scooter", "rental_uris": {"ios": "https://dc.lft.to/lastmile_qr_scan", "android": "https://dc.lft.to/lastmile_qr_scan"}, "lat": 38.90019183333333, "lon": -77.0116725, "bike_id": "ca5d91ad0c5af7e8fa4f33fd8128aa6b", "fusion_lat": 0.0, "is_disabled": 0, "fusion_lon": 0.0}, {"name": "7bc56ae329fee051d3f7b37f06abbcf9", "is_reserved": 0, "type": "electric_scooter", "rental_uris": {"ios": "https://dc.lft.to/lastmile_qr_scan", "android": "https://dc.lft.to/lastmile_qr_scan"}, "lat": 38.901916, "lon": -76.97945366666667, "bike_id": "7bc56ae329fee051d3f7b37f06abbcf9", "fusion_lat": 0.0, "is_disabled": 0, "fusion_lon": 0.0}, {"name": "135cd5b8113ffa64649e5f413ce6834f", "is_reserved": 0, "type": "electric_scooter", "rental_uris": {"ios": "https://dc.lft.to/lastmile_qr_scan", "android": "https://dc.lft.to/lastmile_qr_scan"}, "lat": 38.921924, "lon": -77.020601, "bike_id": "135cd5b8113ffa64649e5f413ce6834f", "fusion_lat": 0.0, "is_disabled": 0, "fusion_lon": 0.0}, {"name": "f4ca76e238367c50658c405666112400", "is_reserved": 0, "type": "electric_scooter", "rental_uris": {"ios": "https://dc.lft.to/lastmile_qr_scan", "android": "https://dc.lft.to/lastmile_qr_scan"}, "lat": 38.89223166666667, "lon": -77.02228833333334, "bike_id": "f4ca76e238367c50658c405666112400", "fusion_lat": 0.0, "is_disabled": 0, "fusion_lon": 0.0}, {"name": "6d9b31f7ad95a0b4b1726e370e687960", "is_reserved": 0, "type": "electric_scooter", "rental_uris": {"ios": "https://dc.lft.to/lastmile_qr_scan", "android": "https://dc.lft.to/lastmile_qr_scan"}, "lat": 38.89732583333333, "lon": -77.02689433333333, "bike_id": "6d9b31f7ad95a0b4b1726e370e687960", "fusion_lat": 0.0, "is_disabled": 0, "fusion_lon": 0.0}, {"name": "91071a20e280769ff5c8ea9ac18a9cd2", "is_reserved": 0, "type": "electric_scooter", "rental_uris": {"ios": "https://dc.lft.to/lastmile_qr_scan", "android": "https://dc.lft.to/lastmile_qr_scan"}, "lat": 38.92124716666667, "lon": -76.99386866666667, "bike_id": "91071a20e280769ff5c8ea9ac18a9cd2", "fusion_lat": 0.0, "is_disabled": 0, "fusion_lon": 0.0}, {"name": "a3d68835347b1320c5ea16ab1e78873f", "is_reserved": 0, "type": "electric_scooter", "rental_uris": {"ios": "https://dc.lft.to/lastmile_qr_scan", "android": "https://dc.lft.to/lastmile_qr_scan"}, "lat": 38.95401833333333, "lon": -77.02798616666666, "bike_id": "a3d68835347b1320c5ea16ab1e78873f", "fusion_lat": 0.0, "is_disabled": 0, "fusion_lon": 0.0}, {"name": "54bcb67387f51823c2dd9c759dffa49c", "is_reserved": 0, "type": "electric_scooter", "rental_uris": {"ios": "https://dc.lft.to/lastmile_qr_scan", "android": "https://dc.lft.to/lastmile_qr_scan"}, "lat": 38.92225333333333, "lon": -77.04243733333334, "bike_id": "54bcb67387f51823c2dd9c759dffa49c", "fusion_lat": 0.0, "is_disabled": 0, "fusion_lon": 0.0}, {"name": "530e27aa08c508623f1620f235fd3c2b", "is_reserved": 0, "type": "electric_scooter", "rental_uris": {"ios": "https://dc.lft.to/lastmile_qr_scan", "android": "https://dc.lft.to/lastmile_qr_scan"}, "lat": 38.90831, "lon": -77.0435315, "bike_id": "530e27aa08c508623f1620f235fd3c2b", "fusion_lat": 0.0, "is_disabled": 0, "fusion_lon": 0.0}, {"name": "24fcb5dc47764be9d7bddcfcacdbf35f", "is_reserved": 0, "type": "electric_scooter", "rental_uris": {"ios": "https://dc.lft.to/lastmile_qr_scan", "android": "https://dc.lft.to/lastmile_qr_scan"}, "lat": 38.9042205, "lon": -77.04346566666666, "bike_id": "24fcb5dc47764be9d7bddcfcacdbf35f", "fusion_lat": 0.0, "is_disabled": 0, "fusion_lon": 0.0}, {"name": "6d45972ac04079821cdf901c57f79c9e", "is_reserved": 0, "type": "electric_scooter", "rental_uris": {"ios": "https://dc.lft.to/lastmile_qr_scan", "android": "https://dc.lft.to/lastmile_qr_scan"}, "lat": 38.90414483333333, "lon": -76.981143, "bike_id": "6d45972ac04079821cdf901c57f79c9e", "fusion_lat": 0.0, "is_disabled": 0, "fusion_lon": 0.0}, {"name": "495da477549124a834b47fd9ffb2cc4c", "is_reserved": 0, "type": "electric_scooter", "rental_uris": {"ios": "https://dc.lft.to/lastmile_qr_scan", "android": "https://dc.lft.to/lastmile_qr_scan"}, "lat": 38.9269875, "lon": -77.0209485, "bike_id": "495da477549124a834b47fd9ffb2cc4c", "fusion_lat": 0.0, "is_disabled": 0, "fusion_lon": 0.0}, {"name": "5e2454781162ede2b62bfcbd5a53eb2b", "is_reserved": 0, "type": "electric_scooter", "rental_uris": {"ios": "https://dc.lft.to/lastmile_qr_scan", "android": "https://dc.lft.to/lastmile_qr_scan"}, "lat": 38.915392, "lon": -76.983732, "bike_id": "5e2454781162ede2b62bfcbd5a53eb2b", "fusion_lat": 0.0, "is_disabled": 0, "fusion_lon": 0.0}, {"name": "1877b7ac86da8eb0d4fb0fac0886f514", "is_reserved": 0, "type": "electric_scooter", "rental_uris": {"ios": "https://dc.lft.to/lastmile_qr_scan", "android": "https://dc.lft.to/lastmile_qr_scan"}, "lat": 38.9247635, "lon": -77.03797433333334, "bike_id": "1877b7ac86da8eb0d4fb0fac0886f514", "fusion_lat": 0.0, "is_disabled": 0, "fusion_lon": 0.0}, {"name": "e60451c23d50fdd365c35db497625832", "is_reserved": 0, "type": "electric_scooter", "rental_uris": {"ios": "https://dc.lft.to/lastmile_qr_scan", "android": "https://dc.lft.to/lastmile_qr_scan"}, "lat": 38.8886875, "lon": -76.957164, "bike_id": "e60451c23d50fdd365c35db497625832", "fusion_lat": 0.0, "is_disabled": 0, "fusion_lon": 0.0}, {"name": "501552dc422bb8aaff4832e872c811b7", "is_reserved": 0, "type": "electric_scooter", "rental_uris": {"ios": "https://dc.lft.to/lastmile_qr_scan", "android": "https://dc.lft.to/lastmile_qr_scan"}, "lat": 38.9204775, "lon": -77.03411716666666, "bike_id": "501552dc422bb8aaff4832e872c811b7", "fusion_lat": 0.0, "is_disabled": 0, "fusion_lon": 0.0}, {"name": "2a91699be70c6005c8c4ff2c7879ab8b", "is_reserved": 0, "type": "electric_scooter", "rental_uris": {"ios": "https://dc.lft.to/lastmile_qr_scan", "android": "https://dc.lft.to/lastmile_qr_scan"}, "lat": 38.923000333333334, "lon": -77.04267566666667, "bike_id": "2a91699be70c6005c8c4ff2c7879ab8b", "fusion_lat": 0.0, "is_disabled": 0, "fusion_lon": 0.0}, {"name": "3428f71d62b83fe5f961fbf53f00e0fc", "is_reserved": 0, "type": "electric_scooter", "rental_uris": {"ios": "https://dc.lft.to/lastmile_qr_scan", "android": "https://dc.lft.to/lastmile_qr_scan"}, "lat": 38.899233833333334, "lon": -76.93367283333333, "bike_id": "3428f71d62b83fe5f961fbf53f00e0fc", "fusion_lat": 0.0, "is_disabled": 0, "fusion_lon": 0.0}, {"name": "d51af06279c14a75813bae7a5e98ef21", "is_reserved": 0, "type": "electric_scooter", "rental_uris": {"ios": "https://dc.lft.to/lastmile_qr_scan", "android": "https://dc.lft.to/lastmile_qr_scan"}, "lat": 38.881086333333336, "lon": -77.0165135, "bike_id": "d51af06279c14a75813bae7a5e98ef21", "fusion_lat": 0.0, "is_disabled": 0, "fusion_lon": 0.0}, {"name": "3f23abe8b0ed8bfd7d14aa6fa155cb09", "is_reserved": 0, "type": "electric_scooter", "rental_uris": {"ios": "https://dc.lft.to/lastmile_qr_scan", "android": "https://dc.lft.to/lastmile_qr_scan"}, "lat": 38.90024783333333, "lon": -77.01167766666667, "bike_id": "3f23abe8b0ed8bfd7d14aa6fa155cb09", "fusion_lat": 0.0, "is_disabled": 0, "fusion_lon": 0.0}, {"name": "22b9a7fc72d6a7953a573d50a4558920", "is_reserved": 0, "type": "electric_scooter", "rental_uris": {"ios": "https://dc.lft.to/lastmile_qr_scan", "android": "https://dc.lft.to/lastmile_qr_scan"}, "lat": 38.940881833333336, "lon": -77.02722016666667, "bike_id": "22b9a7fc72d6a7953a573d50a4558920", "fusion_lat": 0.0, "is_disabled": 0, "fusion_lon": 0.0}, {"name": "2ea566247db4aa87d169235d459d04f8", "is_reserved": 0, "type": "electric_bike", "rental_uris": {"ios": "https://dc.lft.to/lastmile_qr_scan", "android": "https://dc.lft.to/lastmile_qr_scan"}, "lat": 38.959599833333336, "lon": -77.10095683333333, "bike_id": "2ea566247db4aa87d169235d459d04f8", "fusion_lat": 0.0, "is_disabled": 0, "fusion_lon": 0.0}, {"name": "bfa9cbc1fc37d8462356958038bc2508", "is_reserved": 0, "type": "electric_scooter", "rental_uris": {"ios": "https://dc.lft.to/lastmile_qr_scan", "android": "https://dc.lft.to/lastmile_qr_scan"}, "lat": 38.9005505, "lon": -76.998284, "bike_id": "bfa9cbc1fc37d8462356958038bc2508", "fusion_lat": 0.0, "is_disabled": 0, "fusion_lon": 0.0}, {"name": "58fd50962d28060381087762f2e5e167", "is_reserved": 0, "type": "electric_scooter", "rental_uris": {"ios": "https://dc.lft.to/lastmile_qr_scan", "android": "https://dc.lft.to/lastmile_qr_scan"}, "lat": 38.89459316666667, "lon": -77.02275033333333, "bike_id": "58fd50962d28060381087762f2e5e167", "fusion_lat": 0.0, "is_disabled": 0, "fusion_lon": 0.0}, {"name": "5ebf3dbf9fb3721bd4113525e807835e", "is_reserved": 0, "type": "electric_scooter", "rental_uris": {"ios": "https://dc.lft.to/lastmile_qr_scan", "android": "https://dc.lft.to/lastmile_qr_scan"}, "lat": 38.90258816666667, "lon": -77.01762216666667, "bike_id": "5ebf3dbf9fb3721bd4113525e807835e", "fusion_lat": 0.0, "is_disabled": 0, "fusion_lon": 0.0}, {"name": "5f676ec4400764a8a840265baf2a9d81", "is_reserved": 0, "type": "electric_scooter", "rental_uris": {"ios": "https://dc.lft.to/lastmile_qr_scan", "android": "https://dc.lft.to/lastmile_qr_scan"}, "lat": 38.9286175, "lon": -77.03271766666667, "bike_id": "5f676ec4400764a8a840265baf2a9d81", "fusion_lat": 0.0, "is_disabled": 0, "fusion_lon": 0.0}, {"name": "1a30cda6afce701ea958c21682022745", "is_reserved": 0, "type": "electric_bike", "rental_uris": {"ios": "https://dc.lft.to/lastmile_qr_scan", "android": "https://dc.lft.to/lastmile_qr_scan"}, "lat": 38.8737855, "lon": -77.11800483333333, "bike_id": "1a30cda6afce701ea958c21682022745", "fusion_lat": 0.0, "is_disabled": 0, "fusion_lon": 0.0}, {"name": "b4c7c51f3e516795f50abc78651cc34d", "is_reserved": 0, "type": "electric_scooter", "rental_uris": {"ios": "https://dc.lft.to/lastmile_qr_scan", "android": "https://dc.lft.to/lastmile_qr_scan"}, "lat": 38.880840166666665, "lon": -76.9853335, "bike_id": "b4c7c51f3e516795f50abc78651cc34d", "fusion_lat": 0.0, "is_disabled": 0, "fusion_lon": 0.0}, {"name": "15ba8a768913aa6bd530811850ebe27a", "is_reserved": 0, "type": "electric_scooter", "rental_uris": {"ios": "https://dc.lft.to/lastmile_qr_scan", "android": "https://dc.lft.to/lastmile_qr_scan"}, "lat": 38.902361, "lon": -77.002075, "bike_id": "15ba8a768913aa6bd530811850ebe27a", "fusion_lat": 0.0, "is_disabled": 0, "fusion_lon": 0.0}, {"name": "0a3182bb4fbe6f67294b3f5cbf1a53af", "is_reserved": 0, "type": "electric_scooter", "rental_uris": {"ios": "https://dc.lft.to/lastmile_qr_scan", "android": "https://dc.lft.to/lastmile_qr_scan"}, "lat": 38.8901365, "lon": -76.93740766666667, "bike_id": "0a3182bb4fbe6f67294b3f5cbf1a53af", "fusion_lat": 0.0, "is_disabled": 0, "fusion_lon": 0.0}, {"name": "bc67cca282eb58e358cbb842051359f8", "is_reserved": 0, "type": "electric_scooter", "rental_uris": {"ios": "https://dc.lft.to/lastmile_qr_scan", "android": "https://dc.lft.to/lastmile_qr_scan"}, "lat": 38.91030116666667, "lon": -76.9972645, "bike_id": "bc67cca282eb58e358cbb842051359f8", "fusion_lat": 0.0, "is_disabled": 0, "fusion_lon": 0.0}, {"name": "56a5f0d29069906ff3b52378baa5122f", "is_reserved": 0, "type": "electric_scooter", "rental_uris": {"ios": "https://dc.lft.to/lastmile_qr_scan", "android": "https://dc.lft.to/lastmile_qr_scan"}, "lat": 38.87629883333334, "lon": -76.965321, "bike_id": "56a5f0d29069906ff3b52378baa5122f", "fusion_lat": 0.0, "is_disabled": 0, "fusion_lon": 0.0}, {"name": "3005ce8fb2598c8bb25856b64000244f", "is_reserved": 0, "type": "electric_scooter", "rental_uris": {"ios": "https://dc.lft.to/lastmile_qr_scan", "android": "https://dc.lft.to/lastmile_qr_scan"}, "lat": 38.9159365, "lon": -77.01134216666667, "bike_id": "3005ce8fb2598c8bb25856b64000244f", "fusion_lat": 0.0, "is_disabled": 0, "fusion_lon": 0.0}, {"name": "8fff94b0f25a079ccfd9612c25229293", "is_reserved": 0, "type": "electric_scooter", "rental_uris": {"ios": "https://dc.lft.to/lastmile_qr_scan", "android": "https://dc.lft.to/lastmile_qr_scan"}, "lat": 38.9169085, "lon": -77.02292083333333, "bike_id": "8fff94b0f25a079ccfd9612c25229293", "fusion_lat": 0.0, "is_disabled": 0, "fusion_lon": 0.0}, {"name": "66ba7bc6dfb09253b102663cdd3d8722", "is_reserved": 0, "type": "electric_scooter", "rental_uris": {"ios": "https://dc.lft.to/lastmile_qr_scan", "android": "https://dc.lft.to/lastmile_qr_scan"}, "lat": 38.883380333333335, "lon": -76.99162733333333, "bike_id": "66ba7bc6dfb09253b102663cdd3d8722", "fusion_lat": 0.0, "is_disabled": 0, "fusion_lon": 0.0}, {"name": "2f2f69f3c27d84c3f0e2805fb44151eb", "is_reserved": 0, "type": "electric_scooter", "rental_uris": {"ios": "https://dc.lft.to/lastmile_qr_scan", "android": "https://dc.lft.to/lastmile_qr_scan"}, "lat": 38.93451966666667, "lon": -77.0298035, "bike_id": "2f2f69f3c27d84c3f0e2805fb44151eb", "fusion_lat": 0.0, "is_disabled": 0, "fusion_lon": 0.0}, {"name": "b3e9ab92eb9107c80b5f3093bfb2e468", "is_reserved": 0, "type": "electric_scooter", "rental_uris": {"ios": "https://dc.lft.to/lastmile_qr_scan", "android": "https://dc.lft.to/lastmile_qr_scan"}, "lat": 38.911255, "lon": -77.04032766666667, "bike_id": "b3e9ab92eb9107c80b5f3093bfb2e468", "fusion_lat": 0.0, "is_disabled": 0, "fusion_lon": 0.0}, {"name": "080b4897e1bf2bd970212165987c3b82", "is_reserved": 0, "type": "electric_bike", "rental_uris": {"ios": "https://dc.lft.to/lastmile_qr_scan", "android": "https://dc.lft.to/lastmile_qr_scan"}, "lat": 38.996073, "lon": -77.07796366666666, "bike_id": "080b4897e1bf2bd970212165987c3b82", "fusion_lat": 0.0, "is_disabled": 0, "fusion_lon": 0.0}, {"name": "638f3f0cb7f7949acd183838771d6c02", "is_reserved": 0, "type": "electric_scooter", "rental_uris": {"ios": "https://dc.lft.to/lastmile_qr_scan", "android": "https://dc.lft.to/lastmile_qr_scan"}, "lat": 38.90017533333334, "lon": -76.999288, "bike_id": "638f3f0cb7f7949acd183838771d6c02", "fusion_lat": 0.0, "is_disabled": 0, "fusion_lon": 0.0}, {"name": "571e5044c4b4fce5a926a44dfc51dea4", "is_reserved": 0, "type": "electric_scooter", "rental_uris": {"ios": "https://dc.lft.to/lastmile_qr_scan", "android": "https://dc.lft.to/lastmile_qr_scan"}, "lat": 38.90963416666666, "lon": -77.0228465, "bike_id": "571e5044c4b4fce5a926a44dfc51dea4", "fusion_lat": 0.0, "is_disabled": 0, "fusion_lon": 0.0}, {"name": "5b540ccd57d5215b3d3d797b1d78974b", "is_reserved": 0, "type": "electric_scooter", "rental_uris": {"ios": "https://dc.lft.to/lastmile_qr_scan", "android": "https://dc.lft.to/lastmile_qr_scan"}, "lat": 38.863082666666664, "lon": -76.9827475, "bike_id": "5b540ccd57d5215b3d3d797b1d78974b", "fusion_lat": 0.0, "is_disabled": 0, "fusion_lon": 0.0}, {"name": "01bb906f08533c57182158e6b433bb20", "is_reserved": 0, "type": "electric_scooter", "rental_uris": {"ios": "https://dc.lft.to/lastmile_qr_scan", "android": "https://dc.lft.to/lastmile_qr_scan"}, "lat": 38.91076416666667, "lon": -77.02296, "bike_id": "01bb906f08533c57182158e6b433bb20", "fusion_lat": 0.0, "is_disabled": 0, "fusion_lon": 0.0}, {"name": "78634619ebf6ecaafab3d09045fae240", "is_reserved": 0, "type": "electric_scooter", "rental_uris": {"ios": "https://dc.lft.to/lastmile_qr_scan", "android": "https://dc.lft.to/lastmile_qr_scan"}, "lat": 38.949605, "lon": -77.02723366666666, "bike_id": "78634619ebf6ecaafab3d09045fae240", "fusion_lat": 0.0, "is_disabled": 0, "fusion_lon": 0.0}, {"name": "17b2e591cfe9b0f5c431cb6eb399d29f", "is_reserved": 0, "type": "electric_scooter", "rental_uris": {"ios": "https://dc.lft.to/lastmile_qr_scan", "android": "https://dc.lft.to/lastmile_qr_scan"}, "lat": 38.91564566666667, "lon": -77.0521255, "bike_id": "17b2e591cfe9b0f5c431cb6eb399d29f", "fusion_lat": 0.0, "is_disabled": 0, "fusion_lon": 0.0}, {"name": "53d8414970dfcbfcb3e8b59876c744b2", "is_reserved": 0, "type": "electric_scooter", "rental_uris": {"ios": "https://dc.lft.to/lastmile_qr_scan", "android": "https://dc.lft.to/lastmile_qr_scan"}, "lat": 38.90259783333333, "lon": -77.00891566666667, "bike_id": "53d8414970dfcbfcb3e8b59876c744b2", "fusion_lat": 0.0, "is_disabled": 0, "fusion_lon": 0.0}, {"name": "e32d7a0aae15b423b90187923a6db21a", "is_reserved": 0, "type": "electric_scooter", "rental_uris": {"ios": "https://dc.lft.to/lastmile_qr_scan", "android": "https://dc.lft.to/lastmile_qr_scan"}, "lat": 38.896126333333335, "lon": -77.03032333333333, "bike_id": "e32d7a0aae15b423b90187923a6db21a", "fusion_lat": 0.0, "is_disabled": 0, "fusion_lon": 0.0}, {"name": "715995dd361b5bddff7d1f58788b1ca4", "is_reserved": 0, "type": "electric_scooter", "rental_uris": {"ios": "https://dc.lft.to/lastmile_qr_scan", "android": "https://dc.lft.to/lastmile_qr_scan"}, "lat": 38.9381345, "lon": -77.02420533333333, "bike_id": "715995dd361b5bddff7d1f58788b1ca4", "fusion_lat": 0.0, "is_disabled": 0, "fusion_lon": 0.0}, {"name": "52abf4acc2630005a2559f6b3bec8157", "is_reserved": 0, "type": "electric_scooter", "rental_uris": {"ios": "https://dc.lft.to/lastmile_qr_scan", "android": "https://dc.lft.to/lastmile_qr_scan"}, "lat": 38.886736166666665, "lon": -76.936161, "bike_id": "52abf4acc2630005a2559f6b3bec8157", "fusion_lat": 0.0, "is_disabled": 0, "fusion_lon": 0.0}, {"name": "a4552b6af3f4bf3867cf0a0c4408edbc", "is_reserved": 0, "type": "electric_scooter", "rental_uris": {"ios": "https://dc.lft.to/lastmile_qr_scan", "android": "https://dc.lft.to/lastmile_qr_scan"}, "lat": 38.909066833333334, "lon": -76.9977185, "bike_id": "a4552b6af3f4bf3867cf0a0c4408edbc", "fusion_lat": 0.0, "is_disabled": 0, "fusion_lon": 0.0}, {"name": "b76e0072e4b737f3c9f32bc337bb5a74", "is_reserved": 0, "type": "electric_scooter", "rental_uris": {"ios": "https://dc.lft.to/lastmile_qr_scan", "android": "https://dc.lft.to/lastmile_qr_scan"}, "lat": 38.927247333333334, "lon": -77.03666883333334, "bike_id": "b76e0072e4b737f3c9f32bc337bb5a74", "fusion_lat": 0.0, "is_disabled": 0, "fusion_lon": 0.0}, {"name": "800d84e263973f67422c45468b146861", "is_reserved": 0, "type": "electric_scooter", "rental_uris": {"ios": "https://dc.lft.to/lastmile_qr_scan", "android": "https://dc.lft.to/lastmile_qr_scan"}, "lat": 38.913894166666665, "lon": -77.0045895, "bike_id": "800d84e263973f67422c45468b146861", "fusion_lat": 0.0, "is_disabled": 0, "fusion_lon": 0.0}, {"name": "88b344a1153f915be5aea086b145ed9e", "is_reserved": 0, "type": "electric_scooter", "rental_uris": {"ios": "https://dc.lft.to/lastmile_qr_scan", "android": "https://dc.lft.to/lastmile_qr_scan"}, "lat": 38.92515483333333, "lon": -77.038194, "bike_id": "88b344a1153f915be5aea086b145ed9e", "fusion_lat": 0.0, "is_disabled": 0, "fusion_lon": 0.0}, {"name": "68727b64aa146bf4019a56122a0e84b3", "is_reserved": 0, "type": "electric_scooter", "rental_uris": {"ios": "https://dc.lft.to/lastmile_qr_scan", "android": "https://dc.lft.to/lastmile_qr_scan"}, "lat": 38.9288485, "lon": -77.03324183333334, "bike_id": "68727b64aa146bf4019a56122a0e84b3", "fusion_lat": 0.0, "is_disabled": 0, "fusion_lon": 0.0}, {"name": "07c5db71378cd6239614ff8f8ffb7bc0", "is_reserved": 0, "type": "electric_scooter", "rental_uris": {"ios": "https://dc.lft.to/lastmile_qr_scan", "android": "https://dc.lft.to/lastmile_qr_scan"}, "lat": 38.8973165, "lon": -77.02685266666667, "bike_id": "07c5db71378cd6239614ff8f8ffb7bc0", "fusion_lat": 0.0, "is_disabled": 0, "fusion_lon": 0.0}, {"name": "8835d456416398ae026a51c5f6168c63", "is_reserved": 0, "type": "electric_scooter", "rental_uris": {"ios": "https://dc.lft.to/lastmile_qr_scan", "android": "https://dc.lft.to/lastmile_qr_scan"}, "lat": 38.90711016666667, "lon": -77.02391433333334, "bike_id": "8835d456416398ae026a51c5f6168c63", "fusion_lat": 0.0, "is_disabled": 0, "fusion_lon": 0.0}, {"name": "9977554f174f2b507a04bea375a4080d", "is_reserved": 0, "type": "electric_scooter", "rental_uris": {"ios": "https://dc.lft.to/lastmile_qr_scan", "android": "https://dc.lft.to/lastmile_qr_scan"}, "lat": 38.93262166666667, "lon": -77.0294035, "bike_id": "9977554f174f2b507a04bea375a4080d", "fusion_lat": 0.0, "is_disabled": 0, "fusion_lon": 0.0}, {"name": "3424c495808aad935ce48a05eeb78fb9", "is_reserved": 0, "type": "electric_scooter", "rental_uris": {"ios": "https://dc.lft.to/lastmile_qr_scan", "android": "https://dc.lft.to/lastmile_qr_scan"}, "lat": 38.92371333333333, "lon": -77.01818016666667, "bike_id": "3424c495808aad935ce48a05eeb78fb9", "fusion_lat": 0.0, "is_disabled": 0, "fusion_lon": 0.0}, {"name": "12a2473d87b6efde9713d3e1df0461d6", "is_reserved": 0, "type": "electric_scooter", "rental_uris": {"ios": "https://dc.lft.to/lastmile_qr_scan", "android": "https://dc.lft.to/lastmile_qr_scan"}, "lat": 38.93479166666667, "lon": -77.07274633333333, "bike_id": "12a2473d87b6efde9713d3e1df0461d6", "fusion_lat": 0.0, "is_disabled": 0, "fusion_lon": 0.0}, {"name": "1ef74eb0b81d6af93e8027af31b177bc", "is_reserved": 0, "type": "electric_scooter", "rental_uris": {"ios": "https://dc.lft.to/lastmile_qr_scan", "android": "https://dc.lft.to/lastmile_qr_scan"}, "lat": 38.87554683333333, "lon": -77.00623233333333, "bike_id": "1ef74eb0b81d6af93e8027af31b177bc", "fusion_lat": 0.0, "is_disabled": 0, "fusion_lon": 0.0}, {"name": "bb9ff79205cb507188603fba11fd7146", "is_reserved": 0, "type": "electric_scooter", "rental_uris": {"ios": "https://dc.lft.to/lastmile_qr_scan", "android": "https://dc.lft.to/lastmile_qr_scan"}, "lat": 38.91115466666667, "lon": -77.03810466666667, "bike_id": "bb9ff79205cb507188603fba11fd7146", "fusion_lat": 0.0, "is_disabled": 0, "fusion_lon": 0.0}, {"name": "7120af4fc868bd1b33745bf066160783", "is_reserved": 0, "type": "electric_scooter", "rental_uris": {"ios": "https://dc.lft.to/lastmile_qr_scan", "android": "https://dc.lft.to/lastmile_qr_scan"}, "lat": 38.900479833333335, "lon": -77.00070633333333, "bike_id": "7120af4fc868bd1b33745bf066160783", "fusion_lat": 0.0, "is_disabled": 0, "fusion_lon": 0.0}, {"name": "756bfa6122f750b700f30badfe4e282c", "is_reserved": 0, "type": "electric_scooter", "rental_uris": {"ios": "https://dc.lft.to/lastmile_qr_scan", "android": "https://dc.lft.to/lastmile_qr_scan"}, "lat": 38.92321783333333, "lon": -77.03669133333334, "bike_id": "756bfa6122f750b700f30badfe4e282c", "fusion_lat": 0.0, "is_disabled": 0, "fusion_lon": 0.0}, {"name": "77d05a8e1d7fca0c53cc7c2dc8001588", "is_reserved": 0, "type": "electric_bike", "rental_uris": {"ios": "https://dc.lft.to/lastmile_qr_scan", "android": "https://dc.lft.to/lastmile_qr_scan"}, "lat": 38.90367766666667, "lon": -77.1059805, "bike_id": "77d05a8e1d7fca0c53cc7c2dc8001588", "fusion_lat": 0.0, "is_disabled": 0, "fusion_lon": 0.0}, {"name": "3d96c0c8a6d56c6cdb37d1f794d3040e", "is_reserved": 0, "type": "electric_scooter", "rental_uris": {"ios": "https://dc.lft.to/lastmile_qr_scan", "android": "https://dc.lft.to/lastmile_qr_scan"}, "lat": 38.913602166666664, "lon": -77.04407983333333, "bike_id": "3d96c0c8a6d56c6cdb37d1f794d3040e", "fusion_lat": 0.0, "is_disabled": 0, "fusion_lon": 0.0}, {"name": "85966933924a9bd29f1b6fbdf27553f4", "is_reserved": 0, "type": "electric_scooter", "rental_uris": {"ios": "https://dc.lft.to/lastmile_qr_scan", "android": "https://dc.lft.to/lastmile_qr_scan"}, "lat": 38.934905666666666, "lon": -77.07272016666667, "bike_id": "85966933924a9bd29f1b6fbdf27553f4", "fusion_lat": 0.0, "is_disabled": 0, "fusion_lon": 0.0}, {"name": "07ecaf31fa89bc0701cee20dc4375c1f", "is_reserved": 0, "type": "electric_scooter", "rental_uris": {"ios": "https://dc.lft.to/lastmile_qr_scan", "android": "https://dc.lft.to/lastmile_qr_scan"}, "lat": 38.909694333333334, "lon": -77.03374066666667, "bike_id": "07ecaf31fa89bc0701cee20dc4375c1f", "fusion_lat": 0.0, "is_disabled": 0, "fusion_lon": 0.0}, {"name": "a8b6fc2c4cf41939b53e7db9d75ca498", "is_reserved": 0, "type": "electric_scooter", "rental_uris": {"ios": "https://dc.lft.to/lastmile_qr_scan", "android": "https://dc.lft.to/lastmile_qr_scan"}, "lat": 38.915544, "lon": -77.0317355, "bike_id": "a8b6fc2c4cf41939b53e7db9d75ca498", "fusion_lat": 0.0, "is_disabled": 0, "fusion_lon": 0.0}, {"name": "54797c098c096a28ffbd3e3cf0f5c40e", "is_reserved": 0, "type": "electric_bike", "rental_uris": {"ios": "https://dc.lft.to/lastmile_qr_scan", "android": "https://dc.lft.to/lastmile_qr_scan"}, "lat": 38.96209616666667, "lon": -77.03514033333333, "bike_id": "54797c098c096a28ffbd3e3cf0f5c40e", "fusion_lat": 0.0, "is_disabled": 0, "fusion_lon": 0.0}, {"name": "12d69b48256618d5b63a6e868a3f12ba", "is_reserved": 0, "type": "electric_bike", "rental_uris": {"ios": "https://dc.lft.to/lastmile_qr_scan", "android": "https://dc.lft.to/lastmile_qr_scan"}, "lat": 38.950683, "lon": -77.06657266666667, "bike_id": "12d69b48256618d5b63a6e868a3f12ba", "fusion_lat": 0.0, "is_disabled": 0, "fusion_lon": 0.0}, {"name": "72085acd2404aa7e4bf5caee920e4482", "is_reserved": 0, "type": "electric_scooter", "rental_uris": {"ios": "https://dc.lft.to/lastmile_qr_scan", "android": "https://dc.lft.to/lastmile_qr_scan"}, "lat": 38.909626, "lon": -77.045455, "bike_id": "72085acd2404aa7e4bf5caee920e4482", "fusion_lat": 0.0, "is_disabled": 0, "fusion_lon": 0.0}, {"name": "ef112bd2eef46a9f6f63995589eed383", "is_reserved": 0, "type": "electric_scooter", "rental_uris": {"ios": "https://dc.lft.to/lastmile_qr_scan", "android": "https://dc.lft.to/lastmile_qr_scan"}, "lat": 38.9200325, "lon": -77.0240525, "bike_id": "ef112bd2eef46a9f6f63995589eed383", "fusion_lat": 0.0, "is_disabled": 0, "fusion_lon": 0.0}, {"name": "b058a9056eb67bc80e1b15f99ce264ac", "is_reserved": 0, "type": "electric_bike", "rental_uris": {"ios": "https://dc.lft.to/lastmile_qr_scan", "android": "https://dc.lft.to/lastmile_qr_scan"}, "lat": 38.910145166666666, "lon": -77.22799033333334, "bike_id": "b058a9056eb67bc80e1b15f99ce264ac", "fusion_lat": 0.0, "is_disabled": 0, "fusion_lon": 0.0}, {"name": "3671f937ef8cb2760510aaa1e45d1e7c", "is_reserved": 0, "type": "electric_bike", "rental_uris": {"ios": "https://dc.lft.to/lastmile_qr_scan", "android": "https://dc.lft.to/lastmile_qr_scan"}, "lat": 38.838134, "lon": -77.095225, "bike_id": "3671f937ef8cb2760510aaa1e45d1e7c", "fusion_lat": 0.0, "is_disabled": 0, "fusion_lon": 0.0}, {"name": "5dda814d7e0a77edf2bc31cbb33a8eb5", "is_reserved": 0, "type": "electric_scooter", "rental_uris": {"ios": "https://dc.lft.to/lastmile_qr_scan", "android": "https://dc.lft.to/lastmile_qr_scan"}, "lat": 38.89535033333333, "lon": -77.03206616666667, "bike_id": "5dda814d7e0a77edf2bc31cbb33a8eb5", "fusion_lat": 0.0, "is_disabled": 0, "fusion_lon": 0.0}, {"name": "f4337737b5116bbe8118f376ea4d7ee2", "is_reserved": 0, "type": "electric_scooter", "rental_uris": {"ios": "https://dc.lft.to/lastmile_qr_scan", "android": "https://dc.lft.to/lastmile_qr_scan"}, "lat": 38.90358633333334, "lon": -77.0434275, "bike_id": "f4337737b5116bbe8118f376ea4d7ee2", "fusion_lat": 0.0, "is_disabled": 0, "fusion_lon": 0.0}, {"name": "155d7eb7a2595a05ad3e93d37f9329ab", "is_reserved": 0, "type": "electric_scooter", "rental_uris": {"ios": "https://dc.lft.to/lastmile_qr_scan", "android": "https://dc.lft.to/lastmile_qr_scan"}, "lat": 38.9750355, "lon": -77.0169465, "bike_id": "155d7eb7a2595a05ad3e93d37f9329ab", "fusion_lat": 0.0, "is_disabled": 0, "fusion_lon": 0.0}, {"name": "d644d767a343f1c69466d81cef515abf", "is_reserved": 0, "type": "electric_scooter", "rental_uris": {"ios": "https://dc.lft.to/lastmile_qr_scan", "android": "https://dc.lft.to/lastmile_qr_scan"}, "lat": 38.90549083333333, "lon": -77.04299166666667, "bike_id": "d644d767a343f1c69466d81cef515abf", "fusion_lat": 0.0, "is_disabled": 0, "fusion_lon": 0.0}, {"name": "d2ac3298c205629d7e386611d66ce822", "is_reserved": 0, "type": "electric_scooter", "rental_uris": {"ios": "https://dc.lft.to/lastmile_qr_scan", "android": "https://dc.lft.to/lastmile_qr_scan"}, "lat": 38.91079766666667, "lon": -77.04080583333334, "bike_id": "d2ac3298c205629d7e386611d66ce822", "fusion_lat": 0.0, "is_disabled": 0, "fusion_lon": 0.0}, {"name": "b8535b085a38a564ed46c8e6e69f00b7", "is_reserved": 0, "type": "electric_scooter", "rental_uris": {"ios": "https://dc.lft.to/lastmile_qr_scan", "android": "https://dc.lft.to/lastmile_qr_scan"}, "lat": 38.890946666666665, "lon": -76.99605383333333, "bike_id": "b8535b085a38a564ed46c8e6e69f00b7", "fusion_lat": 0.0, "is_disabled": 0, "fusion_lon": 0.0}, {"name": "2fafc4531488c2924268188c73a37a96", "is_reserved": 0, "type": "electric_scooter", "rental_uris": {"ios": "https://dc.lft.to/lastmile_qr_scan", "android": "https://dc.lft.to/lastmile_qr_scan"}, "lat": 38.911067833333334, "lon": -77.04832083333334, "bike_id": "2fafc4531488c2924268188c73a37a96", "fusion_lat": 0.0, "is_disabled": 0, "fusion_lon": 0.0}, {"name": "c0022395c19646c2597f4a1cd89488e4", "is_reserved": 0, "type": "electric_scooter", "rental_uris": {"ios": "https://dc.lft.to/lastmile_qr_scan", "android": "https://dc.lft.to/lastmile_qr_scan"}, "lat": 38.89077183333333, "lon": -76.98829566666667, "bike_id": "c0022395c19646c2597f4a1cd89488e4", "fusion_lat": 0.0, "is_disabled": 0, "fusion_lon": 0.0}, {"name": "c2d763f01c17e6df511e7cf60cceb558", "is_reserved": 0, "type": "electric_scooter", "rental_uris": {"ios": "https://dc.lft.to/lastmile_qr_scan", "android": "https://dc.lft.to/lastmile_qr_scan"}, "lat": 38.89472633333333, "lon": -77.01119233333333, "bike_id": "c2d763f01c17e6df511e7cf60cceb558", "fusion_lat": 0.0, "is_disabled": 0, "fusion_lon": 0.0}, {"name": "609807a6924d91a256e942ccebb6dff9", "is_reserved": 0, "type": "electric_scooter", "rental_uris": {"ios": "https://dc.lft.to/lastmile_qr_scan", "android": "https://dc.lft.to/lastmile_qr_scan"}, "lat": 38.9155835, "lon": -77.02969883333333, "bike_id": "609807a6924d91a256e942ccebb6dff9", "fusion_lat": 0.0, "is_disabled": 0, "fusion_lon": 0.0}, {"name": "db8ac34459622b44c394386cb2a518cb", "is_reserved": 0, "type": "electric_scooter", "rental_uris": {"ios": "https://dc.lft.to/lastmile_qr_scan", "android": "https://dc.lft.to/lastmile_qr_scan"}, "lat": 38.91263383333333, "lon": -77.039999, "bike_id": "db8ac34459622b44c394386cb2a518cb", "fusion_lat": 0.0, "is_disabled": 0, "fusion_lon": 0.0}, {"name": "799ad68c3a8840a9335751aaf38151d0", "is_reserved": 0, "type": "electric_scooter", "rental_uris": {"ios": "https://dc.lft.to/lastmile_qr_scan", "android": "https://dc.lft.to/lastmile_qr_scan"}, "lat": 38.95726533333333, "lon": -77.00242483333334, "bike_id": "799ad68c3a8840a9335751aaf38151d0", "fusion_lat": 0.0, "is_disabled": 0, "fusion_lon": 0.0}, {"name": "ff21314020d5539bb30a578ec8b56c5e", "is_reserved": 0, "type": "electric_scooter", "rental_uris": {"ios": "https://dc.lft.to/lastmile_qr_scan", "android": "https://dc.lft.to/lastmile_qr_scan"}, "lat": 38.91426216666667, "lon": -77.03207283333333, "bike_id": "ff21314020d5539bb30a578ec8b56c5e", "fusion_lat": 0.0, "is_disabled": 0, "fusion_lon": 0.0}, {"name": "445c4fce49275feeb6abe68d91061095", "is_reserved": 0, "type": "electric_scooter", "rental_uris": {"ios": "https://dc.lft.to/lastmile_qr_scan", "android": "https://dc.lft.to/lastmile_qr_scan"}, "lat": 38.9211365, "lon": -76.99408233333334, "bike_id": "445c4fce49275feeb6abe68d91061095", "fusion_lat": 0.0, "is_disabled": 0, "fusion_lon": 0.0}, {"name": "6591e7391f838f6a8befbe8e69e62503", "is_reserved": 0, "type": "electric_scooter", "rental_uris": {"ios": "https://dc.lft.to/lastmile_qr_scan", "android": "https://dc.lft.to/lastmile_qr_scan"}, "lat": 38.862600666666665, "lon": -76.99550316666667, "bike_id": "6591e7391f838f6a8befbe8e69e62503", "fusion_lat": 0.0, "is_disabled": 0, "fusion_lon": 0.0}, {"name": "14e9e32baee21d2b91e36c4373f02c61", "is_reserved": 0, "type": "electric_bike", "rental_uris": {"ios": "https://dc.lft.to/lastmile_qr_scan", "android": "https://dc.lft.to/lastmile_qr_scan"}, "lat": 38.975772666666664, "lon": -77.01959416666666, "bike_id": "14e9e32baee21d2b91e36c4373f02c61", "fusion_lat": 0.0, "is_disabled": 0, "fusion_lon": 0.0}, {"name": "6387aa53c39947edb17f8b5a70d8e80e", "is_reserved": 0, "type": "electric_scooter", "rental_uris": {"ios": "https://dc.lft.to/lastmile_qr_scan", "android": "https://dc.lft.to/lastmile_qr_scan"}, "lat": 38.89382, "lon": -76.950234, "bike_id": "6387aa53c39947edb17f8b5a70d8e80e", "fusion_lat": 0.0, "is_disabled": 0, "fusion_lon": 0.0}, {"name": "a5bd595117e47a7d2f1afeed21acd2ca", "is_reserved": 0, "type": "electric_scooter", "rental_uris": {"ios": "https://dc.lft.to/lastmile_qr_scan", "android": "https://dc.lft.to/lastmile_qr_scan"},