{"data": {"bikes": [{"type": "electric_scooter", "rental_uris": {"ios": "https://dc.lft.to/lastmile_qr_scan", "android": "https://dc.lft.to/lastmile_qr_scan"}, "lon": -77.01683916666667, "fusion_lon": 0.0, "is_disabled": 0, "lat": 38.907154, "bike_id": "90f7be331ca023f8cb44fb7f21563725", "name": "90f7be331ca023f8cb44fb7f21563725", "is_reserved": 0, "fusion_lat": 0.0}, {"type": "electric_scooter", "rental_uris": {"ios": "https://dc.lft.to/lastmile_qr_scan", "android": "https://dc.lft.to/lastmile_qr_scan"}, "lon": -76.931858, "fusion_lon": 0.0, "is_disabled": 0, "lat": 38.89875833333333, "bike_id": "25ee5346f12719aedc2d98e02222e314", "name": "25ee5346f12719aedc2d98e02222e314", "is_reserved": 0, "fusion_lat": 0.0}, {"type": "electric_scooter", "rental_uris": {"ios": "https://dc.lft.to/lastmile_qr_scan", "android": "https://dc.lft.to/lastmile_qr_scan"}, "lon": -77.030926, "fusion_lon": 0.0, "is_disabled": 0, "lat": 38.879134666666666, "bike_id": "81760ec22cd862c9b73274c59f184db6", "name": "81760ec22cd862c9b73274c59f184db6", "is_reserved": 0, "fusion_lat": 0.0}, {"type": "electric_bike", "rental_uris": {"ios": "https://dc.lft.to/lastmile_qr_scan", "android": "https://dc.lft.to/lastmile_qr_scan"}, "lon": -77.10130316666667, "fusion_lon": 0.0, "is_disabled": 0, "lat": 38.85205083333334, "bike_id": "88470420cd15e9c88ee83fb7006b119a", "name": "88470420cd15e9c88ee83fb7006b119a", "is_reserved": 0, "fusion_lat": 0.0}, {"type": "electric_scooter", "rental_uris": {"ios": "https://dc.lft.to/lastmile_qr_scan", "android": "https://dc.lft.to/lastmile_qr_scan"}, "lon": -77.02718, "fusion_lon": 0.0, "is_disabled": 0, "lat": 38.924792333333336, "bike_id": "be523b1317549d93f1a50e1da1a30e8a", "name": "be523b1317549d93f1a50e1da1a30e8a", "is_reserved": 0, "fusion_lat": 0.0}, {"type": "electric_scooter", "rental_uris": {"ios": "https://dc.lft.to/lastmile_qr_scan", "android": "https://dc.lft.to/lastmile_qr_scan"}, "lon": -77.0267, "fusion_lon": 0.0, "is_disabled": 0, "lat": 38.91709616666667, "bike_id": "ec991616065f84a1dbc8ccea58004a54", "name": "ec991616065f84a1dbc8ccea58004a54", "is_reserved": 0, "fusion_lat": 0.0}, {"type": "electric_scooter", "rental_uris": {"ios": "https://dc.lft.to/lastmile_qr_scan", "android": "https://dc.lft.to/lastmile_qr_scan"}, "lon": -77.01488366666666, "fusion_lon": 0.0, "is_disabled": 0, "lat": 38.888110833333336, "bike_id": "a06511a3de2af958ed2bdbb20109f3b7", "name": "a06511a3de2af958ed2bdbb20109f3b7", "is_reserved": 0, "fusion_lat": 0.0}, {"type": "electric_bike", "rental_uris": {"ios": "https://dc.lft.to/lastmile_qr_scan", "android": "https://dc.lft.to/lastmile_qr_scan"}, "lon": -77.06971333333334, "fusion_lon": 0.0, "is_disabled": 0, "lat": 38.970813666666665, "bike_id": "91ffd126935802009fbf1522326d1342", "name": "91ffd126935802009fbf1522326d1342", "is_reserved": 0, "fusion_lat": 0.0}, {"type": "electric_scooter", "rental_uris": {"ios": "https://dc.lft.to/lastmile_qr_scan", "android": "https://dc.lft.to/lastmile_qr_scan"}, "lon": -77.04194166666667, "fusion_lon": 0.0, "is_disabled": 0, "lat": 38.9056755, "bike_id": "93bff0267ef11766ec161ce71421f18b", "name": "93bff0267ef11766ec161ce71421f18b", "is_reserved": 0, "fusion_lat": 0.0}, {"type": "electric_scooter", "rental_uris": {"ios": "https://dc.lft.to/lastmile_qr_scan", "android": "https://dc.lft.to/lastmile_qr_scan"}, "lon": -77.00048333333334, "fusion_lon": 0.0, "is_disabled": 0, "lat": 38.90026366666667, "bike_id": "928c95d927754445fa5578472ae7faa0", "name": "928c95d927754445fa5578472ae7faa0", "is_reserved": 0, "fusion_lat": 0.0}, {"type": "electric_scooter", "rental_uris": {"ios": "https://dc.lft.to/lastmile_qr_scan", "android": "https://dc.lft.to/lastmile_qr_scan"}, "lon": -77.0270695, "fusion_lon": 0.0, "is_disabled": 0, "lat": 38.9181265, "bike_id": "5380836c6ff3956c4487b353b90e6971", "name": "5380836c6ff3956c4487b353b90e6971", "is_reserved": 0, "fusion_lat": 0.0}, {"type": "electric_scooter", "rental_uris": {"ios": "https://dc.lft.to/lastmile_qr_scan", "android": "https://dc.lft.to/lastmile_qr_scan"}, "lon": -77.026976, "fusion_lon": 0.0, "is_disabled": 0, "lat": 38.90672433333334, "bike_id": "d9d58603b89401cbaa32f867f2f7cb41", "name": "d9d58603b89401cbaa32f867f2f7cb41", "is_reserved": 0, "fusion_lat": 0.0}, {"type": "electric_scooter", "rental_uris": {"ios": "https://dc.lft.to/lastmile_qr_scan", "android": "https://dc.lft.to/lastmile_qr_scan"}, "lon": -77.02906933333334, "fusion_lon": 0.0, "is_disabled": 0, "lat": 38.925662, "bike_id": "574b4fbfa818419f7d2e66a640bb4dc0", "name": "574b4fbfa818419f7d2e66a640bb4dc0", "is_reserved": 0, "fusion_lat": 0.0}, {"type": "electric_scooter", "rental_uris": {"ios": "https://dc.lft.to/lastmile_qr_scan", "android": "https://dc.lft.to/lastmile_qr_scan"}, "lon": -77.0261345, "fusion_lon": 0.0, "is_disabled": 0, "lat": 38.905574666666666, "bike_id": "70867c2e949fd2519fac0566e6ce9c09", "name": "70867c2e949fd2519fac0566e6ce9c09", "is_reserved": 0, "fusion_lat": 0.0}, {"type": "electric_scooter", "rental_uris": {"ios": "https://dc.lft.to/lastmile_qr_scan", "android": "https://dc.lft.to/lastmile_qr_scan"}, "lon": -77.034079, "fusion_lon": 0.0, "is_disabled": 0, "lat": 38.9312285, "bike_id": "edf03f875dbaede2c02cef584a418661", "name": "edf03f875dbaede2c02cef584a418661", "is_reserved": 0, "fusion_lat": 0.0}, {"type": "electric_scooter", "rental_uris": {"ios": "https://dc.lft.to/lastmile_qr_scan", "android": "https://dc.lft.to/lastmile_qr_scan"}, "lon": -77.04546766666667, "fusion_lon": 0.0, "is_disabled": 0, "lat": 38.913174, "bike_id": "c10b9125c300db3540de4eaa25cd8cfa", "name": "c10b9125c300db3540de4eaa25cd8cfa", "is_reserved": 0, "fusion_lat": 0.0}, {"type": "electric_scooter", "rental_uris": {"ios": "https://dc.lft.to/lastmile_qr_scan", "android": "https://dc.lft.to/lastmile_qr_scan"}, "lon": -77.01654883333333, "fusion_lon": 0.0, "is_disabled": 0, "lat": 38.91052616666666, "bike_id": "8e4034a80770ece0afb7b3a2575d6ca7", "name": "8e4034a80770ece0afb7b3a2575d6ca7", "is_reserved": 0, "fusion_lat": 0.0}, {"type": "electric_scooter", "rental_uris": {"ios": "https://dc.lft.to/lastmile_qr_scan", "android": "https://dc.lft.to/lastmile_qr_scan"}, "lon": -77.04333783333334, "fusion_lon": 0.0, "is_disabled": 0, "lat": 38.9079425, "bike_id": "95400f8d0caec05630433f890ba783a6", "name": "95400f8d0caec05630433f890ba783a6", "is_reserved": 0, "fusion_lat": 0.0}, {"type": "electric_bike", "rental_uris": {"ios": "https://dc.lft.to/lastmile_qr_scan", "android": "https://dc.lft.to/lastmile_qr_scan"}, "lon": -76.92480633333334, "fusion_lon": 0.0, "is_disabled": 0, "lat": 38.958905333333334, "bike_id": "47500e8a8bc38a54fdf709651c1215f9", "name": "47500e8a8bc38a54fdf709651c1215f9", "is_reserved": 0, "fusion_lat": 0.0}, {"type": "electric_bike", "rental_uris": {"ios": "https://dc.lft.to/lastmile_qr_scan", "android": "https://dc.lft.to/lastmile_qr_scan"}, "lon": -77.13124866666666, "fusion_lon": 0.0, "is_disabled": 0, "lat": 38.85299666666667, "bike_id": "8951b3b1d29b96b1a8f77510977f5a85", "name": "8951b3b1d29b96b1a8f77510977f5a85", "is_reserved": 0, "fusion_lat": 0.0}, {"type": "electric_scooter", "rental_uris": {"ios": "https://dc.lft.to/lastmile_qr_scan", "android": "https://dc.lft.to/lastmile_qr_scan"}, "lon": -77.02278583333333, "fusion_lon": 0.0, "is_disabled": 0, "lat": 38.91654033333333, "bike_id": "0d3d552efb0df185ae9dd271b048bd40", "name": "0d3d552efb0df185ae9dd271b048bd40", "is_reserved": 0, "fusion_lat": 0.0}, {"type": "electric_scooter", "rental_uris": {"ios": "https://dc.lft.to/lastmile_qr_scan", "android": "https://dc.lft.to/lastmile_qr_scan"}, "lon": -77.0068785, "fusion_lon": 0.0, "is_disabled": 0, "lat": 38.89981066666667, "bike_id": "0defa0cc5bc7e5d7af8c6909259f2532", "name": "0defa0cc5bc7e5d7af8c6909259f2532", "is_reserved": 0, "fusion_lat": 0.0}, {"type": "electric_scooter", "rental_uris": {"ios": "https://dc.lft.to/lastmile_qr_scan", "android": "https://dc.lft.to/lastmile_qr_scan"}, "lon": -77.01646333333333, "fusion_lon": 0.0, "is_disabled": 0, "lat": 38.929010166666664, "bike_id": "5f5c28121dba5930277735a6641dea14", "name": "5f5c28121dba5930277735a6641dea14", "is_reserved": 0, "fusion_lat": 0.0}, {"type": "electric_scooter", "rental_uris": {"ios": "https://dc.lft.to/lastmile_qr_scan", "android": "https://dc.lft.to/lastmile_qr_scan"}, "lon": -77.02017733333334, "fusion_lon": 0.0, "is_disabled": 0, "lat": 38.89845, "bike_id": "8157d7df0a18102baa0e3a9863ca94e4", "name": "8157d7df0a18102baa0e3a9863ca94e4", "is_reserved": 0, "fusion_lat": 0.0}, {"type": "electric_bike", "rental_uris": {"ios": "https://dc.lft.to/lastmile_qr_scan", "android": "https://dc.lft.to/lastmile_qr_scan"}, "lon": -77.08516483333334, "fusion_lon": 0.0, "is_disabled": 0, "lat": 38.885713833333334, "bike_id": "7a527a8c35fb25333a8ee009bf8f1639", "name": "7a527a8c35fb25333a8ee009bf8f1639", "is_reserved": 0, "fusion_lat": 0.0}, {"type": "electric_scooter", "rental_uris": {"ios": "https://dc.lft.to/lastmile_qr_scan", "android": "https://dc.lft.to/lastmile_qr_scan"}, "lon": -77.03362966666667, "fusion_lon": 0.0, "is_disabled": 0, "lat": 38.88754933333333, "bike_id": "135bab973bdbda21669222ea53fcfa2a", "name": "135bab973bdbda21669222ea53fcfa2a", "is_reserved": 0, "fusion_lat": 0.0}, {"type": "electric_scooter", "rental_uris": {"ios": "https://dc.lft.to/lastmile_qr_scan", "android": "https://dc.lft.to/lastmile_qr_scan"}, "lon": -77.0400525, "fusion_lon": 0.0, "is_disabled": 0, "lat": 38.9078355, "bike_id": "f17317626007f4eac4d29f20d0448b14", "name": "f17317626007f4eac4d29f20d0448b14", "is_reserved": 0, "fusion_lat": 0.0}, {"type": "electric_scooter", "rental_uris": {"ios": "https://dc.lft.to/lastmile_qr_scan", "android": "https://dc.lft.to/lastmile_qr_scan"}, "lon": -77.0401395, "fusion_lon": 0.0, "is_disabled": 0, "lat": 38.909927833333334, "bike_id": "3f173e8cc59191587831dcc11e4a6776", "name": "3f173e8cc59191587831dcc11e4a6776", "is_reserved": 0, "fusion_lat": 0.0}, {"type": "electric_scooter", "rental_uris": {"ios": "https://dc.lft.to/lastmile_qr_scan", "android": "https://dc.lft.to/lastmile_qr_scan"}, "lon": -76.933504, "fusion_lon": 0.0, "is_disabled": 0, "lat": 38.8991205, "bike_id": "193eeea98487addeae1fc2409443bc7f", "name": "193eeea98487addeae1fc2409443bc7f", "is_reserved": 0, "fusion_lat": 0.0}, {"type": "electric_scooter", "rental_uris": {"ios": "https://dc.lft.to/lastmile_qr_scan", "android": "https://dc.lft.to/lastmile_qr_scan"}, "lon": -77.03659316666666, "fusion_lon": 0.0, "is_disabled": 0, "lat": 38.922846166666666, "bike_id": "11920434d99bb887e16f3a9aeb1c5dca", "name": "11920434d99bb887e16f3a9aeb1c5dca", "is_reserved": 0, "fusion_lat": 0.0}, {"type": "electric_bike", "rental_uris": {"ios": "https://dc.lft.to/lastmile_qr_scan", "android": "https://dc.lft.to/lastmile_qr_scan"}, "lon": -76.9805475, "fusion_lon": 0.0, "is_disabled": 0, "lat": 38.95735616666666, "bike_id": "ca517755f77019453b5db7843dc2117c", "name": "ca517755f77019453b5db7843dc2117c", "is_reserved": 0, "fusion_lat": 0.0}, {"type": "electric_scooter", "rental_uris": {"ios": "https://dc.lft.to/lastmile_qr_scan", "android": "https://dc.lft.to/lastmile_qr_scan"}, "lon": -77.02412366666667, "fusion_lon": 0.0, "is_disabled": 0, "lat": 38.9072315, "bike_id": "9cc4a60897c8a0459b546ae3465ea672", "name": "9cc4a60897c8a0459b546ae3465ea672", "is_reserved": 0, "fusion_lat": 0.0}, {"type": "electric_scooter", "rental_uris": {"ios": "https://dc.lft.to/lastmile_qr_scan", "android": "https://dc.lft.to/lastmile_qr_scan"}, "lon": -77.02496783333333, "fusion_lon": 0.0, "is_disabled": 0, "lat": 38.9180025, "bike_id": "6fad08f81d8db6acb35f4d4c96b0cb14", "name": "6fad08f81d8db6acb35f4d4c96b0cb14", "is_reserved": 0, "fusion_lat": 0.0}, {"type": "electric_scooter", "rental_uris": {"ios": "https://dc.lft.to/lastmile_qr_scan", "android": "https://dc.lft.to/lastmile_qr_scan"}, "lon": -77.03415183333334, "fusion_lon": 0.0, "is_disabled": 0, "lat": 38.9191965, "bike_id": "8df9efcf0303275905501c91c2d74455", "name": "8df9efcf0303275905501c91c2d74455", "is_reserved": 0, "fusion_lat": 0.0}, {"type": "electric_scooter", "rental_uris": {"ios": "https://dc.lft.to/lastmile_qr_scan", "android": "https://dc.lft.to/lastmile_qr_scan"}, "lon": -77.0523435, "fusion_lon": 0.0, "is_disabled": 0, "lat": 38.92463683333333, "bike_id": "167cd8efa15b4dcee747a4bafe64adea", "name": "167cd8efa15b4dcee747a4bafe64adea", "is_reserved": 0, "fusion_lat": 0.0}, {"type": "electric_scooter", "rental_uris": {"ios": "https://dc.lft.to/lastmile_qr_scan", "android": "https://dc.lft.to/lastmile_qr_scan"}, "lon": -77.02246766666667, "fusion_lon": 0.0, "is_disabled": 0, "lat": 38.92069766666667, "bike_id": "d77c6a51ec79b587acac5d5053284ef2", "name": "d77c6a51ec79b587acac5d5053284ef2", "is_reserved": 0, "fusion_lat": 0.0}, {"type": "electric_scooter", "rental_uris": {"ios": "https://dc.lft.to/lastmile_qr_scan", "android": "https://dc.lft.to/lastmile_qr_scan"}, "lon": -77.06303033333333, "fusion_lon": 0.0, "is_disabled": 0, "lat": 38.90330433333333, "bike_id": "8d80c0bda54a48f2dd03895888d8fe96", "name": "8d80c0bda54a48f2dd03895888d8fe96", "is_reserved": 0, "fusion_lat": 0.0}, {"type": "electric_scooter", "rental_uris": {"ios": "https://dc.lft.to/lastmile_qr_scan", "android": "https://dc.lft.to/lastmile_qr_scan"}, "lon": -77.05734066666666, "fusion_lon": 0.0, "is_disabled": 0, "lat": 38.933567, "bike_id": "4dc15ccec885a96fe0ed769d081135ff", "name": "4dc15ccec885a96fe0ed769d081135ff", "is_reserved": 0, "fusion_lat": 0.0}, {"type": "electric_bike", "rental_uris": {"ios": "https://dc.lft.to/lastmile_qr_scan", "android": "https://dc.lft.to/lastmile_qr_scan"}, "lon": -76.98402116666666, "fusion_lon": 0.0, "is_disabled": 0, "lat": 38.8550645, "bike_id": "407bbab6f41d749dd8f72f109eab339d", "name": "407bbab6f41d749dd8f72f109eab339d", "is_reserved": 0, "fusion_lat": 0.0}, {"type": "electric_scooter", "rental_uris": {"ios": "https://dc.lft.to/lastmile_qr_scan", "android": "https://dc.lft.to/lastmile_qr_scan"}, "lon": -77.05554866666667, "fusion_lon": 0.0, "is_disabled": 0, "lat": 38.934218, "bike_id": "c73a99af8d8ba0a1eec6ff0d603bb8c7", "name": "c73a99af8d8ba0a1eec6ff0d603bb8c7", "is_reserved": 0, "fusion_lat": 0.0}, {"type": "electric_scooter", "rental_uris": {"ios": "https://dc.lft.to/lastmile_qr_scan", "android": "https://dc.lft.to/lastmile_qr_scan"}, "lon": -77.04818866666666, "fusion_lon": 0.0, "is_disabled": 0, "lat": 38.911055166666664, "bike_id": "756e800233b0d040a1e30552c46e74df", "name": "756e800233b0d040a1e30552c46e74df", "is_reserved": 0, "fusion_lat": 0.0}, {"type": "electric_bike", "rental_uris": {"ios": "https://dc.lft.to/lastmile_qr_scan", "android": "https://dc.lft.to/lastmile_qr_scan"}, "lon": -77.04928416666667, "fusion_lon": 0.0, "is_disabled": 0, "lat": 38.813424, "bike_id": "a92651704cf2c58ba2159e36ad597985", "name": "a92651704cf2c58ba2159e36ad597985", "is_reserved": 0, "fusion_lat": 0.0}, {"type": "electric_scooter", "rental_uris": {"ios": "https://dc.lft.to/lastmile_qr_scan", "android": "https://dc.lft.to/lastmile_qr_scan"}, "lon": -77.0046055, "fusion_lon": 0.0, "is_disabled": 0, "lat": 38.911411333333334, "bike_id": "21564d94efe27cee34c1eebd3ed79eb9", "name": "21564d94efe27cee34c1eebd3ed79eb9", "is_reserved": 0, "fusion_lat": 0.0}, {"type": "electric_scooter", "rental_uris": {"ios": "https://dc.lft.to/lastmile_qr_scan", "android": "https://dc.lft.to/lastmile_qr_scan"}, "lon": -76.997566, "fusion_lon": 0.0, "is_disabled": 0, "lat": 38.92182966666667, "bike_id": "b22c2a4fbf128c127a6cf069b29340ff", "name": "b22c2a4fbf128c127a6cf069b29340ff", "is_reserved": 0, "fusion_lat": 0.0}, {"type": "electric_scooter", "rental_uris": {"ios": "https://dc.lft.to/lastmile_qr_scan", "android": "https://dc.lft.to/lastmile_qr_scan"}, "lon": -77.0316445, "fusion_lon": 0.0, "is_disabled": 0, "lat": 38.915469, "bike_id": "b365c930918800647abb8c4e2a638abd", "name": "b365c930918800647abb8c4e2a638abd", "is_reserved": 0, "fusion_lat": 0.0}, {"type": "electric_scooter", "rental_uris": {"ios": "https://dc.lft.to/lastmile_qr_scan", "android": "https://dc.lft.to/lastmile_qr_scan"}, "lon": -77.02694433333333, "fusion_lon": 0.0, "is_disabled": 0, "lat": 38.911204833333336, "bike_id": "8dfdbe7139c94795e2ed51da2371c932", "name": "8dfdbe7139c94795e2ed51da2371c932", "is_reserved": 0, "fusion_lat": 0.0}, {"type": "electric_scooter", "rental_uris": {"ios": "https://dc.lft.to/lastmile_qr_scan", "android": "https://dc.lft.to/lastmile_qr_scan"}, "lon": -77.03795483333333, "fusion_lon": 0.0, "is_disabled": 0, "lat": 38.9302065, "bike_id": "1ec1d12caade2a6cdb51cec8ba5461b5", "name": "1ec1d12caade2a6cdb51cec8ba5461b5", "is_reserved": 0, "fusion_lat": 0.0}, {"type": "electric_scooter", "rental_uris": {"ios": "https://dc.lft.to/lastmile_qr_scan", "android": "https://dc.lft.to/lastmile_qr_scan"}, "lon": -77.03680416666667, "fusion_lon": 0.0, "is_disabled": 0, "lat": 38.91803183333333, "bike_id": "a56a3215e98813f7fdfc19204b8b003b", "name": "a56a3215e98813f7fdfc19204b8b003b", "is_reserved": 0, "fusion_lat": 0.0}, {"type": "electric_scooter", "rental_uris": {"ios": "https://dc.lft.to/lastmile_qr_scan", "android": "https://dc.lft.to/lastmile_qr_scan"}, "lon": -77.02181566666667, "fusion_lon": 0.0, "is_disabled": 0, "lat": 38.9174285, "bike_id": "babe75ecd7f97b4986d3fd32f9b7af6c", "name": "babe75ecd7f97b4986d3fd32f9b7af6c", "is_reserved": 0, "fusion_lat": 0.0}, {"type": "electric_scooter", "rental_uris": {"ios": "https://dc.lft.to/lastmile_qr_scan", "android": "https://dc.lft.to/lastmile_qr_scan"}, "lon": -77.02766516666667, "fusion_lon": 0.0, "is_disabled": 0, "lat": 38.90730516666667, "bike_id": "9ccb231ff64a6f458bbbdcdeb9ced409", "name": "9ccb231ff64a6f458bbbdcdeb9ced409", "is_reserved": 0, "fusion_lat": 0.0}, {"type": "electric_scooter", "rental_uris": {"ios": "https://dc.lft.to/lastmile_qr_scan", "android": "https://dc.lft.to/lastmile_qr_scan"}, "lon": -77.02717116666666, "fusion_lon": 0.0, "is_disabled": 0, "lat": 38.917037666666666, "bike_id": "0ee5a23461eaa022bf32639075e7f4ce", "name": "0ee5a23461eaa022bf32639075e7f4ce", "is_reserved": 0, "fusion_lat": 0.0}, {"type": "electric_scooter", "rental_uris": {"ios": "https://dc.lft.to/lastmile_qr_scan", "android": "https://dc.lft.to/lastmile_qr_scan"}, "lon": -77.03099, "fusion_lon": 0.0, "is_disabled": 0, "lat": 38.928545, "bike_id": "5c566239c59e922f7691852ac9edcab7", "name": "5c566239c59e922f7691852ac9edcab7", "is_reserved": 0, "fusion_lat": 0.0}, {"type": "electric_scooter", "rental_uris": {"ios": "https://dc.lft.to/lastmile_qr_scan", "android": "https://dc.lft.to/lastmile_qr_scan"}, "lon": -76.99883916666667, "fusion_lon": 0.0, "is_disabled": 0, "lat": 38.907482, "bike_id": "11d31f1c072d0b5284be212e6bb07bc6", "name": "11d31f1c072d0b5284be212e6bb07bc6", "is_reserved": 0, "fusion_lat": 0.0}, {"type": "electric_scooter", "rental_uris": {"ios": "https://dc.lft.to/lastmile_qr_scan", "android": "https://dc.lft.to/lastmile_qr_scan"}, "lon": -77.038429, "fusion_lon": 0.0, "is_disabled": 0, "lat": 38.91543566666667, "bike_id": "c51fe7efbec3887e4b409a3b7c61c855", "name": "c51fe7efbec3887e4b409a3b7c61c855", "is_reserved": 0, "fusion_lat": 0.0}, {"type": "electric_scooter", "rental_uris": {"ios": "https://dc.lft.to/lastmile_qr_scan", "android": "https://dc.lft.to/lastmile_qr_scan"}, "lon": -77.0404365, "fusion_lon": 0.0, "is_disabled": 0, "lat": 38.89998933333333, "bike_id": "b4d1eb4ff817aa28cde25d7f1cdd1263", "name": "b4d1eb4ff817aa28cde25d7f1cdd1263", "is_reserved": 0, "fusion_lat": 0.0}, {"type": "electric_scooter", "rental_uris": {"ios": "https://dc.lft.to/lastmile_qr_scan", "android": "https://dc.lft.to/lastmile_qr_scan"}, "lon": -77.00838666666667, "fusion_lon": 0.0, "is_disabled": 0, "lat": 38.87063083333334, "bike_id": "a882ed49cb1caf542a8aea581c402b6b", "name": "a882ed49cb1caf542a8aea581c402b6b", "is_reserved": 0, "fusion_lat": 0.0}, {"type": "electric_scooter", "rental_uris": {"ios": "https://dc.lft.to/lastmile_qr_scan", "android": "https://dc.lft.to/lastmile_qr_scan"}, "lon": -77.04874216666667, "fusion_lon": 0.0, "is_disabled": 0, "lat": 38.892176666666664, "bike_id": "e576ee36bff66325176693bab1dd4f8c", "name": "e576ee36bff66325176693bab1dd4f8c", "is_reserved": 0, "fusion_lat": 0.0}, {"type": "electric_scooter", "rental_uris": {"ios": "https://dc.lft.to/lastmile_qr_scan", "android": "https://dc.lft.to/lastmile_qr_scan"}, "lon": -77.05929816666666, "fusion_lon": 0.0, "is_disabled": 0, "lat": 38.94296933333333, "bike_id": "7f4a61d316c3aecb376732d7a1b5f234", "name": "7f4a61d316c3aecb376732d7a1b5f234", "is_reserved": 0, "fusion_lat": 0.0}, {"type": "electric_bike", "rental_uris": {"ios": "https://dc.lft.to/lastmile_qr_scan", "android": "https://dc.lft.to/lastmile_qr_scan"}, "lon": -76.99779916666667, "fusion_lon": 0.0, "is_disabled": 0, "lat": 38.86207683333333, "bike_id": "6e8b93902f97b0a9657da4789afb1472", "name": "6e8b93902f97b0a9657da4789afb1472", "is_reserved": 0, "fusion_lat": 0.0}, {"type": "electric_scooter", "rental_uris": {"ios": "https://dc.lft.to/lastmile_qr_scan", "android": "https://dc.lft.to/lastmile_qr_scan"}, "lon": -77.02370666666667, "fusion_lon": 0.0, "is_disabled": 0, "lat": 38.892147, "bike_id": "62da32cc7a3d5c0dce6994854a44dfd8", "name": "62da32cc7a3d5c0dce6994854a44dfd8", "is_reserved": 0, "fusion_lat": 0.0}, {"type": "electric_scooter", "rental_uris": {"ios": "https://dc.lft.to/lastmile_qr_scan", "android": "https://dc.lft.to/lastmile_qr_scan"}, "lon": -77.02115916666666, "fusion_lon": 0.0, "is_disabled": 0, "lat": 38.90938716666667, "bike_id": "ce3e34d485ef43b4bd281247a1e01b56", "name": "ce3e34d485ef43b4bd281247a1e01b56", "is_reserved": 0, "fusion_lat": 0.0}, {"type": "electric_scooter", "rental_uris": {"ios": "https://dc.lft.to/lastmile_qr_scan", "android": "https://dc.lft.to/lastmile_qr_scan"}, "lon": -76.985441, "fusion_lon": 0.0, "is_disabled": 0, "lat": 38.86677983333333, "bike_id": "de41b574b154505c0e8e18d637729274", "name": "de41b574b154505c0e8e18d637729274", "is_reserved": 0, "fusion_lat": 0.0}, {"type": "electric_scooter", "rental_uris": {"ios": "https://dc.lft.to/lastmile_qr_scan", "android": "https://dc.lft.to/lastmile_qr_scan"}, "lon": -76.93173416666667, "fusion_lon": 0.0, "is_disabled": 0, "lat": 38.8988105, "bike_id": "6ab9c1858537dd5ec08056ea136bc06c", "name": "6ab9c1858537dd5ec08056ea136bc06c", "is_reserved": 0, "fusion_lat": 0.0}, {"type": "electric_scooter", "rental_uris": {"ios": "https://dc.lft.to/lastmile_qr_scan", "android": "https://dc.lft.to/lastmile_qr_scan"}, "lon": -77.028727, "fusion_lon": 0.0, "is_disabled": 0, "lat": 38.928153333333334, "bike_id": "82f87b31735594cd5122e257805f0365", "name": "82f87b31735594cd5122e257805f0365", "is_reserved": 0, "fusion_lat": 0.0}, {"type": "electric_scooter", "rental_uris": {"ios": "https://dc.lft.to/lastmile_qr_scan", "android": "https://dc.lft.to/lastmile_qr_scan"}, "lon": -77.02004166666667, "fusion_lon": 0.0, "is_disabled": 0, "lat": 38.9156135, "bike_id": "6941e786bd4ab1b57a08e3f9815b85ee", "name": "6941e786bd4ab1b57a08e3f9815b85ee", "is_reserved": 0, "fusion_lat": 0.0}, {"type": "electric_scooter", "rental_uris": {"ios": "https://dc.lft.to/lastmile_qr_scan", "android": "https://dc.lft.to/lastmile_qr_scan"}, "lon": -77.0262535, "fusion_lon": 0.0, "is_disabled": 0, "lat": 38.89215383333333, "bike_id": "17ad3ff3426caf43d9239a701c5a51b8", "name": "17ad3ff3426caf43d9239a701c5a51b8", "is_reserved": 0, "fusion_lat": 0.0}, {"type": "electric_scooter", "rental_uris": {"ios": "https://dc.lft.to/lastmile_qr_scan", "android": "https://dc.lft.to/lastmile_qr_scan"}, "lon": -77.02188616666666, "fusion_lon": 0.0, "is_disabled": 0, "lat": 38.90613033333333, "bike_id": "a47b0ee50421591b3925ade9213f04ad", "name": "a47b0ee50421591b3925ade9213f04ad", "is_reserved": 0, "fusion_lat": 0.0}, {"type": "electric_scooter", "rental_uris": {"ios": "https://dc.lft.to/lastmile_qr_scan", "android": "https://dc.lft.to/lastmile_qr_scan"}, "lon": -77.0549005, "fusion_lon": 0.0, "is_disabled": 0, "lat": 38.908194333333334, "bike_id": "81f5fa83ede98213e7b771b3a06f5b04", "name": "81f5fa83ede98213e7b771b3a06f5b04", "is_reserved": 0, "fusion_lat": 0.0}, {"type": "electric_scooter", "rental_uris": {"ios": "https://dc.lft.to/lastmile_qr_scan", "android": "https://dc.lft.to/lastmile_qr_scan"}, "lon": -77.00131983333333, "fusion_lon": 0.0, "is_disabled": 0, "lat": 38.907476, "bike_id": "4451048c7cda120ec9d41c5326cf7aa1", "name": "4451048c7cda120ec9d41c5326cf7aa1", "is_reserved": 0, "fusion_lat": 0.0}, {"type": "electric_scooter", "rental_uris": {"ios": "https://dc.lft.to/lastmile_qr_scan", "android": "https://dc.lft.to/lastmile_qr_scan"}, "lon": -76.94996366666666, "fusion_lon": 0.0, "is_disabled": 0, "lat": 38.89391616666666, "bike_id": "4991e7d288bdb3514d96fd130043eeb0", "name": "4991e7d288bdb3514d96fd130043eeb0", "is_reserved": 0, "fusion_lat": 0.0}, {"type": "electric_scooter", "rental_uris": {"ios": "https://dc.lft.to/lastmile_qr_scan", "android": "https://dc.lft.to/lastmile_qr_scan"}, "lon": -77.03844083333334, "fusion_lon": 0.0, "is_disabled": 0, "lat": 38.91754933333333, "bike_id": "8943531f1cc976c318b3a9e7944e9405", "name": "8943531f1cc976c318b3a9e7944e9405", "is_reserved": 0, "fusion_lat": 0.0}, {"type": "electric_scooter", "rental_uris": {"ios": "https://dc.lft.to/lastmile_qr_scan", "android": "https://dc.lft.to/lastmile_qr_scan"}, "lon": -77.05131116666666, "fusion_lon": 0.0, "is_disabled": 0, "lat": 38.923601166666664, "bike_id": "d7be2eb5c9741b30e8024403ed82fc34", "name": "d7be2eb5c9741b30e8024403ed82fc34", "is_reserved": 0, "fusion_lat": 0.0}, {"type": "electric_scooter", "rental_uris": {"ios": "https://dc.lft.to/lastmile_qr_scan", "android": "https://dc.lft.to/lastmile_qr_scan"}, "lon": -77.040297, "fusion_lon": 0.0, "is_disabled": 0, "lat": 38.9180025, "bike_id": "d7a34512200f41f4892c215fd8a0a44a", "name": "d7a34512200f41f4892c215fd8a0a44a", "is_reserved": 0, "fusion_lat": 0.0}, {"type": "electric_scooter", "rental_uris": {"ios": "https://dc.lft.to/lastmile_qr_scan", "android": "https://dc.lft.to/lastmile_qr_scan"}, "lon": -77.04798516666666, "fusion_lon": 0.0, "is_disabled": 0, "lat": 38.899423, "bike_id": "c90b69554dbcf4439d2eb1ffb115ba82", "name": "c90b69554dbcf4439d2eb1ffb115ba82", "is_reserved": 0, "fusion_lat": 0.0}, {"type": "electric_scooter", "rental_uris": {"ios": "https://dc.lft.to/lastmile_qr_scan", "android": "https://dc.lft.to/lastmile_qr_scan"}, "lon": -77.03144133333333, "fusion_lon": 0.0, "is_disabled": 0, "lat": 38.911147, "bike_id": "7467187406dfbf90a76317a6b48b7993", "name": "7467187406dfbf90a76317a6b48b7993", "is_reserved": 0, "fusion_lat": 0.0}, {"type": "electric_scooter", "rental_uris": {"ios": "https://dc.lft.to/lastmile_qr_scan", "android": "https://dc.lft.to/lastmile_qr_scan"}, "lon": -77.04249216666666, "fusion_lon": 0.0, "is_disabled": 0, "lat": 38.922017, "bike_id": "b85326747bd57ac9b675fde1a2868132", "name": "b85326747bd57ac9b675fde1a2868132", "is_reserved": 0, "fusion_lat": 0.0}, {"type": "electric_scooter", "rental_uris": {"ios": "https://dc.lft.to/lastmile_qr_scan", "android": "https://dc.lft.to/lastmile_qr_scan"}, "lon": -77.05521483333334, "fusion_lon": 0.0, "is_disabled": 0, "lat": 38.94404266666667, "bike_id": "8444e9e880adcaa1aa9cac8567cf5795", "name": "8444e9e880adcaa1aa9cac8567cf5795", "is_reserved": 0, "fusion_lat": 0.0}, {"type": "electric_scooter", "rental_uris": {"ios": "https://dc.lft.to/lastmile_qr_scan", "android": "https://dc.lft.to/lastmile_qr_scan"}, "lon": -77.03198516666667, "fusion_lon": 0.0, "is_disabled": 0, "lat": 38.915995833333334, "bike_id": "a81272e486f1036bd4d968c1f58ad12c", "name": "a81272e486f1036bd4d968c1f58ad12c", "is_reserved": 0, "fusion_lat": 0.0}, {"type": "electric_scooter", "rental_uris": {"ios": "https://dc.lft.to/lastmile_qr_scan", "android": "https://dc.lft.to/lastmile_qr_scan"}, "lon": -77.04058166666667, "fusion_lon": 0.0, "is_disabled": 0, "lat": 38.89883433333333, "bike_id": "ae75413ddd4cc63e80a4c26c96033f5f", "name": "ae75413ddd4cc63e80a4c26c96033f5f", "is_reserved": 0, "fusion_lat": 0.0}, {"type": "electric_scooter", "rental_uris": {"ios": "https://dc.lft.to/lastmile_qr_scan", "android": "https://dc.lft.to/lastmile_qr_scan"}, "lon": -77.022003, "fusion_lon": 0.0, "is_disabled": 0, "lat": 38.90513966666666, "bike_id": "72860d08a978b25afd333bf0ff45213e", "name": "72860d08a978b25afd333bf0ff45213e", "is_reserved": 0, "fusion_lat": 0.0}, {"type": "electric_scooter", "rental_uris": {"ios": "https://dc.lft.to/lastmile_qr_scan", "android": "https://dc.lft.to/lastmile_qr_scan"}, "lon": -77.03663516666667, "fusion_lon": 0.0, "is_disabled": 0, "lat": 38.917171, "bike_id": "3bff351f39eb290b8c9089971a916baa", "name": "3bff351f39eb290b8c9089971a916baa", "is_reserved": 0, "fusion_lat": 0.0}, {"type": "electric_scooter", "rental_uris": {"ios": "https://dc.lft.to/lastmile_qr_scan", "android": "https://dc.lft.to/lastmile_qr_scan"}, "lon": -77.021663, "fusion_lon": 0.0, "is_disabled": 0, "lat": 38.92606333333333, "bike_id": "2ac844e00fd4aaaef45fd879d6d03d29", "name": "2ac844e00fd4aaaef45fd879d6d03d29", "is_reserved": 0, "fusion_lat": 0.0}, {"type": "electric_scooter", "rental_uris": {"ios": "https://dc.lft.to/lastmile_qr_scan", "android": "https://dc.lft.to/lastmile_qr_scan"}, "lon": -77.00339716666667, "fusion_lon": 0.0, "is_disabled": 0, "lat": 38.88738033333333, "bike_id": "d464072a93049623c921707b2ad06a4e", "name": "d464072a93049623c921707b2ad06a4e", "is_reserved": 0, "fusion_lat": 0.0}, {"type": "electric_scooter", "rental_uris": {"ios": "https://dc.lft.to/lastmile_qr_scan", "android": "https://dc.lft.to/lastmile_qr_scan"}, "lon": -77.00923283333333, "fusion_lon": 0.0, "is_disabled": 0, "lat": 38.89549616666667, "bike_id": "1ad6628f24c61d4b4aaec60541b6bbfb", "name": "1ad6628f24c61d4b4aaec60541b6bbfb", "is_reserved": 0, "fusion_lat": 0.0}, {"type": "electric_scooter", "rental_uris": {"ios": "https://dc.lft.to/lastmile_qr_scan", "android": "https://dc.lft.to/lastmile_qr_scan"}, "lon": -77.02196516666666, "fusion_lon": 0.0, "is_disabled": 0, "lat": 38.91837533333333, "bike_id": "16e0fce833d9f869a30f398bbedc4df7", "name": "16e0fce833d9f869a30f398bbedc4df7", "is_reserved": 0, "fusion_lat": 0.0}, {"type": "electric_scooter", "rental_uris": {"ios": "https://dc.lft.to/lastmile_qr_scan", "android": "https://dc.lft.to/lastmile_qr_scan"}, "lon": -77.04448016666667, "fusion_lon": 0.0, "is_disabled": 0, "lat": 38.924166166666666, "bike_id": "71ab33de744070109c071f93bdb63aee", "name": "71ab33de744070109c071f93bdb63aee", "is_reserved": 0, "fusion_lat": 0.0}, {"type": "electric_scooter", "rental_uris": {"ios": "https://dc.lft.to/lastmile_qr_scan", "android": "https://dc.lft.to/lastmile_qr_scan"}, "lon": -77.07305366666667, "fusion_lon": 0.0, "is_disabled": 0, "lat": 38.935176166666665, "bike_id": "4b239819298e0d9cbea64ea600922b4e", "name": "4b239819298e0d9cbea64ea600922b4e", "is_reserved": 0, "fusion_lat": 0.0}, {"type": "electric_scooter", "rental_uris": {"ios": "https://dc.lft.to/lastmile_qr_scan", "android": "https://dc.lft.to/lastmile_qr_scan"}, "lon": -76.9922645, "fusion_lon": 0.0, "is_disabled": 0, "lat": 38.90372033333333, "bike_id": "54bb0430976bc8462f44fbee041ccf3f", "name": "54bb0430976bc8462f44fbee041ccf3f", "is_reserved": 0, "fusion_lat": 0.0}, {"type": "electric_bike", "rental_uris": {"ios": "https://dc.lft.to/lastmile_qr_scan", "android": "https://dc.lft.to/lastmile_qr_scan"}, "lon": -76.99091533333333, "fusion_lon": 0.0, "is_disabled": 0, "lat": 38.89783333333333, "bike_id": "5e5d2a4eb8f4dfeb9e470cba3f0f18bf", "name": "5e5d2a4eb8f4dfeb9e470cba3f0f18bf", "is_reserved": 0, "fusion_lat": 0.0}, {"type": "electric_scooter", "rental_uris": {"ios": "https://dc.lft.to/lastmile_qr_scan", "android": "https://dc.lft.to/lastmile_qr_scan"}, "lon": -77.0238385, "fusion_lon": 0.0, "is_disabled": 0, "lat": 38.897286333333334, "bike_id": "2c756f52b56edd0f579cce573b2923e7", "name": "2c756f52b56edd0f579cce573b2923e7", "is_reserved": 0, "fusion_lat": 0.0}, {"type": "electric_scooter", "rental_uris": {"ios": "https://dc.lft.to/lastmile_qr_scan", "android": "https://dc.lft.to/lastmile_qr_scan"}, "lon": -77.02689533333333, "fusion_lon": 0.0, "is_disabled": 0, "lat": 38.9258805, "bike_id": "63cd975ffc3404cde2a1c9ed703b8eb1", "name": "63cd975ffc3404cde2a1c9ed703b8eb1", "is_reserved": 0, "fusion_lat": 0.0}, {"type": "electric_bike", "rental_uris": {"ios": "https://dc.lft.to/lastmile_qr_scan", "android": "https://dc.lft.to/lastmile_qr_scan"}, "lon": -77.11804633333334, "fusion_lon": 0.0, "is_disabled": 0, "lat": 38.87371183333333, "bike_id": "1dde6120c1aa57bda9dc0b41f794833f", "name": "1dde6120c1aa57bda9dc0b41f794833f", "is_reserved": 0, "fusion_lat": 0.0}, {"type": "electric_scooter", "rental_uris": {"ios": "https://dc.lft.to/lastmile_qr_scan", "android": "https://dc.lft.to/lastmile_qr_scan"}, "lon": -77.00928, "fusion_lon": 0.0, "is_disabled": 0, "lat": 38.8832885, "bike_id": "a2763013401ff3406fc9119c26218ac8", "name": "a2763013401ff3406fc9119c26218ac8", "is_reserved": 0, "fusion_lat": 0.0}, {"type": "electric_scooter", "rental_uris": {"ios": "https://dc.lft.to/lastmile_qr_scan", "android": "https://dc.lft.to/lastmile_qr_scan"}, "lon": -77.03191033333333, "fusion_lon": 0.0, "is_disabled": 0, "lat": 38.91325233333333, "bike_id": "f2941246316ab4b176538695fa3c2960", "name": "f2941246316ab4b176538695fa3c2960", "is_reserved": 0, "fusion_lat": 0.0}, {"type": "electric_scooter", "rental_uris": {"ios": "https://dc.lft.to/lastmile_qr_scan", "android": "https://dc.lft.to/lastmile_qr_scan"}, "lon": -77.02834183333333, "fusion_lon": 0.0, "is_disabled": 0, "lat": 38.931868, "bike_id": "fe8e0c1dd69f59ff1a779231ad3a397c", "name": "fe8e0c1dd69f59ff1a779231ad3a397c", "is_reserved": 0, "fusion_lat": 0.0}, {"type": "electric_scooter", "rental_uris": {"ios": "https://dc.lft.to/lastmile_qr_scan", "android": "https://dc.lft.to/lastmile_qr_scan"}, "lon": -77.026946, "fusion_lon": 0.0, "is_disabled": 0, "lat": 38.90682533333333, "bike_id": "9cc1a21513c7e9e0fd4cf5c596646dff", "name": "9cc1a21513c7e9e0fd4cf5c596646dff", "is_reserved": 0, "fusion_lat": 0.0}, {"type": "electric_scooter", "rental_uris": {"ios": "https://dc.lft.to/lastmile_qr_scan", "android": "https://dc.lft.to/lastmile_qr_scan"}, "lon": -77.03856983333333, "fusion_lon": 0.0, "is_disabled": 0, "lat": 38.910386833333334, "bike_id": "da30aba6c7c3fce430651c3503806003", "name": "da30aba6c7c3fce430651c3503806003", "is_reserved": 0, "fusion_lat": 0.0}, {"type": "electric_bike", "rental_uris": {"ios": "https://dc.lft.to/lastmile_qr_scan", "android": "https://dc.lft.to/lastmile_qr_scan"}, "lon": -77.040212, "fusion_lon": 0.0, "is_disabled": 0, "lat": 38.7932545, "bike_id": "651659e94a5d926fc8aa333a383280a2", "name": "651659e94a5d926fc8aa333a383280a2", "is_reserved": 0, "fusion_lat": 0.0}, {"type": "electric_bike", "rental_uris": {"ios": "https://dc.lft.to/lastmile_qr_scan", "android": "https://dc.lft.to/lastmile_qr_scan"}, "lon": -76.97241416666667, "fusion_lon": 0.0, "is_disabled": 0, "lat": 38.949011666666664, "bike_id": "4b45b99d9bd0a426bae8b4bd626a5e35", "name": "4b45b99d9bd0a426bae8b4bd626a5e35", "is_reserved": 0, "fusion_lat": 0.0}, {"type": "electric_scooter", "rental_uris": {"ios": "https://dc.lft.to/lastmile_qr_scan", "android": "https://dc.lft.to/lastmile_qr_scan"}, "lon": -76.99521883333334, "fusion_lon": 0.0, "is_disabled": 0, "lat": 38.883657666666664, "bike_id": "b2015d9c3eaa904e5f11e3659a999154", "name": "b2015d9c3eaa904e5f11e3659a999154", "is_reserved": 0, "fusion_lat": 0.0}, {"type": "electric_scooter", "rental_uris": {"ios": "https://dc.lft.to/lastmile_qr_scan", "android": "https://dc.lft.to/lastmile_qr_scan"}, "lon": -77.03186916666667, "fusion_lon": 0.0, "is_disabled": 0, "lat": 38.91415833333333, "bike_id": "a27e10d0f7bd11160a332b2a37a6f67d", "name": "a27e10d0f7bd11160a332b2a37a6f67d", "is_reserved": 0, "fusion_lat": 0.0}, {"type": "electric_scooter", "rental_uris": {"ios": "https://dc.lft.to/lastmile_qr_scan", "android": "https://dc.lft.to/lastmile_qr_scan"}, "lon": -77.00871383333333, "fusion_lon": 0.0, "is_disabled": 0, "lat": 38.91704933333333, "bike_id": "3660af2301de24c42aa2894d60989bb6", "name": "3660af2301de24c42aa2894d60989bb6", "is_reserved": 0, "fusion_lat": 0.0}, {"type": "electric_scooter", "rental_uris": {"ios": "https://dc.lft.to/lastmile_qr_scan", "android": "https://dc.lft.to/lastmile_qr_scan"}, "lon": -77.03508233333334, "fusion_lon": 0.0, "is_disabled": 0, "lat": 38.92144583333334, "bike_id": "47ff07c9b5556b61b1a8d5ebe98e65b6", "name": "47ff07c9b5556b61b1a8d5ebe98e65b6", "is_reserved": 0, "fusion_lat": 0.0}, {"type": "electric_scooter", "rental_uris": {"ios": "https://dc.lft.to/lastmile_qr_scan", "android": "https://dc.lft.to/lastmile_qr_scan"}, "lon": -77.02627683333333, "fusion_lon": 0.0, "is_disabled": 0, "lat": 38.8921735, "bike_id": "69f82c752f0ca853f1045ab0488d1a14", "name": "69f82c752f0ca853f1045ab0488d1a14", "is_reserved": 0, "fusion_lat": 0.0}, {"type": "electric_scooter", "rental_uris": {"ios": "https://dc.lft.to/lastmile_qr_scan", "android": "https://dc.lft.to/lastmile_qr_scan"}, "lon": -77.032405, "fusion_lon": 0.0, "is_disabled": 0, "lat": 38.89896366666667, "bike_id": "f6cd5644b1ee8b45f9ac8728813ab003", "name": "f6cd5644b1ee8b45f9ac8728813ab003", "is_reserved": 0, "fusion_lat": 0.0}, {"type": "electric_scooter", "rental_uris": {"ios": "https://dc.lft.to/lastmile_qr_scan", "android": "https://dc.lft.to/lastmile_qr_scan"}, "lon": -76.94635983333333, "fusion_lon": 0.0, "is_disabled": 0, "lat": 38.89842066666667, "bike_id": "982e33f1eaf9d49e77fbad32cfd0c6f7", "name": "982e33f1eaf9d49e77fbad32cfd0c6f7", "is_reserved": 0, "fusion_lat": 0.0}, {"type": "electric_scooter", "rental_uris": {"ios": "https://dc.lft.to/lastmile_qr_scan", "android": "https://dc.lft.to/lastmile_qr_scan"}, "lon": -77.01311966666667, "fusion_lon": 0.0, "is_disabled": 0, "lat": 38.881314, "bike_id": "ace3165cd785a61b1ee69805c5e54491", "name": "ace3165cd785a61b1ee69805c5e54491", "is_reserved": 0, "fusion_lat": 0.0}, {"type": "electric_scooter", "rental_uris": {"ios": "https://dc.lft.to/lastmile_qr_scan", "android": "https://dc.lft.to/lastmile_qr_scan"}, "lon": -77.02335083333334, "fusion_lon": 0.0, "is_disabled": 0, "lat": 38.91768833333333, "bike_id": "2c6ee5a4041fc42eb4ce1c7ce492e160", "name": "2c6ee5a4041fc42eb4ce1c7ce492e160", "is_reserved": 0, "fusion_lat": 0.0}, {"type": "electric_scooter", "rental_uris": {"ios": "https://dc.lft.to/lastmile_qr_scan", "android": "https://dc.lft.to/lastmile_qr_scan"}, "lon": -77.0328375, "fusion_lon": 0.0, "is_disabled": 0, "lat": 38.8992885, "bike_id": "ffd4b96e8f8645eb93f7a29e4fe19ce9", "name": "ffd4b96e8f8645eb93f7a29e4fe19ce9", "is_reserved": 0, "fusion_lat": 0.0}, {"type": "electric_scooter", "rental_uris": {"ios": "https://dc.lft.to/lastmile_qr_scan", "android": "https://dc.lft.to/lastmile_qr_scan"}, "lon": -77.0425435, "fusion_lon": 0.0, "is_disabled": 0, "lat": 38.9076695, "bike_id": "3f05485a1413c34f4624e6028fbcf2c3", "name": "3f05485a1413c34f4624e6028fbcf2c3", "is_reserved": 0, "fusion_lat": 0.0}, {"type": "electric_scooter", "rental_uris": {"ios": "https://dc.lft.to/lastmile_qr_scan", "android": "https://dc.lft.to/lastmile_qr_scan"}, "lon": -77.0150855, "fusion_lon": 0.0, "is_disabled": 0, "lat": 38.91045883333334, "bike_id": "f293b883d805dc175edd78b82390e05f", "name": "f293b883d805dc175edd78b82390e05f", "is_reserved": 0, "fusion_lat": 0.0}, {"type": "electric_scooter", "rental_uris": {"ios": "https://dc.lft.to/lastmile_qr_scan", "android": "https://dc.lft.to/lastmile_qr_scan"}, "lon": -77.044673, "fusion_lon": 0.0, "is_disabled": 0, "lat": 38.912149666666664, "bike_id": "2c6eb81163c3d4a0880757bcce0e8021", "name": "2c6eb81163c3d4a0880757bcce0e8021", "is_reserved": 0, "fusion_lat": 0.0}, {"type": "electric_scooter", "rental_uris": {"ios": "https://dc.lft.to/lastmile_qr_scan", "android": "https://dc.lft.to/lastmile_qr_scan"}, "lon": -77.02690266666667, "fusion_lon": 0.0, "is_disabled": 0, "lat": 38.91687066666667, "bike_id": "6301dfe4fa5ed92c5ec4ee81df4825e8", "name": "6301dfe4fa5ed92c5ec4ee81df4825e8", "is_reserved": 0, "fusion_lat": 0.0}, {"type": "electric_scooter", "rental_uris": {"ios": "https://dc.lft.to/lastmile_qr_scan", "android": "https://dc.lft.to/lastmile_qr_scan"}, "lon": -77.044589, "fusion_lon": 0.0, "is_disabled": 0, "lat": 38.915367833333335, "bike_id": "a8f7d893c860e443971307af84de7e2e", "name": "a8f7d893c860e443971307af84de7e2e", "is_reserved": 0, "fusion_lat": 0.0}, {"type": "electric_scooter", "rental_uris": {"ios": "https://dc.lft.to/lastmile_qr_scan", "android": "https://dc.lft.to/lastmile_qr_scan"}, "lon": -77.02665266666666, "fusion_lon": 0.0, "is_disabled": 0, "lat": 38.901402166666664, "bike_id": "b160fc1f16f58e3ff0c0be06cfe4f63b", "name": "b160fc1f16f58e3ff0c0be06cfe4f63b", "is_reserved": 0, "fusion_lat": 0.0}, {"type": "electric_scooter", "rental_uris": {"ios": "https://dc.lft.to/lastmile_qr_scan", "android": "https://dc.lft.to/lastmile_qr_scan"}, "lon": -77.070115, "fusion_lon": 0.0, "is_disabled": 0, "lat": 38.955268, "bike_id": "cb6fdae8dbe32e3ec3ab38033a84c66a", "name": "cb6fdae8dbe32e3ec3ab38033a84c66a", "is_reserved": 0, "fusion_lat": 0.0}, {"type": "electric_bike", "rental_uris": {"ios": "https://dc.lft.to/lastmile_qr_scan", "android": "https://dc.lft.to/lastmile_qr_scan"}, "lon": -77.18745616666666, "fusion_lon": 0.0, "is_disabled": 0, "lat": 38.8934905, "bike_id": "70e00238a4e557a0759340ba6fc920ee", "name": "70e00238a4e557a0759340ba6fc920ee", "is_reserved": 0, "fusion_lat": 0.0}, {"type": "electric_scooter", "rental_uris": {"ios": "https://dc.lft.to/lastmile_qr_scan", "android": "https://dc.lft.to/lastmile_qr_scan"}, "lon": -77.0261315, "fusion_lon": 0.0, "is_disabled": 0, "lat": 38.914154, "bike_id": "2657939f70f6c557b2dd452daeab45f1", "name": "2657939f70f6c557b2dd452daeab45f1", "is_reserved": 0, "fusion_lat": 0.0}, {"type": "electric_scooter", "rental_uris": {"ios": "https://dc.lft.to/lastmile_qr_scan", "android": "https://dc.lft.to/lastmile_qr_scan"}, "lon": -77.0402495, "fusion_lon": 0.0, "is_disabled": 0, "lat": 38.921957666666664, "bike_id": "5ad9ebbbad76a60864587219119e1797", "name": "5ad9ebbbad76a60864587219119e1797", "is_reserved": 0, "fusion_lat": 0.0}, {"type": "electric_bike", "rental_uris": {"ios": "https://dc.lft.to/lastmile_qr_scan", "android": "https://dc.lft.to/lastmile_qr_scan"}, "lon": -77.0441555, "fusion_lon": 0.0, "is_disabled": 0, "lat": 39.015661, "bike_id": "6681ecb3e6818621f3081310ea2c51ca", "name": "6681ecb3e6818621f3081310ea2c51ca", "is_reserved": 0, "fusion_lat": 0.0}, {"type": "electric_scooter", "rental_uris": {"ios": "https://dc.lft.to/lastmile_qr_scan", "android": "https://dc.lft.to/lastmile_qr_scan"}, "lon": -77.036264, "fusion_lon": 0.0, "is_disabled": 0, "lat": 38.9539985, "bike_id": "7e586b2aade2b847a17012e13fc5a005", "name": "7e586b2aade2b847a17012e13fc5a005", "is_reserved": 0, "fusion_lat": 0.0}, {"type": "electric_scooter", "rental_uris": {"ios": "https://dc.lft.to/lastmile_qr_scan", "android": "https://dc.lft.to/lastmile_qr_scan"}, "lon": -77.0403145, "fusion_lon": 0.0, "is_disabled": 0, "lat": 38.918, "bike_id": "b2f689c77221ab7b3ac6dd0b175e2310", "name": "b2f689c77221ab7b3ac6dd0b175e2310", "is_reserved": 0, "fusion_lat": 0.0}, {"type": "electric_bike", "rental_uris": {"ios": "https://dc.lft.to/lastmile_qr_scan", "android": "https://dc.lft.to/lastmile_qr_scan"}, "lon": -77.01034216666666, "fusion_lon": 0.0, "is_disabled": 0, "lat": 38.958825166666664, "bike_id": "8f737c44ee30ab69e9fb0d537387842f", "name": "8f737c44ee30ab69e9fb0d537387842f", "is_reserved": 0, "fusion_lat": 0.0}, {"type": "electric_scooter", "rental_uris": {"ios": "https://dc.lft.to/lastmile_qr_scan", "android": "https://dc.lft.to/lastmile_qr_scan"}, "lon": -77.02677766666666, "fusion_lon": 0.0, "is_disabled": 0, "lat": 38.8992835, "bike_id": "fdf9a08afdf8f21fd2e0d62f09add912", "name": "fdf9a08afdf8f21fd2e0d62f09add912", "is_reserved": 0, "fusion_lat": 0.0}, {"type": "electric_scooter", "rental_uris": {"ios": "https://dc.lft.to/lastmile_qr_scan", "android": "https://dc.lft.to/lastmile_qr_scan"}, "lon": -77.04195616666667, "fusion_lon": 0.0, "is_disabled": 0, "lat": 38.90555416666667, "bike_id": "43cd323a9e97ec501c2de8a56263242a", "name": "43cd323a9e97ec501c2de8a56263242a", "is_reserved": 0, "fusion_lat": 0.0}, {"type": "electric_scooter", "rental_uris": {"ios": "https://dc.lft.to/lastmile_qr_scan", "android": "https://dc.lft.to/lastmile_qr_scan"}, "lon": -77.0272555, "fusion_lon": 0.0, "is_disabled": 0, "lat": 38.90135183333334, "bike_id": "c9f265957fb7a93fef2b566ecc5420c8", "name": "c9f265957fb7a93fef2b566ecc5420c8", "is_reserved": 0, "fusion_lat": 0.0}, {"type": "electric_scooter", "rental_uris": {"ios": "https://dc.lft.to/lastmile_qr_scan", "android": "https://dc.lft.to/lastmile_qr_scan"}, "lon": -77.052172, "fusion_lon": 0.0, "is_disabled": 0, "lat": 38.9249865, "bike_id": "4fb2be0d794121058290c410a6793784", "name": "4fb2be0d794121058290c410a6793784", "is_reserved": 0, "fusion_lat": 0.0}, {"type": "electric_scooter", "rental_uris": {"ios": "https://dc.lft.to/lastmile_qr_scan", "android": "https://dc.lft.to/lastmile_qr_scan"}, "lon": -77.031959, "fusion_lon": 0.0, "is_disabled": 0, "lat": 38.917303, "bike_id": "a222fb61ef3752aa2c23913c6db7fe87", "name": "a222fb61ef3752aa2c23913c6db7fe87", "is_reserved": 0, "fusion_lat": 0.0}, {"type": "electric_scooter", "rental_uris": {"ios": "https://dc.lft.to/lastmile_qr_scan", "android": "https://dc.lft.to/lastmile_qr_scan"}, "lon": -77.02131283333334, "fusion_lon": 0.0, "is_disabled": 0, "lat": 38.887366666666665, "bike_id": "2ab042f61ac37ee57545e3fa57082c3b", "name": "2ab042f61ac37ee57545e3fa57082c3b", "is_reserved": 0, "fusion_lat": 0.0}, {"type": "electric_scooter", "rental_uris": {"ios": "https://dc.lft.to/lastmile_qr_scan", "android": "https://dc.lft.to/lastmile_qr_scan"}, "lon": -77.0324505, "fusion_lon": 0.0, "is_disabled": 0, "lat": 38.908760666666666, "bike_id": "470d13ace7d224e67fac8a79c4bb77af", "name": "470d13ace7d224e67fac8a79c4bb77af", "is_reserved": 0, "fusion_lat": 0.0}, {"type": "electric_scooter", "rental_uris": {"ios": "https://dc.lft.to/lastmile_qr_scan", "android": "https://dc.lft.to/lastmile_qr_scan"}, "lon": -76.9990835, "fusion_lon": 0.0, "is_disabled": 0, "lat": 38.948195, "bike_id": "f3dcc1fe14a1bc6f4f536897a7791a55", "name": "f3dcc1fe14a1bc6f4f536897a7791a55", "is_reserved": 0, "fusion_lat": 0.0}, {"type": "electric_scooter", "rental_uris": {"ios": "https://dc.lft.to/lastmile_qr_scan", "android": "https://dc.lft.to/lastmile_qr_scan"}, "lon": -77.06033916666667, "fusion_lon": 0.0, "is_disabled": 0, "lat": 38.9444705, "bike_id": "5d8fe823e093e95d26f1a6584debb97b", "name": "5d8fe823e093e95d26f1a6584debb97b", "is_reserved": 0, "fusion_lat": 0.0}, {"type": "electric_scooter", "rental_uris": {"ios": "https://dc.lft.to/lastmile_qr_scan", "android": "https://dc.lft.to/lastmile_qr_scan"}, "lon": -77.02201333333333, "fusion_lon": 0.0, "is_disabled": 0, "lat": 38.91482533333333, "bike_id": "5be5a9ba66a1aaf510ff9a9d659281b1", "name": "5be5a9ba66a1aaf510ff9a9d659281b1", "is_reserved": 0, "fusion_lat": 0.0}, {"type": "electric_scooter", "rental_uris": {"ios": "https://dc.lft.to/lastmile_qr_scan", "android": "https://dc.lft.to/lastmile_qr_scan"}, "lon": -76.93609766666667, "fusion_lon": 0.0, "is_disabled": 0, "lat": 38.89681566666667, "bike_id": "0647256849c361a4b3394540be1b444b", "name": "0647256849c361a4b3394540be1b444b", "is_reserved": 0, "fusion_lat": 0.0}, {"type": "electric_scooter", "rental_uris": {"ios": "https://dc.lft.to/lastmile_qr_scan", "android": "https://dc.lft.to/lastmile_qr_scan"}, "lon": -77.06046616666667, "fusion_lon": 0.0, "is_disabled": 0, "lat": 38.902199333333336, "bike_id": "0b3f84772c6d6e4749629a4d64c9ce09", "name": "0b3f84772c6d6e4749629a4d64c9ce09", "is_reserved": 0, "fusion_lat": 0.0}, {"type": "electric_scooter", "rental_uris": {"ios": "https://dc.lft.to/lastmile_qr_scan", "android": "https://dc.lft.to/lastmile_qr_scan"}, "lon": -77.00918883333334, "fusion_lon": 0.0, "is_disabled": 0, "lat": 38.909289333333334, "bike_id": "961b9abbea3f3afb8bb4e10ead3800d9", "name": "961b9abbea3f3afb8bb4e10ead3800d9", "is_reserved": 0, "fusion_lat": 0.0}, {"type": "electric_scooter", "rental_uris": {"ios": "https://dc.lft.to/lastmile_qr_scan", "android": "https://dc.lft.to/lastmile_qr_scan"}, "lon": -77.044534, "fusion_lon": 0.0, "is_disabled": 0, "lat": 38.90566483333333, "bike_id": "85488456101f0104f1f940b11079fd5f", "name": "85488456101f0104f1f940b11079fd5f", "is_reserved": 0, "fusion_lat": 0.0}, {"type": "electric_scooter", "rental_uris": {"ios": "https://dc.lft.to/lastmile_qr_scan", "android": "https://dc.lft.to/lastmile_qr_scan"}, "lon": -77.03239133333334, "fusion_lon": 0.0, "is_disabled": 0, "lat": 38.92983233333333, "bike_id": "e471fdb40dc5651664eeda1c5430fcb1", "name": "e471fdb40dc5651664eeda1c5430fcb1", "is_reserved": 0, "fusion_lat": 0.0}, {"type": "electric_scooter", "rental_uris": {"ios": "https://dc.lft.to/lastmile_qr_scan", "android": "https://dc.lft.to/lastmile_qr_scan"}, "lon": -77.00892566666667, "fusion_lon": 0.0, "is_disabled": 0, "lat": 38.91271183333333, "bike_id": "5e382c2e4641054c798b9011029f0318", "name": "5e382c2e4641054c798b9011029f0318", "is_reserved": 0, "fusion_lat": 0.0}, {"type": "electric_scooter", "rental_uris": {"ios": "https://dc.lft.to/lastmile_qr_scan", "android": "https://dc.lft.to/lastmile_qr_scan"}, "lon": -77.03898683333334, "fusion_lon": 0.0, "is_disabled": 0, "lat": 38.91702316666667, "bike_id": "db674084bcdc7c8874cc8fb46663e10a", "name": "db674084bcdc7c8874cc8fb46663e10a", "is_reserved": 0, "fusion_lat": 0.0}, {"type": "electric_scooter", "rental_uris": {"ios": "https://dc.lft.to/lastmile_qr_scan", "android": "https://dc.lft.to/lastmile_qr_scan"}, "lon": -77.03446183333334, "fusion_lon": 0.0, "is_disabled": 0, "lat": 38.909963833333336, "bike_id": "2a6854420cd5d9d00194e8d108c048f6", "name": "2a6854420cd5d9d00194e8d108c048f6", "is_reserved": 0, "fusion_lat": 0.0}, {"type": "electric_scooter", "rental_uris": {"ios": "https://dc.lft.to/lastmile_qr_scan", "android": "https://dc.lft.to/lastmile_qr_scan"}, "lon": -77.02323683333333, "fusion_lon": 0.0, "is_disabled": 0, "lat": 38.892165, "bike_id": "63f845997b3073b23d29dc3b258dd5cb", "name": "63f845997b3073b23d29dc3b258dd5cb", "is_reserved": 0, "fusion_lat": 0.0}, {"type": "electric_bike", "rental_uris": {"ios": "https://dc.lft.to/lastmile_qr_scan", "android": "https://dc.lft.to/lastmile_qr_scan"}, "lon": -77.20840316666667, "fusion_lon": 0.0, "is_disabled": 0, "lat": 38.9246505, "bike_id": "8949a48db230c64b33f7d32cb5de0091", "name": "8949a48db230c64b33f7d32cb5de0091", "is_reserved": 0, "fusion_lat": 0.0}, {"type": "electric_scooter", "rental_uris": {"ios": "https://dc.lft.to/lastmile_qr_scan", "android": "https://dc.lft.to/lastmile_qr_scan"}, "lon": -77.03835566666666, "fusion_lon": 0.0, "is_disabled": 0, "lat": 38.9147635, "bike_id": "5fca5e5855131aadac19d3fb2730badb", "name": "5fca5e5855131aadac19d3fb2730badb", "is_reserved": 0, "fusion_lat": 0.0}, {"type": "electric_scooter", "rental_uris": {"ios": "https://dc.lft.to/lastmile_qr_scan", "android": "https://dc.lft.to/lastmile_qr_scan"}, "lon": -77.0213065, "fusion_lon": 0.0, "is_disabled": 0, "lat": 38.887383, "bike_id": "250024162c16eec66faec3499c05f500", "name": "250024162c16eec66faec3499c05f500", "is_reserved": 0, "fusion_lat": 0.0}, {"type": "electric_bike", "rental_uris": {"ios": "https://dc.lft.to/lastmile_qr_scan", "android": "https://dc.lft.to/lastmile_qr_scan"}, "lon": -77.11321666666667, "fusion_lon": 0.0, "is_disabled": 0, "lat": 38.831546, "bike_id": "d0edb846ba2169ebf815f75e51e85736", "name": "d0edb846ba2169ebf815f75e51e85736", "is_reserved": 0, "fusion_lat": 0.0}, {"type": "electric_bike", "rental_uris": {"ios": "https://dc.lft.to/lastmile_qr_scan", "android": "https://dc.lft.to/lastmile_qr_scan"}, "lon": -77.0583475, "fusion_lon": 0.0, "is_disabled": 0, "lat": 38.84255016666667, "bike_id": "bc2200041b8ad29686034dbbc87eb342", "name": "bc2200041b8ad29686034dbbc87eb342", "is_reserved": 0, "fusion_lat": 0.0}, {"type": "electric_scooter", "rental_uris": {"ios": "https://dc.lft.to/lastmile_qr_scan", "android": "https://dc.lft.to/lastmile_qr_scan"}, "lon": -77.0399505, "fusion_lon": 0.0, "is_disabled": 0, "lat": 38.8988355, "bike_id": "a210cd9e98b108df2177d99f51de7984", "name": "a210cd9e98b108df2177d99f51de7984", "is_reserved": 0, "fusion_lat": 0.0}, {"type": "electric_scooter", "rental_uris": {"ios": "https://dc.lft.to/lastmile_qr_scan", "android": "https://dc.lft.to/lastmile_qr_scan"}, "lon": -77.0324655, "fusion_lon": 0.0, "is_disabled": 0, "lat": 38.917062, "bike_id": "e29590707d5c29ef867291e8ac6bfd26", "name": "e29590707d5c29ef867291e8ac6bfd26", "is_reserved": 0, "fusion_lat": 0.0}, {"type": "electric_scooter", "rental_uris": {"ios": "https://dc.lft.to/lastmile_qr_scan", "android": "https://dc.lft.to/lastmile_qr_scan"}, "lon": -76.99702183333333, "fusion_lon": 0.0, "is_disabled": 0, "lat": 38.908315333333334, "bike_id": "0d035f82fe13ca8560e0e9cdd9eb53f0", "name": "0d035f82fe13ca8560e0e9cdd9eb53f0", "is_reserved": 0, "fusion_lat": 0.0}, {"type": "electric_scooter", "rental_uris": {"ios": "https://dc.lft.to/lastmile_qr_scan", "android": "https://dc.lft.to/lastmile_qr_scan"}, "lon": -77.04882533333334, "fusion_lon": 0.0, "is_disabled": 0, "lat": 38.88988333333333, "bike_id": "51c1f8c56294ecf312cfeb3be2dfa5e3", "name": "51c1f8c56294ecf312cfeb3be2dfa5e3", "is_reserved": 0, "fusion_lat": 0.0}, {"type": "electric_scooter", "rental_uris": {"ios": "https://dc.lft.to/lastmile_qr_scan", "android": "https://dc.lft.to/lastmile_qr_scan"}, "lon": -77.02197583333333, "fusion_lon": 0.0, "is_disabled": 0, "lat": 38.9108475, "bike_id": "ad7191336325f5a69ef272b8a4f6b89d", "name": "ad7191336325f5a69ef272b8a4f6b89d", "is_reserved": 0, "fusion_lat": 0.0}, {"type": "electric_scooter", "rental_uris": {"ios": "https://dc.lft.to/lastmile_qr_scan", "android": "https://dc.lft.to/lastmile_qr_scan"}, "lon": -77.0322865, "fusion_lon": 0.0, "is_disabled": 0, "lat": 38.921699, "bike_id": "64da66c06ed1856cd7908baad2bfbaf3", "name": "64da66c06ed1856cd7908baad2bfbaf3", "is_reserved": 0, "fusion_lat": 0.0}, {"type": "electric_scooter", "rental_uris": {"ios": "https://dc.lft.to/lastmile_qr_scan", "android": "https://dc.lft.to/lastmile_qr_scan"}, "lon": -77.03844866666667, "fusion_lon": 0.0, "is_disabled": 0, "lat": 38.9232095, "bike_id": "76864caa1161e630676be66cb522309b", "name": "76864caa1161e630676be66cb522309b", "is_reserved": 0, "fusion_lat": 0.0}, {"type": "electric_scooter", "rental_uris": {"ios": "https://dc.lft.to/lastmile_qr_scan", "android": "https://dc.lft.to/lastmile_qr_scan"}, "lon": -77.04458616666666, "fusion_lon": 0.0, "is_disabled": 0, "lat": 38.90353066666667, "bike_id": "99bbc91d578fe1f324c4a4902da31b09", "name": "99bbc91d578fe1f324c4a4902da31b09", "is_reserved": 0, "fusion_lat": 0.0}, {"type": "electric_scooter", "rental_uris": {"ios": "https://dc.lft.to/lastmile_qr_scan", "android": "https://dc.lft.to/lastmile_qr_scan"}, "lon": -77.041464, "fusion_lon": 0.0, "is_disabled": 0, "lat": 38.926431666666666, "bike_id": "6980fafb999fdc3a40e6b635805c7b9a", "name": "6980fafb999fdc3a40e6b635805c7b9a", "is_reserved": 0, "fusion_lat": 0.0}, {"type": "electric_scooter", "rental_uris": {"ios": "https://dc.lft.to/lastmile_qr_scan", "android": "https://dc.lft.to/lastmile_qr_scan"}, "lon": -77.0425335, "fusion_lon": 0.0, "is_disabled": 0, "lat": 38.9219635, "bike_id": "f51cbfc702247c25e9db42a306c2ea8c", "name": "f51cbfc702247c25e9db42a306c2ea8c", "is_reserved": 0, "fusion_lat": 0.0}, {"type": "electric_bike", "rental_uris": {"ios": "https://dc.lft.to/lastmile_qr_scan", "android": "https://dc.lft.to/lastmile_qr_scan"}, "lon": -77.099649, "fusion_lon": 0.0, "is_disabled": 0, "lat": 38.93356516666667, "bike_id": "17abb582e6ac897604d1fa06d0a18c2a", "name": "17abb582e6ac897604d1fa06d0a18c2a", "is_reserved": 0, "fusion_lat": 0.0}, {"type": "electric_scooter", "rental_uris": {"ios": "https://dc.lft.to/lastmile_qr_scan", "android": "https://dc.lft.to/lastmile_qr_scan"}, "lon": -77.051323, "fusion_lon": 0.0, "is_disabled": 0, "lat": 38.9236235, "bike_id": "b913ecc7436d75e46606a274309e5e7b", "name": "b913ecc7436d75e46606a274309e5e7b", "is_reserved": 0, "fusion_lat": 0.0}, {"type": "electric_scooter", "rental_uris": {"ios": "https://dc.lft.to/lastmile_qr_scan", "android": "https://dc.lft.to/lastmile_qr_scan"}, "lon": -77.02406233333333, "fusion_lon": 0.0, "is_disabled": 0, "lat": 38.917461833333334, "bike_id": "823d7185e0d96a87454dbaa4bf5382db", "name": "823d7185e0d96a87454dbaa4bf5382db", "is_reserved": 0, "fusion_lat": 0.0}, {"type": "electric_scooter", "rental_uris": {"ios": "https://dc.lft.to/lastmile_qr_scan", "android": "https://dc.lft.to/lastmile_qr_scan"}, "lon": -77.02190816666666, "fusion_lon": 0.0, "is_disabled": 0, "lat": 38.91009833333333, "bike_id": "f9f74e85de2c76e8da6455bc549634a6", "name": "f9f74e85de2c76e8da6455bc549634a6", "is_reserved": 0, "fusion_lat": 0.0}, {"type": "electric_scooter", "rental_uris": {"ios": "https://dc.lft.to/lastmile_qr_scan", "android": "https://dc.lft.to/lastmile_qr_scan"}, "lon": -77.03187916666667, "fusion_lon": 0.0, "is_disabled": 0, "lat": 38.91918866666666, "bike_id": "a11f9cdcd5479209fc6ff41c3c1bef33", "name": "a11f9cdcd5479209fc6ff41c3c1bef33", "is_reserved": 0, "fusion_lat": 0.0}, {"type": "electric_bike", "rental_uris": {"ios": "https://dc.lft.to/lastmile_qr_scan", "android": "https://dc.lft.to/lastmile_qr_scan"}, "lon": -76.92331066666667, "fusion_lon": 0.0, "is_disabled": 0, "lat": 38.871032, "bike_id": "68ffd9451afa0d14c829731958560dfb", "name": "68ffd9451afa0d14c829731958560dfb", "is_reserved": 0, "fusion_lat": 0.0}, {"type": "electric_scooter", "rental_uris": {"ios": "https://dc.lft.to/lastmile_qr_scan", "android": "https://dc.lft.to/lastmile_qr_scan"}, "lon": -77.03443033333333, "fusion_lon": 0.0, "is_disabled": 0, "lat": 38.91840883333333, "bike_id": "c2e703b29370ae39f4e5dc6d79dda334", "name": "c2e703b29370ae39f4e5dc6d79dda334", "is_reserved": 0, "fusion_lat": 0.0}, {"type": "electric_scooter", "rental_uris": {"ios": "https://dc.lft.to/lastmile_qr_scan", "android": "https://dc.lft.to/lastmile_qr_scan"}, "lon": -76.98783583333334, "fusion_lon": 0.0, "is_disabled": 0, "lat": 38.89825166666667, "bike_id": "f2876cf3af7f0bacbb0d232dec99f2ae", "name": "f2876cf3af7f0bacbb0d232dec99f2ae", "is_reserved": 0, "fusion_lat": 0.0}, {"type": "electric_scooter", "rental_uris": {"ios": "https://dc.lft.to/lastmile_qr_scan", "android": "https://dc.lft.to/lastmile_qr_scan"}, "lon": -77.028297, "fusion_lon": 0.0, "is_disabled": 0, "lat": 38.9318995, "bike_id": "882c5a21e74cf5a38421efdf03a002fb", "name": "882c5a21e74cf5a38421efdf03a002fb", "is_reserved": 0, "fusion_lat": 0.0}, {"type": "electric_scooter", "rental_uris": {"ios": "https://dc.lft.to/lastmile_qr_scan", "android": "https://dc.lft.to/lastmile_qr_scan"}, "lon": -77.03467916666666, "fusion_lon": 0.0, "is_disabled": 0, "lat": 38.90737583333333, "bike_id": "cc633b3b12bcd22d2c83f727c66518f2", "name": "cc633b3b12bcd22d2c83f727c66518f2", "is_reserved": 0, "fusion_lat": 0.0}, {"type": "electric_scooter", "rental_uris": {"ios": "https://dc.lft.to/lastmile_qr_scan", "android": "https://dc.lft.to/lastmile_qr_scan"}, "lon": -77.04292533333333, "fusion_lon": 0.0, "is_disabled": 0, "lat": 38.9036735, "bike_id": "7d35800bf5bf6fa5d4791bf3bc1c911d", "name": "7d35800bf5bf6fa5d4791bf3bc1c911d", "is_reserved": 0, "fusion_lat": 0.0}, {"type": "electric_scooter", "rental_uris": {"ios": "https://dc.lft.to/lastmile_qr_scan", "android": "https://dc.lft.to/lastmile_qr_scan"}, "lon": -77.01211, "fusion_lon": 0.0, "is_disabled": 0, "lat": 38.89326466666667, "bike_id": "27a564521cf09f5ad0dd61c99aabe30b", "name": "27a564521cf09f5ad0dd61c99aabe30b", "is_reserved": 0, "fusion_lat": 0.0}, {"type": "electric_scooter", "rental_uris": {"ios": "https://dc.lft.to/lastmile_qr_scan", "android": "https://dc.lft.to/lastmile_qr_scan"}, "lon": -77.00669133333334, "fusion_lon": 0.0, "is_disabled": 0, "lat": 38.899952166666665, "bike_id": "1a42ab4a8f15a82c4824233b089eddfc", "name": "1a42ab4a8f15a82c4824233b089eddfc", "is_reserved": 0, "fusion_lat": 0.0}, {"type": "electric_scooter", "rental_uris": {"ios": "https://dc.lft.to/lastmile_qr_scan", "android": "https://dc.lft.to/lastmile_qr_scan"}, "lon": -76.9773175, "fusion_lon": 0.0, "is_disabled": 0, "lat": 38.895140833333336, "bike_id": "d1170a563a1a1fd6adf17f6541da20f8", "name": "d1170a563a1a1fd6adf17f6541da20f8", "is_reserved": 0, "fusion_lat": 0.0}, {"type": "electric_scooter", "rental_uris": {"ios": "https://dc.lft.to/lastmile_qr_scan", "android": "https://dc.lft.to/lastmile_qr_scan"}, "lon": -77.0143915, "fusion_lon": 0.0, "is_disabled": 0, "lat": 38.9196245, "bike_id": "ab211af43198aac2e6d25195dba1afcc", "name": "ab211af43198aac2e6d25195dba1afcc", "is_reserved": 0, "fusion_lat": 0.0}, {"type": "electric_scooter", "rental_uris": {"ios": "https://dc.lft.to/lastmile_qr_scan", "android": "https://dc.lft.to/lastmile_qr_scan"}, "lon": -77.0364155, "fusion_lon": 0.0, "is_disabled": 0, "lat": 38.90276866666667, "bike_id": "d17a467f1b18c8932ed064724c4802bd", "name": "d17a467f1b18c8932ed064724c4802bd", "is_reserved": 0, "fusion_lat": 0.0}, {"type": "electric_scooter", "rental_uris": {"ios": "https://dc.lft.to/lastmile_qr_scan", "android": "https://dc.lft.to/lastmile_qr_scan"}, "lon": -77.03974383333333, "fusion_lon": 0.0, "is_disabled": 0, "lat": 38.898732333333335, "bike_id": "3a5003a42fabda8ebe4f7641a6091ad5", "name": "3a5003a42fabda8ebe4f7641a6091ad5", "is_reserved": 0, "fusion_lat": 0.0}, {"type": "electric_bike", "rental_uris": {"ios": "https://dc.lft.to/lastmile_qr_scan", "android": "https://dc.lft.to/lastmile_qr_scan"}, "lon": -77.04922466666666, "fusion_lon": 0.0, "is_disabled": 0, "lat": 38.81341183333333, "bike_id": "9adf235c1dfe7749fae15cd39fccc4e7", "name": "9adf235c1dfe7749fae15cd39fccc4e7", "is_reserved": 0, "fusion_lat": 0.0}, {"type": "electric_bike", "rental_uris": {"ios": "https://dc.lft.to/lastmile_qr_scan", "android": "https://dc.lft.to/lastmile_qr_scan"}, "lon": -76.98356066666666, "fusion_lon": 0.0, "is_disabled": 0, "lat": 38.89436033333333, "bike_id": "ad2c34ae78ff5796f59fb112eccc8877", "name": "ad2c34ae78ff5796f59fb112eccc8877", "is_reserved": 0, "fusion_lat": 0.0}, {"type": "electric_bike", "rental_uris": {"ios": "https://dc.lft.to/lastmile_qr_scan", "android": "https://dc.lft.to/lastmile_qr_scan"}, "lon": -77.035143, "fusion_lon": 0.0, "is_disabled": 0, "lat": 38.96204683333333, "bike_id": "01fd522f4278f6165faa9cd1000f0f12", "name": "01fd522f4278f6165faa9cd1000f0f12", "is_reserved": 0, "fusion_lat": 0.0}, {"type": "electric_scooter", "rental_uris": {"ios": "https://dc.lft.to/lastmile_qr_scan", "android": "https://dc.lft.to/lastmile_qr_scan"}, "lon": -77.00214833333334, "fusion_lon": 0.0, "is_disabled": 0, "lat": 38.904305, "bike_id": "5be22b33d824ade95135809f270c10c8", "name": "5be22b33d824ade95135809f270c10c8", "is_reserved": 0, "fusion_lat": 0.0}, {"type": "electric_scooter", "rental_uris": {"ios": "https://dc.lft.to/lastmile_qr_scan", "android": "https://dc.lft.to/lastmile_qr_scan"}, "lon": -77.03277616666666, "fusion_lon": 0.0, "is_disabled": 0, "lat": 38.9325335, "bike_id": "f84ce589129c341de85c5659546a581b", "name": "f84ce589129c341de85c5659546a581b", "is_reserved": 0, "fusion_lat": 0.0}, {"type": "electric_scooter", "rental_uris": {"ios": "https://dc.lft.to/lastmile_qr_scan", "android": "https://dc.lft.to/lastmile_qr_scan"}, "lon": -77.02399616666666, "fusion_lon": 0.0, "is_disabled": 0, "lat": 38.917412666666664, "bike_id": "071fc4e704196f938ebc84f64dd567d2", "name": "071fc4e704196f938ebc84f64dd567d2", "is_reserved": 0, "fusion_lat": 0.0}, {"type": "electric_scooter", "rental_uris": {"ios": "https://dc.lft.to/lastmile_qr_scan", "android": "https://dc.lft.to/lastmile_qr_scan"}, "lon": -77.0405045, "fusion_lon": 0.0, "is_disabled": 0, "lat": 38.898807, "bike_id": "b14698c0de2ca21f5220cf489dbc266a", "name": "b14698c0de2ca21f5220cf489dbc266a", "is_reserved": 0, "fusion_lat": 0.0}, {"type": "electric_scooter", "rental_uris": {"ios": "https://dc.lft.to/lastmile_qr_scan", "android": "https://dc.lft.to/lastmile_qr_scan"}, "lon": -77.03823816666667, "fusion_lon": 0.0, "is_disabled": 0, "lat": 38.909858166666666, "bike_id": "a51d97d2561fd863337d032af71dd075", "name": "a51d97d2561fd863337d032af71dd075", "is_reserved": 0, "fusion_lat": 0.0}, {"type": "electric_bike", "rental_uris": {"ios": "https://dc.lft.to/lastmile_qr_scan", "android": "https://dc.lft.to/lastmile_qr_scan"}, "lon": -77.04492566666667, "fusion_lon": 0.0, "is_disabled": 0, "lat": 38.842953666666666, "bike_id": "a8750bee51f6f3bff1b36c401779a76b", "name": "a8750bee51f6f3bff1b36c401779a76b", "is_reserved": 0, "fusion_lat": 0.0}, {"type": "electric_scooter", "rental_uris": {"ios": "https://dc.lft.to/lastmile_qr_scan", "android": "https://dc.lft.to/lastmile_qr_scan"}, "lon": -77.0396875, "fusion_lon": 0.0, "is_disabled": 0, "lat": 38.89876066666667, "bike_id": "75baf04eef1fb0dc2c534e2b522e43aa", "name": "75baf04eef1fb0dc2c534e2b522e43aa", "is_reserved": 0, "fusion_lat": 0.0}, {"type": "electric_scooter", "rental_uris": {"ios": "https://dc.lft.to/lastmile_qr_scan", "android": "https://dc.lft.to/lastmile_qr_scan"}, "lon": -77.0828515, "fusion_lon": 0.0, "is_disabled": 0, "lat": 38.96091833333333, "bike_id": "a6f3f02358627b5d1acbed02adc5af6c", "name": "a6f3f02358627b5d1acbed02adc5af6c", "is_reserved": 0, "fusion_lat": 0.0}, {"type": "electric_scooter", "rental_uris": {"ios": "https://dc.lft.to/lastmile_qr_scan", "android": "https://dc.lft.to/lastmile_qr_scan"}, "lon": -77.03326566666667, "fusion_lon": 0.0, "is_disabled": 0, "lat": 38.90320116666667, "bike_id": "45fdd4ecb0025f9af08aa159df64a3a2", "name": "45fdd4ecb0025f9af08aa159df64a3a2", "is_reserved": 0, "fusion_lat": 0.0}, {"type": "electric_bike", "rental_uris": {"ios": "https://dc.lft.to/lastmile_qr_scan", "android": "https://dc.lft.to/lastmile_qr_scan"}, "lon": -77.032241, "fusion_lon": 0.0, "is_disabled": 0, "lat": 38.91543433333333, "bike_id": "1a6efeb2f37b54823f1a1519c9f2ec33", "name": "1a6efeb2f37b54823f1a1519c9f2ec33", "is_reserved": 0, "fusion_lat": 0.0}, {"type": "electric_scooter", "rental_uris": {"ios": "https://dc.lft.to/lastmile_qr_scan", "android": "https://dc.lft.to/lastmile_qr_scan"}, "lon": -77.03270483333333, "fusion_lon": 0.0, "is_disabled": 0, "lat": 38.92782116666667, "bike_id": "9afbfbc5db153929969d116931b07c6a", "name": "9afbfbc5db153929969d116931b07c6a", "is_reserved": 0, "fusion_lat": 0.0}, {"type": "electric_scooter", "rental_uris": {"ios": "https://dc.lft.to/lastmile_qr_scan", "android": "https://dc.lft.to/lastmile_qr_scan"}, "lon": -76.9984165, "fusion_lon": 0.0, "is_disabled": 0, "lat": 38.900045166666665, "bike_id": "2c55dc3d51139ef362e44510e84da76b", "name": "2c55dc3d51139ef362e44510e84da76b", "is_reserved": 0, "fusion_lat": 0.0}, {"type": "electric_scooter", "rental_uris": {"ios": "https://dc.lft.to/lastmile_qr_scan", "android": "https://dc.lft.to/lastmile_qr_scan"}, "lon": -77.02140783333333, "fusion_lon": 0.0, "is_disabled": 0, "lat": 38.925923166666664, "bike_id": "f39f1b590c09c77a3217e1e82a733ba3", "name": "f39f1b590c09c77a3217e1e82a733ba3", "is_reserved": 0, "fusion_lat": 0.0}, {"type": "electric_scooter", "rental_uris": {"ios": "https://dc.lft.to/lastmile_qr_scan", "android": "https://dc.lft.to/lastmile_qr_scan"}, "lon": -77.04874516666666, "fusion_lon": 0.0, "is_disabled": 0, "lat": 38.90221116666667, "bike_id": "3fafcf223a077bee2d42958b95955b07", "name": "3fafcf223a077bee2d42958b95955b07", "is_reserved": 0, "fusion_lat": 0.0}, {"type": "electric_scooter", "rental_uris": {"ios": "https://dc.lft.to/lastmile_qr_scan", "android": "https://dc.lft.to/lastmile_qr_scan"}, "lon": -77.04136116666666, "fusion_lon": 0.0, "is_disabled": 0, "lat": 38.9339435, "bike_id": "ff11652ebb2639667adf5d8002cb8163", "name": "ff11652ebb2639667adf5d8002cb8163", "is_reserved": 0, "fusion_lat": 0.0}, {"type": "electric_scooter", "rental_uris": {"ios": "https://dc.lft.to/lastmile_qr_scan", "android": "https://dc.lft.to/lastmile_qr_scan"}, "lon": -77.072722, "fusion_lon": 0.0, "is_disabled": 0, "lat": 38.934871666666666, "bike_id": "b80246315937fe1699ca718683657d30", "name": "b80246315937fe1699ca718683657d30", "is_reserved": 0, "fusion_lat": 0.0}, {"type": "electric_scooter", "rental_uris": {"ios": "https://dc.lft.to/lastmile_qr_scan", "android": "https://dc.lft.to/lastmile_qr_scan"}, "lon": -77.02694416666667, "fusion_lon": 0.0, "is_disabled": 0, "lat": 38.91122383333333, "bike_id": "25e0c9cf562c0be39b343ba593a978cf", "name": "25e0c9cf562c0be39b343ba593a978cf", "is_reserved": 0, "fusion_lat": 0.0}, {"type": "electric_scooter", "rental_uris": {"ios": "https://dc.lft.to/lastmile_qr_scan", "android": "https://dc.lft.to/lastmile_qr_scan"}, "lon": -76.96012633333333, "fusion_lon": 0.0, "is_disabled": 0, "lat": 38.880171, "bike_id": "967ea4022a999736cbd6281cdfad7fe1", "name": "967ea4022a999736cbd6281cdfad7fe1", "is_reserved": 0, "fusion_lat": 0.0}, {"type": "electric_scooter", "rental_uris": {"ios": "https://dc.lft.to/lastmile_qr_scan", "android": "https://dc.lft.to/lastmile_qr_scan"}, "lon": -77.05134016666666, "fusion_lon": 0.0, "is_disabled": 0, "lat": 38.9235985, "bike_id": "e5162c5d1bbd5cbfba04e001505eb26f", "name": "e5162c5d1bbd5cbfba04e001505eb26f", "is_reserved": 0, "fusion_lat": 0.0}, {"type": "electric_scooter", "rental_uris": {"ios": "https://dc.lft.to/lastmile_qr_scan", "android": "https://dc.lft.to/lastmile_qr_scan"}, "lon": -77.03087283333333, "fusion_lon": 0.0, "is_disabled": 0, "lat": 38.938604166666664, "bike_id": "f9420ccf84e319c40e6b5ed4b651941f", "name": "f9420ccf84e319c40e6b5ed4b651941f", "is_reserved": 0, "fusion_lat": 0.0}, {"type": "electric_scooter", "rental_uris": {"ios": "https://dc.lft.to/lastmile_qr_scan", "android": "https://dc.lft.to/lastmile_qr_scan"}, "lon": -76.9888825, "fusion_lon": 0.0, "is_disabled": 0, "lat": 38.86648616666667, "bike_id": "9d239faadd0a474b9ee97eead634c3be", "name": "9d239faadd0a474b9ee97eead634c3be", "is_reserved": 0, "fusion_lat": 0.0}, {"type": "electric_scooter", "rental_uris": {"ios": "https://dc.lft.to/lastmile_qr_scan", "android": "https://dc.lft.to/lastmile_qr_scan"}, "lon": -77.02795983333333, "fusion_lon": 0.0, "is_disabled": 0, "lat": 38.895775666666665, "bike_id": "1ecff5e0dfce8cd45facb6b4ea31ed04", "name": "1ecff5e0dfce8cd45facb6b4ea31ed04", "is_reserved": 0, "fusion_lat": 0.0}, {"type": "electric_scooter", "rental_uris": {"ios": "https://dc.lft.to/lastmile_qr_scan", "android": "https://dc.lft.to/lastmile_qr_scan"}, "lon": -77.04232416666666, "fusion_lon": 0.0, "is_disabled": 0, "lat": 38.9219365, "bike_id": "e799cbb4606267a4b6c144f45bd17458", "name": "e799cbb4606267a4b6c144f45bd17458", "is_reserved": 0, "fusion_lat": 0.0}, {"type": "electric_scooter", "rental_uris": {"ios": "https://dc.lft.to/lastmile_qr_scan", "android": "https://dc.lft.to/lastmile_qr_scan"}, "lon": -77.05274983333334, "fusion_lon": 0.0, "is_disabled": 0, "lat": 38.9254165, "bike_id": "00ab6886e1fa9b8f2cbc7fca8a10c130", "name": "00ab6886e1fa9b8f2cbc7fca8a10c130", "is_reserved": 0, "fusion_lat": 0.0}, {"type": "electric_scooter", "rental_uris": {"ios": "https://dc.lft.to/lastmile_qr_scan", "android": "https://dc.lft.to/lastmile_qr_scan"}, "lon": -77.0177925, "fusion_lon": 0.0, "is_disabled": 0, "lat": 38.887132666666666, "bike_id": "d05bf60c5614070886cdb60355bc2cc0", "name": "d05bf60c5614070886cdb60355bc2cc0", "is_reserved": 0, "fusion_lat": 0.0}, {"type": "electric_scooter", "rental_uris": {"ios": "https://dc.lft.to/lastmile_qr_scan", "android": "https://dc.lft.to/lastmile_qr_scan"}, "lon": -77.03635133333333, "fusion_lon": 0.0, "is_disabled": 0, "lat": 38.9305295, "bike_id": "1f566b6e7d12a651b2d25a9d237b9ed8", "name": "1f566b6e7d12a651b2d25a9d237b9ed8", "is_reserved": 0, "fusion_lat": 0.0}, {"type": "electric_scooter", "rental_uris": {"ios": "https://dc.lft.to/lastmile_qr_scan", "android": "https://dc.lft.to/lastmile_qr_scan"}, "lon": -76.95131216666667, "fusion_lon": 0.0, "is_disabled": 0, "lat": 38.890284, "bike_id": "2ae83c5b9fd8155b65b8a9e6b0b5b70c", "name": "2ae83c5b9fd8155b65b8a9e6b0b5b70c", "is_reserved": 0, "fusion_lat": 0.0}, {"type": "electric_bike", "rental_uris": {"ios": "https://dc.lft.to/lastmile_qr_scan", "android": "https://dc.lft.to/lastmile_qr_scan"}, "lon": -77.118984, "fusion_lon": 0.0, "is_disabled": 0, "lat": 39.07498966666667, "bike_id": "b2c3de6b5fea588d9405ec280078d1f0", "name": "b2c3de6b5fea588d9405ec280078d1f0", "is_reserved": 0, "fusion_lat": 0.0}, {"type": "electric_scooter", "rental_uris": {"ios": "https://dc.lft.to/lastmile_qr_scan", "android": "https://dc.lft.to/lastmile_qr_scan"}, "lon": -77.03391266666667, "fusion_lon": 0.0, "is_disabled": 0, "lat": 38.92453016666666, "bike_id": "1863adc52956f93986f7c00f0275a922", "name": "1863adc52956f93986f7c00f0275a922", "is_reserved": 0, "fusion_lat": 0.0}, {"type": "electric_scooter", "rental_uris": {"ios": "https://dc.lft.to/lastmile_qr_scan", "android": "https://dc.lft.to/lastmile_qr_scan"}, "lon": -77.03727816666667, "fusion_lon": 0.0, "is_disabled": 0, "lat": 38.93070633333333, "bike_id": "41c84d0d4f6da1c1408bff5c5149bfdd", "name": "41c84d0d4f6da1c1408bff5c5149bfdd", "is_reserved": 0, "fusion_lat": 0.0}, {"type": "electric_bike", "rental_uris": {"ios": "https://dc.lft.to/lastmile_qr_scan", "android": "https://dc.lft.to/lastmile_qr_scan"}, "lon": -77.18743083333334, "fusion_lon": 0.0, "is_disabled": 0, "lat": 38.89348366666667, "bike_id": "f166b74c258f4087830c43a2e3c28dde", "name": "f166b74c258f4087830c43a2e3c28dde", "is_reserved": 0, "fusion_lat": 0.0}, {"type": "electric_scooter", "rental_uris": {"ios": "https://dc.lft.to/lastmile_qr_scan", "android": "https://dc.lft.to/lastmile_qr_scan"}, "lon": -77.02179933333333, "fusion_lon": 0.0, "is_disabled": 0, "lat": 38.909740666666664, "bike_id": "371843cad736e869e1392005d6f7948c", "name": "371843cad736e869e1392005d6f7948c", "is_reserved": 0, "fusion_lat": 0.0}, {"type": "electric_scooter", "rental_uris": {"ios": "https://dc.lft.to/lastmile_qr_scan", "android": "https://dc.lft.to/lastmile_qr_scan"}, "lon": -77.01184883333333, "fusion_lon": 0.0, "is_disabled": 0, "lat": 38.900289, "bike_id": "dc29757a021d040ebe4acf7736b9dc96", "name": "dc29757a021d040ebe4acf7736b9dc96", "is_reserved": 0, "fusion_lat": 0.0}, {"type": "electric_scooter", "rental_uris": {"ios": "https://dc.lft.to/lastmile_qr_scan", "android": "https://dc.lft.to/lastmile_qr_scan"}, "lon": -77.02817266666666, "fusion_lon": 0.0, "is_disabled": 0, "lat": 38.90245083333333, "bike_id": "90f3f49f5d5a3e89007b476c112d3834", "name": "90f3f49f5d5a3e89007b476c112d3834", "is_reserved": 0, "fusion_lat": 0.0}, {"type": "electric_scooter", "rental_uris": {"ios": "https://dc.lft.to/lastmile_qr_scan", "android": "https://dc.lft.to/lastmile_qr_scan"}, "lon": -77.0248735, "fusion_lon": 0.0, "is_disabled": 0, "lat": 38.9387935, "bike_id": "3bc67d1dcd5e64dd7dfee84f07f32da5", "name": "3bc67d1dcd5e64dd7dfee84f07f32da5", "is_reserved": 0, "fusion_lat": 0.0}, {"type": "electric_scooter", "rental_uris": {"ios": "https://dc.lft.to/lastmile_qr_scan", "android": "https://dc.lft.to/lastmile_qr_scan"}, "lon": -77.041849, "fusion_lon": 0.0, "is_disabled": 0, "lat": 38.9053225, "bike_id": "0687313c58140e18d8ed2dfa48e21d57", "name": "0687313c58140e18d8ed2dfa48e21d57", "is_reserved": 0, "fusion_lat": 0.0}, {"type": "electric_scooter", "rental_uris": {"ios": "https://dc.lft.to/lastmile_qr_scan", "android": "https://dc.lft.to/lastmile_qr_scan"}, "lon": -77.037739, "fusion_lon": 0.0, "is_disabled": 0, "lat": 38.916877, "bike_id": "a7a065fe6e6b594fe1146cb014e7f61d", "name": "a7a065fe6e6b594fe1146cb014e7f61d", "is_reserved": 0, "fusion_lat": 0.0}, {"type": "electric_scooter", "rental_uris": {"ios": "https://dc.lft.to/lastmile_qr_scan", "android": "https://dc.lft.to/lastmile_qr_scan"}, "lon": -77.04116983333333, "fusion_lon": 0.0, "is_disabled": 0, "lat": 38.905131, "bike_id": "f2cb886c1913e33a58f471fc442a100a", "name": "f2cb886c1913e33a58f471fc442a100a", "is_reserved": 0, "fusion_lat": 0.0}, {"type": "electric_scooter", "rental_uris": {"ios": "https://dc.lft.to/lastmile_qr_scan", "android": "https://dc.lft.to/lastmile_qr_scan"}, "lon": -77.04124366666667, "fusion_lon": 0.0, "is_disabled": 0, "lat": 38.9170985, "bike_id": "a67ffb3f5280747f53d13421d469d759", "name": "a67ffb3f5280747f53d13421d469d759", "is_reserved": 0, "fusion_lat": 0.0}, {"type": "electric_scooter", "rental_uris": {"ios": "https://dc.lft.to/lastmile_qr_scan", "android": "https://dc.lft.to/lastmile_qr_scan"}, "lon": -77.02803716666666, "fusion_lon": 0.0, "is_disabled": 0, "lat": 38.9073725, "bike_id": "489b3ec901dc507c200b351676730e49", "name": "489b3ec901dc507c200b351676730e49", "is_reserved": 0, "fusion_lat": 0.0}, {"type": "electric_scooter", "rental_uris": {"ios": "https://dc.lft.to/lastmile_qr_scan", "android": "https://dc.lft.to/lastmile_qr_scan"}, "lon": -76.995155, "fusion_lon": 0.0, "is_disabled": 0, "lat": 38.86257233333333, "bike_id": "84f53a2dd505cf86806ba21261aeab26", "name": "84f53a2dd505cf86806ba21261aeab26", "is_reserved": 0, "fusion_lat": 0.0}, {"type": "electric_scooter", "rental_uris": {"ios": "https://dc.lft.to/lastmile_qr_scan", "android": "https://dc.lft.to/lastmile_qr_scan"}, "lon": -77.051341, "fusion_lon": 0.0, "is_disabled": 0, "lat": 38.92358433333333, "bike_id": "b541b0cdc3ba4e2027307d9170347a09", "name": "b541b0cdc3ba4e2027307d9170347a09", "is_reserved": 0, "fusion_lat": 0.0}, {"type": "electric_scooter", "rental_uris": {"ios": "https://dc.lft.to/lastmile_qr_scan", "android": "https://dc.lft.to/lastmile_qr_scan"}, "lon": -77.03159083333334, "fusion_lon": 0.0, "is_disabled": 0, "lat": 38.892135833333334, "bike_id": "64e93e7d1940fbc82c9f487d7ceb326b", "name": "64e93e7d1940fbc82c9f487d7ceb326b", "is_reserved": 0, "fusion_lat": 0.0}, {"type": "electric_scooter", "rental_uris": {"ios": "https://dc.lft.to/lastmile_qr_scan", "android": "https://dc.lft.to/lastmile_qr_scan"}, "lon": -76.92232833333334, "fusion_lon": 0.0, "is_disabled": 0, "lat": 38.900075333333334, "bike_id": "fa2581e58065d8ee7a74a3c97fe72053", "name": "fa2581e58065d8ee7a74a3c97fe72053", "is_reserved": 0, "fusion_lat": 0.0}, {"type": "electric_scooter", "rental_uris": {"ios": "https://dc.lft.to/lastmile_qr_scan", "android": "https://dc.lft.to/lastmile_qr_scan"}, "lon": -77.0283985, "fusion_lon": 0.0, "is_disabled": 0, "lat": 38.89229, "bike_id": "43c639457f3080608a41ad12ac74aaf2", "name": "43c639457f3080608a41ad12ac74aaf2", "is_reserved": 0, "fusion_lat": 0.0}, {"type": "electric_scooter", "rental_uris": {"ios": "https://dc.lft.to/lastmile_qr_scan", "android": "https://dc.lft.to/lastmile_qr_scan"}, "lon": -77.00196083333333, "fusion_lon": 0.0, "is_disabled": 0, "lat": 38.902345833333335, "bike_id": "d725ea851a85a91750c51c4280097f34", "name": "d725ea851a85a91750c51c4280097f34", "is_reserved": 0, "fusion_lat": 0.0}, {"type": "electric_scooter", "rental_uris": {"ios": "https://dc.lft.to/lastmile_qr_scan", "android": "https://dc.lft.to/lastmile_qr_scan"}, "lon": -76.933549, "fusion_lon": 0.0, "is_disabled": 0, "lat": 38.89904533333333, "bike_id": "25157a85c55fb5c2568acfe12423784a", "name": "25157a85c55fb5c2568acfe12423784a", "is_reserved": 0, "fusion_lat": 0.0}, {"type": "electric_scooter", "rental_uris": {"ios": "https://dc.lft.to/lastmile_qr_scan", "android": "https://dc.lft.to/lastmile_qr_scan"}, "lon": -76.98546316666666, "fusion_lon": 0.0, "is_disabled": 0, "lat": 38.866867666666664, "bike_id": "07e7d871bb536d852790ca9d26d1d1d2", "name": "07e7d871bb536d852790ca9d26d1d1d2", "is_reserved": 0, "fusion_lat": 0.0}, {"type": "electric_bike", "rental_uris": {"ios": "https://dc.lft.to/lastmile_qr_scan", "android": "https://dc.lft.to/lastmile_qr_scan"}, "lon": -76.97014316666667, "fusion_lon": 0.0, "is_disabled": 0, "lat": 38.863663, "bike_id": "c0b450e79986d5c4d4e491e2a60cdb3b", "name": "c0b450e79986d5c4d4e491e2a60cdb3b", "is_reserved": 0, "fusion_lat": 0.0}, {"type": "electric_scooter", "rental_uris": {"ios": "https://dc.lft.to/lastmile_qr_scan", "android": "https://dc.lft.to/lastmile_qr_scan"}, "lon": -77.03157966666667, "fusion_lon": 0.0, "is_disabled": 0, "lat": 38.914022333333335, "bike_id": "a1831304b61583f1ce7fb339f9d4f1e6", "name": "a1831304b61583f1ce7fb339f9d4f1e6", "is_reserved": 0, "fusion_lat": 0.0}, {"type": "electric_scooter", "rental_uris": {"ios": "https://dc.lft.to/lastmile_qr_scan", "android": "https://dc.lft.to/lastmile_qr_scan"}, "lon": -77.04274, "fusion_lon": 0.0, "is_disabled": 0, "lat": 38.91035216666667, "bike_id": "7114b37608adef5644986e2bf39568d6", "name": "7114b37608adef5644986e2bf39568d6", "is_reserved": 0, "fusion_lat": 0.0}, {"type": "electric_scooter", "rental_uris": {"ios": "https://dc.lft.to/lastmile_qr_scan", "android": "https://dc.lft.to/lastmile_qr_scan"}, "lon": -77.04446683333333, "fusion_lon": 0.0, "is_disabled": 0, "lat": 38.930189, "bike_id": "f4c791e9d368a8c3c4fe75b692e5f657", "name": "f4c791e9d368a8c3c4fe75b692e5f657", "is_reserved": 0, "fusion_lat": 0.0}, {"type": "electric_scooter", "rental_uris": {"ios": "https://dc.lft.to/lastmile_qr_scan", "android": "https://dc.lft.to/lastmile_qr_scan"}, "lon": -77.03753933333333, "fusion_lon": 0.0, "is_disabled": 0, "lat": 38.935989, "bike_id": "7a6e20e3af94dab25ed4e9b107735e31", "name": "7a6e20e3af94dab25ed4e9b107735e31", "is_reserved": 0, "fusion_lat": 0.0}, {"type": "electric_scooter", "rental_uris": {"ios": "https://dc.lft.to/lastmile_qr_scan", "android": "https://dc.lft.to/lastmile_qr_scan"}, "lon": -77.03208483333333, "fusion_lon": 0.0, "is_disabled": 0, "lat": 38.91370933333334, "bike_id": "1c77e21c4877c54a9d3d7a00093a9d9d", "name": "1c77e21c4877c54a9d3d7a00093a9d9d", "is_reserved": 0, "fusion_lat": 0.0}, {"type": "electric_scooter", "rental_uris": {"ios": "https://dc.lft.to/lastmile_qr_scan", "android": "https://dc.lft.to/lastmile_qr_scan"}, "lon": -77.048783, "fusion_lon": 0.0, "is_disabled": 0, "lat": 38.89703516666667, "bike_id": "497a03c5220d38b5eac7b51c07a04591", "name": "497a03c5220d38b5eac7b51c07a04591", "is_reserved": 0, "fusion_lat": 0.0}, {"type": "electric_scooter", "rental_uris": {"ios": "https://dc.lft.to/lastmile_qr_scan", "android": "https://dc.lft.to/lastmile_qr_scan"}, "lon": -77.02417316666667, "fusion_lon": 0.0, "is_disabled": 0, "lat": 38.931166166666664, "bike_id": "1065724bc781d2e81a62debe40bc3035", "name": "1065724bc781d2e81a62debe40bc3035", "is_reserved": 0, "fusion_lat": 0.0}, {"type": "electric_scooter", "rental_uris": {"ios": "https://dc.lft.to/lastmile_qr_scan", "android": "https://dc.lft.to/lastmile_qr_scan"}, "lon": -77.0218035, "fusion_lon": 0.0, "is_disabled": 0, "lat": 38.91740383333333, "bike_id": "2a3a05fb924accdbf05b4b2cfec433c2", "name": "2a3a05fb924accdbf05b4b2cfec433c2", "is_reserved": 0, "fusion_lat": 0.0}, {"type": "electric_scooter", "rental_uris": {"ios": "https://dc.lft.to/lastmile_qr_scan", "android": "https://dc.lft.to/lastmile_qr_scan"}, "lon": -77.010804, "fusion_lon": 0.0, "is_disabled": 0, "lat": 38.911914333333335, "bike_id": "977542c32a6991c2c86febfe7884dbaa", "name": "977542c32a6991c2c86febfe7884dbaa", "is_reserved": 0, "fusion_lat": 0.0}, {"type": "electric_scooter", "rental_uris": {"ios": "https://dc.lft.to/lastmile_qr_scan", "android": "https://dc.lft.to/lastmile_qr_scan"}, "lon": -77.025721, "fusion_lon": 0.0, "is_disabled": 0, "lat": 38.914137333333336, "bike_id": "854ab03b05dc88b48e494de8725dd4dc", "name": "854ab03b05dc88b48e494de8725dd4dc", "is_reserved": 0, "fusion_lat": 0.0}, {"type": "electric_scooter", "rental_uris": {"ios": "https://dc.lft.to/lastmile_qr_scan", "android": "https://dc.lft.to/lastmile_qr_scan"}, "lon": -77.03162716666667, "fusion_lon": 0.0, "is_disabled": 0, "lat": 38.923635833333336, "bike_id": "261e6b8d6e7943459f853c435412698d", "name": "261e6b8d6e7943459f853c435412698d", "is_reserved": 0, "fusion_lat": 0.0}, {"type": "electric_scooter", "rental_uris": {"ios": "https://dc.lft.to/lastmile_qr_scan", "android": "https://dc.lft.to/lastmile_qr_scan"}, "lon": -77.0403155, "fusion_lon": 0.0, "is_disabled": 0, "lat": 38.9185095, "bike_id": "f44f3d7d84e0214e6fec0ab0c5efd5c0", "name": "f44f3d7d84e0214e6fec0ab0c5efd5c0", "is_reserved": 0, "fusion_lat": 0.0}, {"type": "electric_scooter", "rental_uris": {"ios": "https://dc.lft.to/lastmile_qr_scan", "android": "https://dc.lft.to/lastmile_qr_scan"}, "lon": -76.98377566666667, "fusion_lon": 0.0, "is_disabled": 0, "lat": 38.861106666666664, "bike_id": "05a280c583d4485023fa86a530766bd6", "name": "05a280c583d4485023fa86a530766bd6", "is_reserved": 0, "fusion_lat": 0.0}, {"type": "electric_scooter", "rental_uris": {"ios": "https://dc.lft.to/lastmile_qr_scan", "android": "https://dc.lft.to/lastmile_qr_scan"}, "lon": -76.97233383333334, "fusion_lon": 0.0, "is_disabled": 0, "lat": 38.854600833333336, "bike_id": "744715099ccb3493244d7ba9a1517ae3", "name": "744715099ccb3493244d7ba9a1517ae3", "is_reserved": 0, "fusion_lat": 0.0}, {"type": "electric_scooter", "rental_uris": {"ios": "https://dc.lft.to/lastmile_qr_scan", "android": "https://dc.lft.to/lastmile_qr_scan"}, "lon": -76.992499, "fusion_lon": 0.0, "is_disabled": 0, "lat": 38.8638065, "bike_id": "49978587bffd993efeb5971f08519ebb", "name": "49978587bffd993efeb5971f08519ebb", "is_reserved": 0, "fusion_lat": 0.0}, {"type": "electric_scooter", "rental_uris": {"ios": "https://dc.lft.to/lastmile_qr_scan", "android": "https://dc.lft.to/lastmile_qr_scan"}, "lon": -77.02381666666666, "fusion_lon": 0.0, "is_disabled": 0, "lat": 38.906266333333335, "bike_id": "c24f8d8bd6c83329567d7990004a7f0a", "name": "c24f8d8bd6c83329567d7990004a7f0a", "is_reserved": 0, "fusion_lat": 0.0}, {"type": "electric_scooter", "rental_uris": {"ios": "https://dc.lft.to/lastmile_qr_scan", "android": "https://dc.lft.to/lastmile_qr_scan"}, "lon": -77.026913, "fusion_lon": 0.0, "is_disabled": 0, "lat": 38.911229666666664, "bike_id": "c7f894858d1c651f6cfaad4b957c50c5", "name": "c7f894858d1c651f6cfaad4b957c50c5", "is_reserved": 0, "fusion_lat": 0.0}, {"type": "electric_scooter", "rental_uris": {"ios": "https://dc.lft.to/lastmile_qr_scan", "android": "https://dc.lft.to/lastmile_qr_scan"}, "lon": -77.0219245, "fusion_lon": 0.0, "is_disabled": 0, "lat": 38.91659083333333, "bike_id": "71a5f59e216152c3410f4b1b4175c444", "name": "71a5f59e216152c3410f4b1b4175c444", "is_reserved": 0, "fusion_lat": 0.0}, {"type": "electric_scooter", "rental_uris": {"ios": "https://dc.lft.to/lastmile_qr_scan", "android": "https://dc.lft.to/lastmile_qr_scan"}, "lon": -77.03815983333334, "fusion_lon": 0.0, "is_disabled": 0, "lat": 38.909580166666665, "bike_id": "5f6b5a61f4989ced8afd79ae02af5770", "name": "5f6b5a61f4989ced8afd79ae02af5770", "is_reserved": 0, "fusion_lat": 0.0}, {"type": "electric_scooter", "rental_uris": {"ios": "https://dc.lft.to/lastmile_qr_scan", "android": "https://dc.lft.to/lastmile_qr_scan"}, "lon": -77.0348105, "fusion_lon": 0.0, "is_disabled": 0, "lat": 38.9247745, "bike_id": "25709be2c384ccf97e47e8c8dfb44a54", "name": "25709be2c384ccf97e47e8c8dfb44a54", "is_reserved": 0, "fusion_lat": 0.0}, {"type": "electric_scooter", "rental_uris": {"ios": "https://dc.lft.to/lastmile_qr_scan", "android": "https://dc.lft.to/lastmile_qr_scan"}, "lon": -77.0345935, "fusion_lon": 0.0, "is_disabled": 0, "lat": 38.93742483333333, "bike_id": "b4a94ab9a628c1d53a6bfc1f6652b883", "name": "b4a94ab9a628c1d53a6bfc1f6652b883", "is_reserved": 0, "fusion_lat": 0.0}, {"type": "electric_scooter", "rental_uris": {"ios": "https://dc.lft.to/lastmile_qr_scan", "android": "https://dc.lft.to/lastmile_qr_scan"}, "lon": -77.03925216666667, "fusion_lon": 0.0, "is_disabled": 0, "lat": 38.917099, "bike_id": "bc0a47f14427d5c8529085b0f2f31a08", "name": "bc0a47f14427d5c8529085b0f2f31a08", "is_reserved": 0, "fusion_lat": 0.0}, {"type": "electric_scooter", "rental_uris": {"ios": "https://dc.lft.to/lastmile_qr_scan", "android": "https://dc.lft.to/lastmile_qr_scan"}, "lon": -77.04362033333334, "fusion_lon": 0.0, "is_disabled": 0, "lat": 38.91038, "bike_id": "d000b3b02fa779a035d601cde69d83bd", "name": "d000b3b02fa779a035d601cde69d83bd", "is_reserved": 0, "fusion_lat": 0.0}, {"type": "electric_scooter", "rental_uris": {"ios": "https://dc.lft.to/lastmile_qr_scan", "android": "https://dc.lft.to/lastmile_qr_scan"}, "lon": -77.00229866666666, "fusion_lon": 0.0, "is_disabled": 0, "lat": 38.89480116666667, "bike_id": "92d829ac4e9fe103865fd2717f8822ec", "name": "92d829ac4e9fe103865fd2717f8822ec", "is_reserved": 0, "fusion_lat": 0.0}, {"type": "electric_scooter", "rental_uris": {"ios": "https://dc.lft.to/lastmile_qr_scan", "android": "https://dc.lft.to/lastmile_qr_scan"}, "lon": -77.0295695, "fusion_lon": 0.0, "is_disabled": 0, "lat": 38.92245783333333, "bike_id": "f026f1e3bb7fd000c7a70dd6e7774ccb", "name": "f026f1e3bb7fd000c7a70dd6e7774ccb", "is_reserved": 0, "fusion_lat": 0.0}, {"type": "electric_scooter", "rental_uris": {"ios": "https://dc.lft.to/lastmile_qr_scan", "android": "https://dc.lft.to/lastmile_qr_scan"}, "lon": -77.03389466666667, "fusion_lon": 0.0, "is_disabled": 0, "lat": 38.90973, "bike_id": "f8aeceaea67f7c1a6c8aef0eabeefb53", "name": "f8aeceaea67f7c1a6c8aef0eabeefb53", "is_reserved": 0, "fusion_lat": 0.0}, {"type": "electric_scooter", "rental_uris": {"ios": "https://dc.lft.to/lastmile_qr_scan", "android": "https://dc.lft.to/lastmile_qr_scan"}, "lon": -77.02223133333334, "fusion_lon": 0.0, "is_disabled": 0, "lat": 38.892186, "bike_id": "a5b47e09c69d18779ad9b8425cea415e", "name": "a5b47e09c69d18779ad9b8425cea415e", "is_reserved": 0, "fusion_lat": 0.0}, {"type": "electric_scooter", "rental_uris": {"ios": "https://dc.lft.to/lastmile_qr_scan", "android": "https://dc.lft.to/lastmile_qr_scan"}, "lon": -77.03843166666667, "fusion_lon": 0.0, "is_disabled": 0, "lat": 38.916654333333334, "bike_id": "2e663c631eb7662ae70ac053322e50b4", "name": "2e663c631eb7662ae70ac053322e50b4", "is_reserved": 0, "fusion_lat": 0.0}, {"type": "electric_scooter", "rental_uris": {"ios": "https://dc.lft.to/lastmile_qr_scan", "android": "https://dc.lft.to/lastmile_qr_scan"}, "lon": -77.024385, "fusion_lon": 0.0, "is_disabled": 0, "lat": 38.918440333333336, "bike_id": "f4a5ff5e21bb5f86233e8d594badd011", "name": "f4a5ff5e21bb5f86233e8d594badd011", "is_reserved": 0, "fusion_lat": 0.0}, {"type": "electric_scooter", "rental_uris": {"ios": "https://dc.lft.to/lastmile_qr_scan", "android": "https://dc.lft.to/lastmile_qr_scan"}, "lon": -77.03643, "fusion_lon": 0.0, "is_disabled": 0, "lat": 38.91727566666667, "bike_id": "9f788d6b3916a91e31183cef2d45969e", "name": "9f788d6b3916a91e31183cef2d45969e", "is_reserved": 0, "fusion_lat": 0.0}, {"type": "electric_scooter", "rental_uris": {"ios": "https://dc.lft.to/lastmile_qr_scan", "android": "https://dc.lft.to/lastmile_qr_scan"}, "lon": -77.03163383333333, "fusion_lon": 0.0, "is_disabled": 0, "lat": 38.91557533333334, "bike_id": "e5677b72e91268123b62540b6a7d3737", "name": "e5677b72e91268123b62540b6a7d3737", "is_reserved": 0, "fusion_lat": 0.0}, {"type": "electric_scooter", "rental_uris": {"ios": "https://dc.lft.to/lastmile_qr_scan", "android": "https://dc.lft.to/lastmile_qr_scan"}, "lon": -77.004287, "fusion_lon": 0.0, "is_disabled": 0, "lat": 38.876476333333336, "bike_id": "2079b566d7f5a670e0a9e4f68fa85ca4", "name": "2079b566d7f5a670e0a9e4f68fa85ca4", "is_reserved": 0, "fusion_lat": 0.0}, {"type": "electric_bike", "rental_uris": {"ios": "https://dc.lft.to/lastmile_qr_scan", "android": "https://dc.lft.to/lastmile_qr_scan"}, "lon": -77.09478233333333, "fusion_lon": 0.0, "is_disabled": 0, "lat": 39.030397666666666, "bike_id": "12287e15cefba6ae242f6bcc579d1150", "name": "12287e15cefba6ae242f6bcc579d1150", "is_reserved": 0, "fusion_lat": 0.0}, {"type": "electric_scooter", "rental_uris": {"ios": "https://dc.lft.to/lastmile_qr_scan", "android": "https://dc.lft.to/lastmile_qr_scan"}, "lon": -77.034529, "fusion_lon": 0.0, "is_disabled": 0, "lat": 38.908643, "bike_id": "c029303a0a9d9a252c0c7120e2c0a4ab", "name": "c029303a0a9d9a252c0c7120e2c0a4ab", "is_reserved": 0, "fusion_lat": 0.0}, {"type": "electric_bike", "rental_uris": {"ios": "https://dc.lft.to/lastmile_qr_scan", "android": "https://dc.lft.to/lastmile_qr_scan"}, "lon": -77.13101316666666, "fusion_lon": 0.0, "is_disabled": 0, "lat": 39.024303333333336, "bike_id": "da81c99d1db91581ba318ec188fc2efe", "name": "da81c99d1db91581ba318ec188fc2efe", "is_reserved": 0, "fusion_lat": 0.0}, {"type": "electric_scooter", "rental_uris": {"ios": "https://dc.lft.to/lastmile_qr_scan", "android": "https://dc.lft.to/lastmile_qr_scan"}, "lon": -77.021926, "fusion_lon": 0.0, "is_disabled": 0, "lat": 38.91124083333333, "bike_id": "71ff35d1988394b3edb1a2e9ed92e1c1", "name": "71ff35d1988394b3edb1a2e9ed92e1c1", "is_reserved": 0, "fusion_lat": 0.0}, {"type": "electric_scooter", "rental_uris": {"ios": "https://dc.lft.to/lastmile_qr_scan", "android": "https://dc.lft.to/lastmile_qr_scan"}, "lon": -76.948926, "fusion_lon": 0.0, "is_disabled": 0, "lat": 38.89528416666667, "bike_id": "62f76d39c403e376dd7e393a629a0fd4", "name": "62f76d39c403e376dd7e393a629a0fd4", "is_reserved": 0, "fusion_lat": 0.0}, {"type": "electric_scooter", "rental_uris": {"ios": "https://dc.lft.to/lastmile_qr_scan", "android": "https://dc.lft.to/lastmile_qr_scan"}, "lon": -77.0229325, "fusion_lon": 0.0, "is_disabled": 0, "lat": 38.9014335, "bike_id": "172749fe4363b9897f538ff8eb05fdb6", "name": "172749fe4363b9897f538ff8eb05fdb6", "is_reserved": 0, "fusion_lat": 0.0}, {"type": "electric_scooter", "rental_uris": {"ios": "https://dc.lft.to/lastmile_qr_scan", "android": "https://dc.lft.to/lastmile_qr_scan"}, "lon": -76.98481033333333, "fusion_lon": 0.0, "is_disabled": 0, "lat": 38.9131265, "bike_id": "167080602102549beee717e63cac8d2b", "name": "167080602102549beee717e63cac8d2b", "is_reserved": 0, "fusion_lat": 0.0}, {"type": "electric_scooter", "rental_uris": {"ios": "https://dc.lft.to/lastmile_qr_scan", "android": "https://dc.lft.to/lastmile_qr_scan"}, "lon": -77.01164233333333, "fusion_lon": 0.0, "is_disabled": 0, "lat": 38.900351666666666, "bike_id": "ac11dac07e05aebf652b48f839a321e2", "name": "ac11dac07e05aebf652b48f839a321e2", "is_reserved": 0, "fusion_lat": 0.0}, {"type": "electric_scooter", "rental_uris": {"ios": "https://dc.lft.to/lastmile_qr_scan", "android": "https://dc.lft.to/lastmile_qr_scan"}, "lon": -77.03096983333333, "fusion_lon": 0.0, "is_disabled": 0, "lat": 38.9385545, "bike_id": "d5572b516696aa47e10d9e3188092a59", "name": "d5572b516696aa47e10d9e3188092a59", "is_reserved": 0, "fusion_lat": 0.0}, {"type": "electric_scooter", "rental_uris": {"ios": "https://dc.lft.to/lastmile_qr_scan", "android": "https://dc.lft.to/lastmile_qr_scan"}, "lon": -76.9951025, "fusion_lon": 0.0, "is_disabled": 0, "lat": 38.88369683333333, "bike_id": "dd01b54607233e31cfa8681b90f473a3", "name": "dd01b54607233e31cfa8681b90f473a3", "is_reserved": 0, "fusion_lat": 0.0}, {"type": "electric_bike", "rental_uris": {"ios": "https://dc.lft.to/lastmile_qr_scan", "android": "https://dc.lft.to/lastmile_qr_scan"}, "lon": -76.936506, "fusion_lon": 0.0, "is_disabled": 0, "lat": 38.871511, "bike_id": "c2735aa5e29614298fb930d9487b5f59", "name": "c2735aa5e29614298fb930d9487b5f59", "is_reserved": 0, "fusion_lat": 0.0}, {"type": "electric_scooter", "rental_uris": {"ios": "https://dc.lft.to/lastmile_qr_scan", "android": "https://dc.lft.to/lastmile_qr_scan"}, "lon": -76.99501966666666, "fusion_lon": 0.0, "is_disabled": 0, "lat": 38.894837, "bike_id": "95aec76fa0fb358c56c4e0e6be8539ca", "name": "95aec76fa0fb358c56c4e0e6be8539ca", "is_reserved": 0, "fusion_lat": 0.0}, {"type": "electric_scooter", "rental_uris": {"ios": "https://dc.lft.to/lastmile_qr_scan", "android": "https://dc.lft.to/lastmile_qr_scan"}, "lon": -77.02096516666667, "fusion_lon": 0.0, "is_disabled": 0, "lat": 38.93110083333333, "bike_id": "355463ca598bb19baa9e4e66dd506d8d", "name": "355463ca598bb19baa9e4e66dd506d8d", "is_reserved": 0, "fusion_lat": 0.0}, {"type": "electric_scooter", "rental_uris": {"ios": "https://dc.lft.to/lastmile_qr_scan", "android": "https://dc.lft.to/lastmile_qr_scan"}, "lon": -77.0277485, "fusion_lon": 0.0, "is_disabled": 0, "lat": 38.892164, "bike_id": "5b271e746c203617cc2e58e204cf83e0", "name": "5b271e746c203617cc2e58e204cf83e0", "is_reserved": 0, "fusion_lat": 0.0}, {"type": "electric_scooter", "rental_uris": {"ios": "https://dc.lft.to/lastmile_qr_scan", "android": "https://dc.lft.to/lastmile_qr_scan"}, "lon": -76.990371, "fusion_lon": 0.0, "is_disabled": 0, "lat": 38.863591, "bike_id": "ebb0a0b8ce4de5911b7dfe66bf65f7ec", "name": "ebb0a0b8ce4de5911b7dfe66bf65f7ec", "is_reserved": 0, "fusion_lat": 0.0}, {"type": "electric_scooter", "rental_uris": {"ios": "https://dc.lft.to/lastmile_qr_scan", "android": "https://dc.lft.to/lastmile_qr_scan"}, "lon": -77.04018366666666, "fusion_lon": 0.0, "is_disabled": 0, "lat": 38.921587833333334, "bike_id": "6c2cfaa6a1b8a27518b2025e7ae4c5f9", "name": "6c2cfaa6a1b8a27518b2025e7ae4c5f9", "is_reserved": 0, "fusion_lat": 0.0}, {"type": "electric_scooter", "rental_uris": {"ios": "https://dc.lft.to/lastmile_qr_scan", "android": "https://dc.lft.to/lastmile_qr_scan"}, "lon": -77.04379166666666, "fusion_lon": 0.0, "is_disabled": 0, "lat": 38.921095666666666, "bike_id": "119744b1244e6aef8b45470e0a2224e1", "name": "119744b1244e6aef8b45470e0a2224e1", "is_reserved": 0, "fusion_lat": 0.0}, {"type": "electric_scooter", "rental_uris": {"ios": "https://dc.lft.to/lastmile_qr_scan", "android": "https://dc.lft.to/lastmile_qr_scan"}, "lon": -77.02393816666667, "fusion_lon": 0.0, "is_disabled": 0, "lat": 38.8997425, "bike_id": "0b3e5d4c8f38ebe3bf9fb22fccdc38f0", "name": "0b3e5d4c8f38ebe3bf9fb22fccdc38f0", "is_reserved": 0, "fusion_lat": 0.0}, {"type": "electric_scooter", "rental_uris": {"ios": "https://dc.lft.to/lastmile_qr_scan", "android": "https://dc.lft.to/lastmile_qr_scan"}, "lon": -77.0319035, "fusion_lon": 0.0, "is_disabled": 0, "lat": 38.914145833333336, "bike_id": "6cd0d03ea6d22e4f5f434cd89e281dd6", "name": "6cd0d03ea6d22e4f5f434cd89e281dd6", "is_reserved": 0, "fusion_lat": 0.0}, {"type": "electric_bike", "rental_uris": {"ios": "https://dc.lft.to/lastmile_qr_scan", "android": "https://dc.lft.to/lastmile_qr_scan"}, "lon": -77.025107, "fusion_lon": 0.0, "is_disabled": 0, "lat": 38.940320166666666, "bike_id": "52dab7b0795eb6fe59d7526f9c26bdd6", "name": "52dab7b0795eb6fe59d7526f9c26bdd6", "is_reserved": 0, "fusion_lat": 0.0}, {"type": "electric_scooter", "rental_uris": {"ios": "https://dc.lft.to/lastmile_qr_scan", "android": "https://dc.lft.to/lastmile_qr_scan"}, "lon": -77.02337366666667, "fusion_lon": 0.0, "is_disabled": 0, "lat": 38.91664333333333, "bike_id": "d0ab6fae9d447c8d835b9510d0aabeb1", "name": "d0ab6fae9d447c8d835b9510d0aabeb1", "is_reserved": 0, "fusion_lat": 0.0}, {"type": "electric_scooter", "rental_uris": {"ios": "https://dc.lft.to/lastmile_qr_scan", "android": "https://dc.lft.to/lastmile_qr_scan"}, "lon": -77.04218416666667, "fusion_lon": 0.0, "is_disabled": 0, "lat": 38.9230985, "bike_id": "64d49ad63a9ab66426a64d8297e2b932", "name": "64d49ad63a9ab66426a64d8297e2b932", "is_reserved": 0, "fusion_lat": 0.0}, {"type": "electric_scooter", "rental_uris": {"ios": "https://dc.lft.to/lastmile_qr_scan", "android": "https://dc.lft.to/lastmile_qr_scan"}, "lon": -77.040228, "fusion_lon": 0.0, "is_disabled": 0, "lat": 38.92446066666667, "bike_id": "1487ca16c988d385257ffe248da6b9f6", "name": "1487ca16c988d385257ffe248da6b9f6", "is_reserved": 0, "fusion_lat": 0.0}, {"type": "electric_scooter", "rental_uris": {"ios": "https://dc.lft.to/lastmile_qr_scan", "android": "https://dc.lft.to/lastmile_qr_scan"}, "lon": -77.0336205, "fusion_lon": 0.0, "is_disabled": 0, "lat": 38.88760283333333, "bike_id": "d8d1c4069c3e589221a67e6ac49826e1", "name": "d8d1c4069c3e589221a67e6ac49826e1", "is_reserved": 0, "fusion_lat": 0.0}, {"type": "electric_scooter", "rental_uris": {"ios": "https://dc.lft.to/lastmile_qr_scan", "android": "https://dc.lft.to/lastmile_qr_scan"}, "lon": -77.0350705, "fusion_lon": 0.0, "is_disabled": 0, "lat": 38.92149233333333, "bike_id": "5d331f885c4192569003a1cd4b886b27", "name": "5d331f885c4192569003a1cd4b886b27", "is_reserved": 0, "fusion_lat": 0.0},