{"data": {"bikes": [{"fusion_lon": 0.0, "bike_id": "57a5a048ca85e4719243338cdf74e90e", "name": "57a5a048ca85e4719243338cdf74e90e", "type": "electric_scooter", "lon": -76.99411483333333, "rental_uris": {"android": "https://dc.lft.to/lastmile_qr_scan", "ios": "https://dc.lft.to/lastmile_qr_scan"}, "lat": 38.87791133333333, "is_reserved": 0, "is_disabled": 0, "fusion_lat": 0.0}, {"fusion_lon": 0.0, "bike_id": "6e5a6e534ab77c2bdc8b1150b90af3a8", "name": "6e5a6e534ab77c2bdc8b1150b90af3a8", "type": "electric_bike", "lon": -77.0497925, "rental_uris": {"android": "https://dc.lft.to/lastmile_qr_scan", "ios": "https://dc.lft.to/lastmile_qr_scan"}, "lat": 38.9924095, "is_reserved": 0, "is_disabled": 0, "fusion_lat": 0.0}, {"fusion_lon": 0.0, "bike_id": "4a408ebd97c7d3011010daebbd7c53fb", "name": "4a408ebd97c7d3011010daebbd7c53fb", "type": "electric_scooter", "lon": -77.06987133333334, "rental_uris": {"android": "https://dc.lft.to/lastmile_qr_scan", "ios": "https://dc.lft.to/lastmile_qr_scan"}, "lat": 38.946909166666664, "is_reserved": 0, "is_disabled": 0, "fusion_lat": 0.0}, {"fusion_lon": 0.0, "bike_id": "c11e924a6bd68feb543a7bdd7766c611", "name": "c11e924a6bd68feb543a7bdd7766c611", "type": "electric_scooter", "lon": -77.02300416666667, "rental_uris": {"android": "https://dc.lft.to/lastmile_qr_scan", "ios": "https://dc.lft.to/lastmile_qr_scan"}, "lat": 38.878708, "is_reserved": 0, "is_disabled": 0, "fusion_lat": 0.0}, {"fusion_lon": 0.0, "bike_id": "b217f07a7857acadcc5889a76a4e06a5", "name": "b217f07a7857acadcc5889a76a4e06a5", "type": "electric_bike", "lon": -77.19544416666666, "rental_uris": {"android": "https://dc.lft.to/lastmile_qr_scan", "ios": "https://dc.lft.to/lastmile_qr_scan"}, "lat": 39.11509866666667, "is_reserved": 0, "is_disabled": 0, "fusion_lat": 0.0}, {"fusion_lon": 0.0, "bike_id": "5590d697b529103fd7344b60053ca103", "name": "5590d697b529103fd7344b60053ca103", "type": "electric_bike", "lon": -76.96697066666667, "rental_uris": {"android": "https://dc.lft.to/lastmile_qr_scan", "ios": "https://dc.lft.to/lastmile_qr_scan"}, "lat": 38.868552666666666, "is_reserved": 0, "is_disabled": 0, "fusion_lat": 0.0}, {"fusion_lon": 0.0, "bike_id": "694448c129aa6f92d4308aa0c8fadd02", "name": "694448c129aa6f92d4308aa0c8fadd02", "type": "electric_scooter", "lon": -76.94652216666667, "rental_uris": {"android": "https://dc.lft.to/lastmile_qr_scan", "ios": "https://dc.lft.to/lastmile_qr_scan"}, "lat": 38.8982565, "is_reserved": 0, "is_disabled": 0, "fusion_lat": 0.0}, {"fusion_lon": 0.0, "bike_id": "490f9accbe78be1d72b674cd879c82ec", "name": "490f9accbe78be1d72b674cd879c82ec", "type": "electric_scooter", "lon": -77.04675866666666, "rental_uris": {"android": "https://dc.lft.to/lastmile_qr_scan", "ios": "https://dc.lft.to/lastmile_qr_scan"}, "lat": 38.91576533333333, "is_reserved": 0, "is_disabled": 0, "fusion_lat": 0.0}, {"fusion_lon": 0.0, "bike_id": "dfb5f0e952c8f454407d4f1d163c156a", "name": "dfb5f0e952c8f454407d4f1d163c156a", "type": "electric_bike", "lon": -76.99429683333334, "rental_uris": {"android": "https://dc.lft.to/lastmile_qr_scan", "ios": "https://dc.lft.to/lastmile_qr_scan"}, "lat": 38.87668933333333, "is_reserved": 0, "is_disabled": 0, "fusion_lat": 0.0}, {"fusion_lon": 0.0, "bike_id": "91b6f4f11461ca126dc93b0636e9245e", "name": "91b6f4f11461ca126dc93b0636e9245e", "type": "electric_scooter", "lon": -76.94157966666667, "rental_uris": {"android": "https://dc.lft.to/lastmile_qr_scan", "ios": "https://dc.lft.to/lastmile_qr_scan"}, "lat": 38.883646666666664, "is_reserved": 0, "is_disabled": 0, "fusion_lat": 0.0}, {"fusion_lon": 0.0, "bike_id": "7ee4626c1d4bc893169865073105a395", "name": "7ee4626c1d4bc893169865073105a395", "type": "electric_bike", "lon": -77.00606933333333, "rental_uris": {"android": "https://dc.lft.to/lastmile_qr_scan", "ios": "https://dc.lft.to/lastmile_qr_scan"}, "lat": 38.8980555, "is_reserved": 0, "is_disabled": 0, "fusion_lat": 0.0}, {"fusion_lon": 0.0, "bike_id": "687d2d6656e37d5aaefbf7a35cb794c8", "name": "687d2d6656e37d5aaefbf7a35cb794c8", "type": "electric_scooter", "lon": -77.02481816666666, "rental_uris": {"android": "https://dc.lft.to/lastmile_qr_scan", "ios": "https://dc.lft.to/lastmile_qr_scan"}, "lat": 38.880193, "is_reserved": 0, "is_disabled": 0, "fusion_lat": 0.0}, {"fusion_lon": 0.0, "bike_id": "cdacc9f5b6143307c739f0b14e1037f9", "name": "cdacc9f5b6143307c739f0b14e1037f9", "type": "electric_scooter", "lon": -77.03468216666667, "rental_uris": {"android": "https://dc.lft.to/lastmile_qr_scan", "ios": "https://dc.lft.to/lastmile_qr_scan"}, "lat": 38.914931333333335, "is_reserved": 0, "is_disabled": 0, "fusion_lat": 0.0}, {"fusion_lon": 0.0, "bike_id": "bf16ab0704e169c7459ca261def4b93d", "name": "bf16ab0704e169c7459ca261def4b93d", "type": "electric_scooter", "lon": -77.00743583333333, "rental_uris": {"android": "https://dc.lft.to/lastmile_qr_scan", "ios": "https://dc.lft.to/lastmile_qr_scan"}, "lat": 38.876806, "is_reserved": 0, "is_disabled": 0, "fusion_lat": 0.0}, {"fusion_lon": 0.0, "bike_id": "c0668b8faf214d226360b9580f4d27aa", "name": "c0668b8faf214d226360b9580f4d27aa", "type": "electric_scooter", "lon": -76.9727795, "rental_uris": {"android": "https://dc.lft.to/lastmile_qr_scan", "ios": "https://dc.lft.to/lastmile_qr_scan"}, "lat": 38.9308715, "is_reserved": 0, "is_disabled": 0, "fusion_lat": 0.0}, {"fusion_lon": 0.0, "bike_id": "6a7b2cc55b69e0ddde636c57983e7cba", "name": "6a7b2cc55b69e0ddde636c57983e7cba", "type": "electric_scooter", "lon": -77.04165916666666, "rental_uris": {"android": "https://dc.lft.to/lastmile_qr_scan", "ios": "https://dc.lft.to/lastmile_qr_scan"}, "lat": 38.898816833333335, "is_reserved": 0, "is_disabled": 0, "fusion_lat": 0.0}, {"fusion_lon": 0.0, "bike_id": "cc62a21e1693e30cbc32d22f1ce06843", "name": "cc62a21e1693e30cbc32d22f1ce06843", "type": "electric_scooter", "lon": -77.05413916666667, "rental_uris": {"android": "https://dc.lft.to/lastmile_qr_scan", "ios": "https://dc.lft.to/lastmile_qr_scan"}, "lat": 38.928285333333335, "is_reserved": 0, "is_disabled": 0, "fusion_lat": 0.0}, {"fusion_lon": 0.0, "bike_id": "02a55a81919a304e4858caeebcc31cb5", "name": "02a55a81919a304e4858caeebcc31cb5", "type": "electric_scooter", "lon": -77.03228316666667, "rental_uris": {"android": "https://dc.lft.to/lastmile_qr_scan", "ios": "https://dc.lft.to/lastmile_qr_scan"}, "lat": 38.90526633333333, "is_reserved": 0, "is_disabled": 0, "fusion_lat": 0.0}, {"fusion_lon": 0.0, "bike_id": "62539b0cfb33780bb70699b0595529a8", "name": "62539b0cfb33780bb70699b0595529a8", "type": "electric_scooter", "lon": -77.00115383333333, "rental_uris": {"android": "https://dc.lft.to/lastmile_qr_scan", "ios": "https://dc.lft.to/lastmile_qr_scan"}, "lat": 38.917153166666665, "is_reserved": 0, "is_disabled": 0, "fusion_lat": 0.0}, {"fusion_lon": 0.0, "bike_id": "70d8762fa20308f391b6100c532c1d9b", "name": "70d8762fa20308f391b6100c532c1d9b", "type": "electric_scooter", "lon": -77.05266666666667, "rental_uris": {"android": "https://dc.lft.to/lastmile_qr_scan", "ios": "https://dc.lft.to/lastmile_qr_scan"}, "lat": 38.92239566666667, "is_reserved": 0, "is_disabled": 0, "fusion_lat": 0.0}, {"fusion_lon": 0.0, "bike_id": "4f11598836de223b3d9e21f4c1557853", "name": "4f11598836de223b3d9e21f4c1557853", "type": "electric_scooter", "lon": -76.9872645, "rental_uris": {"android": "https://dc.lft.to/lastmile_qr_scan", "ios": "https://dc.lft.to/lastmile_qr_scan"}, "lat": 38.867084, "is_reserved": 0, "is_disabled": 0, "fusion_lat": 0.0}, {"fusion_lon": 0.0, "bike_id": "c40422ebabf40fe552f0d0102d1d91be", "name": "c40422ebabf40fe552f0d0102d1d91be", "type": "electric_scooter", "lon": -77.02327166666667, "rental_uris": {"android": "https://dc.lft.to/lastmile_qr_scan", "ios": "https://dc.lft.to/lastmile_qr_scan"}, "lat": 38.92402933333334, "is_reserved": 0, "is_disabled": 0, "fusion_lat": 0.0}, {"fusion_lon": 0.0, "bike_id": "1c9f71838c16adebdd9c108607965e4f", "name": "1c9f71838c16adebdd9c108607965e4f", "type": "electric_scooter", "lon": -77.0242865, "rental_uris": {"android": "https://dc.lft.to/lastmile_qr_scan", "ios": "https://dc.lft.to/lastmile_qr_scan"}, "lat": 38.89512783333333, "is_reserved": 0, "is_disabled": 0, "fusion_lat": 0.0}, {"fusion_lon": 0.0, "bike_id": "3ecb5d94296f2223f2813b64842bcb90", "name": "3ecb5d94296f2223f2813b64842bcb90", "type": "electric_scooter", "lon": -77.00572466666667, "rental_uris": {"android": "https://dc.lft.to/lastmile_qr_scan", "ios": "https://dc.lft.to/lastmile_qr_scan"}, "lat": 38.90345266666667, "is_reserved": 0, "is_disabled": 0, "fusion_lat": 0.0}, {"fusion_lon": 0.0, "bike_id": "a1863f6af73b3ffffc32c467ccceacdc", "name": "a1863f6af73b3ffffc32c467ccceacdc", "type": "electric_scooter", "lon": -77.02897866666666, "rental_uris": {"android": "https://dc.lft.to/lastmile_qr_scan", "ios": "https://dc.lft.to/lastmile_qr_scan"}, "lat": 38.90456966666667, "is_reserved": 0, "is_disabled": 0, "fusion_lat": 0.0}, {"fusion_lon": 0.0, "bike_id": "23490c105f8edf3d366679cb0cdb46d3", "name": "23490c105f8edf3d366679cb0cdb46d3", "type": "electric_scooter", "lon": -77.03634366666667, "rental_uris": {"android": "https://dc.lft.to/lastmile_qr_scan", "ios": "https://dc.lft.to/lastmile_qr_scan"}, "lat": 38.92817733333333, "is_reserved": 0, "is_disabled": 0, "fusion_lat": 0.0}, {"fusion_lon": 0.0, "bike_id": "861cc43357d8046f65687994382f1620", "name": "861cc43357d8046f65687994382f1620", "type": "electric_scooter", "lon": -77.024142, "rental_uris": {"android": "https://dc.lft.to/lastmile_qr_scan", "ios": "https://dc.lft.to/lastmile_qr_scan"}, "lat": 38.9574625, "is_reserved": 0, "is_disabled": 0, "fusion_lat": 0.0}, {"fusion_lon": 0.0, "bike_id": "95103dc4515119d7d27d83eb0b33cb2b", "name": "95103dc4515119d7d27d83eb0b33cb2b", "type": "electric_scooter", "lon": -76.96507433333333, "rental_uris": {"android": "https://dc.lft.to/lastmile_qr_scan", "ios": "https://dc.lft.to/lastmile_qr_scan"}, "lat": 38.87646616666667, "is_reserved": 0, "is_disabled": 0, "fusion_lat": 0.0}, {"fusion_lon": 0.0, "bike_id": "5c34340d88940eaf9883382c3d2ade64", "name": "5c34340d88940eaf9883382c3d2ade64", "type": "electric_scooter", "lon": -77.03216866666666, "rental_uris": {"android": "https://dc.lft.to/lastmile_qr_scan", "ios": "https://dc.lft.to/lastmile_qr_scan"}, "lat": 38.8922575, "is_reserved": 0, "is_disabled": 0, "fusion_lat": 0.0}, {"fusion_lon": 0.0, "bike_id": "51d6457d3c1300fbc5545f89d276aaf9", "name": "51d6457d3c1300fbc5545f89d276aaf9", "type": "electric_scooter", "lon": -77.03847133333333, "rental_uris": {"android": "https://dc.lft.to/lastmile_qr_scan", "ios": "https://dc.lft.to/lastmile_qr_scan"}, "lat": 38.907977833333334, "is_reserved": 0, "is_disabled": 0, "fusion_lat": 0.0}, {"fusion_lon": 0.0, "bike_id": "18b1124387345d5a019ce703de340d10", "name": "18b1124387345d5a019ce703de340d10", "type": "electric_scooter", "lon": -77.04663216666667, "rental_uris": {"android": "https://dc.lft.to/lastmile_qr_scan", "ios": "https://dc.lft.to/lastmile_qr_scan"}, "lat": 38.90411183333333, "is_reserved": 0, "is_disabled": 0, "fusion_lat": 0.0}, {"fusion_lon": 0.0, "bike_id": "2ac724f80a938a0f81c08fa4c5c4a6b6", "name": "2ac724f80a938a0f81c08fa4c5c4a6b6", "type": "electric_bike", "lon": -76.97565516666667, "rental_uris": {"android": "https://dc.lft.to/lastmile_qr_scan", "ios": "https://dc.lft.to/lastmile_qr_scan"}, "lat": 38.92457066666667, "is_reserved": 0, "is_disabled": 0, "fusion_lat": 0.0}, {"fusion_lon": 0.0, "bike_id": "3ad3d0789fb1dd55ecfee2e8331fe279", "name": "3ad3d0789fb1dd55ecfee2e8331fe279", "type": "electric_scooter", "lon": -77.050945, "rental_uris": {"android": "https://dc.lft.to/lastmile_qr_scan", "ios": "https://dc.lft.to/lastmile_qr_scan"}, "lat": 38.905167166666665, "is_reserved": 0, "is_disabled": 0, "fusion_lat": 0.0}, {"fusion_lon": 0.0, "bike_id": "bcb6f20bd31e621071b2a041e068169c", "name": "bcb6f20bd31e621071b2a041e068169c", "type": "electric_scooter", "lon": -76.99490266666666, "rental_uris": {"android": "https://dc.lft.to/lastmile_qr_scan", "ios": "https://dc.lft.to/lastmile_qr_scan"}, "lat": 38.86242433333334, "is_reserved": 0, "is_disabled": 0, "fusion_lat": 0.0}, {"fusion_lon": 0.0, "bike_id": "26dc51f1fdbec9424eba35f6098e6db8", "name": "26dc51f1fdbec9424eba35f6098e6db8", "type": "electric_scooter", "lon": -77.00817733333334, "rental_uris": {"android": "https://dc.lft.to/lastmile_qr_scan", "ios": "https://dc.lft.to/lastmile_qr_scan"}, "lat": 38.876334, "is_reserved": 0, "is_disabled": 0, "fusion_lat": 0.0}, {"fusion_lon": 0.0, "bike_id": "e5a535dbbc75665995fae9b4f820e336", "name": "e5a535dbbc75665995fae9b4f820e336", "type": "electric_scooter", "lon": -77.0490375, "rental_uris": {"android": "https://dc.lft.to/lastmile_qr_scan", "ios": "https://dc.lft.to/lastmile_qr_scan"}, "lat": 38.8924725, "is_reserved": 0, "is_disabled": 0, "fusion_lat": 0.0}, {"fusion_lon": 0.0, "bike_id": "ada827c1817162422c416753c6d8768c", "name": "ada827c1817162422c416753c6d8768c", "type": "electric_scooter", "lon": -76.98918316666666, "rental_uris": {"android": "https://dc.lft.to/lastmile_qr_scan", "ios": "https://dc.lft.to/lastmile_qr_scan"}, "lat": 38.866295, "is_reserved": 0, "is_disabled": 0, "fusion_lat": 0.0}, {"fusion_lon": 0.0, "bike_id": "9c7d537cecfcc46788a644f492b80583", "name": "9c7d537cecfcc46788a644f492b80583", "type": "electric_scooter", "lon": -77.03275283333333, "rental_uris": {"android": "https://dc.lft.to/lastmile_qr_scan", "ios": "https://dc.lft.to/lastmile_qr_scan"}, "lat": 38.91561016666667, "is_reserved": 0, "is_disabled": 0, "fusion_lat": 0.0}, {"fusion_lon": 0.0, "bike_id": "a11985ef8d79a70fb9311ca2c09a1e21", "name": "a11985ef8d79a70fb9311ca2c09a1e21", "type": "electric_scooter", "lon": -77.04393983333334, "rental_uris": {"android": "https://dc.lft.to/lastmile_qr_scan", "ios": "https://dc.lft.to/lastmile_qr_scan"}, "lat": 38.922778666666666, "is_reserved": 0, "is_disabled": 0, "fusion_lat": 0.0}, {"fusion_lon": 0.0, "bike_id": "9a0a6354920f35beba9c82044da9ac2b", "name": "9a0a6354920f35beba9c82044da9ac2b", "type": "electric_scooter", "lon": -76.97306966666666, "rental_uris": {"android": "https://dc.lft.to/lastmile_qr_scan", "ios": "https://dc.lft.to/lastmile_qr_scan"}, "lat": 38.919878833333335, "is_reserved": 0, "is_disabled": 0, "fusion_lat": 0.0}, {"fusion_lon": 0.0, "bike_id": "219f1cd6ad82efdd4461cd8a8ceef3a7", "name": "219f1cd6ad82efdd4461cd8a8ceef3a7", "type": "electric_bike", "lon": -77.0040985, "rental_uris": {"android": "https://dc.lft.to/lastmile_qr_scan", "ios": "https://dc.lft.to/lastmile_qr_scan"}, "lat": 38.876645833333335, "is_reserved": 0, "is_disabled": 0, "fusion_lat": 0.0}, {"fusion_lon": 0.0, "bike_id": "3430b9f712fa0f81b89f61464bc8fe7b", "name": "3430b9f712fa0f81b89f61464bc8fe7b", "type": "electric_scooter", "lon": -77.01751966666667, "rental_uris": {"android": "https://dc.lft.to/lastmile_qr_scan", "ios": "https://dc.lft.to/lastmile_qr_scan"}, "lat": 38.908662166666666, "is_reserved": 0, "is_disabled": 0, "fusion_lat": 0.0}, {"fusion_lon": 0.0, "bike_id": "024022dddfa07ad3360e7344641d3616", "name": "024022dddfa07ad3360e7344641d3616", "type": "electric_scooter", "lon": -77.071717, "rental_uris": {"android": "https://dc.lft.to/lastmile_qr_scan", "ios": "https://dc.lft.to/lastmile_qr_scan"}, "lat": 38.907738, "is_reserved": 0, "is_disabled": 0, "fusion_lat": 0.0}, {"fusion_lon": 0.0, "bike_id": "42ed96df4d3ef618b110cc84eb9c6b20", "name": "42ed96df4d3ef618b110cc84eb9c6b20", "type": "electric_scooter", "lon": -77.00097916666667, "rental_uris": {"android": "https://dc.lft.to/lastmile_qr_scan", "ios": "https://dc.lft.to/lastmile_qr_scan"}, "lat": 38.897392333333336, "is_reserved": 0, "is_disabled": 0, "fusion_lat": 0.0}, {"fusion_lon": 0.0, "bike_id": "d34d4613bccfd7afd0a12be5eef955cc", "name": "d34d4613bccfd7afd0a12be5eef955cc", "type": "electric_bike", "lon": -77.0238725, "rental_uris": {"android": "https://dc.lft.to/lastmile_qr_scan", "ios": "https://dc.lft.to/lastmile_qr_scan"}, "lat": 38.9008615, "is_reserved": 0, "is_disabled": 0, "fusion_lat": 0.0}, {"fusion_lon": 0.0, "bike_id": "37fe36b946a34719b5c323afb0b69011", "name": "37fe36b946a34719b5c323afb0b69011", "type": "electric_bike", "lon": -77.13231483333334, "rental_uris": {"android": "https://dc.lft.to/lastmile_qr_scan", "ios": "https://dc.lft.to/lastmile_qr_scan"}, "lat": 38.869755833333336, "is_reserved": 0, "is_disabled": 0, "fusion_lat": 0.0}, {"fusion_lon": 0.0, "bike_id": "474e9110400df906d84e11369e521ece", "name": "474e9110400df906d84e11369e521ece", "type": "electric_scooter", "lon": -77.04350633333334, "rental_uris": {"android": "https://dc.lft.to/lastmile_qr_scan", "ios": "https://dc.lft.to/lastmile_qr_scan"}, "lat": 38.903540166666666, "is_reserved": 0, "is_disabled": 0, "fusion_lat": 0.0}, {"fusion_lon": 0.0, "bike_id": "e5ed27cad20ef6d02a966c48986ac219", "name": "e5ed27cad20ef6d02a966c48986ac219", "type": "electric_scooter", "lon": -77.0036275, "rental_uris": {"android": "https://dc.lft.to/lastmile_qr_scan", "ios": "https://dc.lft.to/lastmile_qr_scan"}, "lat": 38.87760566666667, "is_reserved": 0, "is_disabled": 0, "fusion_lat": 0.0}, {"fusion_lon": 0.0, "bike_id": "abb4993c44dbc705f4594545da31dc34", "name": "abb4993c44dbc705f4594545da31dc34", "type": "electric_scooter", "lon": -77.03334816666667, "rental_uris": {"android": "https://dc.lft.to/lastmile_qr_scan", "ios": "https://dc.lft.to/lastmile_qr_scan"}, "lat": 38.89819683333333, "is_reserved": 0, "is_disabled": 0, "fusion_lat": 0.0}, {"fusion_lon": 0.0, "bike_id": "7fccbc701bf33ea7f84cdbb1762ece56", "name": "7fccbc701bf33ea7f84cdbb1762ece56", "type": "electric_scooter", "lon": -77.007608, "rental_uris": {"android": "https://dc.lft.to/lastmile_qr_scan", "ios": "https://dc.lft.to/lastmile_qr_scan"}, "lat": 38.8764185, "is_reserved": 0, "is_disabled": 0, "fusion_lat": 0.0}, {"fusion_lon": 0.0, "bike_id": "101a3584cfac05879e6accee988bae06", "name": "101a3584cfac05879e6accee988bae06", "type": "electric_scooter", "lon": -77.011414, "rental_uris": {"android": "https://dc.lft.to/lastmile_qr_scan", "ios": "https://dc.lft.to/lastmile_qr_scan"}, "lat": 38.894952833333335, "is_reserved": 0, "is_disabled": 0, "fusion_lat": 0.0}, {"fusion_lon": 0.0, "bike_id": "e9f4f26833e11193d816956fcc19e0ff", "name": "e9f4f26833e11193d816956fcc19e0ff", "type": "electric_scooter", "lon": -77.023089, "rental_uris": {"android": "https://dc.lft.to/lastmile_qr_scan", "ios": "https://dc.lft.to/lastmile_qr_scan"}, "lat": 38.917791666666666, "is_reserved": 0, "is_disabled": 0, "fusion_lat": 0.0}, {"fusion_lon": 0.0, "bike_id": "28f7814a661b4d7feca53597d2f6bd84", "name": "28f7814a661b4d7feca53597d2f6bd84", "type": "electric_scooter", "lon": -77.027155, "rental_uris": {"android": "https://dc.lft.to/lastmile_qr_scan", "ios": "https://dc.lft.to/lastmile_qr_scan"}, "lat": 38.907489, "is_reserved": 0, "is_disabled": 0, "fusion_lat": 0.0}, {"fusion_lon": 0.0, "bike_id": "db986c7462f287ec504b76be2774697b", "name": "db986c7462f287ec504b76be2774697b", "type": "electric_scooter", "lon": -77.005682, "rental_uris": {"android": "https://dc.lft.to/lastmile_qr_scan", "ios": "https://dc.lft.to/lastmile_qr_scan"}, "lat": 38.88501983333333, "is_reserved": 0, "is_disabled": 0, "fusion_lat": 0.0}, {"fusion_lon": 0.0, "bike_id": "cd4673fb3e5155d31f7c15451a47edc4", "name": "cd4673fb3e5155d31f7c15451a47edc4", "type": "electric_scooter", "lon": -77.04658466666666, "rental_uris": {"android": "https://dc.lft.to/lastmile_qr_scan", "ios": "https://dc.lft.to/lastmile_qr_scan"}, "lat": 38.904204, "is_reserved": 0, "is_disabled": 0, "fusion_lat": 0.0}, {"fusion_lon": 0.0, "bike_id": "273c38b2b7828515d0389313d318e32d", "name": "273c38b2b7828515d0389313d318e32d", "type": "electric_scooter", "lon": -77.02175083333333, "rental_uris": {"android": "https://dc.lft.to/lastmile_qr_scan", "ios": "https://dc.lft.to/lastmile_qr_scan"}, "lat": 38.94294466666667, "is_reserved": 0, "is_disabled": 0, "fusion_lat": 0.0}, {"fusion_lon": 0.0, "bike_id": "9dc3d3a378741031bd03b7e72e3e6c11", "name": "9dc3d3a378741031bd03b7e72e3e6c11", "type": "electric_scooter", "lon": -77.03202683333333, "rental_uris": {"android": "https://dc.lft.to/lastmile_qr_scan", "ios": "https://dc.lft.to/lastmile_qr_scan"}, "lat": 38.91919933333333, "is_reserved": 0, "is_disabled": 0, "fusion_lat": 0.0}, {"fusion_lon": 0.0, "bike_id": "7674095c9f540ca0f13f88d93d8ab180", "name": "7674095c9f540ca0f13f88d93d8ab180", "type": "electric_scooter", "lon": -77.02533383333333, "rental_uris": {"android": "https://dc.lft.to/lastmile_qr_scan", "ios": "https://dc.lft.to/lastmile_qr_scan"}, "lat": 38.90059866666667, "is_reserved": 0, "is_disabled": 0, "fusion_lat": 0.0}, {"fusion_lon": 0.0, "bike_id": "0441c3c7b134a32eb23973fef8e6eb84", "name": "0441c3c7b134a32eb23973fef8e6eb84", "type": "electric_scooter", "lon": -76.9960605, "rental_uris": {"android": "https://dc.lft.to/lastmile_qr_scan", "ios": "https://dc.lft.to/lastmile_qr_scan"}, "lat": 38.92617166666667, "is_reserved": 0, "is_disabled": 0, "fusion_lat": 0.0}, {"fusion_lon": 0.0, "bike_id": "0262638f8109fefad7522ad65d895eaa", "name": "0262638f8109fefad7522ad65d895eaa", "type": "electric_scooter", "lon": -77.02465016666666, "rental_uris": {"android": "https://dc.lft.to/lastmile_qr_scan", "ios": "https://dc.lft.to/lastmile_qr_scan"}, "lat": 38.908536166666664, "is_reserved": 0, "is_disabled": 0, "fusion_lat": 0.0}, {"fusion_lon": 0.0, "bike_id": "0fb96cc5f4df0b54ba789055eafd471d", "name": "0fb96cc5f4df0b54ba789055eafd471d", "type": "electric_scooter", "lon": -77.01048683333333, "rental_uris": {"android": "https://dc.lft.to/lastmile_qr_scan", "ios": "https://dc.lft.to/lastmile_qr_scan"}, "lat": 38.87145066666667, "is_reserved": 0, "is_disabled": 0, "fusion_lat": 0.0}, {"fusion_lon": 0.0, "bike_id": "bde16f9ff68c3198ed728515d56b1e50", "name": "bde16f9ff68c3198ed728515d56b1e50", "type": "electric_scooter", "lon": -76.9905565, "rental_uris": {"android": "https://dc.lft.to/lastmile_qr_scan", "ios": "https://dc.lft.to/lastmile_qr_scan"}, "lat": 38.863566, "is_reserved": 0, "is_disabled": 0, "fusion_lat": 0.0}, {"fusion_lon": 0.0, "bike_id": "070ecd1c49f219cbd0bc1e3859cbac0e", "name": "070ecd1c49f219cbd0bc1e3859cbac0e", "type": "electric_scooter", "lon": -77.04369716666666, "rental_uris": {"android": "https://dc.lft.to/lastmile_qr_scan", "ios": "https://dc.lft.to/lastmile_qr_scan"}, "lat": 38.91117466666667, "is_reserved": 0, "is_disabled": 0, "fusion_lat": 0.0}, {"fusion_lon": 0.0, "bike_id": "5ec95a0e51c42bf8b0febfcabc2890f5", "name": "5ec95a0e51c42bf8b0febfcabc2890f5", "type": "electric_scooter", "lon": -77.01053633333333, "rental_uris": {"android": "https://dc.lft.to/lastmile_qr_scan", "ios": "https://dc.lft.to/lastmile_qr_scan"}, "lat": 38.929865666666664, "is_reserved": 0, "is_disabled": 0, "fusion_lat": 0.0}, {"fusion_lon": 0.0, "bike_id": "90d73209013ecb1904eb6b4e41c80cd7", "name": "90d73209013ecb1904eb6b4e41c80cd7", "type": "electric_scooter", "lon": -77.0164935, "rental_uris": {"android": "https://dc.lft.to/lastmile_qr_scan", "ios": "https://dc.lft.to/lastmile_qr_scan"}, "lat": 38.88748783333333, "is_reserved": 0, "is_disabled": 0, "fusion_lat": 0.0}, {"fusion_lon": 0.0, "bike_id": "aeb1c1692b88287800176a7bbc8c3375", "name": "aeb1c1692b88287800176a7bbc8c3375", "type": "electric_scooter", "lon": -77.04123016666667, "rental_uris": {"android": "https://dc.lft.to/lastmile_qr_scan", "ios": "https://dc.lft.to/lastmile_qr_scan"}, "lat": 38.915519833333335, "is_reserved": 0, "is_disabled": 0, "fusion_lat": 0.0}, {"fusion_lon": 0.0, "bike_id": "3e6f896e89f25236a641f4b774eaaf21", "name": "3e6f896e89f25236a641f4b774eaaf21", "type": "electric_scooter", "lon": -77.02054366666667, "rental_uris": {"android": "https://dc.lft.to/lastmile_qr_scan", "ios": "https://dc.lft.to/lastmile_qr_scan"}, "lat": 38.89458166666667, "is_reserved": 0, "is_disabled": 0, "fusion_lat": 0.0}, {"fusion_lon": 0.0, "bike_id": "7a9e18bbe72f36ccd9ea401d450e28c9", "name": "7a9e18bbe72f36ccd9ea401d450e28c9", "type": "electric_scooter", "lon": -77.0037235, "rental_uris": {"android": "https://dc.lft.to/lastmile_qr_scan", "ios": "https://dc.lft.to/lastmile_qr_scan"}, "lat": 38.897274333333336, "is_reserved": 0, "is_disabled": 0, "fusion_lat": 0.0}, {"fusion_lon": 0.0, "bike_id": "42c14e7a83d75da84ad9c63b62e70b0a", "name": "42c14e7a83d75da84ad9c63b62e70b0a", "type": "electric_bike", "lon": -77.00630333333334, "rental_uris": {"android": "https://dc.lft.to/lastmile_qr_scan", "ios": "https://dc.lft.to/lastmile_qr_scan"}, "lat": 38.983664166666664, "is_reserved": 0, "is_disabled": 0, "fusion_lat": 0.0}, {"fusion_lon": 0.0, "bike_id": "ff24be1770098a5b58a833a14a8eb48b", "name": "ff24be1770098a5b58a833a14a8eb48b", "type": "electric_scooter", "lon": -77.0295065, "rental_uris": {"android": "https://dc.lft.to/lastmile_qr_scan", "ios": "https://dc.lft.to/lastmile_qr_scan"}, "lat": 38.90507516666667, "is_reserved": 0, "is_disabled": 0, "fusion_lat": 0.0}, {"fusion_lon": 0.0, "bike_id": "a8d129357ee8ba6d654ad85b12b2768b", "name": "a8d129357ee8ba6d654ad85b12b2768b", "type": "electric_bike", "lon": -77.064736, "rental_uris": {"android": "https://dc.lft.to/lastmile_qr_scan", "ios": "https://dc.lft.to/lastmile_qr_scan"}, "lat": 38.973820333333336, "is_reserved": 0, "is_disabled": 0, "fusion_lat": 0.0}, {"fusion_lon": 0.0, "bike_id": "c74dfb19b53e554e233d27f7938b9745", "name": "c74dfb19b53e554e233d27f7938b9745", "type": "electric_bike", "lon": -76.9893595, "rental_uris": {"android": "https://dc.lft.to/lastmile_qr_scan", "ios": "https://dc.lft.to/lastmile_qr_scan"}, "lat": 38.92860683333333, "is_reserved": 0, "is_disabled": 0, "fusion_lat": 0.0}, {"fusion_lon": 0.0, "bike_id": "8412947151a7af289c3c1ac17eac1d8e", "name": "8412947151a7af289c3c1ac17eac1d8e", "type": "electric_scooter", "lon": -77.02376766666667, "rental_uris": {"android": "https://dc.lft.to/lastmile_qr_scan", "ios": "https://dc.lft.to/lastmile_qr_scan"}, "lat": 38.902027333333336, "is_reserved": 0, "is_disabled": 0, "fusion_lat": 0.0}, {"fusion_lon": 0.0, "bike_id": "cfb0e7f9b234b047f6db09e820a84569", "name": "cfb0e7f9b234b047f6db09e820a84569", "type": "electric_scooter", "lon": -77.03241016666666, "rental_uris": {"android": "https://dc.lft.to/lastmile_qr_scan", "ios": "https://dc.lft.to/lastmile_qr_scan"}, "lat": 38.915453, "is_reserved": 0, "is_disabled": 0, "fusion_lat": 0.0}, {"fusion_lon": 0.0, "bike_id": "5ffb80f89d36fe6812c9d6c6a631f7a0", "name": "5ffb80f89d36fe6812c9d6c6a631f7a0", "type": "electric_scooter", "lon": -76.9650815, "rental_uris": {"android": "https://dc.lft.to/lastmile_qr_scan", "ios": "https://dc.lft.to/lastmile_qr_scan"}, "lat": 38.87650166666667, "is_reserved": 0, "is_disabled": 0, "fusion_lat": 0.0}, {"fusion_lon": 0.0, "bike_id": "baf7c1bf8f1cce5dfa2bc60cab07b2ec", "name": "baf7c1bf8f1cce5dfa2bc60cab07b2ec", "type": "electric_scooter", "lon": -77.0214455, "rental_uris": {"android": "https://dc.lft.to/lastmile_qr_scan", "ios": "https://dc.lft.to/lastmile_qr_scan"}, "lat": 38.929225, "is_reserved": 0, "is_disabled": 0, "fusion_lat": 0.0}, {"fusion_lon": 0.0, "bike_id": "ae73168c3dd4049eb8e585384ac46194", "name": "ae73168c3dd4049eb8e585384ac46194", "type": "electric_scooter", "lon": -76.93673083333333, "rental_uris": {"android": "https://dc.lft.to/lastmile_qr_scan", "ios": "https://dc.lft.to/lastmile_qr_scan"}, "lat": 38.887542333333336, "is_reserved": 0, "is_disabled": 0, "fusion_lat": 0.0}, {"fusion_lon": 0.0, "bike_id": "adb0f9148234f9a5f4a32b68205bc6c6", "name": "adb0f9148234f9a5f4a32b68205bc6c6", "type": "electric_scooter", "lon": -77.03166083333333, "rental_uris": {"android": "https://dc.lft.to/lastmile_qr_scan", "ios": "https://dc.lft.to/lastmile_qr_scan"}, "lat": 38.90714216666667, "is_reserved": 0, "is_disabled": 0, "fusion_lat": 0.0}, {"fusion_lon": 0.0, "bike_id": "ea2bfb2b49381c9ce46606433cbe8055", "name": "ea2bfb2b49381c9ce46606433cbe8055", "type": "electric_scooter", "lon": -77.039969, "rental_uris": {"android": "https://dc.lft.to/lastmile_qr_scan", "ios": "https://dc.lft.to/lastmile_qr_scan"}, "lat": 38.93255416666667, "is_reserved": 0, "is_disabled": 0, "fusion_lat": 0.0}, {"fusion_lon": 0.0, "bike_id": "50d7d86bd8dcc446055b8e4175ec7894", "name": "50d7d86bd8dcc446055b8e4175ec7894", "type": "electric_scooter", "lon": -77.02857583333333, "rental_uris": {"android": "https://dc.lft.to/lastmile_qr_scan", "ios": "https://dc.lft.to/lastmile_qr_scan"}, "lat": 38.935877833333336, "is_reserved": 0, "is_disabled": 0, "fusion_lat": 0.0}, {"fusion_lon": 0.0, "bike_id": "cdeaf41eec01b4cc0190491403ab0433", "name": "cdeaf41eec01b4cc0190491403ab0433", "type": "electric_scooter", "lon": -76.99630233333333, "rental_uris": {"android": "https://dc.lft.to/lastmile_qr_scan", "ios": "https://dc.lft.to/lastmile_qr_scan"}, "lat": 38.84621216666667, "is_reserved": 0, "is_disabled": 0, "fusion_lat": 0.0}, {"fusion_lon": 0.0, "bike_id": "b55e29bc4584b828265770829d210936", "name": "b55e29bc4584b828265770829d210936", "type": "electric_scooter", "lon": -77.050239, "rental_uris": {"android": "https://dc.lft.to/lastmile_qr_scan", "ios": "https://dc.lft.to/lastmile_qr_scan"}, "lat": 38.895503833333336, "is_reserved": 0, "is_disabled": 0, "fusion_lat": 0.0}, {"fusion_lon": 0.0, "bike_id": "30602c6844530a91810a59aa886cb0bd", "name": "30602c6844530a91810a59aa886cb0bd", "type": "electric_scooter", "lon": -77.00798766666666, "rental_uris": {"android": "https://dc.lft.to/lastmile_qr_scan", "ios": "https://dc.lft.to/lastmile_qr_scan"}, "lat": 38.896871166666664, "is_reserved": 0, "is_disabled": 0, "fusion_lat": 0.0}, {"fusion_lon": 0.0, "bike_id": "997b0fc774873bb602ad4a784d47a5b1", "name": "997b0fc774873bb602ad4a784d47a5b1", "type": "electric_scooter", "lon": -77.02111916666667, "rental_uris": {"android": "https://dc.lft.to/lastmile_qr_scan", "ios": "https://dc.lft.to/lastmile_qr_scan"}, "lat": 38.940991, "is_reserved": 0, "is_disabled": 0, "fusion_lat": 0.0}, {"fusion_lon": 0.0, "bike_id": "5fda8e06d40597fd0b1721e6142dc26b", "name": "5fda8e06d40597fd0b1721e6142dc26b", "type": "electric_scooter", "lon": -77.02630833333333, "rental_uris": {"android": "https://dc.lft.to/lastmile_qr_scan", "ios": "https://dc.lft.to/lastmile_qr_scan"}, "lat": 38.89973283333333, "is_reserved": 0, "is_disabled": 0, "fusion_lat": 0.0}, {"fusion_lon": 0.0, "bike_id": "498c953b23b017d3741a67dfb0b1735e", "name": "498c953b23b017d3741a67dfb0b1735e", "type": "electric_bike", "lon": -76.9447525, "rental_uris": {"android": "https://dc.lft.to/lastmile_qr_scan", "ios": "https://dc.lft.to/lastmile_qr_scan"}, "lat": 38.94557966666667, "is_reserved": 0, "is_disabled": 0, "fusion_lat": 0.0}, {"fusion_lon": 0.0, "bike_id": "f74fa8bddd2c4947372376c4e6b4bb1d", "name": "f74fa8bddd2c4947372376c4e6b4bb1d", "type": "electric_scooter", "lon": -77.0101165, "rental_uris": {"android": "https://dc.lft.to/lastmile_qr_scan", "ios": "https://dc.lft.to/lastmile_qr_scan"}, "lat": 38.87968216666667, "is_reserved": 0, "is_disabled": 0, "fusion_lat": 0.0}, {"fusion_lon": 0.0, "bike_id": "09e9bad5040a3184a17c37b7a17e4754", "name": "09e9bad5040a3184a17c37b7a17e4754", "type": "electric_bike", "lon": -77.06174766666666, "rental_uris": {"android": "https://dc.lft.to/lastmile_qr_scan", "ios": "https://dc.lft.to/lastmile_qr_scan"}, "lat": 38.812708, "is_reserved": 0, "is_disabled": 0, "fusion_lat": 0.0}, {"fusion_lon": 0.0, "bike_id": "e21966727d64ea8a4410dc971a2a5d78", "name": "e21966727d64ea8a4410dc971a2a5d78", "type": "electric_scooter", "lon": -77.03399416666667, "rental_uris": {"android": "https://dc.lft.to/lastmile_qr_scan", "ios": "https://dc.lft.to/lastmile_qr_scan"}, "lat": 38.9196975, "is_reserved": 0, "is_disabled": 0, "fusion_lat": 0.0}, {"fusion_lon": 0.0, "bike_id": "298de428e665f842caaae4b3795c059a", "name": "298de428e665f842caaae4b3795c059a", "type": "electric_bike", "lon": -77.0789805, "rental_uris": {"android": "https://dc.lft.to/lastmile_qr_scan", "ios": "https://dc.lft.to/lastmile_qr_scan"}, "lat": 38.83932866666667, "is_reserved": 0, "is_disabled": 0, "fusion_lat": 0.0}, {"fusion_lon": 0.0, "bike_id": "6b6700a365ee9d9889ef041c160db814", "name": "6b6700a365ee9d9889ef041c160db814", "type": "electric_scooter", "lon": -77.03951183333334, "rental_uris": {"android": "https://dc.lft.to/lastmile_qr_scan", "ios": "https://dc.lft.to/lastmile_qr_scan"}, "lat": 38.90813133333333, "is_reserved": 0, "is_disabled": 0, "fusion_lat": 0.0}, {"fusion_lon": 0.0, "bike_id": "9f258e3cbad421588d39c5d17c54e8c2", "name": "9f258e3cbad421588d39c5d17c54e8c2", "type": "electric_scooter", "lon": -77.02538033333333, "rental_uris": {"android": "https://dc.lft.to/lastmile_qr_scan", "ios": "https://dc.lft.to/lastmile_qr_scan"}, "lat": 38.9073875, "is_reserved": 0, "is_disabled": 0, "fusion_lat": 0.0}, {"fusion_lon": 0.0, "bike_id": "b5ddc6029ccf926c0a60f3591de2f4ff", "name": "b5ddc6029ccf926c0a60f3591de2f4ff", "type": "electric_scooter", "lon": -77.00875983333333, "rental_uris": {"android": "https://dc.lft.to/lastmile_qr_scan", "ios": "https://dc.lft.to/lastmile_qr_scan"}, "lat": 38.905769666666664, "is_reserved": 0, "is_disabled": 0, "fusion_lat": 0.0}, {"fusion_lon": 0.0, "bike_id": "1f36404aa8e4d749153efc0826c031db", "name": "1f36404aa8e4d749153efc0826c031db", "type": "electric_scooter", "lon": -76.99517516666667, "rental_uris": {"android": "https://dc.lft.to/lastmile_qr_scan", "ios": "https://dc.lft.to/lastmile_qr_scan"}, "lat": 38.862553166666665, "is_reserved": 0, "is_disabled": 0, "fusion_lat": 0.0}, {"fusion_lon": 0.0, "bike_id": "52fdc0317c4e18c972a34e433dcf20a5", "name": "52fdc0317c4e18c972a34e433dcf20a5", "type": "electric_bike", "lon": -77.1142175, "rental_uris": {"android": "https://dc.lft.to/lastmile_qr_scan", "ios": "https://dc.lft.to/lastmile_qr_scan"}, "lat": 38.8426715, "is_reserved": 0, "is_disabled": 0, "fusion_lat": 0.0}, {"fusion_lon": 0.0, "bike_id": "df57c9b515e6391cb28e2c907f0f11d6", "name": "df57c9b515e6391cb28e2c907f0f11d6", "type": "electric_scooter", "lon": -77.03300383333334, "rental_uris": {"android": "https://dc.lft.to/lastmile_qr_scan", "ios": "https://dc.lft.to/lastmile_qr_scan"}, "lat": 38.922573, "is_reserved": 0, "is_disabled": 0, "fusion_lat": 0.0}, {"fusion_lon": 0.0, "bike_id": "b9892558fc5b0f84e44673944d52e481", "name": "b9892558fc5b0f84e44673944d52e481", "type": "electric_scooter", "lon": -77.0199445, "rental_uris": {"android": "https://dc.lft.to/lastmile_qr_scan", "ios": "https://dc.lft.to/lastmile_qr_scan"}, "lat": 38.930462, "is_reserved": 0, "is_disabled": 0, "fusion_lat": 0.0}, {"fusion_lon": 0.0, "bike_id": "8de37b1ed7a9f8a660bd6777bb6c5c05", "name": "8de37b1ed7a9f8a660bd6777bb6c5c05", "type": "electric_scooter", "lon": -77.0137205, "rental_uris": {"android": "https://dc.lft.to/lastmile_qr_scan", "ios": "https://dc.lft.to/lastmile_qr_scan"}, "lat": 38.892208, "is_reserved": 0, "is_disabled": 0, "fusion_lat": 0.0}, {"fusion_lon": 0.0, "bike_id": "6a902c4441266d68784746e345e883e2", "name": "6a902c4441266d68784746e345e883e2", "type": "electric_bike", "lon": -76.90535516666667, "rental_uris": {"android": "https://dc.lft.to/lastmile_qr_scan", "ios": "https://dc.lft.to/lastmile_qr_scan"}, "lat": 38.897332666666664, "is_reserved": 0, "is_disabled": 0, "fusion_lat": 0.0}, {"fusion_lon": 0.0, "bike_id": "c2eecaafb2e3a5e010f3322f31289be8", "name": "c2eecaafb2e3a5e010f3322f31289be8", "type": "electric_scooter", "lon": -77.03846966666667, "rental_uris": {"android": "https://dc.lft.to/lastmile_qr_scan", "ios": "https://dc.lft.to/lastmile_qr_scan"}, "lat": 38.912121166666665, "is_reserved": 0, "is_disabled": 0, "fusion_lat": 0.0}, {"fusion_lon": 0.0, "bike_id": "232ed4054013c358ff3a993259b79d8c", "name": "232ed4054013c358ff3a993259b79d8c", "type": "electric_scooter", "lon": -77.0436905, "rental_uris": {"android": "https://dc.lft.to/lastmile_qr_scan", "ios": "https://dc.lft.to/lastmile_qr_scan"}, "lat": 38.90384016666667, "is_reserved": 0, "is_disabled": 0, "fusion_lat": 0.0}, {"fusion_lon": 0.0, "bike_id": "c2a0b0b4f9e906b3023fe55c5c1bd17a", "name": "c2a0b0b4f9e906b3023fe55c5c1bd17a", "type": "electric_scooter", "lon": -76.99150983333334, "rental_uris": {"android": "https://dc.lft.to/lastmile_qr_scan", "ios": "https://dc.lft.to/lastmile_qr_scan"}, "lat": 38.8821105, "is_reserved": 0, "is_disabled": 0, "fusion_lat": 0.0}, {"fusion_lon": 0.0, "bike_id": "bb26ed08be8ab9f3f277e494f044443d", "name": "bb26ed08be8ab9f3f277e494f044443d", "type": "electric_scooter", "lon": -77.03870183333333, "rental_uris": {"android": "https://dc.lft.to/lastmile_qr_scan", "ios": "https://dc.lft.to/lastmile_qr_scan"}, "lat": 38.909738833333336, "is_reserved": 0, "is_disabled": 0, "fusion_lat": 0.0}, {"fusion_lon": 0.0, "bike_id": "d582013e2f4ee9218e62bd98afac56ec", "name": "d582013e2f4ee9218e62bd98afac56ec", "type": "electric_scooter", "lon": -77.02193133333333, "rental_uris": {"android": "https://dc.lft.to/lastmile_qr_scan", "ios": "https://dc.lft.to/lastmile_qr_scan"}, "lat": 38.9188265, "is_reserved": 0, "is_disabled": 0, "fusion_lat": 0.0}, {"fusion_lon": 0.0, "bike_id": "84f31da6818c1c355747e0d113ef529b", "name": "84f31da6818c1c355747e0d113ef529b", "type": "electric_scooter", "lon": -77.0137425, "rental_uris": {"android": "https://dc.lft.to/lastmile_qr_scan", "ios": "https://dc.lft.to/lastmile_qr_scan"}, "lat": 38.8863865, "is_reserved": 0, "is_disabled": 0, "fusion_lat": 0.0}, {"fusion_lon": 0.0, "bike_id": "04747549baaafb10b155cdbad5825536", "name": "04747549baaafb10b155cdbad5825536", "type": "electric_scooter", "lon": -77.05763783333333, "rental_uris": {"android": "https://dc.lft.to/lastmile_qr_scan", "ios": "https://dc.lft.to/lastmile_qr_scan"}, "lat": 38.9249715, "is_reserved": 0, "is_disabled": 0, "fusion_lat": 0.0}, {"fusion_lon": 0.0, "bike_id": "5bd08b746f70f6efa4a693635b9927e6", "name": "5bd08b746f70f6efa4a693635b9927e6", "type": "electric_scooter", "lon": -77.06919316666666, "rental_uris": {"android": "https://dc.lft.to/lastmile_qr_scan", "ios": "https://dc.lft.to/lastmile_qr_scan"}, "lat": 38.9133675, "is_reserved": 0, "is_disabled": 0, "fusion_lat": 0.0}, {"fusion_lon": 0.0, "bike_id": "ab992140429924a353fe3d21b86501d8", "name": "ab992140429924a353fe3d21b86501d8", "type": "electric_scooter", "lon": -77.03854916666667, "rental_uris": {"android": "https://dc.lft.to/lastmile_qr_scan", "ios": "https://dc.lft.to/lastmile_qr_scan"}, "lat": 38.90241483333333, "is_reserved": 0, "is_disabled": 0, "fusion_lat": 0.0}, {"fusion_lon": 0.0, "bike_id": "12654fd2bfa9316f93ddb1e0ecb7973c", "name": "12654fd2bfa9316f93ddb1e0ecb7973c", "type": "electric_scooter", "lon": -77.04873683333334, "rental_uris": {"android": "https://dc.lft.to/lastmile_qr_scan", "ios": "https://dc.lft.to/lastmile_qr_scan"}, "lat": 38.90910183333333, "is_reserved": 0, "is_disabled": 0, "fusion_lat": 0.0}, {"fusion_lon": 0.0, "bike_id": "a030a30d88e33d020d1609d81089eb1c", "name": "a030a30d88e33d020d1609d81089eb1c", "type": "electric_scooter", "lon": -77.02857616666667, "rental_uris": {"android": "https://dc.lft.to/lastmile_qr_scan", "ios": "https://dc.lft.to/lastmile_qr_scan"}, "lat": 38.93260933333333, "is_reserved": 0, "is_disabled": 0, "fusion_lat": 0.0}, {"fusion_lon": 0.0, "bike_id": "69ed041d280c08b29b3df43b4eed4b5b", "name": "69ed041d280c08b29b3df43b4eed4b5b", "type": "electric_scooter", "lon": -77.03073566666667, "rental_uris": {"android": "https://dc.lft.to/lastmile_qr_scan", "ios": "https://dc.lft.to/lastmile_qr_scan"}, "lat": 38.9025185, "is_reserved": 0, "is_disabled": 0, "fusion_lat": 0.0}, {"fusion_lon": 0.0, "bike_id": "9526398b5ddb810e8d45d140d89cf1f3", "name": "9526398b5ddb810e8d45d140d89cf1f3", "type": "electric_scooter", "lon": -77.02494966666667, "rental_uris": {"android": "https://dc.lft.to/lastmile_qr_scan", "ios": "https://dc.lft.to/lastmile_qr_scan"}, "lat": 38.920630333333335, "is_reserved": 0, "is_disabled": 0, "fusion_lat": 0.0}, {"fusion_lon": 0.0, "bike_id": "89282535f8dfb02368633d41489b9f46", "name": "89282535f8dfb02368633d41489b9f46", "type": "electric_scooter", "lon": -77.043993, "rental_uris": {"android": "https://dc.lft.to/lastmile_qr_scan", "ios": "https://dc.lft.to/lastmile_qr_scan"}, "lat": 38.920255, "is_reserved": 0, "is_disabled": 0, "fusion_lat": 0.0}, {"fusion_lon": 0.0, "bike_id": "3913f57cb7d94ca2c7e522a341da25c5", "name": "3913f57cb7d94ca2c7e522a341da25c5", "type": "electric_bike", "lon": -77.1273785, "rental_uris": {"android": "https://dc.lft.to/lastmile_qr_scan", "ios": "https://dc.lft.to/lastmile_qr_scan"}, "lat": 38.895637, "is_reserved": 0, "is_disabled": 0, "fusion_lat": 0.0}, {"fusion_lon": 0.0, "bike_id": "f884c244aa9857435d1cc0a12b232cae", "name": "f884c244aa9857435d1cc0a12b232cae", "type": "electric_scooter", "lon": -77.0279015, "rental_uris": {"android": "https://dc.lft.to/lastmile_qr_scan", "ios": "https://dc.lft.to/lastmile_qr_scan"}, "lat": 38.9268445, "is_reserved": 0, "is_disabled": 0, "fusion_lat": 0.0}, {"fusion_lon": 0.0, "bike_id": "fb8511681d694adc3b56e0f9d4ac9f54", "name": "fb8511681d694adc3b56e0f9d4ac9f54", "type": "electric_scooter", "lon": -77.02381333333334, "rental_uris": {"android": "https://dc.lft.to/lastmile_qr_scan", "ios": "https://dc.lft.to/lastmile_qr_scan"}, "lat": 38.8923165, "is_reserved": 0, "is_disabled": 0, "fusion_lat": 0.0}, {"fusion_lon": 0.0, "bike_id": "87fb5d30b6c48fb406f5863d4c23eb23", "name": "87fb5d30b6c48fb406f5863d4c23eb23", "type": "electric_scooter", "lon": -77.04476833333334, "rental_uris": {"android": "https://dc.lft.to/lastmile_qr_scan", "ios": "https://dc.lft.to/lastmile_qr_scan"}, "lat": 38.90551766666667, "is_reserved": 0, "is_disabled": 0, "fusion_lat": 0.0}, {"fusion_lon": 0.0, "bike_id": "4b8dd1d7e027f5619fd120b4d76459ce", "name": "4b8dd1d7e027f5619fd120b4d76459ce", "type": "electric_scooter", "lon": -77.04181283333334, "rental_uris": {"android": "https://dc.lft.to/lastmile_qr_scan", "ios": "https://dc.lft.to/lastmile_qr_scan"}, "lat": 38.91261866666667, "is_reserved": 0, "is_disabled": 0, "fusion_lat": 0.0}, {"fusion_lon": 0.0, "bike_id": "4381e75bb0bbff82e5cdb9f67a55a0b7", "name": "4381e75bb0bbff82e5cdb9f67a55a0b7", "type": "electric_scooter", "lon": -77.02026383333333, "rental_uris": {"android": "https://dc.lft.to/lastmile_qr_scan", "ios": "https://dc.lft.to/lastmile_qr_scan"}, "lat": 38.913000833333335, "is_reserved": 0, "is_disabled": 0, "fusion_lat": 0.0}, {"fusion_lon": 0.0, "bike_id": "2fff90b8b5a9e1c120a44154238dab9c", "name": "2fff90b8b5a9e1c120a44154238dab9c", "type": "electric_scooter", "lon": -77.04992883333334, "rental_uris": {"android": "https://dc.lft.to/lastmile_qr_scan", "ios": "https://dc.lft.to/lastmile_qr_scan"}, "lat": 38.90158566666667, "is_reserved": 0, "is_disabled": 0, "fusion_lat": 0.0}, {"fusion_lon": 0.0, "bike_id": "a44be59b5a96fcb0a614e303834f4149", "name": "a44be59b5a96fcb0a614e303834f4149", "type": "electric_scooter", "lon": -77.01059833333333, "rental_uris": {"android": "https://dc.lft.to/lastmile_qr_scan", "ios": "https://dc.lft.to/lastmile_qr_scan"}, "lat": 38.8724365, "is_reserved": 0, "is_disabled": 0, "fusion_lat": 0.0}, {"fusion_lon": 0.0, "bike_id": "92da071454720140dcc785c743d8d74f", "name": "92da071454720140dcc785c743d8d74f", "type": "electric_scooter", "lon": -77.03183633333333, "rental_uris": {"android": "https://dc.lft.to/lastmile_qr_scan", "ios": "https://dc.lft.to/lastmile_qr_scan"}, "lat": 38.891806833333334, "is_reserved": 0, "is_disabled": 0, "fusion_lat": 0.0}, {"fusion_lon": 0.0, "bike_id": "a94f32f5f1d573f9403b68fa8bcaf73f", "name": "a94f32f5f1d573f9403b68fa8bcaf73f", "type": "electric_scooter", "lon": -77.024653, "rental_uris": {"android": "https://dc.lft.to/lastmile_qr_scan", "ios": "https://dc.lft.to/lastmile_qr_scan"}, "lat": 38.8973035, "is_reserved": 0, "is_disabled": 0, "fusion_lat": 0.0}, {"fusion_lon": 0.0, "bike_id": "ae9c1eb6db2dd96c7e1240467e9188d9", "name": "ae9c1eb6db2dd96c7e1240467e9188d9", "type": "electric_scooter", "lon": -76.98920083333333, "rental_uris": {"android": "https://dc.lft.to/lastmile_qr_scan", "ios": "https://dc.lft.to/lastmile_qr_scan"}, "lat": 38.8820955, "is_reserved": 0, "is_disabled": 0, "fusion_lat": 0.0}, {"fusion_lon": 0.0, "bike_id": "18ddd0fe90b841bd4a5f83367dedcb94", "name": "18ddd0fe90b841bd4a5f83367dedcb94", "type": "electric_scooter", "lon": -77.04979216666666, "rental_uris": {"android": "https://dc.lft.to/lastmile_qr_scan", "ios": "https://dc.lft.to/lastmile_qr_scan"}, "lat": 38.8960965, "is_reserved": 0, "is_disabled": 0, "fusion_lat": 0.0}, {"fusion_lon": 0.0, "bike_id": "31d687e2124f25fdbe3295972260345d", "name": "31d687e2124f25fdbe3295972260345d", "type": "electric_scooter", "lon": -77.01772783333334, "rental_uris": {"android": "https://dc.lft.to/lastmile_qr_scan", "ios": "https://dc.lft.to/lastmile_qr_scan"}, "lat": 38.921037, "is_reserved": 0, "is_disabled": 0, "fusion_lat": 0.0}, {"fusion_lon": 0.0, "bike_id": "02ce0b0f0b11212c065bb5af4d8a5571", "name": "02ce0b0f0b11212c065bb5af4d8a5571", "type": "electric_scooter", "lon": -77.02714183333333, "rental_uris": {"android": "https://dc.lft.to/lastmile_qr_scan", "ios": "https://dc.lft.to/lastmile_qr_scan"}, "lat": 38.91953816666667, "is_reserved": 0, "is_disabled": 0, "fusion_lat": 0.0}, {"fusion_lon": 0.0, "bike_id": "13245c1a06b2136bb7e9790294807c4d", "name": "13245c1a06b2136bb7e9790294807c4d", "type": "electric_scooter", "lon": -77.02482383333333, "rental_uris": {"android": "https://dc.lft.to/lastmile_qr_scan", "ios": "https://dc.lft.to/lastmile_qr_scan"}, "lat": 38.938811333333334, "is_reserved": 0, "is_disabled": 0, "fusion_lat": 0.0}, {"fusion_lon": 0.0, "bike_id": "9123b230ba3a69916d4983b21741f88f", "name": "9123b230ba3a69916d4983b21741f88f", "type": "electric_scooter", "lon": -77.07994833333333, "rental_uris": {"android": "https://dc.lft.to/lastmile_qr_scan", "ios": "https://dc.lft.to/lastmile_qr_scan"}, "lat": 38.9236955, "is_reserved": 0, "is_disabled": 0, "fusion_lat": 0.0}, {"fusion_lon": 0.0, "bike_id": "81ce56d83e73077acf61be60c0466ce7", "name": "81ce56d83e73077acf61be60c0466ce7", "type": "electric_scooter", "lon": -77.039628, "rental_uris": {"android": "https://dc.lft.to/lastmile_qr_scan", "ios": "https://dc.lft.to/lastmile_qr_scan"}, "lat": 38.90614033333333, "is_reserved": 0, "is_disabled": 0, "fusion_lat": 0.0}, {"fusion_lon": 0.0, "bike_id": "437d0d2cc3b3f1805597ecc24c87c137", "name": "437d0d2cc3b3f1805597ecc24c87c137", "type": "electric_scooter", "lon": -77.0263675, "rental_uris": {"android": "https://dc.lft.to/lastmile_qr_scan", "ios": "https://dc.lft.to/lastmile_qr_scan"}, "lat": 38.932739, "is_reserved": 0, "is_disabled": 0, "fusion_lat": 0.0}, {"fusion_lon": 0.0, "bike_id": "72243cc6a1351b829cb0b24090963bbf", "name": "72243cc6a1351b829cb0b24090963bbf", "type": "electric_scooter", "lon": -77.05096683333333, "rental_uris": {"android": "https://dc.lft.to/lastmile_qr_scan", "ios": "https://dc.lft.to/lastmile_qr_scan"}, "lat": 38.92343283333334, "is_reserved": 0, "is_disabled": 0, "fusion_lat": 0.0}, {"fusion_lon": 0.0, "bike_id": "d08e88ece9260f2b9a19f30766bcf9ce", "name": "d08e88ece9260f2b9a19f30766bcf9ce", "type": "electric_bike", "lon": -77.013054, "rental_uris": {"android": "https://dc.lft.to/lastmile_qr_scan", "ios": "https://dc.lft.to/lastmile_qr_scan"}, "lat": 38.88137233333333, "is_reserved": 0, "is_disabled": 0, "fusion_lat": 0.0}, {"fusion_lon": 0.0, "bike_id": "95300f7ef27cfe4da59ff3d81e5918b6", "name": "95300f7ef27cfe4da59ff3d81e5918b6", "type": "electric_scooter", "lon": -77.04683116666666, "rental_uris": {"android": "https://dc.lft.to/lastmile_qr_scan", "ios": "https://dc.lft.to/lastmile_qr_scan"}, "lat": 38.903578833333334, "is_reserved": 0, "is_disabled": 0, "fusion_lat": 0.0}, {"fusion_lon": 0.0, "bike_id": "d2229a8eefa2488f43027baf743f0831", "name": "d2229a8eefa2488f43027baf743f0831", "type": "electric_scooter", "lon": -77.02421883333334, "rental_uris": {"android": "https://dc.lft.to/lastmile_qr_scan", "ios": "https://dc.lft.to/lastmile_qr_scan"}, "lat": 38.92368, "is_reserved": 0, "is_disabled": 0, "fusion_lat": 0.0}, {"fusion_lon": 0.0, "bike_id": "51ce06cf4619795d223a8addadd815f7", "name": "51ce06cf4619795d223a8addadd815f7", "type": "electric_scooter", "lon": -76.99481166666666, "rental_uris": {"android": "https://dc.lft.to/lastmile_qr_scan", "ios": "https://dc.lft.to/lastmile_qr_scan"}, "lat": 38.86217033333333, "is_reserved": 0, "is_disabled": 0, "fusion_lat": 0.0}, {"fusion_lon": 0.0, "bike_id": "409ddf2d8b77b4ccee6ff73af1ae69e8", "name": "409ddf2d8b77b4ccee6ff73af1ae69e8", "type": "electric_scooter", "lon": -77.00859916666667, "rental_uris": {"android": "https://dc.lft.to/lastmile_qr_scan", "ios": "https://dc.lft.to/lastmile_qr_scan"}, "lat": 38.9066325, "is_reserved": 0, "is_disabled": 0, "fusion_lat": 0.0}, {"fusion_lon": 0.0, "bike_id": "8fd6f4b8cb37191fb474de804b9f4129", "name": "8fd6f4b8cb37191fb474de804b9f4129", "type": "electric_scooter", "lon": -77.0459815, "rental_uris": {"android": "https://dc.lft.to/lastmile_qr_scan", "ios": "https://dc.lft.to/lastmile_qr_scan"}, "lat": 38.909665333333336, "is_reserved": 0, "is_disabled": 0, "fusion_lat": 0.0}, {"fusion_lon": 0.0, "bike_id": "6382b5dfe0026fadd31d1c6bd8c74f1e", "name": "6382b5dfe0026fadd31d1c6bd8c74f1e", "type": "electric_bike", "lon": -76.97330033333333, "rental_uris": {"android": "https://dc.lft.to/lastmile_qr_scan", "ios": "https://dc.lft.to/lastmile_qr_scan"}, "lat": 38.850673, "is_reserved": 0, "is_disabled": 0, "fusion_lat": 0.0}, {"fusion_lon": 0.0, "bike_id": "1e26408b290e402fbec341d92fa9823c", "name": "1e26408b290e402fbec341d92fa9823c", "type": "electric_scooter", "lon": -77.024837, "rental_uris": {"android": "https://dc.lft.to/lastmile_qr_scan", "ios": "https://dc.lft.to/lastmile_qr_scan"}, "lat": 38.91616966666667, "is_reserved": 0, "is_disabled": 0, "fusion_lat": 0.0}, {"fusion_lon": 0.0, "bike_id": "c575a0c7501ae137be30544db2723a32", "name": "c575a0c7501ae137be30544db2723a32", "type": "electric_scooter", "lon": -77.036451, "rental_uris": {"android": "https://dc.lft.to/lastmile_qr_scan", "ios": "https://dc.lft.to/lastmile_qr_scan"}, "lat": 38.90379183333334, "is_reserved": 0, "is_disabled": 0, "fusion_lat": 0.0}, {"fusion_lon": 0.0, "bike_id": "5da48e4f4dd55a118c6b1734c06dbd5a", "name": "5da48e4f4dd55a118c6b1734c06dbd5a", "type": "electric_scooter", "lon": -77.06887083333334, "rental_uris": {"android": "https://dc.lft.to/lastmile_qr_scan", "ios": "https://dc.lft.to/lastmile_qr_scan"}, "lat": 38.90513516666667, "is_reserved": 0, "is_disabled": 0, "fusion_lat": 0.0}, {"fusion_lon": 0.0, "bike_id": "686c7595bc0ad01b9919a6dbc0c9b049", "name": "686c7595bc0ad01b9919a6dbc0c9b049", "type": "electric_bike", "lon": -76.94569816666667, "rental_uris": {"android": "https://dc.lft.to/lastmile_qr_scan", "ios": "https://dc.lft.to/lastmile_qr_scan"}, "lat": 38.86626566666666, "is_reserved": 0, "is_disabled": 0, "fusion_lat": 0.0}, {"fusion_lon": 0.0, "bike_id": "052bd6292347d0549b22abde5a7a87f2", "name": "052bd6292347d0549b22abde5a7a87f2", "type": "electric_scooter", "lon": -77.02636883333334, "rental_uris": {"android": "https://dc.lft.to/lastmile_qr_scan", "ios": "https://dc.lft.to/lastmile_qr_scan"}, "lat": 38.98055683333333, "is_reserved": 0, "is_disabled": 0, "fusion_lat": 0.0}, {"fusion_lon": 0.0, "bike_id": "20fb83069e8f84c1f401f681c0698cb6", "name": "20fb83069e8f84c1f401f681c0698cb6", "type": "electric_scooter", "lon": -77.01564283333333, "rental_uris": {"android": "https://dc.lft.to/lastmile_qr_scan", "ios": "https://dc.lft.to/lastmile_qr_scan"}, "lat": 38.891761, "is_reserved": 0, "is_disabled": 0, "fusion_lat": 0.0}, {"fusion_lon": 0.0, "bike_id": "876da790208807bd49e4e02936c2dd67", "name": "876da790208807bd49e4e02936c2dd67", "type": "electric_bike", "lon": -77.00595233333334, "rental_uris": {"android": "https://dc.lft.to/lastmile_qr_scan", "ios": "https://dc.lft.to/lastmile_qr_scan"}, "lat": 38.903160666666665, "is_reserved": 0, "is_disabled": 0, "fusion_lat": 0.0}, {"fusion_lon": 0.0, "bike_id": "cfa05e199e7621b497ee0be7e0260468", "name": "cfa05e199e7621b497ee0be7e0260468", "type": "electric_scooter", "lon": -77.00056966666666, "rental_uris": {"android": "https://dc.lft.to/lastmile_qr_scan", "ios": "https://dc.lft.to/lastmile_qr_scan"}, "lat": 38.88896966666667, "is_reserved": 0, "is_disabled": 0, "fusion_lat": 0.0}, {"fusion_lon": 0.0, "bike_id": "ee0b3c667fbd53d8f3fc92a95fb331e9", "name": "ee0b3c667fbd53d8f3fc92a95fb331e9", "type": "electric_scooter", "lon": -77.062174, "rental_uris": {"android": "https://dc.lft.to/lastmile_qr_scan", "ios": "https://dc.lft.to/lastmile_qr_scan"}, "lat": 38.90522883333333, "is_reserved": 0, "is_disabled": 0, "fusion_lat": 0.0}, {"fusion_lon": 0.0, "bike_id": "e9d75815decb4782da029f358f7b10b7", "name": "e9d75815decb4782da029f358f7b10b7", "type": "electric_scooter", "lon": -77.026116, "rental_uris": {"android": "https://dc.lft.to/lastmile_qr_scan", "ios": "https://dc.lft.to/lastmile_qr_scan"}, "lat": 38.924439166666666, "is_reserved": 0, "is_disabled": 0, "fusion_lat": 0.0}, {"fusion_lon": 0.0, "bike_id": "0b788e3698d50838056642d25cf49f3d", "name": "0b788e3698d50838056642d25cf49f3d", "type": "electric_scooter", "lon": -77.03105166666667, "rental_uris": {"android": "https://dc.lft.to/lastmile_qr_scan", "ios": "https://dc.lft.to/lastmile_qr_scan"}, "lat": 38.92978216666667, "is_reserved": 0, "is_disabled": 0, "fusion_lat": 0.0}, {"fusion_lon": 0.0, "bike_id": "f351d5ca08334c0b89ca456bc28ffbb0", "name": "f351d5ca08334c0b89ca456bc28ffbb0", "type": "electric_scooter", "lon": -76.99680866666667, "rental_uris": {"android": "https://dc.lft.to/lastmile_qr_scan", "ios": "https://dc.lft.to/lastmile_qr_scan"}, "lat": 38.887012166666665, "is_reserved": 0, "is_disabled": 0, "fusion_lat": 0.0}, {"fusion_lon": 0.0, "bike_id": "103c10ff12876c0011f13e3c9f85451b", "name": "103c10ff12876c0011f13e3c9f85451b", "type": "electric_scooter", "lon": -76.96524366666667, "rental_uris": {"android": "https://dc.lft.to/lastmile_qr_scan", "ios": "https://dc.lft.to/lastmile_qr_scan"}, "lat": 38.876291333333334, "is_reserved": 0, "is_disabled": 0, "fusion_lat": 0.0}, {"fusion_lon": 0.0, "bike_id": "778dacbdfee8899595aaaafc5a3f07e9", "name": "778dacbdfee8899595aaaafc5a3f07e9", "type": "electric_scooter", "lon": -77.032012, "rental_uris": {"android": "https://dc.lft.to/lastmile_qr_scan", "ios": "https://dc.lft.to/lastmile_qr_scan"}, "lat": 38.91852516666667, "is_reserved": 0, "is_disabled": 0, "fusion_lat": 0.0}, {"fusion_lon": 0.0, "bike_id": "a4ef9547d58d21819a3f034e31c0ac8d", "name": "a4ef9547d58d21819a3f034e31c0ac8d", "type": "electric_scooter", "lon": -76.9803535, "rental_uris": {"android": "https://dc.lft.to/lastmile_qr_scan", "ios": "https://dc.lft.to/lastmile_qr_scan"}, "lat": 38.907904, "is_reserved": 0, "is_disabled": 0, "fusion_lat": 0.0}, {"fusion_lon": 0.0, "bike_id": "d66bdb439f2d00a3d1f4c7415e0adc63", "name": "d66bdb439f2d00a3d1f4c7415e0adc63", "type": "electric_bike", "lon": -76.98750733333333, "rental_uris": {"android": "https://dc.lft.to/lastmile_qr_scan", "ios": "https://dc.lft.to/lastmile_qr_scan"}, "lat": 38.9882525, "is_reserved": 0, "is_disabled": 0, "fusion_lat": 0.0}, {"fusion_lon": 0.0, "bike_id": "5a4cb1fdbd1d246c7430eb15a31f6646", "name": "5a4cb1fdbd1d246c7430eb15a31f6646", "type": "electric_scooter", "lon": -76.996306, "rental_uris": {"android": "https://dc.lft.to/lastmile_qr_scan", "ios": "https://dc.lft.to/lastmile_qr_scan"}, "lat": 38.846186, "is_reserved": 0, "is_disabled": 0, "fusion_lat": 0.0}, {"fusion_lon": 0.0, "bike_id": "ffb375c4205eeb9ae2990120d5a075db", "name": "ffb375c4205eeb9ae2990120d5a075db", "type": "electric_scooter", "lon": -76.937547, "rental_uris": {"android": "https://dc.lft.to/lastmile_qr_scan", "ios": "https://dc.lft.to/lastmile_qr_scan"}, "lat": 38.89036183333333, "is_reserved": 0, "is_disabled": 0, "fusion_lat": 0.0}, {"fusion_lon": 0.0, "bike_id": "a10a4eea32c6c488f06b9fb36d7d237e", "name": "a10a4eea32c6c488f06b9fb36d7d237e", "type": "electric_scooter", "lon": -77.03144966666666, "rental_uris": {"android": "https://dc.lft.to/lastmile_qr_scan", "ios": "https://dc.lft.to/lastmile_qr_scan"}, "lat": 38.931822833333335, "is_reserved": 0, "is_disabled": 0, "fusion_lat": 0.0}, {"fusion_lon": 0.0, "bike_id": "c521425b887ee0aaaa7153571eafe038", "name": "c521425b887ee0aaaa7153571eafe038", "type": "electric_scooter", "lon": -77.00515933333334, "rental_uris": {"android": "https://dc.lft.to/lastmile_qr_scan", "ios": "https://dc.lft.to/lastmile_qr_scan"}, "lat": 38.874699666666665, "is_reserved": 0, "is_disabled": 0, "fusion_lat": 0.0}, {"fusion_lon": 0.0, "bike_id": "d93f037997f66e3630b7a63cec063e31", "name": "d93f037997f66e3630b7a63cec063e31", "type": "electric_bike", "lon": -76.93899383333333, "rental_uris": {"android": "https://dc.lft.to/lastmile_qr_scan", "ios": "https://dc.lft.to/lastmile_qr_scan"}, "lat": 38.95631133333333, "is_reserved": 0, "is_disabled": 0, "fusion_lat": 0.0}, {"fusion_lon": 0.0, "bike_id": "c0a5744cd924ace17dfa8b506d56cbd4", "name": "c0a5744cd924ace17dfa8b506d56cbd4", "type": "electric_scooter", "lon": -77.01207533333333, "rental_uris": {"android": "https://dc.lft.to/lastmile_qr_scan", "ios": "https://dc.lft.to/lastmile_qr_scan"}, "lat": 38.895352, "is_reserved": 0, "is_disabled": 0, "fusion_lat": 0.0}, {"fusion_lon": 0.0, "bike_id": "7e9e620a73e11c3c4c809d1bca929f74", "name": "7e9e620a73e11c3c4c809d1bca929f74", "type": "electric_scooter", "lon": -77.04655866666667, "rental_uris": {"android": "https://dc.lft.to/lastmile_qr_scan", "ios": "https://dc.lft.to/lastmile_qr_scan"}, "lat": 38.89235016666667, "is_reserved": 0, "is_disabled": 0, "fusion_lat": 0.0}, {"fusion_lon": 0.0, "bike_id": "8dea70a2285e8c7528432652913cea42", "name": "8dea70a2285e8c7528432652913cea42", "type": "electric_scooter", "lon": -77.05062316666667, "rental_uris": {"android": "https://dc.lft.to/lastmile_qr_scan", "ios": "https://dc.lft.to/lastmile_qr_scan"}, "lat": 38.90069166666667, "is_reserved": 0, "is_disabled": 0, "fusion_lat": 0.0}, {"fusion_lon": 0.0, "bike_id": "2c7b0e4a3ed532d491ccda7f3a2f965d", "name": "2c7b0e4a3ed532d491ccda7f3a2f965d", "type": "electric_scooter", "lon": -77.0176725, "rental_uris": {"android": "https://dc.lft.to/lastmile_qr_scan", "ios": "https://dc.lft.to/lastmile_qr_scan"}, "lat": 38.92101316666667, "is_reserved": 0, "is_disabled": 0, "fusion_lat": 0.0}, {"fusion_lon": 0.0, "bike_id": "9dc45c84fe1ac43b3ea2997649188078", "name": "9dc45c84fe1ac43b3ea2997649188078", "type": "electric_scooter", "lon": -77.01754566666666, "rental_uris": {"android": "https://dc.lft.to/lastmile_qr_scan", "ios": "https://dc.lft.to/lastmile_qr_scan"}, "lat": 38.913565, "is_reserved": 0, "is_disabled": 0, "fusion_lat": 0.0}, {"fusion_lon": 0.0, "bike_id": "4fc5633dc6de42d45836c78859d7e713", "name": "4fc5633dc6de42d45836c78859d7e713", "type": "electric_scooter", "lon": -77.03156366666667, "rental_uris": {"android": "https://dc.lft.to/lastmile_qr_scan", "ios": "https://dc.lft.to/lastmile_qr_scan"}, "lat": 38.928098166666665, "is_reserved": 0, "is_disabled": 0, "fusion_lat": 0.0}, {"fusion_lon": 0.0, "bike_id": "a143c3fba22f4af06582943a189823e0", "name": "a143c3fba22f4af06582943a189823e0", "type": "electric_scooter", "lon": -77.05118866666666, "rental_uris": {"android": "https://dc.lft.to/lastmile_qr_scan", "ios": "https://dc.lft.to/lastmile_qr_scan"}, "lat": 38.912129, "is_reserved": 0, "is_disabled": 0, "fusion_lat": 0.0}, {"fusion_lon": 0.0, "bike_id": "d8d0c3921037954f547ced23e5ff6ed6", "name": "d8d0c3921037954f547ced23e5ff6ed6", "type": "electric_scooter", "lon": -77.00204166666667, "rental_uris": {"android": "https://dc.lft.to/lastmile_qr_scan", "ios": "https://dc.lft.to/lastmile_qr_scan"}, "lat": 38.893524666666664, "is_reserved": 0, "is_disabled": 0, "fusion_lat": 0.0}, {"fusion_lon": 0.0, "bike_id": "ea1f6c99f584fa1254b6b88d77e6719d", "name": "ea1f6c99f584fa1254b6b88d77e6719d", "type": "electric_scooter", "lon": -77.03237, "rental_uris": {"android": "https://dc.lft.to/lastmile_qr_scan", "ios": "https://dc.lft.to/lastmile_qr_scan"}, "lat": 38.928104833333336, "is_reserved": 0, "is_disabled": 0, "fusion_lat": 0.0}, {"fusion_lon": 0.0, "bike_id": "f15933bd8d5a55bce2c600383fc47163", "name": "f15933bd8d5a55bce2c600383fc47163", "type": "electric_scooter", "lon": -77.00754033333334, "rental_uris": {"android": "https://dc.lft.to/lastmile_qr_scan", "ios": "https://dc.lft.to/lastmile_qr_scan"}, "lat": 38.87645533333333, "is_reserved": 0, "is_disabled": 0, "fusion_lat": 0.0}, {"fusion_lon": 0.0, "bike_id": "06eec931605d2400fd30b5293253f5c8", "name": "06eec931605d2400fd30b5293253f5c8", "type": "electric_scooter", "lon": -77.0111295, "rental_uris": {"android": "https://dc.lft.to/lastmile_qr_scan", "ios": "https://dc.lft.to/lastmile_qr_scan"}, "lat": 38.9035595, "is_reserved": 0, "is_disabled": 0, "fusion_lat": 0.0}, {"fusion_lon": 0.0, "bike_id": "ae78425546a6380a963433845d810e14", "name": "ae78425546a6380a963433845d810e14", "type": "electric_scooter", "lon": -76.99967183333334, "rental_uris": {"android": "https://dc.lft.to/lastmile_qr_scan", "ios": "https://dc.lft.to/lastmile_qr_scan"}, "lat": 38.8428785, "is_reserved": 0, "is_disabled": 0, "fusion_lat": 0.0}, {"fusion_lon": 0.0, "bike_id": "7679f48c506353f7b1274c27b5e362fb", "name": "7679f48c506353f7b1274c27b5e362fb", "type": "electric_bike", "lon": -76.94948733333334, "rental_uris": {"android": "https://dc.lft.to/lastmile_qr_scan", "ios": "https://dc.lft.to/lastmile_qr_scan"}, "lat": 38.93508283333333, "is_reserved": 0, "is_disabled": 0, "fusion_lat": 0.0}, {"fusion_lon": 0.0, "bike_id": "be97bc86dc6c39ec3c9e613c6d4ced0b", "name": "be97bc86dc6c39ec3c9e613c6d4ced0b", "type": "electric_scooter", "lon": -77.01368, "rental_uris": {"android": "https://dc.lft.to/lastmile_qr_scan", "ios": "https://dc.lft.to/lastmile_qr_scan"}, "lat": 38.88705383333333, "is_reserved": 0, "is_disabled": 0, "fusion_lat": 0.0}, {"fusion_lon": 0.0, "bike_id": "343ae274d6618076b57761c7aebe55f2", "name": "343ae274d6618076b57761c7aebe55f2", "type": "electric_scooter", "lon": -77.01756833333333, "rental_uris": {"android": "https://dc.lft.to/lastmile_qr_scan", "ios": "https://dc.lft.to/lastmile_qr_scan"}, "lat": 38.91669266666667, "is_reserved": 0, "is_disabled": 0, "fusion_lat": 0.0}, {"fusion_lon": 0.0, "bike_id": "fe70e1acfeef3c1b60a9998ed558dea3", "name": "fe70e1acfeef3c1b60a9998ed558dea3", "type": "electric_scooter", "lon": -77.002125, "rental_uris": {"android": "https://dc.lft.to/lastmile_qr_scan", "ios": "https://dc.lft.to/lastmile_qr_scan"}, "lat": 38.911055166666664, "is_reserved": 0, "is_disabled": 0, "fusion_lat": 0.0}, {"fusion_lon": 0.0, "bike_id": "89e3078b184b21e13240cd811d3ba2f3", "name": "89e3078b184b21e13240cd811d3ba2f3", "type": "electric_bike", "lon": -77.043046, "rental_uris": {"android": "https://dc.lft.to/lastmile_qr_scan", "ios": "https://dc.lft.to/lastmile_qr_scan"}, "lat": 39.054457666666664, "is_reserved": 0, "is_disabled": 0, "fusion_lat": 0.0}, {"fusion_lon": 0.0, "bike_id": "967588d068899b616a4eff4af6ac0d28", "name": "967588d068899b616a4eff4af6ac0d28", "type": "electric_scooter", "lon": -77.03649066666667, "rental_uris": {"android": "https://dc.lft.to/lastmile_qr_scan", "ios": "https://dc.lft.to/lastmile_qr_scan"}, "lat": 38.902758166666665, "is_reserved": 0, "is_disabled": 0, "fusion_lat": 0.0}, {"fusion_lon": 0.0, "bike_id": "c08972972c92081da7af893294ba79eb", "name": "c08972972c92081da7af893294ba79eb", "type": "electric_scooter", "lon": -76.98657716666666, "rental_uris": {"android": "https://dc.lft.to/lastmile_qr_scan", "ios": "https://dc.lft.to/lastmile_qr_scan"}, "lat": 38.9014395, "is_reserved": 0, "is_disabled": 0, "fusion_lat": 0.0}, {"fusion_lon": 0.0, "bike_id": "5107ce3d1654cf583d107ab7c4de7f96", "name": "5107ce3d1654cf583d107ab7c4de7f96", "type": "electric_scooter", "lon": -77.03844733333334, "rental_uris": {"android": "https://dc.lft.to/lastmile_qr_scan", "ios": "https://dc.lft.to/lastmile_qr_scan"}, "lat": 38.91211233333333, "is_reserved": 0, "is_disabled": 0, "fusion_lat": 0.0}, {"fusion_lon": 0.0, "bike_id": "769c5aa843edf46e918b3ad74892b114", "name": "769c5aa843edf46e918b3ad74892b114", "type": "electric_bike", "lon": -77.1784275, "rental_uris": {"android": "https://dc.lft.to/lastmile_qr_scan", "ios": "https://dc.lft.to/lastmile_qr_scan"}, "lat": 39.089040833333335, "is_reserved": 0, "is_disabled": 0, "fusion_lat": 0.0}, {"fusion_lon": 0.0, "bike_id": "2645be02926ce18726ca8db512f3dde2", "name": "2645be02926ce18726ca8db512f3dde2", "type": "electric_scooter", "lon": -77.045104, "rental_uris": {"android": "https://dc.lft.to/lastmile_qr_scan", "ios": "https://dc.lft.to/lastmile_qr_scan"}, "lat": 38.905402333333335, "is_reserved": 0, "is_disabled": 0, "fusion_lat": 0.0}, {"fusion_lon": 0.0, "bike_id": "b151420a859501367c3949646f818796", "name": "b151420a859501367c3949646f818796", "type": "electric_scooter", "lon": -77.0378675, "rental_uris": {"android": "https://dc.lft.to/lastmile_qr_scan", "ios": "https://dc.lft.to/lastmile_qr_scan"}, "lat": 38.92338483333333, "is_reserved": 0, "is_disabled": 0, "fusion_lat": 0.0}, {"fusion_lon": 0.0, "bike_id": "635e65a62636f9857ec79fe53df6abc6", "name": "635e65a62636f9857ec79fe53df6abc6", "type": "electric_scooter", "lon": -77.03955866666666, "rental_uris": {"android": "https://dc.lft.to/lastmile_qr_scan", "ios": "https://dc.lft.to/lastmile_qr_scan"}, "lat": 38.90136566666666, "is_reserved": 0, "is_disabled": 0, "fusion_lat": 0.0}, {"fusion_lon": 0.0, "bike_id": "77771344576f821c4110d459d1dd92aa", "name": "77771344576f821c4110d459d1dd92aa", "type": "electric_scooter", "lon": -77.02102883333333, "rental_uris": {"android": "https://dc.lft.to/lastmile_qr_scan", "ios": "https://dc.lft.to/lastmile_qr_scan"}, "lat": 38.947388333333336, "is_reserved": 0, "is_disabled": 0, "fusion_lat": 0.0}, {"fusion_lon": 0.0, "bike_id": "fb8ae07bbcfa6277af3ab1798fcb2baa", "name": "fb8ae07bbcfa6277af3ab1798fcb2baa", "type": "electric_scooter", "lon": -77.05020133333333, "rental_uris": {"android": "https://dc.lft.to/lastmile_qr_scan", "ios": "https://dc.lft.to/lastmile_qr_scan"}, "lat": 38.896576333333336, "is_reserved": 0, "is_disabled": 0, "fusion_lat": 0.0}, {"fusion_lon": 0.0, "bike_id": "43f02ee842805720bc04463b9f2befdd", "name": "43f02ee842805720bc04463b9f2befdd", "type": "electric_scooter", "lon": -77.00064733333333, "rental_uris": {"android": "https://dc.lft.to/lastmile_qr_scan", "ios": "https://dc.lft.to/lastmile_qr_scan"}, "lat": 38.892919666666664, "is_reserved": 0, "is_disabled": 0, "fusion_lat": 0.0}, {"fusion_lon": 0.0, "bike_id": "deab63f4de4aaf1052ef75cff1a07108", "name": "deab63f4de4aaf1052ef75cff1a07108", "type": "electric_scooter", "lon": -77.07252566666666, "rental_uris": {"android": "https://dc.lft.to/lastmile_qr_scan", "ios": "https://dc.lft.to/lastmile_qr_scan"}, "lat": 38.907845, "is_reserved": 0, "is_disabled": 0, "fusion_lat": 0.0}, {"fusion_lon": 0.0, "bike_id": "95cd35f44e6c01b2029244cc5ff081bd", "name": "95cd35f44e6c01b2029244cc5ff081bd", "type": "electric_scooter", "lon": -77.05807066666667, "rental_uris": {"android": "https://dc.lft.to/lastmile_qr_scan", "ios": "https://dc.lft.to/lastmile_qr_scan"}, "lat": 38.902984000000004, "is_reserved": 0, "is_disabled": 0, "fusion_lat": 0.0}, {"fusion_lon": 0.0, "bike_id": "bcd70166d4c414a3e9c517deceabb2d3", "name": "bcd70166d4c414a3e9c517deceabb2d3", "type": "electric_scooter", "lon": -77.02175783333334, "rental_uris": {"android": "https://dc.lft.to/lastmile_qr_scan", "ios": "https://dc.lft.to/lastmile_qr_scan"}, "lat": 38.94309, "is_reserved": 0, "is_disabled": 0, "fusion_lat": 0.0}, {"fusion_lon": 0.0, "bike_id": "cf58bf36f0f4ddfa8467bb0014e86075", "name": "cf58bf36f0f4ddfa8467bb0014e86075", "type": "electric_scooter", "lon": -77.044958, "rental_uris": {"android": "https://dc.lft.to/lastmile_qr_scan", "ios": "https://dc.lft.to/lastmile_qr_scan"}, "lat": 38.90912316666667, "is_reserved": 0, "is_disabled": 0, "fusion_lat": 0.0}, {"fusion_lon": 0.0, "bike_id": "3a626ff39bcfc2f8be269157af198896", "name": "3a626ff39bcfc2f8be269157af198896", "type": "electric_scooter", "lon": -77.0246425, "rental_uris": {"android": "https://dc.lft.to/lastmile_qr_scan", "ios": "https://dc.lft.to/lastmile_qr_scan"}, "lat": 38.93763666666667, "is_reserved": 0, "is_disabled": 0, "fusion_lat": 0.0}, {"fusion_lon": 0.0, "bike_id": "6a999a5f4ccdccf46f41a7dc801a1af0", "name": "6a999a5f4ccdccf46f41a7dc801a1af0", "type": "electric_scooter", "lon": -76.9655105, "rental_uris": {"android": "https://dc.lft.to/lastmile_qr_scan", "ios": "https://dc.lft.to/lastmile_qr_scan"}, "lat": 38.9184255, "is_reserved": 0, "is_disabled": 0, "fusion_lat": 0.0}, {"fusion_lon": 0.0, "bike_id": "0354131b548d726c4bac023f9f36e080", "name": "0354131b548d726c4bac023f9f36e080", "type": "electric_scooter", "lon": -77.04068583333333, "rental_uris": {"android": "https://dc.lft.to/lastmile_qr_scan", "ios": "https://dc.lft.to/lastmile_qr_scan"}, "lat": 38.9048055, "is_reserved": 0, "is_disabled": 0, "fusion_lat": 0.0}, {"fusion_lon": 0.0, "bike_id": "e85ef45c464076ca62ba56a849e0a530", "name": "e85ef45c464076ca62ba56a849e0a530", "type": "electric_scooter", "lon": -76.98018483333334, "rental_uris": {"android": "https://dc.lft.to/lastmile_qr_scan", "ios": "https://dc.lft.to/lastmile_qr_scan"}, "lat": 38.864011166666664, "is_reserved": 0, "is_disabled": 0, "fusion_lat": 0.0}, {"fusion_lon": 0.0, "bike_id": "7984b1fc7419b49dd78607995e1d3097", "name": "7984b1fc7419b49dd78607995e1d3097", "type": "electric_scooter", "lon": -77.029599, "rental_uris": {"android": "https://dc.lft.to/lastmile_qr_scan", "ios": "https://dc.lft.to/lastmile_qr_scan"}, "lat": 38.921466833333334, "is_reserved": 0, "is_disabled": 0, "fusion_lat": 0.0}, {"fusion_lon": 0.0, "bike_id": "83b6cf7306ec180ff0e07d0e99b4de10", "name": "83b6cf7306ec180ff0e07d0e99b4de10", "type": "electric_scooter", "lon": -77.06490583333333, "rental_uris": {"android": "https://dc.lft.to/lastmile_qr_scan", "ios": "https://dc.lft.to/lastmile_qr_scan"}, "lat": 38.9650305, "is_reserved": 0, "is_disabled": 0, "fusion_lat": 0.0}, {"fusion_lon": 0.0, "bike_id": "2f9b89172abef1903efc373e40867beb", "name": "2f9b89172abef1903efc373e40867beb", "type": "electric_scooter", "lon": -76.97380633333333, "rental_uris": {"android": "https://dc.lft.to/lastmile_qr_scan", "ios": "https://dc.lft.to/lastmile_qr_scan"}, "lat": 38.88373283333333, "is_reserved": 0, "is_disabled": 0, "fusion_lat": 0.0}, {"fusion_lon": 0.0, "bike_id": "a12f3aee597863d730531c6c7e2f7936", "name": "a12f3aee597863d730531c6c7e2f7936", "type": "electric_scooter", "lon": -76.9472585, "rental_uris": {"android": "https://dc.lft.to/lastmile_qr_scan", "ios": "https://dc.lft.to/lastmile_qr_scan"}, "lat": 38.897419666666664, "is_reserved": 0, "is_disabled": 0, "fusion_lat": 0.0}, {"fusion_lon": 0.0, "bike_id": "d8b91caf2a5d1b5fdca70c968f98c9cc", "name": "d8b91caf2a5d1b5fdca70c968f98c9cc", "type": "electric_scooter", "lon": -76.94781683333333, "rental_uris": {"android": "https://dc.lft.to/lastmile_qr_scan", "ios": "https://dc.lft.to/lastmile_qr_scan"}, "lat": 38.8845825, "is_reserved": 0, "is_disabled": 0, "fusion_lat": 0.0}, {"fusion_lon": 0.0, "bike_id": "93b7f31d23eb50ee2a00c06bf3489415", "name": "93b7f31d23eb50ee2a00c06bf3489415", "type": "electric_scooter", "lon": -77.0031905, "rental_uris": {"android": "https://dc.lft.to/lastmile_qr_scan", "ios": "https://dc.lft.to/lastmile_qr_scan"}, "lat": 38.840366, "is_reserved": 0, "is_disabled": 0, "fusion_lat": 0.0}, {"fusion_lon": 0.0, "bike_id": "55fead665330a55002f14b3b29c54a50", "name": "55fead665330a55002f14b3b29c54a50", "type": "electric_scooter", "lon": -77.01760716666666, "rental_uris": {"android": "https://dc.lft.to/lastmile_qr_scan", "ios": "https://dc.lft.to/lastmile_qr_scan"}, "lat": 38.9211095, "is_reserved": 0, "is_disabled": 0, "fusion_lat": 0.0}, {"fusion_lon": 0.0, "bike_id": "4f64f7a3781242a9052f89b1112ff914", "name": "4f64f7a3781242a9052f89b1112ff914", "type": "electric_scooter", "lon": -77.04074966666667, "rental_uris": {"android": "https://dc.lft.to/lastmile_qr_scan", "ios": "https://dc.lft.to/lastmile_qr_scan"}, "lat": 38.8963545, "is_reserved": 0, "is_disabled": 0, "fusion_lat": 0.0}, {"fusion_lon": 0.0, "bike_id": "70b4854327ed586c787d3fccb97db5cc", "name": "70b4854327ed586c787d3fccb97db5cc", "type": "electric_scooter", "lon": -77.036536, "rental_uris": {"android": "https://dc.lft.to/lastmile_qr_scan", "ios": "https://dc.lft.to/lastmile_qr_scan"}, "lat": 38.921388666666665, "is_reserved": 0, "is_disabled": 0, "fusion_lat": 0.0}, {"fusion_lon": 0.0, "bike_id": "6255dbf59bc6047d49b44d4be2695a7b", "name": "6255dbf59bc6047d49b44d4be2695a7b", "type": "electric_scooter", "lon": -77.032134, "rental_uris": {"android": "https://dc.lft.to/lastmile_qr_scan", "ios": "https://dc.lft.to/lastmile_qr_scan"}, "lat": 38.925803333333334, "is_reserved": 0, "is_disabled": 0, "fusion_lat": 0.0}, {"fusion_lon": 0.0, "bike_id": "ef90087c32def3a4fc98b3e5cc319167", "name": "ef90087c32def3a4fc98b3e5cc319167", "type": "electric_scooter", "lon": -77.04772233333334, "rental_uris": {"android": "https://dc.lft.to/lastmile_qr_scan", "ios": "https://dc.lft.to/lastmile_qr_scan"}, "lat": 38.90205733333333, "is_reserved": 0, "is_disabled": 0, "fusion_lat": 0.0}, {"fusion_lon": 0.0, "bike_id": "d18a383f580fb5f9e645c25f3a1f1b25", "name": "d18a383f580fb5f9e645c25f3a1f1b25", "type": "electric_scooter", "lon": -77.01888066666666, "rental_uris": {"android": "https://dc.lft.to/lastmile_qr_scan", "ios": "https://dc.lft.to/lastmile_qr_scan"}, "lat": 38.946427666666665, "is_reserved": 0, "is_disabled": 0, "fusion_lat": 0.0}, {"fusion_lon": 0.0, "bike_id": "129e1dc2b923d1dada2baf3e6ecc2cc1", "name": "129e1dc2b923d1dada2baf3e6ecc2cc1", "type": "electric_scooter", "lon": -77.04519183333333, "rental_uris": {"android": "https://dc.lft.to/lastmile_qr_scan", "ios": "https://dc.lft.to/lastmile_qr_scan"}, "lat": 38.921422666666665, "is_reserved": 0, "is_disabled": 0, "fusion_lat": 0.0}, {"fusion_lon": 0.0, "bike_id": "1dc9c062d359931fca631bac80c70353", "name": "1dc9c062d359931fca631bac80c70353", "type": "electric_scooter", "lon": -77.05519833333334, "rental_uris": {"android": "https://dc.lft.to/lastmile_qr_scan", "ios": "https://dc.lft.to/lastmile_qr_scan"}, "lat": 38.910587666666665, "is_reserved": 0, "is_disabled": 0, "fusion_lat": 0.0}, {"fusion_lon": 0.0, "bike_id": "d098d3df1f16f4827f32726d86ab5fe6", "name": "d098d3df1f16f4827f32726d86ab5fe6", "type": "electric_bike", "lon": -76.99763, "rental_uris": {"android": "https://dc.lft.to/lastmile_qr_scan", "ios": "https://dc.lft.to/lastmile_qr_scan"}, "lat": 39.00598883333333, "is_reserved": 0, "is_disabled": 0, "fusion_lat": 0.0}, {"fusion_lon": 0.0, "bike_id": "afabcbd3d7c369637b8fb7cf79e1b8eb", "name": "afabcbd3d7c369637b8fb7cf79e1b8eb", "type": "electric_scooter", "lon": -76.99730016666666, "rental_uris": {"android": "https://dc.lft.to/lastmile_qr_scan", "ios": "https://dc.lft.to/lastmile_qr_scan"}, "lat": 38.90792883333334, "is_reserved": 0, "is_disabled": 0, "fusion_lat": 0.0}, {"fusion_lon": 0.0, "bike_id": "b8b6f3cfa2a60ad6bbcd2ad2ad85bc40", "name": "b8b6f3cfa2a60ad6bbcd2ad2ad85bc40", "type": "electric_scooter", "lon": -76.9825435, "rental_uris": {"android": "https://dc.lft.to/lastmile_qr_scan", "ios": "https://dc.lft.to/lastmile_qr_scan"}, "lat": 38.86358083333333, "is_reserved": 0, "is_disabled": 0, "fusion_lat": 0.0}, {"fusion_lon": 0.0, "bike_id": "384f21ab4ac5f773504fce9638819427", "name": "384f21ab4ac5f773504fce9638819427", "type": "electric_scooter", "lon": -76.98272483333334, "rental_uris": {"android": "https://dc.lft.to/lastmile_qr_scan", "ios": "https://dc.lft.to/lastmile_qr_scan"}, "lat": 38.88533666666667, "is_reserved": 0, "is_disabled": 0, "fusion_lat": 0.0}, {"fusion_lon": 0.0, "bike_id": "2bedcd4d99972e55ad3ec110a7352932", "name": "2bedcd4d99972e55ad3ec110a7352932", "type": "electric_scooter", "lon": -76.99503316666667, "rental_uris": {"android": "https://dc.lft.to/lastmile_qr_scan", "ios": "https://dc.lft.to/lastmile_qr_scan"}, "lat": 38.894904333333336, "is_reserved": 0, "is_disabled": 0, "fusion_lat": 0.0}, {"fusion_lon": 0.0, "bike_id": "ee045692d4c937a42f4c8e545be4b125", "name": "ee045692d4c937a42f4c8e545be4b125", "type": "electric_scooter", "lon": -77.02166, "rental_uris": {"android": "https://dc.lft.to/lastmile_qr_scan", "ios": "https://dc.lft.to/lastmile_qr_scan"}, "lat": 38.9197565, "is_reserved": 0, "is_disabled": 0, "fusion_lat": 0.0}, {"fusion_lon": 0.0, "bike_id": "a07e44fe1ee0df6b4bcdddba75f6257b", "name": "a07e44fe1ee0df6b4bcdddba75f6257b", "type": "electric_scooter", "lon": -77.0665605, "rental_uris": {"android": "https://dc.lft.to/lastmile_qr_scan", "ios": "https://dc.lft.to/lastmile_qr_scan"}, "lat": 38.9496665, "is_reserved": 0, "is_disabled": 0, "fusion_lat": 0.0}, {"fusion_lon": 0.0, "bike_id": "4b8480a50e1f2845d746a427ab166560", "name": "4b8480a50e1f2845d746a427ab166560", "type": "electric_scooter", "lon": -76.99774983333333, "rental_uris": {"android": "https://dc.lft.to/lastmile_qr_scan", "ios": "https://dc.lft.to/lastmile_qr_scan"}, "lat": 38.922968833333336, "is_reserved": 0, "is_disabled": 0, "fusion_lat": 0.0}, {"fusion_lon": 0.0, "bike_id": "0837ef81ac5a1d8b588001beab1b8cfa", "name": "0837ef81ac5a1d8b588001beab1b8cfa", "type": "electric_bike", "lon": -77.11426966666667, "rental_uris": {"android": "https://dc.lft.to/lastmile_qr_scan", "ios": "https://dc.lft.to/lastmile_qr_scan"}, "lat": 38.8524405, "is_reserved": 0, "is_disabled": 0, "fusion_lat": 0.0}, {"fusion_lon": 0.0, "bike_id": "638f5da406234e2023b5e0bbefe1906d", "name": "638f5da406234e2023b5e0bbefe1906d", "type": "electric_scooter", "lon": -77.01341516666666, "rental_uris": {"android": "https://dc.lft.to/lastmile_qr_scan", "ios": "https://dc.lft.to/lastmile_qr_scan"}, "lat": 38.907252, "is_reserved": 0, "is_disabled": 0, "fusion_lat": 0.0}, {"fusion_lon": 0.0, "bike_id": "22557401d00fa5de770e365fbaf08652", "name": "22557401d00fa5de770e365fbaf08652", "type": "electric_scooter", "lon": -77.07083833333333, "rental_uris": {"android": "https://dc.lft.to/lastmile_qr_scan", "ios": "https://dc.lft.to/lastmile_qr_scan"}, "lat": 38.939037666666664, "is_reserved": 0, "is_disabled": 0, "fusion_lat": 0.0}, {"fusion_lon": 0.0, "bike_id": "4a69c83e026a82b16e27efc5d6fd9660", "name": "4a69c83e026a82b16e27efc5d6fd9660", "type": "electric_scooter", "lon": -76.99602333333333, "rental_uris": {"android": "https://dc.lft.to/lastmile_qr_scan", "ios": "https://dc.lft.to/lastmile_qr_scan"}, "lat": 38.8646205, "is_reserved": 0, "is_disabled": 0, "fusion_lat": 0.0}, {"fusion_lon": 0.0, "bike_id": "3ff6253a549ab46a55d7c98684be23ea", "name": "3ff6253a549ab46a55d7c98684be23ea", "type": "electric_scooter", "lon": -77.01392783333333, "rental_uris": {"android": "https://dc.lft.to/lastmile_qr_scan", "ios": "https://dc.lft.to/lastmile_qr_scan"}, "lat": 38.8802855, "is_reserved": 0, "is_disabled": 0, "fusion_lat": 0.0}, {"fusion_lon": 0.0, "bike_id": "8e108381645e82dab9c33a560d6585f3", "name": "8e108381645e82dab9c33a560d6585f3", "type": "electric_scooter", "lon": -77.01626983333334, "rental_uris": {"android": "https://dc.lft.to/lastmile_qr_scan", "ios": "https://dc.lft.to/lastmile_qr_scan"}, "lat": 38.906046833333335, "is_reserved": 0, "is_disabled": 0, "fusion_lat": 0.0}, {"fusion_lon": 0.0, "bike_id": "46019e578747bef789e3b457792f3c4e", "name": "46019e578747bef789e3b457792f3c4e", "type": "electric_scooter", "lon": -77.01763366666667, "rental_uris": {"android": "https://dc.lft.to/lastmile_qr_scan", "ios": "https://dc.lft.to/lastmile_qr_scan"}, "lat": 38.883813333333336, "is_reserved": 0, "is_disabled": 0, "fusion_lat": 0.0}, {"fusion_lon": 0.0, "bike_id": "c4e1061b5782420a3e81163d6116d419", "name": "c4e1061b5782420a3e81163d6116d419", "type": "electric_scooter", "lon": -77.01683616666666, "rental_uris": {"android": "https://dc.lft.to/lastmile_qr_scan", "ios": "https://dc.lft.to/lastmile_qr_scan"}, "lat": 38.88332966666667, "is_reserved": 0, "is_disabled": 0, "fusion_lat": 0.0}, {"fusion_lon": 0.0, "bike_id": "115640aa70733917d790a9957543f048", "name": "115640aa70733917d790a9957543f048", "type": "electric_scooter", "lon": -77.00206133333333, "rental_uris": {"android": "https://dc.lft.to/lastmile_qr_scan", "ios": "https://dc.lft.to/lastmile_qr_scan"}, "lat": 38.900431166666664, "is_reserved": 0, "is_disabled": 0, "fusion_lat": 0.0}, {"fusion_lon": 0.0, "bike_id": "a95905aed7233ae237e22b0f4f223653", "name": "a95905aed7233ae237e22b0f4f223653", "type": "electric_scooter", "lon": -77.05033966666667, "rental_uris": {"android": "https://dc.lft.to/lastmile_qr_scan", "ios": "https://dc.lft.to/lastmile_qr_scan"}, "lat": 38.898306833333336, "is_reserved": 0, "is_disabled": 0, "fusion_lat": 0.0}, {"fusion_lon": 0.0, "bike_id": "6e136261fc54bea912b6ffdb28055010", "name": "6e136261fc54bea912b6ffdb28055010", "type": "electric_bike", "lon": -77.06943666666666, "rental_uris": {"android": "https://dc.lft.to/lastmile_qr_scan", "ios": "https://dc.lft.to/lastmile_qr_scan"}, "lat": 38.99052483333333, "is_reserved": 0, "is_disabled": 0, "fusion_lat": 0.0}, {"fusion_lon": 0.0, "bike_id": "375a8cefceb302d59c046f6ea05c2bea", "name": "375a8cefceb302d59c046f6ea05c2bea", "type": "electric_scooter", "lon": -77.04507783333334, "rental_uris": {"android": "https://dc.lft.to/lastmile_qr_scan", "ios": "https://dc.lft.to/lastmile_qr_scan"}, "lat": 38.90365966666667, "is_reserved": 0, "is_disabled": 0, "fusion_lat": 0.0}, {"fusion_lon": 0.0, "bike_id": "5a143c94308adf2cb708a9e04ef78820", "name": "5a143c94308adf2cb708a9e04ef78820", "type": "electric_scooter", "lon": -77.023821, "rental_uris": {"android": "https://dc.lft.to/lastmile_qr_scan", "ios": "https://dc.lft.to/lastmile_qr_scan"}, "lat": 38.905854, "is_reserved": 0, "is_disabled": 0, "fusion_lat": 0.0}, {"fusion_lon": 0.0, "bike_id": "cf13c82c8b2676b135f539d06386504d", "name": "cf13c82c8b2676b135f539d06386504d", "type": "electric_scooter", "lon": -76.995085, "rental_uris": {"android": "https://dc.lft.to/lastmile_qr_scan", "ios": "https://dc.lft.to/lastmile_qr_scan"}, "lat": 38.885843666666666, "is_reserved": 0, "is_disabled": 0, "fusion_lat": 0.0}, {"fusion_lon": 0.0, "bike_id": "ced907a922561c2b058ee6f67d259bcb", "name": "ced907a922561c2b058ee6f67d259bcb", "type": "electric_scooter", "lon": -77.00819416666667, "rental_uris": {"android": "https://dc.lft.to/lastmile_qr_scan", "ios": "https://dc.lft.to/lastmile_qr_scan"}, "lat": 38.8763545, "is_reserved": 0, "is_disabled": 0, "fusion_lat": 0.0}, {"fusion_lon": 0.0, "bike_id": "c8c5b5e1708ef214f316d20488c5890c", "name": "c8c5b5e1708ef214f316d20488c5890c", "type": "electric_scooter", "lon": -77.04835166666666, "rental_uris": {"android": "https://dc.lft.to/lastmile_qr_scan", "ios": "https://dc.lft.to/lastmile_qr_scan"}, "lat": 38.91338833333333, "is_reserved": 0, "is_disabled": 0, "fusion_lat": 0.0}, {"fusion_lon": 0.0, "bike_id": "1ecf6f6fc2efc368d6ef25b384d3ed8a", "name": "1ecf6f6fc2efc368d6ef25b384d3ed8a", "type": "electric_scooter", "lon": -77.03207583333334, "rental_uris": {"android": "https://dc.lft.to/lastmile_qr_scan", "ios": "https://dc.lft.to/lastmile_qr_scan"}, "lat": 38.907697, "is_reserved": 0, "is_disabled": 0, "fusion_lat": 0.0}, {"fusion_lon": 0.0, "bike_id": "f56abc9403a798f64fc437b8887f8cdc", "name": "f56abc9403a798f64fc437b8887f8cdc", "type": "electric_scooter", "lon": -77.01126933333333, "rental_uris": {"android": "https://dc.lft.to/lastmile_qr_scan", "ios": "https://dc.lft.to/lastmile_qr_scan"}, "lat": 38.903559, "is_reserved": 0, "is_disabled": 0, "fusion_lat": 0.0}, {"fusion_lon": 0.0, "bike_id": "0f67da123ec27d6a83d6be82bc9e3c17", "name": "0f67da123ec27d6a83d6be82bc9e3c17", "type": "electric_scooter", "lon": -77.00334316666667, "rental_uris": {"android": "https://dc.lft.to/lastmile_qr_scan", "ios": "https://dc.lft.to/lastmile_qr_scan"}, "lat": 38.89353916666666, "is_reserved": 0, "is_disabled": 0, "fusion_lat": 0.0}, {"fusion_lon": 0.0, "bike_id": "5af9b499b9868f617f975e7b2d458fdd", "name": "5af9b499b9868f617f975e7b2d458fdd", "type": "electric_scooter", "lon": -77.0343745, "rental_uris": {"android": "https://dc.lft.to/lastmile_qr_scan", "ios": "https://dc.lft.to/lastmile_qr_scan"}, "lat": 38.9030805, "is_reserved": 0, "is_disabled": 0, "fusion_lat": 0.0}, {"fusion_lon": 0.0, "bike_id": "8096869c9f489bb14082f931a29c7ad9", "name": "8096869c9f489bb14082f931a29c7ad9", "type": "electric_bike", "lon": -77.02622116666667, "rental_uris": {"android": "https://dc.lft.to/lastmile_qr_scan", "ios": "https://dc.lft.to/lastmile_qr_scan"}, "lat": 38.962257666666666, "is_reserved": 0, "is_disabled": 0, "fusion_lat": 0.0}, {"fusion_lon": 0.0, "bike_id": "cdd4e89a6b477e41680f636d283bd492", "name": "cdd4e89a6b477e41680f636d283bd492", "type": "electric_scooter", "lon": -76.948427, "rental_uris": {"android": "https://dc.lft.to/lastmile_qr_scan", "ios": "https://dc.lft.to/lastmile_qr_scan"}, "lat": 38.89481966666666, "is_reserved": 0, "is_disabled": 0, "fusion_lat": 0.0}, {"fusion_lon": 0.0, "bike_id": "10cb432674355ad9737bc65971c87993", "name": "10cb432674355ad9737bc65971c87993", "type": "electric_bike", "lon": -77.0852725, "rental_uris": {"android": "https://dc.lft.to/lastmile_qr_scan", "ios": "https://dc.lft.to/lastmile_qr_scan"}, "lat": 38.85649733333333, "is_reserved": 0, "is_disabled": 0, "fusion_lat": 0.0}, {"fusion_lon": 0.0, "bike_id": "de6ca08c99b21f843905f681c832b62f", "name": "de6ca08c99b21f843905f681c832b62f", "type": "electric_scooter", "lon": -77.00589433333333, "rental_uris": {"android": "https://dc.lft.to/lastmile_qr_scan", "ios": "https://dc.lft.to/lastmile_qr_scan"}, "lat": 38.8764155, "is_reserved": 0, "is_disabled": 0, "fusion_lat": 0.0}, {"fusion_lon": 0.0, "bike_id": "546e8ccfaf60cf7a386a6c2df400819d", "name": "546e8ccfaf60cf7a386a6c2df400819d", "type": "electric_scooter", "lon": -77.02761983333333, "rental_uris": {"android": "https://dc.lft.to/lastmile_qr_scan", "ios": "https://dc.lft.to/lastmile_qr_scan"}, "lat": 38.925824666666664, "is_reserved": 0, "is_disabled": 0, "fusion_lat": 0.0}, {"fusion_lon": 0.0, "bike_id": "e6a48b33803857507d331066fae663f1", "name": "e6a48b33803857507d331066fae663f1", "type": "electric_scooter", "lon": -76.995188, "rental_uris": {"android": "https://dc.lft.to/lastmile_qr_scan", "ios": "https://dc.lft.to/lastmile_qr_scan"}, "lat": 38.86256216666666, "is_reserved": 0, "is_disabled": 0, "fusion_lat": 0.0}, {"fusion_lon": 0.0, "bike_id": "a4c5d4d43844f6db8c30369c747030ff", "name": "a4c5d4d43844f6db8c30369c747030ff", "type": "electric_bike", "lon": -77.00676633333333, "rental_uris": {"android": "https://dc.lft.to/lastmile_qr_scan", "ios": "https://dc.lft.to/lastmile_qr_scan"}, "lat": 38.945135666666665, "is_reserved": 0, "is_disabled": 0, "fusion_lat": 0.0}, {"fusion_lon": 0.0, "bike_id": "6907b8a2ce24d9bc4c916aac30555381", "name": "6907b8a2ce24d9bc4c916aac30555381", "type": "electric_scooter", "lon": -77.04789416666667, "rental_uris": {"android": "https://dc.lft.to/lastmile_qr_scan", "ios": "https://dc.lft.to/lastmile_qr_scan"}, "lat": 38.913374833333336, "is_reserved": 0, "is_disabled": 0, "fusion_lat": 0.0}, {"fusion_lon": 0.0, "bike_id": "86169f0763f64b85a6a3d40e9060546e", "name": "86169f0763f64b85a6a3d40e9060546e", "type": "electric_scooter", "lon": -77.02224833333334, "rental_uris": {"android": "https://dc.lft.to/lastmile_qr_scan", "ios": "https://dc.lft.to/lastmile_qr_scan"}, "lat": 38.9126905, "is_reserved": 0, "is_disabled": 0, "fusion_lat": 0.0}, {"fusion_lon": 0.0, "bike_id": "6df361041b4dc495959e4896a6e825cd", "name": "6df361041b4dc495959e4896a6e825cd", "type": "electric_scooter", "lon": -77.02963583333333, "rental_uris": {"android": "https://dc.lft.to/lastmile_qr_scan", "ios": "https://dc.lft.to/lastmile_qr_scan"}, "lat": 38.896196, "is_reserved": 0, "is_disabled": 0, "fusion_lat": 0.0}, {"fusion_lon": 0.0, "bike_id": "c93efe9e8f854ebb43a03df1b232b3a7", "name": "c93efe9e8f854ebb43a03df1b232b3a7", "type": "electric_scooter", "lon": -77.02582816666667, "rental_uris": {"android": "https://dc.lft.to/lastmile_qr_scan", "ios": "https://dc.lft.to/lastmile_qr_scan"}, "lat": 38.92031466666667, "is_reserved": 0, "is_disabled": 0, "fusion_lat": 0.0}, {"fusion_lon": 0.0, "bike_id": "7c71b7bf0e6a9abb32630f272ca0527b", "name": "7c71b7bf0e6a9abb32630f272ca0527b", "type": "electric_scooter", "lon": -77.00336166666666, "rental_uris": {"android": "https://dc.lft.to/lastmile_qr_scan", "ios": "https://dc.lft.to/lastmile_qr_scan"}, "lat": 38.893648, "is_reserved": 0, "is_disabled": 0, "fusion_lat": 0.0}, {"fusion_lon": 0.0, "bike_id": "21ce9ea6861491731ef9e0dbe0e8fb8f", "name": "21ce9ea6861491731ef9e0dbe0e8fb8f", "type": "electric_scooter", "lon": -77.00752633333333, "rental_uris": {"android": "https://dc.lft.to/lastmile_qr_scan", "ios": "https://dc.lft.to/lastmile_qr_scan"}, "lat": 38.9071945, "is_reserved": 0, "is_disabled": 0, "fusion_lat": 0.0}, {"fusion_lon": 0.0, "bike_id": "94d14b7f0821bb8c06cecf9d14c6cb9f", "name": "94d14b7f0821bb8c06cecf9d14c6cb9f", "type": "electric_scooter", "lon": -77.07256883333334, "rental_uris": {"android": "https://dc.lft.to/lastmile_qr_scan", "ios": "https://dc.lft.to/lastmile_qr_scan"}, "lat": 38.907835166666665, "is_reserved": 0, "is_disabled": 0, "fusion_lat": 0.0}, {"fusion_lon": 0.0, "bike_id": "91442792a904e93f389bb40364ca90bf", "name": "91442792a904e93f389bb40364ca90bf", "type": "electric_scooter", "lon": -77.02795983333333, "rental_uris": {"android": "https://dc.lft.to/lastmile_qr_scan", "ios": "https://dc.lft.to/lastmile_qr_scan"}, "lat": 38.930805166666666, "is_reserved": 0, "is_disabled": 0, "fusion_lat": 0.0}, {"fusion_lon": 0.0, "bike_id": "83970b2260b45b711b995d025979b1d9", "name": "83970b2260b45b711b995d025979b1d9", "type": "electric_scooter", "lon": -77.04518216666666, "rental_uris": {"android": "https://dc.lft.to/lastmile_qr_scan", "ios": "https://dc.lft.to/lastmile_qr_scan"}, "lat": 38.903605, "is_reserved": 0, "is_disabled": 0, "fusion_lat": 0.0}, {"fusion_lon": 0.0, "bike_id": "1ac80eab447f1885afbbe948c5453829", "name": "1ac80eab447f1885afbbe948c5453829", "type": "electric_scooter", "lon": -76.97550483333333, "rental_uris": {"android": "https://dc.lft.to/lastmile_qr_scan", "ios": "https://dc.lft.to/lastmile_qr_scan"}, "lat": 38.9026395, "is_reserved": 0, "is_disabled": 0, "fusion_lat": 0.0}, {"fusion_lon": 0.0, "bike_id": "acf0465498f9ce0b09bf19770d152006", "name": "acf0465498f9ce0b09bf19770d152006", "type": "electric_scooter", "lon": -77.02711283333333, "rental_uris": {"android": "https://dc.lft.to/lastmile_qr_scan", "ios": "https://dc.lft.to/lastmile_qr_scan"}, "lat": 38.90981583333333, "is_reserved": 0, "is_disabled": 0, "fusion_lat": 0.0}, {"fusion_lon": 0.0, "bike_id": "9e4e35b18c74708e8ceada696571ab4e", "name": "9e4e35b18c74708e8ceada696571ab4e", "type": "electric_scooter", "lon": -76.98331016666667, "rental_uris": {"android": "https://dc.lft.to/lastmile_qr_scan", "ios": "https://dc.lft.to/lastmile_qr_scan"}, "lat": 38.88990833333333, "is_reserved": 0, "is_disabled": 0, "fusion_lat": 0.0}, {"fusion_lon": 0.0, "bike_id": "4720b239df8a97bb9638b660dbe6f8af", "name": "4720b239df8a97bb9638b660dbe6f8af", "type": "electric_scooter", "lon": -76.990897, "rental_uris": {"android": "https://dc.lft.to/lastmile_qr_scan", "ios": "https://dc.lft.to/lastmile_qr_scan"}, "lat": 38.8634875, "is_reserved": 0, "is_disabled": 0, "fusion_lat": 0.0}, {"fusion_lon": 0.0, "bike_id": "9ed516c2e719f33fe7494c776ffb6cf2", "name": "9ed516c2e719f33fe7494c776ffb6cf2", "type": "electric_scooter", "lon": -77.03334066666666, "rental_uris": {"android": "https://dc.lft.to/lastmile_qr_scan", "ios": "https://dc.lft.to/lastmile_qr_scan"}, "lat": 38.9023665, "is_reserved": 0, "is_disabled": 0, "fusion_lat": 0.0}, {"fusion_lon": 0.0, "bike_id": "12c89d6a3e4bfb10771e9487b87dd754", "name": "12c89d6a3e4bfb10771e9487b87dd754", "type": "electric_scooter", "lon": -77.02576116666667, "rental_uris": {"android": "https://dc.lft.to/lastmile_qr_scan", "ios": "https://dc.lft.to/lastmile_qr_scan"}, "lat": 38.925070833333336, "is_reserved": 0, "is_disabled": 0, "fusion_lat": 0.0}, {"fusion_lon": 0.0, "bike_id": "18a50809273d57e9ba149e082dae2f75", "name": "18a50809273d57e9ba149e082dae2f75", "type": "electric_bike", "lon": -76.982185, "rental_uris": {"android": "https://dc.lft.to/lastmile_qr_scan", "ios": "https://dc.lft.to/lastmile_qr_scan"}, "lat": 38.98506833333333, "is_reserved": 0, "is_disabled": 0, "fusion_lat": 0.0}, {"fusion_lon": 0.0, "bike_id": "8807ae29220fc8a63d93c20e3f7c4e93", "name": "8807ae29220fc8a63d93c20e3f7c4e93", "type": "electric_scooter", "lon": -77.00162133333333, "rental_uris": {"android": "https://dc.lft.to/lastmile_qr_scan", "ios": "https://dc.lft.to/lastmile_qr_scan"}, "lat": 38.952670833333336, "is_reserved": 0, "is_disabled": 0, "fusion_lat": 0.0}, {"fusion_lon": 0.0, "bike_id": "fdc6eca9471b9fd06adb2db91b0ca603", "name": "fdc6eca9471b9fd06adb2db91b0ca603", "type": "electric_scooter", "lon": -77.05425283333334, "rental_uris": {"android": "https://dc.lft.to/lastmile_qr_scan", "ios": "https://dc.lft.to/lastmile_qr_scan"}, "lat": 38.92808733333333, "is_reserved": 0, "is_disabled": 0, "fusion_lat": 0.0}, {"fusion_lon": 0.0, "bike_id": "6e9dce712566945f2e341dfd16f5b570", "name": "6e9dce712566945f2e341dfd16f5b570", "type": "electric_scooter", "lon": -77.0315335, "rental_uris": {"android": "https://dc.lft.to/lastmile_qr_scan", "ios": "https://dc.lft.to/lastmile_qr_scan"}, "lat": 38.927217, "is_reserved": 0, "is_disabled": 0, "fusion_lat": 0.0}, {"fusion_lon": 0.0, "bike_id": "c403fb8539e4c4ef064e86e5f5f889d3", "name": "c403fb8539e4c4ef064e86e5f5f889d3", "type": "electric_scooter", "lon": -77.02403516666666, "rental_uris": {"android": "https://dc.lft.to/lastmile_qr_scan", "ios": "https://dc.lft.to/lastmile_qr_scan"}, "lat": 38.901255, "is_reserved": 0, "is_disabled": 0, "fusion_lat": 0.0}, {"fusion_lon": 0.0, "bike_id": "56fb88cac179f73e4b7751b041a599ff", "name": "56fb88cac179f73e4b7751b041a599ff", "type": "electric_scooter", "lon": -77.00746216666667, "rental_uris": {"android": "https://dc.lft.to/lastmile_qr_scan", "ios": "https://dc.lft.to/lastmile_qr_scan"}, "lat": 38.8985305, "is_reserved": 0, "is_disabled": 0, "fusion_lat": 0.0}, {"fusion_lon": 0.0, "bike_id": "181e60fa9d38ba22454697b50d98167d", "name": "181e60fa9d38ba22454697b50d98167d", "type": "electric_scooter", "lon": -77.03858316666667, "rental_uris": {"android": "https://dc.lft.to/lastmile_qr_scan", "ios": "https://dc.lft.to/lastmile_qr_scan"}, "lat": 38.9180755, "is_reserved": 0, "is_disabled": 0, "fusion_lat": 0.0}, {"fusion_lon": 0.0, "bike_id": "e8e74758b8fcaef73a6bf5c0f989944f", "name": "e8e74758b8fcaef73a6bf5c0f989944f", "type": "electric_scooter", "lon": -77.0074555, "rental_uris": {"android": "https://dc.lft.to/lastmile_qr_scan", "ios": "https://dc.lft.to/lastmile_qr_scan"}, "lat": 38.876507333333336, "is_reserved": 0, "is_disabled": 0, "fusion_lat": 0.0}, {"fusion_lon": 0.0, "bike_id": "2048ec6870ea1b3b767c8615563bbf30", "name": "2048ec6870ea1b3b767c8615563bbf30", "type": "electric_scooter", "lon": -77.03261266666667, "rental_uris": {"android": "https://dc.lft.to/lastmile_qr_scan", "ios": "https://dc.lft.to/lastmile_qr_scan"}, "lat": 38.9321285, "is_reserved": 0, "is_disabled": 0, "fusion_lat": 0.0}, {"fusion_lon": 0.0, "bike_id": "8050d84718ba655ed044f6c5638a3198", "name": "8050d84718ba655ed044f6c5638a3198", "type": "electric_scooter", "lon": -77.03858033333333, "rental_uris": {"android": "https://dc.lft.to/lastmile_qr_scan", "ios": "https://dc.lft.to/lastmile_qr_scan"}, "lat": 38.9026145, "is_reserved": 0, "is_disabled": 0, "fusion_lat": 0.0}, {"fusion_lon": 0.0, "bike_id": "964a8fb863514cd7282c9f11fcd3a66c", "name": "964a8fb863514cd7282c9f11fcd3a66c", "type": "electric_scooter", "lon": -77.01047983333333, "rental_uris": {"android": "https://dc.lft.to/lastmile_qr_scan", "ios": "https://dc.lft.to/lastmile_qr_scan"}, "lat": 38.90678116666667, "is_reserved": 0, "is_disabled": 0, "fusion_lat": 0.0}, {"fusion_lon": 0.0, "bike_id": "95124e5f9c54d737496dc25621b8dd87", "name": "95124e5f9c54d737496dc25621b8dd87", "type": "electric_scooter", "lon": -77.0417895, "rental_uris": {"android": "https://dc.lft.to/lastmile_qr_scan", "ios": "https://dc.lft.to/lastmile_qr_scan"}, "lat": 38.9141735, "is_reserved": 0, "is_disabled": 0, "fusion_lat": 0.0}, {"fusion_lon": 0.0, "bike_id": "3192d67a43bdbaed0daa7ee4d87b5f96", "name": "3192d67a43bdbaed0daa7ee4d87b5f96", "type": "electric_scooter", "lon": -76.97667383333334, "rental_uris": {"android": "https://dc.lft.to/lastmile_qr_scan", "ios": "https://dc.lft.to/lastmile_qr_scan"}, "lat": 38.840531666666664, "is_reserved": 0, "is_disabled": 0, "fusion_lat": 0.0}, {"fusion_lon": 0.0, "bike_id": "5447efb14d33ba018213ac3419b3d94a", "name": "5447efb14d33ba018213ac3419b3d94a", "type": "electric_scooter", "lon": -77.04862216666666, "rental_uris": {"android": "https://dc.lft.to/lastmile_qr_scan", "ios": "https://dc.lft.to/lastmile_qr_scan"}, "lat": 38.892203333333335, "is_reserved": 0, "is_disabled": 0, "fusion_lat": 0.0}, {"fusion_lon": 0.0, "bike_id": "8dd28b779c0d85974f7515feec0fd62a", "name": "8dd28b779c0d85974f7515feec0fd62a", "type": "electric_scooter", "lon": -76.98331033333334, "rental_uris": {"android": "https://dc.lft.to/lastmile_qr_scan", "ios": "https://dc.lft.to/lastmile_qr_scan"}, "lat": 38.907431, "is_reserved": 0, "is_disabled": 0, "fusion_lat": 0.0}, {"fusion_lon": 0.0, "bike_id": "67e7678a71194d7d2b7110c9a03b50b3", "name": "67e7678a71194d7d2b7110c9a03b50b3", "type": "electric_scooter", "lon": -77.0139165, "rental_uris": {"android": "https://dc.lft.to/lastmile_qr_scan", "ios": "https://dc.lft.to/lastmile_qr_scan"}, "lat": 38.928711666666665, "is_reserved": 0, "is_disabled": 0, "fusion_lat": 0.0}, {"fusion_lon": 0.0, "bike_id": "aee08b43e6be12aa628fccbd1c80b7f8", "name": "aee08b43e6be12aa628fccbd1c80b7f8", "type": "electric_scooter", "lon": -77.02939883333333, "rental_uris": {"android": "https://dc.lft.to/lastmile_qr_scan", "ios": "https://dc.lft.to/lastmile_qr_scan"}, "lat": 38.90241916666667, "is_reserved": 0, "is_disabled": 0, "fusion_lat": 0.0}, {"fusion_lon": 0.0, "bike_id": "5bb634caa535b0f268845aa11de1ff7a", "name": "5bb634caa535b0f268845aa11de1ff7a", "type": "electric_scooter", "lon": -77.00924683333334, "rental_uris": {"android": "https://dc.lft.to/lastmile_qr_scan", "ios": "https://dc.lft.to/lastmile_qr_scan"}, "lat": 38.912863, "is_reserved": 0, "is_disabled": 0, "fusion_lat": 0.0}, {"fusion_lon": 0.0, "bike_id": "7a5ec69634effa2890306d42806b24cb", "name": "7a5ec69634effa2890306d42806b24cb", "type": "electric_scooter", "lon": -77.01961533333333, "rental_uris": {"android": "https://dc.lft.to/lastmile_qr_scan", "ios": "https://dc.lft.to/lastmile_qr_scan"}, "lat": 38.902467333333334, "is_reserved": 0, "is_disabled": 0, "fusion_lat": 0.0}, {"fusion_lon": 0.0, "bike_id": "14643207079f8c1576a98968e87e28fb", "name": "14643207079f8c1576a98968e87e28fb", "type": "electric_scooter", "lon": -77.03840816666667, "rental_uris": {"android": "https://dc.lft.to/lastmile_qr_scan", "ios": "https://dc.lft.to/lastmile_qr_scan"}, "lat": 38.9172755, "is_reserved": 0, "is_disabled": 0, "fusion_lat": 0.0}, {"fusion_lon": 0.0, "bike_id": "09c49b6ca7f283f819ff314c4422a40a", "name": "09c49b6ca7f283f819ff314c4422a40a", "type": "electric_scooter", "lon": -77.03573283333333, "rental_uris": {"android": "https://dc.lft.to/lastmile_qr_scan", "ios": "https://dc.lft.to/lastmile_qr_scan"}, "lat": 38.8818335, "is_reserved": 0, "is_disabled": 0, "fusion_lat": 0.0}, {"fusion_lon": 0.0, "bike_id": "98d3296b01656df26dab90f7e9c055cf", "name": "98d3296b01656df26dab90f7e9c055cf", "type": "electric_scooter", "lon": -77.04692766666666, "rental_uris": {"android": "https://dc.lft.to/lastmile_qr_scan", "ios": "https://dc.lft.to/lastmile_qr_scan"}, "lat": 38.905843833333336, "is_reserved": 0, "is_disabled": 0, "fusion_lat": 0.0}, {"fusion_lon": 0.0, "bike_id": "5c40b32d31ee418ff232c6fa820c16de", "name": "5c40b32d31ee418ff232c6fa820c16de", "type": "electric_scooter", "lon": -77.00593833333333, "rental_uris": {"android": "https://dc.lft.to/lastmile_qr_scan", "ios": "https://dc.lft.to/lastmile_qr_scan"}, "lat": 38.87627583333333, "is_reserved": 0, "is_disabled": 0, "fusion_lat": 0.0},