{"data": {"bikes": [{"name": "a20fee1fd09a23186bf8c70e7799a43e", "type": "electric_scooter", "lat": 38.930722, "is_reserved": 0, "lon": -77.03198416666666, "fusion_lon": 0.0, "is_disabled": 0, "fusion_lat": 0.0, "bike_id": "a20fee1fd09a23186bf8c70e7799a43e", "rental_uris": {"ios": "https://dc.lft.to/lastmile_qr_scan", "android": "https://dc.lft.to/lastmile_qr_scan"}}, {"name": "4efb57e62dce7aa0fb515ee2ac3d3376", "type": "electric_scooter", "lat": 38.903757666666664, "is_reserved": 0, "lon": -77.03847616666667, "fusion_lon": 0.0, "is_disabled": 0, "fusion_lat": 0.0, "bike_id": "4efb57e62dce7aa0fb515ee2ac3d3376", "rental_uris": {"ios": "https://dc.lft.to/lastmile_qr_scan", "android": "https://dc.lft.to/lastmile_qr_scan"}}, {"name": "0e7322c2e075b0e3b1275a2c8d54b8cf", "type": "electric_scooter", "lat": 38.93082583333333, "is_reserved": 0, "lon": -77.02796216666667, "fusion_lon": 0.0, "is_disabled": 0, "fusion_lat": 0.0, "bike_id": "0e7322c2e075b0e3b1275a2c8d54b8cf", "rental_uris": {"ios": "https://dc.lft.to/lastmile_qr_scan", "android": "https://dc.lft.to/lastmile_qr_scan"}}, {"name": "34bfbba9423d7496b8069843322691f4", "type": "electric_scooter", "lat": 38.923547166666665, "is_reserved": 0, "lon": -77.05242716666666, "fusion_lon": 0.0, "is_disabled": 0, "fusion_lat": 0.0, "bike_id": "34bfbba9423d7496b8069843322691f4", "rental_uris": {"ios": "https://dc.lft.to/lastmile_qr_scan", "android": "https://dc.lft.to/lastmile_qr_scan"}}, {"name": "e2b9a37a8672ee53d636fa57263a976c", "type": "electric_scooter", "lat": 38.9002705, "is_reserved": 0, "lon": -77.03013816666666, "fusion_lon": 0.0, "is_disabled": 0, "fusion_lat": 0.0, "bike_id": "e2b9a37a8672ee53d636fa57263a976c", "rental_uris": {"ios": "https://dc.lft.to/lastmile_qr_scan", "android": "https://dc.lft.to/lastmile_qr_scan"}}, {"name": "df6cfcbcb7fcbfe83d775138809ee6c1", "type": "electric_scooter", "lat": 38.93201966666667, "is_reserved": 0, "lon": -77.03858166666667, "fusion_lon": 0.0, "is_disabled": 0, "fusion_lat": 0.0, "bike_id": "df6cfcbcb7fcbfe83d775138809ee6c1", "rental_uris": {"ios": "https://dc.lft.to/lastmile_qr_scan", "android": "https://dc.lft.to/lastmile_qr_scan"}}, {"name": "5aae5f2e4c80194edd7f2f702c6f27d4", "type": "electric_scooter", "lat": 38.92873183333333, "is_reserved": 0, "lon": -77.03481983333333, "fusion_lon": 0.0, "is_disabled": 0, "fusion_lat": 0.0, "bike_id": "5aae5f2e4c80194edd7f2f702c6f27d4", "rental_uris": {"ios": "https://dc.lft.to/lastmile_qr_scan", "android": "https://dc.lft.to/lastmile_qr_scan"}}, {"name": "4fe19fd3b11c60ed7ef2fbb3e2533f26", "type": "electric_scooter", "lat": 38.924717, "is_reserved": 0, "lon": -77.0283505, "fusion_lon": 0.0, "is_disabled": 0, "fusion_lat": 0.0, "bike_id": "4fe19fd3b11c60ed7ef2fbb3e2533f26", "rental_uris": {"ios": "https://dc.lft.to/lastmile_qr_scan", "android": "https://dc.lft.to/lastmile_qr_scan"}}, {"name": "c059c6639e0db4cfb6d0880fa975bdbd", "type": "electric_scooter", "lat": 38.884110166666666, "is_reserved": 0, "lon": -77.017649, "fusion_lon": 0.0, "is_disabled": 0, "fusion_lat": 0.0, "bike_id": "c059c6639e0db4cfb6d0880fa975bdbd", "rental_uris": {"ios": "https://dc.lft.to/lastmile_qr_scan", "android": "https://dc.lft.to/lastmile_qr_scan"}}, {"name": "6c51746551cf404db4f56200f4a106c8", "type": "electric_scooter", "lat": 38.90478566666667, "is_reserved": 0, "lon": -77.00216183333333, "fusion_lon": 0.0, "is_disabled": 0, "fusion_lat": 0.0, "bike_id": "6c51746551cf404db4f56200f4a106c8", "rental_uris": {"ios": "https://dc.lft.to/lastmile_qr_scan", "android": "https://dc.lft.to/lastmile_qr_scan"}}, {"name": "e9538be665d4b8b8c7964aca8800ea38", "type": "electric_scooter", "lat": 38.88629266666667, "is_reserved": 0, "lon": -77.01532983333334, "fusion_lon": 0.0, "is_disabled": 0, "fusion_lat": 0.0, "bike_id": "e9538be665d4b8b8c7964aca8800ea38", "rental_uris": {"ios": "https://dc.lft.to/lastmile_qr_scan", "android": "https://dc.lft.to/lastmile_qr_scan"}}, {"name": "3804a5a44aff6beb0e277b976ded462e", "type": "electric_scooter", "lat": 38.894739, "is_reserved": 0, "lon": -76.9953635, "fusion_lon": 0.0, "is_disabled": 0, "fusion_lat": 0.0, "bike_id": "3804a5a44aff6beb0e277b976ded462e", "rental_uris": {"ios": "https://dc.lft.to/lastmile_qr_scan", "android": "https://dc.lft.to/lastmile_qr_scan"}}, {"name": "b56dae7e802f25c5a6624eacfdbb6b29", "type": "electric_scooter", "lat": 38.883332, "is_reserved": 0, "lon": -77.017419, "fusion_lon": 0.0, "is_disabled": 0, "fusion_lat": 0.0, "bike_id": "b56dae7e802f25c5a6624eacfdbb6b29", "rental_uris": {"ios": "https://dc.lft.to/lastmile_qr_scan", "android": "https://dc.lft.to/lastmile_qr_scan"}}, {"name": "9a8784104b7adadc63559e98eb3be491", "type": "electric_bike", "lat": 39.038802, "is_reserved": 0, "lon": -76.99044633333334, "fusion_lon": 0.0, "is_disabled": 0, "fusion_lat": 0.0, "bike_id": "9a8784104b7adadc63559e98eb3be491", "rental_uris": {"ios": "https://dc.lft.to/lastmile_qr_scan", "android": "https://dc.lft.to/lastmile_qr_scan"}}, {"name": "203a0bebf633cf9f1d902d45302a1615", "type": "electric_scooter", "lat": 38.904135333333336, "is_reserved": 0, "lon": -77.0467515, "fusion_lon": 0.0, "is_disabled": 0, "fusion_lat": 0.0, "bike_id": "203a0bebf633cf9f1d902d45302a1615", "rental_uris": {"ios": "https://dc.lft.to/lastmile_qr_scan", "android": "https://dc.lft.to/lastmile_qr_scan"}}, {"name": "04097148f9668c4d2a69ff106a260e1d", "type": "electric_scooter", "lat": 38.9163095, "is_reserved": 0, "lon": -77.01337566666666, "fusion_lon": 0.0, "is_disabled": 0, "fusion_lat": 0.0, "bike_id": "04097148f9668c4d2a69ff106a260e1d", "rental_uris": {"ios": "https://dc.lft.to/lastmile_qr_scan", "android": "https://dc.lft.to/lastmile_qr_scan"}}, {"name": "ddefc68b52b8565ba71f10fbc914da99", "type": "electric_scooter", "lat": 38.903815333333334, "is_reserved": 0, "lon": -77.044956, "fusion_lon": 0.0, "is_disabled": 0, "fusion_lat": 0.0, "bike_id": "ddefc68b52b8565ba71f10fbc914da99", "rental_uris": {"ios": "https://dc.lft.to/lastmile_qr_scan", "android": "https://dc.lft.to/lastmile_qr_scan"}}, {"name": "2a31018b52966f541607619d311a0fef", "type": "electric_scooter", "lat": 38.914210833333335, "is_reserved": 0, "lon": -77.0449055, "fusion_lon": 0.0, "is_disabled": 0, "fusion_lat": 0.0, "bike_id": "2a31018b52966f541607619d311a0fef", "rental_uris": {"ios": "https://dc.lft.to/lastmile_qr_scan", "android": "https://dc.lft.to/lastmile_qr_scan"}}, {"name": "ca57bdd1fe885c837d49055fcffbb7d1", "type": "electric_scooter", "lat": 38.89219883333333, "is_reserved": 0, "lon": -77.024397, "fusion_lon": 0.0, "is_disabled": 0, "fusion_lat": 0.0, "bike_id": "ca57bdd1fe885c837d49055fcffbb7d1", "rental_uris": {"ios": "https://dc.lft.to/lastmile_qr_scan", "android": "https://dc.lft.to/lastmile_qr_scan"}}, {"name": "47c3ea88948a9d81fb8e9970bfd88ec0", "type": "electric_scooter", "lat": 38.916861, "is_reserved": 0, "lon": -77.0321095, "fusion_lon": 0.0, "is_disabled": 0, "fusion_lat": 0.0, "bike_id": "47c3ea88948a9d81fb8e9970bfd88ec0", "rental_uris": {"ios": "https://dc.lft.to/lastmile_qr_scan", "android": "https://dc.lft.to/lastmile_qr_scan"}}, {"name": "835cc2a0e31f8a9233252a8579e16d89", "type": "electric_scooter", "lat": 38.906126666666665, "is_reserved": 0, "lon": -77.07492433333333, "fusion_lon": 0.0, "is_disabled": 0, "fusion_lat": 0.0, "bike_id": "835cc2a0e31f8a9233252a8579e16d89", "rental_uris": {"ios": "https://dc.lft.to/lastmile_qr_scan", "android": "https://dc.lft.to/lastmile_qr_scan"}}, {"name": "0619db6dea7044005e1c9d27b4a420cd", "type": "electric_scooter", "lat": 38.9056255, "is_reserved": 0, "lon": -77.0449195, "fusion_lon": 0.0, "is_disabled": 0, "fusion_lat": 0.0, "bike_id": "0619db6dea7044005e1c9d27b4a420cd", "rental_uris": {"ios": "https://dc.lft.to/lastmile_qr_scan", "android": "https://dc.lft.to/lastmile_qr_scan"}}, {"name": "59e6635a7c55968cfece58072c0c1128", "type": "electric_scooter", "lat": 38.91922566666667, "is_reserved": 0, "lon": -77.0326615, "fusion_lon": 0.0, "is_disabled": 0, "fusion_lat": 0.0, "bike_id": "59e6635a7c55968cfece58072c0c1128", "rental_uris": {"ios": "https://dc.lft.to/lastmile_qr_scan", "android": "https://dc.lft.to/lastmile_qr_scan"}}, {"name": "4e31f58aedaac8eec651a60e86cea96b", "type": "electric_scooter", "lat": 38.896088166666665, "is_reserved": 0, "lon": -77.0424395, "fusion_lon": 0.0, "is_disabled": 0, "fusion_lat": 0.0, "bike_id": "4e31f58aedaac8eec651a60e86cea96b", "rental_uris": {"ios": "https://dc.lft.to/lastmile_qr_scan", "android": "https://dc.lft.to/lastmile_qr_scan"}}, {"name": "992c1ff496376c4394152cbe13ec83be", "type": "electric_scooter", "lat": 38.91631866666667, "is_reserved": 0, "lon": -77.03180866666666, "fusion_lon": 0.0, "is_disabled": 0, "fusion_lat": 0.0, "bike_id": "992c1ff496376c4394152cbe13ec83be", "rental_uris": {"ios": "https://dc.lft.to/lastmile_qr_scan", "android": "https://dc.lft.to/lastmile_qr_scan"}}, {"name": "e0f19b535f8ee5b8c0c128b3de380ad7", "type": "electric_scooter", "lat": 38.91190533333334, "is_reserved": 0, "lon": -76.996184, "fusion_lon": 0.0, "is_disabled": 0, "fusion_lat": 0.0, "bike_id": "e0f19b535f8ee5b8c0c128b3de380ad7", "rental_uris": {"ios": "https://dc.lft.to/lastmile_qr_scan", "android": "https://dc.lft.to/lastmile_qr_scan"}}, {"name": "15663bff9ba2065009f7da5dc9b29e16", "type": "electric_scooter", "lat": 38.9128255, "is_reserved": 0, "lon": -77.0384565, "fusion_lon": 0.0, "is_disabled": 0, "fusion_lat": 0.0, "bike_id": "15663bff9ba2065009f7da5dc9b29e16", "rental_uris": {"ios": "https://dc.lft.to/lastmile_qr_scan", "android": "https://dc.lft.to/lastmile_qr_scan"}}, {"name": "f47b3ed5d0e43052f5510a48eb9934c6", "type": "electric_scooter", "lat": 38.91945833333333, "is_reserved": 0, "lon": -77.01353416666667, "fusion_lon": 0.0, "is_disabled": 0, "fusion_lat": 0.0, "bike_id": "f47b3ed5d0e43052f5510a48eb9934c6", "rental_uris": {"ios": "https://dc.lft.to/lastmile_qr_scan", "android": "https://dc.lft.to/lastmile_qr_scan"}}, {"name": "a14aa6843b4a7ae85b65e9e25a66b682", "type": "electric_scooter", "lat": 38.91010583333333, "is_reserved": 0, "lon": -76.993981, "fusion_lon": 0.0, "is_disabled": 0, "fusion_lat": 0.0, "bike_id": "a14aa6843b4a7ae85b65e9e25a66b682", "rental_uris": {"ios": "https://dc.lft.to/lastmile_qr_scan", "android": "https://dc.lft.to/lastmile_qr_scan"}}, {"name": "dedd30f4c9736fb581574cfb07e5ebe9", "type": "electric_scooter", "lat": 38.905597, "is_reserved": 0, "lon": -77.03473733333334, "fusion_lon": 0.0, "is_disabled": 0, "fusion_lat": 0.0, "bike_id": "dedd30f4c9736fb581574cfb07e5ebe9", "rental_uris": {"ios": "https://dc.lft.to/lastmile_qr_scan", "android": "https://dc.lft.to/lastmile_qr_scan"}}, {"name": "c048bf3d4844af554a8468c8894b19c7", "type": "electric_scooter", "lat": 38.8833335, "is_reserved": 0, "lon": -77.01755133333333, "fusion_lon": 0.0, "is_disabled": 0, "fusion_lat": 0.0, "bike_id": "c048bf3d4844af554a8468c8894b19c7", "rental_uris": {"ios": "https://dc.lft.to/lastmile_qr_scan", "android": "https://dc.lft.to/lastmile_qr_scan"}}, {"name": "369166b340dad95df3e671216e8e8a38", "type": "electric_scooter", "lat": 38.917127, "is_reserved": 0, "lon": -77.03106333333334, "fusion_lon": 0.0, "is_disabled": 0, "fusion_lat": 0.0, "bike_id": "369166b340dad95df3e671216e8e8a38", "rental_uris": {"ios": "https://dc.lft.to/lastmile_qr_scan", "android": "https://dc.lft.to/lastmile_qr_scan"}}, {"name": "c8356ade46a862fe14935c95c1ff51c9", "type": "electric_scooter", "lat": 38.903721833333336, "is_reserved": 0, "lon": -77.031843, "fusion_lon": 0.0, "is_disabled": 0, "fusion_lat": 0.0, "bike_id": "c8356ade46a862fe14935c95c1ff51c9", "rental_uris": {"ios": "https://dc.lft.to/lastmile_qr_scan", "android": "https://dc.lft.to/lastmile_qr_scan"}}, {"name": "13ddc4afa6e0207e7c3153fd57d9b6cb", "type": "electric_scooter", "lat": 38.896712, "is_reserved": 0, "lon": -77.02949583333333, "fusion_lon": 0.0, "is_disabled": 0, "fusion_lat": 0.0, "bike_id": "13ddc4afa6e0207e7c3153fd57d9b6cb", "rental_uris": {"ios": "https://dc.lft.to/lastmile_qr_scan", "android": "https://dc.lft.to/lastmile_qr_scan"}}, {"name": "db9e210fc315a738666ed43d6882d3cc", "type": "electric_scooter", "lat": 38.898224166666665, "is_reserved": 0, "lon": -77.02957666666667, "fusion_lon": 0.0, "is_disabled": 0, "fusion_lat": 0.0, "bike_id": "db9e210fc315a738666ed43d6882d3cc", "rental_uris": {"ios": "https://dc.lft.to/lastmile_qr_scan", "android": "https://dc.lft.to/lastmile_qr_scan"}}, {"name": "8bf0d7ee9113ce00b87c4c784683573a", "type": "electric_scooter", "lat": 38.94441233333333, "is_reserved": 0, "lon": -77.0635285, "fusion_lon": 0.0, "is_disabled": 0, "fusion_lat": 0.0, "bike_id": "8bf0d7ee9113ce00b87c4c784683573a", "rental_uris": {"ios": "https://dc.lft.to/lastmile_qr_scan", "android": "https://dc.lft.to/lastmile_qr_scan"}}, {"name": "abaed7616c819764684e84efd3efda88", "type": "electric_scooter", "lat": 38.92570283333333, "is_reserved": 0, "lon": -77.03919233333333, "fusion_lon": 0.0, "is_disabled": 0, "fusion_lat": 0.0, "bike_id": "abaed7616c819764684e84efd3efda88", "rental_uris": {"ios": "https://dc.lft.to/lastmile_qr_scan", "android": "https://dc.lft.to/lastmile_qr_scan"}}, {"name": "dd475200ed81a62ba1fd3cb8d5545419", "type": "electric_scooter", "lat": 38.924517333333334, "is_reserved": 0, "lon": -77.00211916666666, "fusion_lon": 0.0, "is_disabled": 0, "fusion_lat": 0.0, "bike_id": "dd475200ed81a62ba1fd3cb8d5545419", "rental_uris": {"ios": "https://dc.lft.to/lastmile_qr_scan", "android": "https://dc.lft.to/lastmile_qr_scan"}}, {"name": "2664689977c894fbb084fdc4f5f393b5", "type": "electric_bike", "lat": 38.855356666666665, "is_reserved": 0, "lon": -77.11330333333333, "fusion_lon": 0.0, "is_disabled": 0, "fusion_lat": 0.0, "bike_id": "2664689977c894fbb084fdc4f5f393b5", "rental_uris": {"ios": "https://dc.lft.to/lastmile_qr_scan", "android": "https://dc.lft.to/lastmile_qr_scan"}}, {"name": "8a3a4c1f3baa3d801cf619f69bbb3395", "type": "electric_scooter", "lat": 38.93528583333333, "is_reserved": 0, "lon": -77.0285395, "fusion_lon": 0.0, "is_disabled": 0, "fusion_lat": 0.0, "bike_id": "8a3a4c1f3baa3d801cf619f69bbb3395", "rental_uris": {"ios": "https://dc.lft.to/lastmile_qr_scan", "android": "https://dc.lft.to/lastmile_qr_scan"}}, {"name": "32dc1bbe1333e80c2cbfcecd6ffbe844", "type": "electric_scooter", "lat": 38.898332, "is_reserved": 0, "lon": -76.94635633333333, "fusion_lon": 0.0, "is_disabled": 0, "fusion_lat": 0.0, "bike_id": "32dc1bbe1333e80c2cbfcecd6ffbe844", "rental_uris": {"ios": "https://dc.lft.to/lastmile_qr_scan", "android": "https://dc.lft.to/lastmile_qr_scan"}}, {"name": "65db42ee5a002101c21af2a7180930d9", "type": "electric_scooter", "lat": 38.892383, "is_reserved": 0, "lon": -77.0280025, "fusion_lon": 0.0, "is_disabled": 0, "fusion_lat": 0.0, "bike_id": "65db42ee5a002101c21af2a7180930d9", "rental_uris": {"ios": "https://dc.lft.to/lastmile_qr_scan", "android": "https://dc.lft.to/lastmile_qr_scan"}}, {"name": "c78d3a805b970dc8d20fac60becf86fa", "type": "electric_scooter", "lat": 38.883638, "is_reserved": 0, "lon": -77.03175033333333, "fusion_lon": 0.0, "is_disabled": 0, "fusion_lat": 0.0, "bike_id": "c78d3a805b970dc8d20fac60becf86fa", "rental_uris": {"ios": "https://dc.lft.to/lastmile_qr_scan", "android": "https://dc.lft.to/lastmile_qr_scan"}}, {"name": "8a15c53f10b3a74600a2d4fac17eb703", "type": "electric_scooter", "lat": 38.9068285, "is_reserved": 0, "lon": -77.0753345, "fusion_lon": 0.0, "is_disabled": 0, "fusion_lat": 0.0, "bike_id": "8a15c53f10b3a74600a2d4fac17eb703", "rental_uris": {"ios": "https://dc.lft.to/lastmile_qr_scan", "android": "https://dc.lft.to/lastmile_qr_scan"}}, {"name": "b88220aaf0c2a8ad9bb9d043fad6a773", "type": "electric_scooter", "lat": 38.9036215, "is_reserved": 0, "lon": -77.0316935, "fusion_lon": 0.0, "is_disabled": 0, "fusion_lat": 0.0, "bike_id": "b88220aaf0c2a8ad9bb9d043fad6a773", "rental_uris": {"ios": "https://dc.lft.to/lastmile_qr_scan", "android": "https://dc.lft.to/lastmile_qr_scan"}}, {"name": "80d697bebe1b3705a772499c30b424ff", "type": "electric_bike", "lat": 38.96508216666667, "is_reserved": 0, "lon": -77.103333, "fusion_lon": 0.0, "is_disabled": 0, "fusion_lat": 0.0, "bike_id": "80d697bebe1b3705a772499c30b424ff", "rental_uris": {"ios": "https://dc.lft.to/lastmile_qr_scan", "android": "https://dc.lft.to/lastmile_qr_scan"}}, {"name": "a83acf616d074608c8e839c10932fb2d", "type": "electric_scooter", "lat": 38.9259335, "is_reserved": 0, "lon": -77.00486383333333, "fusion_lon": 0.0, "is_disabled": 0, "fusion_lat": 0.0, "bike_id": "a83acf616d074608c8e839c10932fb2d", "rental_uris": {"ios": "https://dc.lft.to/lastmile_qr_scan", "android": "https://dc.lft.to/lastmile_qr_scan"}}, {"name": "d8480ad53335ed9065c6a1762c415cdb", "type": "electric_scooter", "lat": 38.909147833333336, "is_reserved": 0, "lon": -76.99963866666667, "fusion_lon": 0.0, "is_disabled": 0, "fusion_lat": 0.0, "bike_id": "d8480ad53335ed9065c6a1762c415cdb", "rental_uris": {"ios": "https://dc.lft.to/lastmile_qr_scan", "android": "https://dc.lft.to/lastmile_qr_scan"}}, {"name": "d2c9a4bdb23365a893d8c8075841aa2e", "type": "electric_scooter", "lat": 38.915431166666664, "is_reserved": 0, "lon": -77.03792883333334, "fusion_lon": 0.0, "is_disabled": 0, "fusion_lat": 0.0, "bike_id": "d2c9a4bdb23365a893d8c8075841aa2e", "rental_uris": {"ios": "https://dc.lft.to/lastmile_qr_scan", "android": "https://dc.lft.to/lastmile_qr_scan"}}, {"name": "fe4e6b27e23466c8ce7651854b2adce7", "type": "electric_scooter", "lat": 38.89233316666667, "is_reserved": 0, "lon": -77.05001766666666, "fusion_lon": 0.0, "is_disabled": 0, "fusion_lat": 0.0, "bike_id": "fe4e6b27e23466c8ce7651854b2adce7", "rental_uris": {"ios": "https://dc.lft.to/lastmile_qr_scan", "android": "https://dc.lft.to/lastmile_qr_scan"}}, {"name": "5dff5119bd3c33f60d72f53454bbfcf7", "type": "electric_scooter", "lat": 38.905753833333335, "is_reserved": 0, "lon": -77.04029, "fusion_lon": 0.0, "is_disabled": 0, "fusion_lat": 0.0, "bike_id": "5dff5119bd3c33f60d72f53454bbfcf7", "rental_uris": {"ios": "https://dc.lft.to/lastmile_qr_scan", "android": "https://dc.lft.to/lastmile_qr_scan"}}, {"name": "9c7e25d9e070e6af597a8b93d38dcd07", "type": "electric_scooter", "lat": 38.884974166666666, "is_reserved": 0, "lon": -77.00725166666666, "fusion_lon": 0.0, "is_disabled": 0, "fusion_lat": 0.0, "bike_id": "9c7e25d9e070e6af597a8b93d38dcd07", "rental_uris": {"ios": "https://dc.lft.to/lastmile_qr_scan", "android": "https://dc.lft.to/lastmile_qr_scan"}}, {"name": "8306e11db1a08604effc38651669d324", "type": "electric_scooter", "lat": 38.90845766666666, "is_reserved": 0, "lon": -77.02733283333333, "fusion_lon": 0.0, "is_disabled": 0, "fusion_lat": 0.0, "bike_id": "8306e11db1a08604effc38651669d324", "rental_uris": {"ios": "https://dc.lft.to/lastmile_qr_scan", "android": "https://dc.lft.to/lastmile_qr_scan"}}, {"name": "dd105ee832a8df76cd3d8f1312a3ca62", "type": "electric_scooter", "lat": 38.898939, "is_reserved": 0, "lon": -77.03274266666666, "fusion_lon": 0.0, "is_disabled": 0, "fusion_lat": 0.0, "bike_id": "dd105ee832a8df76cd3d8f1312a3ca62", "rental_uris": {"ios": "https://dc.lft.to/lastmile_qr_scan", "android": "https://dc.lft.to/lastmile_qr_scan"}}, {"name": "a5523961b21e1e6c369eb152c838b8e0", "type": "electric_scooter", "lat": 38.8801765, "is_reserved": 0, "lon": -76.93130616666667, "fusion_lon": 0.0, "is_disabled": 0, "fusion_lat": 0.0, "bike_id": "a5523961b21e1e6c369eb152c838b8e0", "rental_uris": {"ios": "https://dc.lft.to/lastmile_qr_scan", "android": "https://dc.lft.to/lastmile_qr_scan"}}, {"name": "0459acdf2e9c2617ef53b3b66ad1bd1d", "type": "electric_scooter", "lat": 38.897393666666666, "is_reserved": 0, "lon": -76.94724316666667, "fusion_lon": 0.0, "is_disabled": 0, "fusion_lat": 0.0, "bike_id": "0459acdf2e9c2617ef53b3b66ad1bd1d", "rental_uris": {"ios": "https://dc.lft.to/lastmile_qr_scan", "android": "https://dc.lft.to/lastmile_qr_scan"}}, {"name": "8c3dd7f3fbba48fc56ae1ccd6120aee9", "type": "electric_scooter", "lat": 38.900626, "is_reserved": 0, "lon": -77.0318175, "fusion_lon": 0.0, "is_disabled": 0, "fusion_lat": 0.0, "bike_id": "8c3dd7f3fbba48fc56ae1ccd6120aee9", "rental_uris": {"ios": "https://dc.lft.to/lastmile_qr_scan", "android": "https://dc.lft.to/lastmile_qr_scan"}}, {"name": "f191795f0a5e5e5b2c1b0c51fa08b09a", "type": "electric_scooter", "lat": 38.899766, "is_reserved": 0, "lon": -77.05545983333333, "fusion_lon": 0.0, "is_disabled": 0, "fusion_lat": 0.0, "bike_id": "f191795f0a5e5e5b2c1b0c51fa08b09a", "rental_uris": {"ios": "https://dc.lft.to/lastmile_qr_scan", "android": "https://dc.lft.to/lastmile_qr_scan"}}, {"name": "7e7bbdb185c994f8c6bf5c0d158f5316", "type": "electric_scooter", "lat": 38.894956, "is_reserved": 0, "lon": -77.02400166666666, "fusion_lon": 0.0, "is_disabled": 0, "fusion_lat": 0.0, "bike_id": "7e7bbdb185c994f8c6bf5c0d158f5316", "rental_uris": {"ios": "https://dc.lft.to/lastmile_qr_scan", "android": "https://dc.lft.to/lastmile_qr_scan"}}, {"name": "0bbdbc239b89996631f6fc33d3597880", "type": "electric_scooter", "lat": 38.92799733333333, "is_reserved": 0, "lon": -77.0535995, "fusion_lon": 0.0, "is_disabled": 0, "fusion_lat": 0.0, "bike_id": "0bbdbc239b89996631f6fc33d3597880", "rental_uris": {"ios": "https://dc.lft.to/lastmile_qr_scan", "android": "https://dc.lft.to/lastmile_qr_scan"}}, {"name": "2dd1225ef9a76d21fa97eb9ac1d443a4", "type": "electric_scooter", "lat": 38.91982333333333, "is_reserved": 0, "lon": -77.022005, "fusion_lon": 0.0, "is_disabled": 0, "fusion_lat": 0.0, "bike_id": "2dd1225ef9a76d21fa97eb9ac1d443a4", "rental_uris": {"ios": "https://dc.lft.to/lastmile_qr_scan", "android": "https://dc.lft.to/lastmile_qr_scan"}}, {"name": "1d1c8805f510127cf59e0038d13ec3ec", "type": "electric_bike", "lat": 38.827330833333335, "is_reserved": 0, "lon": -77.00868233333334, "fusion_lon": 0.0, "is_disabled": 0, "fusion_lat": 0.0, "bike_id": "1d1c8805f510127cf59e0038d13ec3ec", "rental_uris": {"ios": "https://dc.lft.to/lastmile_qr_scan", "android": "https://dc.lft.to/lastmile_qr_scan"}}, {"name": "5fbc6f0ed8e96af656fb2a59fe8e2038", "type": "electric_scooter", "lat": 38.9187855, "is_reserved": 0, "lon": -77.043125, "fusion_lon": 0.0, "is_disabled": 0, "fusion_lat": 0.0, "bike_id": "5fbc6f0ed8e96af656fb2a59fe8e2038", "rental_uris": {"ios": "https://dc.lft.to/lastmile_qr_scan", "android": "https://dc.lft.to/lastmile_qr_scan"}}, {"name": "26e13d26848342e416d56a4b80bdce6f", "type": "electric_scooter", "lat": 38.907262333333335, "is_reserved": 0, "lon": -77.0434105, "fusion_lon": 0.0, "is_disabled": 0, "fusion_lat": 0.0, "bike_id": "26e13d26848342e416d56a4b80bdce6f", "rental_uris": {"ios": "https://dc.lft.to/lastmile_qr_scan", "android": "https://dc.lft.to/lastmile_qr_scan"}}, {"name": "3b73498fbdb3a679ce5bad1d829159d0", "type": "electric_bike", "lat": 38.895203333333335, "is_reserved": 0, "lon": -77.027369, "fusion_lon": 0.0, "is_disabled": 0, "fusion_lat": 0.0, "bike_id": "3b73498fbdb3a679ce5bad1d829159d0", "rental_uris": {"ios": "https://dc.lft.to/lastmile_qr_scan", "android": "https://dc.lft.to/lastmile_qr_scan"}}, {"name": "0ffd68a32c93a91084264b86516f71e1", "type": "electric_scooter", "lat": 38.898390166666665, "is_reserved": 0, "lon": -77.02810666666667, "fusion_lon": 0.0, "is_disabled": 0, "fusion_lat": 0.0, "bike_id": "0ffd68a32c93a91084264b86516f71e1", "rental_uris": {"ios": "https://dc.lft.to/lastmile_qr_scan", "android": "https://dc.lft.to/lastmile_qr_scan"}}, {"name": "90832282b038842abf0a634ccba6cb6a", "type": "electric_scooter", "lat": 38.94177333333333, "is_reserved": 0, "lon": -77.03655, "fusion_lon": 0.0, "is_disabled": 0, "fusion_lat": 0.0, "bike_id": "90832282b038842abf0a634ccba6cb6a", "rental_uris": {"ios": "https://dc.lft.to/lastmile_qr_scan", "android": "https://dc.lft.to/lastmile_qr_scan"}}, {"name": "49539eeb2b2dd458ae8008ff93cfad45", "type": "electric_scooter", "lat": 38.91327733333333, "is_reserved": 0, "lon": -77.04814366666666, "fusion_lon": 0.0, "is_disabled": 0, "fusion_lat": 0.0, "bike_id": "49539eeb2b2dd458ae8008ff93cfad45", "rental_uris": {"ios": "https://dc.lft.to/lastmile_qr_scan", "android": "https://dc.lft.to/lastmile_qr_scan"}}, {"name": "f065b4ef6ef19aef53c4a998e6316801", "type": "electric_scooter", "lat": 38.907031833333335, "is_reserved": 0, "lon": -76.98695816666667, "fusion_lon": 0.0, "is_disabled": 0, "fusion_lat": 0.0, "bike_id": "f065b4ef6ef19aef53c4a998e6316801", "rental_uris": {"ios": "https://dc.lft.to/lastmile_qr_scan", "android": "https://dc.lft.to/lastmile_qr_scan"}}, {"name": "801f711916463de4cd3a154ada51681c", "type": "electric_scooter", "lat": 38.903789, "is_reserved": 0, "lon": -77.0444445, "fusion_lon": 0.0, "is_disabled": 0, "fusion_lat": 0.0, "bike_id": "801f711916463de4cd3a154ada51681c", "rental_uris": {"ios": "https://dc.lft.to/lastmile_qr_scan", "android": "https://dc.lft.to/lastmile_qr_scan"}}, {"name": "74372e9ec4566bb0b7aae5b0c418bec8", "type": "electric_scooter", "lat": 38.90016683333333, "is_reserved": 0, "lon": -77.03321583333333, "fusion_lon": 0.0, "is_disabled": 0, "fusion_lat": 0.0, "bike_id": "74372e9ec4566bb0b7aae5b0c418bec8", "rental_uris": {"ios": "https://dc.lft.to/lastmile_qr_scan", "android": "https://dc.lft.to/lastmile_qr_scan"}}, {"name": "e62042175978c72881adf6156af6ead5", "type": "electric_scooter", "lat": 38.902802333333334, "is_reserved": 0, "lon": -77.03483783333333, "fusion_lon": 0.0, "is_disabled": 0, "fusion_lat": 0.0, "bike_id": "e62042175978c72881adf6156af6ead5", "rental_uris": {"ios": "https://dc.lft.to/lastmile_qr_scan", "android": "https://dc.lft.to/lastmile_qr_scan"}}, {"name": "3b84844a8002fec5965d2b0fbbaf220a", "type": "electric_scooter", "lat": 38.917263, "is_reserved": 0, "lon": -77.03660566666667, "fusion_lon": 0.0, "is_disabled": 0, "fusion_lat": 0.0, "bike_id": "3b84844a8002fec5965d2b0fbbaf220a", "rental_uris": {"ios": "https://dc.lft.to/lastmile_qr_scan", "android": "https://dc.lft.to/lastmile_qr_scan"}}, {"name": "9575eb6c257e75468a4068b56d90b178", "type": "electric_scooter", "lat": 38.902346333333334, "is_reserved": 0, "lon": -76.97416983333333, "fusion_lon": 0.0, "is_disabled": 0, "fusion_lat": 0.0, "bike_id": "9575eb6c257e75468a4068b56d90b178", "rental_uris": {"ios": "https://dc.lft.to/lastmile_qr_scan", "android": "https://dc.lft.to/lastmile_qr_scan"}}, {"name": "cb6d7631d8afa417ea63294fed3f4467", "type": "electric_scooter", "lat": 38.905682166666665, "is_reserved": 0, "lon": -77.01507616666666, "fusion_lon": 0.0, "is_disabled": 0, "fusion_lat": 0.0, "bike_id": "cb6d7631d8afa417ea63294fed3f4467", "rental_uris": {"ios": "https://dc.lft.to/lastmile_qr_scan", "android": "https://dc.lft.to/lastmile_qr_scan"}}, {"name": "292b24a6d1346eb5167ec92b96484a3b", "type": "electric_scooter", "lat": 38.90035833333334, "is_reserved": 0, "lon": -77.043843, "fusion_lon": 0.0, "is_disabled": 0, "fusion_lat": 0.0, "bike_id": "292b24a6d1346eb5167ec92b96484a3b", "rental_uris": {"ios": "https://dc.lft.to/lastmile_qr_scan", "android": "https://dc.lft.to/lastmile_qr_scan"}}, {"name": "08fc28fd926a33f0b8e31cd8d92bf6ec", "type": "electric_bike", "lat": 38.86163283333333, "is_reserved": 0, "lon": -77.1309755, "fusion_lon": 0.0, "is_disabled": 0, "fusion_lat": 0.0, "bike_id": "08fc28fd926a33f0b8e31cd8d92bf6ec", "rental_uris": {"ios": "https://dc.lft.to/lastmile_qr_scan", "android": "https://dc.lft.to/lastmile_qr_scan"}}, {"name": "96da369a6a3ef258384978fd7da7fbe5", "type": "electric_scooter", "lat": 38.91586016666667, "is_reserved": 0, "lon": -77.0417035, "fusion_lon": 0.0, "is_disabled": 0, "fusion_lat": 0.0, "bike_id": "96da369a6a3ef258384978fd7da7fbe5", "rental_uris": {"ios": "https://dc.lft.to/lastmile_qr_scan", "android": "https://dc.lft.to/lastmile_qr_scan"}}, {"name": "90022467c8cbd605f89226d3a49e4093", "type": "electric_scooter", "lat": 38.909572, "is_reserved": 0, "lon": -76.98470716666667, "fusion_lon": 0.0, "is_disabled": 0, "fusion_lat": 0.0, "bike_id": "90022467c8cbd605f89226d3a49e4093", "rental_uris": {"ios": "https://dc.lft.to/lastmile_qr_scan", "android": "https://dc.lft.to/lastmile_qr_scan"}}, {"name": "6a5ca7bd2effa4920c97953cef9007e6", "type": "electric_scooter", "lat": 38.9348565, "is_reserved": 0, "lon": -77.03285383333333, "fusion_lon": 0.0, "is_disabled": 0, "fusion_lat": 0.0, "bike_id": "6a5ca7bd2effa4920c97953cef9007e6", "rental_uris": {"ios": "https://dc.lft.to/lastmile_qr_scan", "android": "https://dc.lft.to/lastmile_qr_scan"}}, {"name": "d682ea0b8800f4a6c47fad1dd067860b", "type": "electric_scooter", "lat": 38.92952833333333, "is_reserved": 0, "lon": -77.02315666666667, "fusion_lon": 0.0, "is_disabled": 0, "fusion_lat": 0.0, "bike_id": "d682ea0b8800f4a6c47fad1dd067860b", "rental_uris": {"ios": "https://dc.lft.to/lastmile_qr_scan", "android": "https://dc.lft.to/lastmile_qr_scan"}}, {"name": "820587c1b85019f9613579edbeaf2e69", "type": "electric_scooter", "lat": 38.891830166666665, "is_reserved": 0, "lon": -77.01532316666666, "fusion_lon": 0.0, "is_disabled": 0, "fusion_lat": 0.0, "bike_id": "820587c1b85019f9613579edbeaf2e69", "rental_uris": {"ios": "https://dc.lft.to/lastmile_qr_scan", "android": "https://dc.lft.to/lastmile_qr_scan"}}, {"name": "4c0ae808ca03c3c162d31337f6563f60", "type": "electric_bike", "lat": 38.898176666666664, "is_reserved": 0, "lon": -77.00595933333334, "fusion_lon": 0.0, "is_disabled": 0, "fusion_lat": 0.0, "bike_id": "4c0ae808ca03c3c162d31337f6563f60", "rental_uris": {"ios": "https://dc.lft.to/lastmile_qr_scan", "android": "https://dc.lft.to/lastmile_qr_scan"}}, {"name": "20a98093490d92d55a18ff44edbc5882", "type": "electric_scooter", "lat": 38.93171866666667, "is_reserved": 0, "lon": -77.02850166666667, "fusion_lon": 0.0, "is_disabled": 0, "fusion_lat": 0.0, "bike_id": "20a98093490d92d55a18ff44edbc5882", "rental_uris": {"ios": "https://dc.lft.to/lastmile_qr_scan", "android": "https://dc.lft.to/lastmile_qr_scan"}}, {"name": "b8ff828e57f1e5207a75ef347ec6df39", "type": "electric_scooter", "lat": 38.94012, "is_reserved": 0, "lon": -77.071724, "fusion_lon": 0.0, "is_disabled": 0, "fusion_lat": 0.0, "bike_id": "b8ff828e57f1e5207a75ef347ec6df39", "rental_uris": {"ios": "https://dc.lft.to/lastmile_qr_scan", "android": "https://dc.lft.to/lastmile_qr_scan"}}, {"name": "86a90f18bfe5e2f431554acc741b34c1", "type": "electric_scooter", "lat": 38.885241666666666, "is_reserved": 0, "lon": -76.97713083333333, "fusion_lon": 0.0, "is_disabled": 0, "fusion_lat": 0.0, "bike_id": "86a90f18bfe5e2f431554acc741b34c1", "rental_uris": {"ios": "https://dc.lft.to/lastmile_qr_scan", "android": "https://dc.lft.to/lastmile_qr_scan"}}, {"name": "b4559af92e83398a875d65b46ef24d8c", "type": "electric_scooter", "lat": 38.91922783333333, "is_reserved": 0, "lon": -77.00974266666667, "fusion_lon": 0.0, "is_disabled": 0, "fusion_lat": 0.0, "bike_id": "b4559af92e83398a875d65b46ef24d8c", "rental_uris": {"ios": "https://dc.lft.to/lastmile_qr_scan", "android": "https://dc.lft.to/lastmile_qr_scan"}}, {"name": "dbb62006281f781087b2dc07f577f7e3", "type": "electric_scooter", "lat": 38.90272216666666, "is_reserved": 0, "lon": -77.03454033333334, "fusion_lon": 0.0, "is_disabled": 0, "fusion_lat": 0.0, "bike_id": "dbb62006281f781087b2dc07f577f7e3", "rental_uris": {"ios": "https://dc.lft.to/lastmile_qr_scan", "android": "https://dc.lft.to/lastmile_qr_scan"}}, {"name": "2c92ddd279ce8b4e654d44ec45d29cce", "type": "electric_scooter", "lat": 38.904308, "is_reserved": 0, "lon": -76.98483183333333, "fusion_lon": 0.0, "is_disabled": 0, "fusion_lat": 0.0, "bike_id": "2c92ddd279ce8b4e654d44ec45d29cce", "rental_uris": {"ios": "https://dc.lft.to/lastmile_qr_scan", "android": "https://dc.lft.to/lastmile_qr_scan"}}, {"name": "4f0ec246dc19f4649b1b2339ca3bd64f", "type": "electric_scooter", "lat": 38.9201235, "is_reserved": 0, "lon": -77.03864783333333, "fusion_lon": 0.0, "is_disabled": 0, "fusion_lat": 0.0, "bike_id": "4f0ec246dc19f4649b1b2339ca3bd64f", "rental_uris": {"ios": "https://dc.lft.to/lastmile_qr_scan", "android": "https://dc.lft.to/lastmile_qr_scan"}}, {"name": "87f467d787da738f5784ae10b3165a69", "type": "electric_scooter", "lat": 38.90373483333333, "is_reserved": 0, "lon": -77.01797616666667, "fusion_lon": 0.0, "is_disabled": 0, "fusion_lat": 0.0, "bike_id": "87f467d787da738f5784ae10b3165a69", "rental_uris": {"ios": "https://dc.lft.to/lastmile_qr_scan", "android": "https://dc.lft.to/lastmile_qr_scan"}}, {"name": "2ee7ee79ee1d4ff72619678adc8b0896", "type": "electric_scooter", "lat": 38.903876, "is_reserved": 0, "lon": -77.04205766666666, "fusion_lon": 0.0, "is_disabled": 0, "fusion_lat": 0.0, "bike_id": "2ee7ee79ee1d4ff72619678adc8b0896", "rental_uris": {"ios": "https://dc.lft.to/lastmile_qr_scan", "android": "https://dc.lft.to/lastmile_qr_scan"}}, {"name": "4ca34c7d837e6c09ce41eb6fa01345ec", "type": "electric_scooter", "lat": 38.9066605, "is_reserved": 0, "lon": -77.0353045, "fusion_lon": 0.0, "is_disabled": 0, "fusion_lat": 0.0, "bike_id": "4ca34c7d837e6c09ce41eb6fa01345ec", "rental_uris": {"ios": "https://dc.lft.to/lastmile_qr_scan", "android": "https://dc.lft.to/lastmile_qr_scan"}}, {"name": "2a36cde454a239ac4e1fb8fdaf1526b3", "type": "electric_scooter", "lat": 38.88545933333333, "is_reserved": 0, "lon": -77.0295355, "fusion_lon": 0.0, "is_disabled": 0, "fusion_lat": 0.0, "bike_id": "2a36cde454a239ac4e1fb8fdaf1526b3", "rental_uris": {"ios": "https://dc.lft.to/lastmile_qr_scan", "android": "https://dc.lft.to/lastmile_qr_scan"}}, {"name": "1225dc158c19a4126ed0808afb069657", "type": "electric_scooter", "lat": 38.904107833333335, "is_reserved": 0, "lon": -76.9732855, "fusion_lon": 0.0, "is_disabled": 0, "fusion_lat": 0.0, "bike_id": "1225dc158c19a4126ed0808afb069657", "rental_uris": {"ios": "https://dc.lft.to/lastmile_qr_scan", "android": "https://dc.lft.to/lastmile_qr_scan"}}, {"name": "c9747272ee5249bee9260607d3725cdb", "type": "electric_scooter", "lat": 38.917590833333335, "is_reserved": 0, "lon": -77.0248985, "fusion_lon": 0.0, "is_disabled": 0, "fusion_lat": 0.0, "bike_id": "c9747272ee5249bee9260607d3725cdb", "rental_uris": {"ios": "https://dc.lft.to/lastmile_qr_scan", "android": "https://dc.lft.to/lastmile_qr_scan"}}, {"name": "ba5e5110c0fa4fc7651f450791fee664", "type": "electric_scooter", "lat": 38.9126705, "is_reserved": 0, "lon": -77.02226633333333, "fusion_lon": 0.0, "is_disabled": 0, "fusion_lat": 0.0, "bike_id": "ba5e5110c0fa4fc7651f450791fee664", "rental_uris": {"ios": "https://dc.lft.to/lastmile_qr_scan", "android": "https://dc.lft.to/lastmile_qr_scan"}}, {"name": "7ebbdde752e7e6305c2391f5a81bb9aa", "type": "electric_bike", "lat": 38.99940766666667, "is_reserved": 0, "lon": -77.01770466666666, "fusion_lon": 0.0, "is_disabled": 0, "fusion_lat": 0.0, "bike_id": "7ebbdde752e7e6305c2391f5a81bb9aa", "rental_uris": {"ios": "https://dc.lft.to/lastmile_qr_scan", "android": "https://dc.lft.to/lastmile_qr_scan"}}, {"name": "8599c33027c2299f763c167768db248d", "type": "electric_scooter", "lat": 38.93062883333333, "is_reserved": 0, "lon": -77.038184, "fusion_lon": 0.0, "is_disabled": 0, "fusion_lat": 0.0, "bike_id": "8599c33027c2299f763c167768db248d", "rental_uris": {"ios": "https://dc.lft.to/lastmile_qr_scan", "android": "https://dc.lft.to/lastmile_qr_scan"}}, {"name": "fd5eb51f9ad40cdbdbd4310f45d4b926", "type": "electric_scooter", "lat": 38.91667666666667, "is_reserved": 0, "lon": -77.02314183333333, "fusion_lon": 0.0, "is_disabled": 0, "fusion_lat": 0.0, "bike_id": "fd5eb51f9ad40cdbdbd4310f45d4b926", "rental_uris": {"ios": "https://dc.lft.to/lastmile_qr_scan", "android": "https://dc.lft.to/lastmile_qr_scan"}}, {"name": "02e7e6b0e8589774344872fbb311991f", "type": "electric_scooter", "lat": 38.867011833333336, "is_reserved": 0, "lon": -76.98716083333333, "fusion_lon": 0.0, "is_disabled": 0, "fusion_lat": 0.0, "bike_id": "02e7e6b0e8589774344872fbb311991f", "rental_uris": {"ios": "https://dc.lft.to/lastmile_qr_scan", "android": "https://dc.lft.to/lastmile_qr_scan"}}, {"name": "a0ebdf5ea27d653174dea1c9fb27900d", "type": "electric_scooter", "lat": 38.9205665, "is_reserved": 0, "lon": -77.0334825, "fusion_lon": 0.0, "is_disabled": 0, "fusion_lat": 0.0, "bike_id": "a0ebdf5ea27d653174dea1c9fb27900d", "rental_uris": {"ios": "https://dc.lft.to/lastmile_qr_scan", "android": "https://dc.lft.to/lastmile_qr_scan"}}, {"name": "9da2954db37b7ff90ce1d0d210f31537", "type": "electric_scooter", "lat": 38.902789166666665, "is_reserved": 0, "lon": -77.0383735, "fusion_lon": 0.0, "is_disabled": 0, "fusion_lat": 0.0, "bike_id": "9da2954db37b7ff90ce1d0d210f31537", "rental_uris": {"ios": "https://dc.lft.to/lastmile_qr_scan", "android": "https://dc.lft.to/lastmile_qr_scan"}}, {"name": "29c0b934fd96b0383415c2b56725bab0", "type": "electric_scooter", "lat": 38.899550166666664, "is_reserved": 0, "lon": -77.0316555, "fusion_lon": 0.0, "is_disabled": 0, "fusion_lat": 0.0, "bike_id": "29c0b934fd96b0383415c2b56725bab0", "rental_uris": {"ios": "https://dc.lft.to/lastmile_qr_scan", "android": "https://dc.lft.to/lastmile_qr_scan"}}, {"name": "241d114684cdcb6778d73ebd5988bba1", "type": "electric_scooter", "lat": 38.93975533333333, "is_reserved": 0, "lon": -77.02890266666667, "fusion_lon": 0.0, "is_disabled": 0, "fusion_lat": 0.0, "bike_id": "241d114684cdcb6778d73ebd5988bba1", "rental_uris": {"ios": "https://dc.lft.to/lastmile_qr_scan", "android": "https://dc.lft.to/lastmile_qr_scan"}}, {"name": "62ab2fc95c1364ea17adfb14710021ea", "type": "electric_bike", "lat": 38.966235, "is_reserved": 0, "lon": -76.97668216666666, "fusion_lon": 0.0, "is_disabled": 0, "fusion_lat": 0.0, "bike_id": "62ab2fc95c1364ea17adfb14710021ea", "rental_uris": {"ios": "https://dc.lft.to/lastmile_qr_scan", "android": "https://dc.lft.to/lastmile_qr_scan"}}, {"name": "e35947d8486019ddbabecc76a90862c0", "type": "electric_scooter", "lat": 38.92368066666667, "is_reserved": 0, "lon": -77.02121666666666, "fusion_lon": 0.0, "is_disabled": 0, "fusion_lat": 0.0, "bike_id": "e35947d8486019ddbabecc76a90862c0", "rental_uris": {"ios": "https://dc.lft.to/lastmile_qr_scan", "android": "https://dc.lft.to/lastmile_qr_scan"}}, {"name": "11a223360d2e889583dfb07dbf0c9020", "type": "electric_scooter", "lat": 38.91804883333333, "is_reserved": 0, "lon": -77.03111233333334, "fusion_lon": 0.0, "is_disabled": 0, "fusion_lat": 0.0, "bike_id": "11a223360d2e889583dfb07dbf0c9020", "rental_uris": {"ios": "https://dc.lft.to/lastmile_qr_scan", "android": "https://dc.lft.to/lastmile_qr_scan"}}, {"name": "842f8c31dfd597e48570c0f452b5fa52", "type": "electric_scooter", "lat": 38.9199795, "is_reserved": 0, "lon": -76.958101, "fusion_lon": 0.0, "is_disabled": 0, "fusion_lat": 0.0, "bike_id": "842f8c31dfd597e48570c0f452b5fa52", "rental_uris": {"ios": "https://dc.lft.to/lastmile_qr_scan", "android": "https://dc.lft.to/lastmile_qr_scan"}}, {"name": "d0b4dc74f2749a909d4af1ea219b63b0", "type": "electric_scooter", "lat": 38.96228883333333, "is_reserved": 0, "lon": -77.02978066666667, "fusion_lon": 0.0, "is_disabled": 0, "fusion_lat": 0.0, "bike_id": "d0b4dc74f2749a909d4af1ea219b63b0", "rental_uris": {"ios": "https://dc.lft.to/lastmile_qr_scan", "android": "https://dc.lft.to/lastmile_qr_scan"}}, {"name": "bd32358f01b3388a27f459ff9e7459ee", "type": "electric_scooter", "lat": 38.89014266666667, "is_reserved": 0, "lon": -76.93733983333334, "fusion_lon": 0.0, "is_disabled": 0, "fusion_lat": 0.0, "bike_id": "bd32358f01b3388a27f459ff9e7459ee", "rental_uris": {"ios": "https://dc.lft.to/lastmile_qr_scan", "android": "https://dc.lft.to/lastmile_qr_scan"}}, {"name": "40d00b80e6038d48839829ba7e5365a0", "type": "electric_scooter", "lat": 38.8983395, "is_reserved": 0, "lon": -76.9463425, "fusion_lon": 0.0, "is_disabled": 0, "fusion_lat": 0.0, "bike_id": "40d00b80e6038d48839829ba7e5365a0", "rental_uris": {"ios": "https://dc.lft.to/lastmile_qr_scan", "android": "https://dc.lft.to/lastmile_qr_scan"}}, {"name": "d3a0af75f0610e73a1610de9d5177bf0", "type": "electric_scooter", "lat": 38.94973016666667, "is_reserved": 0, "lon": -77.07896383333333, "fusion_lon": 0.0, "is_disabled": 0, "fusion_lat": 0.0, "bike_id": "d3a0af75f0610e73a1610de9d5177bf0", "rental_uris": {"ios": "https://dc.lft.to/lastmile_qr_scan", "android": "https://dc.lft.to/lastmile_qr_scan"}}, {"name": "300f1e366baf9733f12894f8d8ad2004", "type": "electric_scooter", "lat": 38.90264766666667, "is_reserved": 0, "lon": -77.03351883333333, "fusion_lon": 0.0, "is_disabled": 0, "fusion_lat": 0.0, "bike_id": "300f1e366baf9733f12894f8d8ad2004", "rental_uris": {"ios": "https://dc.lft.to/lastmile_qr_scan", "android": "https://dc.lft.to/lastmile_qr_scan"}}, {"name": "dab381b7230720aae5bda6755024d9a4", "type": "electric_scooter", "lat": 38.9037965, "is_reserved": 0, "lon": -77.04465166666667, "fusion_lon": 0.0, "is_disabled": 0, "fusion_lat": 0.0, "bike_id": "dab381b7230720aae5bda6755024d9a4", "rental_uris": {"ios": "https://dc.lft.to/lastmile_qr_scan", "android": "https://dc.lft.to/lastmile_qr_scan"}}, {"name": "b2e39bcd9e375e81921028983c5e29fe", "type": "electric_scooter", "lat": 38.89751316666667, "is_reserved": 0, "lon": -77.02737333333333, "fusion_lon": 0.0, "is_disabled": 0, "fusion_lat": 0.0, "bike_id": "b2e39bcd9e375e81921028983c5e29fe", "rental_uris": {"ios": "https://dc.lft.to/lastmile_qr_scan", "android": "https://dc.lft.to/lastmile_qr_scan"}}, {"name": "63f7673683b43341e4fe645d947bb505", "type": "electric_scooter", "lat": 38.87768483333333, "is_reserved": 0, "lon": -77.00820116666667, "fusion_lon": 0.0, "is_disabled": 0, "fusion_lat": 0.0, "bike_id": "63f7673683b43341e4fe645d947bb505", "rental_uris": {"ios": "https://dc.lft.to/lastmile_qr_scan", "android": "https://dc.lft.to/lastmile_qr_scan"}}, {"name": "7211820bcf0192ca5d214bb420b93438", "type": "electric_scooter", "lat": 38.92375883333333, "is_reserved": 0, "lon": -77.0518035, "fusion_lon": 0.0, "is_disabled": 0, "fusion_lat": 0.0, "bike_id": "7211820bcf0192ca5d214bb420b93438", "rental_uris": {"ios": "https://dc.lft.to/lastmile_qr_scan", "android": "https://dc.lft.to/lastmile_qr_scan"}}, {"name": "d8401542444e9ded2bd9769acad4eb17", "type": "electric_scooter", "lat": 38.842975333333335, "is_reserved": 0, "lon": -76.99951883333334, "fusion_lon": 0.0, "is_disabled": 0, "fusion_lat": 0.0, "bike_id": "d8401542444e9ded2bd9769acad4eb17", "rental_uris": {"ios": "https://dc.lft.to/lastmile_qr_scan", "android": "https://dc.lft.to/lastmile_qr_scan"}}, {"name": "3c417bedefdf4d757cdf7a164c0172bf", "type": "electric_scooter", "lat": 38.933068166666665, "is_reserved": 0, "lon": -77.02801216666667, "fusion_lon": 0.0, "is_disabled": 0, "fusion_lat": 0.0, "bike_id": "3c417bedefdf4d757cdf7a164c0172bf", "rental_uris": {"ios": "https://dc.lft.to/lastmile_qr_scan", "android": "https://dc.lft.to/lastmile_qr_scan"}}, {"name": "da313d861900458cf177cd691d6060d1", "type": "electric_scooter", "lat": 38.91553433333333, "is_reserved": 0, "lon": -77.07274233333334, "fusion_lon": 0.0, "is_disabled": 0, "fusion_lat": 0.0, "bike_id": "da313d861900458cf177cd691d6060d1", "rental_uris": {"ios": "https://dc.lft.to/lastmile_qr_scan", "android": "https://dc.lft.to/lastmile_qr_scan"}}, {"name": "1f1097756b33005a88119112b9dad5fb", "type": "electric_scooter", "lat": 38.90388383333333, "is_reserved": 0, "lon": -77.04207233333334, "fusion_lon": 0.0, "is_disabled": 0, "fusion_lat": 0.0, "bike_id": "1f1097756b33005a88119112b9dad5fb", "rental_uris": {"ios": "https://dc.lft.to/lastmile_qr_scan", "android": "https://dc.lft.to/lastmile_qr_scan"}}, {"name": "b817c882f6969a69a895d6b6c71ffa43", "type": "electric_scooter", "lat": 38.91710333333333, "is_reserved": 0, "lon": -77.0323485, "fusion_lon": 0.0, "is_disabled": 0, "fusion_lat": 0.0, "bike_id": "b817c882f6969a69a895d6b6c71ffa43", "rental_uris": {"ios": "https://dc.lft.to/lastmile_qr_scan", "android": "https://dc.lft.to/lastmile_qr_scan"}}, {"name": "f56db8d43f9681eff18d8abb75b37eea", "type": "electric_bike", "lat": 38.858015, "is_reserved": 0, "lon": -76.98755783333333, "fusion_lon": 0.0, "is_disabled": 0, "fusion_lat": 0.0, "bike_id": "f56db8d43f9681eff18d8abb75b37eea", "rental_uris": {"ios": "https://dc.lft.to/lastmile_qr_scan", "android": "https://dc.lft.to/lastmile_qr_scan"}}, {"name": "ebd3ff7235c373a64ebe0edfd58974fa", "type": "electric_scooter", "lat": 38.96103983333333, "is_reserved": 0, "lon": -77.02818766666667, "fusion_lon": 0.0, "is_disabled": 0, "fusion_lat": 0.0, "bike_id": "ebd3ff7235c373a64ebe0edfd58974fa", "rental_uris": {"ios": "https://dc.lft.to/lastmile_qr_scan", "android": "https://dc.lft.to/lastmile_qr_scan"}}, {"name": "1c493e1990c2d88527f521f7ab97e877", "type": "electric_scooter", "lat": 38.92029183333333, "is_reserved": 0, "lon": -77.01115733333333, "fusion_lon": 0.0, "is_disabled": 0, "fusion_lat": 0.0, "bike_id": "1c493e1990c2d88527f521f7ab97e877", "rental_uris": {"ios": "https://dc.lft.to/lastmile_qr_scan", "android": "https://dc.lft.to/lastmile_qr_scan"}}, {"name": "2f838af5362553674009db155a75c1eb", "type": "electric_scooter", "lat": 38.9105005, "is_reserved": 0, "lon": -77.01688916666667, "fusion_lon": 0.0, "is_disabled": 0, "fusion_lat": 0.0, "bike_id": "2f838af5362553674009db155a75c1eb", "rental_uris": {"ios": "https://dc.lft.to/lastmile_qr_scan", "android": "https://dc.lft.to/lastmile_qr_scan"}}, {"name": "38d2df5c5d1857e745e7cd37abd3b12a", "type": "electric_scooter", "lat": 38.91986383333333, "is_reserved": 0, "lon": -77.04150466666667, "fusion_lon": 0.0, "is_disabled": 0, "fusion_lat": 0.0, "bike_id": "38d2df5c5d1857e745e7cd37abd3b12a", "rental_uris": {"ios": "https://dc.lft.to/lastmile_qr_scan", "android": "https://dc.lft.to/lastmile_qr_scan"}}, {"name": "f0995c1376c869268d73b2ea0f8107a8", "type": "electric_scooter", "lat": 38.93291283333333, "is_reserved": 0, "lon": -77.0363695, "fusion_lon": 0.0, "is_disabled": 0, "fusion_lat": 0.0, "bike_id": "f0995c1376c869268d73b2ea0f8107a8", "rental_uris": {"ios": "https://dc.lft.to/lastmile_qr_scan", "android": "https://dc.lft.to/lastmile_qr_scan"}}, {"name": "422be8174a87ed3e903087ce8e05aa5b", "type": "electric_scooter", "lat": 38.92623733333333, "is_reserved": 0, "lon": -77.03787916666667, "fusion_lon": 0.0, "is_disabled": 0, "fusion_lat": 0.0, "bike_id": "422be8174a87ed3e903087ce8e05aa5b", "rental_uris": {"ios": "https://dc.lft.to/lastmile_qr_scan", "android": "https://dc.lft.to/lastmile_qr_scan"}}, {"name": "b331fe3d4e126aacc14c11dda5d70aba", "type": "electric_scooter", "lat": 38.8934115, "is_reserved": 0, "lon": -76.984591, "fusion_lon": 0.0, "is_disabled": 0, "fusion_lat": 0.0, "bike_id": "b331fe3d4e126aacc14c11dda5d70aba", "rental_uris": {"ios": "https://dc.lft.to/lastmile_qr_scan", "android": "https://dc.lft.to/lastmile_qr_scan"}}, {"name": "95e1a2995d86f670cd8579a39c53785d", "type": "electric_scooter", "lat": 38.90017483333333, "is_reserved": 0, "lon": -76.99121366666667, "fusion_lon": 0.0, "is_disabled": 0, "fusion_lat": 0.0, "bike_id": "95e1a2995d86f670cd8579a39c53785d", "rental_uris": {"ios": "https://dc.lft.to/lastmile_qr_scan", "android": "https://dc.lft.to/lastmile_qr_scan"}}, {"name": "7a512e6aeb9f7bbac904f980216249e0", "type": "electric_scooter", "lat": 38.91334283333333, "is_reserved": 0, "lon": -77.04874533333333, "fusion_lon": 0.0, "is_disabled": 0, "fusion_lat": 0.0, "bike_id": "7a512e6aeb9f7bbac904f980216249e0", "rental_uris": {"ios": "https://dc.lft.to/lastmile_qr_scan", "android": "https://dc.lft.to/lastmile_qr_scan"}}, {"name": "241366623fa537e9f69abfc196a83e5a", "type": "electric_scooter", "lat": 38.925831333333335, "is_reserved": 0, "lon": -77.004699, "fusion_lon": 0.0, "is_disabled": 0, "fusion_lat": 0.0, "bike_id": "241366623fa537e9f69abfc196a83e5a", "rental_uris": {"ios": "https://dc.lft.to/lastmile_qr_scan", "android": "https://dc.lft.to/lastmile_qr_scan"}}, {"name": "04ae385cbd41472e1566b1302d4d20a4", "type": "electric_scooter", "lat": 38.902365, "is_reserved": 0, "lon": -77.04610666666666, "fusion_lon": 0.0, "is_disabled": 0, "fusion_lat": 0.0, "bike_id": "04ae385cbd41472e1566b1302d4d20a4", "rental_uris": {"ios": "https://dc.lft.to/lastmile_qr_scan", "android": "https://dc.lft.to/lastmile_qr_scan"}}, {"name": "166de081ea2496702631f8ea64e4203b", "type": "electric_scooter", "lat": 38.91884666666667, "is_reserved": 0, "lon": -77.01623, "fusion_lon": 0.0, "is_disabled": 0, "fusion_lat": 0.0, "bike_id": "166de081ea2496702631f8ea64e4203b", "rental_uris": {"ios": "https://dc.lft.to/lastmile_qr_scan", "android": "https://dc.lft.to/lastmile_qr_scan"}}, {"name": "2cf70e2038686b9d00bee2049c0612bc", "type": "electric_scooter", "lat": 38.89887483333333, "is_reserved": 0, "lon": -77.03271566666666, "fusion_lon": 0.0, "is_disabled": 0, "fusion_lat": 0.0, "bike_id": "2cf70e2038686b9d00bee2049c0612bc", "rental_uris": {"ios": "https://dc.lft.to/lastmile_qr_scan", "android": "https://dc.lft.to/lastmile_qr_scan"}}, {"name": "1ca6c882ac539a0e674876ae45799d54", "type": "electric_scooter", "lat": 38.9358605, "is_reserved": 0, "lon": -77.02765316666667, "fusion_lon": 0.0, "is_disabled": 0, "fusion_lat": 0.0, "bike_id": "1ca6c882ac539a0e674876ae45799d54", "rental_uris": {"ios": "https://dc.lft.to/lastmile_qr_scan", "android": "https://dc.lft.to/lastmile_qr_scan"}}, {"name": "61022a6b3e750aac273a4006c828e48e", "type": "electric_scooter", "lat": 38.876648833333334, "is_reserved": 0, "lon": -77.00438983333333, "fusion_lon": 0.0, "is_disabled": 0, "fusion_lat": 0.0, "bike_id": "61022a6b3e750aac273a4006c828e48e", "rental_uris": {"ios": "https://dc.lft.to/lastmile_qr_scan", "android": "https://dc.lft.to/lastmile_qr_scan"}}, {"name": "c57ca7687716cfda56edf5782bcbd184", "type": "electric_bike", "lat": 38.853163, "is_reserved": 0, "lon": -76.9802555, "fusion_lon": 0.0, "is_disabled": 0, "fusion_lat": 0.0, "bike_id": "c57ca7687716cfda56edf5782bcbd184", "rental_uris": {"ios": "https://dc.lft.to/lastmile_qr_scan", "android": "https://dc.lft.to/lastmile_qr_scan"}}, {"name": "fb95dbdfdebf65a3bd2b994a1993bf17", "type": "electric_scooter", "lat": 38.904182, "is_reserved": 0, "lon": -77.04847866666667, "fusion_lon": 0.0, "is_disabled": 0, "fusion_lat": 0.0, "bike_id": "fb95dbdfdebf65a3bd2b994a1993bf17", "rental_uris": {"ios": "https://dc.lft.to/lastmile_qr_scan", "android": "https://dc.lft.to/lastmile_qr_scan"}}, {"name": "690de43ce3dee83a92d991efdb70a3ed", "type": "electric_scooter", "lat": 38.88507083333333, "is_reserved": 0, "lon": -77.01552466666666, "fusion_lon": 0.0, "is_disabled": 0, "fusion_lat": 0.0, "bike_id": "690de43ce3dee83a92d991efdb70a3ed", "rental_uris": {"ios": "https://dc.lft.to/lastmile_qr_scan", "android": "https://dc.lft.to/lastmile_qr_scan"}}, {"name": "ea4825d6d888f4809a8dbaf6972ffe83", "type": "electric_scooter", "lat": 38.890290666666665, "is_reserved": 0, "lon": -76.93623466666666, "fusion_lon": 0.0, "is_disabled": 0, "fusion_lat": 0.0, "bike_id": "ea4825d6d888f4809a8dbaf6972ffe83", "rental_uris": {"ios": "https://dc.lft.to/lastmile_qr_scan", "android": "https://dc.lft.to/lastmile_qr_scan"}}, {"name": "7738ac70392d5f08ce0af94a7dcbc0c8", "type": "electric_scooter", "lat": 38.9167705, "is_reserved": 0, "lon": -77.02971183333334, "fusion_lon": 0.0, "is_disabled": 0, "fusion_lat": 0.0, "bike_id": "7738ac70392d5f08ce0af94a7dcbc0c8", "rental_uris": {"ios": "https://dc.lft.to/lastmile_qr_scan", "android": "https://dc.lft.to/lastmile_qr_scan"}}, {"name": "75ee9482215cdbcad2679b74e89c90ab", "type": "electric_scooter", "lat": 38.90453333333333, "is_reserved": 0, "lon": -77.038674, "fusion_lon": 0.0, "is_disabled": 0, "fusion_lat": 0.0, "bike_id": "75ee9482215cdbcad2679b74e89c90ab", "rental_uris": {"ios": "https://dc.lft.to/lastmile_qr_scan", "android": "https://dc.lft.to/lastmile_qr_scan"}}, {"name": "1ceb0013e7211813d31f7e447585e3af", "type": "electric_scooter", "lat": 38.8836295, "is_reserved": 0, "lon": -77.02451216666667, "fusion_lon": 0.0, "is_disabled": 0, "fusion_lat": 0.0, "bike_id": "1ceb0013e7211813d31f7e447585e3af", "rental_uris": {"ios": "https://dc.lft.to/lastmile_qr_scan", "android": "https://dc.lft.to/lastmile_qr_scan"}}, {"name": "837dbb72267e206f03e6c7d9a7bb55b9", "type": "electric_scooter", "lat": 38.928514666666665, "is_reserved": 0, "lon": -77.032835, "fusion_lon": 0.0, "is_disabled": 0, "fusion_lat": 0.0, "bike_id": "837dbb72267e206f03e6c7d9a7bb55b9", "rental_uris": {"ios": "https://dc.lft.to/lastmile_qr_scan", "android": "https://dc.lft.to/lastmile_qr_scan"}}, {"name": "8c8fa79af14f5454b73f7f3645b925c7", "type": "electric_scooter", "lat": 38.90256766666667, "is_reserved": 0, "lon": -77.03165033333333, "fusion_lon": 0.0, "is_disabled": 0, "fusion_lat": 0.0, "bike_id": "8c8fa79af14f5454b73f7f3645b925c7", "rental_uris": {"ios": "https://dc.lft.to/lastmile_qr_scan", "android": "https://dc.lft.to/lastmile_qr_scan"}}, {"name": "07e5af0096dad58ca72c338ed27ec209", "type": "electric_scooter", "lat": 38.923619333333335, "is_reserved": 0, "lon": -77.05228366666667, "fusion_lon": 0.0, "is_disabled": 0, "fusion_lat": 0.0, "bike_id": "07e5af0096dad58ca72c338ed27ec209", "rental_uris": {"ios": "https://dc.lft.to/lastmile_qr_scan", "android": "https://dc.lft.to/lastmile_qr_scan"}}, {"name": "75116ee7bbc785a372bd4573d496f122", "type": "electric_scooter", "lat": 38.924183666666664, "is_reserved": 0, "lon": -77.0195025, "fusion_lon": 0.0, "is_disabled": 0, "fusion_lat": 0.0, "bike_id": "75116ee7bbc785a372bd4573d496f122", "rental_uris": {"ios": "https://dc.lft.to/lastmile_qr_scan", "android": "https://dc.lft.to/lastmile_qr_scan"}}, {"name": "a4551ef5081cc38178fb8784e91de8bd", "type": "electric_scooter", "lat": 38.925673833333335, "is_reserved": 0, "lon": -77.04049766666667, "fusion_lon": 0.0, "is_disabled": 0, "fusion_lat": 0.0, "bike_id": "a4551ef5081cc38178fb8784e91de8bd", "rental_uris": {"ios": "https://dc.lft.to/lastmile_qr_scan", "android": "https://dc.lft.to/lastmile_qr_scan"}}, {"name": "83b814f56ee3eb07262ff7cc3ac979e3", "type": "electric_scooter", "lat": 38.88596733333333, "is_reserved": 0, "lon": -76.95421916666666, "fusion_lon": 0.0, "is_disabled": 0, "fusion_lat": 0.0, "bike_id": "83b814f56ee3eb07262ff7cc3ac979e3", "rental_uris": {"ios": "https://dc.lft.to/lastmile_qr_scan", "android": "https://dc.lft.to/lastmile_qr_scan"}}, {"name": "6f1b493e05ab0c02e69f13e3fe80d491", "type": "electric_scooter", "lat": 38.92409166666667, "is_reserved": 0, "lon": -77.05257666666667, "fusion_lon": 0.0, "is_disabled": 0, "fusion_lat": 0.0, "bike_id": "6f1b493e05ab0c02e69f13e3fe80d491", "rental_uris": {"ios": "https://dc.lft.to/lastmile_qr_scan", "android": "https://dc.lft.to/lastmile_qr_scan"}}, {"name": "2a6a10eba0cf62247f8b586aa82c26ea", "type": "electric_bike", "lat": 38.92851866666667, "is_reserved": 0, "lon": -77.10681516666666, "fusion_lon": 0.0, "is_disabled": 0, "fusion_lat": 0.0, "bike_id": "2a6a10eba0cf62247f8b586aa82c26ea", "rental_uris": {"ios": "https://dc.lft.to/lastmile_qr_scan", "android": "https://dc.lft.to/lastmile_qr_scan"}}, {"name": "ce397fc72ba071610d9a55c53964d43d", "type": "electric_scooter", "lat": 38.91802216666667, "is_reserved": 0, "lon": -77.03188316666666, "fusion_lon": 0.0, "is_disabled": 0, "fusion_lat": 0.0, "bike_id": "ce397fc72ba071610d9a55c53964d43d", "rental_uris": {"ios": "https://dc.lft.to/lastmile_qr_scan", "android": "https://dc.lft.to/lastmile_qr_scan"}}, {"name": "8b1a09c98430b9c2c407bcf7a621874f", "type": "electric_scooter", "lat": 38.9223485, "is_reserved": 0, "lon": -77.01004083333333, "fusion_lon": 0.0, "is_disabled": 0, "fusion_lat": 0.0, "bike_id": "8b1a09c98430b9c2c407bcf7a621874f", "rental_uris": {"ios": "https://dc.lft.to/lastmile_qr_scan", "android": "https://dc.lft.to/lastmile_qr_scan"}}, {"name": "69abfd04a1e8f300b3eabd93762f3443", "type": "electric_scooter", "lat": 38.896026666666664, "is_reserved": 0, "lon": -77.02832783333334, "fusion_lon": 0.0, "is_disabled": 0, "fusion_lat": 0.0, "bike_id": "69abfd04a1e8f300b3eabd93762f3443", "rental_uris": {"ios": "https://dc.lft.to/lastmile_qr_scan", "android": "https://dc.lft.to/lastmile_qr_scan"}}, {"name": "df9f61cfe616a19dbb287b6460073070", "type": "electric_scooter", "lat": 38.898516, "is_reserved": 0, "lon": -77.03340483333334, "fusion_lon": 0.0, "is_disabled": 0, "fusion_lat": 0.0, "bike_id": "df9f61cfe616a19dbb287b6460073070", "rental_uris": {"ios": "https://dc.lft.to/lastmile_qr_scan", "android": "https://dc.lft.to/lastmile_qr_scan"}}, {"name": "6ed7579f4d2a78214c4f7b28df6865bc", "type": "electric_scooter", "lat": 38.9085065, "is_reserved": 0, "lon": -77.04419133333333, "fusion_lon": 0.0, "is_disabled": 0, "fusion_lat": 0.0, "bike_id": "6ed7579f4d2a78214c4f7b28df6865bc", "rental_uris": {"ios": "https://dc.lft.to/lastmile_qr_scan", "android": "https://dc.lft.to/lastmile_qr_scan"}}, {"name": "5ddb618343fb23a0fa7dcb288e98c4b2", "type": "electric_scooter", "lat": 38.91708833333333, "is_reserved": 0, "lon": -77.03864883333334, "fusion_lon": 0.0, "is_disabled": 0, "fusion_lat": 0.0, "bike_id": "5ddb618343fb23a0fa7dcb288e98c4b2", "rental_uris": {"ios": "https://dc.lft.to/lastmile_qr_scan", "android": "https://dc.lft.to/lastmile_qr_scan"}}, {"name": "d1fce1a92c1578c55aa6085416b83b7d", "type": "electric_bike", "lat": 38.869058, "is_reserved": 0, "lon": -77.13184583333333, "fusion_lon": 0.0, "is_disabled": 0, "fusion_lat": 0.0, "bike_id": "d1fce1a92c1578c55aa6085416b83b7d", "rental_uris": {"ios": "https://dc.lft.to/lastmile_qr_scan", "android": "https://dc.lft.to/lastmile_qr_scan"}}, {"name": "96bb5038945664f06928d3ac071b82f5", "type": "electric_scooter", "lat": 38.902758166666665, "is_reserved": 0, "lon": -77.05913533333333, "fusion_lon": 0.0, "is_disabled": 0, "fusion_lat": 0.0, "bike_id": "96bb5038945664f06928d3ac071b82f5", "rental_uris": {"ios": "https://dc.lft.to/lastmile_qr_scan", "android": "https://dc.lft.to/lastmile_qr_scan"}}, {"name": "074f95251e22f207799cf6c8eba40337", "type": "electric_scooter", "lat": 38.92903316666667, "is_reserved": 0, "lon": -77.03178916666667, "fusion_lon": 0.0, "is_disabled": 0, "fusion_lat": 0.0, "bike_id": "074f95251e22f207799cf6c8eba40337", "rental_uris": {"ios": "https://dc.lft.to/lastmile_qr_scan", "android": "https://dc.lft.to/lastmile_qr_scan"}}, {"name": "dec28d5eaa60355f638aa549657acd02", "type": "electric_scooter", "lat": 38.904826666666665, "is_reserved": 0, "lon": -77.0437075, "fusion_lon": 0.0, "is_disabled": 0, "fusion_lat": 0.0, "bike_id": "dec28d5eaa60355f638aa549657acd02", "rental_uris": {"ios": "https://dc.lft.to/lastmile_qr_scan", "android": "https://dc.lft.to/lastmile_qr_scan"}}, {"name": "8f5c1b948fe37cbc11401ee49ad2292b", "type": "electric_scooter", "lat": 38.922462833333334, "is_reserved": 0, "lon": -77.03066416666667, "fusion_lon": 0.0, "is_disabled": 0, "fusion_lat": 0.0, "bike_id": "8f5c1b948fe37cbc11401ee49ad2292b", "rental_uris": {"ios": "https://dc.lft.to/lastmile_qr_scan", "android": "https://dc.lft.to/lastmile_qr_scan"}}, {"name": "84a01920ef3092b064568e107b9e640a", "type": "electric_scooter", "lat": 38.903424666666666, "is_reserved": 0, "lon": -77.02608033333334, "fusion_lon": 0.0, "is_disabled": 0, "fusion_lat": 0.0, "bike_id": "84a01920ef3092b064568e107b9e640a", "rental_uris": {"ios": "https://dc.lft.to/lastmile_qr_scan", "android": "https://dc.lft.to/lastmile_qr_scan"}}, {"name": "3aa4fa590d3d4c2a9d2d1bc2ea72e73f", "type": "electric_scooter", "lat": 38.90658333333333, "is_reserved": 0, "lon": -77.0385715, "fusion_lon": 0.0, "is_disabled": 0, "fusion_lat": 0.0, "bike_id": "3aa4fa590d3d4c2a9d2d1bc2ea72e73f", "rental_uris": {"ios": "https://dc.lft.to/lastmile_qr_scan", "android": "https://dc.lft.to/lastmile_qr_scan"}}, {"name": "44431d4176c9404c28aed8f871f458d4", "type": "electric_scooter", "lat": 38.89620733333334, "is_reserved": 0, "lon": -76.99848466666667, "fusion_lon": 0.0, "is_disabled": 0, "fusion_lat": 0.0, "bike_id": "44431d4176c9404c28aed8f871f458d4", "rental_uris": {"ios": "https://dc.lft.to/lastmile_qr_scan", "android": "https://dc.lft.to/lastmile_qr_scan"}}, {"name": "846a0302eee76bf6f808b9ee6dee75e9", "type": "electric_scooter", "lat": 38.92653283333333, "is_reserved": 0, "lon": -77.03850566666667, "fusion_lon": 0.0, "is_disabled": 0, "fusion_lat": 0.0, "bike_id": "846a0302eee76bf6f808b9ee6dee75e9", "rental_uris": {"ios": "https://dc.lft.to/lastmile_qr_scan", "android": "https://dc.lft.to/lastmile_qr_scan"}}, {"name": "1fbc1b3c352326b0af3932be0a228c29", "type": "electric_scooter", "lat": 38.9064195, "is_reserved": 0, "lon": -77.011431, "fusion_lon": 0.0, "is_disabled": 0, "fusion_lat": 0.0, "bike_id": "1fbc1b3c352326b0af3932be0a228c29", "rental_uris": {"ios": "https://dc.lft.to/lastmile_qr_scan", "android": "https://dc.lft.to/lastmile_qr_scan"}}, {"name": "64eedd962cd91954e46397a85e524c01", "type": "electric_scooter", "lat": 38.906828833333336, "is_reserved": 0, "lon": -77.01344016666667, "fusion_lon": 0.0, "is_disabled": 0, "fusion_lat": 0.0, "bike_id": "64eedd962cd91954e46397a85e524c01", "rental_uris": {"ios": "https://dc.lft.to/lastmile_qr_scan", "android": "https://dc.lft.to/lastmile_qr_scan"}}, {"name": "a21423953a089efc78de5db47c3415f1", "type": "electric_scooter", "lat": 38.907212, "is_reserved": 0, "lon": -77.04344883333333, "fusion_lon": 0.0, "is_disabled": 0, "fusion_lat": 0.0, "bike_id": "a21423953a089efc78de5db47c3415f1", "rental_uris": {"ios": "https://dc.lft.to/lastmile_qr_scan", "android": "https://dc.lft.to/lastmile_qr_scan"}}, {"name": "d847f01cfde80dc40985296f8d504e1c", "type": "electric_scooter", "lat": 38.89221516666667, "is_reserved": 0, "lon": -77.04264966666666, "fusion_lon": 0.0, "is_disabled": 0, "fusion_lat": 0.0, "bike_id": "d847f01cfde80dc40985296f8d504e1c", "rental_uris": {"ios": "https://dc.lft.to/lastmile_qr_scan", "android": "https://dc.lft.to/lastmile_qr_scan"}}, {"name": "8d31c015cd809c1a86936d98a96ee1a5", "type": "electric_scooter", "lat": 38.9325645, "is_reserved": 0, "lon": -77.03282433333334, "fusion_lon": 0.0, "is_disabled": 0, "fusion_lat": 0.0, "bike_id": "8d31c015cd809c1a86936d98a96ee1a5", "rental_uris": {"ios": "https://dc.lft.to/lastmile_qr_scan", "android": "https://dc.lft.to/lastmile_qr_scan"}}, {"name": "c8ef5d187095314fe995959f206411b8", "type": "electric_scooter", "lat": 38.9107885, "is_reserved": 0, "lon": -77.044783, "fusion_lon": 0.0, "is_disabled": 0, "fusion_lat": 0.0, "bike_id": "c8ef5d187095314fe995959f206411b8", "rental_uris": {"ios": "https://dc.lft.to/lastmile_qr_scan", "android": "https://dc.lft.to/lastmile_qr_scan"}}, {"name": "9dc97126e866f8a8509f240ff9571c80", "type": "electric_scooter", "lat": 38.941768833333334, "is_reserved": 0, "lon": -77.03094966666667, "fusion_lon": 0.0, "is_disabled": 0, "fusion_lat": 0.0, "bike_id": "9dc97126e866f8a8509f240ff9571c80", "rental_uris": {"ios": "https://dc.lft.to/lastmile_qr_scan", "android": "https://dc.lft.to/lastmile_qr_scan"}}, {"name": "995046212d0d45d28e5fa12a33a1f0f0", "type": "electric_scooter", "lat": 38.902276, "is_reserved": 0, "lon": -77.029031, "fusion_lon": 0.0, "is_disabled": 0, "fusion_lat": 0.0, "bike_id": "995046212d0d45d28e5fa12a33a1f0f0", "rental_uris": {"ios": "https://dc.lft.to/lastmile_qr_scan", "android": "https://dc.lft.to/lastmile_qr_scan"}}, {"name": "b9b06912dacba2a40da9b2fa76b8db22", "type": "electric_scooter", "lat": 38.92317666666667, "is_reserved": 0, "lon": -77.040252, "fusion_lon": 0.0, "is_disabled": 0, "fusion_lat": 0.0, "bike_id": "b9b06912dacba2a40da9b2fa76b8db22", "rental_uris": {"ios": "https://dc.lft.to/lastmile_qr_scan", "android": "https://dc.lft.to/lastmile_qr_scan"}}, {"name": "da1bf9a186ba6d534f958dfd1ddf6c4b", "type": "electric_scooter", "lat": 38.907968, "is_reserved": 0, "lon": -76.997042, "fusion_lon": 0.0, "is_disabled": 0, "fusion_lat": 0.0, "bike_id": "da1bf9a186ba6d534f958dfd1ddf6c4b", "rental_uris": {"ios": "https://dc.lft.to/lastmile_qr_scan", "android": "https://dc.lft.to/lastmile_qr_scan"}}, {"name": "933aed947b746f4839da38452443360c", "type": "electric_scooter", "lat": 38.92102533333333, "is_reserved": 0, "lon": -76.99384683333334, "fusion_lon": 0.0, "is_disabled": 0, "fusion_lat": 0.0, "bike_id": "933aed947b746f4839da38452443360c", "rental_uris": {"ios": "https://dc.lft.to/lastmile_qr_scan", "android": "https://dc.lft.to/lastmile_qr_scan"}}, {"name": "0b82e40e1c5fa87d535e118ac6262ee5", "type": "electric_bike", "lat": 38.854370333333335, "is_reserved": 0, "lon": -77.117054, "fusion_lon": 0.0, "is_disabled": 0, "fusion_lat": 0.0, "bike_id": "0b82e40e1c5fa87d535e118ac6262ee5", "rental_uris": {"ios": "https://dc.lft.to/lastmile_qr_scan", "android": "https://dc.lft.to/lastmile_qr_scan"}}, {"name": "1e15a8dbae1fb6e0e0e9450d3621a341", "type": "electric_scooter", "lat": 38.8952785, "is_reserved": 0, "lon": -77.0161105, "fusion_lon": 0.0, "is_disabled": 0, "fusion_lat": 0.0, "bike_id": "1e15a8dbae1fb6e0e0e9450d3621a341", "rental_uris": {"ios": "https://dc.lft.to/lastmile_qr_scan", "android": "https://dc.lft.to/lastmile_qr_scan"}}, {"name": "19be44d8d2ea033e325809f3c3039a55", "type": "electric_scooter", "lat": 38.8995945, "is_reserved": 0, "lon": -77.05054566666666, "fusion_lon": 0.0, "is_disabled": 0, "fusion_lat": 0.0, "bike_id": "19be44d8d2ea033e325809f3c3039a55", "rental_uris": {"ios": "https://dc.lft.to/lastmile_qr_scan", "android": "https://dc.lft.to/lastmile_qr_scan"}}, {"name": "e3b31e778eb899e8f8bb48fa092aa318", "type": "electric_scooter", "lat": 38.935022333333336, "is_reserved": 0, "lon": -77.02858583333334, "fusion_lon": 0.0, "is_disabled": 0, "fusion_lat": 0.0, "bike_id": "e3b31e778eb899e8f8bb48fa092aa318", "rental_uris": {"ios": "https://dc.lft.to/lastmile_qr_scan", "android": "https://dc.lft.to/lastmile_qr_scan"}}, {"name": "20a00e6397f53bf3377824a661dc19c0", "type": "electric_scooter", "lat": 38.88511333333334, "is_reserved": 0, "lon": -77.0210535, "fusion_lon": 0.0, "is_disabled": 0, "fusion_lat": 0.0, "bike_id": "20a00e6397f53bf3377824a661dc19c0", "rental_uris": {"ios": "https://dc.lft.to/lastmile_qr_scan", "android": "https://dc.lft.to/lastmile_qr_scan"}}, {"name": "c9bd8dffa40ea32757c5e4c04d5b7886", "type": "electric_scooter", "lat": 38.921245666666664, "is_reserved": 0, "lon": -77.010191, "fusion_lon": 0.0, "is_disabled": 0, "fusion_lat": 0.0, "bike_id": "c9bd8dffa40ea32757c5e4c04d5b7886", "rental_uris": {"ios": "https://dc.lft.to/lastmile_qr_scan", "android": "https://dc.lft.to/lastmile_qr_scan"}}, {"name": "84b091610953c1eb8ce9fd23c47eca46", "type": "electric_scooter", "lat": 38.909688333333335, "is_reserved": 0, "lon": -77.0171115, "fusion_lon": 0.0, "is_disabled": 0, "fusion_lat": 0.0, "bike_id": "84b091610953c1eb8ce9fd23c47eca46", "rental_uris": {"ios": "https://dc.lft.to/lastmile_qr_scan", "android": "https://dc.lft.to/lastmile_qr_scan"}}, {"name": "45f254e9155c1dff77ce9b03fcd8d135", "type": "electric_scooter", "lat": 38.9046675, "is_reserved": 0, "lon": -77.0600705, "fusion_lon": 0.0, "is_disabled": 0, "fusion_lat": 0.0, "bike_id": "45f254e9155c1dff77ce9b03fcd8d135", "rental_uris": {"ios": "https://dc.lft.to/lastmile_qr_scan", "android": "https://dc.lft.to/lastmile_qr_scan"}}, {"name": "2d94861d740077d28c516e0a89b409d6", "type": "electric_scooter", "lat": 38.90210666666667, "is_reserved": 0, "lon": -77.05034, "fusion_lon": 0.0, "is_disabled": 0, "fusion_lat": 0.0, "bike_id": "2d94861d740077d28c516e0a89b409d6", "rental_uris": {"ios": "https://dc.lft.to/lastmile_qr_scan", "android": "https://dc.lft.to/lastmile_qr_scan"}}, {"name": "ca5c38f53ba675d865c35fdebf885d24", "type": "electric_bike", "lat": 39.03043783333333, "is_reserved": 0, "lon": -77.09480816666667, "fusion_lon": 0.0, "is_disabled": 0, "fusion_lat": 0.0, "bike_id": "ca5c38f53ba675d865c35fdebf885d24", "rental_uris": {"ios": "https://dc.lft.to/lastmile_qr_scan", "android": "https://dc.lft.to/lastmile_qr_scan"}}, {"name": "f13d7ac2f7aaeedc5b16cf7dfeb10354", "type": "electric_scooter", "lat": 38.90134583333333, "is_reserved": 0, "lon": -76.99801216666667, "fusion_lon": 0.0, "is_disabled": 0, "fusion_lat": 0.0, "bike_id": "f13d7ac2f7aaeedc5b16cf7dfeb10354", "rental_uris": {"ios": "https://dc.lft.to/lastmile_qr_scan", "android": "https://dc.lft.to/lastmile_qr_scan"}}, {"name": "dd1c45cf6032f29a141351ea1e690f99", "type": "electric_scooter", "lat": 38.92105983333333, "is_reserved": 0, "lon": -77.04226616666666, "fusion_lon": 0.0, "is_disabled": 0, "fusion_lat": 0.0, "bike_id": "dd1c45cf6032f29a141351ea1e690f99", "rental_uris": {"ios": "https://dc.lft.to/lastmile_qr_scan", "android": "https://dc.lft.to/lastmile_qr_scan"}}, {"name": "6ddc1e3f78167fffdb5e5bd70c14e8a8", "type": "electric_bike", "lat": 38.9030795, "is_reserved": 0, "lon": -77.022136, "fusion_lon": 0.0, "is_disabled": 0, "fusion_lat": 0.0, "bike_id": "6ddc1e3f78167fffdb5e5bd70c14e8a8", "rental_uris": {"ios": "https://dc.lft.to/lastmile_qr_scan", "android": "https://dc.lft.to/lastmile_qr_scan"}}, {"name": "8044837ebde18b51ccaab5e6fbd16415", "type": "electric_scooter", "lat": 38.931104833333336, "is_reserved": 0, "lon": -77.03843316666666, "fusion_lon": 0.0, "is_disabled": 0, "fusion_lat": 0.0, "bike_id": "8044837ebde18b51ccaab5e6fbd16415", "rental_uris": {"ios": "https://dc.lft.to/lastmile_qr_scan", "android": "https://dc.lft.to/lastmile_qr_scan"}}, {"name": "9bdf9a96e59b785cffb5fb6f952511a7", "type": "electric_bike", "lat": 38.970610666666666, "is_reserved": 0, "lon": -76.93614916666667, "fusion_lon": 0.0, "is_disabled": 0, "fusion_lat": 0.0, "bike_id": "9bdf9a96e59b785cffb5fb6f952511a7", "rental_uris": {"ios": "https://dc.lft.to/lastmile_qr_scan", "android": "https://dc.lft.to/lastmile_qr_scan"}}, {"name": "de7d1c1c5b2286afac538bcf1af5edbb", "type": "electric_bike", "lat": 38.896322166666664, "is_reserved": 0, "lon": -77.02955866666667, "fusion_lon": 0.0, "is_disabled": 0, "fusion_lat": 0.0, "bike_id": "de7d1c1c5b2286afac538bcf1af5edbb", "rental_uris": {"ios": "https://dc.lft.to/lastmile_qr_scan", "android": "https://dc.lft.to/lastmile_qr_scan"}}, {"name": "bba4f0a8073b309841e1c55f8a34f9b0", "type": "electric_scooter", "lat": 38.90808766666667, "is_reserved": 0, "lon": -77.036805, "fusion_lon": 0.0, "is_disabled": 0, "fusion_lat": 0.0, "bike_id": "bba4f0a8073b309841e1c55f8a34f9b0", "rental_uris": {"ios": "https://dc.lft.to/lastmile_qr_scan", "android": "https://dc.lft.to/lastmile_qr_scan"}}, {"name": "ea79a120f385484324d52d4d4785388d", "type": "electric_bike", "lat": 38.86984283333334, "is_reserved": 0, "lon": -76.95992233333334, "fusion_lon": 0.0, "is_disabled": 0, "fusion_lat": 0.0, "bike_id": "ea79a120f385484324d52d4d4785388d", "rental_uris": {"ios": "https://dc.lft.to/lastmile_qr_scan", "android": "https://dc.lft.to/lastmile_qr_scan"}}, {"name": "e032ee0b426035d69e734df043dbe56f", "type": "electric_bike", "lat": 38.985007833333334, "is_reserved": 0, "lon": -76.98201983333334, "fusion_lon": 0.0, "is_disabled": 0, "fusion_lat": 0.0, "bike_id": "e032ee0b426035d69e734df043dbe56f", "rental_uris": {"ios": "https://dc.lft.to/lastmile_qr_scan", "android": "https://dc.lft.to/lastmile_qr_scan"}}, {"name": "71a158c7ce47caa96274bf6e9aa4c9ce", "type": "electric_scooter", "lat": 38.93238316666667, "is_reserved": 0, "lon": -77.03829016666667, "fusion_lon": 0.0, "is_disabled": 0, "fusion_lat": 0.0, "bike_id": "71a158c7ce47caa96274bf6e9aa4c9ce", "rental_uris": {"ios": "https://dc.lft.to/lastmile_qr_scan", "android": "https://dc.lft.to/lastmile_qr_scan"}}, {"name": "793bde6895918c335eeb4c9e29fd8e40", "type": "electric_scooter", "lat": 38.90064383333333, "is_reserved": 0, "lon": -76.98710866666667, "fusion_lon": 0.0, "is_disabled": 0, "fusion_lat": 0.0, "bike_id": "793bde6895918c335eeb4c9e29fd8e40", "rental_uris": {"ios": "https://dc.lft.to/lastmile_qr_scan", "android": "https://dc.lft.to/lastmile_qr_scan"}}, {"name": "23aaac5c85fe396380da24a732492150", "type": "electric_scooter", "lat": 38.884896499999996, "is_reserved": 0, "lon": -77.007081, "fusion_lon": 0.0, "is_disabled": 0, "fusion_lat": 0.0, "bike_id": "23aaac5c85fe396380da24a732492150", "rental_uris": {"ios": "https://dc.lft.to/lastmile_qr_scan", "android": "https://dc.lft.to/lastmile_qr_scan"}}, {"name": "fe4d0ff78b34295a7ba012eb52a9272b", "type": "electric_scooter", "lat": 38.903141833333336, "is_reserved": 0, "lon": -77.03212183333333, "fusion_lon": 0.0, "is_disabled": 0, "fusion_lat": 0.0, "bike_id": "fe4d0ff78b34295a7ba012eb52a9272b", "rental_uris": {"ios": "https://dc.lft.to/lastmile_qr_scan", "android": "https://dc.lft.to/lastmile_qr_scan"}}, {"name": "9ad2ccfffe807fdf7c694e5dbad9d786", "type": "electric_scooter", "lat": 38.90718366666667, "is_reserved": 0, "lon": -77.04025983333334, "fusion_lon": 0.0, "is_disabled": 0, "fusion_lat": 0.0, "bike_id": "9ad2ccfffe807fdf7c694e5dbad9d786", "rental_uris": {"ios": "https://dc.lft.to/lastmile_qr_scan", "android": "https://dc.lft.to/lastmile_qr_scan"}}, {"name": "54964115b85f82f3f5210f3e44d36a44", "type": "electric_scooter", "lat": 38.936162833333334, "is_reserved": 0, "lon": -77.02253733333333, "fusion_lon": 0.0, "is_disabled": 0, "fusion_lat": 0.0, "bike_id": "54964115b85f82f3f5210f3e44d36a44", "rental_uris": {"ios": "https://dc.lft.to/lastmile_qr_scan", "android": "https://dc.lft.to/lastmile_qr_scan"}}, {"name": "d64d639693dc7367ae34b41469de9ed7", "type": "electric_scooter", "lat": 38.88531566666666, "is_reserved": 0, "lon": -77.005797, "fusion_lon": 0.0, "is_disabled": 0, "fusion_lat": 0.0, "bike_id": "d64d639693dc7367ae34b41469de9ed7", "rental_uris": {"ios": "https://dc.lft.to/lastmile_qr_scan", "android": "https://dc.lft.to/lastmile_qr_scan"}}, {"name": "6dacd55dc21b4ff5feb7a706adc13643", "type": "electric_scooter", "lat": 38.89609083333333, "is_reserved": 0, "lon": -77.0455805, "fusion_lon": 0.0, "is_disabled": 0, "fusion_lat": 0.0, "bike_id": "6dacd55dc21b4ff5feb7a706adc13643", "rental_uris": {"ios": "https://dc.lft.to/lastmile_qr_scan", "android": "https://dc.lft.to/lastmile_qr_scan"}}, {"name": "ef31cf0b41082737c4e43d20346c87dd", "type": "electric_bike", "lat": 38.810387, "is_reserved": 0, "lon": -77.08498483333334, "fusion_lon": 0.0, "is_disabled": 0, "fusion_lat": 0.0, "bike_id": "ef31cf0b41082737c4e43d20346c87dd", "rental_uris": {"ios": "https://dc.lft.to/lastmile_qr_scan", "android": "https://dc.lft.to/lastmile_qr_scan"}}, {"name": "ffdd7313365f0cc89e0fd0fbb786dc07", "type": "electric_scooter", "lat": 38.86242716666667, "is_reserved": 0, "lon": -76.99496333333333, "fusion_lon": 0.0, "is_disabled": 0, "fusion_lat": 0.0, "bike_id": "ffdd7313365f0cc89e0fd0fbb786dc07", "rental_uris": {"ios": "https://dc.lft.to/lastmile_qr_scan", "android": "https://dc.lft.to/lastmile_qr_scan"}}, {"name": "791edf3e2ab16a85757dd7676147ccbe", "type": "electric_scooter", "lat": 38.92273083333333, "is_reserved": 0, "lon": -77.0182235, "fusion_lon": 0.0, "is_disabled": 0, "fusion_lat": 0.0, "bike_id": "791edf3e2ab16a85757dd7676147ccbe", "rental_uris": {"ios": "https://dc.lft.to/lastmile_qr_scan", "android": "https://dc.lft.to/lastmile_qr_scan"}}, {"name": "b80a8cf39518258a88b959c8516d6e23", "type": "electric_scooter", "lat": 38.87009666666667, "is_reserved": 0, "lon": -77.012249, "fusion_lon": 0.0, "is_disabled": 0, "fusion_lat": 0.0, "bike_id": "b80a8cf39518258a88b959c8516d6e23", "rental_uris": {"ios": "https://dc.lft.to/lastmile_qr_scan", "android": "https://dc.lft.to/lastmile_qr_scan"}}, {"name": "4d27dbdfa6adb00e9e83fca733f2dac4", "type": "electric_scooter", "lat": 38.94462866666667, "is_reserved": 0, "lon": -77.0065755, "fusion_lon": 0.0, "is_disabled": 0, "fusion_lat": 0.0, "bike_id": "4d27dbdfa6adb00e9e83fca733f2dac4", "rental_uris": {"ios": "https://dc.lft.to/lastmile_qr_scan", "android": "https://dc.lft.to/lastmile_qr_scan"}}, {"name": "b24c54407e4328afa58888433159d77e", "type": "electric_scooter", "lat": 38.86566533333333, "is_reserved": 0, "lon": -76.985502, "fusion_lon": 0.0, "is_disabled": 0, "fusion_lat": 0.0, "bike_id": "b24c54407e4328afa58888433159d77e", "rental_uris": {"ios": "https://dc.lft.to/lastmile_qr_scan", "android": "https://dc.lft.to/lastmile_qr_scan"}}, {"name": "d9da0c652edf97561b1435053932f400", "type": "electric_scooter", "lat": 38.9055155, "is_reserved": 0, "lon": -77.046597, "fusion_lon": 0.0, "is_disabled": 0, "fusion_lat": 0.0, "bike_id": "d9da0c652edf97561b1435053932f400", "rental_uris": {"ios": "https://dc.lft.to/lastmile_qr_scan", "android": "https://dc.lft.to/lastmile_qr_scan"}}, {"name": "0c3ab99a4cde99fda3f85a1bb8d5ff61", "type": "electric_scooter", "lat": 38.917029, "is_reserved": 0, "lon": -77.04174816666666, "fusion_lon": 0.0, "is_disabled": 0, "fusion_lat": 0.0, "bike_id": "0c3ab99a4cde99fda3f85a1bb8d5ff61", "rental_uris": {"ios": "https://dc.lft.to/lastmile_qr_scan", "android": "https://dc.lft.to/lastmile_qr_scan"}}, {"name": "011d828986cf63faaa5df1664faea1e6", "type": "electric_bike", "lat": 38.8226345, "is_reserved": 0, "lon": -77.005581, "fusion_lon": 0.0, "is_disabled": 0, "fusion_lat": 0.0, "bike_id": "011d828986cf63faaa5df1664faea1e6", "rental_uris": {"ios": "https://dc.lft.to/lastmile_qr_scan", "android": "https://dc.lft.to/lastmile_qr_scan"}}, {"name": "6f90bdfdbdcd88e602b2a61e3a9c2ddb", "type": "electric_scooter", "lat": 38.8989095, "is_reserved": 0, "lon": -77.0327895, "fusion_lon": 0.0, "is_disabled": 0, "fusion_lat": 0.0, "bike_id": "6f90bdfdbdcd88e602b2a61e3a9c2ddb", "rental_uris": {"ios": "https://dc.lft.to/lastmile_qr_scan", "android": "https://dc.lft.to/lastmile_qr_scan"}}, {"name": "4e0a5deb971671704a2ef950cc1195ab", "type": "electric_scooter", "lat": 38.92598733333333, "is_reserved": 0, "lon": -77.021298, "fusion_lon": 0.0, "is_disabled": 0, "fusion_lat": 0.0, "bike_id": "4e0a5deb971671704a2ef950cc1195ab", "rental_uris": {"ios": "https://dc.lft.to/lastmile_qr_scan", "android": "https://dc.lft.to/lastmile_qr_scan"}}, {"name": "495a07a42d1854f9a674175f4935e5f5", "type": "electric_scooter", "lat": 38.900535, "is_reserved": 0, "lon": -77.03175466666667, "fusion_lon": 0.0, "is_disabled": 0, "fusion_lat": 0.0, "bike_id": "495a07a42d1854f9a674175f4935e5f5", "rental_uris": {"ios": "https://dc.lft.to/lastmile_qr_scan", "android": "https://dc.lft.to/lastmile_qr_scan"}}, {"name": "e0808f6a4735bb04ab0b65138430dd91", "type": "electric_scooter", "lat": 38.892305, "is_reserved": 0, "lon": -77.05000433333333, "fusion_lon": 0.0, "is_disabled": 0, "fusion_lat": 0.0, "bike_id": "e0808f6a4735bb04ab0b65138430dd91", "rental_uris": {"ios": "https://dc.lft.to/lastmile_qr_scan", "android": "https://dc.lft.to/lastmile_qr_scan"}}, {"name": "70ed2f121964e27560db8b2c0b0dabc3", "type": "electric_scooter", "lat": 38.898590166666665, "is_reserved": 0, "lon": -77.02680983333333, "fusion_lon": 0.0, "is_disabled": 0, "fusion_lat": 0.0, "bike_id": "70ed2f121964e27560db8b2c0b0dabc3", "rental_uris": {"ios": "https://dc.lft.to/lastmile_qr_scan", "android": "https://dc.lft.to/lastmile_qr_scan"}}, {"name": "4283e336ac9ab8aef003899e7b64eb01", "type": "electric_bike", "lat": 38.88641633333334, "is_reserved": 0, "lon": -76.95471733333333, "fusion_lon": 0.0, "is_disabled": 0, "fusion_lat": 0.0, "bike_id": "4283e336ac9ab8aef003899e7b64eb01", "rental_uris": {"ios": "https://dc.lft.to/lastmile_qr_scan", "android": "https://dc.lft.to/lastmile_qr_scan"}}, {"name": "b907e47bf27b72aea700d63cdf7c12fc", "type": "electric_scooter", "lat": 38.9335965, "is_reserved": 0, "lon": -77.05724983333333, "fusion_lon": 0.0, "is_disabled": 0, "fusion_lat": 0.0, "bike_id": "b907e47bf27b72aea700d63cdf7c12fc", "rental_uris": {"ios": "https://dc.lft.to/lastmile_qr_scan", "android": "https://dc.lft.to/lastmile_qr_scan"}}, {"name": "0cb11420c30323178a5f53dee061d1e0", "type": "electric_scooter", "lat": 38.89752683333333, "is_reserved": 0, "lon": -77.027396, "fusion_lon": 0.0, "is_disabled": 0, "fusion_lat": 0.0, "bike_id": "0cb11420c30323178a5f53dee061d1e0", "rental_uris": {"ios": "https://dc.lft.to/lastmile_qr_scan", "android": "https://dc.lft.to/lastmile_qr_scan"}}, {"name": "75b5ec06dd61cbc39f49c021c391e72e", "type": "electric_scooter", "lat": 38.902698, "is_reserved": 0, "lon": -77.0176765, "fusion_lon": 0.0, "is_disabled": 0, "fusion_lat": 0.0, "bike_id": "75b5ec06dd61cbc39f49c021c391e72e", "rental_uris": {"ios": "https://dc.lft.to/lastmile_qr_scan", "android": "https://dc.lft.to/lastmile_qr_scan"}}, {"name": "be27b2921a03db9acb373cf9abbc3407", "type": "electric_scooter", "lat": 38.93359983333333, "is_reserved": 0, "lon": -77.0342645, "fusion_lon": 0.0, "is_disabled": 0, "fusion_lat": 0.0, "bike_id": "be27b2921a03db9acb373cf9abbc3407", "rental_uris": {"ios": "https://dc.lft.to/lastmile_qr_scan", "android": "https://dc.lft.to/lastmile_qr_scan"}}, {"name": "9bd18e8aafbc8504d053cb5d84be1819", "type": "electric_scooter", "lat": 38.88334166666667, "is_reserved": 0, "lon": -77.01772216666667, "fusion_lon": 0.0, "is_disabled": 0, "fusion_lat": 0.0, "bike_id": "9bd18e8aafbc8504d053cb5d84be1819", "rental_uris": {"ios": "https://dc.lft.to/lastmile_qr_scan", "android": "https://dc.lft.to/lastmile_qr_scan"}}, {"name": "770440ccf8a1c1e2d5eb97ecf3a7d0ca", "type": "electric_scooter", "lat": 38.918075333333334, "is_reserved": 0, "lon": -77.03184833333333, "fusion_lon": 0.0, "is_disabled": 0, "fusion_lat": 0.0, "bike_id": "770440ccf8a1c1e2d5eb97ecf3a7d0ca", "rental_uris": {"ios": "https://dc.lft.to/lastmile_qr_scan", "android": "https://dc.lft.to/lastmile_qr_scan"}}, {"name": "f43ea768459580aabeee99e68ea8f537", "type": "electric_bike", "lat": 38.8945665, "is_reserved": 0, "lon": -76.97038066666667, "fusion_lon": 0.0, "is_disabled": 0, "fusion_lat": 0.0, "bike_id": "f43ea768459580aabeee99e68ea8f537", "rental_uris": {"ios": "https://dc.lft.to/lastmile_qr_scan", "android": "https://dc.lft.to/lastmile_qr_scan"}}, {"name": "e5d54727e8395cffc0e11636a5620629", "type": "electric_scooter", "lat": 38.9040215, "is_reserved": 0, "lon": -77.045289, "fusion_lon": 0.0, "is_disabled": 0, "fusion_lat": 0.0, "bike_id": "e5d54727e8395cffc0e11636a5620629", "rental_uris": {"ios": "https://dc.lft.to/lastmile_qr_scan", "android": "https://dc.lft.to/lastmile_qr_scan"}}, {"name": "0141271c2783ea8a6fe6d920beb93b83", "type": "electric_scooter", "lat": 38.929264, "is_reserved": 0, "lon": -77.02007733333333, "fusion_lon": 0.0, "is_disabled": 0, "fusion_lat": 0.0, "bike_id": "0141271c2783ea8a6fe6d920beb93b83", "rental_uris": {"ios": "https://dc.lft.to/lastmile_qr_scan", "android": "https://dc.lft.to/lastmile_qr_scan"}}, {"name": "21a246580d13dedb02e6aee66e4959b3", "type": "electric_scooter", "lat": 38.913332, "is_reserved": 0, "lon": -77.03276833333334, "fusion_lon": 0.0, "is_disabled": 0, "fusion_lat": 0.0, "bike_id": "21a246580d13dedb02e6aee66e4959b3", "rental_uris": {"ios": "https://dc.lft.to/lastmile_qr_scan", "android": "https://dc.lft.to/lastmile_qr_scan"}}, {"name": "3052b4804bfca13f200ae241e849aa64", "type": "electric_bike", "lat": 38.813058, "is_reserved": 0, "lon": -77.050943, "fusion_lon": 0.0, "is_disabled": 0, "fusion_lat": 0.0, "bike_id": "3052b4804bfca13f200ae241e849aa64", "rental_uris": {"ios": "https://dc.lft.to/lastmile_qr_scan", "android": "https://dc.lft.to/lastmile_qr_scan"}}, {"name": "8bb7e8fd4c981430ea39ad581475444f", "type": "electric_scooter", "lat": 38.89559283333333, "is_reserved": 0, "lon": -76.95028183333334, "fusion_lon": 0.0, "is_disabled": 0, "fusion_lat": 0.0, "bike_id": "8bb7e8fd4c981430ea39ad581475444f", "rental_uris": {"ios": "https://dc.lft.to/lastmile_qr_scan", "android": "https://dc.lft.to/lastmile_qr_scan"}}, {"name": "e57de8dac47595d8118d5e4aa769aeb1", "type": "electric_scooter", "lat": 38.92546983333333, "is_reserved": 0, "lon": -77.0226515, "fusion_lon": 0.0, "is_disabled": 0, "fusion_lat": 0.0, "bike_id": "e57de8dac47595d8118d5e4aa769aeb1", "rental_uris": {"ios": "https://dc.lft.to/lastmile_qr_scan", "android": "https://dc.lft.to/lastmile_qr_scan"}}, {"name": "348296e6153bfde0e00bfab11e56f3c9", "type": "electric_scooter", "lat": 38.918641, "is_reserved": 0, "lon": -77.03210283333334, "fusion_lon": 0.0, "is_disabled": 0, "fusion_lat": 0.0, "bike_id": "348296e6153bfde0e00bfab11e56f3c9", "rental_uris": {"ios": "https://dc.lft.to/lastmile_qr_scan", "android": "https://dc.lft.to/lastmile_qr_scan"}}, {"name": "e419aa7deed3e03a559dedb86d490983", "type": "electric_scooter", "lat": 38.862126833333335, "is_reserved": 0, "lon": -76.99471616666666, "fusion_lon": 0.0, "is_disabled": 0, "fusion_lat": 0.0, "bike_id": "e419aa7deed3e03a559dedb86d490983", "rental_uris": {"ios": "https://dc.lft.to/lastmile_qr_scan", "android": "https://dc.lft.to/lastmile_qr_scan"}}, {"name": "c778ffcc58838022be3b47602d7bb806", "type": "electric_scooter", "lat": 38.90258766666667, "is_reserved": 0, "lon": -77.0435605, "fusion_lon": 0.0, "is_disabled": 0, "fusion_lat": 0.0, "bike_id": "c778ffcc58838022be3b47602d7bb806", "rental_uris": {"ios": "https://dc.lft.to/lastmile_qr_scan", "android": "https://dc.lft.to/lastmile_qr_scan"}}, {"name": "02267e7a53ada9794a1092964d9249c5", "type": "electric_scooter", "lat": 38.90272933333333, "is_reserved": 0, "lon": -77.03363033333333, "fusion_lon": 0.0, "is_disabled": 0, "fusion_lat": 0.0, "bike_id": "02267e7a53ada9794a1092964d9249c5", "rental_uris": {"ios": "https://dc.lft.to/lastmile_qr_scan", "android": "https://dc.lft.to/lastmile_qr_scan"}}, {"name": "4ca837afa47039a9c6ff5d0772adec8f", "type": "electric_scooter", "lat": 38.879814, "is_reserved": 0, "lon": -77.02398833333334, "fusion_lon": 0.0, "is_disabled": 0, "fusion_lat": 0.0, "bike_id": "4ca837afa47039a9c6ff5d0772adec8f", "rental_uris": {"ios": "https://dc.lft.to/lastmile_qr_scan", "android": "https://dc.lft.to/lastmile_qr_scan"}}, {"name": "68bc8908e5d1b5646118260fa8450976", "type": "electric_scooter", "lat": 38.9217315, "is_reserved": 0, "lon": -77.02542416666667, "fusion_lon": 0.0, "is_disabled": 0, "fusion_lat": 0.0, "bike_id": "68bc8908e5d1b5646118260fa8450976", "rental_uris": {"ios": "https://dc.lft.to/lastmile_qr_scan", "android": "https://dc.lft.to/lastmile_qr_scan"}}, {"name": "931ddfe321ca7201d23218840ca199fa", "type": "electric_scooter", "lat": 38.90251416666667, "is_reserved": 0, "lon": -77.04616033333333, "fusion_lon": 0.0, "is_disabled": 0, "fusion_lat": 0.0, "bike_id": "931ddfe321ca7201d23218840ca199fa", "rental_uris": {"ios": "https://dc.lft.to/lastmile_qr_scan", "android": "https://dc.lft.to/lastmile_qr_scan"}}, {"name": "6f4f1d4bfbd49c04475d093bc0d33914", "type": "electric_scooter", "lat": 38.894031166666664, "is_reserved": 0, "lon": -76.94804116666667, "fusion_lon": 0.0, "is_disabled": 0, "fusion_lat": 0.0, "bike_id": "6f4f1d4bfbd49c04475d093bc0d33914", "rental_uris": {"ios": "https://dc.lft.to/lastmile_qr_scan", "android": "https://dc.lft.to/lastmile_qr_scan"}}, {"name": "28a8b426075987d77b33c8dc0f6f612e", "type": "electric_scooter", "lat": 38.932030166666664, "is_reserved": 0, "lon": -77.03852516666667, "fusion_lon": 0.0, "is_disabled": 0, "fusion_lat": 0.0, "bike_id": "28a8b426075987d77b33c8dc0f6f612e", "rental_uris": {"ios": "https://dc.lft.to/lastmile_qr_scan", "android": "https://dc.lft.to/lastmile_qr_scan"}}, {"name": "9760c75816f2115f5adcdc6b2f592110", "type": "electric_scooter", "lat": 38.91957, "is_reserved": 0, "lon": -77.03184933333333, "fusion_lon": 0.0, "is_disabled": 0, "fusion_lat": 0.0, "bike_id": "9760c75816f2115f5adcdc6b2f592110", "rental_uris": {"ios": "https://dc.lft.to/lastmile_qr_scan", "android": "https://dc.lft.to/lastmile_qr_scan"}}, {"name": "50cf2f4620ad875ddf3c8fcd2249aa59", "type": "electric_scooter", "lat": 38.940989, "is_reserved": 0, "lon": -77.03282583333333, "fusion_lon": 0.0, "is_disabled": 0, "fusion_lat": 0.0, "bike_id": "50cf2f4620ad875ddf3c8fcd2249aa59", "rental_uris": {"ios": "https://dc.lft.to/lastmile_qr_scan", "android": "https://dc.lft.to/lastmile_qr_scan"}}, {"name": "827d84a7e2ebf018cd9c3f5f09d5218b", "type": "electric_scooter", "lat": 38.8999165, "is_reserved": 0, "lon": -76.994879, "fusion_lon": 0.0, "is_disabled": 0, "fusion_lat": 0.0, "bike_id": "827d84a7e2ebf018cd9c3f5f09d5218b", "rental_uris": {"ios": "https://dc.lft.to/lastmile_qr_scan", "android": "https://dc.lft.to/lastmile_qr_scan"}}, {"name": "d2af2fdc8d0c4372834824bdc16a9e14", "type": "electric_scooter", "lat": 38.905842, "is_reserved": 0, "lon": -77.0385625, "fusion_lon": 0.0, "is_disabled": 0, "fusion_lat": 0.0, "bike_id": "d2af2fdc8d0c4372834824bdc16a9e14", "rental_uris": {"ios": "https://dc.lft.to/lastmile_qr_scan", "android": "https://dc.lft.to/lastmile_qr_scan"}}, {"name": "8908df241d2dfc4a3935a230b30a7778", "type": "electric_scooter", "lat": 38.864171, "is_reserved": 0, "lon": -76.98045733333333, "fusion_lon": 0.0, "is_disabled": 0, "fusion_lat": 0.0, "bike_id": "8908df241d2dfc4a3935a230b30a7778", "rental_uris": {"ios": "https://dc.lft.to/lastmile_qr_scan", "android": "https://dc.lft.to/lastmile_qr_scan"}}, {"name": "5ea269fd33f07373d2d23135df495b78", "type": "electric_scooter", "lat": 38.9244635, "is_reserved": 0, "lon": -77.03371166666666, "fusion_lon": 0.0, "is_disabled": 0, "fusion_lat": 0.0, "bike_id": "5ea269fd33f07373d2d23135df495b78", "rental_uris": {"ios": "https://dc.lft.to/lastmile_qr_scan", "android": "https://dc.lft.to/lastmile_qr_scan"}}, {"name": "154be59baa0f531b7c60c55a37a2cfb4", "type": "electric_scooter", "lat": 38.89532366666667, "is_reserved": 0, "lon": -77.03353466666667, "fusion_lon": 0.0, "is_disabled": 0, "fusion_lat": 0.0, "bike_id": "154be59baa0f531b7c60c55a37a2cfb4", "rental_uris": {"ios": "https://dc.lft.to/lastmile_qr_scan", "android": "https://dc.lft.to/lastmile_qr_scan"}}, {"name": "b6cc9259f11c8ea77de24fcfb764df9c", "type": "electric_scooter", "lat": 38.972367, "is_reserved": 0, "lon": -77.02715683333334, "fusion_lon": 0.0, "is_disabled": 0, "fusion_lat": 0.0, "bike_id": "b6cc9259f11c8ea77de24fcfb764df9c", "rental_uris": {"ios": "https://dc.lft.to/lastmile_qr_scan", "android": "https://dc.lft.to/lastmile_qr_scan"}}, {"name": "d1bba8e45b86121c76f518ff2b603c9a", "type": "electric_bike", "lat": 38.94512066666667, "is_reserved": 0, "lon": -77.00677183333333, "fusion_lon": 0.0, "is_disabled": 0, "fusion_lat": 0.0, "bike_id": "d1bba8e45b86121c76f518ff2b603c9a", "rental_uris": {"ios": "https://dc.lft.to/lastmile_qr_scan", "android": "https://dc.lft.to/lastmile_qr_scan"}}, {"name": "aef20fa31832c817e9e1cdc7ca9c3481", "type": "electric_scooter", "lat": 38.91403533333333, "is_reserved": 0, "lon": -77.0456895, "fusion_lon": 0.0, "is_disabled": 0, "fusion_lat": 0.0, "bike_id": "aef20fa31832c817e9e1cdc7ca9c3481", "rental_uris": {"ios": "https://dc.lft.to/lastmile_qr_scan", "android": "https://dc.lft.to/lastmile_qr_scan"}}, {"name": "82d15bc33619ff994402e4baa469a626", "type": "electric_scooter", "lat": 38.901616, "is_reserved": 0, "lon": -77.03326916666667, "fusion_lon": 0.0, "is_disabled": 0, "fusion_lat": 0.0, "bike_id": "82d15bc33619ff994402e4baa469a626", "rental_uris": {"ios": "https://dc.lft.to/lastmile_qr_scan", "android": "https://dc.lft.to/lastmile_qr_scan"}}, {"name": "1b9f1b45ba16864872cfbe3249181360", "type": "electric_scooter", "lat": 38.85893633333333, "is_reserved": 0, "lon": -76.9669875, "fusion_lon": 0.0, "is_disabled": 0, "fusion_lat": 0.0, "bike_id": "1b9f1b45ba16864872cfbe3249181360", "rental_uris": {"ios": "https://dc.lft.to/lastmile_qr_scan", "android": "https://dc.lft.to/lastmile_qr_scan"}}, {"name": "7615bfe014c06607d2c3f80aa2c7ff91", "type": "electric_scooter", "lat": 38.9244895, "is_reserved": 0, "lon": -77.0203625, "fusion_lon": 0.0, "is_disabled": 0, "fusion_lat": 0.0, "bike_id": "7615bfe014c06607d2c3f80aa2c7ff91", "rental_uris": {"ios": "https://dc.lft.to/lastmile_qr_scan", "android": "https://dc.lft.to/lastmile_qr_scan"}}, {"name": "2c7ead88c68f7279de061d98b3182de7", "type": "electric_scooter", "lat": 38.918067, "is_reserved": 0, "lon": -77.0356055, "fusion_lon": 0.0, "is_disabled": 0, "fusion_lat": 0.0, "bike_id": "2c7ead88c68f7279de061d98b3182de7", "rental_uris": {"ios": "https://dc.lft.to/lastmile_qr_scan", "android": "https://dc.lft.to/lastmile_qr_scan"}}, {"name": "ef0a143ced6a9b7016737685c21675fd", "type": "electric_scooter", "lat": 38.88501383333333, "is_reserved": 0, "lon": -76.9983785, "fusion_lon": 0.0, "is_disabled": 0, "fusion_lat": 0.0, "bike_id": "ef0a143ced6a9b7016737685c21675fd", "rental_uris": {"ios": "https://dc.lft.to/lastmile_qr_scan", "android": "https://dc.lft.to/lastmile_qr_scan"}}, {"name": "d69d12f5528f4b316711b20ad833dfaf", "type": "electric_scooter", "lat": 38.91478383333333, "is_reserved": 0, "lon": -77.0083905, "fusion_lon": 0.0, "is_disabled": 0, "fusion_lat": 0.0, "bike_id": "d69d12f5528f4b316711b20ad833dfaf", "rental_uris": {"ios": "https://dc.lft.to/lastmile_qr_scan", "android": "https://dc.lft.to/lastmile_qr_scan"}}, {"name": "7a8c032841be0e57f67218657f165d8b", "type": "electric_scooter", "lat": 38.896621833333334, "is_reserved": 0, "lon": -77.02812083333333, "fusion_lon": 0.0, "is_disabled": 0, "fusion_lat": 0.0, "bike_id": "7a8c032841be0e57f67218657f165d8b", "rental_uris": {"ios": "https://dc.lft.to/lastmile_qr_scan", "android": "https://dc.lft.to/lastmile_qr_scan"}}, {"name": "4433d31c45e4ea88bb7215f254f541da", "type": "electric_bike", "lat": 39.058174666666666, "is_reserved": 0, "lon": -77.12628133333334, "fusion_lon": 0.0, "is_disabled": 0, "fusion_lat": 0.0, "bike_id": "4433d31c45e4ea88bb7215f254f541da", "rental_uris": {"ios": "https://dc.lft.to/lastmile_qr_scan", "android": "https://dc.lft.to/lastmile_qr_scan"}}, {"name": "34ee08326aced468844dcce583381e25", "type": "electric_scooter", "lat": 38.94182933333333, "is_reserved": 0, "lon": -77.030326, "fusion_lon": 0.0, "is_disabled": 0, "fusion_lat": 0.0, "bike_id": "34ee08326aced468844dcce583381e25", "rental_uris": {"ios": "https://dc.lft.to/lastmile_qr_scan", "android": "https://dc.lft.to/lastmile_qr_scan"}}, {"name": "85c93c6eeddbacbb01d8a3dbb7bfea18", "type": "electric_scooter", "lat": 38.890241, "is_reserved": 0, "lon": -76.93686416666667, "fusion_lon": 0.0, "is_disabled": 0, "fusion_lat": 0.0, "bike_id": "85c93c6eeddbacbb01d8a3dbb7bfea18", "rental_uris": {"ios": "https://dc.lft.to/lastmile_qr_scan", "android": "https://dc.lft.to/lastmile_qr_scan"}}, {"name": "deca366b5df1966e694438d90e3feb92", "type": "electric_scooter", "lat": 38.89890033333333, "is_reserved": 0, "lon": -77.032775, "fusion_lon": 0.0, "is_disabled": 0, "fusion_lat": 0.0, "bike_id": "deca366b5df1966e694438d90e3feb92", "rental_uris": {"ios": "https://dc.lft.to/lastmile_qr_scan", "android": "https://dc.lft.to/lastmile_qr_scan"}}, {"name": "94ecc632119df61f03f3427e9c5cae20", "type": "electric_bike", "lat": 38.846061166666665, "is_reserved": 0, "lon": -76.97834283333333, "fusion_lon": 0.0, "is_disabled": 0, "fusion_lat": 0.0, "bike_id": "94ecc632119df61f03f3427e9c5cae20", "rental_uris": {"ios": "https://dc.lft.to/lastmile_qr_scan", "android": "https://dc.lft.to/lastmile_qr_scan"}}, {"name": "02055eec22ea4de0366c316a7ca55d22", "type": "electric_scooter", "lat": 38.915922, "is_reserved": 0, "lon": -76.98382616666666, "fusion_lon": 0.0, "is_disabled": 0, "fusion_lat": 0.0, "bike_id": "02055eec22ea4de0366c316a7ca55d22", "rental_uris": {"ios": "https://dc.lft.to/lastmile_qr_scan", "android": "https://dc.lft.to/lastmile_qr_scan"}}, {"name": "c206c2596532dac6b878cf3a1931ff5c", "type": "electric_bike", "lat": 38.95289783333333, "is_reserved": 0, "lon": -76.97810166666666, "fusion_lon": 0.0, "is_disabled": 0, "fusion_lat": 0.0, "bike_id": "c206c2596532dac6b878cf3a1931ff5c", "rental_uris": {"ios": "https://dc.lft.to/lastmile_qr_scan", "android": "https://dc.lft.to/lastmile_qr_scan"}}, {"name": "13eabc78a85cd90929b928c5066034c3", "type": "electric_scooter", "lat": 38.9037895, "is_reserved": 0, "lon": -77.01101366666667, "fusion_lon": 0.0, "is_disabled": 0, "fusion_lat": 0.0, "bike_id": "13eabc78a85cd90929b928c5066034c3", "rental_uris": {"ios": "https://dc.lft.to/lastmile_qr_scan", "android": "https://dc.lft.to/lastmile_qr_scan"}}, {"name": "590d69665af12075c3a333401c2f39f4", "type": "electric_scooter", "lat": 38.903379666666666, "is_reserved": 0, "lon": -77.06654916666666, "fusion_lon": 0.0, "is_disabled": 0, "fusion_lat": 0.0, "bike_id": "590d69665af12075c3a333401c2f39f4", "rental_uris": {"ios": "https://dc.lft.to/lastmile_qr_scan", "android": "https://dc.lft.to/lastmile_qr_scan"}}, {"name": "cfb0ab7ef79d1131b3458b62d35a4738", "type": "electric_scooter", "lat": 38.9103605, "is_reserved": 0, "lon": -77.04817183333333, "fusion_lon": 0.0, "is_disabled": 0, "fusion_lat": 0.0, "bike_id": "cfb0ab7ef79d1131b3458b62d35a4738", "rental_uris": {"ios": "https://dc.lft.to/lastmile_qr_scan", "android": "https://dc.lft.to/lastmile_qr_scan"}}, {"name": "ba6e8a6f09dda872999e445a4be27db3", "type": "electric_scooter", "lat": 38.898763333333335, "is_reserved": 0, "lon": -76.9316125, "fusion_lon": 0.0, "is_disabled": 0, "fusion_lat": 0.0, "bike_id": "ba6e8a6f09dda872999e445a4be27db3", "rental_uris": {"ios": "https://dc.lft.to/lastmile_qr_scan", "android": "https://dc.lft.to/lastmile_qr_scan"}}, {"name": "feb6b59488d7defbe501b2dcc923cb58", "type": "electric_scooter", "lat": 38.921470166666666, "is_reserved": 0, "lon": -77.034947, "fusion_lon": 0.0, "is_disabled": 0, "fusion_lat": 0.0, "bike_id": "feb6b59488d7defbe501b2dcc923cb58", "rental_uris": {"ios": "https://dc.lft.to/lastmile_qr_scan", "android": "https://dc.lft.to/lastmile_qr_scan"}}, {"name": "f7425d20e49d5464fcb723d174804f5a", "type": "electric_scooter", "lat": 38.85627433333333, "is_reserved": 0, "lon": -76.97456266666667, "fusion_lon": 0.0, "is_disabled": 0, "fusion_lat": 0.0, "bike_id": "f7425d20e49d5464fcb723d174804f5a", "rental_uris": {"ios": "https://dc.lft.to/lastmile_qr_scan", "android": "https://dc.lft.to/lastmile_qr_scan"}}, {"name": "ec56335484238c78823cafa688695144", "type": "electric_bike", "lat": 38.956244, "is_reserved": 0, "lon": -76.96663283333334, "fusion_lon": 0.0, "is_disabled": 0, "fusion_lat": 0.0, "bike_id": "ec56335484238c78823cafa688695144", "rental_uris": {"ios": "https://dc.lft.to/lastmile_qr_scan", "android": "https://dc.lft.to/lastmile_qr_scan"}}, {"name": "201e3fe2dafa901882a35e486b9d9357", "type": "electric_scooter", "lat": 38.92894166666667, "is_reserved": 0, "lon": -77.05466116666666, "fusion_lon": 0.0, "is_disabled": 0, "fusion_lat": 0.0, "bike_id": "201e3fe2dafa901882a35e486b9d9357", "rental_uris": {"ios": "https://dc.lft.to/lastmile_qr_scan", "android": "https://dc.lft.to/lastmile_qr_scan"}}, {"name": "566e3fcc237e245e523dff462dd222fa", "type": "electric_scooter", "lat": 38.941742, "is_reserved": 0, "lon": -77.04125816666667, "fusion_lon": 0.0, "is_disabled": 0, "fusion_lat": 0.0, "bike_id": "566e3fcc237e245e523dff462dd222fa", "rental_uris": {"ios": "https://dc.lft.to/lastmile_qr_scan", "android": "https://dc.lft.to/lastmile_qr_scan"}}, {"name": "1292ce3d11b0a2fb12982fdcba8c91be", "type": "electric_bike", "lat": 38.998171166666665, "is_reserved": 0, "lon": -76.88371983333333, "fusion_lon": 0.0, "is_disabled": 0, "fusion_lat": 0.0, "bike_id": "1292ce3d11b0a2fb12982fdcba8c91be", "rental_uris": {"ios": "https://dc.lft.to/lastmile_qr_scan", "android": "https://dc.lft.to/lastmile_qr_scan"}}, {"name": "b479905f3e301b5e5003e0fad8fb53e3", "type": "electric_scooter", "lat": 38.91220533333333, "is_reserved": 0, "lon": -77.0760305, "fusion_lon": 0.0, "is_disabled": 0, "fusion_lat": 0.0, "bike_id": "b479905f3e301b5e5003e0fad8fb53e3", "rental_uris": {"ios": "https://dc.lft.to/lastmile_qr_scan", "android": "https://dc.lft.to/lastmile_qr_scan"}}, {"name": "61df159d66473c93dc5352ea88412ac2", "type": "electric_scooter", "lat": 38.905956, "is_reserved": 0, "lon": -77.04042016666666, "fusion_lon": 0.0, "is_disabled": 0, "fusion_lat": 0.0, "bike_id": "61df159d66473c93dc5352ea88412ac2", "rental_uris": {"ios": "https://dc.lft.to/lastmile_qr_scan", "android": "https://dc.lft.to/lastmile_qr_scan"}}, {"name": "8db1ec02ea73b9476260316e4bad057e", "type": "electric_scooter", "lat": 38.939014, "is_reserved": 0, "lon": -77.07726333333333, "fusion_lon": 0.0, "is_disabled": 0, "fusion_lat": 0.0, "bike_id": "8db1ec02ea73b9476260316e4bad057e", "rental_uris": {"ios": "https://dc.lft.to/lastmile_qr_scan", "android": "https://dc.lft.to/lastmile_qr_scan"}}, {"name": "36817eb5524fe7c97850aea8565f843f", "type": "electric_scooter", "lat": 38.933791666666664, "is_reserved": 0, "lon": -77.03467683333334, "fusion_lon": 0.0, "is_disabled": 0, "fusion_lat": 0.0, "bike_id": "36817eb5524fe7c97850aea8565f843f", "rental_uris": {"ios": "https://dc.lft.to/lastmile_qr_scan", "android": "https://dc.lft.to/lastmile_qr_scan"}},