{"data": {"bikes": [{"fusion_lat": 0.0, "type": "electric_scooter", "name": "2e9993d253286f8bd62e7531ee592d4b", "fusion_lon": 0.0, "bike_id": "2e9993d253286f8bd62e7531ee592d4b", "is_reserved": 0, "rental_uris": {"android": "https://dc.lft.to/lastmile_qr_scan", "ios": "https://dc.lft.to/lastmile_qr_scan"}, "lat": 38.911349, "is_disabled": 0, "lon": -77.04409316666667}, {"fusion_lat": 0.0, "type": "electric_scooter", "name": "3091d486459936b91d0593dee12f0df4", "fusion_lon": 0.0, "bike_id": "3091d486459936b91d0593dee12f0df4", "is_reserved": 0, "rental_uris": {"android": "https://dc.lft.to/lastmile_qr_scan", "ios": "https://dc.lft.to/lastmile_qr_scan"}, "lat": 38.941990833333335, "is_disabled": 0, "lon": -77.02506333333334}, {"fusion_lat": 0.0, "type": "electric_scooter", "name": "6ebb1a681ec62020d0a64da4237cce87", "fusion_lon": 0.0, "bike_id": "6ebb1a681ec62020d0a64da4237cce87", "is_reserved": 0, "rental_uris": {"android": "https://dc.lft.to/lastmile_qr_scan", "ios": "https://dc.lft.to/lastmile_qr_scan"}, "lat": 38.86504, "is_disabled": 0, "lon": -76.99002883333333}, {"fusion_lat": 0.0, "type": "electric_bike", "name": "74374fad49921f82f30ed4347ae069cd", "fusion_lon": 0.0, "bike_id": "74374fad49921f82f30ed4347ae069cd", "is_reserved": 0, "rental_uris": {"android": "https://dc.lft.to/lastmile_qr_scan", "ios": "https://dc.lft.to/lastmile_qr_scan"}, "lat": 38.957633666666666, "is_disabled": 0, "lon": -77.00712333333334}, {"fusion_lat": 0.0, "type": "electric_scooter", "name": "9b9bf834b18f70b48bfd113732d0bded", "fusion_lon": 0.0, "bike_id": "9b9bf834b18f70b48bfd113732d0bded", "is_reserved": 0, "rental_uris": {"android": "https://dc.lft.to/lastmile_qr_scan", "ios": "https://dc.lft.to/lastmile_qr_scan"}, "lat": 38.928972333333334, "is_disabled": 0, "lon": -77.0193495}, {"fusion_lat": 0.0, "type": "electric_scooter", "name": "dae3c80dff7496cd74a662ce65ca82be", "fusion_lon": 0.0, "bike_id": "dae3c80dff7496cd74a662ce65ca82be", "is_reserved": 0, "rental_uris": {"android": "https://dc.lft.to/lastmile_qr_scan", "ios": "https://dc.lft.to/lastmile_qr_scan"}, "lat": 38.89877766666667, "is_disabled": 0, "lon": -76.93189166666667}, {"fusion_lat": 0.0, "type": "electric_scooter", "name": "242af2a6f363c60c2b96226e21b34e27", "fusion_lon": 0.0, "bike_id": "242af2a6f363c60c2b96226e21b34e27", "is_reserved": 0, "rental_uris": {"android": "https://dc.lft.to/lastmile_qr_scan", "ios": "https://dc.lft.to/lastmile_qr_scan"}, "lat": 38.949886666666664, "is_disabled": 0, "lon": -77.0270415}, {"fusion_lat": 0.0, "type": "electric_scooter", "name": "7d2b42ba4fe6bb8fff9dff3c0c98cce9", "fusion_lon": 0.0, "bike_id": "7d2b42ba4fe6bb8fff9dff3c0c98cce9", "is_reserved": 0, "rental_uris": {"android": "https://dc.lft.to/lastmile_qr_scan", "ios": "https://dc.lft.to/lastmile_qr_scan"}, "lat": 38.93607083333333, "is_disabled": 0, "lon": -77.05888466666667}, {"fusion_lat": 0.0, "type": "electric_scooter", "name": "27a4549957e890dcb07624fb35f2b733", "fusion_lon": 0.0, "bike_id": "27a4549957e890dcb07624fb35f2b733", "is_reserved": 0, "rental_uris": {"android": "https://dc.lft.to/lastmile_qr_scan", "ios": "https://dc.lft.to/lastmile_qr_scan"}, "lat": 38.901573, "is_disabled": 0, "lon": -77.0510255}, {"fusion_lat": 0.0, "type": "electric_scooter", "name": "ffe2ce4724217c2569a09525b39d3d20", "fusion_lon": 0.0, "bike_id": "ffe2ce4724217c2569a09525b39d3d20", "is_reserved": 0, "rental_uris": {"android": "https://dc.lft.to/lastmile_qr_scan", "ios": "https://dc.lft.to/lastmile_qr_scan"}, "lat": 38.8861905, "is_disabled": 0, "lon": -77.01980616666667}, {"fusion_lat": 0.0, "type": "electric_scooter", "name": "f2353480dee100eafe4ac7e2f2a239f8", "fusion_lon": 0.0, "bike_id": "f2353480dee100eafe4ac7e2f2a239f8", "is_reserved": 0, "rental_uris": {"android": "https://dc.lft.to/lastmile_qr_scan", "ios": "https://dc.lft.to/lastmile_qr_scan"}, "lat": 38.87191133333334, "is_disabled": 0, "lon": -77.00585333333333}, {"fusion_lat": 0.0, "type": "electric_scooter", "name": "c23ebd5145e865cf6428aeea1c97240f", "fusion_lon": 0.0, "bike_id": "c23ebd5145e865cf6428aeea1c97240f", "is_reserved": 0, "rental_uris": {"android": "https://dc.lft.to/lastmile_qr_scan", "ios": "https://dc.lft.to/lastmile_qr_scan"}, "lat": 38.89512166666667, "is_disabled": 0, "lon": -76.94887566666667}, {"fusion_lat": 0.0, "type": "electric_bike", "name": "ad90224a8baf3b797c5d891e1839a748", "fusion_lon": 0.0, "bike_id": "ad90224a8baf3b797c5d891e1839a748", "is_reserved": 0, "rental_uris": {"android": "https://dc.lft.to/lastmile_qr_scan", "ios": "https://dc.lft.to/lastmile_qr_scan"}, "lat": 38.8544115, "is_disabled": 0, "lon": -77.08335283333334}, {"fusion_lat": 0.0, "type": "electric_scooter", "name": "c673285854cb7ff7215228b768e75c89", "fusion_lon": 0.0, "bike_id": "c673285854cb7ff7215228b768e75c89", "is_reserved": 0, "rental_uris": {"android": "https://dc.lft.to/lastmile_qr_scan", "ios": "https://dc.lft.to/lastmile_qr_scan"}, "lat": 38.91883633333333, "is_disabled": 0, "lon": -77.04819266666667}, {"fusion_lat": 0.0, "type": "electric_scooter", "name": "7d9bada04aa91c43a8a50179474d9427", "fusion_lon": 0.0, "bike_id": "7d9bada04aa91c43a8a50179474d9427", "is_reserved": 0, "rental_uris": {"android": "https://dc.lft.to/lastmile_qr_scan", "ios": "https://dc.lft.to/lastmile_qr_scan"}, "lat": 38.905797, "is_disabled": 0, "lon": -77.02596333333334}, {"fusion_lat": 0.0, "type": "electric_bike", "name": "7b0664e14429906bd40d776339a0f406", "fusion_lon": 0.0, "bike_id": "7b0664e14429906bd40d776339a0f406", "is_reserved": 0, "rental_uris": {"android": "https://dc.lft.to/lastmile_qr_scan", "ios": "https://dc.lft.to/lastmile_qr_scan"}, "lat": 38.857701666666664, "is_disabled": 0, "lon": -76.9876845}, {"fusion_lat": 0.0, "type": "electric_scooter", "name": "5bf1899746deb8a1e28e85d5ca619d7d", "fusion_lon": 0.0, "bike_id": "5bf1899746deb8a1e28e85d5ca619d7d", "is_reserved": 0, "rental_uris": {"android": "https://dc.lft.to/lastmile_qr_scan", "ios": "https://dc.lft.to/lastmile_qr_scan"}, "lat": 38.919542166666666, "is_disabled": 0, "lon": -77.02381033333333}, {"fusion_lat": 0.0, "type": "electric_scooter", "name": "aa9cc5bfffe34629e6bb9044ec489622", "fusion_lon": 0.0, "bike_id": "aa9cc5bfffe34629e6bb9044ec489622", "is_reserved": 0, "rental_uris": {"android": "https://dc.lft.to/lastmile_qr_scan", "ios": "https://dc.lft.to/lastmile_qr_scan"}, "lat": 38.96619583333333, "is_disabled": 0, "lon": -77.0350555}, {"fusion_lat": 0.0, "type": "electric_scooter", "name": "5fa3048166a097f79622e3cb70f38222", "fusion_lon": 0.0, "bike_id": "5fa3048166a097f79622e3cb70f38222", "is_reserved": 0, "rental_uris": {"android": "https://dc.lft.to/lastmile_qr_scan", "ios": "https://dc.lft.to/lastmile_qr_scan"}, "lat": 38.92793233333333, "is_disabled": 0, "lon": -77.02121383333333}, {"fusion_lat": 0.0, "type": "electric_scooter", "name": "0270f77a6353102af9bca80eb8089af8", "fusion_lon": 0.0, "bike_id": "0270f77a6353102af9bca80eb8089af8", "is_reserved": 0, "rental_uris": {"android": "https://dc.lft.to/lastmile_qr_scan", "ios": "https://dc.lft.to/lastmile_qr_scan"}, "lat": 38.92162966666667, "is_disabled": 0, "lon": -77.03380116666666}, {"fusion_lat": 0.0, "type": "electric_scooter", "name": "440cbf019b4b18200ada7561e749371b", "fusion_lon": 0.0, "bike_id": "440cbf019b4b18200ada7561e749371b", "is_reserved": 0, "rental_uris": {"android": "https://dc.lft.to/lastmile_qr_scan", "ios": "https://dc.lft.to/lastmile_qr_scan"}, "lat": 38.938745833333336, "is_disabled": 0, "lon": -77.02374833333333}, {"fusion_lat": 0.0, "type": "electric_scooter", "name": "950d817b130e8e34965b14946650c0cb", "fusion_lon": 0.0, "bike_id": "950d817b130e8e34965b14946650c0cb", "is_reserved": 0, "rental_uris": {"android": "https://dc.lft.to/lastmile_qr_scan", "ios": "https://dc.lft.to/lastmile_qr_scan"}, "lat": 38.926312333333335, "is_disabled": 0, "lon": -77.03468833333334}, {"fusion_lat": 0.0, "type": "electric_scooter", "name": "6a3c5574eb59b131b351ddf091b33a6d", "fusion_lon": 0.0, "bike_id": "6a3c5574eb59b131b351ddf091b33a6d", "is_reserved": 0, "rental_uris": {"android": "https://dc.lft.to/lastmile_qr_scan", "ios": "https://dc.lft.to/lastmile_qr_scan"}, "lat": 38.94128533333333, "is_disabled": 0, "lon": -77.01539866666667}, {"fusion_lat": 0.0, "type": "electric_scooter", "name": "8ee29e3b87e6c18616ff23e239a0f883", "fusion_lon": 0.0, "bike_id": "8ee29e3b87e6c18616ff23e239a0f883", "is_reserved": 0, "rental_uris": {"android": "https://dc.lft.to/lastmile_qr_scan", "ios": "https://dc.lft.to/lastmile_qr_scan"}, "lat": 38.89250633333333, "is_disabled": 0, "lon": -77.046611}, {"fusion_lat": 0.0, "type": "electric_scooter", "name": "0e3d25b00903220f87afa595c92dbb3c", "fusion_lon": 0.0, "bike_id": "0e3d25b00903220f87afa595c92dbb3c", "is_reserved": 0, "rental_uris": {"android": "https://dc.lft.to/lastmile_qr_scan", "ios": "https://dc.lft.to/lastmile_qr_scan"}, "lat": 38.91127866666667, "is_disabled": 0, "lon": -77.06525383333333}, {"fusion_lat": 0.0, "type": "electric_scooter", "name": "533f3c68339a49a3aa4f9259a88cb29e", "fusion_lon": 0.0, "bike_id": "533f3c68339a49a3aa4f9259a88cb29e", "is_reserved": 0, "rental_uris": {"android": "https://dc.lft.to/lastmile_qr_scan", "ios": "https://dc.lft.to/lastmile_qr_scan"}, "lat": 38.88089866666667, "is_disabled": 0, "lon": -76.93008316666666}, {"fusion_lat": 0.0, "type": "electric_scooter", "name": "d241e99bdb127c47973a37a7cdd40233", "fusion_lon": 0.0, "bike_id": "d241e99bdb127c47973a37a7cdd40233", "is_reserved": 0, "rental_uris": {"android": "https://dc.lft.to/lastmile_qr_scan", "ios": "https://dc.lft.to/lastmile_qr_scan"}, "lat": 38.91819266666667, "is_disabled": 0, "lon": -77.03180216666667}, {"fusion_lat": 0.0, "type": "electric_scooter", "name": "69ef501043a99158f2bfc56c80cff059", "fusion_lon": 0.0, "bike_id": "69ef501043a99158f2bfc56c80cff059", "is_reserved": 0, "rental_uris": {"android": "https://dc.lft.to/lastmile_qr_scan", "ios": "https://dc.lft.to/lastmile_qr_scan"}, "lat": 38.851974, "is_disabled": 0, "lon": -76.97074033333334}, {"fusion_lat": 0.0, "type": "electric_scooter", "name": "8de845a59588c0597023d0338dcb508f", "fusion_lon": 0.0, "bike_id": "8de845a59588c0597023d0338dcb508f", "is_reserved": 0, "rental_uris": {"android": "https://dc.lft.to/lastmile_qr_scan", "ios": "https://dc.lft.to/lastmile_qr_scan"}, "lat": 38.89228716666667, "is_disabled": 0, "lon": -77.03183216666666}, {"fusion_lat": 0.0, "type": "electric_bike", "name": "5f18a8af3c83d163da2e368bdac01287", "fusion_lon": 0.0, "bike_id": "5f18a8af3c83d163da2e368bdac01287", "is_reserved": 0, "rental_uris": {"android": "https://dc.lft.to/lastmile_qr_scan", "ios": "https://dc.lft.to/lastmile_qr_scan"}, "lat": 38.898122666666666, "is_disabled": 0, "lon": -76.99074716666667}, {"fusion_lat": 0.0, "type": "electric_scooter", "name": "5178a3cfd25e7b663f3da45c9bc294de", "fusion_lon": 0.0, "bike_id": "5178a3cfd25e7b663f3da45c9bc294de", "is_reserved": 0, "rental_uris": {"android": "https://dc.lft.to/lastmile_qr_scan", "ios": "https://dc.lft.to/lastmile_qr_scan"}, "lat": 38.933789833333336, "is_disabled": 0, "lon": -77.03548516666666}, {"fusion_lat": 0.0, "type": "electric_scooter", "name": "ba71d7654bf9ecfcf39ce7c37517f468", "fusion_lon": 0.0, "bike_id": "ba71d7654bf9ecfcf39ce7c37517f468", "is_reserved": 0, "rental_uris": {"android": "https://dc.lft.to/lastmile_qr_scan", "ios": "https://dc.lft.to/lastmile_qr_scan"}, "lat": 38.8956295, "is_disabled": 0, "lon": -77.046814}, {"fusion_lat": 0.0, "type": "electric_scooter", "name": "b1f74eff42b080c8d3fe1a0586066d0d", "fusion_lon": 0.0, "bike_id": "b1f74eff42b080c8d3fe1a0586066d0d", "is_reserved": 0, "rental_uris": {"android": "https://dc.lft.to/lastmile_qr_scan", "ios": "https://dc.lft.to/lastmile_qr_scan"}, "lat": 38.90737466666667, "is_disabled": 0, "lon": -77.0269325}, {"fusion_lat": 0.0, "type": "electric_scooter", "name": "6bed540bb38877423c7e81bfcdca08d4", "fusion_lon": 0.0, "bike_id": "6bed540bb38877423c7e81bfcdca08d4", "is_reserved": 0, "rental_uris": {"android": "https://dc.lft.to/lastmile_qr_scan", "ios": "https://dc.lft.to/lastmile_qr_scan"}, "lat": 38.91879, "is_disabled": 0, "lon": -77.03479233333333}, {"fusion_lat": 0.0, "type": "electric_scooter", "name": "1d5af21c5d7b3fc000b03217d2883d91", "fusion_lon": 0.0, "bike_id": "1d5af21c5d7b3fc000b03217d2883d91", "is_reserved": 0, "rental_uris": {"android": "https://dc.lft.to/lastmile_qr_scan", "ios": "https://dc.lft.to/lastmile_qr_scan"}, "lat": 38.90416166666667, "is_disabled": 0, "lon": -77.02945416666667}, {"fusion_lat": 0.0, "type": "electric_scooter", "name": "be28881dc5e1d50f85945a03caca437f", "fusion_lon": 0.0, "bike_id": "be28881dc5e1d50f85945a03caca437f", "is_reserved": 0, "rental_uris": {"android": "https://dc.lft.to/lastmile_qr_scan", "ios": "https://dc.lft.to/lastmile_qr_scan"}, "lat": 38.92900516666667, "is_disabled": 0, "lon": -77.05453883333334}, {"fusion_lat": 0.0, "type": "electric_scooter", "name": "c5a6c3fad2eec29d985037005bf2fb08", "fusion_lon": 0.0, "bike_id": "c5a6c3fad2eec29d985037005bf2fb08", "is_reserved": 0, "rental_uris": {"android": "https://dc.lft.to/lastmile_qr_scan", "ios": "https://dc.lft.to/lastmile_qr_scan"}, "lat": 38.930905833333334, "is_disabled": 0, "lon": -77.02493566666666}, {"fusion_lat": 0.0, "type": "electric_scooter", "name": "1ca005f3144d3f8286c93a9f60d85f7b", "fusion_lon": 0.0, "bike_id": "1ca005f3144d3f8286c93a9f60d85f7b", "is_reserved": 0, "rental_uris": {"android": "https://dc.lft.to/lastmile_qr_scan", "ios": "https://dc.lft.to/lastmile_qr_scan"}, "lat": 38.92676483333334, "is_disabled": 0, "lon": -77.0224855}, {"fusion_lat": 0.0, "type": "electric_scooter", "name": "80d7e48efff4c26d4dabdfecdf32d9ca", "fusion_lon": 0.0, "bike_id": "80d7e48efff4c26d4dabdfecdf32d9ca", "is_reserved": 0, "rental_uris": {"android": "https://dc.lft.to/lastmile_qr_scan", "ios": "https://dc.lft.to/lastmile_qr_scan"}, "lat": 38.90180383333333, "is_disabled": 0, "lon": -76.9286795}, {"fusion_lat": 0.0, "type": "electric_scooter", "name": "02604ec94b485be0c1ddeb955d7015cb", "fusion_lon": 0.0, "bike_id": "02604ec94b485be0c1ddeb955d7015cb", "is_reserved": 0, "rental_uris": {"android": "https://dc.lft.to/lastmile_qr_scan", "ios": "https://dc.lft.to/lastmile_qr_scan"}, "lat": 38.887163666666666, "is_disabled": 0, "lon": -76.983543}, {"fusion_lat": 0.0, "type": "electric_scooter", "name": "cd3e0a6550fe2bd6999bd503123a7188", "fusion_lon": 0.0, "bike_id": "cd3e0a6550fe2bd6999bd503123a7188", "is_reserved": 0, "rental_uris": {"android": "https://dc.lft.to/lastmile_qr_scan", "ios": "https://dc.lft.to/lastmile_qr_scan"}, "lat": 38.9248345, "is_disabled": 0, "lon": -77.02143716666667}, {"fusion_lat": 0.0, "type": "electric_scooter", "name": "d700dba78dd0e0b3899b604170105377", "fusion_lon": 0.0, "bike_id": "d700dba78dd0e0b3899b604170105377", "is_reserved": 0, "rental_uris": {"android": "https://dc.lft.to/lastmile_qr_scan", "ios": "https://dc.lft.to/lastmile_qr_scan"}, "lat": 38.91180283333333, "is_disabled": 0, "lon": -77.03521383333333}, {"fusion_lat": 0.0, "type": "electric_scooter", "name": "6c002f385394f84540ea44e8e3c90d59", "fusion_lon": 0.0, "bike_id": "6c002f385394f84540ea44e8e3c90d59", "is_reserved": 0, "rental_uris": {"android": "https://dc.lft.to/lastmile_qr_scan", "ios": "https://dc.lft.to/lastmile_qr_scan"}, "lat": 38.910036833333336, "is_disabled": 0, "lon": -77.02092433333334}, {"fusion_lat": 0.0, "type": "electric_scooter", "name": "ea1a27a6310ee5e47ed5cec7a0f2a703", "fusion_lon": 0.0, "bike_id": "ea1a27a6310ee5e47ed5cec7a0f2a703", "is_reserved": 0, "rental_uris": {"android": "https://dc.lft.to/lastmile_qr_scan", "ios": "https://dc.lft.to/lastmile_qr_scan"}, "lat": 38.866822, "is_disabled": 0, "lon": -76.9859785}, {"fusion_lat": 0.0, "type": "electric_bike", "name": "703422c18f9ae15885cac84f147006e6", "fusion_lon": 0.0, "bike_id": "703422c18f9ae15885cac84f147006e6", "is_reserved": 0, "rental_uris": {"android": "https://dc.lft.to/lastmile_qr_scan", "ios": "https://dc.lft.to/lastmile_qr_scan"}, "lat": 38.927442666666664, "is_disabled": 0, "lon": -77.03637483333333}, {"fusion_lat": 0.0, "type": "electric_scooter", "name": "2a6b879bfb4e6b3ec61289cf85bb6570", "fusion_lon": 0.0, "bike_id": "2a6b879bfb4e6b3ec61289cf85bb6570", "is_reserved": 0, "rental_uris": {"android": "https://dc.lft.to/lastmile_qr_scan", "ios": "https://dc.lft.to/lastmile_qr_scan"}, "lat": 38.91302783333333, "is_disabled": 0, "lon": -77.038604}, {"fusion_lat": 0.0, "type": "electric_scooter", "name": "a48d0f2e1e3ef62ca0714755ecdbce29", "fusion_lon": 0.0, "bike_id": "a48d0f2e1e3ef62ca0714755ecdbce29", "is_reserved": 0, "rental_uris": {"android": "https://dc.lft.to/lastmile_qr_scan", "ios": "https://dc.lft.to/lastmile_qr_scan"}, "lat": 38.8922715, "is_disabled": 0, "lon": -77.048947}, {"fusion_lat": 0.0, "type": "electric_scooter", "name": "c37f2c4943bddabdfcb7303e64632c6d", "fusion_lon": 0.0, "bike_id": "c37f2c4943bddabdfcb7303e64632c6d", "is_reserved": 0, "rental_uris": {"android": "https://dc.lft.to/lastmile_qr_scan", "ios": "https://dc.lft.to/lastmile_qr_scan"}, "lat": 38.90881433333333, "is_disabled": 0, "lon": -76.99857683333333}, {"fusion_lat": 0.0, "type": "electric_scooter", "name": "f63fb3b3e5455384b1c79b15e2311c46", "fusion_lon": 0.0, "bike_id": "f63fb3b3e5455384b1c79b15e2311c46", "is_reserved": 0, "rental_uris": {"android": "https://dc.lft.to/lastmile_qr_scan", "ios": "https://dc.lft.to/lastmile_qr_scan"}, "lat": 38.84998366666667, "is_disabled": 0, "lon": -76.9834675}, {"fusion_lat": 0.0, "type": "electric_scooter", "name": "cdeee79cf101f2f4b4a2bc1d32b5f1ea", "fusion_lon": 0.0, "bike_id": "cdeee79cf101f2f4b4a2bc1d32b5f1ea", "is_reserved": 0, "rental_uris": {"android": "https://dc.lft.to/lastmile_qr_scan", "ios": "https://dc.lft.to/lastmile_qr_scan"}, "lat": 38.907355, "is_disabled": 0, "lon": -77.0344945}, {"fusion_lat": 0.0, "type": "electric_scooter", "name": "fedf5745343809c9bccaeb19813265d3", "fusion_lon": 0.0, "bike_id": "fedf5745343809c9bccaeb19813265d3", "is_reserved": 0, "rental_uris": {"android": "https://dc.lft.to/lastmile_qr_scan", "ios": "https://dc.lft.to/lastmile_qr_scan"}, "lat": 38.9076275, "is_disabled": 0, "lon": -77.07317866666666}, {"fusion_lat": 0.0, "type": "electric_scooter", "name": "e195c9933a9156df46ed69e26999d08b", "fusion_lon": 0.0, "bike_id": "e195c9933a9156df46ed69e26999d08b", "is_reserved": 0, "rental_uris": {"android": "https://dc.lft.to/lastmile_qr_scan", "ios": "https://dc.lft.to/lastmile_qr_scan"}, "lat": 38.90974766666667, "is_disabled": 0, "lon": -77.04711833333333}, {"fusion_lat": 0.0, "type": "electric_scooter", "name": "69642d8ec059c61e139b6f6e48096773", "fusion_lon": 0.0, "bike_id": "69642d8ec059c61e139b6f6e48096773", "is_reserved": 0, "rental_uris": {"android": "https://dc.lft.to/lastmile_qr_scan", "ios": "https://dc.lft.to/lastmile_qr_scan"}, "lat": 38.94868566666667, "is_disabled": 0, "lon": -77.03887233333333}, {"fusion_lat": 0.0, "type": "electric_bike", "name": "65b11dad78d2e87588604eca6ddfe4bf", "fusion_lon": 0.0, "bike_id": "65b11dad78d2e87588604eca6ddfe4bf", "is_reserved": 0, "rental_uris": {"android": "https://dc.lft.to/lastmile_qr_scan", "ios": "https://dc.lft.to/lastmile_qr_scan"}, "lat": 38.945986166666664, "is_disabled": 0, "lon": -77.00714433333333}, {"fusion_lat": 0.0, "type": "electric_scooter", "name": "997be3d92424a04867dae1ee601ad9be", "fusion_lon": 0.0, "bike_id": "997be3d92424a04867dae1ee601ad9be", "is_reserved": 0, "rental_uris": {"android": "https://dc.lft.to/lastmile_qr_scan", "ios": "https://dc.lft.to/lastmile_qr_scan"}, "lat": 38.8957725, "is_disabled": 0, "lon": -77.015748}, {"fusion_lat": 0.0, "type": "electric_scooter", "name": "b8da6d9d3da5550520a917b584e89b0b", "fusion_lon": 0.0, "bike_id": "b8da6d9d3da5550520a917b584e89b0b", "is_reserved": 0, "rental_uris": {"android": "https://dc.lft.to/lastmile_qr_scan", "ios": "https://dc.lft.to/lastmile_qr_scan"}, "lat": 38.923533666666664, "is_disabled": 0, "lon": -77.052742}, {"fusion_lat": 0.0, "type": "electric_bike", "name": "5ae5befea415c8a6dda0452aa35a3dfd", "fusion_lon": 0.0, "bike_id": "5ae5befea415c8a6dda0452aa35a3dfd", "is_reserved": 0, "rental_uris": {"android": "https://dc.lft.to/lastmile_qr_scan", "ios": "https://dc.lft.to/lastmile_qr_scan"}, "lat": 38.90693383333333, "is_disabled": 0, "lon": -76.95254583333333}, {"fusion_lat": 0.0, "type": "electric_scooter", "name": "38123d785003d18fa926e864e331d32a", "fusion_lon": 0.0, "bike_id": "38123d785003d18fa926e864e331d32a", "is_reserved": 0, "rental_uris": {"android": "https://dc.lft.to/lastmile_qr_scan", "ios": "https://dc.lft.to/lastmile_qr_scan"}, "lat": 38.90947283333333, "is_disabled": 0, "lon": -77.03217316666667}, {"fusion_lat": 0.0, "type": "electric_bike", "name": "113ab71a3c13275532a2e94389e41481", "fusion_lon": 0.0, "bike_id": "113ab71a3c13275532a2e94389e41481", "is_reserved": 0, "rental_uris": {"android": "https://dc.lft.to/lastmile_qr_scan", "ios": "https://dc.lft.to/lastmile_qr_scan"}, "lat": 38.956447, "is_disabled": 0, "lon": -77.022534}, {"fusion_lat": 0.0, "type": "electric_scooter", "name": "3bce6fc8622e13368198a5dc6483b849", "fusion_lon": 0.0, "bike_id": "3bce6fc8622e13368198a5dc6483b849", "is_reserved": 0, "rental_uris": {"android": "https://dc.lft.to/lastmile_qr_scan", "ios": "https://dc.lft.to/lastmile_qr_scan"}, "lat": 38.936064333333334, "is_disabled": 0, "lon": -77.02917916666667}, {"fusion_lat": 0.0, "type": "electric_scooter", "name": "549d38252af0fd1caafdf9d8f040f34a", "fusion_lon": 0.0, "bike_id": "549d38252af0fd1caafdf9d8f040f34a", "is_reserved": 0, "rental_uris": {"android": "https://dc.lft.to/lastmile_qr_scan", "ios": "https://dc.lft.to/lastmile_qr_scan"}, "lat": 38.892313333333334, "is_disabled": 0, "lon": -77.0277155}, {"fusion_lat": 0.0, "type": "electric_scooter", "name": "69a90629f7ce2b91d8a391386bbf6fc0", "fusion_lon": 0.0, "bike_id": "69a90629f7ce2b91d8a391386bbf6fc0", "is_reserved": 0, "rental_uris": {"android": "https://dc.lft.to/lastmile_qr_scan", "ios": "https://dc.lft.to/lastmile_qr_scan"}, "lat": 38.939795833333335, "is_disabled": 0, "lon": -77.0325975}, {"fusion_lat": 0.0, "type": "electric_scooter", "name": "8b4cfedc21f63650cd133543b6d7dbf8", "fusion_lon": 0.0, "bike_id": "8b4cfedc21f63650cd133543b6d7dbf8", "is_reserved": 0, "rental_uris": {"android": "https://dc.lft.to/lastmile_qr_scan", "ios": "https://dc.lft.to/lastmile_qr_scan"}, "lat": 38.892253333333336, "is_disabled": 0, "lon": -77.03181966666666}, {"fusion_lat": 0.0, "type": "electric_scooter", "name": "4cdf9a39eef637086e59e9defd3e7e84", "fusion_lon": 0.0, "bike_id": "4cdf9a39eef637086e59e9defd3e7e84", "is_reserved": 0, "rental_uris": {"android": "https://dc.lft.to/lastmile_qr_scan", "ios": "https://dc.lft.to/lastmile_qr_scan"}, "lat": 38.88746016666666, "is_disabled": 0, "lon": -77.03163816666667}, {"fusion_lat": 0.0, "type": "electric_scooter", "name": "b8090527048133e574263fa039ba58ff", "fusion_lon": 0.0, "bike_id": "b8090527048133e574263fa039ba58ff", "is_reserved": 0, "rental_uris": {"android": "https://dc.lft.to/lastmile_qr_scan", "ios": "https://dc.lft.to/lastmile_qr_scan"}, "lat": 38.910505666666666, "is_disabled": 0, "lon": -77.03174033333333}, {"fusion_lat": 0.0, "type": "electric_scooter", "name": "28466df6bca8debbf827a9a0c74a3c07", "fusion_lon": 0.0, "bike_id": "28466df6bca8debbf827a9a0c74a3c07", "is_reserved": 0, "rental_uris": {"android": "https://dc.lft.to/lastmile_qr_scan", "ios": "https://dc.lft.to/lastmile_qr_scan"}, "lat": 38.90396233333333, "is_disabled": 0, "lon": -77.0420335}, {"fusion_lat": 0.0, "type": "electric_bike", "name": "a9329dd0333a64e7ed1b68bd8463e4d5", "fusion_lon": 0.0, "bike_id": "a9329dd0333a64e7ed1b68bd8463e4d5", "is_reserved": 0, "rental_uris": {"android": "https://dc.lft.to/lastmile_qr_scan", "ios": "https://dc.lft.to/lastmile_qr_scan"}, "lat": 38.823273, "is_disabled": 0, "lon": -77.0562785}, {"fusion_lat": 0.0, "type": "electric_scooter", "name": "e9fed332caea2901bc7f080bd148bb43", "fusion_lon": 0.0, "bike_id": "e9fed332caea2901bc7f080bd148bb43", "is_reserved": 0, "rental_uris": {"android": "https://dc.lft.to/lastmile_qr_scan", "ios": "https://dc.lft.to/lastmile_qr_scan"}, "lat": 38.90108383333333, "is_disabled": 0, "lon": -77.04481}, {"fusion_lat": 0.0, "type": "electric_scooter", "name": "9e53ef041cc0b2123a20c09209850405", "fusion_lon": 0.0, "bike_id": "9e53ef041cc0b2123a20c09209850405", "is_reserved": 0, "rental_uris": {"android": "https://dc.lft.to/lastmile_qr_scan", "ios": "https://dc.lft.to/lastmile_qr_scan"}, "lat": 38.8916385, "is_disabled": 0, "lon": -76.951826}, {"fusion_lat": 0.0, "type": "electric_scooter", "name": "0392eeee23b042b36050dd91ebb30965", "fusion_lon": 0.0, "bike_id": "0392eeee23b042b36050dd91ebb30965", "is_reserved": 0, "rental_uris": {"android": "https://dc.lft.to/lastmile_qr_scan", "ios": "https://dc.lft.to/lastmile_qr_scan"}, "lat": 38.92580316666667, "is_disabled": 0, "lon": -77.03733783333334}, {"fusion_lat": 0.0, "type": "electric_scooter", "name": "7b436704d4879d904774908d328e3352", "fusion_lon": 0.0, "bike_id": "7b436704d4879d904774908d328e3352", "is_reserved": 0, "rental_uris": {"android": "https://dc.lft.to/lastmile_qr_scan", "ios": "https://dc.lft.to/lastmile_qr_scan"}, "lat": 38.94207333333333, "is_disabled": 0, "lon": -77.02512}, {"fusion_lat": 0.0, "type": "electric_scooter", "name": "4a82e634ea83914524a7df3215ca757e", "fusion_lon": 0.0, "bike_id": "4a82e634ea83914524a7df3215ca757e", "is_reserved": 0, "rental_uris": {"android": "https://dc.lft.to/lastmile_qr_scan", "ios": "https://dc.lft.to/lastmile_qr_scan"}, "lat": 38.90758066666667, "is_disabled": 0, "lon": -77.0024385}, {"fusion_lat": 0.0, "type": "electric_scooter", "name": "49e812edc2010fece65e1eeee44f0934", "fusion_lon": 0.0, "bike_id": "49e812edc2010fece65e1eeee44f0934", "is_reserved": 0, "rental_uris": {"android": "https://dc.lft.to/lastmile_qr_scan", "ios": "https://dc.lft.to/lastmile_qr_scan"}, "lat": 38.88554233333333, "is_disabled": 0, "lon": -77.02006666666666}, {"fusion_lat": 0.0, "type": "electric_scooter", "name": "c8b908990f15c201f9e5cb543098b3ae", "fusion_lon": 0.0, "bike_id": "c8b908990f15c201f9e5cb543098b3ae", "is_reserved": 0, "rental_uris": {"android": "https://dc.lft.to/lastmile_qr_scan", "ios": "https://dc.lft.to/lastmile_qr_scan"}, "lat": 38.91252716666666, "is_disabled": 0, "lon": -77.03765583333333}, {"fusion_lat": 0.0, "type": "electric_scooter", "name": "81d03d077c5b1f13efb820d93b6ce216", "fusion_lon": 0.0, "bike_id": "81d03d077c5b1f13efb820d93b6ce216", "is_reserved": 0, "rental_uris": {"android": "https://dc.lft.to/lastmile_qr_scan", "ios": "https://dc.lft.to/lastmile_qr_scan"}, "lat": 38.92218833333333, "is_disabled": 0, "lon": -77.04244583333333}, {"fusion_lat": 0.0, "type": "electric_scooter", "name": "84524d1591925285d617b9f5804badee", "fusion_lon": 0.0, "bike_id": "84524d1591925285d617b9f5804badee", "is_reserved": 0, "rental_uris": {"android": "https://dc.lft.to/lastmile_qr_scan", "ios": "https://dc.lft.to/lastmile_qr_scan"}, "lat": 38.892245833333334, "is_disabled": 0, "lon": -77.031077}, {"fusion_lat": 0.0, "type": "electric_scooter", "name": "a8e5e9402fdce1b826b4dc17e03430a5", "fusion_lon": 0.0, "bike_id": "a8e5e9402fdce1b826b4dc17e03430a5", "is_reserved": 0, "rental_uris": {"android": "https://dc.lft.to/lastmile_qr_scan", "ios": "https://dc.lft.to/lastmile_qr_scan"}, "lat": 38.91113333333333, "is_disabled": 0, "lon": -77.03144233333333}, {"fusion_lat": 0.0, "type": "electric_scooter", "name": "0999ebfbb7268ae5aeb428015918fad1", "fusion_lon": 0.0, "bike_id": "0999ebfbb7268ae5aeb428015918fad1", "is_reserved": 0, "rental_uris": {"android": "https://dc.lft.to/lastmile_qr_scan", "ios": "https://dc.lft.to/lastmile_qr_scan"}, "lat": 38.934736, "is_disabled": 0, "lon": -77.08662366666667}, {"fusion_lat": 0.0, "type": "electric_scooter", "name": "eeb01dd1c9742744a10fdff8b1952554", "fusion_lon": 0.0, "bike_id": "eeb01dd1c9742744a10fdff8b1952554", "is_reserved": 0, "rental_uris": {"android": "https://dc.lft.to/lastmile_qr_scan", "ios": "https://dc.lft.to/lastmile_qr_scan"}, "lat": 38.892488666666665, "is_disabled": 0, "lon": -77.04660883333334}, {"fusion_lat": 0.0, "type": "electric_scooter", "name": "5aa922fc2654e47bf94c884e4da7958c", "fusion_lon": 0.0, "bike_id": "5aa922fc2654e47bf94c884e4da7958c", "is_reserved": 0, "rental_uris": {"android": "https://dc.lft.to/lastmile_qr_scan", "ios": "https://dc.lft.to/lastmile_qr_scan"}, "lat": 38.91705416666667, "is_disabled": 0, "lon": -77.03865266666666}, {"fusion_lat": 0.0, "type": "electric_scooter", "name": "9dff4412f0a9df553bb4fe4a009fd531", "fusion_lon": 0.0, "bike_id": "9dff4412f0a9df553bb4fe4a009fd531", "is_reserved": 0, "rental_uris": {"android": "https://dc.lft.to/lastmile_qr_scan", "ios": "https://dc.lft.to/lastmile_qr_scan"}, "lat": 38.94899633333333, "is_disabled": 0, "lon": -77.020743}, {"fusion_lat": 0.0, "type": "electric_scooter", "name": "36843886561ecc9115e2e791fb9a5ca3", "fusion_lon": 0.0, "bike_id": "36843886561ecc9115e2e791fb9a5ca3", "is_reserved": 0, "rental_uris": {"android": "https://dc.lft.to/lastmile_qr_scan", "ios": "https://dc.lft.to/lastmile_qr_scan"}, "lat": 38.87186666666667, "is_disabled": 0, "lon": -77.00594816666667}, {"fusion_lat": 0.0, "type": "electric_scooter", "name": "3476c1ebd654a10577fc5625ef63c875", "fusion_lon": 0.0, "bike_id": "3476c1ebd654a10577fc5625ef63c875", "is_reserved": 0, "rental_uris": {"android": "https://dc.lft.to/lastmile_qr_scan", "ios": "https://dc.lft.to/lastmile_qr_scan"}, "lat": 38.89221933333334, "is_disabled": 0, "lon": -77.04307883333334}, {"fusion_lat": 0.0, "type": "electric_scooter", "name": "a2b8f16cc1eb2d7c7383920d99fcd5e2", "fusion_lon": 0.0, "bike_id": "a2b8f16cc1eb2d7c7383920d99fcd5e2", "is_reserved": 0, "rental_uris": {"android": "https://dc.lft.to/lastmile_qr_scan", "ios": "https://dc.lft.to/lastmile_qr_scan"}, "lat": 38.8811315, "is_disabled": 0, "lon": -77.01673}, {"fusion_lat": 0.0, "type": "electric_scooter", "name": "a38540c4d7724954f75f0f8fe1d6d33e", "fusion_lon": 0.0, "bike_id": "a38540c4d7724954f75f0f8fe1d6d33e", "is_reserved": 0, "rental_uris": {"android": "https://dc.lft.to/lastmile_qr_scan", "ios": "https://dc.lft.to/lastmile_qr_scan"}, "lat": 38.899690666666665, "is_disabled": 0, "lon": -77.03334883333333}, {"fusion_lat": 0.0, "type": "electric_scooter", "name": "6f0a4bff71c1a3d85ee7b9a303fc323e", "fusion_lon": 0.0, "bike_id": "6f0a4bff71c1a3d85ee7b9a303fc323e", "is_reserved": 0, "rental_uris": {"android": "https://dc.lft.to/lastmile_qr_scan", "ios": "https://dc.lft.to/lastmile_qr_scan"}, "lat": 38.912657833333334, "is_disabled": 0, "lon": -77.03066666666666}, {"fusion_lat": 0.0, "type": "electric_scooter", "name": "c27a020db806405769214b160725b1e2", "fusion_lon": 0.0, "bike_id": "c27a020db806405769214b160725b1e2", "is_reserved": 0, "rental_uris": {"android": "https://dc.lft.to/lastmile_qr_scan", "ios": "https://dc.lft.to/lastmile_qr_scan"}, "lat": 38.92498366666667, "is_disabled": 0, "lon": -77.02441483333334}, {"fusion_lat": 0.0, "type": "electric_scooter", "name": "f17ded7a7ed3b3d7d055cedd6bb1235e", "fusion_lon": 0.0, "bike_id": "f17ded7a7ed3b3d7d055cedd6bb1235e", "is_reserved": 0, "rental_uris": {"android": "https://dc.lft.to/lastmile_qr_scan", "ios": "https://dc.lft.to/lastmile_qr_scan"}, "lat": 38.920747166666665, "is_disabled": 0, "lon": -77.03463683333334}, {"fusion_lat": 0.0, "type": "electric_scooter", "name": "b618d6ba7258a430a582d709bd65355f", "fusion_lon": 0.0, "bike_id": "b618d6ba7258a430a582d709bd65355f", "is_reserved": 0, "rental_uris": {"android": "https://dc.lft.to/lastmile_qr_scan", "ios": "https://dc.lft.to/lastmile_qr_scan"}, "lat": 38.92468433333333, "is_disabled": 0, "lon": -77.028341}, {"fusion_lat": 0.0, "type": "electric_scooter", "name": "12bd1d3f00771d7d8d860dd98fd28d41", "fusion_lon": 0.0, "bike_id": "12bd1d3f00771d7d8d860dd98fd28d41", "is_reserved": 0, "rental_uris": {"android": "https://dc.lft.to/lastmile_qr_scan", "ios": "https://dc.lft.to/lastmile_qr_scan"}, "lat": 38.9089965, "is_disabled": 0, "lon": -77.00416416666667}, {"fusion_lat": 0.0, "type": "electric_scooter", "name": "13c627e479af4cc2e20ff1d1ff5518a2", "fusion_lon": 0.0, "bike_id": "13c627e479af4cc2e20ff1d1ff5518a2", "is_reserved": 0, "rental_uris": {"android": "https://dc.lft.to/lastmile_qr_scan", "ios": "https://dc.lft.to/lastmile_qr_scan"}, "lat": 38.91598483333333, "is_disabled": 0, "lon": -77.04474233333333}, {"fusion_lat": 0.0, "type": "electric_scooter", "name": "22fcb5417c8fecd54f26e35dea36394a", "fusion_lon": 0.0, "bike_id": "22fcb5417c8fecd54f26e35dea36394a", "is_reserved": 0, "rental_uris": {"android": "https://dc.lft.to/lastmile_qr_scan", "ios": "https://dc.lft.to/lastmile_qr_scan"}, "lat": 38.8850745, "is_disabled": 0, "lon": -77.01606983333333}, {"fusion_lat": 0.0, "type": "electric_scooter", "name": "e68204b472503f23740ff28b98427431", "fusion_lon": 0.0, "bike_id": "e68204b472503f23740ff28b98427431", "is_reserved": 0, "rental_uris": {"android": "https://dc.lft.to/lastmile_qr_scan", "ios": "https://dc.lft.to/lastmile_qr_scan"}, "lat": 38.88872883333333, "is_disabled": 0, "lon": -76.9904185}, {"fusion_lat": 0.0, "type": "electric_scooter", "name": "1f73f47457f2091bebbef7df056cdbcd", "fusion_lon": 0.0, "bike_id": "1f73f47457f2091bebbef7df056cdbcd", "is_reserved": 0, "rental_uris": {"android": "https://dc.lft.to/lastmile_qr_scan", "ios": "https://dc.lft.to/lastmile_qr_scan"}, "lat": 38.88136733333333, "is_disabled": 0, "lon": -77.02627616666666}, {"fusion_lat": 0.0, "type": "electric_scooter", "name": "0463eb9daa0f46ad6660f16559025367", "fusion_lon": 0.0, "bike_id": "0463eb9daa0f46ad6660f16559025367", "is_reserved": 0, "rental_uris": {"android": "https://dc.lft.to/lastmile_qr_scan", "ios": "https://dc.lft.to/lastmile_qr_scan"}, "lat": 38.952039, "is_disabled": 0, "lon": -77.02733883333333}, {"fusion_lat": 0.0, "type": "electric_scooter", "name": "2dd1df418696028a22e870e96fba0614", "fusion_lon": 0.0, "bike_id": "2dd1df418696028a22e870e96fba0614", "is_reserved": 0, "rental_uris": {"android": "https://dc.lft.to/lastmile_qr_scan", "ios": "https://dc.lft.to/lastmile_qr_scan"}, "lat": 38.933568333333334, "is_disabled": 0, "lon": -77.05732833333333}, {"fusion_lat": 0.0, "type": "electric_scooter", "name": "5c76cbd3034ee2dc73331e6979d23b50", "fusion_lon": 0.0, "bike_id": "5c76cbd3034ee2dc73331e6979d23b50", "is_reserved": 0, "rental_uris": {"android": "https://dc.lft.to/lastmile_qr_scan", "ios": "https://dc.lft.to/lastmile_qr_scan"}, "lat": 38.9057535, "is_disabled": 0, "lon": -76.97630833333334}, {"fusion_lat": 0.0, "type": "electric_scooter", "name": "8165305494f4f088d40cdcffe411551f", "fusion_lon": 0.0, "bike_id": "8165305494f4f088d40cdcffe411551f", "is_reserved": 0, "rental_uris": {"android": "https://dc.lft.to/lastmile_qr_scan", "ios": "https://dc.lft.to/lastmile_qr_scan"}, "lat": 38.909543, "is_disabled": 0, "lon": -77.022032}, {"fusion_lat": 0.0, "type": "electric_scooter", "name": "a5919e8e0c0da8a50948877841e5be92", "fusion_lon": 0.0, "bike_id": "a5919e8e0c0da8a50948877841e5be92", "is_reserved": 0, "rental_uris": {"android": "https://dc.lft.to/lastmile_qr_scan", "ios": "https://dc.lft.to/lastmile_qr_scan"}, "lat": 38.88674183333333, "is_disabled": 0, "lon": -76.93609383333333}, {"fusion_lat": 0.0, "type": "electric_scooter", "name": "8f1ea72650751e38bedc665f12bd8ae9", "fusion_lon": 0.0, "bike_id": "8f1ea72650751e38bedc665f12bd8ae9", "is_reserved": 0, "rental_uris": {"android": "https://dc.lft.to/lastmile_qr_scan", "ios": "https://dc.lft.to/lastmile_qr_scan"}, "lat": 38.97537233333333, "is_disabled": 0, "lon": -77.016887}, {"fusion_lat": 0.0, "type": "electric_scooter", "name": "92d2c370d126c8cc269ab0371a8700d5", "fusion_lon": 0.0, "bike_id": "92d2c370d126c8cc269ab0371a8700d5", "is_reserved": 0, "rental_uris": {"android": "https://dc.lft.to/lastmile_qr_scan", "ios": "https://dc.lft.to/lastmile_qr_scan"}, "lat": 38.892188833333336, "is_disabled": 0, "lon": -77.031561}, {"fusion_lat": 0.0, "type": "electric_scooter", "name": "6e8491432a69836df00c204561a83184", "fusion_lon": 0.0, "bike_id": "6e8491432a69836df00c204561a83184", "is_reserved": 0, "rental_uris": {"android": "https://dc.lft.to/lastmile_qr_scan", "ios": "https://dc.lft.to/lastmile_qr_scan"}, "lat": 38.897462, "is_disabled": 0, "lon": -76.9897905}, {"fusion_lat": 0.0, "type": "electric_scooter", "name": "25a55240e0f22fce6e9c42a91b7c955f", "fusion_lon": 0.0, "bike_id": "25a55240e0f22fce6e9c42a91b7c955f", "is_reserved": 0, "rental_uris": {"android": "https://dc.lft.to/lastmile_qr_scan", "ios": "https://dc.lft.to/lastmile_qr_scan"}, "lat": 38.90635666666667, "is_disabled": 0, "lon": -77.01018966666666}, {"fusion_lat": 0.0, "type": "electric_scooter", "name": "7d6aba378537201eaea13d914f053153", "fusion_lon": 0.0, "bike_id": "7d6aba378537201eaea13d914f053153", "is_reserved": 0, "rental_uris": {"android": "https://dc.lft.to/lastmile_qr_scan", "ios": "https://dc.lft.to/lastmile_qr_scan"}, "lat": 38.928109166666665, "is_disabled": 0, "lon": -77.05450033333334}, {"fusion_lat": 0.0, "type": "electric_scooter", "name": "e3daf9308f967eaab5a68d818aebeda7", "fusion_lon": 0.0, "bike_id": "e3daf9308f967eaab5a68d818aebeda7", "is_reserved": 0, "rental_uris": {"android": "https://dc.lft.to/lastmile_qr_scan", "ios": "https://dc.lft.to/lastmile_qr_scan"}, "lat": 38.949922, "is_disabled": 0, "lon": -77.02697533333334}, {"fusion_lat": 0.0, "type": "electric_bike", "name": "8aa7fc6c3eced530ef0d3193bed205d3", "fusion_lon": 0.0, "bike_id": "8aa7fc6c3eced530ef0d3193bed205d3", "is_reserved": 0, "rental_uris": {"android": "https://dc.lft.to/lastmile_qr_scan", "ios": "https://dc.lft.to/lastmile_qr_scan"}, "lat": 38.838106, "is_disabled": 0, "lon": -77.09522616666666}, {"fusion_lat": 0.0, "type": "electric_scooter", "name": "810f9718257742f34fc3777d39cc8bba", "fusion_lon": 0.0, "bike_id": "810f9718257742f34fc3777d39cc8bba", "is_reserved": 0, "rental_uris": {"android": "https://dc.lft.to/lastmile_qr_scan", "ios": "https://dc.lft.to/lastmile_qr_scan"}, "lat": 38.866607333333334, "is_disabled": 0, "lon": -76.98504083333333}, {"fusion_lat": 0.0, "type": "electric_bike", "name": "acc578870a457bb289f15f7bd2ea0574", "fusion_lon": 0.0, "bike_id": "acc578870a457bb289f15f7bd2ea0574", "is_reserved": 0, "rental_uris": {"android": "https://dc.lft.to/lastmile_qr_scan", "ios": "https://dc.lft.to/lastmile_qr_scan"}, "lat": 38.865187666666664, "is_disabled": 0, "lon": -76.9733815}, {"fusion_lat": 0.0, "type": "electric_scooter", "name": "b9dc589d840f7e3d0a69d1c5ac553b59", "fusion_lon": 0.0, "bike_id": "b9dc589d840f7e3d0a69d1c5ac553b59", "is_reserved": 0, "rental_uris": {"android": "https://dc.lft.to/lastmile_qr_scan", "ios": "https://dc.lft.to/lastmile_qr_scan"}, "lat": 38.898013, "is_disabled": 0, "lon": -76.99166266666667}, {"fusion_lat": 0.0, "type": "electric_scooter", "name": "39ca6c67c64d6e2a3ef91d5ba38b1fdc", "fusion_lon": 0.0, "bike_id": "39ca6c67c64d6e2a3ef91d5ba38b1fdc", "is_reserved": 0, "rental_uris": {"android": "https://dc.lft.to/lastmile_qr_scan", "ios": "https://dc.lft.to/lastmile_qr_scan"}, "lat": 38.89423566666667, "is_disabled": 0, "lon": -77.0209335}, {"fusion_lat": 0.0, "type": "electric_scooter", "name": "1c1a800d5cda321629489205fb40b061", "fusion_lon": 0.0, "bike_id": "1c1a800d5cda321629489205fb40b061", "is_reserved": 0, "rental_uris": {"android": "https://dc.lft.to/lastmile_qr_scan", "ios": "https://dc.lft.to/lastmile_qr_scan"}, "lat": 38.914079666666666, "is_disabled": 0, "lon": -77.0323265}, {"fusion_lat": 0.0, "type": "electric_scooter", "name": "a575986961d0b9fe474f8f16cab5c537", "fusion_lon": 0.0, "bike_id": "a575986961d0b9fe474f8f16cab5c537", "is_reserved": 0, "rental_uris": {"android": "https://dc.lft.to/lastmile_qr_scan", "ios": "https://dc.lft.to/lastmile_qr_scan"}, "lat": 38.89315033333333, "is_disabled": 0, "lon": -76.95114766666667}, {"fusion_lat": 0.0, "type": "electric_scooter", "name": "884b895025e2bfffe06beab7c7c064cb", "fusion_lon": 0.0, "bike_id": "884b895025e2bfffe06beab7c7c064cb", "is_reserved": 0, "rental_uris": {"android": "https://dc.lft.to/lastmile_qr_scan", "ios": "https://dc.lft.to/lastmile_qr_scan"}, "lat": 38.94181783333333, "is_disabled": 0, "lon": -77.02533716666667}, {"fusion_lat": 0.0, "type": "electric_scooter", "name": "e65aa98baa1e4f75fea3c6194893091a", "fusion_lon": 0.0, "bike_id": "e65aa98baa1e4f75fea3c6194893091a", "is_reserved": 0, "rental_uris": {"android": "https://dc.lft.to/lastmile_qr_scan", "ios": "https://dc.lft.to/lastmile_qr_scan"}, "lat": 38.896126833333334, "is_disabled": 0, "lon": -76.99299016666667}, {"fusion_lat": 0.0, "type": "electric_scooter", "name": "a950c86d169feb33891b170122dbde86", "fusion_lon": 0.0, "bike_id": "a950c86d169feb33891b170122dbde86", "is_reserved": 0, "rental_uris": {"android": "https://dc.lft.to/lastmile_qr_scan", "ios": "https://dc.lft.to/lastmile_qr_scan"}, "lat": 38.884261333333335, "is_disabled": 0, "lon": -77.0304765}, {"fusion_lat": 0.0, "type": "electric_scooter", "name": "1fffaa9f19f63c613b76203151c89fa0", "fusion_lon": 0.0, "bike_id": "1fffaa9f19f63c613b76203151c89fa0", "is_reserved": 0, "rental_uris": {"android": "https://dc.lft.to/lastmile_qr_scan", "ios": "https://dc.lft.to/lastmile_qr_scan"}, "lat": 38.907265333333335, "is_disabled": 0, "lon": -77.03473766666667}, {"fusion_lat": 0.0, "type": "electric_scooter", "name": "b1f4756b621fb047699ec165c06427bd", "fusion_lon": 0.0, "bike_id": "b1f4756b621fb047699ec165c06427bd", "is_reserved": 0, "rental_uris": {"android": "https://dc.lft.to/lastmile_qr_scan", "ios": "https://dc.lft.to/lastmile_qr_scan"}, "lat": 38.916761666666666, "is_disabled": 0, "lon": -77.03691633333334}, {"fusion_lat": 0.0, "type": "electric_scooter", "name": "96a6ab9ff20122ef49a614280eff991d", "fusion_lon": 0.0, "bike_id": "96a6ab9ff20122ef49a614280eff991d", "is_reserved": 0, "rental_uris": {"android": "https://dc.lft.to/lastmile_qr_scan", "ios": "https://dc.lft.to/lastmile_qr_scan"}, "lat": 38.892203, "is_disabled": 0, "lon": -77.031659}, {"fusion_lat": 0.0, "type": "electric_scooter", "name": "72131864daa8767e67d7342b5f5f1109", "fusion_lon": 0.0, "bike_id": "72131864daa8767e67d7342b5f5f1109", "is_reserved": 0, "rental_uris": {"android": "https://dc.lft.to/lastmile_qr_scan", "ios": "https://dc.lft.to/lastmile_qr_scan"}, "lat": 38.889892, "is_disabled": 0, "lon": -76.93113933333333}, {"fusion_lat": 0.0, "type": "electric_scooter", "name": "368d956c1bec42f5089ac7c2df751c3b", "fusion_lon": 0.0, "bike_id": "368d956c1bec42f5089ac7c2df751c3b", "is_reserved": 0, "rental_uris": {"android": "https://dc.lft.to/lastmile_qr_scan", "ios": "https://dc.lft.to/lastmile_qr_scan"}, "lat": 38.9032225, "is_disabled": 0, "lon": -77.03290533333333}, {"fusion_lat": 0.0, "type": "electric_scooter", "name": "8c0c677f0c0afdf0873507274782bb37", "fusion_lon": 0.0, "bike_id": "8c0c677f0c0afdf0873507274782bb37", "is_reserved": 0, "rental_uris": {"android": "https://dc.lft.to/lastmile_qr_scan", "ios": "https://dc.lft.to/lastmile_qr_scan"}, "lat": 38.94066566666667, "is_disabled": 0, "lon": -77.0253655}, {"fusion_lat": 0.0, "type": "electric_scooter", "name": "bdb854c55b814bb2c58b5f2157d197a3", "fusion_lon": 0.0, "bike_id": "bdb854c55b814bb2c58b5f2157d197a3", "is_reserved": 0, "rental_uris": {"android": "https://dc.lft.to/lastmile_qr_scan", "ios": "https://dc.lft.to/lastmile_qr_scan"}, "lat": 38.919168, "is_disabled": 0, "lon": -77.03266633333334}, {"fusion_lat": 0.0, "type": "electric_scooter", "name": "a21cb9978aa555b90fc7248b7aff6aa7", "fusion_lon": 0.0, "bike_id": "a21cb9978aa555b90fc7248b7aff6aa7", "is_reserved": 0, "rental_uris": {"android": "https://dc.lft.to/lastmile_qr_scan", "ios": "https://dc.lft.to/lastmile_qr_scan"}, "lat": 38.90166333333333, "is_disabled": 0, "lon": -76.9807275}, {"fusion_lat": 0.0, "type": "electric_scooter", "name": "dbcff77c9df7e1625ff1354bf0d1589a", "fusion_lon": 0.0, "bike_id": "dbcff77c9df7e1625ff1354bf0d1589a", "is_reserved": 0, "rental_uris": {"android": "https://dc.lft.to/lastmile_qr_scan", "ios": "https://dc.lft.to/lastmile_qr_scan"}, "lat": 38.917567166666664, "is_disabled": 0, "lon": -77.03140683333334}, {"fusion_lat": 0.0, "type": "electric_scooter", "name": "519d4d31a2bbbaedca209db0ad309efb", "fusion_lon": 0.0, "bike_id": "519d4d31a2bbbaedca209db0ad309efb", "is_reserved": 0, "rental_uris": {"android": "https://dc.lft.to/lastmile_qr_scan", "ios": "https://dc.lft.to/lastmile_qr_scan"}, "lat": 38.93502183333333, "is_disabled": 0, "lon": -77.02417516666667}, {"fusion_lat": 0.0, "type": "electric_scooter", "name": "ad66bc4d0f55e3739e7dd440983e0376", "fusion_lon": 0.0, "bike_id": "ad66bc4d0f55e3739e7dd440983e0376", "is_reserved": 0, "rental_uris": {"android": "https://dc.lft.to/lastmile_qr_scan", "ios": "https://dc.lft.to/lastmile_qr_scan"}, "lat": 38.93675366666667, "is_disabled": 0, "lon": -77.03594683333333}, {"fusion_lat": 0.0, "type": "electric_scooter", "name": "903e948e931e489a662d6a12e27c6de2", "fusion_lon": 0.0, "bike_id": "903e948e931e489a662d6a12e27c6de2", "is_reserved": 0, "rental_uris": {"android": "https://dc.lft.to/lastmile_qr_scan", "ios": "https://dc.lft.to/lastmile_qr_scan"}, "lat": 38.90173166666667, "is_disabled": 0, "lon": -76.98069133333334}, {"fusion_lat": 0.0, "type": "electric_scooter", "name": "9f1772f979a434f52e766d44195e49b2", "fusion_lon": 0.0, "bike_id": "9f1772f979a434f52e766d44195e49b2", "is_reserved": 0, "rental_uris": {"android": "https://dc.lft.to/lastmile_qr_scan", "ios": "https://dc.lft.to/lastmile_qr_scan"}, "lat": 38.910375, "is_disabled": 0, "lon": -77.03496783333334}, {"fusion_lat": 0.0, "type": "electric_scooter", "name": "fc6aca0b98174f57cdb9411fd0623231", "fusion_lon": 0.0, "bike_id": "fc6aca0b98174f57cdb9411fd0623231", "is_reserved": 0, "rental_uris": {"android": "https://dc.lft.to/lastmile_qr_scan", "ios": "https://dc.lft.to/lastmile_qr_scan"}, "lat": 38.8919355, "is_disabled": 0, "lon": -76.98857466666666}, {"fusion_lat": 0.0, "type": "electric_bike", "name": "022e20b3d1d0e0d94e80f9cdfecf5003", "fusion_lon": 0.0, "bike_id": "022e20b3d1d0e0d94e80f9cdfecf5003", "is_reserved": 0, "rental_uris": {"android": "https://dc.lft.to/lastmile_qr_scan", "ios": "https://dc.lft.to/lastmile_qr_scan"}, "lat": 38.95157783333333, "is_disabled": 0, "lon": -77.012877}, {"fusion_lat": 0.0, "type": "electric_bike", "name": "aea33831d8e602c1915241c39404533d", "fusion_lon": 0.0, "bike_id": "aea33831d8e602c1915241c39404533d", "is_reserved": 0, "rental_uris": {"android": "https://dc.lft.to/lastmile_qr_scan", "ios": "https://dc.lft.to/lastmile_qr_scan"}, "lat": 38.983663666666665, "is_disabled": 0, "lon": -76.97211366666667}, {"fusion_lat": 0.0, "type": "electric_scooter", "name": "29f3fa8b81f8e466eaa63f950d456fb9", "fusion_lon": 0.0, "bike_id": "29f3fa8b81f8e466eaa63f950d456fb9", "is_reserved": 0, "rental_uris": {"android": "https://dc.lft.to/lastmile_qr_scan", "ios": "https://dc.lft.to/lastmile_qr_scan"}, "lat": 38.91500416666667, "is_disabled": 0, "lon": -77.007728}, {"fusion_lat": 0.0, "type": "electric_scooter", "name": "22ee46c07b2fd81472743d03f3c963d4", "fusion_lon": 0.0, "bike_id": "22ee46c07b2fd81472743d03f3c963d4", "is_reserved": 0, "rental_uris": {"android": "https://dc.lft.to/lastmile_qr_scan", "ios": "https://dc.lft.to/lastmile_qr_scan"}, "lat": 38.957469333333336, "is_disabled": 0, "lon": -77.02069016666667}, {"fusion_lat": 0.0, "type": "electric_bike", "name": "c6df5813a1e2627e3682d571d87c90d4", "fusion_lon": 0.0, "bike_id": "c6df5813a1e2627e3682d571d87c90d4", "is_reserved": 0, "rental_uris": {"android": "https://dc.lft.to/lastmile_qr_scan", "ios": "https://dc.lft.to/lastmile_qr_scan"}, "lat": 38.93207966666667, "is_disabled": 0, "lon": -77.01876483333334}, {"fusion_lat": 0.0, "type": "electric_scooter", "name": "7922a1b0cdc98540b85be79ceed26838", "fusion_lon": 0.0, "bike_id": "7922a1b0cdc98540b85be79ceed26838", "is_reserved": 0, "rental_uris": {"android": "https://dc.lft.to/lastmile_qr_scan", "ios": "https://dc.lft.to/lastmile_qr_scan"}, "lat": 38.87915983333333, "is_disabled": 0, "lon": -77.02131583333333}, {"fusion_lat": 0.0, "type": "electric_scooter", "name": "c5ab0d7b36e77dc25ec6ecf922c108b5", "fusion_lon": 0.0, "bike_id": "c5ab0d7b36e77dc25ec6ecf922c108b5", "is_reserved": 0, "rental_uris": {"android": "https://dc.lft.to/lastmile_qr_scan", "ios": "https://dc.lft.to/lastmile_qr_scan"}, "lat": 38.89958133333333, "is_disabled": 0, "lon": -76.975291}, {"fusion_lat": 0.0, "type": "electric_bike", "name": "dc08c5fe2b11f484c64c196bd26266e7", "fusion_lon": 0.0, "bike_id": "dc08c5fe2b11f484c64c196bd26266e7", "is_reserved": 0, "rental_uris": {"android": "https://dc.lft.to/lastmile_qr_scan", "ios": "https://dc.lft.to/lastmile_qr_scan"}, "lat": 38.92338933333333, "is_disabled": 0, "lon": -76.97143716666666}, {"fusion_lat": 0.0, "type": "electric_scooter", "name": "195999cc33b4cd5679e04b555432d971", "fusion_lon": 0.0, "bike_id": "195999cc33b4cd5679e04b555432d971", "is_reserved": 0, "rental_uris": {"android": "https://dc.lft.to/lastmile_qr_scan", "ios": "https://dc.lft.to/lastmile_qr_scan"}, "lat": 38.91349266666667, "is_disabled": 0, "lon": -77.03183483333333}, {"fusion_lat": 0.0, "type": "electric_scooter", "name": "97c34d9a07a8dab4c400a877c57223c8", "fusion_lon": 0.0, "bike_id": "97c34d9a07a8dab4c400a877c57223c8", "is_reserved": 0, "rental_uris": {"android": "https://dc.lft.to/lastmile_qr_scan", "ios": "https://dc.lft.to/lastmile_qr_scan"}, "lat": 38.926509333333335, "is_disabled": 0, "lon": -77.04135566666666}, {"fusion_lat": 0.0, "type": "electric_scooter", "name": "ab86bf53f35cb4073eaad402d98f8264", "fusion_lon": 0.0, "bike_id": "ab86bf53f35cb4073eaad402d98f8264", "is_reserved": 0, "rental_uris": {"android": "https://dc.lft.to/lastmile_qr_scan", "ios": "https://dc.lft.to/lastmile_qr_scan"}, "lat": 38.923907, "is_disabled": 0, "lon": -77.03643683333334}, {"fusion_lat": 0.0, "type": "electric_scooter", "name": "bba664412351f29435177043044aa5b7", "fusion_lon": 0.0, "bike_id": "bba664412351f29435177043044aa5b7", "is_reserved": 0, "rental_uris": {"android": "https://dc.lft.to/lastmile_qr_scan", "ios": "https://dc.lft.to/lastmile_qr_scan"}, "lat": 38.936081, "is_disabled": 0, "lon": -77.02919983333334}, {"fusion_lat": 0.0, "type": "electric_scooter", "name": "a9c323074fa60ca03f37b6bf4107af11", "fusion_lon": 0.0, "bike_id": "a9c323074fa60ca03f37b6bf4107af11", "is_reserved": 0, "rental_uris": {"android": "https://dc.lft.to/lastmile_qr_scan", "ios": "https://dc.lft.to/lastmile_qr_scan"}, "lat": 38.924886666666666, "is_disabled": 0, "lon": -77.03502583333334}, {"fusion_lat": 0.0, "type": "electric_scooter", "name": "5a02fd47868c6c2a6fe5dab7568973e3", "fusion_lon": 0.0, "bike_id": "5a02fd47868c6c2a6fe5dab7568973e3", "is_reserved": 0, "rental_uris": {"android": "https://dc.lft.to/lastmile_qr_scan", "ios": "https://dc.lft.to/lastmile_qr_scan"}, "lat": 38.836982, "is_disabled": 0, "lon": -77.00577933333334}, {"fusion_lat": 0.0, "type": "electric_scooter", "name": "6b347e8aef8ca93cc4f0c16092122c8a", "fusion_lon": 0.0, "bike_id": "6b347e8aef8ca93cc4f0c16092122c8a", "is_reserved": 0, "rental_uris": {"android": "https://dc.lft.to/lastmile_qr_scan", "ios": "https://dc.lft.to/lastmile_qr_scan"}, "lat": 38.91805, "is_disabled": 0, "lon": -77.03022416666667}, {"fusion_lat": 0.0, "type": "electric_scooter", "name": "abaa3c8909fd7fd35b96c94631311d23", "fusion_lon": 0.0, "bike_id": "abaa3c8909fd7fd35b96c94631311d23", "is_reserved": 0, "rental_uris": {"android": "https://dc.lft.to/lastmile_qr_scan", "ios": "https://dc.lft.to/lastmile_qr_scan"}, "lat": 38.92088283333333, "is_disabled": 0, "lon": -77.07362866666666}, {"fusion_lat": 0.0, "type": "electric_scooter", "name": "5265e02f6038c5aee05d888e24b48efb", "fusion_lon": 0.0, "bike_id": "5265e02f6038c5aee05d888e24b48efb", "is_reserved": 0, "rental_uris": {"android": "https://dc.lft.to/lastmile_qr_scan", "ios": "https://dc.lft.to/lastmile_qr_scan"}, "lat": 38.94114, "is_disabled": 0, "lon": -77.01535383333334}, {"fusion_lat": 0.0, "type": "electric_scooter", "name": "980f7cf86c9a5f268c3fda210479837e", "fusion_lon": 0.0, "bike_id": "980f7cf86c9a5f268c3fda210479837e", "is_reserved": 0, "rental_uris": {"android": "https://dc.lft.to/lastmile_qr_scan", "ios": "https://dc.lft.to/lastmile_qr_scan"}, "lat": 38.844208, "is_disabled": 0, "lon": -76.99773033333334}, {"fusion_lat": 0.0, "type": "electric_scooter", "name": "0a9db492823af588a34d36ee7d6516cb", "fusion_lon": 0.0, "bike_id": "0a9db492823af588a34d36ee7d6516cb", "is_reserved": 0, "rental_uris": {"android": "https://dc.lft.to/lastmile_qr_scan", "ios": "https://dc.lft.to/lastmile_qr_scan"}, "lat": 38.93483166666667, "is_disabled": 0, "lon": -77.02434833333334}, {"fusion_lat": 0.0, "type": "electric_scooter", "name": "a94b74eece24bcf34bc6ee29b6da78f3", "fusion_lon": 0.0, "bike_id": "a94b74eece24bcf34bc6ee29b6da78f3", "is_reserved": 0, "rental_uris": {"android": "https://dc.lft.to/lastmile_qr_scan", "ios": "https://dc.lft.to/lastmile_qr_scan"}, "lat": 38.903535166666664, "is_disabled": 0, "lon": -77.06110183333334}, {"fusion_lat": 0.0, "type": "electric_scooter", "name": "c41ee35aaea8b02e7166142365875e03", "fusion_lon": 0.0, "bike_id": "c41ee35aaea8b02e7166142365875e03", "is_reserved": 0, "rental_uris": {"android": "https://dc.lft.to/lastmile_qr_scan", "ios": "https://dc.lft.to/lastmile_qr_scan"}, "lat": 38.906679833333335, "is_disabled": 0, "lon": -77.005875}, {"fusion_lat": 0.0, "type": "electric_scooter", "name": "d11592c88c5ba498308f92222e712c00", "fusion_lon": 0.0, "bike_id": "d11592c88c5ba498308f92222e712c00", "is_reserved": 0, "rental_uris": {"android": "https://dc.lft.to/lastmile_qr_scan", "ios": "https://dc.lft.to/lastmile_qr_scan"}, "lat": 38.92861666666667, "is_disabled": 0, "lon": -77.03097216666667}, {"fusion_lat": 0.0, "type": "electric_scooter", "name": "cd37468a288a7a3ba6dcd45120889253", "fusion_lon": 0.0, "bike_id": "cd37468a288a7a3ba6dcd45120889253", "is_reserved": 0, "rental_uris": {"android": "https://dc.lft.to/lastmile_qr_scan", "ios": "https://dc.lft.to/lastmile_qr_scan"}, "lat": 38.914816, "is_disabled": 0, "lon": -77.0258325}, {"fusion_lat": 0.0, "type": "electric_scooter", "name": "19c50ed18309c17982e77a339f5311a7", "fusion_lon": 0.0, "bike_id": "19c50ed18309c17982e77a339f5311a7", "is_reserved": 0, "rental_uris": {"android": "https://dc.lft.to/lastmile_qr_scan", "ios": "https://dc.lft.to/lastmile_qr_scan"}, "lat": 38.92485383333333, "is_disabled": 0, "lon": -77.02145533333334}, {"fusion_lat": 0.0, "type": "electric_bike", "name": "f50b2384f5d2003c9abdf953d663c509", "fusion_lon": 0.0, "bike_id": "f50b2384f5d2003c9abdf953d663c509", "is_reserved": 0, "rental_uris": {"android": "https://dc.lft.to/lastmile_qr_scan", "ios": "https://dc.lft.to/lastmile_qr_scan"}, "lat": 38.933964333333336, "is_disabled": 0, "lon": -77.0354475}, {"fusion_lat": 0.0, "type": "electric_scooter", "name": "a2383f1ba418e8ab635c9ff3d5d7c18c", "fusion_lon": 0.0, "bike_id": "a2383f1ba418e8ab635c9ff3d5d7c18c", "is_reserved": 0, "rental_uris": {"android": "https://dc.lft.to/lastmile_qr_scan", "ios": "https://dc.lft.to/lastmile_qr_scan"}, "lat": 38.9202985, "is_disabled": 0, "lon": -77.01116033333334}, {"fusion_lat": 0.0, "type": "electric_scooter", "name": "9329990305a089de16207d154c09fc56", "fusion_lon": 0.0, "bike_id": "9329990305a089de16207d154c09fc56", "is_reserved": 0, "rental_uris": {"android": "https://dc.lft.to/lastmile_qr_scan", "ios": "https://dc.lft.to/lastmile_qr_scan"}, "lat": 38.90755266666667, "is_disabled": 0, "lon": -77.00121633333333}, {"fusion_lat": 0.0, "type": "electric_scooter", "name": "044f30a455436a17ace466bf281c1364", "fusion_lon": 0.0, "bike_id": "044f30a455436a17ace466bf281c1364", "is_reserved": 0, "rental_uris": {"android": "https://dc.lft.to/lastmile_qr_scan", "ios": "https://dc.lft.to/lastmile_qr_scan"}, "lat": 38.928012833333334, "is_disabled": 0, "lon": -77.02478683333334}, {"fusion_lat": 0.0, "type": "electric_scooter", "name": "a380b0dd7e17783735a4ae821aa2715c", "fusion_lon": 0.0, "bike_id": "a380b0dd7e17783735a4ae821aa2715c", "is_reserved": 0, "rental_uris": {"android": "https://dc.lft.to/lastmile_qr_scan", "ios": "https://dc.lft.to/lastmile_qr_scan"}, "lat": 38.9205805, "is_disabled": 0, "lon": -77.03999033333334}, {"fusion_lat": 0.0, "type": "electric_scooter", "name": "e66c5740a9ad92f4128f89db21fb0950", "fusion_lon": 0.0, "bike_id": "e66c5740a9ad92f4128f89db21fb0950", "is_reserved": 0, "rental_uris": {"android": "https://dc.lft.to/lastmile_qr_scan", "ios": "https://dc.lft.to/lastmile_qr_scan"}, "lat": 38.973690500000004, "is_disabled": 0, "lon": -77.01865033333333}, {"fusion_lat": 0.0, "type": "electric_scooter", "name": "7904eb4f800c4b904a31c4dfa0edd400", "fusion_lon": 0.0, "bike_id": "7904eb4f800c4b904a31c4dfa0edd400", "is_reserved": 0, "rental_uris": {"android": "https://dc.lft.to/lastmile_qr_scan", "ios": "https://dc.lft.to/lastmile_qr_scan"}, "lat": 38.93338416666667, "is_disabled": 0, "lon": -77.05715533333333}, {"fusion_lat": 0.0, "type": "electric_scooter", "name": "598a1c6fccdc0b4e2aae798813e57683", "fusion_lon": 0.0, "bike_id": "598a1c6fccdc0b4e2aae798813e57683", "is_reserved": 0, "rental_uris": {"android": "https://dc.lft.to/lastmile_qr_scan", "ios": "https://dc.lft.to/lastmile_qr_scan"}, "lat": 38.901244, "is_disabled": 0, "lon": -77.04323683333334}, {"fusion_lat": 0.0, "type": "electric_scooter", "name": "898ecb72a4711aa88ade08fb26f4c6ed", "fusion_lon": 0.0, "bike_id": "898ecb72a4711aa88ade08fb26f4c6ed", "is_reserved": 0, "rental_uris": {"android": "https://dc.lft.to/lastmile_qr_scan", "ios": "https://dc.lft.to/lastmile_qr_scan"}, "lat": 38.87075816666667, "is_disabled": 0, "lon": -76.9891685}, {"fusion_lat": 0.0, "type": "electric_bike", "name": "5b69eaab577ff7777ea77e46081d335f", "fusion_lon": 0.0, "bike_id": "5b69eaab577ff7777ea77e46081d335f", "is_reserved": 0, "rental_uris": {"android": "https://dc.lft.to/lastmile_qr_scan", "ios": "https://dc.lft.to/lastmile_qr_scan"}, "lat": 38.9362835, "is_disabled": 0, "lon": -77.03684566666666}, {"fusion_lat": 0.0, "type": "electric_scooter", "name": "3885efca6c0368655769767ea8b0b938", "fusion_lon": 0.0, "bike_id": "3885efca6c0368655769767ea8b0b938", "is_reserved": 0, "rental_uris": {"android": "https://dc.lft.to/lastmile_qr_scan", "ios": "https://dc.lft.to/lastmile_qr_scan"}, "lat": 38.885774166666664, "is_disabled": 0, "lon": -77.0175655}, {"fusion_lat": 0.0, "type": "electric_bike", "name": "4418dc4795d106f97647ed856e297be0", "fusion_lon": 0.0, "bike_id": "4418dc4795d106f97647ed856e297be0", "is_reserved": 0, "rental_uris": {"android": "https://dc.lft.to/lastmile_qr_scan", "ios": "https://dc.lft.to/lastmile_qr_scan"}, "lat": 38.878366666666665, "is_disabled": 0, "lon": -76.983784}, {"fusion_lat": 0.0, "type": "electric_scooter", "name": "af9d5e9d96abbfd24a3766d23fc4de84", "fusion_lon": 0.0, "bike_id": "af9d5e9d96abbfd24a3766d23fc4de84", "is_reserved": 0, "rental_uris": {"android": "https://dc.lft.to/lastmile_qr_scan", "ios": "https://dc.lft.to/lastmile_qr_scan"}, "lat": 38.95841183333334, "is_disabled": 0, "lon": -77.06859083333333}, {"fusion_lat": 0.0, "type": "electric_scooter", "name": "864fbab6d6d59c8872c53b85b24bee33", "fusion_lon": 0.0, "bike_id": "864fbab6d6d59c8872c53b85b24bee33", "is_reserved": 0, "rental_uris": {"android": "https://dc.lft.to/lastmile_qr_scan", "ios": "https://dc.lft.to/lastmile_qr_scan"}, "lat": 38.922471333333334, "is_disabled": 0, "lon": -77.00918583333333}, {"fusion_lat": 0.0, "type": "electric_scooter", "name": "2725deb7a0ccbaffce8e37a67ce93fdf", "fusion_lon": 0.0, "bike_id": "2725deb7a0ccbaffce8e37a67ce93fdf", "is_reserved": 0, "rental_uris": {"android": "https://dc.lft.to/lastmile_qr_scan", "ios": "https://dc.lft.to/lastmile_qr_scan"}, "lat": 38.87360616666667, "is_disabled": 0, "lon": -77.00603133333334}, {"fusion_lat": 0.0, "type": "electric_bike", "name": "844c69c6dbaae20b6e476f9bf11a7c49", "fusion_lon": 0.0, "bike_id": "844c69c6dbaae20b6e476f9bf11a7c49", "is_reserved": 0, "rental_uris": {"android": "https://dc.lft.to/lastmile_qr_scan", "ios": "https://dc.lft.to/lastmile_qr_scan"}, "lat": 38.957508833333335, "is_disabled": 0, "lon": -77.02300166666667}, {"fusion_lat": 0.0, "type": "electric_scooter", "name": "b8418e68160fad80351205510dc145ab", "fusion_lon": 0.0, "bike_id": "b8418e68160fad80351205510dc145ab", "is_reserved": 0, "rental_uris": {"android": "https://dc.lft.to/lastmile_qr_scan", "ios": "https://dc.lft.to/lastmile_qr_scan"}, "lat": 38.9156195, "is_disabled": 0, "lon": -77.0258245}, {"fusion_lat": 0.0, "type": "electric_scooter", "name": "2dfbeb7986ac6659cffd35a7bb8792ba", "fusion_lon": 0.0, "bike_id": "2dfbeb7986ac6659cffd35a7bb8792ba", "is_reserved": 0, "rental_uris": {"android": "https://dc.lft.to/lastmile_qr_scan", "ios": "https://dc.lft.to/lastmile_qr_scan"}, "lat": 38.91357983333333, "is_disabled": 0, "lon": -77.069265}, {"fusion_lat": 0.0, "type": "electric_bike", "name": "9458934be91dd121b013520d9db7efc1", "fusion_lon": 0.0, "bike_id": "9458934be91dd121b013520d9db7efc1", "is_reserved": 0, "rental_uris": {"android": "https://dc.lft.to/lastmile_qr_scan", "ios": "https://dc.lft.to/lastmile_qr_scan"}, "lat": 38.80016616666666, "is_disabled": 0, "lon": -77.05480883333334}, {"fusion_lat": 0.0, "type": "electric_scooter", "name": "e6c52fe037d6b830165c902525576b79", "fusion_lon": 0.0, "bike_id": "e6c52fe037d6b830165c902525576b79", "is_reserved": 0, "rental_uris": {"android": "https://dc.lft.to/lastmile_qr_scan", "ios": "https://dc.lft.to/lastmile_qr_scan"}, "lat": 38.92020466666666, "is_disabled": 0, "lon": -77.01306733333334}, {"fusion_lat": 0.0, "type": "electric_scooter", "name": "e638bfe3413bacb3e0aa8ed99bf4208a", "fusion_lon": 0.0, "bike_id": "e638bfe3413bacb3e0aa8ed99bf4208a", "is_reserved": 0, "rental_uris": {"android": "https://dc.lft.to/lastmile_qr_scan", "ios": "https://dc.lft.to/lastmile_qr_scan"}, "lat": 38.8641195, "is_disabled": 0, "lon": -77.012267}, {"fusion_lat": 0.0, "type": "electric_scooter", "name": "fa9674578665e9fc5dd25ab19bf1202b", "fusion_lon": 0.0, "bike_id": "fa9674578665e9fc5dd25ab19bf1202b", "is_reserved": 0, "rental_uris": {"android": "https://dc.lft.to/lastmile_qr_scan", "ios": "https://dc.lft.to/lastmile_qr_scan"}, "lat": 38.892202833333336, "is_disabled": 0, "lon": -77.03336166666666}, {"fusion_lat": 0.0, "type": "electric_scooter", "name": "ee22dba6cdaad76f3ce24c8fdf0c1187", "fusion_lon": 0.0, "bike_id": "ee22dba6cdaad76f3ce24c8fdf0c1187", "is_reserved": 0, "rental_uris": {"android": "https://dc.lft.to/lastmile_qr_scan", "ios": "https://dc.lft.to/lastmile_qr_scan"}, "lat": 38.88766733333333, "is_disabled": 0, "lon": -77.0177265}, {"fusion_lat": 0.0, "type": "electric_scooter", "name": "7b0cc15ca7a1297b5af64a9b017f7bbc", "fusion_lon": 0.0, "bike_id": "7b0cc15ca7a1297b5af64a9b017f7bbc", "is_reserved": 0, "rental_uris": {"android": "https://dc.lft.to/lastmile_qr_scan", "ios": "https://dc.lft.to/lastmile_qr_scan"}, "lat": 38.90568716666667, "is_disabled": 0, "lon": -77.02763583333333}, {"fusion_lat": 0.0, "type": "electric_scooter", "name": "75075402acf2465d77b5ddc2f16d7a1f", "fusion_lon": 0.0, "bike_id": "75075402acf2465d77b5ddc2f16d7a1f", "is_reserved": 0, "rental_uris": {"android": "https://dc.lft.to/lastmile_qr_scan", "ios": "https://dc.lft.to/lastmile_qr_scan"}, "lat": 38.92223666666667, "is_disabled": 0, "lon": -77.03903183333334}, {"fusion_lat": 0.0, "type": "electric_scooter", "name": "b7813d8f25ca9080bbf0f4d26d136a73", "fusion_lon": 0.0, "bike_id": "b7813d8f25ca9080bbf0f4d26d136a73", "is_reserved": 0, "rental_uris": {"android": "https://dc.lft.to/lastmile_qr_scan", "ios": "https://dc.lft.to/lastmile_qr_scan"}, "lat": 38.92447633333333, "is_disabled": 0, "lon": -77.04117066666667}, {"fusion_lat": 0.0, "type": "electric_scooter", "name": "c263e7832d2ace453af5788e0a3d2014", "fusion_lon": 0.0, "bike_id": "c263e7832d2ace453af5788e0a3d2014", "is_reserved": 0, "rental_uris": {"android": "https://dc.lft.to/lastmile_qr_scan", "ios": "https://dc.lft.to/lastmile_qr_scan"}, "lat": 38.924021, "is_disabled": 0, "lon": -77.0733435}, {"fusion_lat": 0.0, "type": "electric_scooter", "name": "a176f31c903e3f25f50bca7c1673af9c", "fusion_lon": 0.0, "bike_id": "a176f31c903e3f25f50bca7c1673af9c", "is_reserved": 0, "rental_uris": {"android": "https://dc.lft.to/lastmile_qr_scan", "ios": "https://dc.lft.to/lastmile_qr_scan"}, "lat": 38.9232825, "is_disabled": 0, "lon": -77.03605483333334}, {"fusion_lat": 0.0, "type": "electric_scooter", "name": "e1d1dc8603d841f65f027256d5811912", "fusion_lon": 0.0, "bike_id": "e1d1dc8603d841f65f027256d5811912", "is_reserved": 0, "rental_uris": {"android": "https://dc.lft.to/lastmile_qr_scan", "ios": "https://dc.lft.to/lastmile_qr_scan"}, "lat": 38.90245683333333, "is_disabled": 0, "lon": -77.01947233333334}, {"fusion_lat": 0.0, "type": "electric_scooter", "name": "62e5e2d00fa76f60f14f5ae43b7b6385", "fusion_lon": 0.0, "bike_id": "62e5e2d00fa76f60f14f5ae43b7b6385", "is_reserved": 0, "rental_uris": {"android": "https://dc.lft.to/lastmile_qr_scan", "ios": "https://dc.lft.to/lastmile_qr_scan"}, "lat": 38.90172916666667, "is_disabled": 0, "lon": -76.98063116666667}, {"fusion_lat": 0.0, "type": "electric_scooter", "name": "973bee4de05814b9daee689bab44edc5", "fusion_lon": 0.0, "bike_id": "973bee4de05814b9daee689bab44edc5", "is_reserved": 0, "rental_uris": {"android": "https://dc.lft.to/lastmile_qr_scan", "ios": "https://dc.lft.to/lastmile_qr_scan"}, "lat": 38.910812666666665, "is_disabled": 0, "lon": -77.03718716666667}, {"fusion_lat": 0.0, "type": "electric_scooter", "name": "2b080bca75530053b774a65f442052cd", "fusion_lon": 0.0, "bike_id": "2b080bca75530053b774a65f442052cd", "is_reserved": 0, "rental_uris": {"android": "https://dc.lft.to/lastmile_qr_scan", "ios": "https://dc.lft.to/lastmile_qr_scan"}, "lat": 38.892365, "is_disabled": 0, "lon": -77.032095}, {"fusion_lat": 0.0, "type": "electric_scooter", "name": "e4c0b9c196f0b65b5bb045ba84883584", "fusion_lon": 0.0, "bike_id": "e4c0b9c196f0b65b5bb045ba84883584", "is_reserved": 0, "rental_uris": {"android": "https://dc.lft.to/lastmile_qr_scan", "ios": "https://dc.lft.to/lastmile_qr_scan"}, "lat": 38.8873385, "is_disabled": 0, "lon": -77.02581316666667}, {"fusion_lat": 0.0, "type": "electric_scooter", "name": "42124c34ca11e5e542ce27cbebffc7bb", "fusion_lon": 0.0, "bike_id": "42124c34ca11e5e542ce27cbebffc7bb", "is_reserved": 0, "rental_uris": {"android": "https://dc.lft.to/lastmile_qr_scan", "ios": "https://dc.lft.to/lastmile_qr_scan"}, "lat": 38.892282, "is_disabled": 0, "lon": -77.03181}, {"fusion_lat": 0.0, "type": "electric_scooter", "name": "09971a0da2cfd39644b0fd8ee6918767", "fusion_lon": 0.0, "bike_id": "09971a0da2cfd39644b0fd8ee6918767", "is_reserved": 0, "rental_uris": {"android": "https://dc.lft.to/lastmile_qr_scan", "ios": "https://dc.lft.to/lastmile_qr_scan"}, "lat": 38.90936166666667, "is_disabled": 0, "lon": -77.03851633333333}, {"fusion_lat": 0.0, "type": "electric_bike", "name": "11b83422146d4f84f140f8ef79ab58ce", "fusion_lon": 0.0, "bike_id": "11b83422146d4f84f140f8ef79ab58ce", "is_reserved": 0, "rental_uris": {"android": "https://dc.lft.to/lastmile_qr_scan", "ios": "https://dc.lft.to/lastmile_qr_scan"}, "lat": 38.967656166666664, "is_disabled": 0, "lon": -77.000525}, {"fusion_lat": 0.0, "type": "electric_scooter", "name": "bd0692c2adbf3b438d00ffaeaf67f11e", "fusion_lon": 0.0, "bike_id": "bd0692c2adbf3b438d00ffaeaf67f11e", "is_reserved": 0, "rental_uris": {"android": "https://dc.lft.to/lastmile_qr_scan", "ios": "https://dc.lft.to/lastmile_qr_scan"}, "lat": 38.917446, "is_disabled": 0, "lon": -77.03184233333333}, {"fusion_lat": 0.0, "type": "electric_scooter", "name": "a462ca9a6f05cae96ac80cc7ec00c7db", "fusion_lon": 0.0, "bike_id": "a462ca9a6f05cae96ac80cc7ec00c7db", "is_reserved": 0, "rental_uris": {"android": "https://dc.lft.to/lastmile_qr_scan", "ios": "https://dc.lft.to/lastmile_qr_scan"}, "lat": 38.90955116666667, "is_disabled": 0, "lon": -77.03211016666667}, {"fusion_lat": 0.0, "type": "electric_scooter", "name": "e16e91d994b244386c3354dba57b089b", "fusion_lon": 0.0, "bike_id": "e16e91d994b244386c3354dba57b089b", "is_reserved": 0, "rental_uris": {"android": "https://dc.lft.to/lastmile_qr_scan", "ios": "https://dc.lft.to/lastmile_qr_scan"}, "lat": 38.901515333333336, "is_disabled": 0, "lon": -76.99026533333333}, {"fusion_lat": 0.0, "type": "electric_scooter", "name": "9add6a1f7926e6affa53caa6c15fe5aa", "fusion_lon": 0.0, "bike_id": "9add6a1f7926e6affa53caa6c15fe5aa", "is_reserved": 0, "rental_uris": {"android": "https://dc.lft.to/lastmile_qr_scan", "ios": "https://dc.lft.to/lastmile_qr_scan"}, "lat": 38.9002965, "is_disabled": 0, "lon": -76.98436966666667}, {"fusion_lat": 0.0, "type": "electric_scooter", "name": "654b718c82453be182b792a2741ac51d", "fusion_lon": 0.0, "bike_id": "654b718c82453be182b792a2741ac51d", "is_reserved": 0, "rental_uris": {"android": "https://dc.lft.to/lastmile_qr_scan", "ios": "https://dc.lft.to/lastmile_qr_scan"}, "lat": 38.9132895, "is_disabled": 0, "lon": -77.01462166666667}, {"fusion_lat": 0.0, "type": "electric_scooter", "name": "1dd59cd5c045154b4b714076bb23d111", "fusion_lon": 0.0, "bike_id": "1dd59cd5c045154b4b714076bb23d111", "is_reserved": 0, "rental_uris": {"android": "https://dc.lft.to/lastmile_qr_scan", "ios": "https://dc.lft.to/lastmile_qr_scan"}, "lat": 38.90389, "is_disabled": 0, "lon": -77.062721}, {"fusion_lat": 0.0, "type": "electric_scooter", "name": "2ad8d4857664c5700f96c23b664cd772", "fusion_lon": 0.0, "bike_id": "2ad8d4857664c5700f96c23b664cd772", "is_reserved": 0, "rental_uris": {"android": "https://dc.lft.to/lastmile_qr_scan", "ios": "https://dc.lft.to/lastmile_qr_scan"}, "lat": 38.909864166666665, "is_disabled": 0, "lon": -77.02388633333334}, {"fusion_lat": 0.0, "type": "electric_bike", "name": "34888aa101d75273d0da09399d0461cf", "fusion_lon": 0.0, "bike_id": "34888aa101d75273d0da09399d0461cf", "is_reserved": 0, "rental_uris": {"android": "https://dc.lft.to/lastmile_qr_scan", "ios": "https://dc.lft.to/lastmile_qr_scan"}, "lat": 38.88335816666667, "is_disabled": 0, "lon": -77.0656135}, {"fusion_lat": 0.0, "type": "electric_scooter", "name": "e0834946a2df8c1f0eb68de02dc3cfe2", "fusion_lon": 0.0, "bike_id": "e0834946a2df8c1f0eb68de02dc3cfe2", "is_reserved": 0, "rental_uris": {"android": "https://dc.lft.to/lastmile_qr_scan", "ios": "https://dc.lft.to/lastmile_qr_scan"}, "lat": 38.892477666666665, "is_disabled": 0, "lon": -76.988418}, {"fusion_lat": 0.0, "type": "electric_scooter", "name": "5ff7aad5a6af335b74285cc22e1817ae", "fusion_lon": 0.0, "bike_id": "5ff7aad5a6af335b74285cc22e1817ae", "is_reserved": 0, "rental_uris": {"android": "https://dc.lft.to/lastmile_qr_scan", "ios": "https://dc.lft.to/lastmile_qr_scan"}, "lat": 38.921479833333336, "is_disabled": 0, "lon": -77.03357233333334}, {"fusion_lat": 0.0, "type": "electric_bike", "name": "ba7ff532d1305993f2b32741324c1096", "fusion_lon": 0.0, "bike_id": "ba7ff532d1305993f2b32741324c1096", "is_reserved": 0, "rental_uris": {"android": "https://dc.lft.to/lastmile_qr_scan", "ios": "https://dc.lft.to/lastmile_qr_scan"}, "lat": 39.05501566666667, "is_disabled": 0, "lon": -77.11786466666666}, {"fusion_lat": 0.0, "type": "electric_scooter", "name": "b8a8bf90254a6e4ecf7d073e7a1bd002", "fusion_lon": 0.0, "bike_id": "b8a8bf90254a6e4ecf7d073e7a1bd002", "is_reserved": 0, "rental_uris": {"android": "https://dc.lft.to/lastmile_qr_scan", "ios": "https://dc.lft.to/lastmile_qr_scan"}, "lat": 38.90374166666667, "is_disabled": 0, "lon": -77.0400595}, {"fusion_lat": 0.0, "type": "electric_scooter", "name": "d1b44de07426300372a40ed15655e66a", "fusion_lon": 0.0, "bike_id": "d1b44de07426300372a40ed15655e66a", "is_reserved": 0, "rental_uris": {"android": "https://dc.lft.to/lastmile_qr_scan", "ios": "https://dc.lft.to/lastmile_qr_scan"}, "lat": 38.919828833333334, "is_disabled": 0, "lon": -77.0379465}, {"fusion_lat": 0.0, "type": "electric_scooter", "name": "941ad7e70021589f09f0c45cd01a4cdb", "fusion_lon": 0.0, "bike_id": "941ad7e70021589f09f0c45cd01a4cdb", "is_reserved": 0, "rental_uris": {"android": "https://dc.lft.to/lastmile_qr_scan", "ios": "https://dc.lft.to/lastmile_qr_scan"}, "lat": 38.92081566666667, "is_disabled": 0, "lon": -77.02321483333333}, {"fusion_lat": 0.0, "type": "electric_bike", "name": "08cb3f50f7b534ea0098f1d2671027c1", "fusion_lon": 0.0, "bike_id": "08cb3f50f7b534ea0098f1d2671027c1", "is_reserved": 0, "rental_uris": {"android": "https://dc.lft.to/lastmile_qr_scan", "ios": "https://dc.lft.to/lastmile_qr_scan"}, "lat": 39.034287166666665, "is_disabled": 0, "lon": -77.0410275}, {"fusion_lat": 0.0, "type": "electric_scooter", "name": "d2aa98b85ab36f1a08341d230a18a9ee", "fusion_lon": 0.0, "bike_id": "d2aa98b85ab36f1a08341d230a18a9ee", "is_reserved": 0, "rental_uris": {"android": "https://dc.lft.to/lastmile_qr_scan", "ios": "https://dc.lft.to/lastmile_qr_scan"}, "lat": 38.87964216666667, "is_disabled": 0, "lon": -76.98747766666666}, {"fusion_lat": 0.0, "type": "electric_scooter", "name": "70664180ff9937a6ce560bdb9f3dfec9", "fusion_lon": 0.0, "bike_id": "70664180ff9937a6ce560bdb9f3dfec9", "is_reserved": 0, "rental_uris": {"android": "https://dc.lft.to/lastmile_qr_scan", "ios": "https://dc.lft.to/lastmile_qr_scan"}, "lat": 38.9213265, "is_disabled": 0, "lon": -77.01797433333333}, {"fusion_lat": 0.0, "type": "electric_scooter", "name": "cad75c3c8ea4ae12fe8a783bdaf3dcb1", "fusion_lon": 0.0, "bike_id": "cad75c3c8ea4ae12fe8a783bdaf3dcb1", "is_reserved": 0, "rental_uris": {"android": "https://dc.lft.to/lastmile_qr_scan", "ios": "https://dc.lft.to/lastmile_qr_scan"}, "lat": 38.93104616666667, "is_disabled": 0, "lon": -77.02480333333334}, {"fusion_lat": 0.0, "type": "electric_scooter", "name": "5f77cb206a3a8372069fdfc8dea96898", "fusion_lon": 0.0, "bike_id": "5f77cb206a3a8372069fdfc8dea96898", "is_reserved": 0, "rental_uris": {"android": "https://dc.lft.to/lastmile_qr_scan", "ios": "https://dc.lft.to/lastmile_qr_scan"}, "lat": 38.95557433333333, "is_disabled": 0, "lon": -77.07003366666666}, {"fusion_lat": 0.0, "type": "electric_scooter", "name": "d62b61ec5b8f2de1d2c288a71e25f1be", "fusion_lon": 0.0, "bike_id": "d62b61ec5b8f2de1d2c288a71e25f1be", "is_reserved": 0, "rental_uris": {"android": "https://dc.lft.to/lastmile_qr_scan", "ios": "https://dc.lft.to/lastmile_qr_scan"}, "lat": 38.9170965, "is_disabled": 0, "lon": -77.00863966666667}, {"fusion_lat": 0.0, "type": "electric_scooter", "name": "7df63f80af5e40ee97a69da51ed7ab73", "fusion_lon": 0.0, "bike_id": "7df63f80af5e40ee97a69da51ed7ab73", "is_reserved": 0, "rental_uris": {"android": "https://dc.lft.to/lastmile_qr_scan", "ios": "https://dc.lft.to/lastmile_qr_scan"}, "lat": 38.913863666666664, "is_disabled": 0, "lon": -77.03317}, {"fusion_lat": 0.0, "type": "electric_scooter", "name": "3e1e8b1e3e30a90c54d3dd71504188f6", "fusion_lon": 0.0, "bike_id": "3e1e8b1e3e30a90c54d3dd71504188f6", "is_reserved": 0, "rental_uris": {"android": "https://dc.lft.to/lastmile_qr_scan", "ios": "https://dc.lft.to/lastmile_qr_scan"}, "lat": 38.95021416666667, "is_disabled": 0, "lon": -77.06683633333333}, {"fusion_lat": 0.0, "type": "electric_scooter", "name": "87df8402060a29cd0226a3a93174c54f", "fusion_lon": 0.0, "bike_id": "87df8402060a29cd0226a3a93174c54f", "is_reserved": 0, "rental_uris": {"android": "https://dc.lft.to/lastmile_qr_scan", "ios": "https://dc.lft.to/lastmile_qr_scan"}, "lat": 38.92266016666667, "is_disabled": 0, "lon": -77.03673133333334}, {"fusion_lat": 0.0, "type": "electric_scooter", "name": "b9e1aa1cbb1cdefbf3e115998626b8ac", "fusion_lon": 0.0, "bike_id": "b9e1aa1cbb1cdefbf3e115998626b8ac", "is_reserved": 0, "rental_uris": {"android": "https://dc.lft.to/lastmile_qr_scan", "ios": "https://dc.lft.to/lastmile_qr_scan"}, "lat": 38.933242, "is_disabled": 0, "lon": -77.0440075}, {"fusion_lat": 0.0, "type": "electric_scooter", "name": "1adf521f3618bf45145ab2336a1252a2", "fusion_lon": 0.0, "bike_id": "1adf521f3618bf45145ab2336a1252a2", "is_reserved": 0, "rental_uris": {"android": "https://dc.lft.to/lastmile_qr_scan", "ios": "https://dc.lft.to/lastmile_qr_scan"}, "lat": 38.87706583333333, "is_disabled": 0, "lon": -76.9938255}, {"fusion_lat": 0.0, "type": "electric_scooter", "name": "736f0d66b69fd2f72e767fa9f36e29bf", "fusion_lon": 0.0, "bike_id": "736f0d66b69fd2f72e767fa9f36e29bf", "is_reserved": 0, "rental_uris": {"android": "https://dc.lft.to/lastmile_qr_scan", "ios": "https://dc.lft.to/lastmile_qr_scan"}, "lat": 38.92438683333334, "is_disabled": 0, "lon": -77.04031433333333}, {"fusion_lat": 0.0, "type": "electric_scooter", "name": "39cb99bc54c483b6aa524543a994fc95", "fusion_lon": 0.0, "bike_id": "39cb99bc54c483b6aa524543a994fc95", "is_reserved": 0, "rental_uris": {"android": "https://dc.lft.to/lastmile_qr_scan", "ios": "https://dc.lft.to/lastmile_qr_scan"}, "lat": 38.91630416666667, "is_disabled": 0, "lon": -77.01075016666667}, {"fusion_lat": 0.0, "type": "electric_scooter", "name": "cb0d22bff0170a1d49488ca1794ed38a", "fusion_lon": 0.0, "bike_id": "cb0d22bff0170a1d49488ca1794ed38a", "is_reserved": 0, "rental_uris": {"android": "https://dc.lft.to/lastmile_qr_scan", "ios": "https://dc.lft.to/lastmile_qr_scan"}, "lat": 38.87158483333333, "is_disabled": 0, "lon": -76.97744416666667}, {"fusion_lat": 0.0, "type": "electric_scooter", "name": "3d9463d06ade7c2fa1ed4fc807c2d60a", "fusion_lon": 0.0, "bike_id": "3d9463d06ade7c2fa1ed4fc807c2d60a", "is_reserved": 0, "rental_uris": {"android": "https://dc.lft.to/lastmile_qr_scan", "ios": "https://dc.lft.to/lastmile_qr_scan"}, "lat": 38.923220666666666, "is_disabled": 0, "lon": -77.034086}, {"fusion_lat": 0.0, "type": "electric_scooter", "name": "d691610f3b5c708a6bac8f734baf2c26", "fusion_lon": 0.0, "bike_id": "d691610f3b5c708a6bac8f734baf2c26", "is_reserved": 0, "rental_uris": {"android": "https://dc.lft.to/lastmile_qr_scan", "ios": "https://dc.lft.to/lastmile_qr_scan"}, "lat": 38.91878883333333, "is_disabled": 0, "lon": -77.023109}, {"fusion_lat": 0.0, "type": "electric_scooter", "name": "b0d859d27700085c90343f8a74694323", "fusion_lon": 0.0, "bike_id": "b0d859d27700085c90343f8a74694323", "is_reserved": 0, "rental_uris": {"android": "https://dc.lft.to/lastmile_qr_scan", "ios": "https://dc.lft.to/lastmile_qr_scan"}, "lat": 38.880471666666665, "is_disabled": 0, "lon": -77.03063783333333}, {"fusion_lat": 0.0, "type": "electric_scooter", "name": "af31f2acf17981cf8d26f3aa01713380", "fusion_lon": 0.0, "bike_id": "af31f2acf17981cf8d26f3aa01713380", "is_reserved": 0, "rental_uris": {"android": "https://dc.lft.to/lastmile_qr_scan", "ios": "https://dc.lft.to/lastmile_qr_scan"}, "lat": 38.929076333333335, "is_disabled": 0, "lon": -77.03750316666667}, {"fusion_lat": 0.0, "type": "electric_scooter", "name": "7aebb6d771fcbd3578be73eb5115a054", "fusion_lon": 0.0, "bike_id": "7aebb6d771fcbd3578be73eb5115a054", "is_reserved": 0, "rental_uris": {"android": "https://dc.lft.to/lastmile_qr_scan", "ios": "https://dc.lft.to/lastmile_qr_scan"}, "lat": 38.914407833333335, "is_disabled": 0, "lon": -77.017033}, {"fusion_lat": 0.0, "type": "electric_scooter", "name": "0259fdb74c807576d510ae85fa7693e7", "fusion_lon": 0.0, "bike_id": "0259fdb74c807576d510ae85fa7693e7", "is_reserved": 0, "rental_uris": {"android": "https://dc.lft.to/lastmile_qr_scan", "ios": "https://dc.lft.to/lastmile_qr_scan"}, "lat": 38.8921995, "is_disabled": 0, "lon": -77.0261675}, {"fusion_lat": 0.0, "type": "electric_bike", "name": "652855a185376a88e5675db48979a6f3", "fusion_lon": 0.0, "bike_id": "652855a185376a88e5675db48979a6f3", "is_reserved": 0, "rental_uris": {"android": "https://dc.lft.to/lastmile_qr_scan", "ios": "https://dc.lft.to/lastmile_qr_scan"}, "lat": 38.8871625, "is_disabled": 0, "lon": -77.13300516666666}, {"fusion_lat": 0.0, "type": "electric_scooter", "name": "589ca5dc30db76f961683e4ed95dffbd", "fusion_lon": 0.0, "bike_id": "589ca5dc30db76f961683e4ed95dffbd", "is_reserved": 0, "rental_uris": {"android": "https://dc.lft.to/lastmile_qr_scan", "ios": "https://dc.lft.to/lastmile_qr_scan"}, "lat": 38.93054766666667, "is_disabled": 0, "lon": -77.03784166666667}, {"fusion_lat": 0.0, "type": "electric_scooter", "name": "a71a1b21b4fff09aabcf507de7fbd7d2", "fusion_lon": 0.0, "bike_id": "a71a1b21b4fff09aabcf507de7fbd7d2", "is_reserved": 0, "rental_uris": {"android": "https://dc.lft.to/lastmile_qr_scan", "ios": "https://dc.lft.to/lastmile_qr_scan"}, "lat": 38.88019216666667, "is_disabled": 0, "lon": -77.02660916666666}, {"fusion_lat": 0.0, "type": "electric_scooter", "name": "07eb18037b9d5d12ce2808435b0c7ee4", "fusion_lon": 0.0, "bike_id": "07eb18037b9d5d12ce2808435b0c7ee4", "is_reserved": 0, "rental_uris": {"android": "https://dc.lft.to/lastmile_qr_scan", "ios": "https://dc.lft.to/lastmile_qr_scan"}, "lat": 38.937677, "is_disabled": 0, "lon": -77.02201683333334}, {"fusion_lat": 0.0, "type": "electric_scooter", "name": "e696dabe21513ac9a6d099105eb1ba36", "fusion_lon": 0.0, "bike_id": "e696dabe21513ac9a6d099105eb1ba36", "is_reserved": 0, "rental_uris": {"android": "https://dc.lft.to/lastmile_qr_scan", "ios": "https://dc.lft.to/lastmile_qr_scan"}, "lat": 38.922500666666664, "is_disabled": 0, "lon": -77.07236266666666}, {"fusion_lat": 0.0, "type": "electric_scooter", "name": "0ed4d533c273b5675bd9cfcb9a134fb9", "fusion_lon": 0.0, "bike_id": "0ed4d533c273b5675bd9cfcb9a134fb9", "is_reserved": 0, "rental_uris": {"android": "https://dc.lft.to/lastmile_qr_scan", "ios": "https://dc.lft.to/lastmile_qr_scan"}, "lat": 38.915935833333336, "is_disabled": 0, "lon": -77.04178433333334}, {"fusion_lat": 0.0, "type": "electric_scooter", "name": "c2e8dd032c074f288e6c7e26f46047c9", "fusion_lon": 0.0, "bike_id": "c2e8dd032c074f288e6c7e26f46047c9", "is_reserved": 0, "rental_uris": {"android": "https://dc.lft.to/lastmile_qr_scan", "ios": "https://dc.lft.to/lastmile_qr_scan"}, "lat": 38.910348, "is_disabled": 0, "lon": -77.036822}, {"fusion_lat": 0.0, "type": "electric_scooter", "name": "87dbef1ff31c8a992696009daea4c4a7", "fusion_lon": 0.0, "bike_id": "87dbef1ff31c8a992696009daea4c4a7", "is_reserved": 0, "rental_uris": {"android": "https://dc.lft.to/lastmile_qr_scan", "ios": "https://dc.lft.to/lastmile_qr_scan"}, "lat": 38.931631, "is_disabled": 0, "lon": -77.05609433333333}, {"fusion_lat": 0.0, "type": "electric_scooter", "name": "9f7ca2c6f4e7c0bcaaca54c5c8e64d98", "fusion_lon": 0.0, "bike_id": "9f7ca2c6f4e7c0bcaaca54c5c8e64d98", "is_reserved": 0, "rental_uris": {"android": "https://dc.lft.to/lastmile_qr_scan", "ios": "https://dc.lft.to/lastmile_qr_scan"}, "lat": 38.921971, "is_disabled": 0, "lon": -77.04240216666666}, {"fusion_lat": 0.0, "type": "electric_scooter", "name": "37d37d70d52335341bb830c708d0d265", "fusion_lon": 0.0, "bike_id": "37d37d70d52335341bb830c708d0d265", "is_reserved": 0, "rental_uris": {"android": "https://dc.lft.to/lastmile_qr_scan", "ios": "https://dc.lft.to/lastmile_qr_scan"}, "lat": 38.891028666666664, "is_disabled": 0, "lon": -77.00284933333333}, {"fusion_lat": 0.0, "type": "electric_scooter", "name": "90bc698d52c931567896acd9f077d564", "fusion_lon": 0.0, "bike_id": "90bc698d52c931567896acd9f077d564", "is_reserved": 0, "rental_uris": {"android": "https://dc.lft.to/lastmile_qr_scan", "ios": "https://dc.lft.to/lastmile_qr_scan"}, "lat": 38.9339595, "is_disabled": 0, "lon": -77.04133333333333}, {"fusion_lat": 0.0, "type": "electric_scooter", "name": "de9f27247d6a7bddeefa93e8cc72c9ba", "fusion_lon": 0.0, "bike_id": "de9f27247d6a7bddeefa93e8cc72c9ba", "is_reserved": 0, "rental_uris": {"android": "https://dc.lft.to/lastmile_qr_scan", "ios": "https://dc.lft.to/lastmile_qr_scan"}, "lat": 38.9410015, "is_disabled": 0, "lon": -77.02109816666666}, {"fusion_lat": 0.0, "type": "electric_scooter", "name": "23b6f7a195c23d72146fbd45fcfc8699", "fusion_lon": 0.0, "bike_id": "23b6f7a195c23d72146fbd45fcfc8699", "is_reserved": 0, "rental_uris": {"android": "https://dc.lft.to/lastmile_qr_scan", "ios": "https://dc.lft.to/lastmile_qr_scan"}, "lat": 38.894540166666665, "is_disabled": 0, "lon": -76.99831816666666}, {"fusion_lat": 0.0, "type": "electric_scooter", "name": "1efe3829874a00bbd264aa6bf216e6c5", "fusion_lon": 0.0, "bike_id": "1efe3829874a00bbd264aa6bf216e6c5", "is_reserved": 0, "rental_uris": {"android": "https://dc.lft.to/lastmile_qr_scan", "ios": "https://dc.lft.to/lastmile_qr_scan"}, "lat": 38.92288333333333, "is_disabled": 0, "lon": -77.0296315}, {"fusion_lat": 0.0, "type": "electric_scooter", "name": "db5539c9ef4c3f893ff0c155ddb28fe2", "fusion_lon": 0.0, "bike_id": "db5539c9ef4c3f893ff0c155ddb28fe2", "is_reserved": 0, "rental_uris": {"android": "https://dc.lft.to/lastmile_qr_scan", "ios": "https://dc.lft.to/lastmile_qr_scan"}, "lat": 38.91930166666667, "is_disabled": 0, "lon": -76.9994175}, {"fusion_lat": 0.0, "type": "electric_scooter", "name": "98e841ace642f61a83ad2981579ddfc4", "fusion_lon": 0.0, "bike_id": "98e841ace642f61a83ad2981579ddfc4", "is_reserved": 0, "rental_uris": {"android": "https://dc.lft.to/lastmile_qr_scan", "ios": "https://dc.lft.to/lastmile_qr_scan"}, "lat": 38.915872666666665, "is_disabled": 0, "lon": -77.04374783333333}, {"fusion_lat": 0.0, "type": "electric_scooter", "name": "12e61dfc03aca8d032c94f71b7dd62af", "fusion_lon": 0.0, "bike_id": "12e61dfc03aca8d032c94f71b7dd62af", "is_reserved": 0, "rental_uris": {"android": "https://dc.lft.to/lastmile_qr_scan", "ios": "https://dc.lft.to/lastmile_qr_scan"}, "lat": 38.90706933333333, "is_disabled": 0, "lon": -77.0447585}, {"fusion_lat": 0.0, "type": "electric_scooter", "name": "0a6661dfa8abf73ae1c36cdeb6b2a1d6", "fusion_lon": 0.0, "bike_id": "0a6661dfa8abf73ae1c36cdeb6b2a1d6", "is_reserved": 0, "rental_uris": {"android": "https://dc.lft.to/lastmile_qr_scan", "ios": "https://dc.lft.to/lastmile_qr_scan"}, "lat": 38.92457666666667, "is_disabled": 0, "lon": -77.05751983333333}, {"fusion_lat": 0.0, "type": "electric_bike", "name": "6dd204441750ccc8e40dd4b3b1f2a2f6", "fusion_lon": 0.0, "bike_id": "6dd204441750ccc8e40dd4b3b1f2a2f6", "is_reserved": 0, "rental_uris": {"android": "https://dc.lft.to/lastmile_qr_scan", "ios": "https://dc.lft.to/lastmile_qr_scan"}, "lat": 38.89562183333334, "is_disabled": 0, "lon": -77.1273095}, {"fusion_lat": 0.0, "type": "electric_scooter", "name": "d922f215591ea5fcb4a79e0f3730773c", "fusion_lon": 0.0, "bike_id": "d922f215591ea5fcb4a79e0f3730773c", "is_reserved": 0, "rental_uris": {"android": "https://dc.lft.to/lastmile_qr_scan", "ios": "https://dc.lft.to/lastmile_qr_scan"}, "lat": 38.9185505, "is_disabled": 0, "lon": -77.0458755}, {"fusion_lat": 0.0, "type": "electric_scooter", "name": "15ff138cf9c09af67e0b3db3e7367dce", "fusion_lon": 0.0, "bike_id": "15ff138cf9c09af67e0b3db3e7367dce", "is_reserved": 0, "rental_uris": {"android": "https://dc.lft.to/lastmile_qr_scan", "ios": "https://dc.lft.to/lastmile_qr_scan"}, "lat": 38.863809833333335, "is_disabled": 0, "lon": -76.99054166666667}, {"fusion_lat": 0.0, "type": "electric_scooter", "name": "d5844278e81b8ec4828ac8ea119c6801", "fusion_lon": 0.0, "bike_id": "d5844278e81b8ec4828ac8ea119c6801", "is_reserved": 0, "rental_uris": {"android": "https://dc.lft.to/lastmile_qr_scan", "ios": "https://dc.lft.to/lastmile_qr_scan"}, "lat": 38.9169995, "is_disabled": 0, "lon": -77.040495}, {"fusion_lat": 0.0, "type": "electric_scooter", "name": "2f5e9351ad7e44c3139d9da77f553550", "fusion_lon": 0.0, "bike_id": "2f5e9351ad7e44c3139d9da77f553550", "is_reserved": 0, "rental_uris": {"android": "https://dc.lft.to/lastmile_qr_scan", "ios": "https://dc.lft.to/lastmile_qr_scan"}, "lat": 38.9154715, "is_disabled": 0, "lon": -77.0385255}, {"fusion_lat": 0.0, "type": "electric_scooter", "name": "51fee9fd4ce18c121ad74b5dfe04eef2", "fusion_lon": 0.0, "bike_id": "51fee9fd4ce18c121ad74b5dfe04eef2", "is_reserved": 0, "rental_uris": {"android": "https://dc.lft.to/lastmile_qr_scan", "ios": "https://dc.lft.to/lastmile_qr_scan"}, "lat": 38.89426733333333, "is_disabled": 0, "lon": -76.94879483333334}, {"fusion_lat": 0.0, "type": "electric_scooter", "name": "70b7940f435297e07ff05fbde088cb68", "fusion_lon": 0.0, "bike_id": "70b7940f435297e07ff05fbde088cb68", "is_reserved": 0, "rental_uris": {"android": "https://dc.lft.to/lastmile_qr_scan", "ios": "https://dc.lft.to/lastmile_qr_scan"}, "lat": 38.92045316666667, "is_disabled": 0, "lon": -77.03654966666667}, {"fusion_lat": 0.0, "type": "electric_scooter", "name": "a3f79a9996614fab54b9de711aa6de07", "fusion_lon": 0.0, "bike_id": "a3f79a9996614fab54b9de711aa6de07", "is_reserved": 0, "rental_uris": {"android": "https://dc.lft.to/lastmile_qr_scan", "ios": "https://dc.lft.to/lastmile_qr_scan"}, "lat": 38.914184666666664, "is_disabled": 0, "lon": -77.018351}, {"fusion_lat": 0.0, "type": "electric_scooter", "name": "f0df0e2720e7a87d6534d30242e4322c", "fusion_lon": 0.0, "bike_id": "f0df0e2720e7a87d6534d30242e4322c", "is_reserved": 0, "rental_uris": {"android": "https://dc.lft.to/lastmile_qr_scan", "ios": "https://dc.lft.to/lastmile_qr_scan"}, "lat": 38.90876566666667, "is_disabled": 0, "lon": -77.03468716666667}, {"fusion_lat": 0.0, "type": "electric_scooter", "name": "ab2843c99f80b9e1526868c51e5c45ba", "fusion_lon": 0.0, "bike_id": "ab2843c99f80b9e1526868c51e5c45ba", "is_reserved": 0, "rental_uris": {"android": "https://dc.lft.to/lastmile_qr_scan", "ios": "https://dc.lft.to/lastmile_qr_scan"}, "lat": 38.9213095, "is_disabled": 0, "lon": -77.0179425}, {"fusion_lat": 0.0, "type": "electric_bike", "name": "6fe5f7475ee95882893a5eea55507776", "fusion_lon": 0.0, "bike_id": "6fe5f7475ee95882893a5eea55507776", "is_reserved": 0, "rental_uris": {"android": "https://dc.lft.to/lastmile_qr_scan", "ios": "https://dc.lft.to/lastmile_qr_scan"}, "lat": 38.853734, "is_disabled": 0, "lon": -77.12468733333333}, {"fusion_lat": 0.0, "type": "electric_scooter", "name": "b61074bc186b5e1d06fb61568380fddb", "fusion_lon": 0.0, "bike_id": "b61074bc186b5e1d06fb61568380fddb", "is_reserved": 0, "rental_uris": {"android": "https://dc.lft.to/lastmile_qr_scan", "ios": "https://dc.lft.to/lastmile_qr_scan"}, "lat": 38.907371, "is_disabled": 0, "lon": -77.02693516666666}, {"fusion_lat": 0.0, "type": "electric_scooter", "name": "3791a6fbd979641773ba4db1a03dc276", "fusion_lon": 0.0, "bike_id": "3791a6fbd979641773ba4db1a03dc276", "is_reserved": 0, "rental_uris": {"android": "https://dc.lft.to/lastmile_qr_scan", "ios": "https://dc.lft.to/lastmile_qr_scan"}, "lat": 38.8972835, "is_disabled": 0, "lon": -77.0273735}, {"fusion_lat": 0.0, "type": "electric_scooter", "name": "662cce067e5a335c0ced7502851e2929", "fusion_lon": 0.0, "bike_id": "662cce067e5a335c0ced7502851e2929", "is_reserved": 0, "rental_uris": {"android": "https://dc.lft.to/lastmile_qr_scan", "ios": "https://dc.lft.to/lastmile_qr_scan"}, "lat": 38.918107666666664, "is_disabled": 0, "lon": -77.034374}, {"fusion_lat": 0.0, "type": "electric_scooter", "name": "59ef85cbe9197557b4480d58c7aee939", "fusion_lon": 0.0, "bike_id": "59ef85cbe9197557b4480d58c7aee939", "is_reserved": 0, "rental_uris": {"android": "https://dc.lft.to/lastmile_qr_scan", "ios": "https://dc.lft.to/lastmile_qr_scan"}, "lat": 38.892312833333335, "is_disabled": 0, "lon": -77.05000183333334}, {"fusion_lat": 0.0, "type": "electric_scooter", "name": "67df28be7a1e335e9fe893177e8db907", "fusion_lon": 0.0, "bike_id": "67df28be7a1e335e9fe893177e8db907", "is_reserved": 0, "rental_uris": {"android": "https://dc.lft.to/lastmile_qr_scan", "ios": "https://dc.lft.to/lastmile_qr_scan"}, "lat": 38.892392, "is_disabled": 0, "lon": -77.0416135}, {"fusion_lat": 0.0, "type": "electric_scooter", "name": "b0c647e255b9017c9c395bd7a57c2d64", "fusion_lon": 0.0, "bike_id": "b0c647e255b9017c9c395bd7a57c2d64", "is_reserved": 0, "rental_uris": {"android": "https://dc.lft.to/lastmile_qr_scan", "ios": "https://dc.lft.to/lastmile_qr_scan"}, "lat": 38.9192615, "is_disabled": 0, "lon": -77.03157783333333}, {"fusion_lat": 0.0, "type": "electric_scooter", "name": "ff2d687d683eee16bc58317796b9fd55", "fusion_lon": 0.0, "bike_id": "ff2d687d683eee16bc58317796b9fd55", "is_reserved": 0, "rental_uris": {"android": "https://dc.lft.to/lastmile_qr_scan", "ios": "https://dc.lft.to/lastmile_qr_scan"}, "lat": 38.90192966666667, "is_disabled": 0, "lon": -77.04835216666666}, {"fusion_lat": 0.0, "type": "electric_scooter", "name": "67a59a675969c57068406d7250194ed5", "fusion_lon": 0.0, "bike_id": "67a59a675969c57068406d7250194ed5", "is_reserved": 0, "rental_uris": {"android": "https://dc.lft.to/lastmile_qr_scan", "ios": "https://dc.lft.to/lastmile_qr_scan"}, "lat": 38.92507666666667, "is_disabled": 0, "lon": -77.03787133333333}, {"fusion_lat": 0.0, "type": "electric_scooter", "name": "82101b29fb221b7c9b2458a320b2d5f0", "fusion_lon": 0.0, "bike_id": "82101b29fb221b7c9b2458a320b2d5f0", "is_reserved": 0, "rental_uris": {"android": "https://dc.lft.to/lastmile_qr_scan", "ios": "https://dc.lft.to/lastmile_qr_scan"}, "lat": 38.89897716666667, "is_disabled": 0, "lon": -77.03934866666667}, {"fusion_lat": 0.0, "type": "electric_bike", "name": "7bc57c59f1478133f622532be8c74d84", "fusion_lon": 0.0, "bike_id": "7bc57c59f1478133f622532be8c74d84", "is_reserved": 0, "rental_uris": {"android": "https://dc.lft.to/lastmile_qr_scan", "ios": "https://dc.lft.to/lastmile_qr_scan"}, "lat": 38.87300583333333, "is_disabled": 0, "lon": -77.13924483333334}, {"fusion_lat": 0.0, "type": "electric_bike", "name": "50a9ab46c1c98e19fce3bdc6e7b65def", "fusion_lon": 0.0, "bike_id": "50a9ab46c1c98e19fce3bdc6e7b65def", "is_reserved": 0, "rental_uris": {"android": "https://dc.lft.to/lastmile_qr_scan", "ios": "https://dc.lft.to/lastmile_qr_scan"}, "lat": 38.855875833333336, "is_disabled": 0, "lon": -77.117587}, {"fusion_lat": 0.0, "type": "electric_bike", "name": "d44ce16191bdda0d61351a3059c22056", "fusion_lon": 0.0, "bike_id": "d44ce16191bdda0d61351a3059c22056", "is_reserved": 0, "rental_uris": {"android": "https://dc.lft.to/lastmile_qr_scan", "ios": "https://dc.lft.to/lastmile_qr_scan"}, "lat": 38.84504866666666, "is_disabled": 0, "lon": -76.99355383333334}, {"fusion_lat": 0.0, "type": "electric_scooter", "name": "793060c9bd7d5973bec989c164b5d51d", "fusion_lon": 0.0, "bike_id": "793060c9bd7d5973bec989c164b5d51d", "is_reserved": 0, "rental_uris": {"android": "https://dc.lft.to/lastmile_qr_scan", "ios": "https://dc.lft.to/lastmile_qr_scan"}, "lat": 38.904570666666665, "is_disabled": 0, "lon": -77.03458916666666}, {"fusion_lat": 0.0, "type": "electric_bike", "name": "5ba911df53ab7435fc84b05fbe7b4358", "fusion_lon": 0.0, "bike_id": "5ba911df53ab7435fc84b05fbe7b4358", "is_reserved": 0, "rental_uris": {"android": "https://dc.lft.to/lastmile_qr_scan", "ios": "https://dc.lft.to/lastmile_qr_scan"}, "lat": 38.96033966666667, "is_disabled": 0, "lon": -77.034045}, {"fusion_lat": 0.0, "type": "electric_scooter", "name": "ae7b583079bcb3a62dc6550bccf11607", "fusion_lon": 0.0, "bike_id": "ae7b583079bcb3a62dc6550bccf11607", "is_reserved": 0, "rental_uris": {"android": "https://dc.lft.to/lastmile_qr_scan", "ios": "https://dc.lft.to/lastmile_qr_scan"}, "lat": 38.919020833333335, "is_disabled": 0, "lon": -77.031902}, {"fusion_lat": 0.0, "type": "electric_scooter", "name": "6780e11199d32c35da31b0665dae0780", "fusion_lon": 0.0, "bike_id": "6780e11199d32c35da31b0665dae0780", "is_reserved": 0, "rental_uris": {"android": "https://dc.lft.to/lastmile_qr_scan", "ios": "https://dc.lft.to/lastmile_qr_scan"}, "lat": 38.938625333333334, "is_disabled": 0, "lon": -77.02649366666667}, {"fusion_lat": 0.0, "type": "electric_scooter", "name": "936bee3b2c27a72361ecb56ed113f735", "fusion_lon": 0.0, "bike_id": "936bee3b2c27a72361ecb56ed113f735", "is_reserved": 0, "rental_uris": {"android": "https://dc.lft.to/lastmile_qr_scan", "ios": "https://dc.lft.to/lastmile_qr_scan"}, "lat": 38.914982, "is_disabled": 0, "lon": -76.98375383333334}, {"fusion_lat": 0.0, "type": "electric_scooter", "name": "bfebaa09b91a57a0b189784b330c75d1", "fusion_lon": 0.0, "bike_id": "bfebaa09b91a57a0b189784b330c75d1", "is_reserved": 0, "rental_uris": {"android": "https://dc.lft.to/lastmile_qr_scan", "ios": "https://dc.lft.to/lastmile_qr_scan"}, "lat": 38.88678983333333, "is_disabled": 0, "lon": -76.99011866666666}, {"fusion_lat": 0.0, "type": "electric_scooter", "name": "ff0c4a6700ed33db0552380229ea8aec", "fusion_lon": 0.0, "bike_id": "ff0c4a6700ed33db0552380229ea8aec", "is_reserved": 0, "rental_uris": {"android": "https://dc.lft.to/lastmile_qr_scan", "ios": "https://dc.lft.to/lastmile_qr_scan"}, "lat": 38.914221, "is_disabled": 0, "lon": -77.0416135}, {"fusion_lat": 0.0, "type": "electric_scooter", "name": "8b5070d905bf1d521a095272ca4e3982", "fusion_lon": 0.0, "bike_id": "8b5070d905bf1d521a095272ca4e3982", "is_reserved": 0, "rental_uris": {"android": "https://dc.lft.to/lastmile_qr_scan", "ios": "https://dc.lft.to/lastmile_qr_scan"}, "lat": 38.9205025, "is_disabled": 0, "lon": -77.02361983333333}, {"fusion_lat": 0.0, "type": "electric_scooter", "name": "b9aeaf2a849752e80abf6704b8f4265b", "fusion_lon": 0.0, "bike_id": "b9aeaf2a849752e80abf6704b8f4265b", "is_reserved": 0, "rental_uris": {"android": "https://dc.lft.to/lastmile_qr_scan", "ios": "https://dc.lft.to/lastmile_qr_scan"}, "lat": 38.905528, "is_disabled": 0, "lon": -77.00609866666667}, {"fusion_lat": 0.0, "type": "electric_scooter", "name": "15b775b9ba47ed8cc567768e85c3ea0c", "fusion_lon": 0.0, "bike_id": "15b775b9ba47ed8cc567768e85c3ea0c", "is_reserved": 0, "rental_uris": {"android": "https://dc.lft.to/lastmile_qr_scan", "ios": "https://dc.lft.to/lastmile_qr_scan"}, "lat": 38.911191333333335, "is_disabled": 0, "lon": -77.03152933333334}, {"fusion_lat": 0.0, "type": "electric_scooter", "name": "f60ecf2d97f70a30324673ad68d26b03", "fusion_lon": 0.0, "bike_id": "f60ecf2d97f70a30324673ad68d26b03", "is_reserved": 0, "rental_uris": {"android": "https://dc.lft.to/lastmile_qr_scan", "ios": "https://dc.lft.to/lastmile_qr_scan"}, "lat": 38.923367999999996, "is_disabled": 0, "lon": -77.03620683333334}, {"fusion_lat": 0.0, "type": "electric_scooter", "name": "73c78de564d100684928d73b7bfa7c04", "fusion_lon": 0.0, "bike_id": "73c78de564d100684928d73b7bfa7c04", "is_reserved": 0, "rental_uris": {"android": "https://dc.lft.to/lastmile_qr_scan", "ios": "https://dc.lft.to/lastmile_qr_scan"}, "lat": 38.90206883333333, "is_disabled": 0, "lon": -77.04687766666666}, {"fusion_lat": 0.0, "type": "electric_bike", "name": "a7ca3b290eb399878e85e0491d28ccc7", "fusion_lon": 0.0, "bike_id": "a7ca3b290eb399878e85e0491d28ccc7", "is_reserved": 0, "rental_uris": {"android": "https://dc.lft.to/lastmile_qr_scan", "ios": "https://dc.lft.to/lastmile_qr_scan"}, "lat": 38.854903166666666, "is_disabled": 0, "lon": -77.116175}, {"fusion_lat": 0.0, "type": "electric_scooter", "name": "5c02b6b1aeabc38652e4f1607b9062cc", "fusion_lon": 0.0, "bike_id": "5c02b6b1aeabc38652e4f1607b9062cc", "is_reserved": 0, "rental_uris": {"android": "https://dc.lft.to/lastmile_qr_scan", "ios": "https://dc.lft.to/lastmile_qr_scan"}, "lat": 38.94512316666667, "is_disabled": 0, "lon": -77.03316966666667}, {"fusion_lat": 0.0, "type": "electric_scooter", "name": "f98e79b139236d8ff84da463b1f6db9a", "fusion_lon": 0.0, "bike_id": "f98e79b139236d8ff84da463b1f6db9a", "is_reserved": 0, "rental_uris": {"android": "https://dc.lft.to/lastmile_qr_scan", "ios": "https://dc.lft.to/lastmile_qr_scan"}, "lat": 38.923385333333336, "is_disabled": 0, "lon": -77.03615016666667}, {"fusion_lat": 0.0, "type": "electric_scooter", "name": "97d260a0e2ba9942cff5cdd354b004ba", "fusion_lon": 0.0, "bike_id": "97d260a0e2ba9942cff5cdd354b004ba", "is_reserved": 0, "rental_uris": {"android": "https://dc.lft.to/lastmile_qr_scan", "ios": "https://dc.lft.to/lastmile_qr_scan"}, "lat": 38.904023, "is_disabled": 0, "lon": -76.98080666666667}, {"fusion_lat": 0.0, "type": "electric_scooter", "name": "c11685e437148617ee93f7c0ed401041", "fusion_lon": 0.0, "bike_id": "c11685e437148617ee93f7c0ed401041", "is_reserved": 0, "rental_uris": {"android": "https://dc.lft.to/lastmile_qr_scan", "ios": "https://dc.lft.to/lastmile_qr_scan"}, "lat": 38.9026915, "is_disabled": 0, "lon": -77.00579033333334}, {"fusion_lat": 0.0, "type": "electric_scooter", "name": "27ff8c70cdf95794680072c48608c085", "fusion_lon": 0.0, "bike_id": "27ff8c70cdf95794680072c48608c085", "is_reserved": 0, "rental_uris": {"android": "https://dc.lft.to/lastmile_qr_scan", "ios": "https://dc.lft.to/lastmile_qr_scan"}, "lat": 38.92562216666666, "is_disabled": 0, "lon": -77.02284266666666},