{"data": {"bikes": [{"bike_id": "38f5e93f76d8064f67f2752b2a4f92ec", "fusion_lon": 0.0, "lon": -77.031062, "name": "38f5e93f76d8064f67f2752b2a4f92ec", "is_disabled": 0, "rental_uris": {"android": "https://dc.lft.to/lastmile_qr_scan", "ios": "https://dc.lft.to/lastmile_qr_scan"}, "type": "electric_scooter", "lat": 38.89466316666667, "is_reserved": 0, "fusion_lat": 0.0}, {"bike_id": "68ce08a651022c943bb7181ca839ef70", "fusion_lon": 0.0, "lon": -77.06634383333333, "name": "68ce08a651022c943bb7181ca839ef70", "is_disabled": 0, "rental_uris": {"android": "https://dc.lft.to/lastmile_qr_scan", "ios": "https://dc.lft.to/lastmile_qr_scan"}, "type": "electric_bike", "lat": 38.9496755, "is_reserved": 0, "fusion_lat": 0.0}, {"bike_id": "8049e19a8e756f924901ccd05be41d4d", "fusion_lon": 0.0, "lon": -77.03685266666666, "name": "8049e19a8e756f924901ccd05be41d4d", "is_disabled": 0, "rental_uris": {"android": "https://dc.lft.to/lastmile_qr_scan", "ios": "https://dc.lft.to/lastmile_qr_scan"}, "type": "electric_scooter", "lat": 38.91682133333333, "is_reserved": 0, "fusion_lat": 0.0}, {"bike_id": "d21fc9d19df9ec6a222d02cff9b7cb22", "fusion_lon": 0.0, "lon": -77.024278, "name": "d21fc9d19df9ec6a222d02cff9b7cb22", "is_disabled": 0, "rental_uris": {"android": "https://dc.lft.to/lastmile_qr_scan", "ios": "https://dc.lft.to/lastmile_qr_scan"}, "type": "electric_scooter", "lat": 38.89848716666667, "is_reserved": 0, "fusion_lat": 0.0}, {"bike_id": "a811e6974c169380179db0f641857c14", "fusion_lon": 0.0, "lon": -77.0268685, "name": "a811e6974c169380179db0f641857c14", "is_disabled": 0, "rental_uris": {"android": "https://dc.lft.to/lastmile_qr_scan", "ios": "https://dc.lft.to/lastmile_qr_scan"}, "type": "electric_scooter", "lat": 38.92380033333333, "is_reserved": 0, "fusion_lat": 0.0}, {"bike_id": "ced12afbefc3c8be011a83fbbae0a577", "fusion_lon": 0.0, "lon": -77.0549935, "name": "ced12afbefc3c8be011a83fbbae0a577", "is_disabled": 0, "rental_uris": {"android": "https://dc.lft.to/lastmile_qr_scan", "ios": "https://dc.lft.to/lastmile_qr_scan"}, "type": "electric_scooter", "lat": 38.936617166666665, "is_reserved": 0, "fusion_lat": 0.0}, {"bike_id": "1e4ab9db5d359fae6af58c29019ad544", "fusion_lon": 0.0, "lon": -77.066219, "name": "1e4ab9db5d359fae6af58c29019ad544", "is_disabled": 0, "rental_uris": {"android": "https://dc.lft.to/lastmile_qr_scan", "ios": "https://dc.lft.to/lastmile_qr_scan"}, "type": "electric_scooter", "lat": 38.903453, "is_reserved": 0, "fusion_lat": 0.0}, {"bike_id": "f6e1d2bfaf2a6b01e6a1180997d5e362", "fusion_lon": 0.0, "lon": -77.0221095, "name": "f6e1d2bfaf2a6b01e6a1180997d5e362", "is_disabled": 0, "rental_uris": {"android": "https://dc.lft.to/lastmile_qr_scan", "ios": "https://dc.lft.to/lastmile_qr_scan"}, "type": "electric_scooter", "lat": 38.91271233333333, "is_reserved": 0, "fusion_lat": 0.0}, {"bike_id": "8b98dc397a6e51c0099ddf417cadf5e4", "fusion_lon": 0.0, "lon": -76.98706216666666, "name": "8b98dc397a6e51c0099ddf417cadf5e4", "is_disabled": 0, "rental_uris": {"android": "https://dc.lft.to/lastmile_qr_scan", "ios": "https://dc.lft.to/lastmile_qr_scan"}, "type": "electric_scooter", "lat": 38.8653725, "is_reserved": 0, "fusion_lat": 0.0}, {"bike_id": "751bff3eafaaca4cfd6faa902fae0b1f", "fusion_lon": 0.0, "lon": -77.021685, "name": "751bff3eafaaca4cfd6faa902fae0b1f", "is_disabled": 0, "rental_uris": {"android": "https://dc.lft.to/lastmile_qr_scan", "ios": "https://dc.lft.to/lastmile_qr_scan"}, "type": "electric_scooter", "lat": 38.942917666666666, "is_reserved": 0, "fusion_lat": 0.0}, {"bike_id": "2ce42997c01f9bfa75fcf545ca714902", "fusion_lon": 0.0, "lon": -77.01133183333333, "name": "2ce42997c01f9bfa75fcf545ca714902", "is_disabled": 0, "rental_uris": {"android": "https://dc.lft.to/lastmile_qr_scan", "ios": "https://dc.lft.to/lastmile_qr_scan"}, "type": "electric_scooter", "lat": 38.88526433333333, "is_reserved": 0, "fusion_lat": 0.0}, {"bike_id": "85350a036eb933a9784f26b6c6606f2d", "fusion_lon": 0.0, "lon": -77.04315316666667, "name": "85350a036eb933a9784f26b6c6606f2d", "is_disabled": 0, "rental_uris": {"android": "https://dc.lft.to/lastmile_qr_scan", "ios": "https://dc.lft.to/lastmile_qr_scan"}, "type": "electric_scooter", "lat": 38.8810555, "is_reserved": 0, "fusion_lat": 0.0}, {"bike_id": "894665e10c5863bbd35567b168910baa", "fusion_lon": 0.0, "lon": -77.02407933333333, "name": "894665e10c5863bbd35567b168910baa", "is_disabled": 0, "rental_uris": {"android": "https://dc.lft.to/lastmile_qr_scan", "ios": "https://dc.lft.to/lastmile_qr_scan"}, "type": "electric_scooter", "lat": 38.92089283333333, "is_reserved": 0, "fusion_lat": 0.0}, {"bike_id": "2d3d439833f6a740c70e87cbe5c23a61", "fusion_lon": 0.0, "lon": -77.13145533333334, "name": "2d3d439833f6a740c70e87cbe5c23a61", "is_disabled": 0, "rental_uris": {"android": "https://dc.lft.to/lastmile_qr_scan", "ios": "https://dc.lft.to/lastmile_qr_scan"}, "type": "electric_bike", "lat": 38.861701833333335, "is_reserved": 0, "fusion_lat": 0.0}, {"bike_id": "dc4dd5662465510a3e80193bb7597724", "fusion_lon": 0.0, "lon": -76.97183033333333, "name": "dc4dd5662465510a3e80193bb7597724", "is_disabled": 0, "rental_uris": {"android": "https://dc.lft.to/lastmile_qr_scan", "ios": "https://dc.lft.to/lastmile_qr_scan"}, "type": "electric_bike", "lat": 38.91788366666667, "is_reserved": 0, "fusion_lat": 0.0}, {"bike_id": "93c98f592e633606e1d9f50fe94dc882", "fusion_lon": 0.0, "lon": -77.034739, "name": "93c98f592e633606e1d9f50fe94dc882", "is_disabled": 0, "rental_uris": {"android": "https://dc.lft.to/lastmile_qr_scan", "ios": "https://dc.lft.to/lastmile_qr_scan"}, "type": "electric_scooter", "lat": 38.917119666666665, "is_reserved": 0, "fusion_lat": 0.0}, {"bike_id": "ce5c38e0ad9b0d1c7ea38d2b2955eafc", "fusion_lon": 0.0, "lon": -77.02491583333334, "name": "ce5c38e0ad9b0d1c7ea38d2b2955eafc", "is_disabled": 0, "rental_uris": {"android": "https://dc.lft.to/lastmile_qr_scan", "ios": "https://dc.lft.to/lastmile_qr_scan"}, "type": "electric_scooter", "lat": 38.941865666666665, "is_reserved": 0, "fusion_lat": 0.0}, {"bike_id": "d376f26209b7262c54b9bf67ff6f0cb9", "fusion_lon": 0.0, "lon": -77.021145, "name": "d376f26209b7262c54b9bf67ff6f0cb9", "is_disabled": 0, "rental_uris": {"android": "https://dc.lft.to/lastmile_qr_scan", "ios": "https://dc.lft.to/lastmile_qr_scan"}, "type": "electric_scooter", "lat": 38.9173755, "is_reserved": 0, "fusion_lat": 0.0}, {"bike_id": "cea95e1782a7d7d1ea5c192fe196a576", "fusion_lon": 0.0, "lon": -77.11756183333334, "name": "cea95e1782a7d7d1ea5c192fe196a576", "is_disabled": 0, "rental_uris": {"android": "https://dc.lft.to/lastmile_qr_scan", "ios": "https://dc.lft.to/lastmile_qr_scan"}, "type": "electric_bike", "lat": 39.0490155, "is_reserved": 0, "fusion_lat": 0.0}, {"bike_id": "d5cb2e78db37d4de6da78b6a410b5897", "fusion_lon": 0.0, "lon": -76.94874116666666, "name": "d5cb2e78db37d4de6da78b6a410b5897", "is_disabled": 0, "rental_uris": {"android": "https://dc.lft.to/lastmile_qr_scan", "ios": "https://dc.lft.to/lastmile_qr_scan"}, "type": "electric_scooter", "lat": 38.895032666666665, "is_reserved": 0, "fusion_lat": 0.0}, {"bike_id": "2e1823b8f8f806a30fea8f74eacc492a", "fusion_lon": 0.0, "lon": -77.07274, "name": "2e1823b8f8f806a30fea8f74eacc492a", "is_disabled": 0, "rental_uris": {"android": "https://dc.lft.to/lastmile_qr_scan", "ios": "https://dc.lft.to/lastmile_qr_scan"}, "type": "electric_scooter", "lat": 38.93456233333333, "is_reserved": 0, "fusion_lat": 0.0}, {"bike_id": "6732602098f1c731f239dc6e424cfd55", "fusion_lon": 0.0, "lon": -77.03958716666666, "name": "6732602098f1c731f239dc6e424cfd55", "is_disabled": 0, "rental_uris": {"android": "https://dc.lft.to/lastmile_qr_scan", "ios": "https://dc.lft.to/lastmile_qr_scan"}, "type": "electric_scooter", "lat": 38.898521333333335, "is_reserved": 0, "fusion_lat": 0.0}, {"bike_id": "ae3224921879a0d2ddfc38d5d59d953d", "fusion_lon": 0.0, "lon": -77.0389855, "name": "ae3224921879a0d2ddfc38d5d59d953d", "is_disabled": 0, "rental_uris": {"android": "https://dc.lft.to/lastmile_qr_scan", "ios": "https://dc.lft.to/lastmile_qr_scan"}, "type": "electric_scooter", "lat": 38.92208133333333, "is_reserved": 0, "fusion_lat": 0.0}, {"bike_id": "144136504322ef39ac26765c9c6da28a", "fusion_lon": 0.0, "lon": -77.01609616666667, "name": "144136504322ef39ac26765c9c6da28a", "is_disabled": 0, "rental_uris": {"android": "https://dc.lft.to/lastmile_qr_scan", "ios": "https://dc.lft.to/lastmile_qr_scan"}, "type": "electric_scooter", "lat": 38.912781333333335, "is_reserved": 0, "fusion_lat": 0.0}, {"bike_id": "e5bcb732edb35208695a90fd61747532", "fusion_lon": 0.0, "lon": -76.99698616666667, "name": "e5bcb732edb35208695a90fd61747532", "is_disabled": 0, "rental_uris": {"android": "https://dc.lft.to/lastmile_qr_scan", "ios": "https://dc.lft.to/lastmile_qr_scan"}, "type": "electric_bike", "lat": 38.838689, "is_reserved": 0, "fusion_lat": 0.0}, {"bike_id": "fae36c6fface6b4a927235ed5e6e3efb", "fusion_lon": 0.0, "lon": -77.03456316666667, "name": "fae36c6fface6b4a927235ed5e6e3efb", "is_disabled": 0, "rental_uris": {"android": "https://dc.lft.to/lastmile_qr_scan", "ios": "https://dc.lft.to/lastmile_qr_scan"}, "type": "electric_scooter", "lat": 38.91497, "is_reserved": 0, "fusion_lat": 0.0}, {"bike_id": "a3c7c440a49c663522e920ade220c7a4", "fusion_lon": 0.0, "lon": -77.0420125, "name": "a3c7c440a49c663522e920ade220c7a4", "is_disabled": 0, "rental_uris": {"android": "https://dc.lft.to/lastmile_qr_scan", "ios": "https://dc.lft.to/lastmile_qr_scan"}, "type": "electric_scooter", "lat": 38.920710666666665, "is_reserved": 0, "fusion_lat": 0.0}, {"bike_id": "d15c31235311afa4723a0ab980547ceb", "fusion_lon": 0.0, "lon": -77.02158566666667, "name": "d15c31235311afa4723a0ab980547ceb", "is_disabled": 0, "rental_uris": {"android": "https://dc.lft.to/lastmile_qr_scan", "ios": "https://dc.lft.to/lastmile_qr_scan"}, "type": "electric_scooter", "lat": 38.909672666666665, "is_reserved": 0, "fusion_lat": 0.0}, {"bike_id": "e56c1d885c93f659b29dc6705a0fe032", "fusion_lon": 0.0, "lon": -76.9817495, "name": "e56c1d885c93f659b29dc6705a0fe032", "is_disabled": 0, "rental_uris": {"android": "https://dc.lft.to/lastmile_qr_scan", "ios": "https://dc.lft.to/lastmile_qr_scan"}, "type": "electric_scooter", "lat": 38.856737, "is_reserved": 0, "fusion_lat": 0.0}, {"bike_id": "f0ddf9b5f4e34d3886a1bdb2dba703a5", "fusion_lon": 0.0, "lon": -77.04191933333334, "name": "f0ddf9b5f4e34d3886a1bdb2dba703a5", "is_disabled": 0, "rental_uris": {"android": "https://dc.lft.to/lastmile_qr_scan", "ios": "https://dc.lft.to/lastmile_qr_scan"}, "type": "electric_scooter", "lat": 38.920449833333336, "is_reserved": 0, "fusion_lat": 0.0}, {"bike_id": "78abeff46666856e0f67904bdeeeca4f", "fusion_lon": 0.0, "lon": -77.02654683333333, "name": "78abeff46666856e0f67904bdeeeca4f", "is_disabled": 0, "rental_uris": {"android": "https://dc.lft.to/lastmile_qr_scan", "ios": "https://dc.lft.to/lastmile_qr_scan"}, "type": "electric_scooter", "lat": 38.945375166666665, "is_reserved": 0, "fusion_lat": 0.0}, {"bike_id": "f12c5ef1abdde1e253fb88489aaf511d", "fusion_lon": 0.0, "lon": -77.02711533333333, "name": "f12c5ef1abdde1e253fb88489aaf511d", "is_disabled": 0, "rental_uris": {"android": "https://dc.lft.to/lastmile_qr_scan", "ios": "https://dc.lft.to/lastmile_qr_scan"}, "type": "electric_scooter", "lat": 38.90687416666667, "is_reserved": 0, "fusion_lat": 0.0}, {"bike_id": "29f6003e4dd700d8275ae5821dce7a54", "fusion_lon": 0.0, "lon": -77.02385066666666, "name": "29f6003e4dd700d8275ae5821dce7a54", "is_disabled": 0, "rental_uris": {"android": "https://dc.lft.to/lastmile_qr_scan", "ios": "https://dc.lft.to/lastmile_qr_scan"}, "type": "electric_scooter", "lat": 38.917463, "is_reserved": 0, "fusion_lat": 0.0}, {"bike_id": "116de3ca434296392afe733d5d025a9f", "fusion_lon": 0.0, "lon": -77.011987, "name": "116de3ca434296392afe733d5d025a9f", "is_disabled": 0, "rental_uris": {"android": "https://dc.lft.to/lastmile_qr_scan", "ios": "https://dc.lft.to/lastmile_qr_scan"}, "type": "electric_scooter", "lat": 38.915682, "is_reserved": 0, "fusion_lat": 0.0}, {"bike_id": "dd232e7913efcaa837ab4eed73f5eb59", "fusion_lon": 0.0, "lon": -77.0400225, "name": "dd232e7913efcaa837ab4eed73f5eb59", "is_disabled": 0, "rental_uris": {"android": "https://dc.lft.to/lastmile_qr_scan", "ios": "https://dc.lft.to/lastmile_qr_scan"}, "type": "electric_scooter", "lat": 38.93429883333334, "is_reserved": 0, "fusion_lat": 0.0}, {"bike_id": "742258b5e764dc337905d5ad3729b6c1", "fusion_lon": 0.0, "lon": -77.01911166666666, "name": "742258b5e764dc337905d5ad3729b6c1", "is_disabled": 0, "rental_uris": {"android": "https://dc.lft.to/lastmile_qr_scan", "ios": "https://dc.lft.to/lastmile_qr_scan"}, "type": "electric_scooter", "lat": 38.921372166666664, "is_reserved": 0, "fusion_lat": 0.0}, {"bike_id": "157b95449f495da0d41fadca307b9193", "fusion_lon": 0.0, "lon": -77.03292716666667, "name": "157b95449f495da0d41fadca307b9193", "is_disabled": 0, "rental_uris": {"android": "https://dc.lft.to/lastmile_qr_scan", "ios": "https://dc.lft.to/lastmile_qr_scan"}, "type": "electric_scooter", "lat": 38.91989616666667, "is_reserved": 0, "fusion_lat": 0.0}, {"bike_id": "c8caba6e60ea520bdbe71481fbb29f4f", "fusion_lon": 0.0, "lon": -77.10044183333333, "name": "c8caba6e60ea520bdbe71481fbb29f4f", "is_disabled": 0, "rental_uris": {"android": "https://dc.lft.to/lastmile_qr_scan", "ios": "https://dc.lft.to/lastmile_qr_scan"}, "type": "electric_bike", "lat": 38.991672333333334, "is_reserved": 0, "fusion_lat": 0.0}, {"bike_id": "0d6260441ae3bd279ed186563618e14b", "fusion_lon": 0.0, "lon": -77.02722416666667, "name": "0d6260441ae3bd279ed186563618e14b", "is_disabled": 0, "rental_uris": {"android": "https://dc.lft.to/lastmile_qr_scan", "ios": "https://dc.lft.to/lastmile_qr_scan"}, "type": "electric_scooter", "lat": 38.949578, "is_reserved": 0, "fusion_lat": 0.0}, {"bike_id": "2f2e179d0f139c73a6dd11566e8b8c30", "fusion_lon": 0.0, "lon": -77.02351516666667, "name": "2f2e179d0f139c73a6dd11566e8b8c30", "is_disabled": 0, "rental_uris": {"android": "https://dc.lft.to/lastmile_qr_scan", "ios": "https://dc.lft.to/lastmile_qr_scan"}, "type": "electric_scooter", "lat": 38.93186166666667, "is_reserved": 0, "fusion_lat": 0.0}, {"bike_id": "f63c1da045bc946d4c0dcb4f477e8e08", "fusion_lon": 0.0, "lon": -77.021571, "name": "f63c1da045bc946d4c0dcb4f477e8e08", "is_disabled": 0, "rental_uris": {"android": "https://dc.lft.to/lastmile_qr_scan", "ios": "https://dc.lft.to/lastmile_qr_scan"}, "type": "electric_scooter", "lat": 38.8995775, "is_reserved": 0, "fusion_lat": 0.0}, {"bike_id": "455d662a05709bdcd1f8371fa7538848", "fusion_lon": 0.0, "lon": -77.0352145, "name": "455d662a05709bdcd1f8371fa7538848", "is_disabled": 0, "rental_uris": {"android": "https://dc.lft.to/lastmile_qr_scan", "ios": "https://dc.lft.to/lastmile_qr_scan"}, "type": "electric_scooter", "lat": 38.93607883333333, "is_reserved": 0, "fusion_lat": 0.0}, {"bike_id": "578cab2e9bb9e861b0b8bb6c0bd79567", "fusion_lon": 0.0, "lon": -77.03866266666667, "name": "578cab2e9bb9e861b0b8bb6c0bd79567", "is_disabled": 0, "rental_uris": {"android": "https://dc.lft.to/lastmile_qr_scan", "ios": "https://dc.lft.to/lastmile_qr_scan"}, "type": "electric_scooter", "lat": 38.915564833333335, "is_reserved": 0, "fusion_lat": 0.0}, {"bike_id": "c3f8ae60744bdd70f2cd0f7d016b204e", "fusion_lon": 0.0, "lon": -76.98549116666666, "name": "c3f8ae60744bdd70f2cd0f7d016b204e", "is_disabled": 0, "rental_uris": {"android": "https://dc.lft.to/lastmile_qr_scan", "ios": "https://dc.lft.to/lastmile_qr_scan"}, "type": "electric_scooter", "lat": 38.86692716666667, "is_reserved": 0, "fusion_lat": 0.0}, {"bike_id": "5f9531785ab6a28712fbb0733e764af5", "fusion_lon": 0.0, "lon": -77.02572833333333, "name": "5f9531785ab6a28712fbb0733e764af5", "is_disabled": 0, "rental_uris": {"android": "https://dc.lft.to/lastmile_qr_scan", "ios": "https://dc.lft.to/lastmile_qr_scan"}, "type": "electric_scooter", "lat": 38.89229666666667, "is_reserved": 0, "fusion_lat": 0.0}, {"bike_id": "bc887788138b6ae1ad26e366eb0befd4", "fusion_lon": 0.0, "lon": -77.03384833333334, "name": "bc887788138b6ae1ad26e366eb0befd4", "is_disabled": 0, "rental_uris": {"android": "https://dc.lft.to/lastmile_qr_scan", "ios": "https://dc.lft.to/lastmile_qr_scan"}, "type": "electric_scooter", "lat": 38.90127183333333, "is_reserved": 0, "fusion_lat": 0.0}, {"bike_id": "9093623ea77f81d6ffe9abcba882d560", "fusion_lon": 0.0, "lon": -77.02213, "name": "9093623ea77f81d6ffe9abcba882d560", "is_disabled": 0, "rental_uris": {"android": "https://dc.lft.to/lastmile_qr_scan", "ios": "https://dc.lft.to/lastmile_qr_scan"}, "type": "electric_scooter", "lat": 38.9126945, "is_reserved": 0, "fusion_lat": 0.0}, {"bike_id": "3b52f1ea17b7c7f6bf3262cd256ca555", "fusion_lon": 0.0, "lon": -77.02455533333334, "name": "3b52f1ea17b7c7f6bf3262cd256ca555", "is_disabled": 0, "rental_uris": {"android": "https://dc.lft.to/lastmile_qr_scan", "ios": "https://dc.lft.to/lastmile_qr_scan"}, "type": "electric_scooter", "lat": 38.919168, "is_reserved": 0, "fusion_lat": 0.0}, {"bike_id": "0531e95e1c6487946de865d42f586db6", "fusion_lon": 0.0, "lon": -77.02710933333333, "name": "0531e95e1c6487946de865d42f586db6", "is_disabled": 0, "rental_uris": {"android": "https://dc.lft.to/lastmile_qr_scan", "ios": "https://dc.lft.to/lastmile_qr_scan"}, "type": "electric_scooter", "lat": 38.907386, "is_reserved": 0, "fusion_lat": 0.0}, {"bike_id": "23ccbf0c25038dfd7323dd6038bf9e11", "fusion_lon": 0.0, "lon": -77.025854, "name": "23ccbf0c25038dfd7323dd6038bf9e11", "is_disabled": 0, "rental_uris": {"android": "https://dc.lft.to/lastmile_qr_scan", "ios": "https://dc.lft.to/lastmile_qr_scan"}, "type": "electric_scooter", "lat": 38.92696683333333, "is_reserved": 0, "fusion_lat": 0.0}, {"bike_id": "37a360d9d05e3543955cc5cb77493381", "fusion_lon": 0.0, "lon": -77.03013083333333, "name": "37a360d9d05e3543955cc5cb77493381", "is_disabled": 0, "rental_uris": {"android": "https://dc.lft.to/lastmile_qr_scan", "ios": "https://dc.lft.to/lastmile_qr_scan"}, "type": "electric_scooter", "lat": 38.89587516666667, "is_reserved": 0, "fusion_lat": 0.0}, {"bike_id": "b4836898cb166579e7cfe3020a25c0f9", "fusion_lon": 0.0, "lon": -77.0433, "name": "b4836898cb166579e7cfe3020a25c0f9", "is_disabled": 0, "rental_uris": {"android": "https://dc.lft.to/lastmile_qr_scan", "ios": "https://dc.lft.to/lastmile_qr_scan"}, "type": "electric_scooter", "lat": 38.892236, "is_reserved": 0, "fusion_lat": 0.0}, {"bike_id": "1d80992db0d5f4c98cec050a5f3195d0", "fusion_lon": 0.0, "lon": -77.022105, "name": "1d80992db0d5f4c98cec050a5f3195d0", "is_disabled": 0, "rental_uris": {"android": "https://dc.lft.to/lastmile_qr_scan", "ios": "https://dc.lft.to/lastmile_qr_scan"}, "type": "electric_scooter", "lat": 38.9073135, "is_reserved": 0, "fusion_lat": 0.0}, {"bike_id": "f65a6e3f20b41be8f08e05f29ba61f76", "fusion_lon": 0.0, "lon": -77.04455166666666, "name": "f65a6e3f20b41be8f08e05f29ba61f76", "is_disabled": 0, "rental_uris": {"android": "https://dc.lft.to/lastmile_qr_scan", "ios": "https://dc.lft.to/lastmile_qr_scan"}, "type": "electric_scooter", "lat": 38.9185165, "is_reserved": 0, "fusion_lat": 0.0}, {"bike_id": "4e155688e0c64545b4f265734a06dc84", "fusion_lon": 0.0, "lon": -76.92881433333334, "name": "4e155688e0c64545b4f265734a06dc84", "is_disabled": 0, "rental_uris": {"android": "https://dc.lft.to/lastmile_qr_scan", "ios": "https://dc.lft.to/lastmile_qr_scan"}, "type": "electric_scooter", "lat": 38.885229833333334, "is_reserved": 0, "fusion_lat": 0.0}, {"bike_id": "488cdb2fd91c8f22d95f78ea9fa6d979", "fusion_lon": 0.0, "lon": -77.03523133333333, "name": "488cdb2fd91c8f22d95f78ea9fa6d979", "is_disabled": 0, "rental_uris": {"android": "https://dc.lft.to/lastmile_qr_scan", "ios": "https://dc.lft.to/lastmile_qr_scan"}, "type": "electric_scooter", "lat": 38.93591766666667, "is_reserved": 0, "fusion_lat": 0.0}, {"bike_id": "9eb444616507659086e7b17e35419978", "fusion_lon": 0.0, "lon": -77.02479533333333, "name": "9eb444616507659086e7b17e35419978", "is_disabled": 0, "rental_uris": {"android": "https://dc.lft.to/lastmile_qr_scan", "ios": "https://dc.lft.to/lastmile_qr_scan"}, "type": "electric_scooter", "lat": 38.90973016666667, "is_reserved": 0, "fusion_lat": 0.0}, {"bike_id": "763889e82137d38c36d359de4fbf01f5", "fusion_lon": 0.0, "lon": -77.04167333333334, "name": "763889e82137d38c36d359de4fbf01f5", "is_disabled": 0, "rental_uris": {"android": "https://dc.lft.to/lastmile_qr_scan", "ios": "https://dc.lft.to/lastmile_qr_scan"}, "type": "electric_scooter", "lat": 38.901418666666665, "is_reserved": 0, "fusion_lat": 0.0}, {"bike_id": "ed38d648f972c56a07428ef314505c9c", "fusion_lon": 0.0, "lon": -77.0351535, "name": "ed38d648f972c56a07428ef314505c9c", "is_disabled": 0, "rental_uris": {"android": "https://dc.lft.to/lastmile_qr_scan", "ios": "https://dc.lft.to/lastmile_qr_scan"}, "type": "electric_scooter", "lat": 38.92280516666667, "is_reserved": 0, "fusion_lat": 0.0}, {"bike_id": "5af1d59caea5c9d3e063132e8101add7", "fusion_lon": 0.0, "lon": -77.02068733333333, "name": "5af1d59caea5c9d3e063132e8101add7", "is_disabled": 0, "rental_uris": {"android": "https://dc.lft.to/lastmile_qr_scan", "ios": "https://dc.lft.to/lastmile_qr_scan"}, "type": "electric_bike", "lat": 38.96441266666667, "is_reserved": 0, "fusion_lat": 0.0}, {"bike_id": "f1b784a15a2ab44c72fd77d64291a764", "fusion_lon": 0.0, "lon": -77.02967833333334, "name": "f1b784a15a2ab44c72fd77d64291a764", "is_disabled": 0, "rental_uris": {"android": "https://dc.lft.to/lastmile_qr_scan", "ios": "https://dc.lft.to/lastmile_qr_scan"}, "type": "electric_scooter", "lat": 38.916806666666666, "is_reserved": 0, "fusion_lat": 0.0}, {"bike_id": "a3d9d043181aa7fcc3340617ee9d146a", "fusion_lon": 0.0, "lon": -77.01749416666667, "name": "a3d9d043181aa7fcc3340617ee9d146a", "is_disabled": 0, "rental_uris": {"android": "https://dc.lft.to/lastmile_qr_scan", "ios": "https://dc.lft.to/lastmile_qr_scan"}, "type": "electric_scooter", "lat": 38.8778125, "is_reserved": 0, "fusion_lat": 0.0}, {"bike_id": "72d4594411dd6648e7a5d85603e0413c", "fusion_lon": 0.0, "lon": -77.02212916666667, "name": "72d4594411dd6648e7a5d85603e0413c", "is_disabled": 0, "rental_uris": {"android": "https://dc.lft.to/lastmile_qr_scan", "ios": "https://dc.lft.to/lastmile_qr_scan"}, "type": "electric_scooter", "lat": 38.9156625, "is_reserved": 0, "fusion_lat": 0.0}, {"bike_id": "65ad5d4def68da3021c187b5c65dc65d", "fusion_lon": 0.0, "lon": -77.02121066666666, "name": "65ad5d4def68da3021c187b5c65dc65d", "is_disabled": 0, "rental_uris": {"android": "https://dc.lft.to/lastmile_qr_scan", "ios": "https://dc.lft.to/lastmile_qr_scan"}, "type": "electric_scooter", "lat": 38.9302445, "is_reserved": 0, "fusion_lat": 0.0}, {"bike_id": "9453ea7035ac179021a8d9400428f678", "fusion_lon": 0.0, "lon": -76.97946116666667, "name": "9453ea7035ac179021a8d9400428f678", "is_disabled": 0, "rental_uris": {"android": "https://dc.lft.to/lastmile_qr_scan", "ios": "https://dc.lft.to/lastmile_qr_scan"}, "type": "electric_scooter", "lat": 38.945301, "is_reserved": 0, "fusion_lat": 0.0}, {"bike_id": "8e9408685bf793a95541fc90c5c77e31", "fusion_lon": 0.0, "lon": -77.09960866666667, "name": "8e9408685bf793a95541fc90c5c77e31", "is_disabled": 0, "rental_uris": {"android": "https://dc.lft.to/lastmile_qr_scan", "ios": "https://dc.lft.to/lastmile_qr_scan"}, "type": "electric_bike", "lat": 38.85792566666667, "is_reserved": 0, "fusion_lat": 0.0}, {"bike_id": "566bbc865d3a226aa18260b7ea0fc1de", "fusion_lon": 0.0, "lon": -76.99542616666666, "name": "566bbc865d3a226aa18260b7ea0fc1de", "is_disabled": 0, "rental_uris": {"android": "https://dc.lft.to/lastmile_qr_scan", "ios": "https://dc.lft.to/lastmile_qr_scan"}, "type": "electric_scooter", "lat": 38.9266605, "is_reserved": 0, "fusion_lat": 0.0}, {"bike_id": "b47a09c902835fa8e7ec1a14b5f82625", "fusion_lon": 0.0, "lon": -77.098054, "name": "b47a09c902835fa8e7ec1a14b5f82625", "is_disabled": 0, "rental_uris": {"android": "https://dc.lft.to/lastmile_qr_scan", "ios": "https://dc.lft.to/lastmile_qr_scan"}, "type": "electric_bike", "lat": 38.850294166666664, "is_reserved": 0, "fusion_lat": 0.0}, {"bike_id": "78f45b80329e91ac512c0760b490f0f4", "fusion_lon": 0.0, "lon": -77.039568, "name": "78f45b80329e91ac512c0760b490f0f4", "is_disabled": 0, "rental_uris": {"android": "https://dc.lft.to/lastmile_qr_scan", "ios": "https://dc.lft.to/lastmile_qr_scan"}, "type": "electric_scooter", "lat": 38.892428833333334, "is_reserved": 0, "fusion_lat": 0.0}, {"bike_id": "d4fac589f427bba575ca967cca05c922", "fusion_lon": 0.0, "lon": -77.0403855, "name": "d4fac589f427bba575ca967cca05c922", "is_disabled": 0, "rental_uris": {"android": "https://dc.lft.to/lastmile_qr_scan", "ios": "https://dc.lft.to/lastmile_qr_scan"}, "type": "electric_scooter", "lat": 38.91860916666667, "is_reserved": 0, "fusion_lat": 0.0}, {"bike_id": "1ae04c6b7592a9ed37320b0f6047c7e8", "fusion_lon": 0.0, "lon": -77.032131, "name": "1ae04c6b7592a9ed37320b0f6047c7e8", "is_disabled": 0, "rental_uris": {"android": "https://dc.lft.to/lastmile_qr_scan", "ios": "https://dc.lft.to/lastmile_qr_scan"}, "type": "electric_scooter", "lat": 38.917043666666665, "is_reserved": 0, "fusion_lat": 0.0}, {"bike_id": "71ff80588b1a6a40cdf78010daef3e43", "fusion_lon": 0.0, "lon": -77.0296615, "name": "71ff80588b1a6a40cdf78010daef3e43", "is_disabled": 0, "rental_uris": {"android": "https://dc.lft.to/lastmile_qr_scan", "ios": "https://dc.lft.to/lastmile_qr_scan"}, "type": "electric_scooter", "lat": 38.91598883333333, "is_reserved": 0, "fusion_lat": 0.0}, {"bike_id": "2ff379229c366dd250424bcc73f3d6dd", "fusion_lon": 0.0, "lon": -77.021827, "name": "2ff379229c366dd250424bcc73f3d6dd", "is_disabled": 0, "rental_uris": {"android": "https://dc.lft.to/lastmile_qr_scan", "ios": "https://dc.lft.to/lastmile_qr_scan"}, "type": "electric_scooter", "lat": 38.90612616666667, "is_reserved": 0, "fusion_lat": 0.0}, {"bike_id": "686b2f32f8035bd08edefd248ed8e83e", "fusion_lon": 0.0, "lon": -77.02208716666667, "name": "686b2f32f8035bd08edefd248ed8e83e", "is_disabled": 0, "rental_uris": {"android": "https://dc.lft.to/lastmile_qr_scan", "ios": "https://dc.lft.to/lastmile_qr_scan"}, "type": "electric_scooter", "lat": 38.9101385, "is_reserved": 0, "fusion_lat": 0.0}, {"bike_id": "4c09dee871dddaa1a250974d9f47ed0a", "fusion_lon": 0.0, "lon": -77.04248333333334, "name": "4c09dee871dddaa1a250974d9f47ed0a", "is_disabled": 0, "rental_uris": {"android": "https://dc.lft.to/lastmile_qr_scan", "ios": "https://dc.lft.to/lastmile_qr_scan"}, "type": "electric_scooter", "lat": 38.92204016666667, "is_reserved": 0, "fusion_lat": 0.0}, {"bike_id": "1c77d7688e093d0356f20d4660bb87e5", "fusion_lon": 0.0, "lon": -76.99947716666667, "name": "1c77d7688e093d0356f20d4660bb87e5", "is_disabled": 0, "rental_uris": {"android": "https://dc.lft.to/lastmile_qr_scan", "ios": "https://dc.lft.to/lastmile_qr_scan"}, "type": "electric_scooter", "lat": 38.842920666666664, "is_reserved": 0, "fusion_lat": 0.0}, {"bike_id": "7d4f4e44ac7d236be7537cda22f638ff", "fusion_lon": 0.0, "lon": -77.02960433333334, "name": "7d4f4e44ac7d236be7537cda22f638ff", "is_disabled": 0, "rental_uris": {"android": "https://dc.lft.to/lastmile_qr_scan", "ios": "https://dc.lft.to/lastmile_qr_scan"}, "type": "electric_scooter", "lat": 38.91682516666667, "is_reserved": 0, "fusion_lat": 0.0}, {"bike_id": "0d3874d1d045d3dcb98d664e4346c601", "fusion_lon": 0.0, "lon": -77.03328616666667, "name": "0d3874d1d045d3dcb98d664e4346c601", "is_disabled": 0, "rental_uris": {"android": "https://dc.lft.to/lastmile_qr_scan", "ios": "https://dc.lft.to/lastmile_qr_scan"}, "type": "electric_scooter", "lat": 38.903147833333335, "is_reserved": 0, "fusion_lat": 0.0}, {"bike_id": "13f8a5b015736ee48ddd312e08fb2e30", "fusion_lon": 0.0, "lon": -77.03336933333334, "name": "13f8a5b015736ee48ddd312e08fb2e30", "is_disabled": 0, "rental_uris": {"android": "https://dc.lft.to/lastmile_qr_scan", "ios": "https://dc.lft.to/lastmile_qr_scan"}, "type": "electric_scooter", "lat": 38.90271766666667, "is_reserved": 0, "fusion_lat": 0.0}, {"bike_id": "5cb03b88d424db2b785ea1f7d38af185", "fusion_lon": 0.0, "lon": -77.0447115, "name": "5cb03b88d424db2b785ea1f7d38af185", "is_disabled": 0, "rental_uris": {"android": "https://dc.lft.to/lastmile_qr_scan", "ios": "https://dc.lft.to/lastmile_qr_scan"}, "type": "electric_scooter", "lat": 38.911109, "is_reserved": 0, "fusion_lat": 0.0}, {"bike_id": "ede569e1c043d02d9191e20b296c4e74", "fusion_lon": 0.0, "lon": -77.06351783333334, "name": "ede569e1c043d02d9191e20b296c4e74", "is_disabled": 0, "rental_uris": {"android": "https://dc.lft.to/lastmile_qr_scan", "ios": "https://dc.lft.to/lastmile_qr_scan"}, "type": "electric_scooter", "lat": 38.9444435, "is_reserved": 0, "fusion_lat": 0.0}, {"bike_id": "3d122ace936c20058c2c3d80db78e9c8", "fusion_lon": 0.0, "lon": -77.058255, "name": "3d122ace936c20058c2c3d80db78e9c8", "is_disabled": 0, "rental_uris": {"android": "https://dc.lft.to/lastmile_qr_scan", "ios": "https://dc.lft.to/lastmile_qr_scan"}, "type": "electric_scooter", "lat": 38.905298333333334, "is_reserved": 0, "fusion_lat": 0.0}, {"bike_id": "7f452e1a6eab11ed696142a6a4518d48", "fusion_lon": 0.0, "lon": -77.00388566666666, "name": "7f452e1a6eab11ed696142a6a4518d48", "is_disabled": 0, "rental_uris": {"android": "https://dc.lft.to/lastmile_qr_scan", "ios": "https://dc.lft.to/lastmile_qr_scan"}, "type": "electric_scooter", "lat": 38.92207766666667, "is_reserved": 0, "fusion_lat": 0.0}, {"bike_id": "fe75545407bff1094ce90c15f15ee5cc", "fusion_lon": 0.0, "lon": -77.036539, "name": "fe75545407bff1094ce90c15f15ee5cc", "is_disabled": 0, "rental_uris": {"android": "https://dc.lft.to/lastmile_qr_scan", "ios": "https://dc.lft.to/lastmile_qr_scan"}, "type": "electric_scooter", "lat": 38.918030333333334, "is_reserved": 0, "fusion_lat": 0.0}, {"bike_id": "aa9d0cc9365d5d929c2fc43ba4aa120e", "fusion_lon": 0.0, "lon": -77.031631, "name": "aa9d0cc9365d5d929c2fc43ba4aa120e", "is_disabled": 0, "rental_uris": {"android": "https://dc.lft.to/lastmile_qr_scan", "ios": "https://dc.lft.to/lastmile_qr_scan"}, "type": "electric_scooter", "lat": 38.89223483333333, "is_reserved": 0, "fusion_lat": 0.0}, {"bike_id": "3884ac0fd314adc76599291532742ccc", "fusion_lon": 0.0, "lon": -77.04423983333334, "name": "3884ac0fd314adc76599291532742ccc", "is_disabled": 0, "rental_uris": {"android": "https://dc.lft.to/lastmile_qr_scan", "ios": "https://dc.lft.to/lastmile_qr_scan"}, "type": "electric_scooter", "lat": 38.91006466666666, "is_reserved": 0, "fusion_lat": 0.0}, {"bike_id": "758fe6d8c3c593e26035a087fad14b09", "fusion_lon": 0.0, "lon": -76.98112583333334, "name": "758fe6d8c3c593e26035a087fad14b09", "is_disabled": 0, "rental_uris": {"android": "https://dc.lft.to/lastmile_qr_scan", "ios": "https://dc.lft.to/lastmile_qr_scan"}, "type": "electric_bike", "lat": 38.91478033333333, "is_reserved": 0, "fusion_lat": 0.0}, {"bike_id": "8c2addb658a352a1074b224411442a34", "fusion_lon": 0.0, "lon": -76.9652765, "name": "8c2addb658a352a1074b224411442a34", "is_disabled": 0, "rental_uris": {"android": "https://dc.lft.to/lastmile_qr_scan", "ios": "https://dc.lft.to/lastmile_qr_scan"}, "type": "electric_scooter", "lat": 38.87628516666667, "is_reserved": 0, "fusion_lat": 0.0}, {"bike_id": "e886de8d9c80da6f2adb9c680fcfdfb6", "fusion_lon": 0.0, "lon": -77.042047, "name": "e886de8d9c80da6f2adb9c680fcfdfb6", "is_disabled": 0, "rental_uris": {"android": "https://dc.lft.to/lastmile_qr_scan", "ios": "https://dc.lft.to/lastmile_qr_scan"}, "type": "electric_scooter", "lat": 38.92044716666667, "is_reserved": 0, "fusion_lat": 0.0}, {"bike_id": "40ede2544ed23143e8a4b82ec9b03ce0", "fusion_lon": 0.0, "lon": -77.04328433333333, "name": "40ede2544ed23143e8a4b82ec9b03ce0", "is_disabled": 0, "rental_uris": {"android": "https://dc.lft.to/lastmile_qr_scan", "ios": "https://dc.lft.to/lastmile_qr_scan"}, "type": "electric_scooter", "lat": 38.89223333333333, "is_reserved": 0, "fusion_lat": 0.0}, {"bike_id": "3895289e29f7a85c777c1ee39bfdbcab", "fusion_lon": 0.0, "lon": -77.0661375, "name": "3895289e29f7a85c777c1ee39bfdbcab", "is_disabled": 0, "rental_uris": {"android": "https://dc.lft.to/lastmile_qr_scan", "ios": "https://dc.lft.to/lastmile_qr_scan"}, "type": "electric_scooter", "lat": 38.9051845, "is_reserved": 0, "fusion_lat": 0.0}, {"bike_id": "5c02ce69760033c2964bd4257d0a0542", "fusion_lon": 0.0, "lon": -76.97789666666667, "name": "5c02ce69760033c2964bd4257d0a0542", "is_disabled": 0, "rental_uris": {"android": "https://dc.lft.to/lastmile_qr_scan", "ios": "https://dc.lft.to/lastmile_qr_scan"}, "type": "electric_scooter", "lat": 38.929132, "is_reserved": 0, "fusion_lat": 0.0}, {"bike_id": "f63b48cec65d39b465009785cc77a241", "fusion_lon": 0.0, "lon": -77.04710066666667, "name": "f63b48cec65d39b465009785cc77a241", "is_disabled": 0, "rental_uris": {"android": "https://dc.lft.to/lastmile_qr_scan", "ios": "https://dc.lft.to/lastmile_qr_scan"}, "type": "electric_scooter", "lat": 38.91264616666667, "is_reserved": 0, "fusion_lat": 0.0}, {"bike_id": "63c896a4457d8da8b91635ccc25f327d", "fusion_lon": 0.0, "lon": -76.90978033333333, "name": "63c896a4457d8da8b91635ccc25f327d", "is_disabled": 0, "rental_uris": {"android": "https://dc.lft.to/lastmile_qr_scan", "ios": "https://dc.lft.to/lastmile_qr_scan"}, "type": "electric_bike", "lat": 38.85421766666666, "is_reserved": 0, "fusion_lat": 0.0}, {"bike_id": "6e34ba9997e04a0781b3945bf1e1cc5f", "fusion_lon": 0.0, "lon": -77.02687166666666, "name": "6e34ba9997e04a0781b3945bf1e1cc5f", "is_disabled": 0, "rental_uris": {"android": "https://dc.lft.to/lastmile_qr_scan", "ios": "https://dc.lft.to/lastmile_qr_scan"}, "type": "electric_scooter", "lat": 38.881289833333334, "is_reserved": 0, "fusion_lat": 0.0}, {"bike_id": "80c4ef115969cd2c2afc842b382c1c77", "fusion_lon": 0.0, "lon": -77.028138, "name": "80c4ef115969cd2c2afc842b382c1c77", "is_disabled": 0, "rental_uris": {"android": "https://dc.lft.to/lastmile_qr_scan", "ios": "https://dc.lft.to/lastmile_qr_scan"}, "type": "electric_scooter", "lat": 38.91689483333333, "is_reserved": 0, "fusion_lat": 0.0}, {"bike_id": "6a213448bfbd208c0089242120619d89", "fusion_lon": 0.0, "lon": -77.05126766666666, "name": "6a213448bfbd208c0089242120619d89", "is_disabled": 0, "rental_uris": {"android": "https://dc.lft.to/lastmile_qr_scan", "ios": "https://dc.lft.to/lastmile_qr_scan"}, "type": "electric_scooter", "lat": 38.923632833333336, "is_reserved": 0, "fusion_lat": 0.0}, {"bike_id": "ac3690c9733f3884b52d54acfad53141", "fusion_lon": 0.0, "lon": -77.02769033333334, "name": "ac3690c9733f3884b52d54acfad53141", "is_disabled": 0, "rental_uris": {"android": "https://dc.lft.to/lastmile_qr_scan", "ios": "https://dc.lft.to/lastmile_qr_scan"}, "type": "electric_scooter", "lat": 38.954210333333336, "is_reserved": 0, "fusion_lat": 0.0}, {"bike_id": "61971f8a1f6dc77119c63052dfe23a5a", "fusion_lon": 0.0, "lon": -77.05231633333334, "name": "61971f8a1f6dc77119c63052dfe23a5a", "is_disabled": 0, "rental_uris": {"android": "https://dc.lft.to/lastmile_qr_scan", "ios": "https://dc.lft.to/lastmile_qr_scan"}, "type": "electric_scooter", "lat": 38.924679, "is_reserved": 0, "fusion_lat": 0.0}, {"bike_id": "8a1cd69a4b6b372b6e7180d0300cb7c9", "fusion_lon": 0.0, "lon": -77.04249666666666, "name": "8a1cd69a4b6b372b6e7180d0300cb7c9", "is_disabled": 0, "rental_uris": {"android": "https://dc.lft.to/lastmile_qr_scan", "ios": "https://dc.lft.to/lastmile_qr_scan"}, "type": "electric_bike", "lat": 38.922105, "is_reserved": 0, "fusion_lat": 0.0}, {"bike_id": "b5d32ede36a5450adca0b83d43000c39", "fusion_lon": 0.0, "lon": -77.03154916666666, "name": "b5d32ede36a5450adca0b83d43000c39", "is_disabled": 0, "rental_uris": {"android": "https://dc.lft.to/lastmile_qr_scan", "ios": "https://dc.lft.to/lastmile_qr_scan"}, "type": "electric_scooter", "lat": 38.92793983333333, "is_reserved": 0, "fusion_lat": 0.0}, {"bike_id": "fa83b3167038aa752ea20dc4b8c6d319", "fusion_lon": 0.0, "lon": -77.22222283333333, "name": "fa83b3167038aa752ea20dc4b8c6d319", "is_disabled": 0, "rental_uris": {"android": "https://dc.lft.to/lastmile_qr_scan", "ios": "https://dc.lft.to/lastmile_qr_scan"}, "type": "electric_bike", "lat": 38.928563, "is_reserved": 0, "fusion_lat": 0.0}, {"bike_id": "c0f23dd5baf05f611eaa1b6318834579", "fusion_lon": 0.0, "lon": -77.04535683333333, "name": "c0f23dd5baf05f611eaa1b6318834579", "is_disabled": 0, "rental_uris": {"android": "https://dc.lft.to/lastmile_qr_scan", "ios": "https://dc.lft.to/lastmile_qr_scan"}, "type": "electric_bike", "lat": 38.907266, "is_reserved": 0, "fusion_lat": 0.0}, {"bike_id": "0b77e8be1f6478bebd60ad2a9ac4c81f", "fusion_lon": 0.0, "lon": -77.0231285, "name": "0b77e8be1f6478bebd60ad2a9ac4c81f", "is_disabled": 0, "rental_uris": {"android": "https://dc.lft.to/lastmile_qr_scan", "ios": "https://dc.lft.to/lastmile_qr_scan"}, "type": "electric_scooter", "lat": 38.896716833333336, "is_reserved": 0, "fusion_lat": 0.0}, {"bike_id": "2d4b67f74e83427038c8101987d84c27", "fusion_lon": 0.0, "lon": -77.02691433333334, "name": "2d4b67f74e83427038c8101987d84c27", "is_disabled": 0, "rental_uris": {"android": "https://dc.lft.to/lastmile_qr_scan", "ios": "https://dc.lft.to/lastmile_qr_scan"}, "type": "electric_scooter", "lat": 38.9068035, "is_reserved": 0, "fusion_lat": 0.0}, {"bike_id": "e7d1a3edbbce490bfa85a88a4e2d6e94", "fusion_lon": 0.0, "lon": -77.03184316666666, "name": "e7d1a3edbbce490bfa85a88a4e2d6e94", "is_disabled": 0, "rental_uris": {"android": "https://dc.lft.to/lastmile_qr_scan", "ios": "https://dc.lft.to/lastmile_qr_scan"}, "type": "electric_scooter", "lat": 38.91833233333333, "is_reserved": 0, "fusion_lat": 0.0}, {"bike_id": "0fdefa1186b4cd3f3c038af9226a541e", "fusion_lon": 0.0, "lon": -76.97873483333333, "name": "0fdefa1186b4cd3f3c038af9226a541e", "is_disabled": 0, "rental_uris": {"android": "https://dc.lft.to/lastmile_qr_scan", "ios": "https://dc.lft.to/lastmile_qr_scan"}, "type": "electric_bike", "lat": 38.91589833333333, "is_reserved": 0, "fusion_lat": 0.0}, {"bike_id": "af9fc7a41b814516df5f66cd0744df05", "fusion_lon": 0.0, "lon": -76.939886, "name": "af9fc7a41b814516df5f66cd0744df05", "is_disabled": 0, "rental_uris": {"android": "https://dc.lft.to/lastmile_qr_scan", "ios": "https://dc.lft.to/lastmile_qr_scan"}, "type": "electric_scooter", "lat": 38.8998025, "is_reserved": 0, "fusion_lat": 0.0}, {"bike_id": "9a3adbe9325d576c465982747856b1ef", "fusion_lon": 0.0, "lon": -77.17841983333334, "name": "9a3adbe9325d576c465982747856b1ef", "is_disabled": 0, "rental_uris": {"android": "https://dc.lft.to/lastmile_qr_scan", "ios": "https://dc.lft.to/lastmile_qr_scan"}, "type": "electric_bike", "lat": 39.0885725, "is_reserved": 0, "fusion_lat": 0.0}, {"bike_id": "84678cfaeedaa9669e77688116acca8a", "fusion_lon": 0.0, "lon": -77.024157, "name": "84678cfaeedaa9669e77688116acca8a", "is_disabled": 0, "rental_uris": {"android": "https://dc.lft.to/lastmile_qr_scan", "ios": "https://dc.lft.to/lastmile_qr_scan"}, "type": "electric_scooter", "lat": 38.91410666666667, "is_reserved": 0, "fusion_lat": 0.0}, {"bike_id": "7ade0792e453f10d23aca90ee43148b4", "fusion_lon": 0.0, "lon": -76.96526016666667, "name": "7ade0792e453f10d23aca90ee43148b4", "is_disabled": 0, "rental_uris": {"android": "https://dc.lft.to/lastmile_qr_scan", "ios": "https://dc.lft.to/lastmile_qr_scan"}, "type": "electric_bike", "lat": 38.8748475, "is_reserved": 0, "fusion_lat": 0.0}, {"bike_id": "1458a1ffbe5665032a310f008b2edd11", "fusion_lon": 0.0, "lon": -77.03840866666667, "name": "1458a1ffbe5665032a310f008b2edd11", "is_disabled": 0, "rental_uris": {"android": "https://dc.lft.to/lastmile_qr_scan", "ios": "https://dc.lft.to/lastmile_qr_scan"}, "type": "electric_scooter", "lat": 38.9134155, "is_reserved": 0, "fusion_lat": 0.0}, {"bike_id": "22189dfc2ec935dc03dcc641ae957672", "fusion_lon": 0.0, "lon": -76.9961245, "name": "22189dfc2ec935dc03dcc641ae957672", "is_disabled": 0, "rental_uris": {"android": "https://dc.lft.to/lastmile_qr_scan", "ios": "https://dc.lft.to/lastmile_qr_scan"}, "type": "electric_scooter", "lat": 38.887187, "is_reserved": 0, "fusion_lat": 0.0}, {"bike_id": "ccf2974e3e3f75e3228bdbe732acadb3", "fusion_lon": 0.0, "lon": -77.02188466666666, "name": "ccf2974e3e3f75e3228bdbe732acadb3", "is_disabled": 0, "rental_uris": {"android": "https://dc.lft.to/lastmile_qr_scan", "ios": "https://dc.lft.to/lastmile_qr_scan"}, "type": "electric_scooter", "lat": 38.90941866666667, "is_reserved": 0, "fusion_lat": 0.0}, {"bike_id": "174d429602c252e05a7034d83257c29b", "fusion_lon": 0.0, "lon": -77.00926116666666, "name": "174d429602c252e05a7034d83257c29b", "is_disabled": 0, "rental_uris": {"android": "https://dc.lft.to/lastmile_qr_scan", "ios": "https://dc.lft.to/lastmile_qr_scan"}, "type": "electric_scooter", "lat": 38.912665833333335, "is_reserved": 0, "fusion_lat": 0.0}, {"bike_id": "912e0493f03741e6d0a3149c06ce25dc", "fusion_lon": 0.0, "lon": -76.990869, "name": "912e0493f03741e6d0a3149c06ce25dc", "is_disabled": 0, "rental_uris": {"android": "https://dc.lft.to/lastmile_qr_scan", "ios": "https://dc.lft.to/lastmile_qr_scan"}, "type": "electric_scooter", "lat": 38.92954116666667, "is_reserved": 0, "fusion_lat": 0.0}, {"bike_id": "ec1587b3fc1a9e4c7d8abbbb4fa73d89", "fusion_lon": 0.0, "lon": -77.03430166666666, "name": "ec1587b3fc1a9e4c7d8abbbb4fa73d89", "is_disabled": 0, "rental_uris": {"android": "https://dc.lft.to/lastmile_qr_scan", "ios": "https://dc.lft.to/lastmile_qr_scan"}, "type": "electric_scooter", "lat": 38.903447, "is_reserved": 0, "fusion_lat": 0.0}, {"bike_id": "e9647b3d67c964d5a2ab83672df3e9c6", "fusion_lon": 0.0, "lon": -77.04200816666666, "name": "e9647b3d67c964d5a2ab83672df3e9c6", "is_disabled": 0, "rental_uris": {"android": "https://dc.lft.to/lastmile_qr_scan", "ios": "https://dc.lft.to/lastmile_qr_scan"}, "type": "electric_scooter", "lat": 38.92046083333334, "is_reserved": 0, "fusion_lat": 0.0}, {"bike_id": "05da4c543a6cb23d723c0e476601c077", "fusion_lon": 0.0, "lon": -76.97947266666667, "name": "05da4c543a6cb23d723c0e476601c077", "is_disabled": 0, "rental_uris": {"android": "https://dc.lft.to/lastmile_qr_scan", "ios": "https://dc.lft.to/lastmile_qr_scan"}, "type": "electric_scooter", "lat": 38.91693566666667, "is_reserved": 0, "fusion_lat": 0.0}, {"bike_id": "c333b98b1a2063d7a0f0e84e787ac3de", "fusion_lon": 0.0, "lon": -77.03211683333333, "name": "c333b98b1a2063d7a0f0e84e787ac3de", "is_disabled": 0, "rental_uris": {"android": "https://dc.lft.to/lastmile_qr_scan", "ios": "https://dc.lft.to/lastmile_qr_scan"}, "type": "electric_scooter", "lat": 38.91853, "is_reserved": 0, "fusion_lat": 0.0}, {"bike_id": "4991f182008eeb01a498fa86958d2448", "fusion_lon": 0.0, "lon": -77.01911433333333, "name": "4991f182008eeb01a498fa86958d2448", "is_disabled": 0, "rental_uris": {"android": "https://dc.lft.to/lastmile_qr_scan", "ios": "https://dc.lft.to/lastmile_qr_scan"}, "type": "electric_scooter", "lat": 38.90235283333333, "is_reserved": 0, "fusion_lat": 0.0}, {"bike_id": "f3ddbce41d8b77cee856be3781c49971", "fusion_lon": 0.0, "lon": -77.11055883333333, "name": "f3ddbce41d8b77cee856be3781c49971", "is_disabled": 0, "rental_uris": {"android": "https://dc.lft.to/lastmile_qr_scan", "ios": "https://dc.lft.to/lastmile_qr_scan"}, "type": "electric_bike", "lat": 38.8707465, "is_reserved": 0, "fusion_lat": 0.0}, {"bike_id": "b35182e8261a719caa4c36ef08eb27fa", "fusion_lon": 0.0, "lon": -77.06340166666666, "name": "b35182e8261a719caa4c36ef08eb27fa", "is_disabled": 0, "rental_uris": {"android": "https://dc.lft.to/lastmile_qr_scan", "ios": "https://dc.lft.to/lastmile_qr_scan"}, "type": "electric_scooter", "lat": 38.906835, "is_reserved": 0, "fusion_lat": 0.0}, {"bike_id": "ba7c54f740df9dddfccf86a9d49fa7a7", "fusion_lon": 0.0, "lon": -77.05000316666667, "name": "ba7c54f740df9dddfccf86a9d49fa7a7", "is_disabled": 0, "rental_uris": {"android": "https://dc.lft.to/lastmile_qr_scan", "ios": "https://dc.lft.to/lastmile_qr_scan"}, "type": "electric_scooter", "lat": 38.89229683333333, "is_reserved": 0, "fusion_lat": 0.0}, {"bike_id": "a32b4565a7fb5d9fc1bb5e3fee94acc6", "fusion_lon": 0.0, "lon": -77.0221105, "name": "a32b4565a7fb5d9fc1bb5e3fee94acc6", "is_disabled": 0, "rental_uris": {"android": "https://dc.lft.to/lastmile_qr_scan", "ios": "https://dc.lft.to/lastmile_qr_scan"}, "type": "electric_scooter", "lat": 38.91556166666667, "is_reserved": 0, "fusion_lat": 0.0}, {"bike_id": "091ec875bc104e154eab0aa1171a24bb", "fusion_lon": 0.0, "lon": -76.99904366666667, "name": "091ec875bc104e154eab0aa1171a24bb", "is_disabled": 0, "rental_uris": {"android": "https://dc.lft.to/lastmile_qr_scan", "ios": "https://dc.lft.to/lastmile_qr_scan"}, "type": "electric_scooter", "lat": 38.948177, "is_reserved": 0, "fusion_lat": 0.0}, {"bike_id": "0e6fd0d2c1c8ed88d472d0cf7c58d098", "fusion_lon": 0.0, "lon": -77.02204666666667, "name": "0e6fd0d2c1c8ed88d472d0cf7c58d098", "is_disabled": 0, "rental_uris": {"android": "https://dc.lft.to/lastmile_qr_scan", "ios": "https://dc.lft.to/lastmile_qr_scan"}, "type": "electric_scooter", "lat": 38.91490783333333, "is_reserved": 0, "fusion_lat": 0.0}, {"bike_id": "7c19a9fe4b9fa178293dffd8df1ab898", "fusion_lon": 0.0, "lon": -77.138779, "name": "7c19a9fe4b9fa178293dffd8df1ab898", "is_disabled": 0, "rental_uris": {"android": "https://dc.lft.to/lastmile_qr_scan", "ios": "https://dc.lft.to/lastmile_qr_scan"}, "type": "electric_bike", "lat": 38.89679666666667, "is_reserved": 0, "fusion_lat": 0.0}, {"bike_id": "3b6469c7f0ba41be76611b8722c66261", "fusion_lon": 0.0, "lon": -77.02974366666666, "name": "3b6469c7f0ba41be76611b8722c66261", "is_disabled": 0, "rental_uris": {"android": "https://dc.lft.to/lastmile_qr_scan", "ios": "https://dc.lft.to/lastmile_qr_scan"}, "type": "electric_scooter", "lat": 38.90542666666666, "is_reserved": 0, "fusion_lat": 0.0}, {"bike_id": "a5372fe0baff62ffa27da53cb3ff2353", "fusion_lon": 0.0, "lon": -77.02534766666666, "name": "a5372fe0baff62ffa27da53cb3ff2353", "is_disabled": 0, "rental_uris": {"android": "https://dc.lft.to/lastmile_qr_scan", "ios": "https://dc.lft.to/lastmile_qr_scan"}, "type": "electric_scooter", "lat": 38.9056635, "is_reserved": 0, "fusion_lat": 0.0}, {"bike_id": "bea126d3ba5488e8b210aaee6339c40f", "fusion_lon": 0.0, "lon": -77.0316195, "name": "bea126d3ba5488e8b210aaee6339c40f", "is_disabled": 0, "rental_uris": {"android": "https://dc.lft.to/lastmile_qr_scan", "ios": "https://dc.lft.to/lastmile_qr_scan"}, "type": "electric_scooter", "lat": 38.89221783333333, "is_reserved": 0, "fusion_lat": 0.0}, {"bike_id": "ffdf1f1d9de47bcbbd2fec96e96bed04", "fusion_lon": 0.0, "lon": -77.0273385, "name": "ffdf1f1d9de47bcbbd2fec96e96bed04", "is_disabled": 0, "rental_uris": {"android": "https://dc.lft.to/lastmile_qr_scan", "ios": "https://dc.lft.to/lastmile_qr_scan"}, "type": "electric_scooter", "lat": 38.92767083333333, "is_reserved": 0, "fusion_lat": 0.0}, {"bike_id": "3873505a8165fb0b2f5d128bbad098a2", "fusion_lon": 0.0, "lon": -76.99401583333334, "name": "3873505a8165fb0b2f5d128bbad098a2", "is_disabled": 0, "rental_uris": {"android": "https://dc.lft.to/lastmile_qr_scan", "ios": "https://dc.lft.to/lastmile_qr_scan"}, "type": "electric_scooter", "lat": 38.92166916666667, "is_reserved": 0, "fusion_lat": 0.0}, {"bike_id": "d2e1bd144ddd24e3031874add0d3e82f", "fusion_lon": 0.0, "lon": -76.98396066666666, "name": "d2e1bd144ddd24e3031874add0d3e82f", "is_disabled": 0, "rental_uris": {"android": "https://dc.lft.to/lastmile_qr_scan", "ios": "https://dc.lft.to/lastmile_qr_scan"}, "type": "electric_scooter", "lat": 38.8669835, "is_reserved": 0, "fusion_lat": 0.0}, {"bike_id": "2bef3dc2ea4d29799429ca0171ebc41b", "fusion_lon": 0.0, "lon": -77.03834633333334, "name": "2bef3dc2ea4d29799429ca0171ebc41b", "is_disabled": 0, "rental_uris": {"android": "https://dc.lft.to/lastmile_qr_scan", "ios": "https://dc.lft.to/lastmile_qr_scan"}, "type": "electric_scooter", "lat": 38.9080125, "is_reserved": 0, "fusion_lat": 0.0}, {"bike_id": "42dc35c45e79ff48c2c6556577a63ec9", "fusion_lon": 0.0, "lon": -77.02712216666667, "name": "42dc35c45e79ff48c2c6556577a63ec9", "is_disabled": 0, "rental_uris": {"android": "https://dc.lft.to/lastmile_qr_scan", "ios": "https://dc.lft.to/lastmile_qr_scan"}, "type": "electric_scooter", "lat": 38.900734666666665, "is_reserved": 0, "fusion_lat": 0.0}, {"bike_id": "a8be85420d1bcbdb8f4b3d269e181e7d", "fusion_lon": 0.0, "lon": -77.03406, "name": "a8be85420d1bcbdb8f4b3d269e181e7d", "is_disabled": 0, "rental_uris": {"android": "https://dc.lft.to/lastmile_qr_scan", "ios": "https://dc.lft.to/lastmile_qr_scan"}, "type": "electric_scooter", "lat": 38.92044, "is_reserved": 0, "fusion_lat": 0.0}, {"bike_id": "5907a850886e61a172cdb4ae660fe4e3", "fusion_lon": 0.0, "lon": -76.93341766666667, "name": "5907a850886e61a172cdb4ae660fe4e3", "is_disabled": 0, "rental_uris": {"android": "https://dc.lft.to/lastmile_qr_scan", "ios": "https://dc.lft.to/lastmile_qr_scan"}, "type": "electric_scooter", "lat": 38.888153, "is_reserved": 0, "fusion_lat": 0.0}, {"bike_id": "aabce4e3c5913617ff9e7ddd6303ab2e", "fusion_lon": 0.0, "lon": -77.02697016666667, "name": "aabce4e3c5913617ff9e7ddd6303ab2e", "is_disabled": 0, "rental_uris": {"android": "https://dc.lft.to/lastmile_qr_scan", "ios": "https://dc.lft.to/lastmile_qr_scan"}, "type": "electric_scooter", "lat": 38.8984495, "is_reserved": 0, "fusion_lat": 0.0}, {"bike_id": "85a052be717e7967ab11a0c6c5539550", "fusion_lon": 0.0, "lon": -77.02968433333334, "name": "85a052be717e7967ab11a0c6c5539550", "is_disabled": 0, "rental_uris": {"android": "https://dc.lft.to/lastmile_qr_scan", "ios": "https://dc.lft.to/lastmile_qr_scan"}, "type": "electric_scooter", "lat": 38.922821, "is_reserved": 0, "fusion_lat": 0.0}, {"bike_id": "c9e2c877d90b8bbe5ee5281e43755d74", "fusion_lon": 0.0, "lon": -77.04817766666666, "name": "c9e2c877d90b8bbe5ee5281e43755d74", "is_disabled": 0, "rental_uris": {"android": "https://dc.lft.to/lastmile_qr_scan", "ios": "https://dc.lft.to/lastmile_qr_scan"}, "type": "electric_scooter", "lat": 38.9078635, "is_reserved": 0, "fusion_lat": 0.0}, {"bike_id": "8012800b8b6fca07c0fc204f5be04a12", "fusion_lon": 0.0, "lon": -77.03997383333333, "name": "8012800b8b6fca07c0fc204f5be04a12", "is_disabled": 0, "rental_uris": {"android": "https://dc.lft.to/lastmile_qr_scan", "ios": "https://dc.lft.to/lastmile_qr_scan"}, "type": "electric_scooter", "lat": 38.914163, "is_reserved": 0, "fusion_lat": 0.0}, {"bike_id": "3284bd51727abd32357d63d6b1fb7b4f", "fusion_lon": 0.0, "lon": -77.0489985, "name": "3284bd51727abd32357d63d6b1fb7b4f", "is_disabled": 0, "rental_uris": {"android": "https://dc.lft.to/lastmile_qr_scan", "ios": "https://dc.lft.to/lastmile_qr_scan"}, "type": "electric_scooter", "lat": 38.8900115, "is_reserved": 0, "fusion_lat": 0.0}, {"bike_id": "bead02759a36886981d77f2ac76e995b", "fusion_lon": 0.0, "lon": -77.046594, "name": "bead02759a36886981d77f2ac76e995b", "is_disabled": 0, "rental_uris": {"android": "https://dc.lft.to/lastmile_qr_scan", "ios": "https://dc.lft.to/lastmile_qr_scan"}, "type": "electric_scooter", "lat": 38.89242016666667, "is_reserved": 0, "fusion_lat": 0.0}, {"bike_id": "57c77b2bfc22bd4cfc9826086e122a0a", "fusion_lon": 0.0, "lon": -77.02852816666666, "name": "57c77b2bfc22bd4cfc9826086e122a0a", "is_disabled": 0, "rental_uris": {"android": "https://dc.lft.to/lastmile_qr_scan", "ios": "https://dc.lft.to/lastmile_qr_scan"}, "type": "electric_bike", "lat": 38.93285983333333, "is_reserved": 0, "fusion_lat": 0.0}, {"bike_id": "aebf2a02f636d2c324303f71579df437", "fusion_lon": 0.0, "lon": -77.02691233333333, "name": "aebf2a02f636d2c324303f71579df437", "is_disabled": 0, "rental_uris": {"android": "https://dc.lft.to/lastmile_qr_scan", "ios": "https://dc.lft.to/lastmile_qr_scan"}, "type": "electric_scooter", "lat": 38.91133833333333, "is_reserved": 0, "fusion_lat": 0.0}, {"bike_id": "14db5de0360f299c56b7ef9287d49e65", "fusion_lon": 0.0, "lon": -77.05049766666667, "name": "14db5de0360f299c56b7ef9287d49e65", "is_disabled": 0, "rental_uris": {"android": "https://dc.lft.to/lastmile_qr_scan", "ios": "https://dc.lft.to/lastmile_qr_scan"}, "type": "electric_scooter", "lat": 38.9234425, "is_reserved": 0, "fusion_lat": 0.0}, {"bike_id": "ce7b70f4a1940c2ea74f87e22f081fc3", "fusion_lon": 0.0, "lon": -77.01585366666667, "name": "ce7b70f4a1940c2ea74f87e22f081fc3", "is_disabled": 0, "rental_uris": {"android": "https://dc.lft.to/lastmile_qr_scan", "ios": "https://dc.lft.to/lastmile_qr_scan"}, "type": "electric_scooter", "lat": 38.88507166666667, "is_reserved": 0, "fusion_lat": 0.0}, {"bike_id": "4ff54f0b2fc3672124f8b4a4f250cd34", "fusion_lon": 0.0, "lon": -77.03975716666666, "name": "4ff54f0b2fc3672124f8b4a4f250cd34", "is_disabled": 0, "rental_uris": {"android": "https://dc.lft.to/lastmile_qr_scan", "ios": "https://dc.lft.to/lastmile_qr_scan"}, "type": "electric_scooter", "lat": 38.902366, "is_reserved": 0, "fusion_lat": 0.0}, {"bike_id": "323ddac5969219f2f1ca5272e2b853ab", "fusion_lon": 0.0, "lon": -77.03438233333334, "name": "323ddac5969219f2f1ca5272e2b853ab", "is_disabled": 0, "rental_uris": {"android": "https://dc.lft.to/lastmile_qr_scan", "ios": "https://dc.lft.to/lastmile_qr_scan"}, "type": "electric_scooter", "lat": 38.91806833333333, "is_reserved": 0, "fusion_lat": 0.0}, {"bike_id": "9cf030495505bd10a79917ca9d8e7935", "fusion_lon": 0.0, "lon": -77.02194366666667, "name": "9cf030495505bd10a79917ca9d8e7935", "is_disabled": 0, "rental_uris": {"android": "https://dc.lft.to/lastmile_qr_scan", "ios": "https://dc.lft.to/lastmile_qr_scan"}, "type": "electric_scooter", "lat": 38.8956105, "is_reserved": 0, "fusion_lat": 0.0}, {"bike_id": "f339a09c46d0b56b97ab3d7d5add0d42", "fusion_lon": 0.0, "lon": -76.97169116666667, "name": "f339a09c46d0b56b97ab3d7d5add0d42", "is_disabled": 0, "rental_uris": {"android": "https://dc.lft.to/lastmile_qr_scan", "ios": "https://dc.lft.to/lastmile_qr_scan"}, "type": "electric_bike", "lat": 38.873738, "is_reserved": 0, "fusion_lat": 0.0}, {"bike_id": "303cac2458e2c3bbc154220ad96dda6d", "fusion_lon": 0.0, "lon": -77.03867433333333, "name": "303cac2458e2c3bbc154220ad96dda6d", "is_disabled": 0, "rental_uris": {"android": "https://dc.lft.to/lastmile_qr_scan", "ios": "https://dc.lft.to/lastmile_qr_scan"}, "type": "electric_scooter", "lat": 38.9037575, "is_reserved": 0, "fusion_lat": 0.0}, {"bike_id": "f052a72e5dc1a77b1fb47725b74c2e9d", "fusion_lon": 0.0, "lon": -76.97742466666666, "name": "f052a72e5dc1a77b1fb47725b74c2e9d", "is_disabled": 0, "rental_uris": {"android": "https://dc.lft.to/lastmile_qr_scan", "ios": "https://dc.lft.to/lastmile_qr_scan"}, "type": "electric_scooter", "lat": 38.868322166666665, "is_reserved": 0, "fusion_lat": 0.0}, {"bike_id": "cfa16bcd1109ba3fb9de4984dd5e7752", "fusion_lon": 0.0, "lon": -77.05056633333334, "name": "cfa16bcd1109ba3fb9de4984dd5e7752", "is_disabled": 0, "rental_uris": {"android": "https://dc.lft.to/lastmile_qr_scan", "ios": "https://dc.lft.to/lastmile_qr_scan"}, "type": "electric_scooter", "lat": 38.900897666666665, "is_reserved": 0, "fusion_lat": 0.0}, {"bike_id": "151e0cc9972eb367ecf51ae4310814b4", "fusion_lon": 0.0, "lon": -77.02668583333333, "name": "151e0cc9972eb367ecf51ae4310814b4", "is_disabled": 0, "rental_uris": {"android": "https://dc.lft.to/lastmile_qr_scan", "ios": "https://dc.lft.to/lastmile_qr_scan"}, "type": "electric_scooter", "lat": 38.897139833333334, "is_reserved": 0, "fusion_lat": 0.0}, {"bike_id": "b451fc79245e053dff6f6379d1929a19", "fusion_lon": 0.0, "lon": -76.986897, "name": "b451fc79245e053dff6f6379d1929a19", "is_disabled": 0, "rental_uris": {"android": "https://dc.lft.to/lastmile_qr_scan", "ios": "https://dc.lft.to/lastmile_qr_scan"}, "type": "electric_scooter", "lat": 38.867253166666664, "is_reserved": 0, "fusion_lat": 0.0}, {"bike_id": "9126884240e60dc30b417d3cd89ab310", "fusion_lon": 0.0, "lon": -77.0057355, "name": "9126884240e60dc30b417d3cd89ab310", "is_disabled": 0, "rental_uris": {"android": "https://dc.lft.to/lastmile_qr_scan", "ios": "https://dc.lft.to/lastmile_qr_scan"}, "type": "electric_scooter", "lat": 38.9025735, "is_reserved": 0, "fusion_lat": 0.0}, {"bike_id": "6483d656ca6d39e1056133007865daf3", "fusion_lon": 0.0, "lon": -76.98981866666666, "name": "6483d656ca6d39e1056133007865daf3", "is_disabled": 0, "rental_uris": {"android": "https://dc.lft.to/lastmile_qr_scan", "ios": "https://dc.lft.to/lastmile_qr_scan"}, "type": "electric_scooter", "lat": 38.864952333333335, "is_reserved": 0, "fusion_lat": 0.0}, {"bike_id": "68ebb9ad4b2ca52ec716e230dbb8702f", "fusion_lon": 0.0, "lon": -77.03421583333333, "name": "68ebb9ad4b2ca52ec716e230dbb8702f", "is_disabled": 0, "rental_uris": {"android": "https://dc.lft.to/lastmile_qr_scan", "ios": "https://dc.lft.to/lastmile_qr_scan"}, "type": "electric_scooter", "lat": 38.902657, "is_reserved": 0, "fusion_lat": 0.0}, {"bike_id": "21ec2d3e7dcedd1e44bae606f18b4476", "fusion_lon": 0.0, "lon": -77.025785, "name": "21ec2d3e7dcedd1e44bae606f18b4476", "is_disabled": 0, "rental_uris": {"android": "https://dc.lft.to/lastmile_qr_scan", "ios": "https://dc.lft.to/lastmile_qr_scan"}, "type": "electric_scooter", "lat": 38.917079, "is_reserved": 0, "fusion_lat": 0.0}, {"bike_id": "dca08bcbf8eb8b191df7298682bdcf84", "fusion_lon": 0.0, "lon": -77.04399433333333, "name": "dca08bcbf8eb8b191df7298682bdcf84", "is_disabled": 0, "rental_uris": {"android": "https://dc.lft.to/lastmile_qr_scan", "ios": "https://dc.lft.to/lastmile_qr_scan"}, "type": "electric_scooter", "lat": 38.920655, "is_reserved": 0, "fusion_lat": 0.0}, {"bike_id": "8ffeb259a81365aacb9424daae09eda2", "fusion_lon": 0.0, "lon": -77.01777233333334, "name": "8ffeb259a81365aacb9424daae09eda2", "is_disabled": 0, "rental_uris": {"android": "https://dc.lft.to/lastmile_qr_scan", "ios": "https://dc.lft.to/lastmile_qr_scan"}, "type": "electric_scooter", "lat": 38.90782016666667, "is_reserved": 0, "fusion_lat": 0.0}, {"bike_id": "c7a9e46ecfbb6013abc6b90f8a01cdf8", "fusion_lon": 0.0, "lon": -77.03200066666666, "name": "c7a9e46ecfbb6013abc6b90f8a01cdf8", "is_disabled": 0, "rental_uris": {"android": "https://dc.lft.to/lastmile_qr_scan", "ios": "https://dc.lft.to/lastmile_qr_scan"}, "type": "electric_scooter", "lat": 38.922876, "is_reserved": 0, "fusion_lat": 0.0}, {"bike_id": "2edf5ceaa7fe61dcba30aa208521ffd6", "fusion_lon": 0.0, "lon": -77.05611733333333, "name": "2edf5ceaa7fe61dcba30aa208521ffd6", "is_disabled": 0, "rental_uris": {"android": "https://dc.lft.to/lastmile_qr_scan", "ios": "https://dc.lft.to/lastmile_qr_scan"}, "type": "electric_scooter", "lat": 38.93163633333333, "is_reserved": 0, "fusion_lat": 0.0}, {"bike_id": "9344b46ac1308e7fdedc3baf03510978", "fusion_lon": 0.0, "lon": -77.0219595, "name": "9344b46ac1308e7fdedc3baf03510978", "is_disabled": 0, "rental_uris": {"android": "https://dc.lft.to/lastmile_qr_scan", "ios": "https://dc.lft.to/lastmile_qr_scan"}, "type": "electric_scooter", "lat": 38.93296133333333, "is_reserved": 0, "fusion_lat": 0.0}, {"bike_id": "e46fde089f92313edb7e6ff25958eec9", "fusion_lon": 0.0, "lon": -77.01813416666667, "name": "e46fde089f92313edb7e6ff25958eec9", "is_disabled": 0, "rental_uris": {"android": "https://dc.lft.to/lastmile_qr_scan", "ios": "https://dc.lft.to/lastmile_qr_scan"}, "type": "electric_scooter", "lat": 38.911164166666666, "is_reserved": 0, "fusion_lat": 0.0}, {"bike_id": "59f1310909fe9d1dcec453ded5fa6e9a", "fusion_lon": 0.0, "lon": -77.03185166666667, "name": "59f1310909fe9d1dcec453ded5fa6e9a", "is_disabled": 0, "rental_uris": {"android": "https://dc.lft.to/lastmile_qr_scan", "ios": "https://dc.lft.to/lastmile_qr_scan"}, "type": "electric_scooter", "lat": 38.9134615, "is_reserved": 0, "fusion_lat": 0.0}, {"bike_id": "cb14b479910a25474f7e92810ec94306", "fusion_lon": 0.0, "lon": -77.0365715, "name": "cb14b479910a25474f7e92810ec94306", "is_disabled": 0, "rental_uris": {"android": "https://dc.lft.to/lastmile_qr_scan", "ios": "https://dc.lft.to/lastmile_qr_scan"}, "type": "electric_scooter", "lat": 38.9172425, "is_reserved": 0, "fusion_lat": 0.0}, {"bike_id": "c7880975be46e0958bc60cd881d9e301", "fusion_lon": 0.0, "lon": -77.06239216666667, "name": "c7880975be46e0958bc60cd881d9e301", "is_disabled": 0, "rental_uris": {"android": "https://dc.lft.to/lastmile_qr_scan", "ios": "https://dc.lft.to/lastmile_qr_scan"}, "type": "electric_scooter", "lat": 38.90523733333333, "is_reserved": 0, "fusion_lat": 0.0}, {"bike_id": "f565f14c5747ec1da2c450ccd974f121", "fusion_lon": 0.0, "lon": -76.98712666666667, "name": "f565f14c5747ec1da2c450ccd974f121", "is_disabled": 0, "rental_uris": {"android": "https://dc.lft.to/lastmile_qr_scan", "ios": "https://dc.lft.to/lastmile_qr_scan"}, "type": "electric_scooter", "lat": 38.86698666666667, "is_reserved": 0, "fusion_lat": 0.0}, {"bike_id": "0681a0295d89322b9b7c50e2b2f9ff60", "fusion_lon": 0.0, "lon": -77.02051066666667, "name": "0681a0295d89322b9b7c50e2b2f9ff60", "is_disabled": 0, "rental_uris": {"android": "https://dc.lft.to/lastmile_qr_scan", "ios": "https://dc.lft.to/lastmile_qr_scan"}, "type": "electric_scooter", "lat": 38.914178166666666, "is_reserved": 0, "fusion_lat": 0.0}, {"bike_id": "e269d3e795fed09890062bc6ca43a489", "fusion_lon": 0.0, "lon": -77.0405315, "name": "e269d3e795fed09890062bc6ca43a489", "is_disabled": 0, "rental_uris": {"android": "https://dc.lft.to/lastmile_qr_scan", "ios": "https://dc.lft.to/lastmile_qr_scan"}, "type": "electric_scooter", "lat": 38.8988595, "is_reserved": 0, "fusion_lat": 0.0}, {"bike_id": "9a81d687437118374f7b818282a408db", "fusion_lon": 0.0, "lon": -77.04169416666667, "name": "9a81d687437118374f7b818282a408db", "is_disabled": 0, "rental_uris": {"android": "https://dc.lft.to/lastmile_qr_scan", "ios": "https://dc.lft.to/lastmile_qr_scan"}, "type": "electric_scooter", "lat": 38.916455166666665, "is_reserved": 0, "fusion_lat": 0.0}, {"bike_id": "617eb87a76f66eaf1973cf10ca1aec05", "fusion_lon": 0.0, "lon": -77.0794045, "name": "617eb87a76f66eaf1973cf10ca1aec05", "is_disabled": 0, "rental_uris": {"android": "https://dc.lft.to/lastmile_qr_scan", "ios": "https://dc.lft.to/lastmile_qr_scan"}, "type": "electric_scooter", "lat": 38.94764716666667, "is_reserved": 0, "fusion_lat": 0.0}, {"bike_id": "431895f8477d6d194684a73a72cd685e", "fusion_lon": 0.0, "lon": -77.027121, "name": "431895f8477d6d194684a73a72cd685e", "is_disabled": 0, "rental_uris": {"android": "https://dc.lft.to/lastmile_qr_scan", "ios": "https://dc.lft.to/lastmile_qr_scan"}, "type": "electric_scooter", "lat": 38.9066895, "is_reserved": 0, "fusion_lat": 0.0}, {"bike_id": "cd4ed9ad02d4b44357256d6d3e8f2685", "fusion_lon": 0.0, "lon": -77.02279883333334, "name": "cd4ed9ad02d4b44357256d6d3e8f2685", "is_disabled": 0, "rental_uris": {"android": "https://dc.lft.to/lastmile_qr_scan", "ios": "https://dc.lft.to/lastmile_qr_scan"}, "type": "electric_scooter", "lat": 38.91562583333334, "is_reserved": 0, "fusion_lat": 0.0}, {"bike_id": "79e1106c34b602181a4e3859102f6832", "fusion_lon": 0.0, "lon": -76.98840866666667, "name": "79e1106c34b602181a4e3859102f6832", "is_disabled": 0, "rental_uris": {"android": "https://dc.lft.to/lastmile_qr_scan", "ios": "https://dc.lft.to/lastmile_qr_scan"}, "type": "electric_scooter", "lat": 38.892581666666665, "is_reserved": 0, "fusion_lat": 0.0}, {"bike_id": "3ba450dcfbbd621e821bf433aa6c44b0", "fusion_lon": 0.0, "lon": -77.01503816666667, "name": "3ba450dcfbbd621e821bf433aa6c44b0", "is_disabled": 0, "rental_uris": {"android": "https://dc.lft.to/lastmile_qr_scan", "ios": "https://dc.lft.to/lastmile_qr_scan"}, "type": "electric_scooter", "lat": 38.888084666666664, "is_reserved": 0, "fusion_lat": 0.0}, {"bike_id": "73a6b8fbdd9cc621e91f23db56924422", "fusion_lon": 0.0, "lon": -77.02984133333334, "name": "73a6b8fbdd9cc621e91f23db56924422", "is_disabled": 0, "rental_uris": {"android": "https://dc.lft.to/lastmile_qr_scan", "ios": "https://dc.lft.to/lastmile_qr_scan"}, "type": "electric_scooter", "lat": 38.934457, "is_reserved": 0, "fusion_lat": 0.0}, {"bike_id": "5dc91fac4a9a9e25b4f2c8c24cf2fa98", "fusion_lon": 0.0, "lon": -77.029623, "name": "5dc91fac4a9a9e25b4f2c8c24cf2fa98", "is_disabled": 0, "rental_uris": {"android": "https://dc.lft.to/lastmile_qr_scan", "ios": "https://dc.lft.to/lastmile_qr_scan"}, "type": "electric_scooter", "lat": 38.916834333333334, "is_reserved": 0, "fusion_lat": 0.0}, {"bike_id": "9533ad4705a0bb93b89ba9a62e5909e7", "fusion_lon": 0.0, "lon": -77.02811216666667, "name": "9533ad4705a0bb93b89ba9a62e5909e7", "is_disabled": 0, "rental_uris": {"android": "https://dc.lft.to/lastmile_qr_scan", "ios": "https://dc.lft.to/lastmile_qr_scan"}, "type": "electric_scooter", "lat": 38.91691933333333, "is_reserved": 0, "fusion_lat": 0.0}, {"bike_id": "6bcb0ddca692f63fb8d275b8124c431a", "fusion_lon": 0.0, "lon": -77.05077216666666, "name": "6bcb0ddca692f63fb8d275b8124c431a", "is_disabled": 0, "rental_uris": {"android": "https://dc.lft.to/lastmile_qr_scan", "ios": "https://dc.lft.to/lastmile_qr_scan"}, "type": "electric_scooter", "lat": 38.923485, "is_reserved": 0, "fusion_lat": 0.0}, {"bike_id": "36acebb0d23aebe2004fed005ee0bbbb", "fusion_lon": 0.0, "lon": -77.00679816666667, "name": "36acebb0d23aebe2004fed005ee0bbbb", "is_disabled": 0, "rental_uris": {"android": "https://dc.lft.to/lastmile_qr_scan", "ios": "https://dc.lft.to/lastmile_qr_scan"}, "type": "electric_scooter", "lat": 38.900224, "is_reserved": 0, "fusion_lat": 0.0}, {"bike_id": "600d4b807dfeddbbe6ed7f37b7aff2c8", "fusion_lon": 0.0, "lon": -77.02538733333333, "name": "600d4b807dfeddbbe6ed7f37b7aff2c8", "is_disabled": 0, "rental_uris": {"android": "https://dc.lft.to/lastmile_qr_scan", "ios": "https://dc.lft.to/lastmile_qr_scan"}, "type": "electric_scooter", "lat": 38.94115983333333, "is_reserved": 0, "fusion_lat": 0.0}, {"bike_id": "7c501833bb9d023c9d7a2f30f9f98c70", "fusion_lon": 0.0, "lon": -77.04551216666667, "name": "7c501833bb9d023c9d7a2f30f9f98c70", "is_disabled": 0, "rental_uris": {"android": "https://dc.lft.to/lastmile_qr_scan", "ios": "https://dc.lft.to/lastmile_qr_scan"}, "type": "electric_scooter", "lat": 38.914104333333334, "is_reserved": 0, "fusion_lat": 0.0}, {"bike_id": "9102c6259fac6fc7e12f6060e9eb5b37", "fusion_lon": 0.0, "lon": -77.03868233333333, "name": "9102c6259fac6fc7e12f6060e9eb5b37", "is_disabled": 0, "rental_uris": {"android": "https://dc.lft.to/lastmile_qr_scan", "ios": "https://dc.lft.to/lastmile_qr_scan"}, "type": "electric_scooter", "lat": 38.918204833333334, "is_reserved": 0, "fusion_lat": 0.0}, {"bike_id": "e9e56c3f451ebde20d81abf3459ef94b", "fusion_lon": 0.0, "lon": -77.035131, "name": "e9e56c3f451ebde20d81abf3459ef94b", "is_disabled": 0, "rental_uris": {"android": "https://dc.lft.to/lastmile_qr_scan", "ios": "https://dc.lft.to/lastmile_qr_scan"}, "type": "electric_bike", "lat": 38.9620755, "is_reserved": 0, "fusion_lat": 0.0}, {"bike_id": "c87841860f0dcb43e34f76094e30f17e", "fusion_lon": 0.0, "lon": -77.03746733333334, "name": "c87841860f0dcb43e34f76094e30f17e", "is_disabled": 0, "rental_uris": {"android": "https://dc.lft.to/lastmile_qr_scan", "ios": "https://dc.lft.to/lastmile_qr_scan"}, "type": "electric_scooter", "lat": 38.905741, "is_reserved": 0, "fusion_lat": 0.0}, {"bike_id": "059cc622b3049cd0cb32eb766e8e509b", "fusion_lon": 0.0, "lon": -77.058607, "name": "059cc622b3049cd0cb32eb766e8e509b", "is_disabled": 0, "rental_uris": {"android": "https://dc.lft.to/lastmile_qr_scan", "ios": "https://dc.lft.to/lastmile_qr_scan"}, "type": "electric_scooter", "lat": 38.93607166666666, "is_reserved": 0, "fusion_lat": 0.0}, {"bike_id": "cbd060ddf2bf880a94e0f3ed8d309e11", "fusion_lon": 0.0, "lon": -77.02515666666666, "name": "cbd060ddf2bf880a94e0f3ed8d309e11", "is_disabled": 0, "rental_uris": {"android": "https://dc.lft.to/lastmile_qr_scan", "ios": "https://dc.lft.to/lastmile_qr_scan"}, "type": "electric_scooter", "lat": 38.9040265, "is_reserved": 0, "fusion_lat": 0.0}, {"bike_id": "992f8b7990459fd22c25e0d0be0a18bc", "fusion_lon": 0.0, "lon": -77.0280915, "name": "992f8b7990459fd22c25e0d0be0a18bc", "is_disabled": 0, "rental_uris": {"android": "https://dc.lft.to/lastmile_qr_scan", "ios": "https://dc.lft.to/lastmile_qr_scan"}, "type": "electric_scooter", "lat": 38.93086266666667, "is_reserved": 0, "fusion_lat": 0.0}, {"bike_id": "541850bbea405353769a04f4ce1ee65a", "fusion_lon": 0.0, "lon": -77.0279175, "name": "541850bbea405353769a04f4ce1ee65a", "is_disabled": 0, "rental_uris": {"android": "https://dc.lft.to/lastmile_qr_scan", "ios": "https://dc.lft.to/lastmile_qr_scan"}, "type": "electric_scooter", "lat": 38.912281166666666, "is_reserved": 0, "fusion_lat": 0.0}, {"bike_id": "fc6c51c0a6a7d86f241beb955a60e6ae", "fusion_lon": 0.0, "lon": -77.02392, "name": "fc6c51c0a6a7d86f241beb955a60e6ae", "is_disabled": 0, "rental_uris": {"android": "https://dc.lft.to/lastmile_qr_scan", "ios": "https://dc.lft.to/lastmile_qr_scan"}, "type": "electric_scooter", "lat": 38.91744583333333, "is_reserved": 0, "fusion_lat": 0.0}, {"bike_id": "ab27fdf1831da80780e93e21d7b2db83", "fusion_lon": 0.0, "lon": -77.04920016666667, "name": "ab27fdf1831da80780e93e21d7b2db83", "is_disabled": 0, "rental_uris": {"android": "https://dc.lft.to/lastmile_qr_scan", "ios": "https://dc.lft.to/lastmile_qr_scan"}, "type": "electric_bike", "lat": 38.81348783333333, "is_reserved": 0, "fusion_lat": 0.0}, {"bike_id": "be06eb5e4b8f158481da839b35143dab", "fusion_lon": 0.0, "lon": -77.0259325, "name": "be06eb5e4b8f158481da839b35143dab", "is_disabled": 0, "rental_uris": {"android": "https://dc.lft.to/lastmile_qr_scan", "ios": "https://dc.lft.to/lastmile_qr_scan"}, "type": "electric_scooter", "lat": 38.90173083333333, "is_reserved": 0, "fusion_lat": 0.0}, {"bike_id": "4ff3e48ffd77dc465cb2b8e0f21bad4a", "fusion_lon": 0.0, "lon": -77.00741016666667, "name": "4ff3e48ffd77dc465cb2b8e0f21bad4a", "is_disabled": 0, "rental_uris": {"android": "https://dc.lft.to/lastmile_qr_scan", "ios": "https://dc.lft.to/lastmile_qr_scan"}, "type": "electric_scooter", "lat": 38.87744133333333, "is_reserved": 0, "fusion_lat": 0.0}, {"bike_id": "3e9c53f98b5f68afdd5c43d22bdcc507", "fusion_lon": 0.0, "lon": -77.02804466666667, "name": "3e9c53f98b5f68afdd5c43d22bdcc507", "is_disabled": 0, "rental_uris": {"android": "https://dc.lft.to/lastmile_qr_scan", "ios": "https://dc.lft.to/lastmile_qr_scan"}, "type": "electric_scooter", "lat": 38.916858833333336, "is_reserved": 0, "fusion_lat": 0.0}, {"bike_id": "68c1ef8a958a438d24ed1e1787e742ef", "fusion_lon": 0.0, "lon": -77.06751516666667, "name": "68c1ef8a958a438d24ed1e1787e742ef", "is_disabled": 0, "rental_uris": {"android": "https://dc.lft.to/lastmile_qr_scan", "ios": "https://dc.lft.to/lastmile_qr_scan"}, "type": "electric_scooter", "lat": 38.906840333333335, "is_reserved": 0, "fusion_lat": 0.0}, {"bike_id": "23e79a1ddafbaf2e5a9ea38cd9c8f939", "fusion_lon": 0.0, "lon": -77.0368825, "name": "23e79a1ddafbaf2e5a9ea38cd9c8f939", "is_disabled": 0, "rental_uris": {"android": "https://dc.lft.to/lastmile_qr_scan", "ios": "https://dc.lft.to/lastmile_qr_scan"}, "type": "electric_scooter", "lat": 38.91681116666667, "is_reserved": 0, "fusion_lat": 0.0}, {"bike_id": "95f62a14af0656d11ac8b3d23049d595", "fusion_lon": 0.0, "lon": -76.997944, "name": "95f62a14af0656d11ac8b3d23049d595", "is_disabled": 0, "rental_uris": {"android": "https://dc.lft.to/lastmile_qr_scan", "ios": "https://dc.lft.to/lastmile_qr_scan"}, "type": "electric_bike", "lat": 38.95642466666666, "is_reserved": 0, "fusion_lat": 0.0}, {"bike_id": "7acedd38506050b21aba4376083f9383", "fusion_lon": 0.0, "lon": -77.01758, "name": "7acedd38506050b21aba4376083f9383", "is_disabled": 0, "rental_uris": {"android": "https://dc.lft.to/lastmile_qr_scan", "ios": "https://dc.lft.to/lastmile_qr_scan"}, "type": "electric_scooter", "lat": 38.87781416666667, "is_reserved": 0, "fusion_lat": 0.0}, {"bike_id": "027bf82f41ad4c7ba76019a613f62e5b", "fusion_lon": 0.0, "lon": -77.022115, "name": "027bf82f41ad4c7ba76019a613f62e5b", "is_disabled": 0, "rental_uris": {"android": "https://dc.lft.to/lastmile_qr_scan", "ios": "https://dc.lft.to/lastmile_qr_scan"}, "type": "electric_scooter", "lat": 38.915618333333335, "is_reserved": 0, "fusion_lat": 0.0}, {"bike_id": "a06e3321a119a95ab6b8f04d56e63e2a", "fusion_lon": 0.0, "lon": -77.04451483333334, "name": "a06e3321a119a95ab6b8f04d56e63e2a", "is_disabled": 0, "rental_uris": {"android": "https://dc.lft.to/lastmile_qr_scan", "ios": "https://dc.lft.to/lastmile_qr_scan"}, "type": "electric_scooter", "lat": 38.911892333333334, "is_reserved": 0, "fusion_lat": 0.0}, {"bike_id": "bd1739df06acb0d9dabef9aca2779079", "fusion_lon": 0.0, "lon": -77.04331666666667, "name": "bd1739df06acb0d9dabef9aca2779079", "is_disabled": 0, "rental_uris": {"android": "https://dc.lft.to/lastmile_qr_scan", "ios": "https://dc.lft.to/lastmile_qr_scan"}, "type": "electric_scooter", "lat": 38.89527866666667, "is_reserved": 0, "fusion_lat": 0.0}, {"bike_id": "cbb472e83e19625a0027f23c59721de5", "fusion_lon": 0.0, "lon": -77.03758366666666, "name": "cbb472e83e19625a0027f23c59721de5", "is_disabled": 0, "rental_uris": {"android": "https://dc.lft.to/lastmile_qr_scan", "ios": "https://dc.lft.to/lastmile_qr_scan"}, "type": "electric_scooter", "lat": 38.93597333333334, "is_reserved": 0, "fusion_lat": 0.0}, {"bike_id": "b8b9670a1889a32cbd515b6189f04914", "fusion_lon": 0.0, "lon": -76.99532866666667, "name": "b8b9670a1889a32cbd515b6189f04914", "is_disabled": 0, "rental_uris": {"android": "https://dc.lft.to/lastmile_qr_scan", "ios": "https://dc.lft.to/lastmile_qr_scan"}, "type": "electric_scooter", "lat": 38.920592666666664, "is_reserved": 0, "fusion_lat": 0.0}, {"bike_id": "d0de2b1c6408d4b1c402152e43e4329d", "fusion_lon": 0.0, "lon": -76.99946733333333, "name": "d0de2b1c6408d4b1c402152e43e4329d", "is_disabled": 0, "rental_uris": {"android": "https://dc.lft.to/lastmile_qr_scan", "ios": "https://dc.lft.to/lastmile_qr_scan"}, "type": "electric_scooter", "lat": 38.842951, "is_reserved": 0, "fusion_lat": 0.0}, {"bike_id": "c9c87aeb5e724d5aeadaf74f81df41ba", "fusion_lon": 0.0, "lon": -77.03185366666666, "name": "c9c87aeb5e724d5aeadaf74f81df41ba", "is_disabled": 0, "rental_uris": {"android": "https://dc.lft.to/lastmile_qr_scan", "ios": "https://dc.lft.to/lastmile_qr_scan"}, "type": "electric_scooter", "lat": 38.917480166666664, "is_reserved": 0, "fusion_lat": 0.0}, {"bike_id": "da56e7ca59a210e98bd5c3e0a6c2d280", "fusion_lon": 0.0, "lon": -77.07305183333334, "name": "da56e7ca59a210e98bd5c3e0a6c2d280", "is_disabled": 0, "rental_uris": {"android": "https://dc.lft.to/lastmile_qr_scan", "ios": "https://dc.lft.to/lastmile_qr_scan"}, "type": "electric_scooter", "lat": 38.928834333333334, "is_reserved": 0, "fusion_lat": 0.0}, {"bike_id": "592a9c1bfa936d1aaf01104cf0fed3c2", "fusion_lon": 0.0, "lon": -77.01743766666667, "name": "592a9c1bfa936d1aaf01104cf0fed3c2", "is_disabled": 0, "rental_uris": {"android": "https://dc.lft.to/lastmile_qr_scan", "ios": "https://dc.lft.to/lastmile_qr_scan"}, "type": "electric_scooter", "lat": 38.91114116666667, "is_reserved": 0, "fusion_lat": 0.0}, {"bike_id": "4b83a1e67a158d8ed4c6ce50956f9f40", "fusion_lon": 0.0, "lon": -77.041556, "name": "4b83a1e67a158d8ed4c6ce50956f9f40", "is_disabled": 0, "rental_uris": {"android": "https://dc.lft.to/lastmile_qr_scan", "ios": "https://dc.lft.to/lastmile_qr_scan"}, "type": "electric_scooter", "lat": 38.934177166666665, "is_reserved": 0, "fusion_lat": 0.0}, {"bike_id": "3e48bd4433102437dc4f21b9f8c10f43", "fusion_lon": 0.0, "lon": -77.0323595, "name": "3e48bd4433102437dc4f21b9f8c10f43", "is_disabled": 0, "rental_uris": {"android": "https://dc.lft.to/lastmile_qr_scan", "ios": "https://dc.lft.to/lastmile_qr_scan"}, "type": "electric_scooter", "lat": 38.92983266666667, "is_reserved": 0, "fusion_lat": 0.0}, {"bike_id": "71506b3512126951c6c962db582262f8", "fusion_lon": 0.0, "lon": -77.120658, "name": "71506b3512126951c6c962db582262f8", "is_disabled": 0, "rental_uris": {"android": "https://dc.lft.to/lastmile_qr_scan", "ios": "https://dc.lft.to/lastmile_qr_scan"}, "type": "electric_bike", "lat": 38.85410383333333, "is_reserved": 0, "fusion_lat": 0.0}, {"bike_id": "aaa4474c2b42acb3e84dc50be4484dde", "fusion_lon": 0.0, "lon": -77.033388, "name": "aaa4474c2b42acb3e84dc50be4484dde", "is_disabled": 0, "rental_uris": {"android": "https://dc.lft.to/lastmile_qr_scan", "ios": "https://dc.lft.to/lastmile_qr_scan"}, "type": "electric_scooter", "lat": 38.9118435, "is_reserved": 0, "fusion_lat": 0.0}, {"bike_id": "c82a18149c481331c2fdbc71c3325265", "fusion_lon": 0.0, "lon": -77.05392766666667, "name": "c82a18149c481331c2fdbc71c3325265", "is_disabled": 0, "rental_uris": {"android": "https://dc.lft.to/lastmile_qr_scan", "ios": "https://dc.lft.to/lastmile_qr_scan"}, "type": "electric_scooter", "lat": 38.928124833333335, "is_reserved": 0, "fusion_lat": 0.0}, {"bike_id": "ca3c9894139da66a067a78e28223098d", "fusion_lon": 0.0, "lon": -77.03289216666667, "name": "ca3c9894139da66a067a78e28223098d", "is_disabled": 0, "rental_uris": {"android": "https://dc.lft.to/lastmile_qr_scan", "ios": "https://dc.lft.to/lastmile_qr_scan"}, "type": "electric_scooter", "lat": 38.919915333333336, "is_reserved": 0, "fusion_lat": 0.0}, {"bike_id": "9a720ab8a1004af7c43759c96425ab68", "fusion_lon": 0.0, "lon": -77.04096916666667, "name": "9a720ab8a1004af7c43759c96425ab68", "is_disabled": 0, "rental_uris": {"android": "https://dc.lft.to/lastmile_qr_scan", "ios": "https://dc.lft.to/lastmile_qr_scan"}, "type": "electric_scooter", "lat": 38.90580383333333, "is_reserved": 0, "fusion_lat": 0.0}, {"bike_id": "a0fd5b1e29beccce3e365d306d40502b", "fusion_lon": 0.0, "lon": -77.11244983333333, "name": "a0fd5b1e29beccce3e365d306d40502b", "is_disabled": 0, "rental_uris": {"android": "https://dc.lft.to/lastmile_qr_scan", "ios": "https://dc.lft.to/lastmile_qr_scan"}, "type": "electric_bike", "lat": 38.85606933333333, "is_reserved": 0, "fusion_lat": 0.0}, {"bike_id": "e4ad85aa24353fc7655f6dbd65231f2d", "fusion_lon": 0.0, "lon": -77.03068983333333, "name": "e4ad85aa24353fc7655f6dbd65231f2d", "is_disabled": 0, "rental_uris": {"android": "https://dc.lft.to/lastmile_qr_scan", "ios": "https://dc.lft.to/lastmile_qr_scan"}, "type": "electric_scooter", "lat": 38.9224505, "is_reserved": 0, "fusion_lat": 0.0}, {"bike_id": "36982a8e4ab277de8e5526bab1db9023", "fusion_lon": 0.0, "lon": -77.003484, "name": "36982a8e4ab277de8e5526bab1db9023", "is_disabled": 0, "rental_uris": {"android": "https://dc.lft.to/lastmile_qr_scan", "ios": "https://dc.lft.to/lastmile_qr_scan"}, "type": "electric_scooter", "lat": 38.901294166666666, "is_reserved": 0, "fusion_lat": 0.0}, {"bike_id": "26be8fb2954563cbcf17b53e3dd665a6", "fusion_lon": 0.0, "lon": -76.96547716666667, "name": "26be8fb2954563cbcf17b53e3dd665a6", "is_disabled": 0, "rental_uris": {"android": "https://dc.lft.to/lastmile_qr_scan", "ios": "https://dc.lft.to/lastmile_qr_scan"}, "type": "electric_scooter", "lat": 38.91875566666667, "is_reserved": 0, "fusion_lat": 0.0}, {"bike_id": "1ef52f42fd5f05262f38e9f7283d9207", "fusion_lon": 0.0, "lon": -76.98254383333334, "name": "1ef52f42fd5f05262f38e9f7283d9207", "is_disabled": 0, "rental_uris": {"android": "https://dc.lft.to/lastmile_qr_scan", "ios": "https://dc.lft.to/lastmile_qr_scan"}, "type": "electric_bike", "lat": 38.95332916666667, "is_reserved": 0, "fusion_lat": 0.0}, {"bike_id": "657d189c63e6d0d0f9927a53bc6a87b2", "fusion_lon": 0.0, "lon": -77.0411125, "name": "657d189c63e6d0d0f9927a53bc6a87b2", "is_disabled": 0, "rental_uris": {"android": "https://dc.lft.to/lastmile_qr_scan", "ios": "https://dc.lft.to/lastmile_qr_scan"}, "type": "electric_scooter", "lat": 38.9245145, "is_reserved": 0, "fusion_lat": 0.0}, {"bike_id": "2944c23ddd53b81620c581246b337c8b", "fusion_lon": 0.0, "lon": -76.9903295, "name": "2944c23ddd53b81620c581246b337c8b", "is_disabled": 0, "rental_uris": {"android": "https://dc.lft.to/lastmile_qr_scan", "ios": "https://dc.lft.to/lastmile_qr_scan"}, "type": "electric_scooter", "lat": 38.863675666666666, "is_reserved": 0, "fusion_lat": 0.0}, {"bike_id": "7119f523478f3d6ccc74e35849a80068", "fusion_lon": 0.0, "lon": -77.022119, "name": "7119f523478f3d6ccc74e35849a80068", "is_disabled": 0, "rental_uris": {"android": "https://dc.lft.to/lastmile_qr_scan", "ios": "https://dc.lft.to/lastmile_qr_scan"}, "type": "electric_scooter", "lat": 38.912725, "is_reserved": 0, "fusion_lat": 0.0}, {"bike_id": "171bde669829901f5243759360684c46", "fusion_lon": 0.0, "lon": -77.04484433333333, "name": "171bde669829901f5243759360684c46", "is_disabled": 0, "rental_uris": {"android": "https://dc.lft.to/lastmile_qr_scan", "ios": "https://dc.lft.to/lastmile_qr_scan"}, "type": "electric_scooter", "lat": 38.901205166666664, "is_reserved": 0, "fusion_lat": 0.0}, {"bike_id": "8a28275d73cd5165e0b730a469a69a8c", "fusion_lon": 0.0, "lon": -77.0591895, "name": "8a28275d73cd5165e0b730a469a69a8c", "is_disabled": 0, "rental_uris": {"android": "https://dc.lft.to/lastmile_qr_scan", "ios": "https://dc.lft.to/lastmile_qr_scan"}, "type": "electric_scooter", "lat": 38.9053235, "is_reserved": 0, "fusion_lat": 0.0}, {"bike_id": "c86fe60417d7eb1672059f92855ae675", "fusion_lon": 0.0, "lon": -77.02167083333333, "name": "c86fe60417d7eb1672059f92855ae675", "is_disabled": 0, "rental_uris": {"android": "https://dc.lft.to/lastmile_qr_scan", "ios": "https://dc.lft.to/lastmile_qr_scan"}, "type": "electric_scooter", "lat": 38.89927766666667, "is_reserved": 0, "fusion_lat": 0.0}, {"bike_id": "0479a455c8f3b76ab3b0afe526ed4d00", "fusion_lon": 0.0, "lon": -77.04340783333333, "name": "0479a455c8f3b76ab3b0afe526ed4d00", "is_disabled": 0, "rental_uris": {"android": "https://dc.lft.to/lastmile_qr_scan", "ios": "https://dc.lft.to/lastmile_qr_scan"}, "type": "electric_scooter", "lat": 38.90222133333333, "is_reserved": 0, "fusion_lat": 0.0}, {"bike_id": "62f5e062c84f1e3a229dacbd9556df2f", "fusion_lon": 0.0, "lon": -77.07917716666667, "name": "62f5e062c84f1e3a229dacbd9556df2f", "is_disabled": 0, "rental_uris": {"android": "https://dc.lft.to/lastmile_qr_scan", "ios": "https://dc.lft.to/lastmile_qr_scan"}, "type": "electric_bike", "lat": 38.8022785, "is_reserved": 0, "fusion_lat": 0.0}, {"bike_id": "fce37fc01511158424ca258c7c7b0b28", "fusion_lon": 0.0, "lon": -76.98842233333333, "name": "fce37fc01511158424ca258c7c7b0b28", "is_disabled": 0, "rental_uris": {"android": "https://dc.lft.to/lastmile_qr_scan", "ios": "https://dc.lft.to/lastmile_qr_scan"}, "type": "electric_bike", "lat": 38.8427515, "is_reserved": 0, "fusion_lat": 0.0}, {"bike_id": "072922e093012855ee2035c133b600fd", "fusion_lon": 0.0, "lon": -77.03598316666667, "name": "072922e093012855ee2035c133b600fd", "is_disabled": 0, "rental_uris": {"android": "https://dc.lft.to/lastmile_qr_scan", "ios": "https://dc.lft.to/lastmile_qr_scan"}, "type": "electric_scooter", "lat": 38.917037, "is_reserved": 0, "fusion_lat": 0.0}, {"bike_id": "a3e9dbbaf4bc704c30d40d6ca324a105", "fusion_lon": 0.0, "lon": -77.04201866666666, "name": "a3e9dbbaf4bc704c30d40d6ca324a105", "is_disabled": 0, "rental_uris": {"android": "https://dc.lft.to/lastmile_qr_scan", "ios": "https://dc.lft.to/lastmile_qr_scan"}, "type": "electric_scooter", "lat": 38.92043866666667, "is_reserved": 0, "fusion_lat": 0.0}, {"bike_id": "68ae7c11a65b36a82e439b9f805571d5", "fusion_lon": 0.0, "lon": -77.0279405, "name": "68ae7c11a65b36a82e439b9f805571d5", "is_disabled": 0, "rental_uris": {"android": "https://dc.lft.to/lastmile_qr_scan", "ios": "https://dc.lft.to/lastmile_qr_scan"}, "type": "electric_scooter", "lat": 38.930818333333335, "is_reserved": 0, "fusion_lat": 0.0}, {"bike_id": "2b705946f13bcb1960983b97494bc760", "fusion_lon": 0.0, "lon": -77.06640833333333, "name": "2b705946f13bcb1960983b97494bc760", "is_disabled": 0, "rental_uris": {"android": "https://dc.lft.to/lastmile_qr_scan", "ios": "https://dc.lft.to/lastmile_qr_scan"}, "type": "electric_bike", "lat": 38.94952383333333, "is_reserved": 0, "fusion_lat": 0.0}, {"bike_id": "7e188ebd48579ebeaac0b50db38f04b1", "fusion_lon": 0.0, "lon": -76.9753255, "name": "7e188ebd48579ebeaac0b50db38f04b1", "is_disabled": 0, "rental_uris": {"android": "https://dc.lft.to/lastmile_qr_scan", "ios": "https://dc.lft.to/lastmile_qr_scan"}, "type": "electric_bike", "lat": 38.84012633333333, "is_reserved": 0, "fusion_lat": 0.0}, {"bike_id": "8fdcc30994e6218f2caf24b4311520bf", "fusion_lon": 0.0, "lon": -76.99496866666667, "name": "8fdcc30994e6218f2caf24b4311520bf", "is_disabled": 0, "rental_uris": {"android": "https://dc.lft.to/lastmile_qr_scan", "ios": "https://dc.lft.to/lastmile_qr_scan"}, "type": "electric_scooter", "lat": 38.862451166666666, "is_reserved": 0, "fusion_lat": 0.0}, {"bike_id": "33863049410f0d61fbe6b54e0ec31567", "fusion_lon": 0.0, "lon": -77.02342183333333, "name": "33863049410f0d61fbe6b54e0ec31567", "is_disabled": 0, "rental_uris": {"android": "https://dc.lft.to/lastmile_qr_scan", "ios": "https://dc.lft.to/lastmile_qr_scan"}, "type": "electric_scooter", "lat": 38.9446785, "is_reserved": 0, "fusion_lat": 0.0}, {"bike_id": "7caeb942e0ab43cf71b4978d327d31a4", "fusion_lon": 0.0, "lon": -76.99511733333334, "name": "7caeb942e0ab43cf71b4978d327d31a4", "is_disabled": 0, "rental_uris": {"android": "https://dc.lft.to/lastmile_qr_scan", "ios": "https://dc.lft.to/lastmile_qr_scan"}, "type": "electric_scooter", "lat": 38.883723333333336, "is_reserved": 0, "fusion_lat": 0.0}, {"bike_id": "328296b2635744019866541f3564f044", "fusion_lon": 0.0, "lon": -77.12482666666666, "name": "328296b2635744019866541f3564f044", "is_disabled": 0, "rental_uris": {"android": "https://dc.lft.to/lastmile_qr_scan", "ios": "https://dc.lft.to/lastmile_qr_scan"}, "type": "electric_bike", "lat": 38.853978166666664, "is_reserved": 0, "fusion_lat": 0.0}, {"bike_id": "70c99f5dc739b6c3fb8c8ed26222788f", "fusion_lon": 0.0, "lon": -77.03187983333333, "name": "70c99f5dc739b6c3fb8c8ed26222788f", "is_disabled": 0, "rental_uris": {"android": "https://dc.lft.to/lastmile_qr_scan", "ios": "https://dc.lft.to/lastmile_qr_scan"}, "type": "electric_scooter", "lat": 38.89612966666667, "is_reserved": 0, "fusion_lat": 0.0}, {"bike_id": "6bc92114db8516f224af17d7f57d3381", "fusion_lon": 0.0, "lon": -77.02703883333334, "name": "6bc92114db8516f224af17d7f57d3381", "is_disabled": 0, "rental_uris": {"android": "https://dc.lft.to/lastmile_qr_scan", "ios": "https://dc.lft.to/lastmile_qr_scan"}, "type": "electric_scooter", "lat": 38.90672966666666, "is_reserved": 0, "fusion_lat": 0.0}, {"bike_id": "11801fb21a9f5f00f7c4a4ea69438f59", "fusion_lon": 0.0, "lon": -76.98617816666666, "name": "11801fb21a9f5f00f7c4a4ea69438f59", "is_disabled": 0, "rental_uris": {"android": "https://dc.lft.to/lastmile_qr_scan", "ios": "https://dc.lft.to/lastmile_qr_scan"}, "type": "electric_scooter", "lat": 38.93827183333333, "is_reserved": 0, "fusion_lat": 0.0}, {"bike_id": "b3f35a217d577c025289a2c1b6a7978a", "fusion_lon": 0.0, "lon": -77.0480185, "name": "b3f35a217d577c025289a2c1b6a7978a", "is_disabled": 0, "rental_uris": {"android": "https://dc.lft.to/lastmile_qr_scan", "ios": "https://dc.lft.to/lastmile_qr_scan"}, "type": "electric_scooter", "lat": 38.892247166666664, "is_reserved": 0, "fusion_lat": 0.0}, {"bike_id": "ccbba5294437e69175a606988e6da796", "fusion_lon": 0.0, "lon": -77.01845083333333, "name": "ccbba5294437e69175a606988e6da796", "is_disabled": 0, "rental_uris": {"android": "https://dc.lft.to/lastmile_qr_scan", "ios": "https://dc.lft.to/lastmile_qr_scan"}, "type": "electric_scooter", "lat": 38.9153125, "is_reserved": 0, "fusion_lat": 0.0}, {"bike_id": "3bec19fe289c724de756f9ab0c7d4fe4", "fusion_lon": 0.0, "lon": -77.027179, "name": "3bec19fe289c724de756f9ab0c7d4fe4", "is_disabled": 0, "rental_uris": {"android": "https://dc.lft.to/lastmile_qr_scan", "ios": "https://dc.lft.to/lastmile_qr_scan"}, "type": "electric_scooter", "lat": 38.949614833333335, "is_reserved": 0, "fusion_lat": 0.0}, {"bike_id": "83c8a495b474331245a1afef65ae224c", "fusion_lon": 0.0, "lon": -77.02509666666667, "name": "83c8a495b474331245a1afef65ae224c", "is_disabled": 0, "rental_uris": {"android": "https://dc.lft.to/lastmile_qr_scan", "ios": "https://dc.lft.to/lastmile_qr_scan"}, "type": "electric_scooter", "lat": 38.9156665, "is_reserved": 0, "fusion_lat": 0.0}, {"bike_id": "1a13d47f361843ac6377a28d7137d582", "fusion_lon": 0.0, "lon": -76.997756, "name": "1a13d47f361843ac6377a28d7137d582", "is_disabled": 0, "rental_uris": {"android": "https://dc.lft.to/lastmile_qr_scan", "ios": "https://dc.lft.to/lastmile_qr_scan"}, "type": "electric_scooter", "lat": 38.909057833333335, "is_reserved": 0, "fusion_lat": 0.0}, {"bike_id": "58c9b8ce7d2c23fb4aea2cea9dbd4216", "fusion_lon": 0.0, "lon": -77.026748, "name": "58c9b8ce7d2c23fb4aea2cea9dbd4216", "is_disabled": 0, "rental_uris": {"android": "https://dc.lft.to/lastmile_qr_scan", "ios": "https://dc.lft.to/lastmile_qr_scan"}, "type": "electric_scooter", "lat": 38.916999, "is_reserved": 0, "fusion_lat": 0.0}, {"bike_id": "e524c664d888ed42964ef809cd999269", "fusion_lon": 0.0, "lon": -77.02615233333333, "name": "e524c664d888ed42964ef809cd999269", "is_disabled": 0, "rental_uris": {"android": "https://dc.lft.to/lastmile_qr_scan", "ios": "https://dc.lft.to/lastmile_qr_scan"}, "type": "electric_scooter", "lat": 38.905102666666664, "is_reserved": 0, "fusion_lat": 0.0}, {"bike_id": "31663add677f433c858f4e692fc4c984", "fusion_lon": 0.0, "lon": -76.99612583333334, "name": "31663add677f433c858f4e692fc4c984", "is_disabled": 0, "rental_uris": {"android": "https://dc.lft.to/lastmile_qr_scan", "ios": "https://dc.lft.to/lastmile_qr_scan"}, "type": "electric_scooter", "lat": 38.903632333333334, "is_reserved": 0, "fusion_lat": 0.0}, {"bike_id": "76dbadcd872a64c7078c82fa7fcda345", "fusion_lon": 0.0, "lon": -77.02707833333334, "name": "76dbadcd872a64c7078c82fa7fcda345", "is_disabled": 0, "rental_uris": {"android": "https://dc.lft.to/lastmile_qr_scan", "ios": "https://dc.lft.to/lastmile_qr_scan"}, "type": "electric_scooter", "lat": 38.90673316666667, "is_reserved": 0, "fusion_lat": 0.0}, {"bike_id": "df26d4ee8dee30138873388c7cd453cc", "fusion_lon": 0.0, "lon": -77.02970466666666, "name": "df26d4ee8dee30138873388c7cd453cc", "is_disabled": 0, "rental_uris": {"android": "https://dc.lft.to/lastmile_qr_scan", "ios": "https://dc.lft.to/lastmile_qr_scan"}, "type": "electric_scooter", "lat": 38.91677083333333, "is_reserved": 0, "fusion_lat": 0.0}, {"bike_id": "1139e164337aefadc1707b8426dc6dc4", "fusion_lon": 0.0, "lon": -77.04006266666667, "name": "1139e164337aefadc1707b8426dc6dc4", "is_disabled": 0, "rental_uris": {"android": "https://dc.lft.to/lastmile_qr_scan", "ios": "https://dc.lft.to/lastmile_qr_scan"}, "type": "electric_scooter", "lat": 38.914133666666665, "is_reserved": 0, "fusion_lat": 0.0}, {"bike_id": "4c0f43142c92716c64e6fb581acfeef2", "fusion_lon": 0.0, "lon": -76.99011833333333, "name": "4c0f43142c92716c64e6fb581acfeef2", "is_disabled": 0, "rental_uris": {"android": "https://dc.lft.to/lastmile_qr_scan", "ios": "https://dc.lft.to/lastmile_qr_scan"}, "type": "electric_scooter", "lat": 38.8588235, "is_reserved": 0, "fusion_lat": 0.0}, {"bike_id": "5a4c0afa7ae7682baa71709dc67f10c1", "fusion_lon": 0.0, "lon": -77.0029585, "name": "5a4c0afa7ae7682baa71709dc67f10c1", "is_disabled": 0, "rental_uris": {"android": "https://dc.lft.to/lastmile_qr_scan", "ios": "https://dc.lft.to/lastmile_qr_scan"}, "type": "electric_scooter", "lat": 38.90134583333333, "is_reserved": 0, "fusion_lat": 0.0}, {"bike_id": "6c3087878f822c6750a61ea2584223e1", "fusion_lon": 0.0, "lon": -76.995137, "name": "6c3087878f822c6750a61ea2584223e1", "is_disabled": 0, "rental_uris": {"android": "https://dc.lft.to/lastmile_qr_scan", "ios": "https://dc.lft.to/lastmile_qr_scan"}, "type": "electric_scooter", "lat": 38.8625745, "is_reserved": 0, "fusion_lat": 0.0}, {"bike_id": "62f3b1fdf66607eec3d7b696aca2acfc", "fusion_lon": 0.0, "lon": -77.04346833333334, "name": "62f3b1fdf66607eec3d7b696aca2acfc", "is_disabled": 0, "rental_uris": {"android": "https://dc.lft.to/lastmile_qr_scan", "ios": "https://dc.lft.to/lastmile_qr_scan"}, "type": "electric_scooter", "lat": 38.91257266666667, "is_reserved": 0, "fusion_lat": 0.0}, {"bike_id": "68f69176a7e0ec24c47858f883ccef84", "fusion_lon": 0.0, "lon": -77.02695833333334, "name": "68f69176a7e0ec24c47858f883ccef84", "is_disabled": 0, "rental_uris": {"android": "https://dc.lft.to/lastmile_qr_scan", "ios": "https://dc.lft.to/lastmile_qr_scan"}, "type": "electric_scooter", "lat": 38.92403783333334, "is_reserved": 0, "fusion_lat": 0.0}, {"bike_id": "3fa07226ea204066be671881146a6032", "fusion_lon": 0.0, "lon": -77.02374483333334, "name": "3fa07226ea204066be671881146a6032", "is_disabled": 0, "rental_uris": {"android": "https://dc.lft.to/lastmile_qr_scan", "ios": "https://dc.lft.to/lastmile_qr_scan"}, "type": "electric_scooter", "lat": 38.91690166666667, "is_reserved": 0, "fusion_lat": 0.0}, {"bike_id": "fc5483d0c4530909c28bacbd10c2537f", "fusion_lon": 0.0, "lon": -77.01161583333334, "name": "fc5483d0c4530909c28bacbd10c2537f", "is_disabled": 0, "rental_uris": {"android": "https://dc.lft.to/lastmile_qr_scan", "ios": "https://dc.lft.to/lastmile_qr_scan"}, "type": "electric_scooter", "lat": 38.9033315, "is_reserved": 0, "fusion_lat": 0.0}, {"bike_id": "45655e88bba32eda90e1de872bd3df76", "fusion_lon": 0.0, "lon": -77.03175516666667, "name": "45655e88bba32eda90e1de872bd3df76", "is_disabled": 0, "rental_uris": {"android": "https://dc.lft.to/lastmile_qr_scan", "ios": "https://dc.lft.to/lastmile_qr_scan"}, "type": "electric_scooter", "lat": 38.9126075, "is_reserved": 0, "fusion_lat": 0.0}, {"bike_id": "e19081c67527099f85f343c1ac61b490", "fusion_lon": 0.0, "lon": -76.98658, "name": "e19081c67527099f85f343c1ac61b490", "is_disabled": 0, "rental_uris": {"android": "https://dc.lft.to/lastmile_qr_scan", "ios": "https://dc.lft.to/lastmile_qr_scan"}, "type": "electric_scooter", "lat": 38.86733533333334, "is_reserved": 0, "fusion_lat": 0.0}, {"bike_id": "6c5a7b02f59b08624def07d8b31a974a", "fusion_lon": 0.0, "lon": -77.00797183333333, "name": "6c5a7b02f59b08624def07d8b31a974a", "is_disabled": 0, "rental_uris": {"android": "https://dc.lft.to/lastmile_qr_scan", "ios": "https://dc.lft.to/lastmile_qr_scan"}, "type": "electric_scooter", "lat": 38.89716716666667, "is_reserved": 0, "fusion_lat": 0.0}, {"bike_id": "c6eff193b22c0d81281542b74e0fc42c", "fusion_lon": 0.0, "lon": -76.957422, "name": "c6eff193b22c0d81281542b74e0fc42c", "is_disabled": 0, "rental_uris": {"android": "https://dc.lft.to/lastmile_qr_scan", "ios": "https://dc.lft.to/lastmile_qr_scan"}, "type": "electric_scooter", "lat": 38.896317833333335, "is_reserved": 0, "fusion_lat": 0.0}, {"bike_id": "f2607ddfb218cc8f0a3c00f8b78a2998", "fusion_lon": 0.0, "lon": -77.0513095, "name": "f2607ddfb218cc8f0a3c00f8b78a2998", "is_disabled": 0, "rental_uris": {"android": "https://dc.lft.to/lastmile_qr_scan", "ios": "https://dc.lft.to/lastmile_qr_scan"}, "type": "electric_scooter", "lat": 38.923594, "is_reserved": 0, "fusion_lat": 0.0}, {"bike_id": "78c8fdc2cf41c5d07fab7eb88e5361ed", "fusion_lon": 0.0, "lon": -77.04028716666667, "name": "78c8fdc2cf41c5d07fab7eb88e5361ed", "is_disabled": 0, "rental_uris": {"android": "https://dc.lft.to/lastmile_qr_scan", "ios": "https://dc.lft.to/lastmile_qr_scan"}, "type": "electric_scooter", "lat": 38.924453166666666, "is_reserved": 0, "fusion_lat": 0.0}, {"bike_id": "09319bec7ae5a18e147c5c601776f89e", "fusion_lon": 0.0, "lon": -77.02606083333333, "name": "09319bec7ae5a18e147c5c601776f89e", "is_disabled": 0, "rental_uris": {"android": "https://dc.lft.to/lastmile_qr_scan", "ios": "https://dc.lft.to/lastmile_qr_scan"}, "type": "electric_scooter", "lat": 38.897311333333334, "is_reserved": 0, "fusion_lat": 0.0}, {"bike_id": "431876da02c411d7c43c63b4e37deb21", "fusion_lon": 0.0, "lon": -76.95753333333333, "name": "431876da02c411d7c43c63b4e37deb21", "is_disabled": 0, "rental_uris": {"android": "https://dc.lft.to/lastmile_qr_scan", "ios": "https://dc.lft.to/lastmile_qr_scan"}, "type": "electric_scooter", "lat": 38.88433666666667, "is_reserved": 0, "fusion_lat": 0.0}, {"bike_id": "023a6128f9ab9e61bd151aed18414316", "fusion_lon": 0.0, "lon": -76.9977575, "name": "023a6128f9ab9e61bd151aed18414316", "is_disabled": 0, "rental_uris": {"android": "https://dc.lft.to/lastmile_qr_scan", "ios": "https://dc.lft.to/lastmile_qr_scan"}, "type": "electric_scooter", "lat": 38.844280833333336, "is_reserved": 0, "fusion_lat": 0.0}, {"bike_id": "299afa182ef36840c56535b391b2a383", "fusion_lon": 0.0, "lon": -77.021257, "name": "299afa182ef36840c56535b391b2a383", "is_disabled": 0, "rental_uris": {"android": "https://dc.lft.to/lastmile_qr_scan", "ios": "https://dc.lft.to/lastmile_qr_scan"}, "type": "electric_scooter", "lat": 38.887467666666666, "is_reserved": 0, "fusion_lat": 0.0}, {"bike_id": "ce05afbb7f622b2e0f0644e322caeff5", "fusion_lon": 0.0, "lon": -77.0113775, "name": "ce05afbb7f622b2e0f0644e322caeff5", "is_disabled": 0, "rental_uris": {"android": "https://dc.lft.to/lastmile_qr_scan", "ios": "https://dc.lft.to/lastmile_qr_scan"}, "type": "electric_scooter", "lat": 38.917079666666666, "is_reserved": 0, "fusion_lat": 0.0}, {"bike_id": "80eb8cf00f8b61809bca58a7bae767ab", "fusion_lon": 0.0, "lon": -77.04484616666667, "name": "80eb8cf00f8b61809bca58a7bae767ab", "is_disabled": 0, "rental_uris": {"android": "https://dc.lft.to/lastmile_qr_scan", "ios": "https://dc.lft.to/lastmile_qr_scan"}, "type": "electric_scooter", "lat": 38.911643, "is_reserved": 0, "fusion_lat": 0.0}, {"bike_id": "3302f1c6ec4b7a52058b34397c1c57c7", "fusion_lon": 0.0, "lon": -77.0282345, "name": "3302f1c6ec4b7a52058b34397c1c57c7", "is_disabled": 0, "rental_uris": {"android": "https://dc.lft.to/lastmile_qr_scan", "ios": "https://dc.lft.to/lastmile_qr_scan"}, "type": "electric_scooter", "lat": 38.9048305, "is_reserved": 0, "fusion_lat": 0.0}, {"bike_id": "4c24ae0e433ea77feddbc9e607e9cc69", "fusion_lon": 0.0, "lon": -77.04594616666667, "name": "4c24ae0e433ea77feddbc9e607e9cc69", "is_disabled": 0, "rental_uris": {"android": "https://dc.lft.to/lastmile_qr_scan", "ios": "https://dc.lft.to/lastmile_qr_scan"}, "type": "electric_scooter", "lat": 38.91866016666667, "is_reserved": 0, "fusion_lat": 0.0}, {"bike_id": "fa534d51c0fc3b8cf43c90e4c584c3fb", "fusion_lon": 0.0, "lon": -76.98834966666666, "name": "fa534d51c0fc3b8cf43c90e4c584c3fb", "is_disabled": 0, "rental_uris": {"android": "https://dc.lft.to/lastmile_qr_scan", "ios": "https://dc.lft.to/lastmile_qr_scan"}, "type": "electric_scooter", "lat": 38.900361, "is_reserved": 0, "fusion_lat": 0.0}, {"bike_id": "38dee849d94574590bbc39d21e456105", "fusion_lon": 0.0, "lon": -76.94965333333333, "name": "38dee849d94574590bbc39d21e456105", "is_disabled": 0, "rental_uris": {"android": "https://dc.lft.to/lastmile_qr_scan", "ios": "https://dc.lft.to/lastmile_qr_scan"}, "type": "electric_scooter", "lat": 38.893618333333336, "is_reserved": 0, "fusion_lat": 0.0}, {"bike_id": "2c2ec41da94eed20def3aac7ba575a6d", "fusion_lon": 0.0, "lon": -77.10600233333334, "name": "2c2ec41da94eed20def3aac7ba575a6d", "is_disabled": 0, "rental_uris": {"android": "https://dc.lft.to/lastmile_qr_scan", "ios": "https://dc.lft.to/lastmile_qr_scan"}, "type": "electric_bike", "lat": 38.92899583333333, "is_reserved": 0, "fusion_lat": 0.0}, {"bike_id": "c6f3b266c4ab5684b6d28879e461dfe2", "fusion_lon": 0.0, "lon": -77.0347475, "name": "c6f3b266c4ab5684b6d28879e461dfe2", "is_disabled": 0, "rental_uris": {"android": "https://dc.lft.to/lastmile_qr_scan", "ios": "https://dc.lft.to/lastmile_qr_scan"}, "type": "electric_scooter", "lat": 38.904667, "is_reserved": 0, "fusion_lat": 0.0}, {"bike_id": "25de1355348199847bd6dd3d361bf096", "fusion_lon": 0.0, "lon": -77.02491, "name": "25de1355348199847bd6dd3d361bf096", "is_disabled": 0, "rental_uris": {"android": "https://dc.lft.to/lastmile_qr_scan", "ios": "https://dc.lft.to/lastmile_qr_scan"}, "type": "electric_scooter", "lat": 38.9418485, "is_reserved": 0, "fusion_lat": 0.0}, {"bike_id": "64991a396db4ea7157f984933f9ef3b3", "fusion_lon": 0.0, "lon": -77.04861283333334, "name": "64991a396db4ea7157f984933f9ef3b3", "is_disabled": 0, "rental_uris": {"android": "https://dc.lft.to/lastmile_qr_scan", "ios": "https://dc.lft.to/lastmile_qr_scan"}, "type": "electric_scooter", "lat": 38.904732833333334, "is_reserved": 0, "fusion_lat": 0.0},