{"data": {"bikes": [{"fusion_lon": 0.0, "name": "5e2842b93a131553f99709b186e32109", "rental_uris": {"android": "https://dc.lft.to/lastmile_qr_scan", "ios": "https://dc.lft.to/lastmile_qr_scan"}, "lat": 38.8717875, "bike_id": "5e2842b93a131553f99709b186e32109", "is_disabled": 0, "lon": -77.00626916666667, "is_reserved": 0, "fusion_lat": 0.0, "type": "electric_scooter"}, {"fusion_lon": 0.0, "name": "edc7cc70fd02b70988f5cd8cc8c35b8e", "rental_uris": {"android": "https://dc.lft.to/lastmile_qr_scan", "ios": "https://dc.lft.to/lastmile_qr_scan"}, "lat": 38.906035833333334, "bike_id": "edc7cc70fd02b70988f5cd8cc8c35b8e", "is_disabled": 0, "lon": -77.02602783333333, "is_reserved": 0, "fusion_lat": 0.0, "type": "electric_scooter"}, {"fusion_lon": 0.0, "name": "8c9f2802e61cbf22df91c7ef68d130eb", "rental_uris": {"android": "https://dc.lft.to/lastmile_qr_scan", "ios": "https://dc.lft.to/lastmile_qr_scan"}, "lat": 38.934507333333336, "bike_id": "8c9f2802e61cbf22df91c7ef68d130eb", "is_disabled": 0, "lon": -77.08967233333334, "is_reserved": 0, "fusion_lat": 0.0, "type": "electric_scooter"}, {"fusion_lon": 0.0, "name": "cb6c236a3f661936b5c080162b722131", "rental_uris": {"android": "https://dc.lft.to/lastmile_qr_scan", "ios": "https://dc.lft.to/lastmile_qr_scan"}, "lat": 38.90710983333334, "bike_id": "cb6c236a3f661936b5c080162b722131", "is_disabled": 0, "lon": -77.02390733333333, "is_reserved": 0, "fusion_lat": 0.0, "type": "electric_scooter"}, {"fusion_lon": 0.0, "name": "8a977b8e585505893b9b9ab0e24d97f6", "rental_uris": {"android": "https://dc.lft.to/lastmile_qr_scan", "ios": "https://dc.lft.to/lastmile_qr_scan"}, "lat": 38.92380033333333, "bike_id": "8a977b8e585505893b9b9ab0e24d97f6", "is_disabled": 0, "lon": -77.03046933333333, "is_reserved": 0, "fusion_lat": 0.0, "type": "electric_scooter"}, {"fusion_lon": 0.0, "name": "e7d10cef7d0d8c3f5ce38fcaec271770", "rental_uris": {"android": "https://dc.lft.to/lastmile_qr_scan", "ios": "https://dc.lft.to/lastmile_qr_scan"}, "lat": 38.938431333333334, "bike_id": "e7d10cef7d0d8c3f5ce38fcaec271770", "is_disabled": 0, "lon": -77.02438166666667, "is_reserved": 0, "fusion_lat": 0.0, "type": "electric_scooter"}, {"fusion_lon": 0.0, "name": "74f6ec3d30bc919dbfc292bd2ee7c8c8", "rental_uris": {"android": "https://dc.lft.to/lastmile_qr_scan", "ios": "https://dc.lft.to/lastmile_qr_scan"}, "lat": 38.902469333333336, "bike_id": "74f6ec3d30bc919dbfc292bd2ee7c8c8", "is_disabled": 0, "lon": -77.01590183333333, "is_reserved": 0, "fusion_lat": 0.0, "type": "electric_scooter"}, {"fusion_lon": 0.0, "name": "255343b8555d18667c91679f7c8a6640", "rental_uris": {"android": "https://dc.lft.to/lastmile_qr_scan", "ios": "https://dc.lft.to/lastmile_qr_scan"}, "lat": 38.915688333333335, "bike_id": "255343b8555d18667c91679f7c8a6640", "is_disabled": 0, "lon": -77.0238635, "is_reserved": 0, "fusion_lat": 0.0, "type": "electric_scooter"}, {"fusion_lon": 0.0, "name": "683d5fca32d4a567ce216604defa8146", "rental_uris": {"android": "https://dc.lft.to/lastmile_qr_scan", "ios": "https://dc.lft.to/lastmile_qr_scan"}, "lat": 38.9226385, "bike_id": "683d5fca32d4a567ce216604defa8146", "is_disabled": 0, "lon": -77.07330233333333, "is_reserved": 0, "fusion_lat": 0.0, "type": "electric_scooter"}, {"fusion_lon": 0.0, "name": "2706014a50c481068d580dff1d66d50a", "rental_uris": {"android": "https://dc.lft.to/lastmile_qr_scan", "ios": "https://dc.lft.to/lastmile_qr_scan"}, "lat": 38.957168833333334, "bike_id": "2706014a50c481068d580dff1d66d50a", "is_disabled": 0, "lon": -77.002331, "is_reserved": 0, "fusion_lat": 0.0, "type": "electric_scooter"}, {"fusion_lon": 0.0, "name": "442e819e9025da91f942070d2ac6ecc9", "rental_uris": {"android": "https://dc.lft.to/lastmile_qr_scan", "ios": "https://dc.lft.to/lastmile_qr_scan"}, "lat": 38.90459716666667, "bike_id": "442e819e9025da91f942070d2ac6ecc9", "is_disabled": 0, "lon": -77.029521, "is_reserved": 0, "fusion_lat": 0.0, "type": "electric_scooter"}, {"fusion_lon": 0.0, "name": "55c7892af272b978f7e130ded9954ab0", "rental_uris": {"android": "https://dc.lft.to/lastmile_qr_scan", "ios": "https://dc.lft.to/lastmile_qr_scan"}, "lat": 38.96932116666667, "bike_id": "55c7892af272b978f7e130ded9954ab0", "is_disabled": 0, "lon": -77.027112, "is_reserved": 0, "fusion_lat": 0.0, "type": "electric_scooter"}, {"fusion_lon": 0.0, "name": "cd00a278c862ee856f3dfcc51def6c56", "rental_uris": {"android": "https://dc.lft.to/lastmile_qr_scan", "ios": "https://dc.lft.to/lastmile_qr_scan"}, "lat": 38.90008383333333, "bike_id": "cd00a278c862ee856f3dfcc51def6c56", "is_disabled": 0, "lon": -76.99479633333333, "is_reserved": 0, "fusion_lat": 0.0, "type": "electric_scooter"}, {"fusion_lon": 0.0, "name": "315fc2536fd9cf7c8c9d8699d7b2e712", "rental_uris": {"android": "https://dc.lft.to/lastmile_qr_scan", "ios": "https://dc.lft.to/lastmile_qr_scan"}, "lat": 38.923309333333336, "bike_id": "315fc2536fd9cf7c8c9d8699d7b2e712", "is_disabled": 0, "lon": -77.03781366666666, "is_reserved": 0, "fusion_lat": 0.0, "type": "electric_scooter"}, {"fusion_lon": 0.0, "name": "b5a4afa0c87b4cc3ce82730edbffcd69", "rental_uris": {"android": "https://dc.lft.to/lastmile_qr_scan", "ios": "https://dc.lft.to/lastmile_qr_scan"}, "lat": 38.942264, "bike_id": "b5a4afa0c87b4cc3ce82730edbffcd69", "is_disabled": 0, "lon": -77.01441333333334, "is_reserved": 0, "fusion_lat": 0.0, "type": "electric_scooter"}, {"fusion_lon": 0.0, "name": "a59be5e7fba99c081f49a35bbc1fa3e0", "rental_uris": {"android": "https://dc.lft.to/lastmile_qr_scan", "ios": "https://dc.lft.to/lastmile_qr_scan"}, "lat": 38.926767, "bike_id": "a59be5e7fba99c081f49a35bbc1fa3e0", "is_disabled": 0, "lon": -77.0148655, "is_reserved": 0, "fusion_lat": 0.0, "type": "electric_scooter"}, {"fusion_lon": 0.0, "name": "0da4d9e594bd8d78f56f069c5dc10fba", "rental_uris": {"android": "https://dc.lft.to/lastmile_qr_scan", "ios": "https://dc.lft.to/lastmile_qr_scan"}, "lat": 38.92065016666667, "bike_id": "0da4d9e594bd8d78f56f069c5dc10fba", "is_disabled": 0, "lon": -77.0249765, "is_reserved": 0, "fusion_lat": 0.0, "type": "electric_scooter"}, {"fusion_lon": 0.0, "name": "3a3e4ecef384f8651e0246d77c80026f", "rental_uris": {"android": "https://dc.lft.to/lastmile_qr_scan", "ios": "https://dc.lft.to/lastmile_qr_scan"}, "lat": 38.92392516666666, "bike_id": "3a3e4ecef384f8651e0246d77c80026f", "is_disabled": 0, "lon": -77.0256065, "is_reserved": 0, "fusion_lat": 0.0, "type": "electric_scooter"}, {"fusion_lon": 0.0, "name": "bc859679b57b235ec6825057812bc9bf", "rental_uris": {"android": "https://dc.lft.to/lastmile_qr_scan", "ios": "https://dc.lft.to/lastmile_qr_scan"}, "lat": 38.92222816666666, "bike_id": "bc859679b57b235ec6825057812bc9bf", "is_disabled": 0, "lon": -77.01819033333334, "is_reserved": 0, "fusion_lat": 0.0, "type": "electric_scooter"}, {"fusion_lon": 0.0, "name": "0e495d86cd230f9da106413fce3efd9f", "rental_uris": {"android": "https://dc.lft.to/lastmile_qr_scan", "ios": "https://dc.lft.to/lastmile_qr_scan"}, "lat": 38.906795, "bike_id": "0e495d86cd230f9da106413fce3efd9f", "is_disabled": 0, "lon": -77.026946, "is_reserved": 0, "fusion_lat": 0.0, "type": "electric_scooter"}, {"fusion_lon": 0.0, "name": "c0322eeb3da3e7bbbccb05bc8041f502", "rental_uris": {"android": "https://dc.lft.to/lastmile_qr_scan", "ios": "https://dc.lft.to/lastmile_qr_scan"}, "lat": 38.90136966666667, "bike_id": "c0322eeb3da3e7bbbccb05bc8041f502", "is_disabled": 0, "lon": -77.03046566666667, "is_reserved": 0, "fusion_lat": 0.0, "type": "electric_scooter"}, {"fusion_lon": 0.0, "name": "cedf51287af7b851078d288b96b8c3b5", "rental_uris": {"android": "https://dc.lft.to/lastmile_qr_scan", "ios": "https://dc.lft.to/lastmile_qr_scan"}, "lat": 38.905145833333336, "bike_id": "cedf51287af7b851078d288b96b8c3b5", "is_disabled": 0, "lon": -77.05991816666666, "is_reserved": 0, "fusion_lat": 0.0, "type": "electric_scooter"}, {"fusion_lon": 0.0, "name": "69c224ac2bea9e496bac7d10329b9d03", "rental_uris": {"android": "https://dc.lft.to/lastmile_qr_scan", "ios": "https://dc.lft.to/lastmile_qr_scan"}, "lat": 38.90242516666667, "bike_id": "69c224ac2bea9e496bac7d10329b9d03", "is_disabled": 0, "lon": -77.00197466666667, "is_reserved": 0, "fusion_lat": 0.0, "type": "electric_scooter"}, {"fusion_lon": 0.0, "name": "161060f5a0d12fa6c683ca07f0ba8cec", "rental_uris": {"android": "https://dc.lft.to/lastmile_qr_scan", "ios": "https://dc.lft.to/lastmile_qr_scan"}, "lat": 38.901686833333336, "bike_id": "161060f5a0d12fa6c683ca07f0ba8cec", "is_disabled": 0, "lon": -77.02192233333334, "is_reserved": 0, "fusion_lat": 0.0, "type": "electric_scooter"}, {"fusion_lon": 0.0, "name": "a86d948ed728eb70263f4d5ea1620508", "rental_uris": {"android": "https://dc.lft.to/lastmile_qr_scan", "ios": "https://dc.lft.to/lastmile_qr_scan"}, "lat": 38.91935, "bike_id": "a86d948ed728eb70263f4d5ea1620508", "is_disabled": 0, "lon": -77.04618966666666, "is_reserved": 0, "fusion_lat": 0.0, "type": "electric_scooter"}, {"fusion_lon": 0.0, "name": "7827cee0e81139ce31384cddfe4766e0", "rental_uris": {"android": "https://dc.lft.to/lastmile_qr_scan", "ios": "https://dc.lft.to/lastmile_qr_scan"}, "lat": 39.007787, "bike_id": "7827cee0e81139ce31384cddfe4766e0", "is_disabled": 0, "lon": -76.88989483333333, "is_reserved": 0, "fusion_lat": 0.0, "type": "electric_bike"}, {"fusion_lon": 0.0, "name": "51b63efdd7334631b2b6fecae18975a2", "rental_uris": {"android": "https://dc.lft.to/lastmile_qr_scan", "ios": "https://dc.lft.to/lastmile_qr_scan"}, "lat": 38.91562066666667, "bike_id": "51b63efdd7334631b2b6fecae18975a2", "is_disabled": 0, "lon": -77.00700066666667, "is_reserved": 0, "fusion_lat": 0.0, "type": "electric_scooter"}, {"fusion_lon": 0.0, "name": "a6fc2b119ea2a22fa0c6acf39f89108e", "rental_uris": {"android": "https://dc.lft.to/lastmile_qr_scan", "ios": "https://dc.lft.to/lastmile_qr_scan"}, "lat": 38.904456833333334, "bike_id": "a6fc2b119ea2a22fa0c6acf39f89108e", "is_disabled": 0, "lon": -77.0283505, "is_reserved": 0, "fusion_lat": 0.0, "type": "electric_scooter"}, {"fusion_lon": 0.0, "name": "f46907f1cc14277125c3236b99c882f8", "rental_uris": {"android": "https://dc.lft.to/lastmile_qr_scan", "ios": "https://dc.lft.to/lastmile_qr_scan"}, "lat": 39.007153, "bike_id": "f46907f1cc14277125c3236b99c882f8", "is_disabled": 0, "lon": -76.98148016666667, "is_reserved": 0, "fusion_lat": 0.0, "type": "electric_bike"}, {"fusion_lon": 0.0, "name": "7c4dd2b2b63dc21b7f178fec5f1b764f", "rental_uris": {"android": "https://dc.lft.to/lastmile_qr_scan", "ios": "https://dc.lft.to/lastmile_qr_scan"}, "lat": 38.900297333333334, "bike_id": "7c4dd2b2b63dc21b7f178fec5f1b764f", "is_disabled": 0, "lon": -76.99863233333333, "is_reserved": 0, "fusion_lat": 0.0, "type": "electric_scooter"}, {"fusion_lon": 0.0, "name": "782feb7a7c709c6a8af61b133bdb24f4", "rental_uris": {"android": "https://dc.lft.to/lastmile_qr_scan", "ios": "https://dc.lft.to/lastmile_qr_scan"}, "lat": 38.925118833333336, "bike_id": "782feb7a7c709c6a8af61b133bdb24f4", "is_disabled": 0, "lon": -77.0228475, "is_reserved": 0, "fusion_lat": 0.0, "type": "electric_scooter"}, {"fusion_lon": 0.0, "name": "b42eaab5301f6f1510015bc2f02f4937", "rental_uris": {"android": "https://dc.lft.to/lastmile_qr_scan", "ios": "https://dc.lft.to/lastmile_qr_scan"}, "lat": 38.91273066666667, "bike_id": "b42eaab5301f6f1510015bc2f02f4937", "is_disabled": 0, "lon": -77.0321685, "is_reserved": 0, "fusion_lat": 0.0, "type": "electric_scooter"}, {"fusion_lon": 0.0, "name": "0a4375beb954deb9ac88da30204a5951", "rental_uris": {"android": "https://dc.lft.to/lastmile_qr_scan", "ios": "https://dc.lft.to/lastmile_qr_scan"}, "lat": 38.92394766666666, "bike_id": "0a4375beb954deb9ac88da30204a5951", "is_disabled": 0, "lon": -77.0204185, "is_reserved": 0, "fusion_lat": 0.0, "type": "electric_scooter"}, {"fusion_lon": 0.0, "name": "e318e63feb7a41f5134297c1dfe6f3b1", "rental_uris": {"android": "https://dc.lft.to/lastmile_qr_scan", "ios": "https://dc.lft.to/lastmile_qr_scan"}, "lat": 38.90868283333333, "bike_id": "e318e63feb7a41f5134297c1dfe6f3b1", "is_disabled": 0, "lon": -77.0322625, "is_reserved": 0, "fusion_lat": 0.0, "type": "electric_scooter"}, {"fusion_lon": 0.0, "name": "5a008088c7c20e833d0a23cf6572143b", "rental_uris": {"android": "https://dc.lft.to/lastmile_qr_scan", "ios": "https://dc.lft.to/lastmile_qr_scan"}, "lat": 38.849024166666666, "bike_id": "5a008088c7c20e833d0a23cf6572143b", "is_disabled": 0, "lon": -77.07795883333333, "is_reserved": 0, "fusion_lat": 0.0, "type": "electric_bike"}, {"fusion_lon": 0.0, "name": "10ef0aa231f4cd53676ad1476cf8a39b", "rental_uris": {"android": "https://dc.lft.to/lastmile_qr_scan", "ios": "https://dc.lft.to/lastmile_qr_scan"}, "lat": 38.907915, "bike_id": "10ef0aa231f4cd53676ad1476cf8a39b", "is_disabled": 0, "lon": -76.99422516666667, "is_reserved": 0, "fusion_lat": 0.0, "type": "electric_scooter"}, {"fusion_lon": 0.0, "name": "d9e54b12d940f796f181fec68d7de3c1", "rental_uris": {"android": "https://dc.lft.to/lastmile_qr_scan", "ios": "https://dc.lft.to/lastmile_qr_scan"}, "lat": 38.90037683333333, "bike_id": "d9e54b12d940f796f181fec68d7de3c1", "is_disabled": 0, "lon": -77.01777, "is_reserved": 0, "fusion_lat": 0.0, "type": "electric_scooter"}, {"fusion_lon": 0.0, "name": "e486bbd34565b9035d8bda271b99d953", "rental_uris": {"android": "https://dc.lft.to/lastmile_qr_scan", "ios": "https://dc.lft.to/lastmile_qr_scan"}, "lat": 38.90401383333333, "bike_id": "e486bbd34565b9035d8bda271b99d953", "is_disabled": 0, "lon": -77.01842033333334, "is_reserved": 0, "fusion_lat": 0.0, "type": "electric_scooter"}, {"fusion_lon": 0.0, "name": "5472f89eceea4ae89d610b2064de4055", "rental_uris": {"android": "https://dc.lft.to/lastmile_qr_scan", "ios": "https://dc.lft.to/lastmile_qr_scan"}, "lat": 38.9464995, "bike_id": "5472f89eceea4ae89d610b2064de4055", "is_disabled": 0, "lon": -77.06483016666667, "is_reserved": 0, "fusion_lat": 0.0, "type": "electric_scooter"}, {"fusion_lon": 0.0, "name": "32aae29cd959f751008574242f0193f4", "rental_uris": {"android": "https://dc.lft.to/lastmile_qr_scan", "ios": "https://dc.lft.to/lastmile_qr_scan"}, "lat": 38.920393833333335, "bike_id": "32aae29cd959f751008574242f0193f4", "is_disabled": 0, "lon": -76.97953483333333, "is_reserved": 0, "fusion_lat": 0.0, "type": "electric_bike"}, {"fusion_lon": 0.0, "name": "f54e9bce86d831ec3715541c32636fd4", "rental_uris": {"android": "https://dc.lft.to/lastmile_qr_scan", "ios": "https://dc.lft.to/lastmile_qr_scan"}, "lat": 38.922389833333334, "bike_id": "f54e9bce86d831ec3715541c32636fd4", "is_disabled": 0, "lon": -77.04647516666667, "is_reserved": 0, "fusion_lat": 0.0, "type": "electric_scooter"}, {"fusion_lon": 0.0, "name": "a71028e8148a71bd46f859614ccaeef3", "rental_uris": {"android": "https://dc.lft.to/lastmile_qr_scan", "ios": "https://dc.lft.to/lastmile_qr_scan"}, "lat": 38.914855833333334, "bike_id": "a71028e8148a71bd46f859614ccaeef3", "is_disabled": 0, "lon": -77.03246766666666, "is_reserved": 0, "fusion_lat": 0.0, "type": "electric_scooter"}, {"fusion_lon": 0.0, "name": "41e117218ca18963949db9c14b97c412", "rental_uris": {"android": "https://dc.lft.to/lastmile_qr_scan", "ios": "https://dc.lft.to/lastmile_qr_scan"}, "lat": 38.885043833333334, "bike_id": "41e117218ca18963949db9c14b97c412", "is_disabled": 0, "lon": -77.00221083333334, "is_reserved": 0, "fusion_lat": 0.0, "type": "electric_scooter"}, {"fusion_lon": 0.0, "name": "df3b80dbd41b6f0cc7e6950cda033fbf", "rental_uris": {"android": "https://dc.lft.to/lastmile_qr_scan", "ios": "https://dc.lft.to/lastmile_qr_scan"}, "lat": 38.897676, "bike_id": "df3b80dbd41b6f0cc7e6950cda033fbf", "is_disabled": 0, "lon": -76.97690583333333, "is_reserved": 0, "fusion_lat": 0.0, "type": "electric_scooter"}, {"fusion_lon": 0.0, "name": "540311ccb652f0ad9a9c03c47aa3fda5", "rental_uris": {"android": "https://dc.lft.to/lastmile_qr_scan", "ios": "https://dc.lft.to/lastmile_qr_scan"}, "lat": 38.907169333333336, "bike_id": "540311ccb652f0ad9a9c03c47aa3fda5", "is_disabled": 0, "lon": -77.0295845, "is_reserved": 0, "fusion_lat": 0.0, "type": "electric_scooter"}, {"fusion_lon": 0.0, "name": "1a4f0106f2526431e90b66aa836538af", "rental_uris": {"android": "https://dc.lft.to/lastmile_qr_scan", "ios": "https://dc.lft.to/lastmile_qr_scan"}, "lat": 38.9199395, "bike_id": "1a4f0106f2526431e90b66aa836538af", "is_disabled": 0, "lon": -77.01788116666667, "is_reserved": 0, "fusion_lat": 0.0, "type": "electric_scooter"}, {"fusion_lon": 0.0, "name": "d9266895361fa266efec12bf6a6a8b88", "rental_uris": {"android": "https://dc.lft.to/lastmile_qr_scan", "ios": "https://dc.lft.to/lastmile_qr_scan"}, "lat": 38.9074285, "bike_id": "d9266895361fa266efec12bf6a6a8b88", "is_disabled": 0, "lon": -77.01313366666666, "is_reserved": 0, "fusion_lat": 0.0, "type": "electric_scooter"}, {"fusion_lon": 0.0, "name": "d85e69ea7e3c5707ee4a0c5daf74bd2e", "rental_uris": {"android": "https://dc.lft.to/lastmile_qr_scan", "ios": "https://dc.lft.to/lastmile_qr_scan"}, "lat": 38.90385333333333, "bike_id": "d85e69ea7e3c5707ee4a0c5daf74bd2e", "is_disabled": 0, "lon": -77.02821633333333, "is_reserved": 0, "fusion_lat": 0.0, "type": "electric_scooter"}, {"fusion_lon": 0.0, "name": "440608d6be5a31d74d037e5c2faeb4d3", "rental_uris": {"android": "https://dc.lft.to/lastmile_qr_scan", "ios": "https://dc.lft.to/lastmile_qr_scan"}, "lat": 38.93427116666667, "bike_id": "440608d6be5a31d74d037e5c2faeb4d3", "is_disabled": 0, "lon": -77.0400525, "is_reserved": 0, "fusion_lat": 0.0, "type": "electric_bike"}, {"fusion_lon": 0.0, "name": "a415917d61905a9d1ab494ede902b462", "rental_uris": {"android": "https://dc.lft.to/lastmile_qr_scan", "ios": "https://dc.lft.to/lastmile_qr_scan"}, "lat": 38.9132445, "bike_id": "a415917d61905a9d1ab494ede902b462", "is_disabled": 0, "lon": -77.031869, "is_reserved": 0, "fusion_lat": 0.0, "type": "electric_scooter"}, {"fusion_lon": 0.0, "name": "73535c5e09baddfeb9a2fa541652cd1d", "rental_uris": {"android": "https://dc.lft.to/lastmile_qr_scan", "ios": "https://dc.lft.to/lastmile_qr_scan"}, "lat": 38.935790833333336, "bike_id": "73535c5e09baddfeb9a2fa541652cd1d", "is_disabled": 0, "lon": -77.0211885, "is_reserved": 0, "fusion_lat": 0.0, "type": "electric_bike"}, {"fusion_lon": 0.0, "name": "b5dab8cbeb6b668d297f29acc85fc24b", "rental_uris": {"android": "https://dc.lft.to/lastmile_qr_scan", "ios": "https://dc.lft.to/lastmile_qr_scan"}, "lat": 38.894856, "bike_id": "b5dab8cbeb6b668d297f29acc85fc24b", "is_disabled": 0, "lon": -76.9777385, "is_reserved": 0, "fusion_lat": 0.0, "type": "electric_bike"}, {"fusion_lon": 0.0, "name": "6c33ea5d31bcb67f1de05ff2e75339a1", "rental_uris": {"android": "https://dc.lft.to/lastmile_qr_scan", "ios": "https://dc.lft.to/lastmile_qr_scan"}, "lat": 38.91362016666667, "bike_id": "6c33ea5d31bcb67f1de05ff2e75339a1", "is_disabled": 0, "lon": -77.01998283333333, "is_reserved": 0, "fusion_lat": 0.0, "type": "electric_scooter"}, {"fusion_lon": 0.0, "name": "11a4c17ac4281269200040c8e997af27", "rental_uris": {"android": "https://dc.lft.to/lastmile_qr_scan", "ios": "https://dc.lft.to/lastmile_qr_scan"}, "lat": 38.81335983333334, "bike_id": "11a4c17ac4281269200040c8e997af27", "is_disabled": 0, "lon": -77.05098266666667, "is_reserved": 0, "fusion_lat": 0.0, "type": "electric_bike"}, {"fusion_lon": 0.0, "name": "3036b2b525d9d4d51ff9811234c181d0", "rental_uris": {"android": "https://dc.lft.to/lastmile_qr_scan", "ios": "https://dc.lft.to/lastmile_qr_scan"}, "lat": 39.0109285, "bike_id": "3036b2b525d9d4d51ff9811234c181d0", "is_disabled": 0, "lon": -77.04951883333334, "is_reserved": 0, "fusion_lat": 0.0, "type": "electric_bike"}, {"fusion_lon": 0.0, "name": "bdb71f796a0935b990452aacdcb207a6", "rental_uris": {"android": "https://dc.lft.to/lastmile_qr_scan", "ios": "https://dc.lft.to/lastmile_qr_scan"}, "lat": 38.91945183333333, "bike_id": "bdb71f796a0935b990452aacdcb207a6", "is_disabled": 0, "lon": -77.01783866666666, "is_reserved": 0, "fusion_lat": 0.0, "type": "electric_scooter"}, {"fusion_lon": 0.0, "name": "a43ab5366a2cd67f1218e1e28f301650", "rental_uris": {"android": "https://dc.lft.to/lastmile_qr_scan", "ios": "https://dc.lft.to/lastmile_qr_scan"}, "lat": 38.838134, "bike_id": "a43ab5366a2cd67f1218e1e28f301650", "is_disabled": 0, "lon": -77.09520916666666, "is_reserved": 0, "fusion_lat": 0.0, "type": "electric_bike"}, {"fusion_lon": 0.0, "name": "06ba49d352779519e4a669bb8c27ffca", "rental_uris": {"android": "https://dc.lft.to/lastmile_qr_scan", "ios": "https://dc.lft.to/lastmile_qr_scan"}, "lat": 38.929344666666665, "bike_id": "06ba49d352779519e4a669bb8c27ffca", "is_disabled": 0, "lon": -76.9957565, "is_reserved": 0, "fusion_lat": 0.0, "type": "electric_scooter"}, {"fusion_lon": 0.0, "name": "13cb8eb7087029d4bf924c2a49d6eb5f", "rental_uris": {"android": "https://dc.lft.to/lastmile_qr_scan", "ios": "https://dc.lft.to/lastmile_qr_scan"}, "lat": 38.8962205, "bike_id": "13cb8eb7087029d4bf924c2a49d6eb5f", "is_disabled": 0, "lon": -77.01171233333334, "is_reserved": 0, "fusion_lat": 0.0, "type": "electric_scooter"}, {"fusion_lon": 0.0, "name": "379abcdff95da75a2b0780c573cbe9a9", "rental_uris": {"android": "https://dc.lft.to/lastmile_qr_scan", "ios": "https://dc.lft.to/lastmile_qr_scan"}, "lat": 38.876351166666666, "bike_id": "379abcdff95da75a2b0780c573cbe9a9", "is_disabled": 0, "lon": -77.01655683333334, "is_reserved": 0, "fusion_lat": 0.0, "type": "electric_scooter"}, {"fusion_lon": 0.0, "name": "49160f291d2900070f389984b1794f47", "rental_uris": {"android": "https://dc.lft.to/lastmile_qr_scan", "ios": "https://dc.lft.to/lastmile_qr_scan"}, "lat": 38.899641333333335, "bike_id": "49160f291d2900070f389984b1794f47", "is_disabled": 0, "lon": -77.04783766666667, "is_reserved": 0, "fusion_lat": 0.0, "type": "electric_scooter"}, {"fusion_lon": 0.0, "name": "f6595198de7cd94c889a99b68d09b7a3", "rental_uris": {"android": "https://dc.lft.to/lastmile_qr_scan", "ios": "https://dc.lft.to/lastmile_qr_scan"}, "lat": 38.908333666666664, "bike_id": "f6595198de7cd94c889a99b68d09b7a3", "is_disabled": 0, "lon": -77.0021425, "is_reserved": 0, "fusion_lat": 0.0, "type": "electric_scooter"}, {"fusion_lon": 0.0, "name": "917faa77c3c53876ceccd48e65184b8c", "rental_uris": {"android": "https://dc.lft.to/lastmile_qr_scan", "ios": "https://dc.lft.to/lastmile_qr_scan"}, "lat": 38.900693, "bike_id": "917faa77c3c53876ceccd48e65184b8c", "is_disabled": 0, "lon": -76.927433, "is_reserved": 0, "fusion_lat": 0.0, "type": "electric_scooter"}, {"fusion_lon": 0.0, "name": "598079af304caef59f144935742d2bcf", "rental_uris": {"android": "https://dc.lft.to/lastmile_qr_scan", "ios": "https://dc.lft.to/lastmile_qr_scan"}, "lat": 38.878656166666666, "bike_id": "598079af304caef59f144935742d2bcf", "is_disabled": 0, "lon": -76.991655, "is_reserved": 0, "fusion_lat": 0.0, "type": "electric_scooter"}, {"fusion_lon": 0.0, "name": "0b3e2c93e193ab7882ef9c707e362c26", "rental_uris": {"android": "https://dc.lft.to/lastmile_qr_scan", "ios": "https://dc.lft.to/lastmile_qr_scan"}, "lat": 38.898808, "bike_id": "0b3e2c93e193ab7882ef9c707e362c26", "is_disabled": 0, "lon": -77.03283016666667, "is_reserved": 0, "fusion_lat": 0.0, "type": "electric_scooter"}, {"fusion_lon": 0.0, "name": "bbcfce9751c81344a71d4989862aea53", "rental_uris": {"android": "https://dc.lft.to/lastmile_qr_scan", "ios": "https://dc.lft.to/lastmile_qr_scan"}, "lat": 38.9612615, "bike_id": "bbcfce9751c81344a71d4989862aea53", "is_disabled": 0, "lon": -77.02790233333333, "is_reserved": 0, "fusion_lat": 0.0, "type": "electric_scooter"}, {"fusion_lon": 0.0, "name": "060a217289e0d43219cfae3ae0e115a1", "rental_uris": {"android": "https://dc.lft.to/lastmile_qr_scan", "ios": "https://dc.lft.to/lastmile_qr_scan"}, "lat": 38.886204666666664, "bike_id": "060a217289e0d43219cfae3ae0e115a1", "is_disabled": 0, "lon": -76.99019283333334, "is_reserved": 0, "fusion_lat": 0.0, "type": "electric_scooter"}, {"fusion_lon": 0.0, "name": "0d56ee488a78d448b5943f385072f2eb", "rental_uris": {"android": "https://dc.lft.to/lastmile_qr_scan", "ios": "https://dc.lft.to/lastmile_qr_scan"}, "lat": 38.935257, "bike_id": "0d56ee488a78d448b5943f385072f2eb", "is_disabled": 0, "lon": -77.02853333333333, "is_reserved": 0, "fusion_lat": 0.0, "type": "electric_scooter"}, {"fusion_lon": 0.0, "name": "99e2c9002f64090dbd459e586a76ae1b", "rental_uris": {"android": "https://dc.lft.to/lastmile_qr_scan", "ios": "https://dc.lft.to/lastmile_qr_scan"}, "lat": 38.89764066666667, "bike_id": "99e2c9002f64090dbd459e586a76ae1b", "is_disabled": 0, "lon": -77.02603566666667, "is_reserved": 0, "fusion_lat": 0.0, "type": "electric_scooter"}, {"fusion_lon": 0.0, "name": "83ac63645891fa4391115a5908369059", "rental_uris": {"android": "https://dc.lft.to/lastmile_qr_scan", "ios": "https://dc.lft.to/lastmile_qr_scan"}, "lat": 38.8831915, "bike_id": "83ac63645891fa4391115a5908369059", "is_disabled": 0, "lon": -76.910905, "is_reserved": 0, "fusion_lat": 0.0, "type": "electric_bike"}, {"fusion_lon": 0.0, "name": "427d7733040efba27b711080e8e365b3", "rental_uris": {"android": "https://dc.lft.to/lastmile_qr_scan", "ios": "https://dc.lft.to/lastmile_qr_scan"}, "lat": 38.94304016666667, "bike_id": "427d7733040efba27b711080e8e365b3", "is_disabled": 0, "lon": -77.034608, "is_reserved": 0, "fusion_lat": 0.0, "type": "electric_scooter"}, {"fusion_lon": 0.0, "name": "5d5c3d7065f3fd8826fbfffb5627936f", "rental_uris": {"android": "https://dc.lft.to/lastmile_qr_scan", "ios": "https://dc.lft.to/lastmile_qr_scan"}, "lat": 38.916569333333335, "bike_id": "5d5c3d7065f3fd8826fbfffb5627936f", "is_disabled": 0, "lon": -77.00923383333334, "is_reserved": 0, "fusion_lat": 0.0, "type": "electric_scooter"}, {"fusion_lon": 0.0, "name": "1064910954ad3ec8554488180d308b01", "rental_uris": {"android": "https://dc.lft.to/lastmile_qr_scan", "ios": "https://dc.lft.to/lastmile_qr_scan"}, "lat": 39.03810416666666, "bike_id": "1064910954ad3ec8554488180d308b01", "is_disabled": 0, "lon": -77.042243, "is_reserved": 0, "fusion_lat": 0.0, "type": "electric_bike"}, {"fusion_lon": 0.0, "name": "84607f626e5bb0024b3df2b163b125b1", "rental_uris": {"android": "https://dc.lft.to/lastmile_qr_scan", "ios": "https://dc.lft.to/lastmile_qr_scan"}, "lat": 38.92151333333333, "bike_id": "84607f626e5bb0024b3df2b163b125b1", "is_disabled": 0, "lon": -77.0353725, "is_reserved": 0, "fusion_lat": 0.0, "type": "electric_scooter"}, {"fusion_lon": 0.0, "name": "88dc9ad66cc1f806f1803699885ee3d1", "rental_uris": {"android": "https://dc.lft.to/lastmile_qr_scan", "ios": "https://dc.lft.to/lastmile_qr_scan"}, "lat": 38.91485633333333, "bike_id": "88dc9ad66cc1f806f1803699885ee3d1", "is_disabled": 0, "lon": -77.04493716666667, "is_reserved": 0, "fusion_lat": 0.0, "type": "electric_scooter"}, {"fusion_lon": 0.0, "name": "9f087cea6e0bcc0f3e82735bb63d0921", "rental_uris": {"android": "https://dc.lft.to/lastmile_qr_scan", "ios": "https://dc.lft.to/lastmile_qr_scan"}, "lat": 38.9247655, "bike_id": "9f087cea6e0bcc0f3e82735bb63d0921", "is_disabled": 0, "lon": -77.02204516666667, "is_reserved": 0, "fusion_lat": 0.0, "type": "electric_scooter"}, {"fusion_lon": 0.0, "name": "7e854ad84fe9d29710a7b96a2206f30d", "rental_uris": {"android": "https://dc.lft.to/lastmile_qr_scan", "ios": "https://dc.lft.to/lastmile_qr_scan"}, "lat": 38.923239, "bike_id": "7e854ad84fe9d29710a7b96a2206f30d", "is_disabled": 0, "lon": -77.03669416666666, "is_reserved": 0, "fusion_lat": 0.0, "type": "electric_scooter"}, {"fusion_lon": 0.0, "name": "1a8ed3df4d28f9473d29e030e8c234bb", "rental_uris": {"android": "https://dc.lft.to/lastmile_qr_scan", "ios": "https://dc.lft.to/lastmile_qr_scan"}, "lat": 38.924048, "bike_id": "1a8ed3df4d28f9473d29e030e8c234bb", "is_disabled": 0, "lon": -77.05180933333334, "is_reserved": 0, "fusion_lat": 0.0, "type": "electric_scooter"}, {"fusion_lon": 0.0, "name": "340ce73178c37c548847b6f301d1d3e3", "rental_uris": {"android": "https://dc.lft.to/lastmile_qr_scan", "ios": "https://dc.lft.to/lastmile_qr_scan"}, "lat": 38.8942465, "bike_id": "340ce73178c37c548847b6f301d1d3e3", "is_disabled": 0, "lon": -76.9977455, "is_reserved": 0, "fusion_lat": 0.0, "type": "electric_scooter"}, {"fusion_lon": 0.0, "name": "4a7ff264de7406a1efd718ea0dea9458", "rental_uris": {"android": "https://dc.lft.to/lastmile_qr_scan", "ios": "https://dc.lft.to/lastmile_qr_scan"}, "lat": 38.8922415, "bike_id": "4a7ff264de7406a1efd718ea0dea9458", "is_disabled": 0, "lon": -77.04366883333333, "is_reserved": 0, "fusion_lat": 0.0, "type": "electric_scooter"}, {"fusion_lon": 0.0, "name": "99cca9f01984ec092d0c305cda3a0be6", "rental_uris": {"android": "https://dc.lft.to/lastmile_qr_scan", "ios": "https://dc.lft.to/lastmile_qr_scan"}, "lat": 38.90238683333333, "bike_id": "99cca9f01984ec092d0c305cda3a0be6", "is_disabled": 0, "lon": -76.97413983333334, "is_reserved": 0, "fusion_lat": 0.0, "type": "electric_scooter"}, {"fusion_lon": 0.0, "name": "03849e5627e11cd557ea48303e678294", "rental_uris": {"android": "https://dc.lft.to/lastmile_qr_scan", "ios": "https://dc.lft.to/lastmile_qr_scan"}, "lat": 38.902331, "bike_id": "03849e5627e11cd557ea48303e678294", "is_disabled": 0, "lon": -77.04444083333334, "is_reserved": 0, "fusion_lat": 0.0, "type": "electric_scooter"}, {"fusion_lon": 0.0, "name": "a0255078313e57217be0fdd8471077db", "rental_uris": {"android": "https://dc.lft.to/lastmile_qr_scan", "ios": "https://dc.lft.to/lastmile_qr_scan"}, "lat": 38.915823833333334, "bike_id": "a0255078313e57217be0fdd8471077db", "is_disabled": 0, "lon": -77.01230516666666, "is_reserved": 0, "fusion_lat": 0.0, "type": "electric_scooter"}, {"fusion_lon": 0.0, "name": "d9cb9eeab7b4b234f94acb42cb0afece", "rental_uris": {"android": "https://dc.lft.to/lastmile_qr_scan", "ios": "https://dc.lft.to/lastmile_qr_scan"}, "lat": 38.88218666666667, "bike_id": "d9cb9eeab7b4b234f94acb42cb0afece", "is_disabled": 0, "lon": -76.93923366666667, "is_reserved": 0, "fusion_lat": 0.0, "type": "electric_scooter"}, {"fusion_lon": 0.0, "name": "5d299fd8c84865e0c9ed41896fd86607", "rental_uris": {"android": "https://dc.lft.to/lastmile_qr_scan", "ios": "https://dc.lft.to/lastmile_qr_scan"}, "lat": 38.92607133333333, "bike_id": "5d299fd8c84865e0c9ed41896fd86607", "is_disabled": 0, "lon": -77.03763716666667, "is_reserved": 0, "fusion_lat": 0.0, "type": "electric_scooter"}, {"fusion_lon": 0.0, "name": "8d97302f04aead7b01584262fde58fe2", "rental_uris": {"android": "https://dc.lft.to/lastmile_qr_scan", "ios": "https://dc.lft.to/lastmile_qr_scan"}, "lat": 38.926037666666666, "bike_id": "8d97302f04aead7b01584262fde58fe2", "is_disabled": 0, "lon": -77.02426066666666, "is_reserved": 0, "fusion_lat": 0.0, "type": "electric_bike"}, {"fusion_lon": 0.0, "name": "9a3c0a01f5e28905ec66115d3439e112", "rental_uris": {"android": "https://dc.lft.to/lastmile_qr_scan", "ios": "https://dc.lft.to/lastmile_qr_scan"}, "lat": 38.9188315, "bike_id": "9a3c0a01f5e28905ec66115d3439e112", "is_disabled": 0, "lon": -77.01892466666666, "is_reserved": 0, "fusion_lat": 0.0, "type": "electric_scooter"}, {"fusion_lon": 0.0, "name": "e1e3dae40ccd597fee7b672b551cafdc", "rental_uris": {"android": "https://dc.lft.to/lastmile_qr_scan", "ios": "https://dc.lft.to/lastmile_qr_scan"}, "lat": 38.89721933333333, "bike_id": "e1e3dae40ccd597fee7b672b551cafdc", "is_disabled": 0, "lon": -77.02147233333334, "is_reserved": 0, "fusion_lat": 0.0, "type": "electric_scooter"}, {"fusion_lon": 0.0, "name": "d90c436cfc8aced14d2d17c3a3b32ef3", "rental_uris": {"android": "https://dc.lft.to/lastmile_qr_scan", "ios": "https://dc.lft.to/lastmile_qr_scan"}, "lat": 38.92079566666666, "bike_id": "d90c436cfc8aced14d2d17c3a3b32ef3", "is_disabled": 0, "lon": -77.02315183333333, "is_reserved": 0, "fusion_lat": 0.0, "type": "electric_scooter"}, {"fusion_lon": 0.0, "name": "b54c34b04b726efc455f8b5af78d6843", "rental_uris": {"android": "https://dc.lft.to/lastmile_qr_scan", "ios": "https://dc.lft.to/lastmile_qr_scan"}, "lat": 38.92796333333333, "bike_id": "b54c34b04b726efc455f8b5af78d6843", "is_disabled": 0, "lon": -77.03696333333333, "is_reserved": 0, "fusion_lat": 0.0, "type": "electric_scooter"}, {"fusion_lon": 0.0, "name": "cae460f18e06729eaa860a28c79ffd6b", "rental_uris": {"android": "https://dc.lft.to/lastmile_qr_scan", "ios": "https://dc.lft.to/lastmile_qr_scan"}, "lat": 38.90394783333333, "bike_id": "cae460f18e06729eaa860a28c79ffd6b", "is_disabled": 0, "lon": -76.99008883333333, "is_reserved": 0, "fusion_lat": 0.0, "type": "electric_scooter"}, {"fusion_lon": 0.0, "name": "98f6104e0b57335858c5e4489863054b", "rental_uris": {"android": "https://dc.lft.to/lastmile_qr_scan", "ios": "https://dc.lft.to/lastmile_qr_scan"}, "lat": 38.923327666666665, "bike_id": "98f6104e0b57335858c5e4489863054b", "is_disabled": 0, "lon": -77.03681716666667, "is_reserved": 0, "fusion_lat": 0.0, "type": "electric_scooter"}, {"fusion_lon": 0.0, "name": "02822ff9e2e0fc90c1c4f59cac1661e0", "rental_uris": {"android": "https://dc.lft.to/lastmile_qr_scan", "ios": "https://dc.lft.to/lastmile_qr_scan"}, "lat": 38.919099333333335, "bike_id": "02822ff9e2e0fc90c1c4f59cac1661e0", "is_disabled": 0, "lon": -77.046301, "is_reserved": 0, "fusion_lat": 0.0, "type": "electric_scooter"}, {"fusion_lon": 0.0, "name": "5e959be681b64b6e28608ca6c15f8471", "rental_uris": {"android": "https://dc.lft.to/lastmile_qr_scan", "ios": "https://dc.lft.to/lastmile_qr_scan"}, "lat": 38.922402166666664, "bike_id": "5e959be681b64b6e28608ca6c15f8471", "is_disabled": 0, "lon": -77.03043966666667, "is_reserved": 0, "fusion_lat": 0.0, "type": "electric_scooter"}, {"fusion_lon": 0.0, "name": "dedd92a145f076a9e2a21ef5661bcae9", "rental_uris": {"android": "https://dc.lft.to/lastmile_qr_scan", "ios": "https://dc.lft.to/lastmile_qr_scan"}, "lat": 38.92736433333334, "bike_id": "dedd92a145f076a9e2a21ef5661bcae9", "is_disabled": 0, "lon": -77.02591766666667, "is_reserved": 0, "fusion_lat": 0.0, "type": "electric_scooter"}, {"fusion_lon": 0.0, "name": "2377e9dd26d2a45930a604c676feefe2", "rental_uris": {"android": "https://dc.lft.to/lastmile_qr_scan", "ios": "https://dc.lft.to/lastmile_qr_scan"}, "lat": 38.929920333333335, "bike_id": "2377e9dd26d2a45930a604c676feefe2", "is_disabled": 0, "lon": -77.03250166666666, "is_reserved": 0, "fusion_lat": 0.0, "type": "electric_scooter"}, {"fusion_lon": 0.0, "name": "9a29bf8b71be99cf41fc420dc853dfde", "rental_uris": {"android": "https://dc.lft.to/lastmile_qr_scan", "ios": "https://dc.lft.to/lastmile_qr_scan"}, "lat": 38.85714816666667, "bike_id": "9a29bf8b71be99cf41fc420dc853dfde", "is_disabled": 0, "lon": -76.98129016666667, "is_reserved": 0, "fusion_lat": 0.0, "type": "electric_scooter"}, {"fusion_lon": 0.0, "name": "777cc0dfc50164ad0b8a1ec400ca8738", "rental_uris": {"android": "https://dc.lft.to/lastmile_qr_scan", "ios": "https://dc.lft.to/lastmile_qr_scan"}, "lat": 38.926000333333334, "bike_id": "777cc0dfc50164ad0b8a1ec400ca8738", "is_disabled": 0, "lon": -77.0249495, "is_reserved": 0, "fusion_lat": 0.0, "type": "electric_scooter"}, {"fusion_lon": 0.0, "name": "7b6602144ddc4c693da869b009b68455", "rental_uris": {"android": "https://dc.lft.to/lastmile_qr_scan", "ios": "https://dc.lft.to/lastmile_qr_scan"}, "lat": 38.87571116666667, "bike_id": "7b6602144ddc4c693da869b009b68455", "is_disabled": 0, "lon": -77.00589116666667, "is_reserved": 0, "fusion_lat": 0.0, "type": "electric_scooter"}, {"fusion_lon": 0.0, "name": "f3b5ed5d53d213c58e0867278d181af9", "rental_uris": {"android": "https://dc.lft.to/lastmile_qr_scan", "ios": "https://dc.lft.to/lastmile_qr_scan"}, "lat": 38.86474033333333, "bike_id": "f3b5ed5d53d213c58e0867278d181af9", "is_disabled": 0, "lon": -76.98230366666667, "is_reserved": 0, "fusion_lat": 0.0, "type": "electric_scooter"}, {"fusion_lon": 0.0, "name": "f9fb64c9e5f08082d886d11c38bb8c9d", "rental_uris": {"android": "https://dc.lft.to/lastmile_qr_scan", "ios": "https://dc.lft.to/lastmile_qr_scan"}, "lat": 38.902684, "bike_id": "f9fb64c9e5f08082d886d11c38bb8c9d", "is_disabled": 0, "lon": -77.01757333333333, "is_reserved": 0, "fusion_lat": 0.0, "type": "electric_scooter"}, {"fusion_lon": 0.0, "name": "668a983bb344453061ad7ceb56ea3fe3", "rental_uris": {"android": "https://dc.lft.to/lastmile_qr_scan", "ios": "https://dc.lft.to/lastmile_qr_scan"}, "lat": 38.93974583333333, "bike_id": "668a983bb344453061ad7ceb56ea3fe3", "is_disabled": 0, "lon": -76.98614233333333, "is_reserved": 0, "fusion_lat": 0.0, "type": "electric_bike"}, {"fusion_lon": 0.0, "name": "be089e28bd40ef9fc67448af476895bf", "rental_uris": {"android": "https://dc.lft.to/lastmile_qr_scan", "ios": "https://dc.lft.to/lastmile_qr_scan"}, "lat": 38.924706, "bike_id": "be089e28bd40ef9fc67448af476895bf", "is_disabled": 0, "lon": -77.02108333333334, "is_reserved": 0, "fusion_lat": 0.0, "type": "electric_scooter"}, {"fusion_lon": 0.0, "name": "22b5b3240a752fa9e36616fbc7ebf69b", "rental_uris": {"android": "https://dc.lft.to/lastmile_qr_scan", "ios": "https://dc.lft.to/lastmile_qr_scan"}, "lat": 38.921408166666666, "bike_id": "22b5b3240a752fa9e36616fbc7ebf69b", "is_disabled": 0, "lon": -77.0180265, "is_reserved": 0, "fusion_lat": 0.0, "type": "electric_scooter"}, {"fusion_lon": 0.0, "name": "83236331baf880a0ad0dd74fbf0d0e96", "rental_uris": {"android": "https://dc.lft.to/lastmile_qr_scan", "ios": "https://dc.lft.to/lastmile_qr_scan"}, "lat": 38.917030833333335, "bike_id": "83236331baf880a0ad0dd74fbf0d0e96", "is_disabled": 0, "lon": -77.02896383333334, "is_reserved": 0, "fusion_lat": 0.0, "type": "electric_scooter"}, {"fusion_lon": 0.0, "name": "21bd46dfc889f1d7a84ca6aa8f4a8b57", "rental_uris": {"android": "https://dc.lft.to/lastmile_qr_scan", "ios": "https://dc.lft.to/lastmile_qr_scan"}, "lat": 38.85781733333334, "bike_id": "21bd46dfc889f1d7a84ca6aa8f4a8b57", "is_disabled": 0, "lon": -76.9874125, "is_reserved": 0, "fusion_lat": 0.0, "type": "electric_bike"}, {"fusion_lon": 0.0, "name": "09d259e3f8938e171959791e09bb0020", "rental_uris": {"android": "https://dc.lft.to/lastmile_qr_scan", "ios": "https://dc.lft.to/lastmile_qr_scan"}, "lat": 38.92264216666667, "bike_id": "09d259e3f8938e171959791e09bb0020", "is_disabled": 0, "lon": -77.03668933333333, "is_reserved": 0, "fusion_lat": 0.0, "type": "electric_scooter"}, {"fusion_lon": 0.0, "name": "43ab04189083c9d85766c51afeb2a3fe", "rental_uris": {"android": "https://dc.lft.to/lastmile_qr_scan", "ios": "https://dc.lft.to/lastmile_qr_scan"}, "lat": 38.905739, "bike_id": "43ab04189083c9d85766c51afeb2a3fe", "is_disabled": 0, "lon": -77.0348195, "is_reserved": 0, "fusion_lat": 0.0, "type": "electric_scooter"}, {"fusion_lon": 0.0, "name": "65727bbf6785ff4c36302b43faa98291", "rental_uris": {"android": "https://dc.lft.to/lastmile_qr_scan", "ios": "https://dc.lft.to/lastmile_qr_scan"}, "lat": 38.900796666666665, "bike_id": "65727bbf6785ff4c36302b43faa98291", "is_disabled": 0, "lon": -77.02173633333334, "is_reserved": 0, "fusion_lat": 0.0, "type": "electric_scooter"}, {"fusion_lon": 0.0, "name": "24089f6ec71e471257ba7d746c0221bb", "rental_uris": {"android": "https://dc.lft.to/lastmile_qr_scan", "ios": "https://dc.lft.to/lastmile_qr_scan"}, "lat": 38.9095935, "bike_id": "24089f6ec71e471257ba7d746c0221bb", "is_disabled": 0, "lon": -77.014103, "is_reserved": 0, "fusion_lat": 0.0, "type": "electric_scooter"}, {"fusion_lon": 0.0, "name": "2bdc9d00d0f05918ff81962ffa65c70e", "rental_uris": {"android": "https://dc.lft.to/lastmile_qr_scan", "ios": "https://dc.lft.to/lastmile_qr_scan"}, "lat": 38.824314333333334, "bike_id": "2bdc9d00d0f05918ff81962ffa65c70e", "is_disabled": 0, "lon": -77.12041616666667, "is_reserved": 0, "fusion_lat": 0.0, "type": "electric_bike"}, {"fusion_lon": 0.0, "name": "b5a550a378f33a5f690b67f970117184", "rental_uris": {"android": "https://dc.lft.to/lastmile_qr_scan", "ios": "https://dc.lft.to/lastmile_qr_scan"}, "lat": 38.886595666666665, "bike_id": "b5a550a378f33a5f690b67f970117184", "is_disabled": 0, "lon": -76.9367485, "is_reserved": 0, "fusion_lat": 0.0, "type": "electric_scooter"}, {"fusion_lon": 0.0, "name": "cef78730adcdb9c24f599184c0b65bf4", "rental_uris": {"android": "https://dc.lft.to/lastmile_qr_scan", "ios": "https://dc.lft.to/lastmile_qr_scan"}, "lat": 39.084339, "bike_id": "cef78730adcdb9c24f599184c0b65bf4", "is_disabled": 0, "lon": -76.95146766666667, "is_reserved": 0, "fusion_lat": 0.0, "type": "electric_bike"}, {"fusion_lon": 0.0, "name": "2a2341378a872c44df8d9d9a2dbb1f72", "rental_uris": {"android": "https://dc.lft.to/lastmile_qr_scan", "ios": "https://dc.lft.to/lastmile_qr_scan"}, "lat": 38.91924383333333, "bike_id": "2a2341378a872c44df8d9d9a2dbb1f72", "is_disabled": 0, "lon": -77.009914, "is_reserved": 0, "fusion_lat": 0.0, "type": "electric_scooter"}, {"fusion_lon": 0.0, "name": "39ec0d1b670f18aecefb03deac177c59", "rental_uris": {"android": "https://dc.lft.to/lastmile_qr_scan", "ios": "https://dc.lft.to/lastmile_qr_scan"}, "lat": 38.918569, "bike_id": "39ec0d1b670f18aecefb03deac177c59", "is_disabled": 0, "lon": -77.02536916666666, "is_reserved": 0, "fusion_lat": 0.0, "type": "electric_scooter"}, {"fusion_lon": 0.0, "name": "fef065d7cfc1fe64f7172c820dec662b", "rental_uris": {"android": "https://dc.lft.to/lastmile_qr_scan", "ios": "https://dc.lft.to/lastmile_qr_scan"}, "lat": 38.945425, "bike_id": "fef065d7cfc1fe64f7172c820dec662b", "is_disabled": 0, "lon": -77.34454, "is_reserved": 0, "fusion_lat": 0.0, "type": "electric_bike"}, {"fusion_lon": 0.0, "name": "c154fce795718d49a79ee447067cf99e", "rental_uris": {"android": "https://dc.lft.to/lastmile_qr_scan", "ios": "https://dc.lft.to/lastmile_qr_scan"}, "lat": 38.90530583333334, "bike_id": "c154fce795718d49a79ee447067cf99e", "is_disabled": 0, "lon": -77.06528816666666, "is_reserved": 0, "fusion_lat": 0.0, "type": "electric_scooter"}, {"fusion_lon": 0.0, "name": "a2e935b982ca87b0d3a0789961590b17", "rental_uris": {"android": "https://dc.lft.to/lastmile_qr_scan", "ios": "https://dc.lft.to/lastmile_qr_scan"}, "lat": 38.892290833333334, "bike_id": "a2e935b982ca87b0d3a0789961590b17", "is_disabled": 0, "lon": -77.045034, "is_reserved": 0, "fusion_lat": 0.0, "type": "electric_scooter"}, {"fusion_lon": 0.0, "name": "a9a119f8920376de461d90ceab6187ad", "rental_uris": {"android": "https://dc.lft.to/lastmile_qr_scan", "ios": "https://dc.lft.to/lastmile_qr_scan"}, "lat": 38.89604416666667, "bike_id": "a9a119f8920376de461d90ceab6187ad", "is_disabled": 0, "lon": -77.02526583333334, "is_reserved": 0, "fusion_lat": 0.0, "type": "electric_scooter"}, {"fusion_lon": 0.0, "name": "45f06f202eef6991d265f7bfe272544a", "rental_uris": {"android": "https://dc.lft.to/lastmile_qr_scan", "ios": "https://dc.lft.to/lastmile_qr_scan"}, "lat": 38.90971283333333, "bike_id": "45f06f202eef6991d265f7bfe272544a", "is_disabled": 0, "lon": -77.0321455, "is_reserved": 0, "fusion_lat": 0.0, "type": "electric_scooter"}, {"fusion_lon": 0.0, "name": "8e2dddab6257bf3632729dc24a79db29", "rental_uris": {"android": "https://dc.lft.to/lastmile_qr_scan", "ios": "https://dc.lft.to/lastmile_qr_scan"}, "lat": 38.93127666666667, "bike_id": "8e2dddab6257bf3632729dc24a79db29", "is_disabled": 0, "lon": -77.03606966666666, "is_reserved": 0, "fusion_lat": 0.0, "type": "electric_scooter"}, {"fusion_lon": 0.0, "name": "fec67be370eefeb6ed6ea0d014b92452", "rental_uris": {"android": "https://dc.lft.to/lastmile_qr_scan", "ios": "https://dc.lft.to/lastmile_qr_scan"}, "lat": 38.92454816666667, "bike_id": "fec67be370eefeb6ed6ea0d014b92452", "is_disabled": 0, "lon": -77.02156816666667, "is_reserved": 0, "fusion_lat": 0.0, "type": "electric_scooter"}, {"fusion_lon": 0.0, "name": "3a6ff42b1e331a06ec776e49fbdce352", "rental_uris": {"android": "https://dc.lft.to/lastmile_qr_scan", "ios": "https://dc.lft.to/lastmile_qr_scan"}, "lat": 38.926868999999996, "bike_id": "3a6ff42b1e331a06ec776e49fbdce352", "is_disabled": 0, "lon": -77.02967266666667, "is_reserved": 0, "fusion_lat": 0.0, "type": "electric_scooter"}, {"fusion_lon": 0.0, "name": "c3e445a1e4b9b604f3842757c8f1d7ce", "rental_uris": {"android": "https://dc.lft.to/lastmile_qr_scan", "ios": "https://dc.lft.to/lastmile_qr_scan"}, "lat": 38.92489833333333, "bike_id": "c3e445a1e4b9b604f3842757c8f1d7ce", "is_disabled": 0, "lon": -77.0390475, "is_reserved": 0, "fusion_lat": 0.0, "type": "electric_scooter"}, {"fusion_lon": 0.0, "name": "46649e268e5fa8e9f6afb1bbe617f4dd", "rental_uris": {"android": "https://dc.lft.to/lastmile_qr_scan", "ios": "https://dc.lft.to/lastmile_qr_scan"}, "lat": 38.89656816666667, "bike_id": "46649e268e5fa8e9f6afb1bbe617f4dd", "is_disabled": 0, "lon": -77.05035416666666, "is_reserved": 0, "fusion_lat": 0.0, "type": "electric_scooter"}, {"fusion_lon": 0.0, "name": "51548cfc618118db945c8be67a2e136a", "rental_uris": {"android": "https://dc.lft.to/lastmile_qr_scan", "ios": "https://dc.lft.to/lastmile_qr_scan"}, "lat": 38.90429266666666, "bike_id": "51548cfc618118db945c8be67a2e136a", "is_disabled": 0, "lon": -77.02607716666667, "is_reserved": 0, "fusion_lat": 0.0, "type": "electric_scooter"}, {"fusion_lon": 0.0, "name": "7c00d508e9e71df718846c5cb87e4232", "rental_uris": {"android": "https://dc.lft.to/lastmile_qr_scan", "ios": "https://dc.lft.to/lastmile_qr_scan"}, "lat": 38.887732, "bike_id": "7c00d508e9e71df718846c5cb87e4232", "is_disabled": 0, "lon": -76.93268666666667, "is_reserved": 0, "fusion_lat": 0.0, "type": "electric_scooter"}, {"fusion_lon": 0.0, "name": "db6a6fd34707178fbcd7dd53964aacd2", "rental_uris": {"android": "https://dc.lft.to/lastmile_qr_scan", "ios": "https://dc.lft.to/lastmile_qr_scan"}, "lat": 38.90889633333333, "bike_id": "db6a6fd34707178fbcd7dd53964aacd2", "is_disabled": 0, "lon": -77.0005595, "is_reserved": 0, "fusion_lat": 0.0, "type": "electric_scooter"}, {"fusion_lon": 0.0, "name": "99ce50ec36c77e03c46d1a0ac406d424", "rental_uris": {"android": "https://dc.lft.to/lastmile_qr_scan", "ios": "https://dc.lft.to/lastmile_qr_scan"}, "lat": 38.889938666666666, "bike_id": "99ce50ec36c77e03c46d1a0ac406d424", "is_disabled": 0, "lon": -76.99509616666667, "is_reserved": 0, "fusion_lat": 0.0, "type": "electric_scooter"}, {"fusion_lon": 0.0, "name": "b4eca47a751cc20c9ca3fa3925bbd0fd", "rental_uris": {"android": "https://dc.lft.to/lastmile_qr_scan", "ios": "https://dc.lft.to/lastmile_qr_scan"}, "lat": 38.91698866666667, "bike_id": "b4eca47a751cc20c9ca3fa3925bbd0fd", "is_disabled": 0, "lon": -77.01194516666666, "is_reserved": 0, "fusion_lat": 0.0, "type": "electric_scooter"}, {"fusion_lon": 0.0, "name": "ad656fd1336e78e8de1036c5784f4a8f", "rental_uris": {"android": "https://dc.lft.to/lastmile_qr_scan", "ios": "https://dc.lft.to/lastmile_qr_scan"}, "lat": 38.9014655, "bike_id": "ad656fd1336e78e8de1036c5784f4a8f", "is_disabled": 0, "lon": -77.0499815, "is_reserved": 0, "fusion_lat": 0.0, "type": "electric_scooter"}, {"fusion_lon": 0.0, "name": "02dca382697deb51efcbd99610668510", "rental_uris": {"android": "https://dc.lft.to/lastmile_qr_scan", "ios": "https://dc.lft.to/lastmile_qr_scan"}, "lat": 38.89612566666667, "bike_id": "02dca382697deb51efcbd99610668510", "is_disabled": 0, "lon": -77.03054433333334, "is_reserved": 0, "fusion_lat": 0.0, "type": "electric_scooter"}, {"fusion_lon": 0.0, "name": "9b8940324631cca228275e74a588bae6", "rental_uris": {"android": "https://dc.lft.to/lastmile_qr_scan", "ios": "https://dc.lft.to/lastmile_qr_scan"}, "lat": 38.91422633333333, "bike_id": "9b8940324631cca228275e74a588bae6", "is_disabled": 0, "lon": -77.0325775, "is_reserved": 0, "fusion_lat": 0.0, "type": "electric_scooter"}, {"fusion_lon": 0.0, "name": "e2bd2a04915b94666dc71a8bfc0aa79b", "rental_uris": {"android": "https://dc.lft.to/lastmile_qr_scan", "ios": "https://dc.lft.to/lastmile_qr_scan"}, "lat": 38.9325725, "bike_id": "e2bd2a04915b94666dc71a8bfc0aa79b", "is_disabled": 0, "lon": -77.03271433333333, "is_reserved": 0, "fusion_lat": 0.0, "type": "electric_scooter"}, {"fusion_lon": 0.0, "name": "ce6f16e971cbeb9decb9747f2e74971a", "rental_uris": {"android": "https://dc.lft.to/lastmile_qr_scan", "ios": "https://dc.lft.to/lastmile_qr_scan"}, "lat": 38.896014, "bike_id": "ce6f16e971cbeb9decb9747f2e74971a", "is_disabled": 0, "lon": -76.96782983333334, "is_reserved": 0, "fusion_lat": 0.0, "type": "electric_bike"}, {"fusion_lon": 0.0, "name": "2115c593eb2d38209ae25e9d01f0d49c", "rental_uris": {"android": "https://dc.lft.to/lastmile_qr_scan", "ios": "https://dc.lft.to/lastmile_qr_scan"}, "lat": 38.953047166666664, "bike_id": "2115c593eb2d38209ae25e9d01f0d49c", "is_disabled": 0, "lon": -77.02779516666666, "is_reserved": 0, "fusion_lat": 0.0, "type": "electric_scooter"}, {"fusion_lon": 0.0, "name": "0684f0c458797846632005b9150af6d2", "rental_uris": {"android": "https://dc.lft.to/lastmile_qr_scan", "ios": "https://dc.lft.to/lastmile_qr_scan"}, "lat": 38.90679133333333, "bike_id": "0684f0c458797846632005b9150af6d2", "is_disabled": 0, "lon": -77.02689116666667, "is_reserved": 0, "fusion_lat": 0.0, "type": "electric_scooter"}, {"fusion_lon": 0.0, "name": "41ec64790424a68f3eb81d449e143795", "rental_uris": {"android": "https://dc.lft.to/lastmile_qr_scan", "ios": "https://dc.lft.to/lastmile_qr_scan"}, "lat": 38.892206333333334, "bike_id": "41ec64790424a68f3eb81d449e143795", "is_disabled": 0, "lon": -77.02312983333333, "is_reserved": 0, "fusion_lat": 0.0, "type": "electric_scooter"}, {"fusion_lon": 0.0, "name": "68fd3f747edaf7d2f8c73b22a996af3d", "rental_uris": {"android": "https://dc.lft.to/lastmile_qr_scan", "ios": "https://dc.lft.to/lastmile_qr_scan"}, "lat": 38.9301895, "bike_id": "68fd3f747edaf7d2f8c73b22a996af3d", "is_disabled": 0, "lon": -77.02334883333333, "is_reserved": 0, "fusion_lat": 0.0, "type": "electric_scooter"}, {"fusion_lon": 0.0, "name": "ba60edf968407ec655b37f72f491ac39", "rental_uris": {"android": "https://dc.lft.to/lastmile_qr_scan", "ios": "https://dc.lft.to/lastmile_qr_scan"}, "lat": 38.892315333333336, "bike_id": "ba60edf968407ec655b37f72f491ac39", "is_disabled": 0, "lon": -77.023843, "is_reserved": 0, "fusion_lat": 0.0, "type": "electric_scooter"}, {"fusion_lon": 0.0, "name": "e1fab86eabc1c1c2620c65e65f841d96", "rental_uris": {"android": "https://dc.lft.to/lastmile_qr_scan", "ios": "https://dc.lft.to/lastmile_qr_scan"}, "lat": 38.899669, "bike_id": "e1fab86eabc1c1c2620c65e65f841d96", "is_disabled": 0, "lon": -77.02723933333333, "is_reserved": 0, "fusion_lat": 0.0, "type": "electric_scooter"}, {"fusion_lon": 0.0, "name": "853c67d9eab4e06d9176021697dd201f", "rental_uris": {"android": "https://dc.lft.to/lastmile_qr_scan", "ios": "https://dc.lft.to/lastmile_qr_scan"}, "lat": 38.86245816666667, "bike_id": "853c67d9eab4e06d9176021697dd201f", "is_disabled": 0, "lon": -76.99500433333333, "is_reserved": 0, "fusion_lat": 0.0, "type": "electric_scooter"}, {"fusion_lon": 0.0, "name": "428b7101ed9a600c89c348751edbcee2", "rental_uris": {"android": "https://dc.lft.to/lastmile_qr_scan", "ios": "https://dc.lft.to/lastmile_qr_scan"}, "lat": 38.956538, "bike_id": "428b7101ed9a600c89c348751edbcee2", "is_disabled": 0, "lon": -77.01274616666667, "is_reserved": 0, "fusion_lat": 0.0, "type": "electric_scooter"}, {"fusion_lon": 0.0, "name": "0a290e301325b56c2320b4bc8b5fc663", "rental_uris": {"android": "https://dc.lft.to/lastmile_qr_scan", "ios": "https://dc.lft.to/lastmile_qr_scan"}, "lat": 38.886687, "bike_id": "0a290e301325b56c2320b4bc8b5fc663", "is_disabled": 0, "lon": -77.03197766666666, "is_reserved": 0, "fusion_lat": 0.0, "type": "electric_scooter"}, {"fusion_lon": 0.0, "name": "abd0a4d436023b67d63feb958f5122d9", "rental_uris": {"android": "https://dc.lft.to/lastmile_qr_scan", "ios": "https://dc.lft.to/lastmile_qr_scan"}, "lat": 38.95721066666667, "bike_id": "abd0a4d436023b67d63feb958f5122d9", "is_disabled": 0, "lon": -77.0023375, "is_reserved": 0, "fusion_lat": 0.0, "type": "electric_scooter"}, {"fusion_lon": 0.0, "name": "a3ce54899891ce8a70507268fd6fb8d4", "rental_uris": {"android": "https://dc.lft.to/lastmile_qr_scan", "ios": "https://dc.lft.to/lastmile_qr_scan"}, "lat": 38.94729433333333, "bike_id": "a3ce54899891ce8a70507268fd6fb8d4", "is_disabled": 0, "lon": -77.03304933333334, "is_reserved": 0, "fusion_lat": 0.0, "type": "electric_scooter"}, {"fusion_lon": 0.0, "name": "aee0859c4982dfc0a0b98d8e75c2f6bf", "rental_uris": {"android": "https://dc.lft.to/lastmile_qr_scan", "ios": "https://dc.lft.to/lastmile_qr_scan"}, "lat": 38.904046, "bike_id": "aee0859c4982dfc0a0b98d8e75c2f6bf", "is_disabled": 0, "lon": -76.973478, "is_reserved": 0, "fusion_lat": 0.0, "type": "electric_scooter"}, {"fusion_lon": 0.0, "name": "d5add02a5f4dc3027c8417cdba274428", "rental_uris": {"android": "https://dc.lft.to/lastmile_qr_scan", "ios": "https://dc.lft.to/lastmile_qr_scan"}, "lat": 38.89639433333333, "bike_id": "d5add02a5f4dc3027c8417cdba274428", "is_disabled": 0, "lon": -76.9479555, "is_reserved": 0, "fusion_lat": 0.0, "type": "electric_scooter"}, {"fusion_lon": 0.0, "name": "13df947800c40f5c58d650ab3ec323ab", "rental_uris": {"android": "https://dc.lft.to/lastmile_qr_scan", "ios": "https://dc.lft.to/lastmile_qr_scan"}, "lat": 38.957075, "bike_id": "13df947800c40f5c58d650ab3ec323ab", "is_disabled": 0, "lon": -77.03195916666667, "is_reserved": 0, "fusion_lat": 0.0, "type": "electric_scooter"}, {"fusion_lon": 0.0, "name": "176d0c7d539cfd84e90b565dee03e9fc", "rental_uris": {"android": "https://dc.lft.to/lastmile_qr_scan", "ios": "https://dc.lft.to/lastmile_qr_scan"}, "lat": 38.91110783333333, "bike_id": "176d0c7d539cfd84e90b565dee03e9fc", "is_disabled": 0, "lon": -77.011566, "is_reserved": 0, "fusion_lat": 0.0, "type": "electric_scooter"}, {"fusion_lon": 0.0, "name": "56d7e89e28b54de89f1d682681930c72", "rental_uris": {"android": "https://dc.lft.to/lastmile_qr_scan", "ios": "https://dc.lft.to/lastmile_qr_scan"}, "lat": 38.83814366666667, "bike_id": "56d7e89e28b54de89f1d682681930c72", "is_disabled": 0, "lon": -77.09522933333334, "is_reserved": 0, "fusion_lat": 0.0, "type": "electric_bike"}, {"fusion_lon": 0.0, "name": "de41b41a86957a1f0caf64190f31993d", "rental_uris": {"android": "https://dc.lft.to/lastmile_qr_scan", "ios": "https://dc.lft.to/lastmile_qr_scan"}, "lat": 38.953470333333335, "bike_id": "de41b41a86957a1f0caf64190f31993d", "is_disabled": 0, "lon": -77.00763516666666, "is_reserved": 0, "fusion_lat": 0.0, "type": "electric_scooter"}, {"fusion_lon": 0.0, "name": "05f61dd610b174c9e5e0f119af85ec4b", "rental_uris": {"android": "https://dc.lft.to/lastmile_qr_scan", "ios": "https://dc.lft.to/lastmile_qr_scan"}, "lat": 38.8954595, "bike_id": "05f61dd610b174c9e5e0f119af85ec4b", "is_disabled": 0, "lon": -76.98339016666667, "is_reserved": 0, "fusion_lat": 0.0, "type": "electric_scooter"}, {"fusion_lon": 0.0, "name": "8de1643f07d367add7f7329117ab5580", "rental_uris": {"android": "https://dc.lft.to/lastmile_qr_scan", "ios": "https://dc.lft.to/lastmile_qr_scan"}, "lat": 38.924928, "bike_id": "8de1643f07d367add7f7329117ab5580", "is_disabled": 0, "lon": -77.03938133333334, "is_reserved": 0, "fusion_lat": 0.0, "type": "electric_scooter"}, {"fusion_lon": 0.0, "name": "9e15cc8f8b7dda3b3f68842a65739023", "rental_uris": {"android": "https://dc.lft.to/lastmile_qr_scan", "ios": "https://dc.lft.to/lastmile_qr_scan"}, "lat": 38.89688966666667, "bike_id": "9e15cc8f8b7dda3b3f68842a65739023", "is_disabled": 0, "lon": -76.9279145, "is_reserved": 0, "fusion_lat": 0.0, "type": "electric_scooter"}, {"fusion_lon": 0.0, "name": "19042d84cd75dc04cb5bea3e8b8cc261", "rental_uris": {"android": "https://dc.lft.to/lastmile_qr_scan", "ios": "https://dc.lft.to/lastmile_qr_scan"}, "lat": 38.924589166666664, "bike_id": "19042d84cd75dc04cb5bea3e8b8cc261", "is_disabled": 0, "lon": -77.035379, "is_reserved": 0, "fusion_lat": 0.0, "type": "electric_scooter"}, {"fusion_lon": 0.0, "name": "518a6140653401f55d8e3485a834382b", "rental_uris": {"android": "https://dc.lft.to/lastmile_qr_scan", "ios": "https://dc.lft.to/lastmile_qr_scan"}, "lat": 38.913203833333334, "bike_id": "518a6140653401f55d8e3485a834382b", "is_disabled": 0, "lon": -77.03995166666667, "is_reserved": 0, "fusion_lat": 0.0, "type": "electric_scooter"}, {"fusion_lon": 0.0, "name": "18fcc00541b40b2aa6543aab5aff86c5", "rental_uris": {"android": "https://dc.lft.to/lastmile_qr_scan", "ios": "https://dc.lft.to/lastmile_qr_scan"}, "lat": 38.906781, "bike_id": "18fcc00541b40b2aa6543aab5aff86c5", "is_disabled": 0, "lon": -77.02697816666667, "is_reserved": 0, "fusion_lat": 0.0, "type": "electric_scooter"}, {"fusion_lon": 0.0, "name": "aee64f88b245e5c20a3557c2be655f01", "rental_uris": {"android": "https://dc.lft.to/lastmile_qr_scan", "ios": "https://dc.lft.to/lastmile_qr_scan"}, "lat": 38.921264666666666, "bike_id": "aee64f88b245e5c20a3557c2be655f01", "is_disabled": 0, "lon": -77.02081633333333, "is_reserved": 0, "fusion_lat": 0.0, "type": "electric_scooter"}, {"fusion_lon": 0.0, "name": "2fe5d5a3508d60a62b8d3294506960ff", "rental_uris": {"android": "https://dc.lft.to/lastmile_qr_scan", "ios": "https://dc.lft.to/lastmile_qr_scan"}, "lat": 38.893902833333335, "bike_id": "2fe5d5a3508d60a62b8d3294506960ff", "is_disabled": 0, "lon": -76.868477, "is_reserved": 0, "fusion_lat": 0.0, "type": "electric_bike"}, {"fusion_lon": 0.0, "name": "ccabb301be6f41df038315d6286b9530", "rental_uris": {"android": "https://dc.lft.to/lastmile_qr_scan", "ios": "https://dc.lft.to/lastmile_qr_scan"}, "lat": 38.92072016666667, "bike_id": "ccabb301be6f41df038315d6286b9530", "is_disabled": 0, "lon": -77.022652, "is_reserved": 0, "fusion_lat": 0.0, "type": "electric_scooter"}, {"fusion_lon": 0.0, "name": "ba645eafbd9b94593f3110032089c244", "rental_uris": {"android": "https://dc.lft.to/lastmile_qr_scan", "ios": "https://dc.lft.to/lastmile_qr_scan"}, "lat": 38.907718833333334, "bike_id": "ba645eafbd9b94593f3110032089c244", "is_disabled": 0, "lon": -77.02459966666666, "is_reserved": 0, "fusion_lat": 0.0, "type": "electric_scooter"}, {"fusion_lon": 0.0, "name": "1607f44ad846b1e72ec8ca7655a39a4d", "rental_uris": {"android": "https://dc.lft.to/lastmile_qr_scan", "ios": "https://dc.lft.to/lastmile_qr_scan"}, "lat": 38.90395083333333, "bike_id": "1607f44ad846b1e72ec8ca7655a39a4d", "is_disabled": 0, "lon": -76.98106116666666, "is_reserved": 0, "fusion_lat": 0.0, "type": "electric_scooter"}, {"fusion_lon": 0.0, "name": "1a86f01442ea031abae3fc5cf31f25e3", "rental_uris": {"android": "https://dc.lft.to/lastmile_qr_scan", "ios": "https://dc.lft.to/lastmile_qr_scan"}, "lat": 38.899993333333335, "bike_id": "1a86f01442ea031abae3fc5cf31f25e3", "is_disabled": 0, "lon": -77.03294533333333, "is_reserved": 0, "fusion_lat": 0.0, "type": "electric_scooter"}, {"fusion_lon": 0.0, "name": "a72169262109e94a8c43cd269ec9d57b", "rental_uris": {"android": "https://dc.lft.to/lastmile_qr_scan", "ios": "https://dc.lft.to/lastmile_qr_scan"}, "lat": 38.9085615, "bike_id": "a72169262109e94a8c43cd269ec9d57b", "is_disabled": 0, "lon": -77.01014666666667, "is_reserved": 0, "fusion_lat": 0.0, "type": "electric_scooter"}, {"fusion_lon": 0.0, "name": "74e040edf583e8eeacb11ad1b9349ea3", "rental_uris": {"android": "https://dc.lft.to/lastmile_qr_scan", "ios": "https://dc.lft.to/lastmile_qr_scan"}, "lat": 38.91259016666667, "bike_id": "74e040edf583e8eeacb11ad1b9349ea3", "is_disabled": 0, "lon": -77.03818883333334, "is_reserved": 0, "fusion_lat": 0.0, "type": "electric_scooter"}, {"fusion_lon": 0.0, "name": "6277f2b2190009c90911f4f11bd5d9d1", "rental_uris": {"android": "https://dc.lft.to/lastmile_qr_scan", "ios": "https://dc.lft.to/lastmile_qr_scan"}, "lat": 38.93504566666667, "bike_id": "6277f2b2190009c90911f4f11bd5d9d1", "is_disabled": 0, "lon": -77.03712566666667, "is_reserved": 0, "fusion_lat": 0.0, "type": "electric_scooter"}, {"fusion_lon": 0.0, "name": "78a8420a72484ef162d65e7835ca4662", "rental_uris": {"android": "https://dc.lft.to/lastmile_qr_scan", "ios": "https://dc.lft.to/lastmile_qr_scan"}, "lat": 38.92643016666667, "bike_id": "78a8420a72484ef162d65e7835ca4662", "is_disabled": 0, "lon": -77.0406335, "is_reserved": 0, "fusion_lat": 0.0, "type": "electric_scooter"}, {"fusion_lon": 0.0, "name": "8a8e507fbee8c0e4bf1f425bd8cbe117", "rental_uris": {"android": "https://dc.lft.to/lastmile_qr_scan", "ios": "https://dc.lft.to/lastmile_qr_scan"}, "lat": 38.924570333333335, "bike_id": "8a8e507fbee8c0e4bf1f425bd8cbe117", "is_disabled": 0, "lon": -77.03985166666666, "is_reserved": 0, "fusion_lat": 0.0, "type": "electric_scooter"}, {"fusion_lon": 0.0, "name": "ad3632ac09fb6b83663dbfd55836f942", "rental_uris": {"android": "https://dc.lft.to/lastmile_qr_scan", "ios": "https://dc.lft.to/lastmile_qr_scan"}, "lat": 38.928015, "bike_id": "ad3632ac09fb6b83663dbfd55836f942", "is_disabled": 0, "lon": -77.055182, "is_reserved": 0, "fusion_lat": 0.0, "type": "electric_scooter"}, {"fusion_lon": 0.0, "name": "adf12c999373ddb28d7d422de4c28faf", "rental_uris": {"android": "https://dc.lft.to/lastmile_qr_scan", "ios": "https://dc.lft.to/lastmile_qr_scan"}, "lat": 38.87689983333333, "bike_id": "adf12c999373ddb28d7d422de4c28faf", "is_disabled": 0, "lon": -77.01968716666667, "is_reserved": 0, "fusion_lat": 0.0, "type": "electric_scooter"}, {"fusion_lon": 0.0, "name": "cb40585d0bd65f1e2bf09af7bded55ea", "rental_uris": {"android": "https://dc.lft.to/lastmile_qr_scan", "ios": "https://dc.lft.to/lastmile_qr_scan"}, "lat": 38.9169145, "bike_id": "cb40585d0bd65f1e2bf09af7bded55ea", "is_disabled": 0, "lon": -77.03825233333333, "is_reserved": 0, "fusion_lat": 0.0, "type": "electric_scooter"}, {"fusion_lon": 0.0, "name": "58cebab19adf63981a988164fbe30859", "rental_uris": {"android": "https://dc.lft.to/lastmile_qr_scan", "ios": "https://dc.lft.to/lastmile_qr_scan"}, "lat": 38.920961166666665, "bike_id": "58cebab19adf63981a988164fbe30859", "is_disabled": 0, "lon": -77.0231855, "is_reserved": 0, "fusion_lat": 0.0, "type": "electric_scooter"}, {"fusion_lon": 0.0, "name": "5fd41751ca559aa2df1f5d1510229e19", "rental_uris": {"android": "https://dc.lft.to/lastmile_qr_scan", "ios": "https://dc.lft.to/lastmile_qr_scan"}, "lat": 38.9156875, "bike_id": "5fd41751ca559aa2df1f5d1510229e19", "is_disabled": 0, "lon": -77.01971433333334, "is_reserved": 0, "fusion_lat": 0.0, "type": "electric_scooter"}, {"fusion_lon": 0.0, "name": "052135933c8fd658a746bc1eeee3469c", "rental_uris": {"android": "https://dc.lft.to/lastmile_qr_scan", "ios": "https://dc.lft.to/lastmile_qr_scan"}, "lat": 38.8974505, "bike_id": "052135933c8fd658a746bc1eeee3469c", "is_disabled": 0, "lon": -77.0459155, "is_reserved": 0, "fusion_lat": 0.0, "type": "electric_scooter"}, {"fusion_lon": 0.0, "name": "2d257c70022edd9458e2254f0b9e8a19", "rental_uris": {"android": "https://dc.lft.to/lastmile_qr_scan", "ios": "https://dc.lft.to/lastmile_qr_scan"}, "lat": 38.9256235, "bike_id": "2d257c70022edd9458e2254f0b9e8a19", "is_disabled": 0, "lon": -77.02697983333333, "is_reserved": 0, "fusion_lat": 0.0, "type": "electric_scooter"}, {"fusion_lon": 0.0, "name": "7b02f994aee01605b6e46ef292a06dc6", "rental_uris": {"android": "https://dc.lft.to/lastmile_qr_scan", "ios": "https://dc.lft.to/lastmile_qr_scan"}, "lat": 38.91297316666667, "bike_id": "7b02f994aee01605b6e46ef292a06dc6", "is_disabled": 0, "lon": -77.04039683333333, "is_reserved": 0, "fusion_lat": 0.0, "type": "electric_scooter"}, {"fusion_lon": 0.0, "name": "3bedd894dc653832b891307f0e0fdffd", "rental_uris": {"android": "https://dc.lft.to/lastmile_qr_scan", "ios": "https://dc.lft.to/lastmile_qr_scan"}, "lat": 38.94968683333333, "bike_id": "3bedd894dc653832b891307f0e0fdffd", "is_disabled": 0, "lon": -77.02346216666666, "is_reserved": 0, "fusion_lat": 0.0, "type": "electric_scooter"}, {"fusion_lon": 0.0, "name": "a8e3d1f98728a804745a369d4133bdd8", "rental_uris": {"android": "https://dc.lft.to/lastmile_qr_scan", "ios": "https://dc.lft.to/lastmile_qr_scan"}, "lat": 38.90958783333333, "bike_id": "a8e3d1f98728a804745a369d4133bdd8", "is_disabled": 0, "lon": -77.02281766666667, "is_reserved": 0, "fusion_lat": 0.0, "type": "electric_scooter"}, {"fusion_lon": 0.0, "name": "abac47c9e4ead33d5c645a264b6fe85a", "rental_uris": {"android": "https://dc.lft.to/lastmile_qr_scan", "ios": "https://dc.lft.to/lastmile_qr_scan"}, "lat": 38.9151475, "bike_id": "abac47c9e4ead33d5c645a264b6fe85a", "is_disabled": 0, "lon": -77.0432725, "is_reserved": 0, "fusion_lat": 0.0, "type": "electric_scooter"}, {"fusion_lon": 0.0, "name": "21c1fe4f23312e336a9d213a8181f542", "rental_uris": {"android": "https://dc.lft.to/lastmile_qr_scan", "ios": "https://dc.lft.to/lastmile_qr_scan"}, "lat": 38.9142735, "bike_id": "21c1fe4f23312e336a9d213a8181f542", "is_disabled": 0, "lon": -77.03191916666667, "is_reserved": 0, "fusion_lat": 0.0, "type": "electric_scooter"}, {"fusion_lon": 0.0, "name": "5f9e2f5525d655771f5b69e436bac01c", "rental_uris": {"android": "https://dc.lft.to/lastmile_qr_scan", "ios": "https://dc.lft.to/lastmile_qr_scan"}, "lat": 38.8422775, "bike_id": "5f9e2f5525d655771f5b69e436bac01c", "is_disabled": 0, "lon": -76.948897, "is_reserved": 0, "fusion_lat": 0.0, "type": "electric_bike"}, {"fusion_lon": 0.0, "name": "e69586c8bfa58fddc49c5c791322fc2d", "rental_uris": {"android": "https://dc.lft.to/lastmile_qr_scan", "ios": "https://dc.lft.to/lastmile_qr_scan"}, "lat": 38.924079, "bike_id": "e69586c8bfa58fddc49c5c791322fc2d", "is_disabled": 0, "lon": -77.02709416666667, "is_reserved": 0, "fusion_lat": 0.0, "type": "electric_scooter"}, {"fusion_lon": 0.0, "name": "49f7d10cfdb0890a461bc57e923edd0c", "rental_uris": {"android": "https://dc.lft.to/lastmile_qr_scan", "ios": "https://dc.lft.to/lastmile_qr_scan"}, "lat": 38.90650616666667, "bike_id": "49f7d10cfdb0890a461bc57e923edd0c", "is_disabled": 0, "lon": -77.05919316666666, "is_reserved": 0, "fusion_lat": 0.0, "type": "electric_scooter"}, {"fusion_lon": 0.0, "name": "4821fdbea6c907e128d616085ca61666", "rental_uris": {"android": "https://dc.lft.to/lastmile_qr_scan", "ios": "https://dc.lft.to/lastmile_qr_scan"}, "lat": 38.91866366666667, "bike_id": "4821fdbea6c907e128d616085ca61666", "is_disabled": 0, "lon": -77.0483625, "is_reserved": 0, "fusion_lat": 0.0, "type": "electric_scooter"}, {"fusion_lon": 0.0, "name": "ee62cbdf9f0dfa60a22c0adf1a43aaaa", "rental_uris": {"android": "https://dc.lft.to/lastmile_qr_scan", "ios": "https://dc.lft.to/lastmile_qr_scan"}, "lat": 38.888694, "bike_id": "ee62cbdf9f0dfa60a22c0adf1a43aaaa", "is_disabled": 0, "lon": -77.04002266666667, "is_reserved": 0, "fusion_lat": 0.0, "type": "electric_scooter"}, {"fusion_lon": 0.0, "name": "76d2c4d913d3ef400e4f065adcdb430b", "rental_uris": {"android": "https://dc.lft.to/lastmile_qr_scan", "ios": "https://dc.lft.to/lastmile_qr_scan"}, "lat": 38.911839666666665, "bike_id": "76d2c4d913d3ef400e4f065adcdb430b", "is_disabled": 0, "lon": -77.03826666666667, "is_reserved": 0, "fusion_lat": 0.0, "type": "electric_scooter"}, {"fusion_lon": 0.0, "name": "b8c82a5eb915911dbcc1c425ed9173b4", "rental_uris": {"android": "https://dc.lft.to/lastmile_qr_scan", "ios": "https://dc.lft.to/lastmile_qr_scan"}, "lat": 38.923625333333334, "bike_id": "b8c82a5eb915911dbcc1c425ed9173b4", "is_disabled": 0, "lon": -77.05030966666666, "is_reserved": 0, "fusion_lat": 0.0, "type": "electric_scooter"}, {"fusion_lon": 0.0, "name": "cca30e689ecc170575fd8850a40bfa39", "rental_uris": {"android": "https://dc.lft.to/lastmile_qr_scan", "ios": "https://dc.lft.to/lastmile_qr_scan"}, "lat": 38.90333116666667, "bike_id": "cca30e689ecc170575fd8850a40bfa39", "is_disabled": 0, "lon": -76.93369833333334, "is_reserved": 0, "fusion_lat": 0.0, "type": "electric_bike"}, {"fusion_lon": 0.0, "name": "f3bf931a1a8652ddaf628fd93e2d9b0a", "rental_uris": {"android": "https://dc.lft.to/lastmile_qr_scan", "ios": "https://dc.lft.to/lastmile_qr_scan"}, "lat": 38.9312335, "bike_id": "f3bf931a1a8652ddaf628fd93e2d9b0a", "is_disabled": 0, "lon": -77.0207045, "is_reserved": 0, "fusion_lat": 0.0, "type": "electric_scooter"}, {"fusion_lon": 0.0, "name": "8d9c812f5cdeb193fc45fd8a62f90012", "rental_uris": {"android": "https://dc.lft.to/lastmile_qr_scan", "ios": "https://dc.lft.to/lastmile_qr_scan"}, "lat": 38.793370333333336, "bike_id": "8d9c812f5cdeb193fc45fd8a62f90012", "is_disabled": 0, "lon": -77.00052033333333, "is_reserved": 0, "fusion_lat": 0.0, "type": "electric_bike"}, {"fusion_lon": 0.0, "name": "f68348cda7b3fcd081036baf14470573", "rental_uris": {"android": "https://dc.lft.to/lastmile_qr_scan", "ios": "https://dc.lft.to/lastmile_qr_scan"}, "lat": 38.93261283333333, "bike_id": "f68348cda7b3fcd081036baf14470573", "is_disabled": 0, "lon": -77.0327015, "is_reserved": 0, "fusion_lat": 0.0, "type": "electric_scooter"}, {"fusion_lon": 0.0, "name": "993b39890db0741f983c20a355c7ce1f", "rental_uris": {"android": "https://dc.lft.to/lastmile_qr_scan", "ios": "https://dc.lft.to/lastmile_qr_scan"}, "lat": 38.938231333333334, "bike_id": "993b39890db0741f983c20a355c7ce1f", "is_disabled": 0, "lon": -77.101743, "is_reserved": 0, "fusion_lat": 0.0, "type": "electric_bike"}, {"fusion_lon": 0.0, "name": "de5826536793eaa2e7926f257565e587", "rental_uris": {"android": "https://dc.lft.to/lastmile_qr_scan", "ios": "https://dc.lft.to/lastmile_qr_scan"}, "lat": 38.9112225, "bike_id": "de5826536793eaa2e7926f257565e587", "is_disabled": 0, "lon": -77.03834533333334, "is_reserved": 0, "fusion_lat": 0.0, "type": "electric_scooter"}, {"fusion_lon": 0.0, "name": "d437b69155fc3a254970eae796fb116e", "rental_uris": {"android": "https://dc.lft.to/lastmile_qr_scan", "ios": "https://dc.lft.to/lastmile_qr_scan"}, "lat": 38.86867266666667, "bike_id": "d437b69155fc3a254970eae796fb116e", "is_disabled": 0, "lon": -76.986577, "is_reserved": 0, "fusion_lat": 0.0, "type": "electric_scooter"}, {"fusion_lon": 0.0, "name": "e726b2fa726ac4207ec62ae37e81c3c3", "rental_uris": {"android": "https://dc.lft.to/lastmile_qr_scan", "ios": "https://dc.lft.to/lastmile_qr_scan"}, "lat": 38.89257533333333, "bike_id": "e726b2fa726ac4207ec62ae37e81c3c3", "is_disabled": 0, "lon": -77.00220083333333, "is_reserved": 0, "fusion_lat": 0.0, "type": "electric_scooter"}, {"fusion_lon": 0.0, "name": "f80ea914e60b7adee2b63710e5e155f5", "rental_uris": {"android": "https://dc.lft.to/lastmile_qr_scan", "ios": "https://dc.lft.to/lastmile_qr_scan"}, "lat": 38.92027216666666, "bike_id": "f80ea914e60b7adee2b63710e5e155f5", "is_disabled": 0, "lon": -77.03084466666667, "is_reserved": 0, "fusion_lat": 0.0, "type": "electric_scooter"}, {"fusion_lon": 0.0, "name": "e05db879247b4cceef03f812434b1370", "rental_uris": {"android": "https://dc.lft.to/lastmile_qr_scan", "ios": "https://dc.lft.to/lastmile_qr_scan"}, "lat": 38.9035965, "bike_id": "e05db879247b4cceef03f812434b1370", "is_disabled": 0, "lon": -77.00735916666666, "is_reserved": 0, "fusion_lat": 0.0, "type": "electric_scooter"}, {"fusion_lon": 0.0, "name": "d6305e501f17c64f77ad1a3be2e42b90", "rental_uris": {"android": "https://dc.lft.to/lastmile_qr_scan", "ios": "https://dc.lft.to/lastmile_qr_scan"}, "lat": 38.896117, "bike_id": "d6305e501f17c64f77ad1a3be2e42b90", "is_disabled": 0, "lon": -77.0508415, "is_reserved": 0, "fusion_lat": 0.0, "type": "electric_scooter"}, {"fusion_lon": 0.0, "name": "4d72c04938254d3f850c9d0f9ca5a7d2", "rental_uris": {"android": "https://dc.lft.to/lastmile_qr_scan", "ios": "https://dc.lft.to/lastmile_qr_scan"}, "lat": 38.903955333333336, "bike_id": "4d72c04938254d3f850c9d0f9ca5a7d2", "is_disabled": 0, "lon": -77.0483215, "is_reserved": 0, "fusion_lat": 0.0, "type": "electric_scooter"}, {"fusion_lon": 0.0, "name": "b81411ff036173cedb1ad855b4ba13c3", "rental_uris": {"android": "https://dc.lft.to/lastmile_qr_scan", "ios": "https://dc.lft.to/lastmile_qr_scan"}, "lat": 38.900399666666665, "bike_id": "b81411ff036173cedb1ad855b4ba13c3", "is_disabled": 0, "lon": -77.00204416666666, "is_reserved": 0, "fusion_lat": 0.0, "type": "electric_scooter"}, {"fusion_lon": 0.0, "name": "70acfb51200967b199e9b2173467d377", "rental_uris": {"android": "https://dc.lft.to/lastmile_qr_scan", "ios": "https://dc.lft.to/lastmile_qr_scan"}, "lat": 38.901312, "bike_id": "70acfb51200967b199e9b2173467d377", "is_disabled": 0, "lon": -77.04479466666666, "is_reserved": 0, "fusion_lat": 0.0, "type": "electric_scooter"}, {"fusion_lon": 0.0, "name": "56f5b1b9ca1ab93b8ca8d0e2db56ccc4", "rental_uris": {"android": "https://dc.lft.to/lastmile_qr_scan", "ios": "https://dc.lft.to/lastmile_qr_scan"}, "lat": 38.91675033333333, "bike_id": "56f5b1b9ca1ab93b8ca8d0e2db56ccc4", "is_disabled": 0, "lon": -77.02957783333333, "is_reserved": 0, "fusion_lat": 0.0, "type": "electric_scooter"}, {"fusion_lon": 0.0, "name": "ea2f677bb8818595653aeeccb3411e83", "rental_uris": {"android": "https://dc.lft.to/lastmile_qr_scan", "ios": "https://dc.lft.to/lastmile_qr_scan"}, "lat": 38.906977166666664, "bike_id": "ea2f677bb8818595653aeeccb3411e83", "is_disabled": 0, "lon": -77.01113966666666, "is_reserved": 0, "fusion_lat": 0.0, "type": "electric_scooter"}, {"fusion_lon": 0.0, "name": "85f156817739a6b7e48d61650bbe5b0a", "rental_uris": {"android": "https://dc.lft.to/lastmile_qr_scan", "ios": "https://dc.lft.to/lastmile_qr_scan"}, "lat": 38.928377833333336, "bike_id": "85f156817739a6b7e48d61650bbe5b0a", "is_disabled": 0, "lon": -77.01409816666667, "is_reserved": 0, "fusion_lat": 0.0, "type": "electric_scooter"}, {"fusion_lon": 0.0, "name": "74670c2589c12c49a6175d620bf577a7", "rental_uris": {"android": "https://dc.lft.to/lastmile_qr_scan", "ios": "https://dc.lft.to/lastmile_qr_scan"}, "lat": 38.9003485, "bike_id": "74670c2589c12c49a6175d620bf577a7", "is_disabled": 0, "lon": -76.98843566666666, "is_reserved": 0, "fusion_lat": 0.0, "type": "electric_scooter"}, {"fusion_lon": 0.0, "name": "222a9f3494f92f0c1f46379cf710101e", "rental_uris": {"android": "https://dc.lft.to/lastmile_qr_scan", "ios": "https://dc.lft.to/lastmile_qr_scan"}, "lat": 38.806880666666665, "bike_id": "222a9f3494f92f0c1f46379cf710101e", "is_disabled": 0, "lon": -77.1337925, "is_reserved": 0, "fusion_lat": 0.0, "type": "electric_bike"}, {"fusion_lon": 0.0, "name": "1574f90a8e77c4770e206be7ed7afe5c", "rental_uris": {"android": "https://dc.lft.to/lastmile_qr_scan", "ios": "https://dc.lft.to/lastmile_qr_scan"}, "lat": 38.901788833333335, "bike_id": "1574f90a8e77c4770e206be7ed7afe5c", "is_disabled": 0, "lon": -77.02410316666666, "is_reserved": 0, "fusion_lat": 0.0, "type": "electric_scooter"}, {"fusion_lon": 0.0, "name": "3bf6d33d961762f0d7bf7a890d6de4aa", "rental_uris": {"android": "https://dc.lft.to/lastmile_qr_scan", "ios": "https://dc.lft.to/lastmile_qr_scan"}, "lat": 38.9073145, "bike_id": "3bf6d33d961762f0d7bf7a890d6de4aa", "is_disabled": 0, "lon": -77.0279625, "is_reserved": 0, "fusion_lat": 0.0, "type": "electric_scooter"}, {"fusion_lon": 0.0, "name": "66a92d76b1a8f9c0404df41ba81e7a26", "rental_uris": {"android": "https://dc.lft.to/lastmile_qr_scan", "ios": "https://dc.lft.to/lastmile_qr_scan"}, "lat": 38.92251133333333, "bike_id": "66a92d76b1a8f9c0404df41ba81e7a26", "is_disabled": 0, "lon": -77.0307985, "is_reserved": 0, "fusion_lat": 0.0, "type": "electric_scooter"}, {"fusion_lon": 0.0, "name": "2eaf7850aafa3fe5c0c3650a160c8b3b", "rental_uris": {"android": "https://dc.lft.to/lastmile_qr_scan", "ios": "https://dc.lft.to/lastmile_qr_scan"}, "lat": 38.89885433333333, "bike_id": "2eaf7850aafa3fe5c0c3650a160c8b3b", "is_disabled": 0, "lon": -77.03279783333333, "is_reserved": 0, "fusion_lat": 0.0, "type": "electric_scooter"}, {"fusion_lon": 0.0, "name": "49cf6eadda88573db7dc8e21ccd96638", "rental_uris": {"android": "https://dc.lft.to/lastmile_qr_scan", "ios": "https://dc.lft.to/lastmile_qr_scan"}, "lat": 38.9426085, "bike_id": "49cf6eadda88573db7dc8e21ccd96638", "is_disabled": 0, "lon": -76.99067733333334, "is_reserved": 0, "fusion_lat": 0.0, "type": "electric_bike"}, {"fusion_lon": 0.0, "name": "a9fd32ae0167879fd7ad911db7b87179", "rental_uris": {"android": "https://dc.lft.to/lastmile_qr_scan", "ios": "https://dc.lft.to/lastmile_qr_scan"}, "lat": 38.9640595, "bike_id": "a9fd32ae0167879fd7ad911db7b87179", "is_disabled": 0, "lon": -77.02779116666666, "is_reserved": 0, "fusion_lat": 0.0, "type": "electric_scooter"}, {"fusion_lon": 0.0, "name": "8b0f7d88515ce7fc2d4986671ece6f8c", "rental_uris": {"android": "https://dc.lft.to/lastmile_qr_scan", "ios": "https://dc.lft.to/lastmile_qr_scan"}, "lat": 38.903775, "bike_id": "8b0f7d88515ce7fc2d4986671ece6f8c", "is_disabled": 0, "lon": -77.01791866666667, "is_reserved": 0, "fusion_lat": 0.0, "type": "electric_scooter"}, {"fusion_lon": 0.0, "name": "3c56e23bb45698640aad169c7b6c8275", "rental_uris": {"android": "https://dc.lft.to/lastmile_qr_scan", "ios": "https://dc.lft.to/lastmile_qr_scan"}, "lat": 38.9167405, "bike_id": "3c56e23bb45698640aad169c7b6c8275", "is_disabled": 0, "lon": -77.04622283333333, "is_reserved": 0, "fusion_lat": 0.0, "type": "electric_scooter"}, {"fusion_lon": 0.0, "name": "b01b5383f3313262a65b4587cede703a", "rental_uris": {"android": "https://dc.lft.to/lastmile_qr_scan", "ios": "https://dc.lft.to/lastmile_qr_scan"}, "lat": 38.92813816666666, "bike_id": "b01b5383f3313262a65b4587cede703a", "is_disabled": 0, "lon": -77.0314565, "is_reserved": 0, "fusion_lat": 0.0, "type": "electric_scooter"}, {"fusion_lon": 0.0, "name": "1317160424e0402878cd56f6f63ea2eb", "rental_uris": {"android": "https://dc.lft.to/lastmile_qr_scan", "ios": "https://dc.lft.to/lastmile_qr_scan"}, "lat": 38.84053933333333, "bike_id": "1317160424e0402878cd56f6f63ea2eb", "is_disabled": 0, "lon": -76.97667783333333, "is_reserved": 0, "fusion_lat": 0.0, "type": "electric_scooter"}, {"fusion_lon": 0.0, "name": "05147685eb44d054044962ca88b38232", "rental_uris": {"android": "https://dc.lft.to/lastmile_qr_scan", "ios": "https://dc.lft.to/lastmile_qr_scan"}, "lat": 38.9170065, "bike_id": "05147685eb44d054044962ca88b38232", "is_disabled": 0, "lon": -77.04219066666667, "is_reserved": 0, "fusion_lat": 0.0, "type": "electric_scooter"}, {"fusion_lon": 0.0, "name": "d3fa4234613c147293091ed1cf5613d2", "rental_uris": {"android": "https://dc.lft.to/lastmile_qr_scan", "ios": "https://dc.lft.to/lastmile_qr_scan"}, "lat": 38.92927983333333, "bike_id": "d3fa4234613c147293091ed1cf5613d2", "is_disabled": 0, "lon": -76.99820083333333, "is_reserved": 0, "fusion_lat": 0.0, "type": "electric_scooter"}, {"fusion_lon": 0.0, "name": "e1599828877b9911bbfb76da4edfb1a5", "rental_uris": {"android": "https://dc.lft.to/lastmile_qr_scan", "ios": "https://dc.lft.to/lastmile_qr_scan"}, "lat": 38.900482833333335, "bike_id": "e1599828877b9911bbfb76da4edfb1a5", "is_disabled": 0, "lon": -76.98552283333333, "is_reserved": 0, "fusion_lat": 0.0, "type": "electric_scooter"}, {"fusion_lon": 0.0, "name": "acc715b3e16919bd2fd6a542212bfe1b", "rental_uris": {"android": "https://dc.lft.to/lastmile_qr_scan", "ios": "https://dc.lft.to/lastmile_qr_scan"}, "lat": 38.93504983333333, "bike_id": "acc715b3e16919bd2fd6a542212bfe1b", "is_disabled": 0, "lon": -77.02011183333333, "is_reserved": 0, "fusion_lat": 0.0, "type": "electric_scooter"}, {"fusion_lon": 0.0, "name": "d92ddab075e15d6f76e7b9843fcd7a6a", "rental_uris": {"android": "https://dc.lft.to/lastmile_qr_scan", "ios": "https://dc.lft.to/lastmile_qr_scan"}, "lat": 38.922706166666664, "bike_id": "d92ddab075e15d6f76e7b9843fcd7a6a", "is_disabled": 0, "lon": -77.01944, "is_reserved": 0, "fusion_lat": 0.0, "type": "electric_scooter"}, {"fusion_lon": 0.0, "name": "3bfa010f1069a4ccebae074beaead146", "rental_uris": {"android": "https://dc.lft.to/lastmile_qr_scan", "ios": "https://dc.lft.to/lastmile_qr_scan"}, "lat": 38.922443333333334, "bike_id": "3bfa010f1069a4ccebae074beaead146", "is_disabled": 0, "lon": -77.0436835, "is_reserved": 0, "fusion_lat": 0.0, "type": "electric_scooter"}, {"fusion_lon": 0.0, "name": "2aa007e5e997e0f378af0ff174400180", "rental_uris": {"android": "https://dc.lft.to/lastmile_qr_scan", "ios": "https://dc.lft.to/lastmile_qr_scan"}, "lat": 38.9005925, "bike_id": "2aa007e5e997e0f378af0ff174400180", "is_disabled": 0, "lon": -77.04892616666666, "is_reserved": 0, "fusion_lat": 0.0, "type": "electric_scooter"}, {"fusion_lon": 0.0, "name": "19fa4462ba2a9bacfc2e25577005244a", "rental_uris": {"android": "https://dc.lft.to/lastmile_qr_scan", "ios": "https://dc.lft.to/lastmile_qr_scan"}, "lat": 38.89690216666666, "bike_id": "19fa4462ba2a9bacfc2e25577005244a", "is_disabled": 0, "lon": -77.04345183333334, "is_reserved": 0, "fusion_lat": 0.0, "type": "electric_scooter"}, {"fusion_lon": 0.0, "name": "59878c12a8a39808e65e43f74fb1af0c", "rental_uris": {"android": "https://dc.lft.to/lastmile_qr_scan", "ios": "https://dc.lft.to/lastmile_qr_scan"}, "lat": 38.9142015, "bike_id": "59878c12a8a39808e65e43f74fb1af0c", "is_disabled": 0, "lon": -77.0180015, "is_reserved": 0, "fusion_lat": 0.0, "type": "electric_scooter"}, {"fusion_lon": 0.0, "name": "3f8c38cc04221987e49a81026349f725", "rental_uris": {"android": "https://dc.lft.to/lastmile_qr_scan", "ios": "https://dc.lft.to/lastmile_qr_scan"}, "lat": 38.93557283333333, "bike_id": "3f8c38cc04221987e49a81026349f725", "is_disabled": 0, "lon": -77.03479266666666, "is_reserved": 0, "fusion_lat": 0.0, "type": "electric_scooter"}, {"fusion_lon": 0.0, "name": "9b978e00248d98f291d3d0eb193d947c", "rental_uris": {"android": "https://dc.lft.to/lastmile_qr_scan", "ios": "https://dc.lft.to/lastmile_qr_scan"}, "lat": 38.916085, "bike_id": "9b978e00248d98f291d3d0eb193d947c", "is_disabled": 0, "lon": -77.044817, "is_reserved": 0, "fusion_lat": 0.0, "type": "electric_scooter"}, {"fusion_lon": 0.0, "name": "5d8ff10e51e19d612f4aaf85c1e5f41f", "rental_uris": {"android": "https://dc.lft.to/lastmile_qr_scan", "ios": "https://dc.lft.to/lastmile_qr_scan"}, "lat": 38.88839183333333, "bike_id": "5d8ff10e51e19d612f4aaf85c1e5f41f", "is_disabled": 0, "lon": -76.98693583333333, "is_reserved": 0, "fusion_lat": 0.0, "type": "electric_scooter"}, {"fusion_lon": 0.0, "name": "f632745ae842d3c1fba279e49e135639", "rental_uris": {"android": "https://dc.lft.to/lastmile_qr_scan", "ios": "https://dc.lft.to/lastmile_qr_scan"}, "lat": 38.905202333333335, "bike_id": "f632745ae842d3c1fba279e49e135639", "is_disabled": 0, "lon": -77.06097016666666, "is_reserved": 0, "fusion_lat": 0.0, "type": "electric_scooter"}, {"fusion_lon": 0.0, "name": "d8ffff3b783ddd9fc8eaf8f0e17c5bda", "rental_uris": {"android": "https://dc.lft.to/lastmile_qr_scan", "ios": "https://dc.lft.to/lastmile_qr_scan"}, "lat": 38.916981, "bike_id": "d8ffff3b783ddd9fc8eaf8f0e17c5bda", "is_disabled": 0, "lon": -77.04336383333333, "is_reserved": 0, "fusion_lat": 0.0, "type": "electric_scooter"}, {"fusion_lon": 0.0, "name": "6807bba8d98038efcdd698b843d34cec", "rental_uris": {"android": "https://dc.lft.to/lastmile_qr_scan", "ios": "https://dc.lft.to/lastmile_qr_scan"}, "lat": 38.92691, "bike_id": "6807bba8d98038efcdd698b843d34cec", "is_disabled": 0, "lon": -77.032488, "is_reserved": 0, "fusion_lat": 0.0, "type": "electric_scooter"}, {"fusion_lon": 0.0, "name": "bfba320ac33f7987e5fa0ec5fedd706b", "rental_uris": {"android": "https://dc.lft.to/lastmile_qr_scan", "ios": "https://dc.lft.to/lastmile_qr_scan"}, "lat": 38.91922983333333, "bike_id": "bfba320ac33f7987e5fa0ec5fedd706b", "is_disabled": 0, "lon": -77.011653, "is_reserved": 0, "fusion_lat": 0.0, "type": "electric_scooter"}, {"fusion_lon": 0.0, "name": "2bb3dd82ec6b0b7562d3a05f5129011e", "rental_uris": {"android": "https://dc.lft.to/lastmile_qr_scan", "ios": "https://dc.lft.to/lastmile_qr_scan"}, "lat": 38.92027383333333, "bike_id": "2bb3dd82ec6b0b7562d3a05f5129011e", "is_disabled": 0, "lon": -77.027951, "is_reserved": 0, "fusion_lat": 0.0, "type": "electric_scooter"}, {"fusion_lon": 0.0, "name": "ceb0a30ac9896f64e93cc8ee6d934322", "rental_uris": {"android": "https://dc.lft.to/lastmile_qr_scan", "ios": "https://dc.lft.to/lastmile_qr_scan"}, "lat": 38.89503466666667, "bike_id": "ceb0a30ac9896f64e93cc8ee6d934322", "is_disabled": 0, "lon": -76.93474933333333, "is_reserved": 0, "fusion_lat": 0.0, "type": "electric_scooter"}, {"fusion_lon": 0.0, "name": "b5d0b670fa10718deacdc300f5dcb6f9", "rental_uris": {"android": "https://dc.lft.to/lastmile_qr_scan", "ios": "https://dc.lft.to/lastmile_qr_scan"}, "lat": 38.91005283333333, "bike_id": "b5d0b670fa10718deacdc300f5dcb6f9", "is_disabled": 0, "lon": -76.993986, "is_reserved": 0, "fusion_lat": 0.0, "type": "electric_scooter"}, {"fusion_lon": 0.0, "name": "fa7170e6eadc2a8653f382ac932c9b4f", "rental_uris": {"android": "https://dc.lft.to/lastmile_qr_scan", "ios": "https://dc.lft.to/lastmile_qr_scan"}, "lat": 38.9032865, "bike_id": "fa7170e6eadc2a8653f382ac932c9b4f", "is_disabled": 0, "lon": -76.975299, "is_reserved": 0, "fusion_lat": 0.0, "type": "electric_bike"}, {"fusion_lon": 0.0, "name": "8649f385b913a298b90a01a33368233d", "rental_uris": {"android": "https://dc.lft.to/lastmile_qr_scan", "ios": "https://dc.lft.to/lastmile_qr_scan"}, "lat": 38.907758666666666, "bike_id": "8649f385b913a298b90a01a33368233d", "is_disabled": 0, "lon": -77.03514116666666, "is_reserved": 0, "fusion_lat": 0.0, "type": "electric_scooter"}, {"fusion_lon": 0.0, "name": "bc1296920166d6311ea1a171efc5db70", "rental_uris": {"android": "https://dc.lft.to/lastmile_qr_scan", "ios": "https://dc.lft.to/lastmile_qr_scan"}, "lat": 38.90160016666667, "bike_id": "bc1296920166d6311ea1a171efc5db70", "is_disabled": 0, "lon": -77.04988416666667, "is_reserved": 0, "fusion_lat": 0.0, "type": "electric_scooter"}, {"fusion_lon": 0.0, "name": "e29ce23e1481a9db808279cade72d251", "rental_uris": {"android": "https://dc.lft.to/lastmile_qr_scan", "ios": "https://dc.lft.to/lastmile_qr_scan"}, "lat": 38.89220566666667, "bike_id": "e29ce23e1481a9db808279cade72d251", "is_disabled": 0, "lon": -77.01397383333334, "is_reserved": 0, "fusion_lat": 0.0, "type": "electric_scooter"}, {"fusion_lon": 0.0, "name": "6f35283c1c524b83a1b7462c7472ba14", "rental_uris": {"android": "https://dc.lft.to/lastmile_qr_scan", "ios": "https://dc.lft.to/lastmile_qr_scan"}, "lat": 38.83586366666667, "bike_id": "6f35283c1c524b83a1b7462c7472ba14", "is_disabled": 0, "lon": -76.990254, "is_reserved": 0, "fusion_lat": 0.0, "type": "electric_bike"}, {"fusion_lon": 0.0, "name": "de481b697aa4b95c37a1fa64c35ceae4", "rental_uris": {"android": "https://dc.lft.to/lastmile_qr_scan", "ios": "https://dc.lft.to/lastmile_qr_scan"}, "lat": 38.894776, "bike_id": "de481b697aa4b95c37a1fa64c35ceae4", "is_disabled": 0, "lon": -77.02079883333333, "is_reserved": 0, "fusion_lat": 0.0, "type": "electric_scooter"}, {"fusion_lon": 0.0, "name": "27cd066093f4580223991467c96f849d", "rental_uris": {"android": "https://dc.lft.to/lastmile_qr_scan", "ios": "https://dc.lft.to/lastmile_qr_scan"}, "lat": 38.90437933333333, "bike_id": "27cd066093f4580223991467c96f849d", "is_disabled": 0, "lon": -77.02842866666667, "is_reserved": 0, "fusion_lat": 0.0, "type": "electric_scooter"}, {"fusion_lon": 0.0, "name": "3db92486f455fe618861a2bd467b8420", "rental_uris": {"android": "https://dc.lft.to/lastmile_qr_scan", "ios": "https://dc.lft.to/lastmile_qr_scan"}, "lat": 38.920895, "bike_id": "3db92486f455fe618861a2bd467b8420", "is_disabled": 0, "lon": -77.0242245, "is_reserved": 0, "fusion_lat": 0.0, "type": "electric_scooter"}, {"fusion_lon": 0.0, "name": "11018f741323dbf251f88cc813c76fb9", "rental_uris": {"android": "https://dc.lft.to/lastmile_qr_scan", "ios": "https://dc.lft.to/lastmile_qr_scan"}, "lat": 38.863837833333335, "bike_id": "11018f741323dbf251f88cc813c76fb9", "is_disabled": 0, "lon": -76.98816783333334, "is_reserved": 0, "fusion_lat": 0.0, "type": "electric_scooter"}, {"fusion_lon": 0.0, "name": "4d60759a3aef701a23233204b1e12ed2", "rental_uris": {"android": "https://dc.lft.to/lastmile_qr_scan", "ios": "https://dc.lft.to/lastmile_qr_scan"}, "lat": 38.934727333333335, "bike_id": "4d60759a3aef701a23233204b1e12ed2", "is_disabled": 0, "lon": -77.08668933333334, "is_reserved": 0, "fusion_lat": 0.0, "type": "electric_scooter"}, {"fusion_lon": 0.0, "name": "7e0b5be5106fecfc3d67ebef8c0f1980", "rental_uris": {"android": "https://dc.lft.to/lastmile_qr_scan", "ios": "https://dc.lft.to/lastmile_qr_scan"}, "lat": 38.89346666666667, "bike_id": "7e0b5be5106fecfc3d67ebef8c0f1980", "is_disabled": 0, "lon": -77.04858533333334, "is_reserved": 0, "fusion_lat": 0.0, "type": "electric_scooter"}, {"fusion_lon": 0.0, "name": "b1674b52220456ad95213d6296a2fcf9", "rental_uris": {"android": "https://dc.lft.to/lastmile_qr_scan", "ios": "https://dc.lft.to/lastmile_qr_scan"}, "lat": 38.89823533333333, "bike_id": "b1674b52220456ad95213d6296a2fcf9", "is_disabled": 0, "lon": -76.93008783333333, "is_reserved": 0, "fusion_lat": 0.0, "type": "electric_scooter"}, {"fusion_lon": 0.0, "name": "8907203e64941490bc766842dddcb16d", "rental_uris": {"android": "https://dc.lft.to/lastmile_qr_scan", "ios": "https://dc.lft.to/lastmile_qr_scan"}, "lat": 38.89621433333333, "bike_id": "8907203e64941490bc766842dddcb16d", "is_disabled": 0, "lon": -76.99415016666667, "is_reserved": 0, "fusion_lat": 0.0, "type": "electric_scooter"}, {"fusion_lon": 0.0, "name": "0354b8cc0396f7508a92c675898e26d3", "rental_uris": {"android": "https://dc.lft.to/lastmile_qr_scan", "ios": "https://dc.lft.to/lastmile_qr_scan"}, "lat": 38.924744833333335, "bike_id": "0354b8cc0396f7508a92c675898e26d3", "is_disabled": 0, "lon": -77.03830233333333, "is_reserved": 0, "fusion_lat": 0.0, "type": "electric_scooter"}, {"fusion_lon": 0.0, "name": "4cfe5ed0cbec3b7d0e1a2f5020002da1", "rental_uris": {"android": "https://dc.lft.to/lastmile_qr_scan", "ios": "https://dc.lft.to/lastmile_qr_scan"}, "lat": 38.8912965, "bike_id": "4cfe5ed0cbec3b7d0e1a2f5020002da1", "is_disabled": 0, "lon": -76.94060633333333, "is_reserved": 0, "fusion_lat": 0.0, "type": "electric_bike"}, {"fusion_lon": 0.0, "name": "7bed4286442d5753fef10a6a9e5d184c", "rental_uris": {"android": "https://dc.lft.to/lastmile_qr_scan", "ios": "https://dc.lft.to/lastmile_qr_scan"}, "lat": 38.91585666666667, "bike_id": "7bed4286442d5753fef10a6a9e5d184c", "is_disabled": 0, "lon": -77.02950716666666, "is_reserved": 0, "fusion_lat": 0.0, "type": "electric_scooter"}, {"fusion_lon": 0.0, "name": "bfa88cd1235009e2a70d9e7bd137cd79", "rental_uris": {"android": "https://dc.lft.to/lastmile_qr_scan", "ios": "https://dc.lft.to/lastmile_qr_scan"}, "lat": 38.913533666666666, "bike_id": "bfa88cd1235009e2a70d9e7bd137cd79", "is_disabled": 0, "lon": -77.03347816666667, "is_reserved": 0, "fusion_lat": 0.0, "type": "electric_scooter"}, {"fusion_lon": 0.0, "name": "0694465024ff0522549b0c8622b28ad8", "rental_uris": {"android": "https://dc.lft.to/lastmile_qr_scan", "ios": "https://dc.lft.to/lastmile_qr_scan"}, "lat": 38.9078685, "bike_id": "0694465024ff0522549b0c8622b28ad8", "is_disabled": 0, "lon": -77.009696, "is_reserved": 0, "fusion_lat": 0.0, "type": "electric_scooter"}, {"fusion_lon": 0.0, "name": "46982d593f3248ea2f66fd6d2daa90f5", "rental_uris": {"android": "https://dc.lft.to/lastmile_qr_scan", "ios": "https://dc.lft.to/lastmile_qr_scan"}, "lat": 38.911079666666666, "bike_id": "46982d593f3248ea2f66fd6d2daa90f5", "is_disabled": 0, "lon": -77.01998966666666, "is_reserved": 0, "fusion_lat": 0.0, "type": "electric_scooter"}, {"fusion_lon": 0.0, "name": "01e82ee8db93d700055e1c6c58eda706", "rental_uris": {"android": "https://dc.lft.to/lastmile_qr_scan", "ios": "https://dc.lft.to/lastmile_qr_scan"}, "lat": 38.92332366666667, "bike_id": "01e82ee8db93d700055e1c6c58eda706", "is_disabled": 0, "lon": -77.05682783333333, "is_reserved": 0, "fusion_lat": 0.0, "type": "electric_scooter"}, {"fusion_lon": 0.0, "name": "0d1175d5ccbcba1fdf75e48e88ff3635", "rental_uris": {"android": "https://dc.lft.to/lastmile_qr_scan", "ios": "https://dc.lft.to/lastmile_qr_scan"}, "lat": 38.9035845, "bike_id": "0d1175d5ccbcba1fdf75e48e88ff3635", "is_disabled": 0, "lon": -77.02615466666667, "is_reserved": 0, "fusion_lat": 0.0, "type": "electric_scooter"}, {"fusion_lon": 0.0, "name": "360ac40177bbc920bbc37e5a9b6fdff6", "rental_uris": {"android": "https://dc.lft.to/lastmile_qr_scan", "ios": "https://dc.lft.to/lastmile_qr_scan"}, "lat": 38.91849283333333, "bike_id": "360ac40177bbc920bbc37e5a9b6fdff6", "is_disabled": 0, "lon": -77.02298433333333, "is_reserved": 0, "fusion_lat": 0.0, "type": "electric_scooter"}, {"fusion_lon": 0.0, "name": "68c107dfbc19910917494aae9a0d1020", "rental_uris": {"android": "https://dc.lft.to/lastmile_qr_scan", "ios": "https://dc.lft.to/lastmile_qr_scan"}, "lat": 38.90074366666666, "bike_id": "68c107dfbc19910917494aae9a0d1020", "is_disabled": 0, "lon": -77.04940916666666, "is_reserved": 0, "fusion_lat": 0.0, "type": "electric_scooter"}, {"fusion_lon": 0.0, "name": "37f2e46ffa36ade3e9d76f575715e78e", "rental_uris": {"android": "https://dc.lft.to/lastmile_qr_scan", "ios": "https://dc.lft.to/lastmile_qr_scan"}, "lat": 38.894668833333334, "bike_id": "37f2e46ffa36ade3e9d76f575715e78e", "is_disabled": 0, "lon": -77.02197633333333, "is_reserved": 0, "fusion_lat": 0.0, "type": "electric_scooter"}, {"fusion_lon": 0.0, "name": "834e90b4366427f23a509811c3b98034", "rental_uris": {"android": "https://dc.lft.to/lastmile_qr_scan", "ios": "https://dc.lft.to/lastmile_qr_scan"}, "lat": 38.915602, "bike_id": "834e90b4366427f23a509811c3b98034", "is_disabled": 0, "lon": -77.00683916666667, "is_reserved": 0, "fusion_lat": 0.0, "type": "electric_scooter"}, {"fusion_lon": 0.0, "name": "53390ca05f4d917676aff7e1d8057a37", "rental_uris": {"android": "https://dc.lft.to/lastmile_qr_scan", "ios": "https://dc.lft.to/lastmile_qr_scan"}, "lat": 38.91199683333333, "bike_id": "53390ca05f4d917676aff7e1d8057a37", "is_disabled": 0, "lon": -77.03208766666667, "is_reserved": 0, "fusion_lat": 0.0, "type": "electric_scooter"}, {"fusion_lon": 0.0, "name": "9030c0909a087ea9e9eca7f738f095dc", "rental_uris": {"android": "https://dc.lft.to/lastmile_qr_scan", "ios": "https://dc.lft.to/lastmile_qr_scan"}, "lat": 38.9162065, "bike_id": "9030c0909a087ea9e9eca7f738f095dc", "is_disabled": 0, "lon": -77.04863866666666, "is_reserved": 0, "fusion_lat": 0.0, "type": "electric_scooter"}, {"fusion_lon": 0.0, "name": "cdd6e9b5a2617b923eedb4d467a2c79a", "rental_uris": {"android": "https://dc.lft.to/lastmile_qr_scan", "ios": "https://dc.lft.to/lastmile_qr_scan"}, "lat": 38.908012666666664, "bike_id": "cdd6e9b5a2617b923eedb4d467a2c79a", "is_disabled": 0, "lon": -77.08397483333333, "is_reserved": 0, "fusion_lat": 0.0, "type": "electric_scooter"}, {"fusion_lon": 0.0, "name": "04c26ca0c837b5ff831b411de13fe8a3", "rental_uris": {"android": "https://dc.lft.to/lastmile_qr_scan", "ios": "https://dc.lft.to/lastmile_qr_scan"}, "lat": 38.8939235, "bike_id": "04c26ca0c837b5ff831b411de13fe8a3", "is_disabled": 0, "lon": -77.02253233333333, "is_reserved": 0, "fusion_lat": 0.0, "type": "electric_scooter"}, {"fusion_lon": 0.0, "name": "109ace0b5d65ff91d34bf7c00ae66afe", "rental_uris": {"android": "https://dc.lft.to/lastmile_qr_scan", "ios": "https://dc.lft.to/lastmile_qr_scan"}, "lat": 38.9207815, "bike_id": "109ace0b5d65ff91d34bf7c00ae66afe", "is_disabled": 0, "lon": -77.0182175, "is_reserved": 0, "fusion_lat": 0.0, "type": "electric_scooter"}, {"fusion_lon": 0.0, "name": "4f84a616fc8126551de88cc9f28b90a3", "rental_uris": {"android": "https://dc.lft.to/lastmile_qr_scan", "ios": "https://dc.lft.to/lastmile_qr_scan"}, "lat": 38.90093666666667, "bike_id": "4f84a616fc8126551de88cc9f28b90a3", "is_disabled": 0, "lon": -77.04912583333333, "is_reserved": 0, "fusion_lat": 0.0, "type": "electric_scooter"}, {"fusion_lon": 0.0, "name": "85442ebaff53bf810657fc8240979790", "rental_uris": {"android": "https://dc.lft.to/lastmile_qr_scan", "ios": "https://dc.lft.to/lastmile_qr_scan"}, "lat": 38.97258, "bike_id": "85442ebaff53bf810657fc8240979790", "is_disabled": 0, "lon": -76.992808, "is_reserved": 0, "fusion_lat": 0.0, "type": "electric_bike"}, {"fusion_lon": 0.0, "name": "9d52945f4221e65ef9f0cdd917210afa", "rental_uris": {"android": "https://dc.lft.to/lastmile_qr_scan", "ios": "https://dc.lft.to/lastmile_qr_scan"}, "lat": 38.925079, "bike_id": "9d52945f4221e65ef9f0cdd917210afa", "is_disabled": 0, "lon": -77.0257175, "is_reserved": 0, "fusion_lat": 0.0, "type": "electric_scooter"}, {"fusion_lon": 0.0, "name": "ca1b82af45519c15e960e3f65fb0e8e7", "rental_uris": {"android": "https://dc.lft.to/lastmile_qr_scan", "ios": "https://dc.lft.to/lastmile_qr_scan"}, "lat": 38.92428866666667, "bike_id": "ca1b82af45519c15e960e3f65fb0e8e7", "is_disabled": 0, "lon": -77.019523, "is_reserved": 0, "fusion_lat": 0.0, "type": "electric_scooter"}, {"fusion_lon": 0.0, "name": "00e296f73e3c87c533652f093b9970d9", "rental_uris": {"android": "https://dc.lft.to/lastmile_qr_scan", "ios": "https://dc.lft.to/lastmile_qr_scan"}, "lat": 38.908607, "bike_id": "00e296f73e3c87c533652f093b9970d9", "is_disabled": 0, "lon": -77.0807585, "is_reserved": 0, "fusion_lat": 0.0, "type": "electric_bike"}, {"fusion_lon": 0.0, "name": "d845d6447b051dbcaab521ded894b5ac", "rental_uris": {"android": "https://dc.lft.to/lastmile_qr_scan", "ios": "https://dc.lft.to/lastmile_qr_scan"}, "lat": 38.89721383333333, "bike_id": "d845d6447b051dbcaab521ded894b5ac", "is_disabled": 0, "lon": -77.03154933333333, "is_reserved": 0, "fusion_lat": 0.0, "type": "electric_scooter"}, {"fusion_lon": 0.0, "name": "865ebafda250792a9abb6d9873590748", "rental_uris": {"android": "https://dc.lft.to/lastmile_qr_scan", "ios": "https://dc.lft.to/lastmile_qr_scan"}, "lat": 38.918645166666664, "bike_id": "865ebafda250792a9abb6d9873590748", "is_disabled": 0, "lon": -77.032081, "is_reserved": 0, "fusion_lat": 0.0, "type": "electric_scooter"}, {"fusion_lon": 0.0, "name": "f050693fe64a0e31d9d4dbafe0a397e8", "rental_uris": {"android": "https://dc.lft.to/lastmile_qr_scan", "ios": "https://dc.lft.to/lastmile_qr_scan"}, "lat": 38.863377, "bike_id": "f050693fe64a0e31d9d4dbafe0a397e8", "is_disabled": 0, "lon": -76.987255, "is_reserved": 0, "fusion_lat": 0.0, "type": "electric_bike"}, {"fusion_lon": 0.0, "name": "e381b7eee74f6c2b2a36d624604eab25", "rental_uris": {"android": "https://dc.lft.to/lastmile_qr_scan", "ios": "https://dc.lft.to/lastmile_qr_scan"}, "lat": 38.90567183333334, "bike_id": "e381b7eee74f6c2b2a36d624604eab25", "is_disabled": 0, "lon": -77.0020865, "is_reserved": 0, "fusion_lat": 0.0, "type": "electric_scooter"}, {"fusion_lon": 0.0, "name": "541dc2bcc5159e5d2a0462d3958dbd50", "rental_uris": {"android": "https://dc.lft.to/lastmile_qr_scan", "ios": "https://dc.lft.to/lastmile_qr_scan"}, "lat": 38.934054833333334, "bike_id": "541dc2bcc5159e5d2a0462d3958dbd50", "is_disabled": 0, "lon": -77.03828616666667, "is_reserved": 0, "fusion_lat": 0.0, "type": "electric_scooter"}, {"fusion_lon": 0.0, "name": "950ca1c135a31dc32adc1ed98a667490", "rental_uris": {"android": "https://dc.lft.to/lastmile_qr_scan", "ios": "https://dc.lft.to/lastmile_qr_scan"}, "lat": 38.9602735, "bike_id": "950ca1c135a31dc32adc1ed98a667490", "is_disabled": 0, "lon": -77.0332475, "is_reserved": 0, "fusion_lat": 0.0, "type": "electric_scooter"}, {"fusion_lon": 0.0, "name": "27b467673934815f47e87e25c7aae243", "rental_uris": {"android": "https://dc.lft.to/lastmile_qr_scan", "ios": "https://dc.lft.to/lastmile_qr_scan"}, "lat": 38.876607, "bike_id": "27b467673934815f47e87e25c7aae243", "is_disabled": 0, "lon": -77.0117435, "is_reserved": 0, "fusion_lat": 0.0, "type": "electric_scooter"}, {"fusion_lon": 0.0, "name": "702838a9c3b68793a31b7e1d43b4b111", "rental_uris": {"android": "https://dc.lft.to/lastmile_qr_scan", "ios": "https://dc.lft.to/lastmile_qr_scan"}, "lat": 38.910684833333335, "bike_id": "702838a9c3b68793a31b7e1d43b4b111", "is_disabled": 0, "lon": -77.00915916666666, "is_reserved": 0, "fusion_lat": 0.0, "type": "electric_scooter"}, {"fusion_lon": 0.0, "name": "959c4d262760114d2615afba12634f7e", "rental_uris": {"android": "https://dc.lft.to/lastmile_qr_scan", "ios": "https://dc.lft.to/lastmile_qr_scan"}, "lat": 38.9301845, "bike_id": "959c4d262760114d2615afba12634f7e", "is_disabled": 0, "lon": -77.06194433333333, "is_reserved": 0, "fusion_lat": 0.0, "type": "electric_scooter"}, {"fusion_lon": 0.0, "name": "d1843fb31c399127bba4f80bababd811", "rental_uris": {"android": "https://dc.lft.to/lastmile_qr_scan", "ios": "https://dc.lft.to/lastmile_qr_scan"}, "lat": 38.881501166666666, "bike_id": "d1843fb31c399127bba4f80bababd811", "is_disabled": 0, "lon": -77.0130385, "is_reserved": 0, "fusion_lat": 0.0, "type": "electric_scooter"}, {"fusion_lon": 0.0, "name": "e4715b2145649f935ab0b37efed33bc6", "rental_uris": {"android": "https://dc.lft.to/lastmile_qr_scan", "ios": "https://dc.lft.to/lastmile_qr_scan"}, "lat": 38.89752933333333, "bike_id": "e4715b2145649f935ab0b37efed33bc6", "is_disabled": 0, "lon": -76.97693033333333, "is_reserved": 0, "fusion_lat": 0.0, "type": "electric_scooter"},