{"data": {"bikes": [{"fusion_lon": 0.0, "fusion_lat": 0.0, "rental_uris": {"android": "https://dc.lft.to/lastmile_qr_scan", "ios": "https://dc.lft.to/lastmile_qr_scan"}, "is_disabled": 0, "type": "electric_scooter", "is_reserved": 0, "name": "a8461c16295fee18b0d2154142e6f727", "lon": -77.02162583333333, "bike_id": "a8461c16295fee18b0d2154142e6f727", "lat": 38.92608166666667}, {"fusion_lon": 0.0, "fusion_lat": 0.0, "rental_uris": {"android": "https://dc.lft.to/lastmile_qr_scan", "ios": "https://dc.lft.to/lastmile_qr_scan"}, "is_disabled": 0, "type": "electric_scooter", "is_reserved": 0, "name": "c3f7dbfb2fd03ecb0a2455aa801317ac", "lon": -77.00447583333333, "bike_id": "c3f7dbfb2fd03ecb0a2455aa801317ac", "lat": 38.877108666666665}, {"fusion_lon": 0.0, "fusion_lat": 0.0, "rental_uris": {"android": "https://dc.lft.to/lastmile_qr_scan", "ios": "https://dc.lft.to/lastmile_qr_scan"}, "is_disabled": 0, "type": "electric_scooter", "is_reserved": 0, "name": "7ea02fbee2fa80c6c7c9422dbb45281f", "lon": -77.06229933333333, "bike_id": "7ea02fbee2fa80c6c7c9422dbb45281f", "lat": 38.90524383333333}, {"fusion_lon": 0.0, "fusion_lat": 0.0, "rental_uris": {"android": "https://dc.lft.to/lastmile_qr_scan", "ios": "https://dc.lft.to/lastmile_qr_scan"}, "is_disabled": 0, "type": "electric_scooter", "is_reserved": 0, "name": "4e26a19fc58a1f22defc5e22f4813c59", "lon": -77.04018883333333, "bike_id": "4e26a19fc58a1f22defc5e22f4813c59", "lat": 38.901247833333336}, {"fusion_lon": 0.0, "fusion_lat": 0.0, "rental_uris": {"android": "https://dc.lft.to/lastmile_qr_scan", "ios": "https://dc.lft.to/lastmile_qr_scan"}, "is_disabled": 0, "type": "electric_scooter", "is_reserved": 0, "name": "1a985aa74f6ccc8a454e73a83d1a93f8", "lon": -77.01866433333333, "bike_id": "1a985aa74f6ccc8a454e73a83d1a93f8", "lat": 38.914896166666665}, {"fusion_lon": 0.0, "fusion_lat": 0.0, "rental_uris": {"android": "https://dc.lft.to/lastmile_qr_scan", "ios": "https://dc.lft.to/lastmile_qr_scan"}, "is_disabled": 0, "type": "electric_bike", "is_reserved": 0, "name": "9bfc85713f1bb3728efe40d3cc4b2418", "lon": -77.03849016666666, "bike_id": "9bfc85713f1bb3728efe40d3cc4b2418", "lat": 38.908061833333335}, {"fusion_lon": 0.0, "fusion_lat": 0.0, "rental_uris": {"android": "https://dc.lft.to/lastmile_qr_scan", "ios": "https://dc.lft.to/lastmile_qr_scan"}, "is_disabled": 0, "type": "electric_scooter", "is_reserved": 0, "name": "785fda19b10e637131a396c5a0ad0c8c", "lon": -77.02015733333333, "bike_id": "785fda19b10e637131a396c5a0ad0c8c", "lat": 38.924437}, {"fusion_lon": 0.0, "fusion_lat": 0.0, "rental_uris": {"android": "https://dc.lft.to/lastmile_qr_scan", "ios": "https://dc.lft.to/lastmile_qr_scan"}, "is_disabled": 0, "type": "electric_scooter", "is_reserved": 0, "name": "980e577fb2453c000ee4626a54119f10", "lon": -77.01702266666666, "bike_id": "980e577fb2453c000ee4626a54119f10", "lat": 38.920379}, {"fusion_lon": 0.0, "fusion_lat": 0.0, "rental_uris": {"android": "https://dc.lft.to/lastmile_qr_scan", "ios": "https://dc.lft.to/lastmile_qr_scan"}, "is_disabled": 0, "type": "electric_scooter", "is_reserved": 0, "name": "1df3ed00b30d5ae3ea84b9227dbf654f", "lon": -77.02530066666667, "bike_id": "1df3ed00b30d5ae3ea84b9227dbf654f", "lat": 38.918161166666664}, {"fusion_lon": 0.0, "fusion_lat": 0.0, "rental_uris": {"android": "https://dc.lft.to/lastmile_qr_scan", "ios": "https://dc.lft.to/lastmile_qr_scan"}, "is_disabled": 0, "type": "electric_scooter", "is_reserved": 0, "name": "44022651a25182e872e53cd62808c828", "lon": -77.04230483333333, "bike_id": "44022651a25182e872e53cd62808c828", "lat": 38.921539833333334}, {"fusion_lon": 0.0, "fusion_lat": 0.0, "rental_uris": {"android": "https://dc.lft.to/lastmile_qr_scan", "ios": "https://dc.lft.to/lastmile_qr_scan"}, "is_disabled": 0, "type": "electric_scooter", "is_reserved": 0, "name": "83cbb390860cc6c810cad17a879b5021", "lon": -76.92596216666666, "bike_id": "83cbb390860cc6c810cad17a879b5021", "lat": 38.897271333333336}, {"fusion_lon": 0.0, "fusion_lat": 0.0, "rental_uris": {"android": "https://dc.lft.to/lastmile_qr_scan", "ios": "https://dc.lft.to/lastmile_qr_scan"}, "is_disabled": 0, "type": "electric_scooter", "is_reserved": 0, "name": "53f070fa937b1de0b8804c9f59cf833e", "lon": -77.00592566666667, "bike_id": "53f070fa937b1de0b8804c9f59cf833e", "lat": 38.904007166666666}, {"fusion_lon": 0.0, "fusion_lat": 0.0, "rental_uris": {"android": "https://dc.lft.to/lastmile_qr_scan", "ios": "https://dc.lft.to/lastmile_qr_scan"}, "is_disabled": 0, "type": "electric_scooter", "is_reserved": 0, "name": "187cc1bef240b6ccc8f69675a14b9ceb", "lon": -77.03266066666667, "bike_id": "187cc1bef240b6ccc8f69675a14b9ceb", "lat": 38.927571}, {"fusion_lon": 0.0, "fusion_lat": 0.0, "rental_uris": {"android": "https://dc.lft.to/lastmile_qr_scan", "ios": "https://dc.lft.to/lastmile_qr_scan"}, "is_disabled": 0, "type": "electric_scooter", "is_reserved": 0, "name": "066a3ef8a9603672e51a52a7949cb7d4", "lon": -77.06010516666667, "bike_id": "066a3ef8a9603672e51a52a7949cb7d4", "lat": 38.92702416666667}, {"fusion_lon": 0.0, "fusion_lat": 0.0, "rental_uris": {"android": "https://dc.lft.to/lastmile_qr_scan", "ios": "https://dc.lft.to/lastmile_qr_scan"}, "is_disabled": 0, "type": "electric_scooter", "is_reserved": 0, "name": "286ab10d84742e2e9901ee4fb2bdd76b", "lon": -77.0098215, "bike_id": "286ab10d84742e2e9901ee4fb2bdd76b", "lat": 38.9139975}, {"fusion_lon": 0.0, "fusion_lat": 0.0, "rental_uris": {"android": "https://dc.lft.to/lastmile_qr_scan", "ios": "https://dc.lft.to/lastmile_qr_scan"}, "is_disabled": 0, "type": "electric_scooter", "is_reserved": 0, "name": "2939b76c9fda41360e9bd91ccceee585", "lon": -77.02979816666667, "bike_id": "2939b76c9fda41360e9bd91ccceee585", "lat": 38.924805}, {"fusion_lon": 0.0, "fusion_lat": 0.0, "rental_uris": {"android": "https://dc.lft.to/lastmile_qr_scan", "ios": "https://dc.lft.to/lastmile_qr_scan"}, "is_disabled": 0, "type": "electric_scooter", "is_reserved": 0, "name": "f9fc29c3fa15e2c6ed1c441f2e4bb8ba", "lon": -77.03240683333334, "bike_id": "f9fc29c3fa15e2c6ed1c441f2e4bb8ba", "lat": 38.9027735}, {"fusion_lon": 0.0, "fusion_lat": 0.0, "rental_uris": {"android": "https://dc.lft.to/lastmile_qr_scan", "ios": "https://dc.lft.to/lastmile_qr_scan"}, "is_disabled": 0, "type": "electric_scooter", "is_reserved": 0, "name": "1eee5b3d18b3546be9aa7e1f24fc1739", "lon": -77.03168516666666, "bike_id": "1eee5b3d18b3546be9aa7e1f24fc1739", "lat": 38.88390883333334}, {"fusion_lon": 0.0, "fusion_lat": 0.0, "rental_uris": {"android": "https://dc.lft.to/lastmile_qr_scan", "ios": "https://dc.lft.to/lastmile_qr_scan"}, "is_disabled": 0, "type": "electric_scooter", "is_reserved": 0, "name": "b063a84347a2c7319e2838e1083f87d7", "lon": -77.0270955, "bike_id": "b063a84347a2c7319e2838e1083f87d7", "lat": 38.917974}, {"fusion_lon": 0.0, "fusion_lat": 0.0, "rental_uris": {"android": "https://dc.lft.to/lastmile_qr_scan", "ios": "https://dc.lft.to/lastmile_qr_scan"}, "is_disabled": 0, "type": "electric_scooter", "is_reserved": 0, "name": "ae7b952eb30ab41ae30cb2bae3c43c66", "lon": -76.9948645, "bike_id": "ae7b952eb30ab41ae30cb2bae3c43c66", "lat": 38.947731}, {"fusion_lon": 0.0, "fusion_lat": 0.0, "rental_uris": {"android": "https://dc.lft.to/lastmile_qr_scan", "ios": "https://dc.lft.to/lastmile_qr_scan"}, "is_disabled": 0, "type": "electric_scooter", "is_reserved": 0, "name": "e313743d73ede10429eb2c39a75349f5", "lon": -77.0133275, "bike_id": "e313743d73ede10429eb2c39a75349f5", "lat": 38.9420235}, {"fusion_lon": 0.0, "fusion_lat": 0.0, "rental_uris": {"android": "https://dc.lft.to/lastmile_qr_scan", "ios": "https://dc.lft.to/lastmile_qr_scan"}, "is_disabled": 0, "type": "electric_bike", "is_reserved": 0, "name": "8f52da36f91980773fb8fcca8de91586", "lon": -77.04533216666667, "bike_id": "8f52da36f91980773fb8fcca8de91586", "lat": 39.03284983333333}, {"fusion_lon": 0.0, "fusion_lat": 0.0, "rental_uris": {"android": "https://dc.lft.to/lastmile_qr_scan", "ios": "https://dc.lft.to/lastmile_qr_scan"}, "is_disabled": 0, "type": "electric_scooter", "is_reserved": 0, "name": "ee30cfc052e50180d7f361ba4562ef0d", "lon": -77.02499983333334, "bike_id": "ee30cfc052e50180d7f361ba4562ef0d", "lat": 38.91780716666667}, {"fusion_lon": 0.0, "fusion_lat": 0.0, "rental_uris": {"android": "https://dc.lft.to/lastmile_qr_scan", "ios": "https://dc.lft.to/lastmile_qr_scan"}, "is_disabled": 0, "type": "electric_scooter", "is_reserved": 0, "name": "e3c9f8e738816523074c9e384ae6e63b", "lon": -76.99849483333334, "bike_id": "e3c9f8e738816523074c9e384ae6e63b", "lat": 38.90119466666667}, {"fusion_lon": 0.0, "fusion_lat": 0.0, "rental_uris": {"android": "https://dc.lft.to/lastmile_qr_scan", "ios": "https://dc.lft.to/lastmile_qr_scan"}, "is_disabled": 0, "type": "electric_scooter", "is_reserved": 0, "name": "fa1d08b5f9f87588d8bcf5d52b42adc1", "lon": -76.92636016666667, "bike_id": "fa1d08b5f9f87588d8bcf5d52b42adc1", "lat": 38.886224}, {"fusion_lon": 0.0, "fusion_lat": 0.0, "rental_uris": {"android": "https://dc.lft.to/lastmile_qr_scan", "ios": "https://dc.lft.to/lastmile_qr_scan"}, "is_disabled": 0, "type": "electric_scooter", "is_reserved": 0, "name": "4e6f5b86b1da0898d39dbc83354afa1c", "lon": -77.02983066666667, "bike_id": "4e6f5b86b1da0898d39dbc83354afa1c", "lat": 38.9247935}, {"fusion_lon": 0.0, "fusion_lat": 0.0, "rental_uris": {"android": "https://dc.lft.to/lastmile_qr_scan", "ios": "https://dc.lft.to/lastmile_qr_scan"}, "is_disabled": 0, "type": "electric_bike", "is_reserved": 0, "name": "128d2268e03fd9c1b98aa0b336f2e19a", "lon": -77.09611466666667, "bike_id": "128d2268e03fd9c1b98aa0b336f2e19a", "lat": 38.974371}, {"fusion_lon": 0.0, "fusion_lat": 0.0, "rental_uris": {"android": "https://dc.lft.to/lastmile_qr_scan", "ios": "https://dc.lft.to/lastmile_qr_scan"}, "is_disabled": 0, "type": "electric_scooter", "is_reserved": 0, "name": "0168f547d06df11c60ea6b67af81df76", "lon": -77.04000383333333, "bike_id": "0168f547d06df11c60ea6b67af81df76", "lat": 38.93423933333333}, {"fusion_lon": 0.0, "fusion_lat": 0.0, "rental_uris": {"android": "https://dc.lft.to/lastmile_qr_scan", "ios": "https://dc.lft.to/lastmile_qr_scan"}, "is_disabled": 0, "type": "electric_scooter", "is_reserved": 0, "name": "0c1ae332dea42e61f745a9f14e493858", "lon": -76.97380133333333, "bike_id": "0c1ae332dea42e61f745a9f14e493858", "lat": 38.871891}, {"fusion_lon": 0.0, "fusion_lat": 0.0, "rental_uris": {"android": "https://dc.lft.to/lastmile_qr_scan", "ios": "https://dc.lft.to/lastmile_qr_scan"}, "is_disabled": 0, "type": "electric_scooter", "is_reserved": 0, "name": "ccbfcd66782e816a9e0b8b1c78e968ef", "lon": -77.00064366666666, "bike_id": "ccbfcd66782e816a9e0b8b1c78e968ef", "lat": 38.90145233333333}, {"fusion_lon": 0.0, "fusion_lat": 0.0, "rental_uris": {"android": "https://dc.lft.to/lastmile_qr_scan", "ios": "https://dc.lft.to/lastmile_qr_scan"}, "is_disabled": 0, "type": "electric_scooter", "is_reserved": 0, "name": "fe077e12d3eedd16bc1c27d295c20c3d", "lon": -77.02181016666667, "bike_id": "fe077e12d3eedd16bc1c27d295c20c3d", "lat": 38.94408583333333}, {"fusion_lon": 0.0, "fusion_lat": 0.0, "rental_uris": {"android": "https://dc.lft.to/lastmile_qr_scan", "ios": "https://dc.lft.to/lastmile_qr_scan"}, "is_disabled": 0, "type": "electric_scooter", "is_reserved": 0, "name": "82a2241fb779cfddc888b9902109aaa3", "lon": -77.00919483333334, "bike_id": "82a2241fb779cfddc888b9902109aaa3", "lat": 38.918776}, {"fusion_lon": 0.0, "fusion_lat": 0.0, "rental_uris": {"android": "https://dc.lft.to/lastmile_qr_scan", "ios": "https://dc.lft.to/lastmile_qr_scan"}, "is_disabled": 0, "type": "electric_scooter", "is_reserved": 0, "name": "f58d87b342f67d238dad3188513d1e57", "lon": -77.0022375, "bike_id": "f58d87b342f67d238dad3188513d1e57", "lat": 38.88509533333333}, {"fusion_lon": 0.0, "fusion_lat": 0.0, "rental_uris": {"android": "https://dc.lft.to/lastmile_qr_scan", "ios": "https://dc.lft.to/lastmile_qr_scan"}, "is_disabled": 0, "type": "electric_scooter", "is_reserved": 0, "name": "9940e115dac97b16e2acbb56323e9da3", "lon": -77.02504433333333, "bike_id": "9940e115dac97b16e2acbb56323e9da3", "lat": 38.88027683333333}, {"fusion_lon": 0.0, "fusion_lat": 0.0, "rental_uris": {"android": "https://dc.lft.to/lastmile_qr_scan", "ios": "https://dc.lft.to/lastmile_qr_scan"}, "is_disabled": 0, "type": "electric_scooter", "is_reserved": 0, "name": "1fdf9ed375c8126cdd4ad1239fdf7aa8", "lon": -76.93061366666667, "bike_id": "1fdf9ed375c8126cdd4ad1239fdf7aa8", "lat": 38.895583333333335}, {"fusion_lon": 0.0, "fusion_lat": 0.0, "rental_uris": {"android": "https://dc.lft.to/lastmile_qr_scan", "ios": "https://dc.lft.to/lastmile_qr_scan"}, "is_disabled": 0, "type": "electric_scooter", "is_reserved": 0, "name": "ed4b5191cbb82506e000c44d325e8f3d", "lon": -77.01614933333333, "bike_id": "ed4b5191cbb82506e000c44d325e8f3d", "lat": 38.899659666666665}, {"fusion_lon": 0.0, "fusion_lat": 0.0, "rental_uris": {"android": "https://dc.lft.to/lastmile_qr_scan", "ios": "https://dc.lft.to/lastmile_qr_scan"}, "is_disabled": 0, "type": "electric_scooter", "is_reserved": 0, "name": "126fd57b25dc3774210e3eca62790d76", "lon": -77.003524, "bike_id": "126fd57b25dc3774210e3eca62790d76", "lat": 38.897499}, {"fusion_lon": 0.0, "fusion_lat": 0.0, "rental_uris": {"android": "https://dc.lft.to/lastmile_qr_scan", "ios": "https://dc.lft.to/lastmile_qr_scan"}, "is_disabled": 0, "type": "electric_scooter", "is_reserved": 0, "name": "dddff803cab7232597aa6ee1324fc782", "lon": -77.02203116666666, "bike_id": "dddff803cab7232597aa6ee1324fc782", "lat": 38.90348566666667}, {"fusion_lon": 0.0, "fusion_lat": 0.0, "rental_uris": {"android": "https://dc.lft.to/lastmile_qr_scan", "ios": "https://dc.lft.to/lastmile_qr_scan"}, "is_disabled": 0, "type": "electric_scooter", "is_reserved": 0, "name": "98cbf8018420052c631863ea5db531a0", "lon": -77.00667416666667, "bike_id": "98cbf8018420052c631863ea5db531a0", "lat": 38.89998166666667}, {"fusion_lon": 0.0, "fusion_lat": 0.0, "rental_uris": {"android": "https://dc.lft.to/lastmile_qr_scan", "ios": "https://dc.lft.to/lastmile_qr_scan"}, "is_disabled": 0, "type": "electric_scooter", "is_reserved": 0, "name": "3a0fde831a7440f8f82de0b6aaeba10f", "lon": -77.05031366666667, "bike_id": "3a0fde831a7440f8f82de0b6aaeba10f", "lat": 38.902068}, {"fusion_lon": 0.0, "fusion_lat": 0.0, "rental_uris": {"android": "https://dc.lft.to/lastmile_qr_scan", "ios": "https://dc.lft.to/lastmile_qr_scan"}, "is_disabled": 0, "type": "electric_scooter", "is_reserved": 0, "name": "805581a26d994fc05965ef2d19dc8a10", "lon": -76.9372375, "bike_id": "805581a26d994fc05965ef2d19dc8a10", "lat": 38.886593500000004}, {"fusion_lon": 0.0, "fusion_lat": 0.0, "rental_uris": {"android": "https://dc.lft.to/lastmile_qr_scan", "ios": "https://dc.lft.to/lastmile_qr_scan"}, "is_disabled": 0, "type": "electric_scooter", "is_reserved": 0, "name": "aeffa118a156df59dcbde29c68d3ca22", "lon": -77.00914083333333, "bike_id": "aeffa118a156df59dcbde29c68d3ca22", "lat": 38.8955425}, {"fusion_lon": 0.0, "fusion_lat": 0.0, "rental_uris": {"android": "https://dc.lft.to/lastmile_qr_scan", "ios": "https://dc.lft.to/lastmile_qr_scan"}, "is_disabled": 0, "type": "electric_scooter", "is_reserved": 0, "name": "aeb02604b920ebde956dbced1440e236", "lon": -77.0119825, "bike_id": "aeb02604b920ebde956dbced1440e236", "lat": 38.897694666666666}, {"fusion_lon": 0.0, "fusion_lat": 0.0, "rental_uris": {"android": "https://dc.lft.to/lastmile_qr_scan", "ios": "https://dc.lft.to/lastmile_qr_scan"}, "is_disabled": 0, "type": "electric_scooter", "is_reserved": 0, "name": "e4f68f36488b1022b6ccaaba6003a7fc", "lon": -77.041561, "bike_id": "e4f68f36488b1022b6ccaaba6003a7fc", "lat": 38.91930516666667}, {"fusion_lon": 0.0, "fusion_lat": 0.0, "rental_uris": {"android": "https://dc.lft.to/lastmile_qr_scan", "ios": "https://dc.lft.to/lastmile_qr_scan"}, "is_disabled": 0, "type": "electric_scooter", "is_reserved": 0, "name": "6b3e563a6b37fd5c4e47f109c54381f6", "lon": -77.02199716666667, "bike_id": "6b3e563a6b37fd5c4e47f109c54381f6", "lat": 38.90232866666667}, {"fusion_lon": 0.0, "fusion_lat": 0.0, "rental_uris": {"android": "https://dc.lft.to/lastmile_qr_scan", "ios": "https://dc.lft.to/lastmile_qr_scan"}, "is_disabled": 0, "type": "electric_scooter", "is_reserved": 0, "name": "083f5836c2e28ab1cd38437f9b40ff7e", "lon": -77.01952233333333, "bike_id": "083f5836c2e28ab1cd38437f9b40ff7e", "lat": 38.9242175}, {"fusion_lon": 0.0, "fusion_lat": 0.0, "rental_uris": {"android": "https://dc.lft.to/lastmile_qr_scan", "ios": "https://dc.lft.to/lastmile_qr_scan"}, "is_disabled": 0, "type": "electric_scooter", "is_reserved": 0, "name": "14759393399096e1bc91b12884bcda7c", "lon": -77.01946333333333, "bike_id": "14759393399096e1bc91b12884bcda7c", "lat": 38.922677666666665}, {"fusion_lon": 0.0, "fusion_lat": 0.0, "rental_uris": {"android": "https://dc.lft.to/lastmile_qr_scan", "ios": "https://dc.lft.to/lastmile_qr_scan"}, "is_disabled": 0, "type": "electric_scooter", "is_reserved": 0, "name": "b9b33d86ee43ec2796a8efa6381d1397", "lon": -77.02527983333333, "bike_id": "b9b33d86ee43ec2796a8efa6381d1397", "lat": 38.9095765}, {"fusion_lon": 0.0, "fusion_lat": 0.0, "rental_uris": {"android": "https://dc.lft.to/lastmile_qr_scan", "ios": "https://dc.lft.to/lastmile_qr_scan"}, "is_disabled": 0, "type": "electric_scooter", "is_reserved": 0, "name": "7088fa54c069402a4ec54f415d6b0d1e", "lon": -77.00457133333333, "bike_id": "7088fa54c069402a4ec54f415d6b0d1e", "lat": 38.9207795}, {"fusion_lon": 0.0, "fusion_lat": 0.0, "rental_uris": {"android": "https://dc.lft.to/lastmile_qr_scan", "ios": "https://dc.lft.to/lastmile_qr_scan"}, "is_disabled": 0, "type": "electric_scooter", "is_reserved": 0, "name": "eed6bcff2633d67ec9734fc8ddc3024b", "lon": -77.04075633333333, "bike_id": "eed6bcff2633d67ec9734fc8ddc3024b", "lat": 38.9171575}, {"fusion_lon": 0.0, "fusion_lat": 0.0, "rental_uris": {"android": "https://dc.lft.to/lastmile_qr_scan", "ios": "https://dc.lft.to/lastmile_qr_scan"}, "is_disabled": 0, "type": "electric_scooter", "is_reserved": 0, "name": "60a930af6db9b40e9ff0001a7adf281d", "lon": -77.02433716666667, "bike_id": "60a930af6db9b40e9ff0001a7adf281d", "lat": 38.9679395}, {"fusion_lon": 0.0, "fusion_lat": 0.0, "rental_uris": {"android": "https://dc.lft.to/lastmile_qr_scan", "ios": "https://dc.lft.to/lastmile_qr_scan"}, "is_disabled": 0, "type": "electric_scooter", "is_reserved": 0, "name": "2a1606ffa4e047d16ff82c269ea14052", "lon": -77.038842, "bike_id": "2a1606ffa4e047d16ff82c269ea14052", "lat": 38.92038616666667}, {"fusion_lon": 0.0, "fusion_lat": 0.0, "rental_uris": {"android": "https://dc.lft.to/lastmile_qr_scan", "ios": "https://dc.lft.to/lastmile_qr_scan"}, "is_disabled": 0, "type": "electric_scooter", "is_reserved": 0, "name": "afd00d3724a3fb976772c460746e327b", "lon": -77.0079095, "bike_id": "afd00d3724a3fb976772c460746e327b", "lat": 38.90736033333334}, {"fusion_lon": 0.0, "fusion_lat": 0.0, "rental_uris": {"android": "https://dc.lft.to/lastmile_qr_scan", "ios": "https://dc.lft.to/lastmile_qr_scan"}, "is_disabled": 0, "type": "electric_bike", "is_reserved": 0, "name": "b0c9e93922de201f57bddc2b918c7cb0", "lon": -76.98116383333333, "bike_id": "b0c9e93922de201f57bddc2b918c7cb0", "lat": 38.94568183333333}, {"fusion_lon": 0.0, "fusion_lat": 0.0, "rental_uris": {"android": "https://dc.lft.to/lastmile_qr_scan", "ios": "https://dc.lft.to/lastmile_qr_scan"}, "is_disabled": 0, "type": "electric_scooter", "is_reserved": 0, "name": "24eb7dc20206d280c2da3957fb11d3aa", "lon": -77.0284765, "bike_id": "24eb7dc20206d280c2da3957fb11d3aa", "lat": 38.944897}, {"fusion_lon": 0.0, "fusion_lat": 0.0, "rental_uris": {"android": "https://dc.lft.to/lastmile_qr_scan", "ios": "https://dc.lft.to/lastmile_qr_scan"}, "is_disabled": 0, "type": "electric_scooter", "is_reserved": 0, "name": "0cfed852ef8e3ea4334e4c6ddd07189f", "lon": -77.043614, "bike_id": "0cfed852ef8e3ea4334e4c6ddd07189f", "lat": 38.892290833333334}, {"fusion_lon": 0.0, "fusion_lat": 0.0, "rental_uris": {"android": "https://dc.lft.to/lastmile_qr_scan", "ios": "https://dc.lft.to/lastmile_qr_scan"}, "is_disabled": 0, "type": "electric_scooter", "is_reserved": 0, "name": "fc0ba3d4084773e3a4b905e69a93f0a5", "lon": -77.03193766666666, "bike_id": "fc0ba3d4084773e3a4b905e69a93f0a5", "lat": 38.8997325}, {"fusion_lon": 0.0, "fusion_lat": 0.0, "rental_uris": {"android": "https://dc.lft.to/lastmile_qr_scan", "ios": "https://dc.lft.to/lastmile_qr_scan"}, "is_disabled": 0, "type": "electric_scooter", "is_reserved": 0, "name": "d1fb081ed625b2db4821f1f427515249", "lon": -77.01852466666666, "bike_id": "d1fb081ed625b2db4821f1f427515249", "lat": 38.905722833333336}, {"fusion_lon": 0.0, "fusion_lat": 0.0, "rental_uris": {"android": "https://dc.lft.to/lastmile_qr_scan", "ios": "https://dc.lft.to/lastmile_qr_scan"}, "is_disabled": 0, "type": "electric_scooter", "is_reserved": 0, "name": "1caaf6e087bdb1517657f468e78c1110", "lon": -77.00322916666667, "bike_id": "1caaf6e087bdb1517657f468e78c1110", "lat": 38.86121983333334}, {"fusion_lon": 0.0, "fusion_lat": 0.0, "rental_uris": {"android": "https://dc.lft.to/lastmile_qr_scan", "ios": "https://dc.lft.to/lastmile_qr_scan"}, "is_disabled": 0, "type": "electric_scooter", "is_reserved": 0, "name": "13e134d58cfd65ee8e51c4d35e880449", "lon": -77.04304016666667, "bike_id": "13e134d58cfd65ee8e51c4d35e880449", "lat": 38.922549833333335}, {"fusion_lon": 0.0, "fusion_lat": 0.0, "rental_uris": {"android": "https://dc.lft.to/lastmile_qr_scan", "ios": "https://dc.lft.to/lastmile_qr_scan"}, "is_disabled": 0, "type": "electric_scooter", "is_reserved": 0, "name": "5bf0e1f90d4090940afec3955d8ee335", "lon": -77.072412, "bike_id": "5bf0e1f90d4090940afec3955d8ee335", "lat": 38.921516}, {"fusion_lon": 0.0, "fusion_lat": 0.0, "rental_uris": {"android": "https://dc.lft.to/lastmile_qr_scan", "ios": "https://dc.lft.to/lastmile_qr_scan"}, "is_disabled": 0, "type": "electric_scooter", "is_reserved": 0, "name": "120104ab1c2a3c1aa73c50f4088e90c4", "lon": -77.00615616666667, "bike_id": "120104ab1c2a3c1aa73c50f4088e90c4", "lat": 38.9062865}, {"fusion_lon": 0.0, "fusion_lat": 0.0, "rental_uris": {"android": "https://dc.lft.to/lastmile_qr_scan", "ios": "https://dc.lft.to/lastmile_qr_scan"}, "is_disabled": 0, "type": "electric_scooter", "is_reserved": 0, "name": "dbd0c9fffb1e439b5de1d36c938d301a", "lon": -77.003044, "bike_id": "dbd0c9fffb1e439b5de1d36c938d301a", "lat": 38.883182}, {"fusion_lon": 0.0, "fusion_lat": 0.0, "rental_uris": {"android": "https://dc.lft.to/lastmile_qr_scan", "ios": "https://dc.lft.to/lastmile_qr_scan"}, "is_disabled": 0, "type": "electric_scooter", "is_reserved": 0, "name": "f8391a31f451148c856071611a272923", "lon": -77.039321, "bike_id": "f8391a31f451148c856071611a272923", "lat": 38.921056}, {"fusion_lon": 0.0, "fusion_lat": 0.0, "rental_uris": {"android": "https://dc.lft.to/lastmile_qr_scan", "ios": "https://dc.lft.to/lastmile_qr_scan"}, "is_disabled": 0, "type": "electric_scooter", "is_reserved": 0, "name": "2c49d04828533e187ec7fc8e084eff04", "lon": -76.98546283333333, "bike_id": "2c49d04828533e187ec7fc8e084eff04", "lat": 38.88604566666667}, {"fusion_lon": 0.0, "fusion_lat": 0.0, "rental_uris": {"android": "https://dc.lft.to/lastmile_qr_scan", "ios": "https://dc.lft.to/lastmile_qr_scan"}, "is_disabled": 0, "type": "electric_scooter", "is_reserved": 0, "name": "69ab442e607fef486eca160a4fdaf6be", "lon": -77.03866383333333, "bike_id": "69ab442e607fef486eca160a4fdaf6be", "lat": 38.911840833333336}, {"fusion_lon": 0.0, "fusion_lat": 0.0, "rental_uris": {"android": "https://dc.lft.to/lastmile_qr_scan", "ios": "https://dc.lft.to/lastmile_qr_scan"}, "is_disabled": 0, "type": "electric_scooter", "is_reserved": 0, "name": "4f595f0a451b510597ccd9507448c8c5", "lon": -77.02163283333333, "bike_id": "4f595f0a451b510597ccd9507448c8c5", "lat": 38.926103833333336}, {"fusion_lon": 0.0, "fusion_lat": 0.0, "rental_uris": {"android": "https://dc.lft.to/lastmile_qr_scan", "ios": "https://dc.lft.to/lastmile_qr_scan"}, "is_disabled": 0, "type": "electric_scooter", "is_reserved": 0, "name": "35490b4d9ca715d6638b947d4f191b56", "lon": -77.017076, "bike_id": "35490b4d9ca715d6638b947d4f191b56", "lat": 38.8874615}, {"fusion_lon": 0.0, "fusion_lat": 0.0, "rental_uris": {"android": "https://dc.lft.to/lastmile_qr_scan", "ios": "https://dc.lft.to/lastmile_qr_scan"}, "is_disabled": 0, "type": "electric_scooter", "is_reserved": 0, "name": "c849800de0bb3e0daa144e4b9a2aaadb", "lon": -77.03043783333334, "bike_id": "c849800de0bb3e0daa144e4b9a2aaadb", "lat": 38.93978516666667}, {"fusion_lon": 0.0, "fusion_lat": 0.0, "rental_uris": {"android": "https://dc.lft.to/lastmile_qr_scan", "ios": "https://dc.lft.to/lastmile_qr_scan"}, "is_disabled": 0, "type": "electric_scooter", "is_reserved": 0, "name": "838c6709f5678fb9374361df60c01172", "lon": -77.02933216666666, "bike_id": "838c6709f5678fb9374361df60c01172", "lat": 38.902381166666665}, {"fusion_lon": 0.0, "fusion_lat": 0.0, "rental_uris": {"android": "https://dc.lft.to/lastmile_qr_scan", "ios": "https://dc.lft.to/lastmile_qr_scan"}, "is_disabled": 0, "type": "electric_scooter", "is_reserved": 0, "name": "668adbd34d78cd400761014f8b5af567", "lon": -77.034473, "bike_id": "668adbd34d78cd400761014f8b5af567", "lat": 38.918193333333335}, {"fusion_lon": 0.0, "fusion_lat": 0.0, "rental_uris": {"android": "https://dc.lft.to/lastmile_qr_scan", "ios": "https://dc.lft.to/lastmile_qr_scan"}, "is_disabled": 0, "type": "electric_scooter", "is_reserved": 0, "name": "132b8b0a7dc3641ae21ab6d08ef7bb66", "lon": -76.98521083333333, "bike_id": "132b8b0a7dc3641ae21ab6d08ef7bb66", "lat": 38.859997666666665}, {"fusion_lon": 0.0, "fusion_lat": 0.0, "rental_uris": {"android": "https://dc.lft.to/lastmile_qr_scan", "ios": "https://dc.lft.to/lastmile_qr_scan"}, "is_disabled": 0, "type": "electric_scooter", "is_reserved": 0, "name": "00d6fc3718a49ff145a4f44a78ba47f4", "lon": -77.02675716666667, "bike_id": "00d6fc3718a49ff145a4f44a78ba47f4", "lat": 38.937621}, {"fusion_lon": 0.0, "fusion_lat": 0.0, "rental_uris": {"android": "https://dc.lft.to/lastmile_qr_scan", "ios": "https://dc.lft.to/lastmile_qr_scan"}, "is_disabled": 0, "type": "electric_scooter", "is_reserved": 0, "name": "8738dda1a691bf4203815a0ab5e9b1d0", "lon": -77.00136683333334, "bike_id": "8738dda1a691bf4203815a0ab5e9b1d0", "lat": 38.8737975}, {"fusion_lon": 0.0, "fusion_lat": 0.0, "rental_uris": {"android": "https://dc.lft.to/lastmile_qr_scan", "ios": "https://dc.lft.to/lastmile_qr_scan"}, "is_disabled": 0, "type": "electric_scooter", "is_reserved": 0, "name": "501d42376f5424a5fad9edb19ca451ca", "lon": -77.03186733333334, "bike_id": "501d42376f5424a5fad9edb19ca451ca", "lat": 38.91607166666667}, {"fusion_lon": 0.0, "fusion_lat": 0.0, "rental_uris": {"android": "https://dc.lft.to/lastmile_qr_scan", "ios": "https://dc.lft.to/lastmile_qr_scan"}, "is_disabled": 0, "type": "electric_scooter", "is_reserved": 0, "name": "8cfa30375a6a5a1d05feb678251f3dcc", "lon": -77.03766783333333, "bike_id": "8cfa30375a6a5a1d05feb678251f3dcc", "lat": 38.91705983333333}, {"fusion_lon": 0.0, "fusion_lat": 0.0, "rental_uris": {"android": "https://dc.lft.to/lastmile_qr_scan", "ios": "https://dc.lft.to/lastmile_qr_scan"}, "is_disabled": 0, "type": "electric_scooter", "is_reserved": 0, "name": "0e2b0714923c7f0f179f18cbf74772b1", "lon": -77.039572, "bike_id": "0e2b0714923c7f0f179f18cbf74772b1", "lat": 38.90374833333333}, {"fusion_lon": 0.0, "fusion_lat": 0.0, "rental_uris": {"android": "https://dc.lft.to/lastmile_qr_scan", "ios": "https://dc.lft.to/lastmile_qr_scan"}, "is_disabled": 0, "type": "electric_bike", "is_reserved": 0, "name": "3dfe7ebf38743384ebab9df01d3ad7ef", "lon": -77.128848, "bike_id": "3dfe7ebf38743384ebab9df01d3ad7ef", "lat": 38.905984}, {"fusion_lon": 0.0, "fusion_lat": 0.0, "rental_uris": {"android": "https://dc.lft.to/lastmile_qr_scan", "ios": "https://dc.lft.to/lastmile_qr_scan"}, "is_disabled": 0, "type": "electric_scooter", "is_reserved": 0, "name": "2c89336b995812f03228155feac83490", "lon": -77.00147183333333, "bike_id": "2c89336b995812f03228155feac83490", "lat": 38.86748266666667}, {"fusion_lon": 0.0, "fusion_lat": 0.0, "rental_uris": {"android": "https://dc.lft.to/lastmile_qr_scan", "ios": "https://dc.lft.to/lastmile_qr_scan"}, "is_disabled": 0, "type": "electric_scooter", "is_reserved": 0, "name": "464572c87a4312f1551978494830581e", "lon": -77.02811533333333, "bike_id": "464572c87a4312f1551978494830581e", "lat": 38.9258}, {"fusion_lon": 0.0, "fusion_lat": 0.0, "rental_uris": {"android": "https://dc.lft.to/lastmile_qr_scan", "ios": "https://dc.lft.to/lastmile_qr_scan"}, "is_disabled": 0, "type": "electric_scooter", "is_reserved": 0, "name": "62809daa78f608b1f4e2c6c5e7bdf303", "lon": -77.031909, "bike_id": "62809daa78f608b1f4e2c6c5e7bdf303", "lat": 38.892323166666664}, {"fusion_lon": 0.0, "fusion_lat": 0.0, "rental_uris": {"android": "https://dc.lft.to/lastmile_qr_scan", "ios": "https://dc.lft.to/lastmile_qr_scan"}, "is_disabled": 0, "type": "electric_scooter", "is_reserved": 0, "name": "f1f8a729a9186978a2263eca91a00a6f", "lon": -77.03226866666667, "bike_id": "f1f8a729a9186978a2263eca91a00a6f", "lat": 38.9164415}, {"fusion_lon": 0.0, "fusion_lat": 0.0, "rental_uris": {"android": "https://dc.lft.to/lastmile_qr_scan", "ios": "https://dc.lft.to/lastmile_qr_scan"}, "is_disabled": 0, "type": "electric_bike", "is_reserved": 0, "name": "caa8a319b90ec64e1c173f561b216e2a", "lon": -76.950628, "bike_id": "caa8a319b90ec64e1c173f561b216e2a", "lat": 39.08504533333333}, {"fusion_lon": 0.0, "fusion_lat": 0.0, "rental_uris": {"android": "https://dc.lft.to/lastmile_qr_scan", "ios": "https://dc.lft.to/lastmile_qr_scan"}, "is_disabled": 0, "type": "electric_scooter", "is_reserved": 0, "name": "cc81ad66c52ca061aec804c921d3fb58", "lon": -77.02216883333334, "bike_id": "cc81ad66c52ca061aec804c921d3fb58", "lat": 38.92470266666667}, {"fusion_lon": 0.0, "fusion_lat": 0.0, "rental_uris": {"android": "https://dc.lft.to/lastmile_qr_scan", "ios": "https://dc.lft.to/lastmile_qr_scan"}, "is_disabled": 0, "type": "electric_scooter", "is_reserved": 0, "name": "a1d6abe2abe593e9da6e7336bfd2b742", "lon": -77.00321916666667, "bike_id": "a1d6abe2abe593e9da6e7336bfd2b742", "lat": 38.887348}, {"fusion_lon": 0.0, "fusion_lat": 0.0, "rental_uris": {"android": "https://dc.lft.to/lastmile_qr_scan", "ios": "https://dc.lft.to/lastmile_qr_scan"}, "is_disabled": 0, "type": "electric_scooter", "is_reserved": 0, "name": "6ef76d0b2d135b85fa5c3649871958ce", "lon": -76.99121083333333, "bike_id": "6ef76d0b2d135b85fa5c3649871958ce", "lat": 38.900268}, {"fusion_lon": 0.0, "fusion_lat": 0.0, "rental_uris": {"android": "https://dc.lft.to/lastmile_qr_scan", "ios": "https://dc.lft.to/lastmile_qr_scan"}, "is_disabled": 0, "type": "electric_scooter", "is_reserved": 0, "name": "3a43f864c9504573eee1990b70ee384b", "lon": -76.98521266666667, "bike_id": "3a43f864c9504573eee1990b70ee384b", "lat": 38.8667465}, {"fusion_lon": 0.0, "fusion_lat": 0.0, "rental_uris": {"android": "https://dc.lft.to/lastmile_qr_scan", "ios": "https://dc.lft.to/lastmile_qr_scan"}, "is_disabled": 0, "type": "electric_scooter", "is_reserved": 0, "name": "7186f7209d5a5f05dec84c0c6b27267f", "lon": -77.02501833333334, "bike_id": "7186f7209d5a5f05dec84c0c6b27267f", "lat": 38.939621333333335}, {"fusion_lon": 0.0, "fusion_lat": 0.0, "rental_uris": {"android": "https://dc.lft.to/lastmile_qr_scan", "ios": "https://dc.lft.to/lastmile_qr_scan"}, "is_disabled": 0, "type": "electric_scooter", "is_reserved": 0, "name": "389d250a19cf87a2d76ac22c5415adad", "lon": -77.02193566666666, "bike_id": "389d250a19cf87a2d76ac22c5415adad", "lat": 38.89734}, {"fusion_lon": 0.0, "fusion_lat": 0.0, "rental_uris": {"android": "https://dc.lft.to/lastmile_qr_scan", "ios": "https://dc.lft.to/lastmile_qr_scan"}, "is_disabled": 0, "type": "electric_scooter", "is_reserved": 0, "name": "9af745966cd866d2b757833c92d105de", "lon": -77.03063766666666, "bike_id": "9af745966cd866d2b757833c92d105de", "lat": 38.89968283333333}, {"fusion_lon": 0.0, "fusion_lat": 0.0, "rental_uris": {"android": "https://dc.lft.to/lastmile_qr_scan", "ios": "https://dc.lft.to/lastmile_qr_scan"}, "is_disabled": 0, "type": "electric_scooter", "is_reserved": 0, "name": "66c3f5fbf45f0ef47e7b4e0d9c3cc1a0", "lon": -76.98568366666666, "bike_id": "66c3f5fbf45f0ef47e7b4e0d9c3cc1a0", "lat": 38.89620133333333}, {"fusion_lon": 0.0, "fusion_lat": 0.0, "rental_uris": {"android": "https://dc.lft.to/lastmile_qr_scan", "ios": "https://dc.lft.to/lastmile_qr_scan"}, "is_disabled": 0, "type": "electric_scooter", "is_reserved": 0, "name": "6dff81febfd3834af71df0c0d01c2008", "lon": -77.02608833333333, "bike_id": "6dff81febfd3834af71df0c0d01c2008", "lat": 38.8996465}, {"fusion_lon": 0.0, "fusion_lat": 0.0, "rental_uris": {"android": "https://dc.lft.to/lastmile_qr_scan", "ios": "https://dc.lft.to/lastmile_qr_scan"}, "is_disabled": 0, "type": "electric_scooter", "is_reserved": 0, "name": "945a21385889a50d75ed6f784c47dada", "lon": -77.02713966666667, "bike_id": "945a21385889a50d75ed6f784c47dada", "lat": 38.89992816666667}, {"fusion_lon": 0.0, "fusion_lat": 0.0, "rental_uris": {"android": "https://dc.lft.to/lastmile_qr_scan", "ios": "https://dc.lft.to/lastmile_qr_scan"}, "is_disabled": 0, "type": "electric_scooter", "is_reserved": 0, "name": "b0116cdd570b7d72c796cc7d4c9e0957", "lon": -76.983633, "bike_id": "b0116cdd570b7d72c796cc7d4c9e0957", "lat": 38.891535833333336}, {"fusion_lon": 0.0, "fusion_lat": 0.0, "rental_uris": {"android": "https://dc.lft.to/lastmile_qr_scan", "ios": "https://dc.lft.to/lastmile_qr_scan"}, "is_disabled": 0, "type": "electric_scooter", "is_reserved": 0, "name": "d0691a6adf2a30b4eba03dd2681a2c26", "lon": -77.01853283333334, "bike_id": "d0691a6adf2a30b4eba03dd2681a2c26", "lat": 38.949191}, {"fusion_lon": 0.0, "fusion_lat": 0.0, "rental_uris": {"android": "https://dc.lft.to/lastmile_qr_scan", "ios": "https://dc.lft.to/lastmile_qr_scan"}, "is_disabled": 0, "type": "electric_scooter", "is_reserved": 0, "name": "1f90d7e273715ff8923f0ab15eac7e42", "lon": -77.0410485, "bike_id": "1f90d7e273715ff8923f0ab15eac7e42", "lat": 38.9051535}, {"fusion_lon": 0.0, "fusion_lat": 0.0, "rental_uris": {"android": "https://dc.lft.to/lastmile_qr_scan", "ios": "https://dc.lft.to/lastmile_qr_scan"}, "is_disabled": 0, "type": "electric_scooter", "is_reserved": 0, "name": "dfd88402a793f945190564095a47a73b", "lon": -77.02708566666666, "bike_id": "dfd88402a793f945190564095a47a73b", "lat": 38.91797116666667}, {"fusion_lon": 0.0, "fusion_lat": 0.0, "rental_uris": {"android": "https://dc.lft.to/lastmile_qr_scan", "ios": "https://dc.lft.to/lastmile_qr_scan"}, "is_disabled": 0, "type": "electric_scooter", "is_reserved": 0, "name": "cc4108c270b1017c3667573cec60cc46", "lon": -77.00709883333333, "bike_id": "cc4108c270b1017c3667573cec60cc46", "lat": 38.884858666666666}, {"fusion_lon": 0.0, "fusion_lat": 0.0, "rental_uris": {"android": "https://dc.lft.to/lastmile_qr_scan", "ios": "https://dc.lft.to/lastmile_qr_scan"}, "is_disabled": 0, "type": "electric_bike", "is_reserved": 0, "name": "94346dec13778ea385557a3719016829", "lon": -77.00396216666667, "bike_id": "94346dec13778ea385557a3719016829", "lat": 38.9986415}, {"fusion_lon": 0.0, "fusion_lat": 0.0, "rental_uris": {"android": "https://dc.lft.to/lastmile_qr_scan", "ios": "https://dc.lft.to/lastmile_qr_scan"}, "is_disabled": 0, "type": "electric_scooter", "is_reserved": 0, "name": "ded777c7730becb3f808bfd20bfb89b6", "lon": -77.04659633333333, "bike_id": "ded777c7730becb3f808bfd20bfb89b6", "lat": 38.894641166666666}, {"fusion_lon": 0.0, "fusion_lat": 0.0, "rental_uris": {"android": "https://dc.lft.to/lastmile_qr_scan", "ios": "https://dc.lft.to/lastmile_qr_scan"}, "is_disabled": 0, "type": "electric_scooter", "is_reserved": 0, "name": "754f84b0df4002d49535b62fd0b59982", "lon": -77.04017683333333, "bike_id": "754f84b0df4002d49535b62fd0b59982", "lat": 38.904066666666665}, {"fusion_lon": 0.0, "fusion_lat": 0.0, "rental_uris": {"android": "https://dc.lft.to/lastmile_qr_scan", "ios": "https://dc.lft.to/lastmile_qr_scan"}, "is_disabled": 0, "type": "electric_scooter", "is_reserved": 0, "name": "a44cf2e06486813fca66109c914c4472", "lon": -77.04335183333333, "bike_id": "a44cf2e06486813fca66109c914c4472", "lat": 38.9249875}, {"fusion_lon": 0.0, "fusion_lat": 0.0, "rental_uris": {"android": "https://dc.lft.to/lastmile_qr_scan", "ios": "https://dc.lft.to/lastmile_qr_scan"}, "is_disabled": 0, "type": "electric_scooter", "is_reserved": 0, "name": "369ab2c8befb584048791279cc6c6653", "lon": -77.02582433333333, "bike_id": "369ab2c8befb584048791279cc6c6653", "lat": 38.92499733333333}, {"fusion_lon": 0.0, "fusion_lat": 0.0, "rental_uris": {"android": "https://dc.lft.to/lastmile_qr_scan", "ios": "https://dc.lft.to/lastmile_qr_scan"}, "is_disabled": 0, "type": "electric_scooter", "is_reserved": 0, "name": "14de0107ef072085d2b07b1952dbbb37", "lon": -77.01962883333333, "bike_id": "14de0107ef072085d2b07b1952dbbb37", "lat": 38.92361266666666}, {"fusion_lon": 0.0, "fusion_lat": 0.0, "rental_uris": {"android": "https://dc.lft.to/lastmile_qr_scan", "ios": "https://dc.lft.to/lastmile_qr_scan"}, "is_disabled": 0, "type": "electric_scooter", "is_reserved": 0, "name": "92617c08958cf055a633ab744bc645b1", "lon": -77.06520216666667, "bike_id": "92617c08958cf055a633ab744bc645b1", "lat": 38.905886833333334}, {"fusion_lon": 0.0, "fusion_lat": 0.0, "rental_uris": {"android": "https://dc.lft.to/lastmile_qr_scan", "ios": "https://dc.lft.to/lastmile_qr_scan"}, "is_disabled": 0, "type": "electric_scooter", "is_reserved": 0, "name": "93bc818b756c49f29b402fb30fbcc92d", "lon": -77.025374, "bike_id": "93bc818b756c49f29b402fb30fbcc92d", "lat": 38.892210666666664}, {"fusion_lon": 0.0, "fusion_lat": 0.0, "rental_uris": {"android": "https://dc.lft.to/lastmile_qr_scan", "ios": "https://dc.lft.to/lastmile_qr_scan"}, "is_disabled": 0, "type": "electric_scooter", "is_reserved": 0, "name": "ced7a5eb289bcc2f477ecb0616e962b9", "lon": -77.009454, "bike_id": "ced7a5eb289bcc2f477ecb0616e962b9", "lat": 38.8949725}, {"fusion_lon": 0.0, "fusion_lat": 0.0, "rental_uris": {"android": "https://dc.lft.to/lastmile_qr_scan", "ios": "https://dc.lft.to/lastmile_qr_scan"}, "is_disabled": 0, "type": "electric_scooter", "is_reserved": 0, "name": "4e53351eb536a2f3855c284cb45c1df8", "lon": -77.01899733333333, "bike_id": "4e53351eb536a2f3855c284cb45c1df8", "lat": 38.9139305}, {"fusion_lon": 0.0, "fusion_lat": 0.0, "rental_uris": {"android": "https://dc.lft.to/lastmile_qr_scan", "ios": "https://dc.lft.to/lastmile_qr_scan"}, "is_disabled": 0, "type": "electric_scooter", "is_reserved": 0, "name": "0bf0f486c57dfba73dda651f1aa993db", "lon": -77.02669283333333, "bike_id": "0bf0f486c57dfba73dda651f1aa993db", "lat": 38.92173716666667}, {"fusion_lon": 0.0, "fusion_lat": 0.0, "rental_uris": {"android": "https://dc.lft.to/lastmile_qr_scan", "ios": "https://dc.lft.to/lastmile_qr_scan"}, "is_disabled": 0, "type": "electric_scooter", "is_reserved": 0, "name": "edc7f8ccc316c5d0eb9ffcea850690ce", "lon": -77.02981983333333, "bike_id": "edc7f8ccc316c5d0eb9ffcea850690ce", "lat": 38.89717733333333}, {"fusion_lon": 0.0, "fusion_lat": 0.0, "rental_uris": {"android": "https://dc.lft.to/lastmile_qr_scan", "ios": "https://dc.lft.to/lastmile_qr_scan"}, "is_disabled": 0, "type": "electric_scooter", "is_reserved": 0, "name": "428fdb871a7732977f71b3b7be36d4f6", "lon": -77.02842866666667, "bike_id": "428fdb871a7732977f71b3b7be36d4f6", "lat": 38.90150883333333}, {"fusion_lon": 0.0, "fusion_lat": 0.0, "rental_uris": {"android": "https://dc.lft.to/lastmile_qr_scan", "ios": "https://dc.lft.to/lastmile_qr_scan"}, "is_disabled": 0, "type": "electric_scooter", "is_reserved": 0, "name": "e9c18103fa4c5192ce3d659ed543fa52", "lon": -77.07269266666667, "bike_id": "e9c18103fa4c5192ce3d659ed543fa52", "lat": 38.909087666666665}, {"fusion_lon": 0.0, "fusion_lat": 0.0, "rental_uris": {"android": "https://dc.lft.to/lastmile_qr_scan", "ios": "https://dc.lft.to/lastmile_qr_scan"}, "is_disabled": 0, "type": "electric_scooter", "is_reserved": 0, "name": "dfac14a508796fa789032245674f1d2f", "lon": -77.02319816666666, "bike_id": "dfac14a508796fa789032245674f1d2f", "lat": 38.907295500000004}, {"fusion_lon": 0.0, "fusion_lat": 0.0, "rental_uris": {"android": "https://dc.lft.to/lastmile_qr_scan", "ios": "https://dc.lft.to/lastmile_qr_scan"}, "is_disabled": 0, "type": "electric_scooter", "is_reserved": 0, "name": "6bcf11eb1d99b1974144c85fe0e97e6d", "lon": -77.0221395, "bike_id": "6bcf11eb1d99b1974144c85fe0e97e6d", "lat": 38.89607616666667}, {"fusion_lon": 0.0, "fusion_lat": 0.0, "rental_uris": {"android": "https://dc.lft.to/lastmile_qr_scan", "ios": "https://dc.lft.to/lastmile_qr_scan"}, "is_disabled": 0, "type": "electric_scooter", "is_reserved": 0, "name": "c40e2ce84e3cbcf8304b1a1771781526", "lon": -77.02168783333333, "bike_id": "c40e2ce84e3cbcf8304b1a1771781526", "lat": 38.930670166666665}, {"fusion_lon": 0.0, "fusion_lat": 0.0, "rental_uris": {"android": "https://dc.lft.to/lastmile_qr_scan", "ios": "https://dc.lft.to/lastmile_qr_scan"}, "is_disabled": 0, "type": "electric_scooter", "is_reserved": 0, "name": "32a8ccc3834b94507d48bd19b2781097", "lon": -77.03517233333334, "bike_id": "32a8ccc3834b94507d48bd19b2781097", "lat": 38.922311}, {"fusion_lon": 0.0, "fusion_lat": 0.0, "rental_uris": {"android": "https://dc.lft.to/lastmile_qr_scan", "ios": "https://dc.lft.to/lastmile_qr_scan"}, "is_disabled": 0, "type": "electric_scooter", "is_reserved": 0, "name": "e9b9f83e49aa462d75b3b5c3cc7a9d68", "lon": -77.02417933333334, "bike_id": "e9b9f83e49aa462d75b3b5c3cc7a9d68", "lat": 38.90569283333333}, {"fusion_lon": 0.0, "fusion_lat": 0.0, "rental_uris": {"android": "https://dc.lft.to/lastmile_qr_scan", "ios": "https://dc.lft.to/lastmile_qr_scan"}, "is_disabled": 0, "type": "electric_scooter", "is_reserved": 0, "name": "65255ee2a1b19cbff2d74bfa44530566", "lon": -77.02815733333334, "bike_id": "65255ee2a1b19cbff2d74bfa44530566", "lat": 38.9223635}, {"fusion_lon": 0.0, "fusion_lat": 0.0, "rental_uris": {"android": "https://dc.lft.to/lastmile_qr_scan", "ios": "https://dc.lft.to/lastmile_qr_scan"}, "is_disabled": 0, "type": "electric_scooter", "is_reserved": 0, "name": "05424d7ca8defbaaafa829732041a9d2", "lon": -77.03194366666666, "bike_id": "05424d7ca8defbaaafa829732041a9d2", "lat": 38.89967083333333}, {"fusion_lon": 0.0, "fusion_lat": 0.0, "rental_uris": {"android": "https://dc.lft.to/lastmile_qr_scan", "ios": "https://dc.lft.to/lastmile_qr_scan"}, "is_disabled": 0, "type": "electric_scooter", "is_reserved": 0, "name": "d198341af7c50c64f50f06d1faf4c481", "lon": -77.01258466666667, "bike_id": "d198341af7c50c64f50f06d1faf4c481", "lat": 38.9432635}, {"fusion_lon": 0.0, "fusion_lat": 0.0, "rental_uris": {"android": "https://dc.lft.to/lastmile_qr_scan", "ios": "https://dc.lft.to/lastmile_qr_scan"}, "is_disabled": 0, "type": "electric_scooter", "is_reserved": 0, "name": "856c8327c041dd121d8c9a81b043ea51", "lon": -77.022128, "bike_id": "856c8327c041dd121d8c9a81b043ea51", "lat": 38.924738166666664}, {"fusion_lon": 0.0, "fusion_lat": 0.0, "rental_uris": {"android": "https://dc.lft.to/lastmile_qr_scan", "ios": "https://dc.lft.to/lastmile_qr_scan"}, "is_disabled": 0, "type": "electric_scooter", "is_reserved": 0, "name": "9685c78d6c879bf147877c7d9b14642a", "lon": -77.01787, "bike_id": "9685c78d6c879bf147877c7d9b14642a", "lat": 38.91921816666667}, {"fusion_lon": 0.0, "fusion_lat": 0.0, "rental_uris": {"android": "https://dc.lft.to/lastmile_qr_scan", "ios": "https://dc.lft.to/lastmile_qr_scan"}, "is_disabled": 0, "type": "electric_scooter", "is_reserved": 0, "name": "35aaf08f465948f1387434212ac2a8a0", "lon": -77.0486915, "bike_id": "35aaf08f465948f1387434212ac2a8a0", "lat": 38.8922155}, {"fusion_lon": 0.0, "fusion_lat": 0.0, "rental_uris": {"android": "https://dc.lft.to/lastmile_qr_scan", "ios": "https://dc.lft.to/lastmile_qr_scan"}, "is_disabled": 0, "type": "electric_scooter", "is_reserved": 0, "name": "47a9f68e9c24a9460367d1734961a3df", "lon": -77.03386683333333, "bike_id": "47a9f68e9c24a9460367d1734961a3df", "lat": 38.92154816666667}, {"fusion_lon": 0.0, "fusion_lat": 0.0, "rental_uris": {"android": "https://dc.lft.to/lastmile_qr_scan", "ios": "https://dc.lft.to/lastmile_qr_scan"}, "is_disabled": 0, "type": "electric_scooter", "is_reserved": 0, "name": "e6feee8d4a17a696c63437db2495beb9", "lon": -77.03122066666667, "bike_id": "e6feee8d4a17a696c63437db2495beb9", "lat": 38.920189}, {"fusion_lon": 0.0, "fusion_lat": 0.0, "rental_uris": {"android": "https://dc.lft.to/lastmile_qr_scan", "ios": "https://dc.lft.to/lastmile_qr_scan"}, "is_disabled": 0, "type": "electric_scooter", "is_reserved": 0, "name": "e3f1d322db0da4a66719ab1c02cca854", "lon": -77.01793, "bike_id": "e3f1d322db0da4a66719ab1c02cca854", "lat": 38.919219166666664}, {"fusion_lon": 0.0, "fusion_lat": 0.0, "rental_uris": {"android": "https://dc.lft.to/lastmile_qr_scan", "ios": "https://dc.lft.to/lastmile_qr_scan"}, "is_disabled": 0, "type": "electric_scooter", "is_reserved": 0, "name": "9fec71e8571282af4a2c393b4053a5b1", "lon": -77.02381233333334, "bike_id": "9fec71e8571282af4a2c393b4053a5b1", "lat": 38.952691}, {"fusion_lon": 0.0, "fusion_lat": 0.0, "rental_uris": {"android": "https://dc.lft.to/lastmile_qr_scan", "ios": "https://dc.lft.to/lastmile_qr_scan"}, "is_disabled": 0, "type": "electric_scooter", "is_reserved": 0, "name": "ef1991e4f51046d8da10cc8a4d3964bc", "lon": -77.06273366666667, "bike_id": "ef1991e4f51046d8da10cc8a4d3964bc", "lat": 38.90574683333333}, {"fusion_lon": 0.0, "fusion_lat": 0.0, "rental_uris": {"android": "https://dc.lft.to/lastmile_qr_scan", "ios": "https://dc.lft.to/lastmile_qr_scan"}, "is_disabled": 0, "type": "electric_scooter", "is_reserved": 0, "name": "9ffb5576683d987fb2566a069bb06138", "lon": -77.02034166666667, "bike_id": "9ffb5576683d987fb2566a069bb06138", "lat": 38.9240745}, {"fusion_lon": 0.0, "fusion_lat": 0.0, "rental_uris": {"android": "https://dc.lft.to/lastmile_qr_scan", "ios": "https://dc.lft.to/lastmile_qr_scan"}, "is_disabled": 0, "type": "electric_scooter", "is_reserved": 0, "name": "a34634d43d299ee7ce2b2c12c0c4141b", "lon": -77.04479433333333, "bike_id": "a34634d43d299ee7ce2b2c12c0c4141b", "lat": 38.91078483333333}, {"fusion_lon": 0.0, "fusion_lat": 0.0, "rental_uris": {"android": "https://dc.lft.to/lastmile_qr_scan", "ios": "https://dc.lft.to/lastmile_qr_scan"}, "is_disabled": 0, "type": "electric_scooter", "is_reserved": 0, "name": "0b5c21c0725763f6b4d096328399a161", "lon": -77.02346716666666, "bike_id": "0b5c21c0725763f6b4d096328399a161", "lat": 38.9311105}, {"fusion_lon": 0.0, "fusion_lat": 0.0, "rental_uris": {"android": "https://dc.lft.to/lastmile_qr_scan", "ios": "https://dc.lft.to/lastmile_qr_scan"}, "is_disabled": 0, "type": "electric_scooter", "is_reserved": 0, "name": "3c670a103818651788d329a1a7714cc5", "lon": -77.0428685, "bike_id": "3c670a103818651788d329a1a7714cc5", "lat": 38.903627166666666}, {"fusion_lon": 0.0, "fusion_lat": 0.0, "rental_uris": {"android": "https://dc.lft.to/lastmile_qr_scan", "ios": "https://dc.lft.to/lastmile_qr_scan"}, "is_disabled": 0, "type": "electric_scooter", "is_reserved": 0, "name": "936881328f02ac4396534102acaee74f", "lon": -77.02821066666667, "bike_id": "936881328f02ac4396534102acaee74f", "lat": 38.9069765}, {"fusion_lon": 0.0, "fusion_lat": 0.0, "rental_uris": {"android": "https://dc.lft.to/lastmile_qr_scan", "ios": "https://dc.lft.to/lastmile_qr_scan"}, "is_disabled": 0, "type": "electric_scooter", "is_reserved": 0, "name": "8c0e8d22c03e444e296fff64dceb2d22", "lon": -77.03295116666666, "bike_id": "8c0e8d22c03e444e296fff64dceb2d22", "lat": 38.928673}, {"fusion_lon": 0.0, "fusion_lat": 0.0, "rental_uris": {"android": "https://dc.lft.to/lastmile_qr_scan", "ios": "https://dc.lft.to/lastmile_qr_scan"}, "is_disabled": 0, "type": "electric_scooter", "is_reserved": 0, "name": "41b4817b80a9ea4d76d7309c95fba7ff", "lon": -77.020533, "bike_id": "41b4817b80a9ea4d76d7309c95fba7ff", "lat": 38.927664}, {"fusion_lon": 0.0, "fusion_lat": 0.0, "rental_uris": {"android": "https://dc.lft.to/lastmile_qr_scan", "ios": "https://dc.lft.to/lastmile_qr_scan"}, "is_disabled": 0, "type": "electric_scooter", "is_reserved": 0, "name": "abe5a6d5241959f75f86a184a6b505f1", "lon": -77.0579005, "bike_id": "abe5a6d5241959f75f86a184a6b505f1", "lat": 38.902795833333336}, {"fusion_lon": 0.0, "fusion_lat": 0.0, "rental_uris": {"android": "https://dc.lft.to/lastmile_qr_scan", "ios": "https://dc.lft.to/lastmile_qr_scan"}, "is_disabled": 0, "type": "electric_scooter", "is_reserved": 0, "name": "b80e929d2ba91f6eff8a3f83e6622696", "lon": -77.02203366666667, "bike_id": "b80e929d2ba91f6eff8a3f83e6622696", "lat": 38.90228483333333}, {"fusion_lon": 0.0, "fusion_lat": 0.0, "rental_uris": {"android": "https://dc.lft.to/lastmile_qr_scan", "ios": "https://dc.lft.to/lastmile_qr_scan"}, "is_disabled": 0, "type": "electric_scooter", "is_reserved": 0, "name": "a2d6bf3208548e886e80bdc0ad975e15", "lon": -77.01914866666667, "bike_id": "a2d6bf3208548e886e80bdc0ad975e15", "lat": 38.92373466666667}, {"fusion_lon": 0.0, "fusion_lat": 0.0, "rental_uris": {"android": "https://dc.lft.to/lastmile_qr_scan", "ios": "https://dc.lft.to/lastmile_qr_scan"}, "is_disabled": 0, "type": "electric_scooter", "is_reserved": 0, "name": "55f3499c81385a199cad2db42ec4d9ca", "lon": -77.02149966666667, "bike_id": "55f3499c81385a199cad2db42ec4d9ca", "lat": 38.9198965}, {"fusion_lon": 0.0, "fusion_lat": 0.0, "rental_uris": {"android": "https://dc.lft.to/lastmile_qr_scan", "ios": "https://dc.lft.to/lastmile_qr_scan"}, "is_disabled": 0, "type": "electric_scooter", "is_reserved": 0, "name": "e7d960e72acb56996db2a187fb26705f", "lon": -77.025775, "bike_id": "e7d960e72acb56996db2a187fb26705f", "lat": 38.9249885}, {"fusion_lon": 0.0, "fusion_lat": 0.0, "rental_uris": {"android": "https://dc.lft.to/lastmile_qr_scan", "ios": "https://dc.lft.to/lastmile_qr_scan"}, "is_disabled": 0, "type": "electric_scooter", "is_reserved": 0, "name": "102f1f34b7d0fb55a0718b44d261ddf6", "lon": -77.03442816666667, "bike_id": "102f1f34b7d0fb55a0718b44d261ddf6", "lat": 38.9042285}, {"fusion_lon": 0.0, "fusion_lat": 0.0, "rental_uris": {"android": "https://dc.lft.to/lastmile_qr_scan", "ios": "https://dc.lft.to/lastmile_qr_scan"}, "is_disabled": 0, "type": "electric_scooter", "is_reserved": 0, "name": "3ba910ef41ed631a2485f62e68dcd82f", "lon": -76.9950535, "bike_id": "3ba910ef41ed631a2485f62e68dcd82f", "lat": 38.880011833333334}, {"fusion_lon": 0.0, "fusion_lat": 0.0, "rental_uris": {"android": "https://dc.lft.to/lastmile_qr_scan", "ios": "https://dc.lft.to/lastmile_qr_scan"}, "is_disabled": 0, "type": "electric_scooter", "is_reserved": 0, "name": "138aa84d0370bff2b03f7c2950ddea9f", "lon": -77.03537933333334, "bike_id": "138aa84d0370bff2b03f7c2950ddea9f", "lat": 38.92463683333333}, {"fusion_lon": 0.0, "fusion_lat": 0.0, "rental_uris": {"android": "https://dc.lft.to/lastmile_qr_scan", "ios": "https://dc.lft.to/lastmile_qr_scan"}, "is_disabled": 0, "type": "electric_scooter", "is_reserved": 0, "name": "66e5105f3f3f101a494ed7d4300de4a7", "lon": -77.03986783333333, "bike_id": "66e5105f3f3f101a494ed7d4300de4a7", "lat": 38.892188833333336}, {"fusion_lon": 0.0, "fusion_lat": 0.0, "rental_uris": {"android": "https://dc.lft.to/lastmile_qr_scan", "ios": "https://dc.lft.to/lastmile_qr_scan"}, "is_disabled": 0, "type": "electric_scooter", "is_reserved": 0, "name": "77087acf4d2c551a77b8c60ed6d3a1a9", "lon": -77.01397716666666, "bike_id": "77087acf4d2c551a77b8c60ed6d3a1a9", "lat": 38.92843516666667}, {"fusion_lon": 0.0, "fusion_lat": 0.0, "rental_uris": {"android": "https://dc.lft.to/lastmile_qr_scan", "ios": "https://dc.lft.to/lastmile_qr_scan"}, "is_disabled": 0, "type": "electric_scooter", "is_reserved": 0, "name": "ddf8c0241c0b496e2551c3677c5d6b36", "lon": -77.08057066666667, "bike_id": "ddf8c0241c0b496e2551c3677c5d6b36", "lat": 38.92367333333333}, {"fusion_lon": 0.0, "fusion_lat": 0.0, "rental_uris": {"android": "https://dc.lft.to/lastmile_qr_scan", "ios": "https://dc.lft.to/lastmile_qr_scan"}, "is_disabled": 0, "type": "electric_bike", "is_reserved": 0, "name": "9ee148720d3afa3bbef1238f711ed68d", "lon": -76.93544433333334, "bike_id": "9ee148720d3afa3bbef1238f711ed68d", "lat": 38.951835833333334}, {"fusion_lon": 0.0, "fusion_lat": 0.0, "rental_uris": {"android": "https://dc.lft.to/lastmile_qr_scan", "ios": "https://dc.lft.to/lastmile_qr_scan"}, "is_disabled": 0, "type": "electric_scooter", "is_reserved": 0, "name": "827ab406f259561c3e563c064a7b143f", "lon": -77.03650116666667, "bike_id": "827ab406f259561c3e563c064a7b143f", "lat": 38.91868783333334}, {"fusion_lon": 0.0, "fusion_lat": 0.0, "rental_uris": {"android": "https://dc.lft.to/lastmile_qr_scan", "ios": "https://dc.lft.to/lastmile_qr_scan"}, "is_disabled": 0, "type": "electric_scooter", "is_reserved": 0, "name": "ddcb6deb5206535087ab4e0340bb0beb", "lon": -77.02202383333334, "bike_id": "ddcb6deb5206535087ab4e0340bb0beb", "lat": 38.91121616666667}, {"fusion_lon": 0.0, "fusion_lat": 0.0, "rental_uris": {"android": "https://dc.lft.to/lastmile_qr_scan", "ios": "https://dc.lft.to/lastmile_qr_scan"}, "is_disabled": 0, "type": "electric_scooter", "is_reserved": 0, "name": "650b3a33a678623324cd724dafa36795", "lon": -77.02130533333333, "bike_id": "650b3a33a678623324cd724dafa36795", "lat": 38.922718833333334}, {"fusion_lon": 0.0, "fusion_lat": 0.0, "rental_uris": {"android": "https://dc.lft.to/lastmile_qr_scan", "ios": "https://dc.lft.to/lastmile_qr_scan"}, "is_disabled": 0, "type": "electric_scooter", "is_reserved": 0, "name": "fb957eb730f5cfdee04cf9f9f03a495c", "lon": -77.01872583333333, "bike_id": "fb957eb730f5cfdee04cf9f9f03a495c", "lat": 38.92133783333333}, {"fusion_lon": 0.0, "fusion_lat": 0.0, "rental_uris": {"android": "https://dc.lft.to/lastmile_qr_scan", "ios": "https://dc.lft.to/lastmile_qr_scan"}, "is_disabled": 0, "type": "electric_scooter", "is_reserved": 0, "name": "ed8d3659a3d71898db06fc941b075ea0", "lon": -77.04673033333333, "bike_id": "ed8d3659a3d71898db06fc941b075ea0", "lat": 38.8985385}, {"fusion_lon": 0.0, "fusion_lat": 0.0, "rental_uris": {"android": "https://dc.lft.to/lastmile_qr_scan", "ios": "https://dc.lft.to/lastmile_qr_scan"}, "is_disabled": 0, "type": "electric_scooter", "is_reserved": 0, "name": "75bef43f80dde887c54319ec4ce30332", "lon": -77.016713, "bike_id": "75bef43f80dde887c54319ec4ce30332", "lat": 38.920443166666665}, {"fusion_lon": 0.0, "fusion_lat": 0.0, "rental_uris": {"android": "https://dc.lft.to/lastmile_qr_scan", "ios": "https://dc.lft.to/lastmile_qr_scan"}, "is_disabled": 0, "type": "electric_scooter", "is_reserved": 0, "name": "bcedb0048f52fc81506f6f5365feace4", "lon": -77.029543, "bike_id": "bcedb0048f52fc81506f6f5365feace4", "lat": 38.9430555}, {"fusion_lon": 0.0, "fusion_lat": 0.0, "rental_uris": {"android": "https://dc.lft.to/lastmile_qr_scan", "ios": "https://dc.lft.to/lastmile_qr_scan"}, "is_disabled": 0, "type": "electric_scooter", "is_reserved": 0, "name": "6ac906d30438b12861790cd83abbeb38", "lon": -77.02200166666667, "bike_id": "6ac906d30438b12861790cd83abbeb38", "lat": 38.92476466666667}, {"fusion_lon": 0.0, "fusion_lat": 0.0, "rental_uris": {"android": "https://dc.lft.to/lastmile_qr_scan", "ios": "https://dc.lft.to/lastmile_qr_scan"}, "is_disabled": 0, "type": "electric_bike", "is_reserved": 0, "name": "176faead7051af34cad74cdc79c575c8", "lon": -77.09020916666667, "bike_id": "176faead7051af34cad74cdc79c575c8", "lat": 38.9265045}, {"fusion_lon": 0.0, "fusion_lat": 0.0, "rental_uris": {"android": "https://dc.lft.to/lastmile_qr_scan", "ios": "https://dc.lft.to/lastmile_qr_scan"}, "is_disabled": 0, "type": "electric_bike", "is_reserved": 0, "name": "7cec7018c978e6d1bd515681bae1cd4a", "lon": -76.98411616666667, "bike_id": "7cec7018c978e6d1bd515681bae1cd4a", "lat": 38.974107000000004}, {"fusion_lon": 0.0, "fusion_lat": 0.0, "rental_uris": {"android": "https://dc.lft.to/lastmile_qr_scan", "ios": "https://dc.lft.to/lastmile_qr_scan"}, "is_disabled": 0, "type": "electric_scooter", "is_reserved": 0, "name": "4509ca34051cc6a89037b3daae826e4b", "lon": -76.998102, "bike_id": "4509ca34051cc6a89037b3daae826e4b", "lat": 38.907364}, {"fusion_lon": 0.0, "fusion_lat": 0.0, "rental_uris": {"android": "https://dc.lft.to/lastmile_qr_scan", "ios": "https://dc.lft.to/lastmile_qr_scan"}, "is_disabled": 0, "type": "electric_scooter", "is_reserved": 0, "name": "9f4085e5603f793322e717e404fbe97f", "lon": -77.004987, "bike_id": "9f4085e5603f793322e717e404fbe97f", "lat": 38.916189333333335}, {"fusion_lon": 0.0, "fusion_lat": 0.0, "rental_uris": {"android": "https://dc.lft.to/lastmile_qr_scan", "ios": "https://dc.lft.to/lastmile_qr_scan"}, "is_disabled": 0, "type": "electric_scooter", "is_reserved": 0, "name": "af3f880168a2e34b0d27ebe2a4818fb8", "lon": -77.03976833333333, "bike_id": "af3f880168a2e34b0d27ebe2a4818fb8", "lat": 38.906286}, {"fusion_lon": 0.0, "fusion_lat": 0.0, "rental_uris": {"android": "https://dc.lft.to/lastmile_qr_scan", "ios": "https://dc.lft.to/lastmile_qr_scan"}, "is_disabled": 0, "type": "electric_bike", "is_reserved": 0, "name": "514a93a54bb85d312df1ff837188fe4f", "lon": -77.08170583333333, "bike_id": "514a93a54bb85d312df1ff837188fe4f", "lat": 38.907783333333334}, {"fusion_lon": 0.0, "fusion_lat": 0.0, "rental_uris": {"android": "https://dc.lft.to/lastmile_qr_scan", "ios": "https://dc.lft.to/lastmile_qr_scan"}, "is_disabled": 0, "type": "electric_scooter", "is_reserved": 0, "name": "22807e131c6ee22b7e9db10a1d93885f", "lon": -76.99596616666666, "bike_id": "22807e131c6ee22b7e9db10a1d93885f", "lat": 38.884314833333335}, {"fusion_lon": 0.0, "fusion_lat": 0.0, "rental_uris": {"android": "https://dc.lft.to/lastmile_qr_scan", "ios": "https://dc.lft.to/lastmile_qr_scan"}, "is_disabled": 0, "type": "electric_scooter", "is_reserved": 0, "name": "cedc1237cf7eb7be88cf1608db153bb0", "lon": -77.0373245, "bike_id": "cedc1237cf7eb7be88cf1608db153bb0", "lat": 38.91120266666667}, {"fusion_lon": 0.0, "fusion_lat": 0.0, "rental_uris": {"android": "https://dc.lft.to/lastmile_qr_scan", "ios": "https://dc.lft.to/lastmile_qr_scan"}, "is_disabled": 0, "type": "electric_scooter", "is_reserved": 0, "name": "5963318da881a85865806fc52df6f1b5", "lon": -77.02387466666667, "bike_id": "5963318da881a85865806fc52df6f1b5", "lat": 38.926985333333334}, {"fusion_lon": 0.0, "fusion_lat": 0.0, "rental_uris": {"android": "https://dc.lft.to/lastmile_qr_scan", "ios": "https://dc.lft.to/lastmile_qr_scan"}, "is_disabled": 0, "type": "electric_bike", "is_reserved": 0, "name": "0cae937427724a1787cc39a863865753", "lon": -77.0644675, "bike_id": "0cae937427724a1787cc39a863865753", "lat": 38.9055775}, {"fusion_lon": 0.0, "fusion_lat": 0.0, "rental_uris": {"android": "https://dc.lft.to/lastmile_qr_scan", "ios": "https://dc.lft.to/lastmile_qr_scan"}, "is_disabled": 0, "type": "electric_scooter", "is_reserved": 0, "name": "ceada2e3957ba962638a90fc56431e83", "lon": -77.01627883333333, "bike_id": "ceada2e3957ba962638a90fc56431e83", "lat": 38.91070533333333}, {"fusion_lon": 0.0, "fusion_lat": 0.0, "rental_uris": {"android": "https://dc.lft.to/lastmile_qr_scan", "ios": "https://dc.lft.to/lastmile_qr_scan"}, "is_disabled": 0, "type": "electric_scooter", "is_reserved": 0, "name": "6b80dc40e4db2c267286dbe3e6eb5a84", "lon": -77.0266705, "bike_id": "6b80dc40e4db2c267286dbe3e6eb5a84", "lat": 38.93203966666667}, {"fusion_lon": 0.0, "fusion_lat": 0.0, "rental_uris": {"android": "https://dc.lft.to/lastmile_qr_scan", "ios": "https://dc.lft.to/lastmile_qr_scan"}, "is_disabled": 0, "type": "electric_scooter", "is_reserved": 0, "name": "8a4853e2a518364106a24a41b4f14c65", "lon": -77.02031266666667, "bike_id": "8a4853e2a518364106a24a41b4f14c65", "lat": 38.924098}, {"fusion_lon": 0.0, "fusion_lat": 0.0, "rental_uris": {"android": "https://dc.lft.to/lastmile_qr_scan", "ios": "https://dc.lft.to/lastmile_qr_scan"}, "is_disabled": 0, "type": "electric_scooter", "is_reserved": 0, "name": "91985daf722313ff1f078360048a449b", "lon": -77.042001, "bike_id": "91985daf722313ff1f078360048a449b", "lat": 38.920596}, {"fusion_lon": 0.0, "fusion_lat": 0.0, "rental_uris": {"android": "https://dc.lft.to/lastmile_qr_scan", "ios": "https://dc.lft.to/lastmile_qr_scan"}, "is_disabled": 0, "type": "electric_scooter", "is_reserved": 0, "name": "20317f0c56d30ff7415bec4403ad2b78", "lon": -77.02318366666667, "bike_id": "20317f0c56d30ff7415bec4403ad2b78", "lat": 38.9207425}, {"fusion_lon": 0.0, "fusion_lat": 0.0, "rental_uris": {"android": "https://dc.lft.to/lastmile_qr_scan", "ios": "https://dc.lft.to/lastmile_qr_scan"}, "is_disabled": 0, "type": "electric_scooter", "is_reserved": 0, "name": "6ec97f7a96f3dd85096933a9cbb2f296", "lon": -77.002031, "bike_id": "6ec97f7a96f3dd85096933a9cbb2f296", "lat": 38.902380666666666}, {"fusion_lon": 0.0, "fusion_lat": 0.0, "rental_uris": {"android": "https://dc.lft.to/lastmile_qr_scan", "ios": "https://dc.lft.to/lastmile_qr_scan"}, "is_disabled": 0, "type": "electric_scooter", "is_reserved": 0, "name": "049d24a149f382c39fdf54a28ef80af1", "lon": -76.937599, "bike_id": "049d24a149f382c39fdf54a28ef80af1", "lat": 38.899335666666666}, {"fusion_lon": 0.0, "fusion_lat": 0.0, "rental_uris": {"android": "https://dc.lft.to/lastmile_qr_scan", "ios": "https://dc.lft.to/lastmile_qr_scan"}, "is_disabled": 0, "type": "electric_scooter", "is_reserved": 0, "name": "c09e4efeb8847f9b44ce46ae79290246", "lon": -77.028237, "bike_id": "c09e4efeb8847f9b44ce46ae79290246", "lat": 38.9070055}, {"fusion_lon": 0.0, "fusion_lat": 0.0, "rental_uris": {"android": "https://dc.lft.to/lastmile_qr_scan", "ios": "https://dc.lft.to/lastmile_qr_scan"}, "is_disabled": 0, "type": "electric_scooter", "is_reserved": 0, "name": "58a97f75ab4d78629a1be747f51356f1", "lon": -77.01067683333333, "bike_id": "58a97f75ab4d78629a1be747f51356f1", "lat": 38.873126166666665}, {"fusion_lon": 0.0, "fusion_lat": 0.0, "rental_uris": {"android": "https://dc.lft.to/lastmile_qr_scan", "ios": "https://dc.lft.to/lastmile_qr_scan"}, "is_disabled": 0, "type": "electric_scooter", "is_reserved": 0, "name": "240a7f090590a007b99c09318a673d47", "lon": -77.0213715, "bike_id": "240a7f090590a007b99c09318a673d47", "lat": 38.9236485}, {"fusion_lon": 0.0, "fusion_lat": 0.0, "rental_uris": {"android": "https://dc.lft.to/lastmile_qr_scan", "ios": "https://dc.lft.to/lastmile_qr_scan"}, "is_disabled": 0, "type": "electric_bike", "is_reserved": 0, "name": "cf0088f373846d3448b6e98b28f48f9e", "lon": -77.0431435, "bike_id": "cf0088f373846d3448b6e98b28f48f9e", "lat": 39.0342735}, {"fusion_lon": 0.0, "fusion_lat": 0.0, "rental_uris": {"android": "https://dc.lft.to/lastmile_qr_scan", "ios": "https://dc.lft.to/lastmile_qr_scan"}, "is_disabled": 0, "type": "electric_scooter", "is_reserved": 0, "name": "db205cd5879891017f3e39faac9f10f0", "lon": -77.04178366666666, "bike_id": "db205cd5879891017f3e39faac9f10f0", "lat": 38.9190695}, {"fusion_lon": 0.0, "fusion_lat": 0.0, "rental_uris": {"android": "https://dc.lft.to/lastmile_qr_scan", "ios": "https://dc.lft.to/lastmile_qr_scan"}, "is_disabled": 0, "type": "electric_bike", "is_reserved": 0, "name": "64336553c318217a20f3f1f5a009f175", "lon": -76.931907, "bike_id": "64336553c318217a20f3f1f5a009f175", "lat": 38.87950033333333}, {"fusion_lon": 0.0, "fusion_lat": 0.0, "rental_uris": {"android": "https://dc.lft.to/lastmile_qr_scan", "ios": "https://dc.lft.to/lastmile_qr_scan"}, "is_disabled": 0, "type": "electric_bike", "is_reserved": 0, "name": "0735b83f190a56ae8bc9868a3750cc9d", "lon": -76.956985, "bike_id": "0735b83f190a56ae8bc9868a3750cc9d", "lat": 38.8887455}, {"fusion_lon": 0.0, "fusion_lat": 0.0, "rental_uris": {"android": "https://dc.lft.to/lastmile_qr_scan", "ios": "https://dc.lft.to/lastmile_qr_scan"}, "is_disabled": 0, "type": "electric_scooter", "is_reserved": 0, "name": "72f9ce46185242287a218b22596a0939", "lon": -77.05257133333333, "bike_id": "72f9ce46185242287a218b22596a0939", "lat": 38.903489666666665}, {"fusion_lon": 0.0, "fusion_lat": 0.0, "rental_uris": {"android": "https://dc.lft.to/lastmile_qr_scan", "ios": "https://dc.lft.to/lastmile_qr_scan"}, "is_disabled": 0, "type": "electric_scooter", "is_reserved": 0, "name": "44de5377ac440a52afe468187078712b", "lon": -77.024189, "bike_id": "44de5377ac440a52afe468187078712b", "lat": 38.89520183333333}, {"fusion_lon": 0.0, "fusion_lat": 0.0, "rental_uris": {"android": "https://dc.lft.to/lastmile_qr_scan", "ios": "https://dc.lft.to/lastmile_qr_scan"}, "is_disabled": 0, "type": "electric_scooter", "is_reserved": 0, "name": "04fe2c786c3d4d98a880052a49502219", "lon": -77.0637565, "bike_id": "04fe2c786c3d4d98a880052a49502219", "lat": 38.908386166666666}, {"fusion_lon": 0.0, "fusion_lat": 0.0, "rental_uris": {"android": "https://dc.lft.to/lastmile_qr_scan", "ios": "https://dc.lft.to/lastmile_qr_scan"}, "is_disabled": 0, "type": "electric_scooter", "is_reserved": 0, "name": "e36a0bbd379f1b5d19806856818fcd93", "lon": -77.02131833333334, "bike_id": "e36a0bbd379f1b5d19806856818fcd93", "lat": 38.94060566666667}, {"fusion_lon": 0.0, "fusion_lat": 0.0, "rental_uris": {"android": "https://dc.lft.to/lastmile_qr_scan", "ios": "https://dc.lft.to/lastmile_qr_scan"}, "is_disabled": 0, "type": "electric_scooter", "is_reserved": 0, "name": "dd41dee6a5c1bb2d54b62be85a39771c", "lon": -77.05018616666666, "bike_id": "dd41dee6a5c1bb2d54b62be85a39771c", "lat": 38.906196666666666}, {"fusion_lon": 0.0, "fusion_lat": 0.0, "rental_uris": {"android": "https://dc.lft.to/lastmile_qr_scan", "ios": "https://dc.lft.to/lastmile_qr_scan"}, "is_disabled": 0, "type": "electric_scooter", "is_reserved": 0, "name": "ab150058989d59bb5ae9511bcf1e05e6", "lon": -77.02496766666667, "bike_id": "ab150058989d59bb5ae9511bcf1e05e6", "lat": 38.917880833333335}, {"fusion_lon": 0.0, "fusion_lat": 0.0, "rental_uris": {"android": "https://dc.lft.to/lastmile_qr_scan", "ios": "https://dc.lft.to/lastmile_qr_scan"}, "is_disabled": 0, "type": "electric_scooter", "is_reserved": 0, "name": "378bef8a1c24f644e82bbfdd7abc70d0", "lon": -77.02983383333333, "bike_id": "378bef8a1c24f644e82bbfdd7abc70d0", "lat": 38.94717333333333}, {"fusion_lon": 0.0, "fusion_lat": 0.0, "rental_uris": {"android": "https://dc.lft.to/lastmile_qr_scan", "ios": "https://dc.lft.to/lastmile_qr_scan"}, "is_disabled": 0, "type": "electric_scooter", "is_reserved": 0, "name": "46195b70ab5162dbe22cd9ce68603e6d", "lon": -77.03968266666666, "bike_id": "46195b70ab5162dbe22cd9ce68603e6d", "lat": 38.901239833333335}, {"fusion_lon": 0.0, "fusion_lat": 0.0, "rental_uris": {"android": "https://dc.lft.to/lastmile_qr_scan", "ios": "https://dc.lft.to/lastmile_qr_scan"}, "is_disabled": 0, "type": "electric_scooter", "is_reserved": 0, "name": "5744eeebe54b012af94c92c8075a2f9b", "lon": -77.07497483333333, "bike_id": "5744eeebe54b012af94c92c8075a2f9b", "lat": 38.91192266666667}, {"fusion_lon": 0.0, "fusion_lat": 0.0, "rental_uris": {"android": "https://dc.lft.to/lastmile_qr_scan", "ios": "https://dc.lft.to/lastmile_qr_scan"}, "is_disabled": 0, "type": "electric_scooter", "is_reserved": 0, "name": "2302686af8b5a754f7cbd5828bf77240", "lon": -77.03353666666666, "bike_id": "2302686af8b5a754f7cbd5828bf77240", "lat": 38.884791666666665}, {"fusion_lon": 0.0, "fusion_lat": 0.0, "rental_uris": {"android": "https://dc.lft.to/lastmile_qr_scan", "ios": "https://dc.lft.to/lastmile_qr_scan"}, "is_disabled": 0, "type": "electric_scooter", "is_reserved": 0, "name": "bbd8f52ccb8415ead3653a48e9c7c910", "lon": -77.0194015, "bike_id": "bbd8f52ccb8415ead3653a48e9c7c910", "lat": 38.956405333333336}, {"fusion_lon": 0.0, "fusion_lat": 0.0, "rental_uris": {"android": "https://dc.lft.to/lastmile_qr_scan", "ios": "https://dc.lft.to/lastmile_qr_scan"}, "is_disabled": 0, "type": "electric_scooter", "is_reserved": 0, "name": "27929b9356eb7d5d048fd81f9971e227", "lon": -77.04586566666667, "bike_id": "27929b9356eb7d5d048fd81f9971e227", "lat": 38.91605233333333}, {"fusion_lon": 0.0, "fusion_lat": 0.0, "rental_uris": {"android": "https://dc.lft.to/lastmile_qr_scan", "ios": "https://dc.lft.to/lastmile_qr_scan"}, "is_disabled": 0, "type": "electric_scooter", "is_reserved": 0, "name": "25202b6ff4dcd6a6f5bfca282f940b50", "lon": -77.009168, "bike_id": "25202b6ff4dcd6a6f5bfca282f940b50", "lat": 38.895505666666665}, {"fusion_lon": 0.0, "fusion_lat": 0.0, "rental_uris": {"android": "https://dc.lft.to/lastmile_qr_scan", "ios": "https://dc.lft.to/lastmile_qr_scan"}, "is_disabled": 0, "type": "electric_scooter", "is_reserved": 0, "name": "f5cb6bc85941b65c7dfe06ba05857784", "lon": -77.03395966666666, "bike_id": "f5cb6bc85941b65c7dfe06ba05857784", "lat": 38.9061375}, {"fusion_lon": 0.0, "fusion_lat": 0.0, "rental_uris": {"android": "https://dc.lft.to/lastmile_qr_scan", "ios": "https://dc.lft.to/lastmile_qr_scan"}, "is_disabled": 0, "type": "electric_scooter", "is_reserved": 0, "name": "e4787898a9b9318287516fda407e5537", "lon": -77.03507583333334, "bike_id": "e4787898a9b9318287516fda407e5537", "lat": 38.93585016666667}, {"fusion_lon": 0.0, "fusion_lat": 0.0, "rental_uris": {"android": "https://dc.lft.to/lastmile_qr_scan", "ios": "https://dc.lft.to/lastmile_qr_scan"}, "is_disabled": 0, "type": "electric_scooter", "is_reserved": 0, "name": "fa189b03e8e18d1f9dc7c7b1bfd33c40", "lon": -77.0328105, "bike_id": "fa189b03e8e18d1f9dc7c7b1bfd33c40", "lat": 38.93250466666667}, {"fusion_lon": 0.0, "fusion_lat": 0.0, "rental_uris": {"android": "https://dc.lft.to/lastmile_qr_scan", "ios": "https://dc.lft.to/lastmile_qr_scan"}, "is_disabled": 0, "type": "electric_scooter", "is_reserved": 0, "name": "8c489a286da90ecfeb909cf90258c136", "lon": -77.03446933333333, "bike_id": "8c489a286da90ecfeb909cf90258c136", "lat": 38.90084983333333}, {"fusion_lon": 0.0, "fusion_lat": 0.0, "rental_uris": {"android": "https://dc.lft.to/lastmile_qr_scan", "ios": "https://dc.lft.to/lastmile_qr_scan"}, "is_disabled": 0, "type": "electric_bike", "is_reserved": 0, "name": "31648a0c626c978d360110adbe04b225", "lon": -77.0120105, "bike_id": "31648a0c626c978d360110adbe04b225", "lat": 38.950724666666666}, {"fusion_lon": 0.0, "fusion_lat": 0.0, "rental_uris": {"android": "https://dc.lft.to/lastmile_qr_scan", "ios": "https://dc.lft.to/lastmile_qr_scan"}, "is_disabled": 0, "type": "electric_bike", "is_reserved": 0, "name": "9ef5faf4341d106ddad8d07aa795111f", "lon": -76.973355, "bike_id": "9ef5faf4341d106ddad8d07aa795111f", "lat": 38.865053}, {"fusion_lon": 0.0, "fusion_lat": 0.0, "rental_uris": {"android": "https://dc.lft.to/lastmile_qr_scan", "ios": "https://dc.lft.to/lastmile_qr_scan"}, "is_disabled": 0, "type": "electric_scooter", "is_reserved": 0, "name": "51081dab17458a71ea281feea3a8818c", "lon": -77.0240475, "bike_id": "51081dab17458a71ea281feea3a8818c", "lat": 38.9418605}, {"fusion_lon": 0.0, "fusion_lat": 0.0, "rental_uris": {"android": "https://dc.lft.to/lastmile_qr_scan", "ios": "https://dc.lft.to/lastmile_qr_scan"}, "is_disabled": 0, "type": "electric_bike", "is_reserved": 0, "name": "cc86da1b3ea35dc7a706f83c524b47d8", "lon": -77.104026, "bike_id": "cc86da1b3ea35dc7a706f83c524b47d8", "lat": 39.00531333333333}, {"fusion_lon": 0.0, "fusion_lat": 0.0, "rental_uris": {"android": "https://dc.lft.to/lastmile_qr_scan", "ios": "https://dc.lft.to/lastmile_qr_scan"}, "is_disabled": 0, "type": "electric_scooter", "is_reserved": 0, "name": "b3684427066ace57fa632fb6ed85b26b", "lon": -76.99189733333333, "bike_id": "b3684427066ace57fa632fb6ed85b26b", "lat": 38.908318333333334}, {"fusion_lon": 0.0, "fusion_lat": 0.0, "rental_uris": {"android": "https://dc.lft.to/lastmile_qr_scan", "ios": "https://dc.lft.to/lastmile_qr_scan"}, "is_disabled": 0, "type": "electric_bike", "is_reserved": 0, "name": "6c6e60539324d0a558fc83b7a23d1478", "lon": -77.14871083333334, "bike_id": "6c6e60539324d0a558fc83b7a23d1478", "lat": 38.877349}, {"fusion_lon": 0.0, "fusion_lat": 0.0, "rental_uris": {"android": "https://dc.lft.to/lastmile_qr_scan", "ios": "https://dc.lft.to/lastmile_qr_scan"}, "is_disabled": 0, "type": "electric_scooter", "is_reserved": 0, "name": "222cb40f1cad83d9d2cb559d376c6424", "lon": -77.04971333333333, "bike_id": "222cb40f1cad83d9d2cb559d376c6424", "lat": 38.89781683333333}, {"fusion_lon": 0.0, "fusion_lat": 0.0, "rental_uris": {"android": "https://dc.lft.to/lastmile_qr_scan", "ios": "https://dc.lft.to/lastmile_qr_scan"}, "is_disabled": 0, "type": "electric_scooter", "is_reserved": 0, "name": "6176a7d86d6f04e715e0fe238f034bb1", "lon": -77.02058433333333, "bike_id": "6176a7d86d6f04e715e0fe238f034bb1", "lat": 38.904129}, {"fusion_lon": 0.0, "fusion_lat": 0.0, "rental_uris": {"android": "https://dc.lft.to/lastmile_qr_scan", "ios": "https://dc.lft.to/lastmile_qr_scan"}, "is_disabled": 0, "type": "electric_scooter", "is_reserved": 0, "name": "8d6dddfe8596824757eeaede4f6ff1f7", "lon": -77.02607333333333, "bike_id": "8d6dddfe8596824757eeaede4f6ff1f7", "lat": 38.91873733333333}, {"fusion_lon": 0.0, "fusion_lat": 0.0, "rental_uris": {"android": "https://dc.lft.to/lastmile_qr_scan", "ios": "https://dc.lft.to/lastmile_qr_scan"}, "is_disabled": 0, "type": "electric_scooter", "is_reserved": 0, "name": "f5c037f825171411001982b108707f82", "lon": -77.03880466666666, "bike_id": "f5c037f825171411001982b108707f82", "lat": 38.9207065}, {"fusion_lon": 0.0, "fusion_lat": 0.0, "rental_uris": {"android": "https://dc.lft.to/lastmile_qr_scan", "ios": "https://dc.lft.to/lastmile_qr_scan"}, "is_disabled": 0, "type": "electric_scooter", "is_reserved": 0, "name": "4fe2235f1acfb5036802bd2595931ee3", "lon": -77.0600065, "bike_id": "4fe2235f1acfb5036802bd2595931ee3", "lat": 38.927109}, {"fusion_lon": 0.0, "fusion_lat": 0.0, "rental_uris": {"android": "https://dc.lft.to/lastmile_qr_scan", "ios": "https://dc.lft.to/lastmile_qr_scan"}, "is_disabled": 0, "type": "electric_scooter", "is_reserved": 0, "name": "ee3049f9f2406a3f5cd9c7163868387c", "lon": -77.039722, "bike_id": "ee3049f9f2406a3f5cd9c7163868387c", "lat": 38.915535166666665}, {"fusion_lon": 0.0, "fusion_lat": 0.0, "rental_uris": {"android": "https://dc.lft.to/lastmile_qr_scan", "ios": "https://dc.lft.to/lastmile_qr_scan"}, "is_disabled": 0, "type": "electric_scooter", "is_reserved": 0, "name": "29f84a492e0d79ed37af45d5fbb0c80e", "lon": -77.01849116666666, "bike_id": "29f84a492e0d79ed37af45d5fbb0c80e", "lat": 38.97365516666667}, {"fusion_lon": 0.0, "fusion_lat": 0.0, "rental_uris": {"android": "https://dc.lft.to/lastmile_qr_scan", "ios": "https://dc.lft.to/lastmile_qr_scan"}, "is_disabled": 0, "type": "electric_scooter", "is_reserved": 0, "name": "888469997429c3449450dbbf7170e50b", "lon": -77.02168966666666, "bike_id": "888469997429c3449450dbbf7170e50b", "lat": 38.92506383333333}, {"fusion_lon": 0.0, "fusion_lat": 0.0, "rental_uris": {"android": "https://dc.lft.to/lastmile_qr_scan", "ios": "https://dc.lft.to/lastmile_qr_scan"}, "is_disabled": 0, "type": "electric_scooter", "is_reserved": 0, "name": "f0c54f7b70f9a0aba8251f2313244f50", "lon": -77.04019816666667, "bike_id": "f0c54f7b70f9a0aba8251f2313244f50", "lat": 38.90146033333333}, {"fusion_lon": 0.0, "fusion_lat": 0.0, "rental_uris": {"android": "https://dc.lft.to/lastmile_qr_scan", "ios": "https://dc.lft.to/lastmile_qr_scan"}, "is_disabled": 0, "type": "electric_scooter", "is_reserved": 0, "name": "3176f6778bd795ddb3089db74cf279cd", "lon": -76.953188, "bike_id": "3176f6778bd795ddb3089db74cf279cd", "lat": 38.887966}, {"fusion_lon": 0.0, "fusion_lat": 0.0, "rental_uris": {"android": "https://dc.lft.to/lastmile_qr_scan", "ios": "https://dc.lft.to/lastmile_qr_scan"}, "is_disabled": 0, "type": "electric_scooter", "is_reserved": 0, "name": "1cb398fd1e13001ded3eefc1176028f4", "lon": -77.02151366666666, "bike_id": "1cb398fd1e13001ded3eefc1176028f4", "lat": 38.92449333333333}, {"fusion_lon": 0.0, "fusion_lat": 0.0, "rental_uris": {"android": "https://dc.lft.to/lastmile_qr_scan", "ios": "https://dc.lft.to/lastmile_qr_scan"}, "is_disabled": 0, "type": "electric_scooter", "is_reserved": 0, "name": "b7e4c87cdb8d57489969da95c07259f9", "lon": -77.02152416666667, "bike_id": "b7e4c87cdb8d57489969da95c07259f9", "lat": 38.897149}, {"fusion_lon": 0.0, "fusion_lat": 0.0, "rental_uris": {"android": "https://dc.lft.to/lastmile_qr_scan", "ios": "https://dc.lft.to/lastmile_qr_scan"}, "is_disabled": 0, "type": "electric_scooter", "is_reserved": 0, "name": "5d0bf28756d0c50c87f1070d5abf866b", "lon": -77.02998533333333, "bike_id": "5d0bf28756d0c50c87f1070d5abf866b", "lat": 38.924672666666666}, {"fusion_lon": 0.0, "fusion_lat": 0.0, "rental_uris": {"android": "https://dc.lft.to/lastmile_qr_scan", "ios": "https://dc.lft.to/lastmile_qr_scan"}, "is_disabled": 0, "type": "electric_scooter", "is_reserved": 0, "name": "6fc24ba7907642c4c5b9db829e4cf6bd", "lon": -76.998723, "bike_id": "6fc24ba7907642c4c5b9db829e4cf6bd", "lat": 38.9075165}, {"fusion_lon": 0.0, "fusion_lat": 0.0, "rental_uris": {"android": "https://dc.lft.to/lastmile_qr_scan", "ios": "https://dc.lft.to/lastmile_qr_scan"}, "is_disabled": 0, "type": "electric_scooter", "is_reserved": 0, "name": "e6c590e69d7ac920ad7a24d82c361c3b", "lon": -77.03915516666666, "bike_id": "e6c590e69d7ac920ad7a24d82c361c3b", "lat": 38.91401183333333}, {"fusion_lon": 0.0, "fusion_lat": 0.0, "rental_uris": {"android": "https://dc.lft.to/lastmile_qr_scan", "ios": "https://dc.lft.to/lastmile_qr_scan"}, "is_disabled": 0, "type": "electric_scooter", "is_reserved": 0, "name": "af01e61091b3b984fcba1ae9b422f2a6", "lon": -77.022714, "bike_id": "af01e61091b3b984fcba1ae9b422f2a6", "lat": 38.916531666666664}, {"fusion_lon": 0.0, "fusion_lat": 0.0, "rental_uris": {"android": "https://dc.lft.to/lastmile_qr_scan", "ios": "https://dc.lft.to/lastmile_qr_scan"}, "is_disabled": 0, "type": "electric_scooter", "is_reserved": 0, "name": "2e951bfb0bf902cc887f2697a53e6152", "lon": -77.03957166666666, "bike_id": "2e951bfb0bf902cc887f2697a53e6152", "lat": 38.89244983333333}, {"fusion_lon": 0.0, "fusion_lat": 0.0, "rental_uris": {"android": "https://dc.lft.to/lastmile_qr_scan", "ios": "https://dc.lft.to/lastmile_qr_scan"}, "is_disabled": 0, "type": "electric_scooter", "is_reserved": 0, "name": "bb1a07a69a0f0afda96f8a25f9aa5fcf", "lon": -77.001166, "bike_id": "bb1a07a69a0f0afda96f8a25f9aa5fcf", "lat": 38.8865375}, {"fusion_lon": 0.0, "fusion_lat": 0.0, "rental_uris": {"android": "https://dc.lft.to/lastmile_qr_scan", "ios": "https://dc.lft.to/lastmile_qr_scan"}, "is_disabled": 0, "type": "electric_scooter", "is_reserved": 0, "name": "9efce5a6125591b6722a470d3185536e", "lon": -77.03000883333333, "bike_id": "9efce5a6125591b6722a470d3185536e", "lat": 38.90140066666667}, {"fusion_lon": 0.0, "fusion_lat": 0.0, "rental_uris": {"android": "https://dc.lft.to/lastmile_qr_scan", "ios": "https://dc.lft.to/lastmile_qr_scan"}, "is_disabled": 0, "type": "electric_scooter", "is_reserved": 0, "name": "aca2b6734d1fa8664f325e7e6f2ba9e2", "lon": -76.98605183333333, "bike_id": "aca2b6734d1fa8664f325e7e6f2ba9e2", "lat": 38.900091833333335}, {"fusion_lon": 0.0, "fusion_lat": 0.0, "rental_uris": {"android": "https://dc.lft.to/lastmile_qr_scan", "ios": "https://dc.lft.to/lastmile_qr_scan"}, "is_disabled": 0, "type": "electric_scooter", "is_reserved": 0, "name": "965a5ae59aa07e1a1310da7944994bf1", "lon": -77.03195966666667, "bike_id": "965a5ae59aa07e1a1310da7944994bf1", "lat": 38.8988975}, {"fusion_lon": 0.0, "fusion_lat": 0.0, "rental_uris": {"android": "https://dc.lft.to/lastmile_qr_scan", "ios": "https://dc.lft.to/lastmile_qr_scan"}, "is_disabled": 0, "type": "electric_bike", "is_reserved": 0, "name": "f8640e2b237d49839fbd68fb2ae9d6fa", "lon": -76.984207, "bike_id": "f8640e2b237d49839fbd68fb2ae9d6fa", "lat": 38.9099955}, {"fusion_lon": 0.0, "fusion_lat": 0.0, "rental_uris": {"android": "https://dc.lft.to/lastmile_qr_scan", "ios": "https://dc.lft.to/lastmile_qr_scan"}, "is_disabled": 0, "type": "electric_scooter", "is_reserved": 0, "name": "94a9ec73d85249929b79b0e3ad415b4e", "lon": -77.03282266666666, "bike_id": "94a9ec73d85249929b79b0e3ad415b4e", "lat": 38.937379666666665}, {"fusion_lon": 0.0, "fusion_lat": 0.0, "rental_uris": {"android": "https://dc.lft.to/lastmile_qr_scan", "ios": "https://dc.lft.to/lastmile_qr_scan"}, "is_disabled": 0, "type": "electric_scooter", "is_reserved": 0, "name": "fe55a2bc0ba39a201327e85432c1e4d6", "lon": -77.00172066666667, "bike_id": "fe55a2bc0ba39a201327e85432c1e4d6", "lat": 38.94070033333333}, {"fusion_lon": 0.0, "fusion_lat": 0.0, "rental_uris": {"android": "https://dc.lft.to/lastmile_qr_scan", "ios": "https://dc.lft.to/lastmile_qr_scan"}, "is_disabled": 0, "type": "electric_scooter", "is_reserved": 0, "name": "cc20849caf14d8545dc05179a2bed6cd", "lon": -77.03250483333333, "bike_id": "cc20849caf14d8545dc05179a2bed6cd", "lat": 38.927823833333335}, {"fusion_lon": 0.0, "fusion_lat": 0.0, "rental_uris": {"android": "https://dc.lft.to/lastmile_qr_scan", "ios": "https://dc.lft.to/lastmile_qr_scan"}, "is_disabled": 0, "type": "electric_scooter", "is_reserved": 0, "name": "7c3f160975e3a2d35d2829f6a6cb8d5f", "lon": -76.97804083333334, "bike_id": "7c3f160975e3a2d35d2829f6a6cb8d5f", "lat": 38.9203415}, {"fusion_lon": 0.0, "fusion_lat": 0.0, "rental_uris": {"android": "https://dc.lft.to/lastmile_qr_scan", "ios": "https://dc.lft.to/lastmile_qr_scan"}, "is_disabled": 0, "type": "electric_scooter", "is_reserved": 0, "name": "4413e7078f31f137b8182c677a86508c", "lon": -77.02159533333334, "bike_id": "4413e7078f31f137b8182c677a86508c", "lat": 38.92611133333333}, {"fusion_lon": 0.0, "fusion_lat": 0.0, "rental_uris": {"android": "https://dc.lft.to/lastmile_qr_scan", "ios": "https://dc.lft.to/lastmile_qr_scan"}, "is_disabled": 0, "type": "electric_scooter", "is_reserved": 0, "name": "087d15b6c8d60197b94f21a6c095e55f", "lon": -77.0320855, "bike_id": "087d15b6c8d60197b94f21a6c095e55f", "lat": 38.90369783333333}, {"fusion_lon": 0.0, "fusion_lat": 0.0, "rental_uris": {"android": "https://dc.lft.to/lastmile_qr_scan", "ios": "https://dc.lft.to/lastmile_qr_scan"}, "is_disabled": 0, "type": "electric_bike", "is_reserved": 0, "name": "53fdd68757911dd019156785911f2212", "lon": -76.98207733333334, "bike_id": "53fdd68757911dd019156785911f2212", "lat": 38.98504716666667}, {"fusion_lon": 0.0, "fusion_lat": 0.0, "rental_uris": {"android": "https://dc.lft.to/lastmile_qr_scan", "ios": "https://dc.lft.to/lastmile_qr_scan"}, "is_disabled": 0, "type": "electric_scooter", "is_reserved": 0, "name": "417cd3f61c7d679bbeeb43b4825be7b0", "lon": -77.04999733333334, "bike_id": "417cd3f61c7d679bbeeb43b4825be7b0", "lat": 38.892262833333334}, {"fusion_lon": 0.0, "fusion_lat": 0.0, "rental_uris": {"android": "https://dc.lft.to/lastmile_qr_scan", "ios": "https://dc.lft.to/lastmile_qr_scan"}, "is_disabled": 0, "type": "electric_scooter", "is_reserved": 0, "name": "782f165f110830a0d6d806948a8a00ef", "lon": -77.0271345, "bike_id": "782f165f110830a0d6d806948a8a00ef", "lat": 38.919604}, {"fusion_lon": 0.0, "fusion_lat": 0.0, "rental_uris": {"android": "https://dc.lft.to/lastmile_qr_scan", "ios": "https://dc.lft.to/lastmile_qr_scan"}, "is_disabled": 0, "type": "electric_scooter", "is_reserved": 0, "name": "30d2b1036410047f07a998dca6986674", "lon": -77.02051483333334, "bike_id": "30d2b1036410047f07a998dca6986674", "lat": 38.89884}, {"fusion_lon": 0.0, "fusion_lat": 0.0, "rental_uris": {"android": "https://dc.lft.to/lastmile_qr_scan", "ios": "https://dc.lft.to/lastmile_qr_scan"}, "is_disabled": 0, "type": "electric_scooter", "is_reserved": 0, "name": "0f278d0e0bbf9f3c32b83e094a7a11f1", "lon": -77.00653266666667, "bike_id": "0f278d0e0bbf9f3c32b83e094a7a11f1", "lat": 38.91176333333333}, {"fusion_lon": 0.0, "fusion_lat": 0.0, "rental_uris": {"android": "https://dc.lft.to/lastmile_qr_scan", "ios": "https://dc.lft.to/lastmile_qr_scan"}, "is_disabled": 0, "type": "electric_scooter", "is_reserved": 0, "name": "9d32d07cd510ef11388cf1719c2349f5", "lon": -77.024239, "bike_id": "9d32d07cd510ef11388cf1719c2349f5", "lat": 38.905622}, {"fusion_lon": 0.0, "fusion_lat": 0.0, "rental_uris": {"android": "https://dc.lft.to/lastmile_qr_scan", "ios": "https://dc.lft.to/lastmile_qr_scan"}, "is_disabled": 0, "type": "electric_scooter", "is_reserved": 0, "name": "037cf6ede6594b69f61b30f217b03042", "lon": -77.02426533333333, "bike_id": "037cf6ede6594b69f61b30f217b03042", "lat": 38.920597666666666}, {"fusion_lon": 0.0, "fusion_lat": 0.0, "rental_uris": {"android": "https://dc.lft.to/lastmile_qr_scan", "ios": "https://dc.lft.to/lastmile_qr_scan"}, "is_disabled": 0, "type": "electric_scooter", "is_reserved": 0, "name": "dc2f1f4e65521dfe1cd93a0cf0f15b3c", "lon": -77.02219816666667, "bike_id": "dc2f1f4e65521dfe1cd93a0cf0f15b3c", "lat": 38.89528583333333}, {"fusion_lon": 0.0, "fusion_lat": 0.0, "rental_uris": {"android": "https://dc.lft.to/lastmile_qr_scan", "ios": "https://dc.lft.to/lastmile_qr_scan"}, "is_disabled": 0, "type": "electric_scooter", "is_reserved": 0, "name": "1c21258122a63bafbd3547157f019813", "lon": -76.984571, "bike_id": "1c21258122a63bafbd3547157f019813", "lat": 38.892314166666665}, {"fusion_lon": 0.0, "fusion_lat": 0.0, "rental_uris": {"android": "https://dc.lft.to/lastmile_qr_scan", "ios": "https://dc.lft.to/lastmile_qr_scan"}, "is_disabled": 0, "type": "electric_scooter", "is_reserved": 0, "name": "b84be0feb93e88888bf0d5d6c9301856", "lon": -77.07847516666666, "bike_id": "b84be0feb93e88888bf0d5d6c9301856", "lat": 38.93135483333333}, {"fusion_lon": 0.0, "fusion_lat": 0.0, "rental_uris": {"android": "https://dc.lft.to/lastmile_qr_scan", "ios": "https://dc.lft.to/lastmile_qr_scan"}, "is_disabled": 0, "type": "electric_scooter", "is_reserved": 0, "name": "cb8ef3cee47cf414ff5ac8162249f789", "lon": -77.0468285, "bike_id": "cb8ef3cee47cf414ff5ac8162249f789", "lat": 38.902864666666666}, {"fusion_lon": 0.0, "fusion_lat": 0.0, "rental_uris": {"android": "https://dc.lft.to/lastmile_qr_scan", "ios": "https://dc.lft.to/lastmile_qr_scan"}, "is_disabled": 0, "type": "electric_scooter", "is_reserved": 0, "name": "3690b8313475eaabefd4d317b8e7093a", "lon": -77.0321885, "bike_id": "3690b8313475eaabefd4d317b8e7093a", "lat": 38.9118135}, {"fusion_lon": 0.0, "fusion_lat": 0.0, "rental_uris": {"android": "https://dc.lft.to/lastmile_qr_scan", "ios": "https://dc.lft.to/lastmile_qr_scan"}, "is_disabled": 0, "type": "electric_scooter", "is_reserved": 0, "name": "5f2c3465bdc5f3c8be5f92dc9ec30a92", "lon": -77.02216833333334, "bike_id": "5f2c3465bdc5f3c8be5f92dc9ec30a92", "lat": 38.92475116666667}, {"fusion_lon": 0.0, "fusion_lat": 0.0, "rental_uris": {"android": "https://dc.lft.to/lastmile_qr_scan", "ios": "https://dc.lft.to/lastmile_qr_scan"}, "is_disabled": 0, "type": "electric_scooter", "is_reserved": 0, "name": "fab7f4cdd64f834bc8fe64572fc70bc0", "lon": -77.01949416666666, "bike_id": "fab7f4cdd64f834bc8fe64572fc70bc0", "lat": 38.922631}, {"fusion_lon": 0.0, "fusion_lat": 0.0, "rental_uris": {"android": "https://dc.lft.to/lastmile_qr_scan", "ios": "https://dc.lft.to/lastmile_qr_scan"}, "is_disabled": 0, "type": "electric_scooter", "is_reserved": 0, "name": "26c8213e52a9ded79d4075bb2d026f52", "lon": -77.033479, "bike_id": "26c8213e52a9ded79d4075bb2d026f52", "lat": 38.900008}, {"fusion_lon": 0.0, "fusion_lat": 0.0, "rental_uris": {"android": "https://dc.lft.to/lastmile_qr_scan", "ios": "https://dc.lft.to/lastmile_qr_scan"}, "is_disabled": 0, "type": "electric_scooter", "is_reserved": 0, "name": "fa77d97eb3114c96b6ceb4adcced44c9", "lon": -77.02453583333333, "bike_id": "fa77d97eb3114c96b6ceb4adcced44c9", "lat": 38.893920666666666}, {"fusion_lon": 0.0, "fusion_lat": 0.0, "rental_uris": {"android": "https://dc.lft.to/lastmile_qr_scan", "ios": "https://dc.lft.to/lastmile_qr_scan"}, "is_disabled": 0, "type": "electric_bike", "is_reserved": 0, "name": "159d9b27970c38df07a28d6ff8e91dca", "lon": -77.0974625, "bike_id": "159d9b27970c38df07a28d6ff8e91dca", "lat": 38.980902}, {"fusion_lon": 0.0, "fusion_lat": 0.0, "rental_uris": {"android": "https://dc.lft.to/lastmile_qr_scan", "ios": "https://dc.lft.to/lastmile_qr_scan"}, "is_disabled": 0, "type": "electric_scooter", "is_reserved": 0, "name": "ba52dc637a18dcd32596478a9d40950a", "lon": -76.99898883333333, "bike_id": "ba52dc637a18dcd32596478a9d40950a", "lat": 38.890992833333335}, {"fusion_lon": 0.0, "fusion_lat": 0.0, "rental_uris": {"android": "https://dc.lft.to/lastmile_qr_scan", "ios": "https://dc.lft.to/lastmile_qr_scan"}, "is_disabled": 0, "type": "electric_scooter", "is_reserved": 0, "name": "53fa6cf9a231e20338d95a4055af70e2", "lon": -77.02701, "bike_id": "53fa6cf9a231e20338d95a4055af70e2", "lat": 38.92494116666667}, {"fusion_lon": 0.0, "fusion_lat": 0.0, "rental_uris": {"android": "https://dc.lft.to/lastmile_qr_scan", "ios": "https://dc.lft.to/lastmile_qr_scan"}, "is_disabled": 0, "type": "electric_scooter", "is_reserved": 0, "name": "38d709a821a0620dffd64956708b9122", "lon": -77.03966233333334, "bike_id": "38d709a821a0620dffd64956708b9122", "lat": 38.903836}, {"fusion_lon": 0.0, "fusion_lat": 0.0, "rental_uris": {"android": "https://dc.lft.to/lastmile_qr_scan", "ios": "https://dc.lft.to/lastmile_qr_scan"}, "is_disabled": 0, "type": "electric_scooter", "is_reserved": 0, "name": "1a28a63865a7c1f7ace0c3bb70ca8f9d", "lon": -76.987798, "bike_id": "1a28a63865a7c1f7ace0c3bb70ca8f9d", "lat": 38.88277333333333}, {"fusion_lon": 0.0, "fusion_lat": 0.0, "rental_uris": {"android": "https://dc.lft.to/lastmile_qr_scan", "ios": "https://dc.lft.to/lastmile_qr_scan"}, "is_disabled": 0, "type": "electric_bike", "is_reserved": 0, "name": "dc9bbae726338503ff58262b2b55a727", "lon": -77.09448066666667, "bike_id": "dc9bbae726338503ff58262b2b55a727", "lat": 38.8942105}, {"fusion_lon": 0.0, "fusion_lat": 0.0, "rental_uris": {"android": "https://dc.lft.to/lastmile_qr_scan", "ios": "https://dc.lft.to/lastmile_qr_scan"}, "is_disabled": 0, "type": "electric_bike", "is_reserved": 0, "name": "70cc90447abb8dd2745875b72e11157e", "lon": -77.02107733333334, "bike_id": "70cc90447abb8dd2745875b72e11157e", "lat": 39.022934166666666}, {"fusion_lon": 0.0, "fusion_lat": 0.0, "rental_uris": {"android": "https://dc.lft.to/lastmile_qr_scan", "ios": "https://dc.lft.to/lastmile_qr_scan"}, "is_disabled": 0, "type": "electric_bike", "is_reserved": 0, "name": "89cc3e5039e23a254ffd96eb5fbbb032", "lon": -76.98680866666666, "bike_id": "89cc3e5039e23a254ffd96eb5fbbb032", "lat": 38.97477716666667}, {"fusion_lon": 0.0, "fusion_lat": 0.0, "rental_uris": {"android": "https://dc.lft.to/lastmile_qr_scan", "ios": "https://dc.lft.to/lastmile_qr_scan"}, "is_disabled": 0, "type": "electric_scooter", "is_reserved": 0, "name": "29351197f2c4cacbe4afcc866b611ee3", "lon": -77.02062833333333, "bike_id": "29351197f2c4cacbe4afcc866b611ee3", "lat": 38.9214235}, {"fusion_lon": 0.0, "fusion_lat": 0.0, "rental_uris": {"android": "https://dc.lft.to/lastmile_qr_scan", "ios": "https://dc.lft.to/lastmile_qr_scan"}, "is_disabled": 0, "type": "electric_scooter", "is_reserved": 0, "name": "0e364100f71f68aa64a0989d72b22df9", "lon": -77.0180715, "bike_id": "0e364100f71f68aa64a0989d72b22df9", "lat": 38.914258833333335}, {"fusion_lon": 0.0, "fusion_lat": 0.0, "rental_uris": {"android": "https://dc.lft.to/lastmile_qr_scan", "ios": "https://dc.lft.to/lastmile_qr_scan"}, "is_disabled": 0, "type": "electric_scooter", "is_reserved": 0, "name": "9d467b8038d63a31b423f9c11ae6f1dc", "lon": -77.05504916666666, "bike_id": "9d467b8038d63a31b423f9c11ae6f1dc", "lat": 38.92941716666667}, {"fusion_lon": 0.0, "fusion_lat": 0.0, "rental_uris": {"android": "https://dc.lft.to/lastmile_qr_scan", "ios": "https://dc.lft.to/lastmile_qr_scan"}, "is_disabled": 0, "type": "electric_scooter", "is_reserved": 0, "name": "e96805204b010706e141957b340763ad", "lon": -77.00190783333333, "bike_id": "e96805204b010706e141957b340763ad", "lat": 38.900115666666665}, {"fusion_lon": 0.0, "fusion_lat": 0.0, "rental_uris": {"android": "https://dc.lft.to/lastmile_qr_scan", "ios": "https://dc.lft.to/lastmile_qr_scan"}, "is_disabled": 0, "type": "electric_scooter", "is_reserved": 0, "name": "70557d6129a462c2a50ddd52d0be67ed", "lon": -77.0089345, "bike_id": "70557d6129a462c2a50ddd52d0be67ed", "lat": 38.92324833333333}, {"fusion_lon": 0.0, "fusion_lat": 0.0, "rental_uris": {"android": "https://dc.lft.to/lastmile_qr_scan", "ios": "https://dc.lft.to/lastmile_qr_scan"}, "is_disabled": 0, "type": "electric_scooter", "is_reserved": 0, "name": "aa296af200404911ade7b58d755622e6", "lon": -76.92931216666666, "bike_id": "aa296af200404911ade7b58d755622e6", "lat": 38.9009875}, {"fusion_lon": 0.0, "fusion_lat": 0.0, "rental_uris": {"android": "https://dc.lft.to/lastmile_qr_scan", "ios": "https://dc.lft.to/lastmile_qr_scan"}, "is_disabled": 0, "type": "electric_scooter", "is_reserved": 0, "name": "f147b977248e5737135f41e4268e7a1f", "lon": -77.0337545, "bike_id": "f147b977248e5737135f41e4268e7a1f", "lat": 38.92240833333334}, {"fusion_lon": 0.0, "fusion_lat": 0.0, "rental_uris": {"android": "https://dc.lft.to/lastmile_qr_scan", "ios": "https://dc.lft.to/lastmile_qr_scan"}, "is_disabled": 0, "type": "electric_scooter", "is_reserved": 0, "name": "733a0b995e922075223d0849de20d29e", "lon": -77.00229933333334, "bike_id": "733a0b995e922075223d0849de20d29e", "lat": 38.88229066666667}, {"fusion_lon": 0.0, "fusion_lat": 0.0, "rental_uris": {"android": "https://dc.lft.to/lastmile_qr_scan", "ios": "https://dc.lft.to/lastmile_qr_scan"}, "is_disabled": 0, "type": "electric_scooter", "is_reserved": 0, "name": "1648aac4265266828b7df020c3f26ba7", "lon": -77.0502975, "bike_id": "1648aac4265266828b7df020c3f26ba7", "lat": 38.89696283333333}, {"fusion_lon": 0.0, "fusion_lat": 0.0, "rental_uris": {"android": "https://dc.lft.to/lastmile_qr_scan", "ios": "https://dc.lft.to/lastmile_qr_scan"}, "is_disabled": 0, "type": "electric_scooter", "is_reserved": 0, "name": "d29392f8e80fb37695f2168bf7b0b49a", "lon": -77.04492933333333, "bike_id": "d29392f8e80fb37695f2168bf7b0b49a", "lat": 38.899496666666664}, {"fusion_lon": 0.0, "fusion_lat": 0.0, "rental_uris": {"android": "https://dc.lft.to/lastmile_qr_scan", "ios": "https://dc.lft.to/lastmile_qr_scan"}, "is_disabled": 0, "type": "electric_scooter", "is_reserved": 0, "name": "9d7c4ef65f748fc011417bfe82d82494", "lon": -77.02140933333334, "bike_id": "9d7c4ef65f748fc011417bfe82d82494", "lat": 38.901922666666664}, {"fusion_lon": 0.0, "fusion_lat": 0.0, "rental_uris": {"android": "https://dc.lft.to/lastmile_qr_scan", "ios": "https://dc.lft.to/lastmile_qr_scan"}, "is_disabled": 0, "type": "electric_scooter", "is_reserved": 0, "name": "da01215b4a965fd420059a39cd5ae69c", "lon": -77.01850883333333, "bike_id": "da01215b4a965fd420059a39cd5ae69c", "lat": 38.90963566666667}, {"fusion_lon": 0.0, "fusion_lat": 0.0, "rental_uris": {"android": "https://dc.lft.to/lastmile_qr_scan", "ios": "https://dc.lft.to/lastmile_qr_scan"}, "is_disabled": 0, "type": "electric_scooter", "is_reserved": 0, "name": "e9c55d6b4793b7e1e6a044a28620a694", "lon": -77.03583516666667, "bike_id": "e9c55d6b4793b7e1e6a044a28620a694", "lat": 38.90477933333333}, {"fusion_lon": 0.0, "fusion_lat": 0.0, "rental_uris": {"android": "https://dc.lft.to/lastmile_qr_scan", "ios": "https://dc.lft.to/lastmile_qr_scan"}, "is_disabled": 0, "type": "electric_scooter", "is_reserved": 0, "name": "50b1eb0c2c952deb6a00b15706557995", "lon": -77.062705, "bike_id": "50b1eb0c2c952deb6a00b15706557995", "lat": 38.9208715}, {"fusion_lon": 0.0, "fusion_lat": 0.0, "rental_uris": {"android": "https://dc.lft.to/lastmile_qr_scan", "ios": "https://dc.lft.to/lastmile_qr_scan"}, "is_disabled": 0, "type": "electric_scooter", "is_reserved": 0, "name": "bc932c883c2e7b0847918dbbd1515569", "lon": -77.02597816666666, "bike_id": "bc932c883c2e7b0847918dbbd1515569", "lat": 38.89959966666667}, {"fusion_lon": 0.0, "fusion_lat": 0.0, "rental_uris": {"android": "https://dc.lft.to/lastmile_qr_scan", "ios": "https://dc.lft.to/lastmile_qr_scan"}, "is_disabled": 0, "type": "electric_scooter", "is_reserved": 0, "name": "7e37a552921353ca0c94e3e22f500133", "lon": -77.02698933333333, "bike_id": "7e37a552921353ca0c94e3e22f500133", "lat": 38.92495016666667}, {"fusion_lon": 0.0, "fusion_lat": 0.0, "rental_uris": {"android": "https://dc.lft.to/lastmile_qr_scan", "ios": "https://dc.lft.to/lastmile_qr_scan"}, "is_disabled": 0, "type": "electric_scooter", "is_reserved": 0, "name": "e7d4dee988803f5b687e8bed0a2434ab", "lon": -77.03714483333333, "bike_id": "e7d4dee988803f5b687e8bed0a2434ab", "lat": 38.912619166666666}, {"fusion_lon": 0.0, "fusion_lat": 0.0, "rental_uris": {"android": "https://dc.lft.to/lastmile_qr_scan", "ios": "https://dc.lft.to/lastmile_qr_scan"}, "is_disabled": 0, "type": "electric_scooter", "is_reserved": 0, "name": "6f35d5d78ca20df67bf2028a8dbe2d45", "lon": -77.0167105, "bike_id": "6f35d5d78ca20df67bf2028a8dbe2d45", "lat": 38.9204465}, {"fusion_lon": 0.0, "fusion_lat": 0.0, "rental_uris": {"android": "https://dc.lft.to/lastmile_qr_scan", "ios": "https://dc.lft.to/lastmile_qr_scan"}, "is_disabled": 0, "type": "electric_scooter", "is_reserved": 0, "name": "6b2449ff6629013283b12834357a4e47", "lon": -77.072386, "bike_id": "6b2449ff6629013283b12834357a4e47", "lat": 38.9395005}, {"fusion_lon": 0.0, "fusion_lat": 0.0, "rental_uris": {"android": "https://dc.lft.to/lastmile_qr_scan", "ios": "https://dc.lft.to/lastmile_qr_scan"}, "is_disabled": 0, "type": "electric_scooter", "is_reserved": 0, "name": "b29f57ac554afce11408abe1ef32635d", "lon": -76.99163233333333, "bike_id": "b29f57ac554afce11408abe1ef32635d", "lat": 38.90128933333333}, {"fusion_lon": 0.0, "fusion_lat": 0.0, "rental_uris": {"android": "https://dc.lft.to/lastmile_qr_scan", "ios": "https://dc.lft.to/lastmile_qr_scan"}, "is_disabled": 0, "type": "electric_scooter", "is_reserved": 0, "name": "a126f7b32362c0607ec1710baea87ace", "lon": -77.02108033333333, "bike_id": "a126f7b32362c0607ec1710baea87ace", "lat": 38.921516833333335}, {"fusion_lon": 0.0, "fusion_lat": 0.0, "rental_uris": {"android": "https://dc.lft.to/lastmile_qr_scan", "ios": "https://dc.lft.to/lastmile_qr_scan"}, "is_disabled": 0, "type": "electric_scooter", "is_reserved": 0, "name": "54944591b2126e6ae738eac41ac6952a", "lon": -77.00285783333334, "bike_id": "54944591b2126e6ae738eac41ac6952a", "lat": 38.893548833333334}, {"fusion_lon": 0.0, "fusion_lat": 0.0, "rental_uris": {"android": "https://dc.lft.to/lastmile_qr_scan", "ios": "https://dc.lft.to/lastmile_qr_scan"}, "is_disabled": 0, "type": "electric_scooter", "is_reserved": 0, "name": "530d52feb128ee0dec34fda98fdf86aa", "lon": -77.02351133333333, "bike_id": "530d52feb128ee0dec34fda98fdf86aa", "lat": 38.929130666666666}, {"fusion_lon": 0.0, "fusion_lat": 0.0, "rental_uris": {"android": "https://dc.lft.to/lastmile_qr_scan", "ios": "https://dc.lft.to/lastmile_qr_scan"}, "is_disabled": 0, "type": "electric_bike", "is_reserved": 0, "name": "64e6ed97a0dca37377e059c69ec9cd07", "lon": -77.23392666666666, "bike_id": "64e6ed97a0dca37377e059c69ec9cd07", "lat": 38.8717255}, {"fusion_lon": 0.0, "fusion_lat": 0.0, "rental_uris": {"android": "https://dc.lft.to/lastmile_qr_scan", "ios": "https://dc.lft.to/lastmile_qr_scan"}, "is_disabled": 0, "type": "electric_bike", "is_reserved": 0, "name": "0d12072cb7b1a898e7674a81e5bd49c9", "lon": -77.094076, "bike_id": "0d12072cb7b1a898e7674a81e5bd49c9", "lat": 38.978081833333334}, {"fusion_lon": 0.0, "fusion_lat": 0.0, "rental_uris": {"android": "https://dc.lft.to/lastmile_qr_scan", "ios": "https://dc.lft.to/lastmile_qr_scan"}, "is_disabled": 0, "type": "electric_scooter", "is_reserved": 0, "name": "1bb853377fc842bda42b727873f10bd2", "lon": -77.0152375, "bike_id": "1bb853377fc842bda42b727873f10bd2", "lat": 38.87283083333333}, {"fusion_lon": 0.0, "fusion_lat": 0.0, "rental_uris": {"android": "https://dc.lft.to/lastmile_qr_scan", "ios": "https://dc.lft.to/lastmile_qr_scan"}, "is_disabled": 0, "type": "electric_scooter", "is_reserved": 0, "name": "275f2b0ea69e688b55df1e057699d82a", "lon": -77.03541483333333, "bike_id": "275f2b0ea69e688b55df1e057699d82a", "lat": 38.90362316666667}, {"fusion_lon": 0.0, "fusion_lat": 0.0, "rental_uris": {"android": "https://dc.lft.to/lastmile_qr_scan", "ios": "https://dc.lft.to/lastmile_qr_scan"}, "is_disabled": 0, "type": "electric_scooter", "is_reserved": 0, "name": "f49a378c8316aebaede7556034e755ab", "lon": -77.019401, "bike_id": "f49a378c8316aebaede7556034e755ab", "lat": 38.947026}, {"fusion_lon": 0.0, "fusion_lat": 0.0, "rental_uris": {"android": "https://dc.lft.to/lastmile_qr_scan", "ios": "https://dc.lft.to/lastmile_qr_scan"},