{"data": {"bikes": [{"is_disabled": 0, "fusion_lon": 0.0, "fusion_lat": 0.0, "lat": 38.91666133333333, "type": "electric_scooter", "lon": -77.03848316666667, "bike_id": "bac452627c84a8d1f392759225d9e74e", "rental_uris": {"android": "https://dc.lft.to/lastmile_qr_scan", "ios": "https://dc.lft.to/lastmile_qr_scan"}, "name": "bac452627c84a8d1f392759225d9e74e", "is_reserved": 0}, {"is_disabled": 0, "fusion_lon": 0.0, "fusion_lat": 0.0, "lat": 38.91905783333333, "type": "electric_scooter", "lon": -77.01755283333334, "bike_id": "21ae92585826c7439cf218f274c352a5", "rental_uris": {"android": "https://dc.lft.to/lastmile_qr_scan", "ios": "https://dc.lft.to/lastmile_qr_scan"}, "name": "21ae92585826c7439cf218f274c352a5", "is_reserved": 0}, {"is_disabled": 0, "fusion_lon": 0.0, "fusion_lat": 0.0, "lat": 38.921539833333334, "type": "electric_scooter", "lon": -77.03432333333333, "bike_id": "89de356871f1c577752eaf62c6d14e2f", "rental_uris": {"android": "https://dc.lft.to/lastmile_qr_scan", "ios": "https://dc.lft.to/lastmile_qr_scan"}, "name": "89de356871f1c577752eaf62c6d14e2f", "is_reserved": 0}, {"is_disabled": 0, "fusion_lon": 0.0, "fusion_lat": 0.0, "lat": 38.91321683333334, "type": "electric_scooter", "lon": -77.0385375, "bike_id": "052716e9b0db3666e3aa0f1974661c6b", "rental_uris": {"android": "https://dc.lft.to/lastmile_qr_scan", "ios": "https://dc.lft.to/lastmile_qr_scan"}, "name": "052716e9b0db3666e3aa0f1974661c6b", "is_reserved": 0}, {"is_disabled": 0, "fusion_lon": 0.0, "fusion_lat": 0.0, "lat": 38.8999805, "type": "electric_scooter", "lon": -77.006867, "bike_id": "88bbd58fecb5e47f9b1aed3454f9eed4", "rental_uris": {"android": "https://dc.lft.to/lastmile_qr_scan", "ios": "https://dc.lft.to/lastmile_qr_scan"}, "name": "88bbd58fecb5e47f9b1aed3454f9eed4", "is_reserved": 0}, {"is_disabled": 0, "fusion_lon": 0.0, "fusion_lat": 0.0, "lat": 38.93088016666667, "type": "electric_scooter", "lon": -77.03119666666667, "bike_id": "6db7866147b78438194157cc3930fff4", "rental_uris": {"android": "https://dc.lft.to/lastmile_qr_scan", "ios": "https://dc.lft.to/lastmile_qr_scan"}, "name": "6db7866147b78438194157cc3930fff4", "is_reserved": 0}, {"is_disabled": 0, "fusion_lon": 0.0, "fusion_lat": 0.0, "lat": 38.89728816666667, "type": "electric_scooter", "lon": -77.04993716666667, "bike_id": "416c80b5d0d1b8ab5cf39cd79d47e48f", "rental_uris": {"android": "https://dc.lft.to/lastmile_qr_scan", "ios": "https://dc.lft.to/lastmile_qr_scan"}, "name": "416c80b5d0d1b8ab5cf39cd79d47e48f", "is_reserved": 0}, {"is_disabled": 0, "fusion_lon": 0.0, "fusion_lat": 0.0, "lat": 38.833769333333336, "type": "electric_scooter", "lon": -76.9929755, "bike_id": "ab9411957665ef71b6a13eedbd7af39f", "rental_uris": {"android": "https://dc.lft.to/lastmile_qr_scan", "ios": "https://dc.lft.to/lastmile_qr_scan"}, "name": "ab9411957665ef71b6a13eedbd7af39f", "is_reserved": 0}, {"is_disabled": 0, "fusion_lon": 0.0, "fusion_lat": 0.0, "lat": 38.926064333333336, "type": "electric_scooter", "lon": -77.0241615, "bike_id": "7dac7c870a0d3008b3da571b0fff72f5", "rental_uris": {"android": "https://dc.lft.to/lastmile_qr_scan", "ios": "https://dc.lft.to/lastmile_qr_scan"}, "name": "7dac7c870a0d3008b3da571b0fff72f5", "is_reserved": 0}, {"is_disabled": 0, "fusion_lon": 0.0, "fusion_lat": 0.0, "lat": 38.901460666666665, "type": "electric_scooter", "lon": -77.03445683333334, "bike_id": "18cd307e09bdf4daee47b7f7eedc118c", "rental_uris": {"android": "https://dc.lft.to/lastmile_qr_scan", "ios": "https://dc.lft.to/lastmile_qr_scan"}, "name": "18cd307e09bdf4daee47b7f7eedc118c", "is_reserved": 0}, {"is_disabled": 0, "fusion_lon": 0.0, "fusion_lat": 0.0, "lat": 38.90564766666667, "type": "electric_scooter", "lon": -77.00587516666667, "bike_id": "0ae6f3137f1fbf30a6327baeb021de74", "rental_uris": {"android": "https://dc.lft.to/lastmile_qr_scan", "ios": "https://dc.lft.to/lastmile_qr_scan"}, "name": "0ae6f3137f1fbf30a6327baeb021de74", "is_reserved": 0}, {"is_disabled": 0, "fusion_lon": 0.0, "fusion_lat": 0.0, "lat": 38.908582, "type": "electric_scooter", "lon": -77.02593583333334, "bike_id": "522ad33b756bd9dc174d905a88460dbe", "rental_uris": {"android": "https://dc.lft.to/lastmile_qr_scan", "ios": "https://dc.lft.to/lastmile_qr_scan"}, "name": "522ad33b756bd9dc174d905a88460dbe", "is_reserved": 0}, {"is_disabled": 0, "fusion_lon": 0.0, "fusion_lat": 0.0, "lat": 38.92333133333333, "type": "electric_scooter", "lon": -77.05681716666666, "bike_id": "77f6bd34cc9151dbc19340635fed8d0f", "rental_uris": {"android": "https://dc.lft.to/lastmile_qr_scan", "ios": "https://dc.lft.to/lastmile_qr_scan"}, "name": "77f6bd34cc9151dbc19340635fed8d0f", "is_reserved": 0}, {"is_disabled": 0, "fusion_lon": 0.0, "fusion_lat": 0.0, "lat": 39.054598, "type": "electric_bike", "lon": -77.1432505, "bike_id": "d807c5992030d7cfa3dfcb4e611a39b4", "rental_uris": {"android": "https://dc.lft.to/lastmile_qr_scan", "ios": "https://dc.lft.to/lastmile_qr_scan"}, "name": "d807c5992030d7cfa3dfcb4e611a39b4", "is_reserved": 0}, {"is_disabled": 0, "fusion_lon": 0.0, "fusion_lat": 0.0, "lat": 38.908538166666666, "type": "electric_scooter", "lon": -77.05506483333333, "bike_id": "f26e677a8263875ae26ba31e99fa17a2", "rental_uris": {"android": "https://dc.lft.to/lastmile_qr_scan", "ios": "https://dc.lft.to/lastmile_qr_scan"}, "name": "f26e677a8263875ae26ba31e99fa17a2", "is_reserved": 0}, {"is_disabled": 0, "fusion_lon": 0.0, "fusion_lat": 0.0, "lat": 38.77620316666667, "type": "electric_bike", "lon": -77.08350883333334, "bike_id": "7553181d3ec7f5927ccbb2b0e4dedf3a", "rental_uris": {"android": "https://dc.lft.to/lastmile_qr_scan", "ios": "https://dc.lft.to/lastmile_qr_scan"}, "name": "7553181d3ec7f5927ccbb2b0e4dedf3a", "is_reserved": 0}, {"is_disabled": 0, "fusion_lon": 0.0, "fusion_lat": 0.0, "lat": 38.887452833333334, "type": "electric_scooter", "lon": -77.01433133333333, "bike_id": "75a802311ebaf2196a3c02af30b0241c", "rental_uris": {"android": "https://dc.lft.to/lastmile_qr_scan", "ios": "https://dc.lft.to/lastmile_qr_scan"}, "name": "75a802311ebaf2196a3c02af30b0241c", "is_reserved": 0}, {"is_disabled": 0, "fusion_lon": 0.0, "fusion_lat": 0.0, "lat": 38.90505983333333, "type": "electric_scooter", "lon": -76.982392, "bike_id": "1b562906d36fd202aefb0517ede3e42d", "rental_uris": {"android": "https://dc.lft.to/lastmile_qr_scan", "ios": "https://dc.lft.to/lastmile_qr_scan"}, "name": "1b562906d36fd202aefb0517ede3e42d", "is_reserved": 0}, {"is_disabled": 0, "fusion_lon": 0.0, "fusion_lat": 0.0, "lat": 38.91761266666666, "type": "electric_scooter", "lon": -77.03196016666666, "bike_id": "9832d9c0443f28cb432f88a4dbf92c2c", "rental_uris": {"android": "https://dc.lft.to/lastmile_qr_scan", "ios": "https://dc.lft.to/lastmile_qr_scan"}, "name": "9832d9c0443f28cb432f88a4dbf92c2c", "is_reserved": 0}, {"is_disabled": 0, "fusion_lon": 0.0, "fusion_lat": 0.0, "lat": 38.893918166666666, "type": "electric_scooter", "lon": -76.95001833333333, "bike_id": "6542d7fab7af852ce1b1424dc6da6b88", "rental_uris": {"android": "https://dc.lft.to/lastmile_qr_scan", "ios": "https://dc.lft.to/lastmile_qr_scan"}, "name": "6542d7fab7af852ce1b1424dc6da6b88", "is_reserved": 0}, {"is_disabled": 0, "fusion_lon": 0.0, "fusion_lat": 0.0, "lat": 38.896117833333335, "type": "electric_scooter", "lon": -77.00932466666667, "bike_id": "14aeacdfcf8dfc5f6bf5fdee2921c317", "rental_uris": {"android": "https://dc.lft.to/lastmile_qr_scan", "ios": "https://dc.lft.to/lastmile_qr_scan"}, "name": "14aeacdfcf8dfc5f6bf5fdee2921c317", "is_reserved": 0}, {"is_disabled": 0, "fusion_lon": 0.0, "fusion_lat": 0.0, "lat": 38.889627, "type": "electric_scooter", "lon": -76.9914045, "bike_id": "2e65ef04a15337a495e5592d1faee97d", "rental_uris": {"android": "https://dc.lft.to/lastmile_qr_scan", "ios": "https://dc.lft.to/lastmile_qr_scan"}, "name": "2e65ef04a15337a495e5592d1faee97d", "is_reserved": 0}, {"is_disabled": 0, "fusion_lon": 0.0, "fusion_lat": 0.0, "lat": 38.89528583333333, "type": "electric_scooter", "lon": -77.03350633333334, "bike_id": "8772338635b8fa65d484289efd956a4b", "rental_uris": {"android": "https://dc.lft.to/lastmile_qr_scan", "ios": "https://dc.lft.to/lastmile_qr_scan"}, "name": "8772338635b8fa65d484289efd956a4b", "is_reserved": 0}, {"is_disabled": 0, "fusion_lon": 0.0, "fusion_lat": 0.0, "lat": 38.91032966666667, "type": "electric_scooter", "lon": -77.03803366666666, "bike_id": "f0ed99d24c7996c55808b8fe219786a6", "rental_uris": {"android": "https://dc.lft.to/lastmile_qr_scan", "ios": "https://dc.lft.to/lastmile_qr_scan"}, "name": "f0ed99d24c7996c55808b8fe219786a6", "is_reserved": 0}, {"is_disabled": 0, "fusion_lon": 0.0, "fusion_lat": 0.0, "lat": 38.928369833333335, "type": "electric_scooter", "lon": -77.0554705, "bike_id": "a3d8663c621497d9b68ef1d3d7b04e60", "rental_uris": {"android": "https://dc.lft.to/lastmile_qr_scan", "ios": "https://dc.lft.to/lastmile_qr_scan"}, "name": "a3d8663c621497d9b68ef1d3d7b04e60", "is_reserved": 0}, {"is_disabled": 0, "fusion_lon": 0.0, "fusion_lat": 0.0, "lat": 38.86801916666667, "type": "electric_scooter", "lon": -77.011732, "bike_id": "6e495b14bc925fa1ba957930f742b36e", "rental_uris": {"android": "https://dc.lft.to/lastmile_qr_scan", "ios": "https://dc.lft.to/lastmile_qr_scan"}, "name": "6e495b14bc925fa1ba957930f742b36e", "is_reserved": 0}, {"is_disabled": 0, "fusion_lon": 0.0, "fusion_lat": 0.0, "lat": 38.88850933333333, "type": "electric_bike", "lon": -76.97703466666667, "bike_id": "c73189f813ced4d39a96cbf152405b61", "rental_uris": {"android": "https://dc.lft.to/lastmile_qr_scan", "ios": "https://dc.lft.to/lastmile_qr_scan"}, "name": "c73189f813ced4d39a96cbf152405b61", "is_reserved": 0}, {"is_disabled": 0, "fusion_lon": 0.0, "fusion_lat": 0.0, "lat": 38.902448166666666, "type": "electric_scooter", "lon": -77.01203916666667, "bike_id": "889dfee2c97b7517b946f798eeb4913b", "rental_uris": {"android": "https://dc.lft.to/lastmile_qr_scan", "ios": "https://dc.lft.to/lastmile_qr_scan"}, "name": "889dfee2c97b7517b946f798eeb4913b", "is_reserved": 0}, {"is_disabled": 0, "fusion_lon": 0.0, "fusion_lat": 0.0, "lat": 38.90433383333333, "type": "electric_scooter", "lon": -77.04380816666666, "bike_id": "71e95a10568d5457e0635e088b77e52c", "rental_uris": {"android": "https://dc.lft.to/lastmile_qr_scan", "ios": "https://dc.lft.to/lastmile_qr_scan"}, "name": "71e95a10568d5457e0635e088b77e52c", "is_reserved": 0}, {"is_disabled": 0, "fusion_lon": 0.0, "fusion_lat": 0.0, "lat": 38.910355333333335, "type": "electric_scooter", "lon": -77.01474783333333, "bike_id": "bc5ae960619ea71bb3983201a67dbd75", "rental_uris": {"android": "https://dc.lft.to/lastmile_qr_scan", "ios": "https://dc.lft.to/lastmile_qr_scan"}, "name": "bc5ae960619ea71bb3983201a67dbd75", "is_reserved": 0}, {"is_disabled": 0, "fusion_lon": 0.0, "fusion_lat": 0.0, "lat": 38.93249933333333, "type": "electric_scooter", "lon": -77.03869966666667, "bike_id": "948b275d67ce3e2a5b33148a2bb0f8e1", "rental_uris": {"android": "https://dc.lft.to/lastmile_qr_scan", "ios": "https://dc.lft.to/lastmile_qr_scan"}, "name": "948b275d67ce3e2a5b33148a2bb0f8e1", "is_reserved": 0}, {"is_disabled": 0, "fusion_lon": 0.0, "fusion_lat": 0.0, "lat": 38.89588966666667, "type": "electric_scooter", "lon": -77.02305083333333, "bike_id": "7315625cbd63b254fdde00e7a64cfaf7", "rental_uris": {"android": "https://dc.lft.to/lastmile_qr_scan", "ios": "https://dc.lft.to/lastmile_qr_scan"}, "name": "7315625cbd63b254fdde00e7a64cfaf7", "is_reserved": 0}, {"is_disabled": 0, "fusion_lon": 0.0, "fusion_lat": 0.0, "lat": 38.917963666666665, "type": "electric_scooter", "lon": -77.023936, "bike_id": "061d854920d03a18b2ead0acadb071bb", "rental_uris": {"android": "https://dc.lft.to/lastmile_qr_scan", "ios": "https://dc.lft.to/lastmile_qr_scan"}, "name": "061d854920d03a18b2ead0acadb071bb", "is_reserved": 0}, {"is_disabled": 0, "fusion_lon": 0.0, "fusion_lat": 0.0, "lat": 38.9095085, "type": "electric_scooter", "lon": -77.02181583333333, "bike_id": "6e1a9de2d9952b2ac921578488dacf3a", "rental_uris": {"android": "https://dc.lft.to/lastmile_qr_scan", "ios": "https://dc.lft.to/lastmile_qr_scan"}, "name": "6e1a9de2d9952b2ac921578488dacf3a", "is_reserved": 0}, {"is_disabled": 0, "fusion_lon": 0.0, "fusion_lat": 0.0, "lat": 38.92109516666667, "type": "electric_scooter", "lon": -77.043786, "bike_id": "ceb6b003c20b1050005e817b01ed4a5f", "rental_uris": {"android": "https://dc.lft.to/lastmile_qr_scan", "ios": "https://dc.lft.to/lastmile_qr_scan"}, "name": "ceb6b003c20b1050005e817b01ed4a5f", "is_reserved": 0}, {"is_disabled": 0, "fusion_lon": 0.0, "fusion_lat": 0.0, "lat": 38.906424333333334, "type": "electric_scooter", "lon": -77.011863, "bike_id": "42516bc1de643236a30e90879f1c7fa7", "rental_uris": {"android": "https://dc.lft.to/lastmile_qr_scan", "ios": "https://dc.lft.to/lastmile_qr_scan"}, "name": "42516bc1de643236a30e90879f1c7fa7", "is_reserved": 0}, {"is_disabled": 0, "fusion_lon": 0.0, "fusion_lat": 0.0, "lat": 38.84620266666667, "type": "electric_scooter", "lon": -76.9963015, "bike_id": "e3baaa57f682eb836b827a71af2a5f99", "rental_uris": {"android": "https://dc.lft.to/lastmile_qr_scan", "ios": "https://dc.lft.to/lastmile_qr_scan"}, "name": "e3baaa57f682eb836b827a71af2a5f99", "is_reserved": 0}, {"is_disabled": 0, "fusion_lon": 0.0, "fusion_lat": 0.0, "lat": 38.89531016666667, "type": "electric_scooter", "lon": -77.03206633333333, "bike_id": "7ae42b5db1e678285b71cfa2368526cb", "rental_uris": {"android": "https://dc.lft.to/lastmile_qr_scan", "ios": "https://dc.lft.to/lastmile_qr_scan"}, "name": "7ae42b5db1e678285b71cfa2368526cb", "is_reserved": 0}, {"is_disabled": 0, "fusion_lon": 0.0, "fusion_lat": 0.0, "lat": 38.9673375, "type": "electric_scooter", "lon": -77.02760216666667, "bike_id": "ee6c12847dfa033634a2ed2dc64b4677", "rental_uris": {"android": "https://dc.lft.to/lastmile_qr_scan", "ios": "https://dc.lft.to/lastmile_qr_scan"}, "name": "ee6c12847dfa033634a2ed2dc64b4677", "is_reserved": 0}, {"is_disabled": 0, "fusion_lon": 0.0, "fusion_lat": 0.0, "lat": 38.92378333333333, "type": "electric_scooter", "lon": -77.0290345, "bike_id": "442adf351b6a5832faa80643b3457e85", "rental_uris": {"android": "https://dc.lft.to/lastmile_qr_scan", "ios": "https://dc.lft.to/lastmile_qr_scan"}, "name": "442adf351b6a5832faa80643b3457e85", "is_reserved": 0}, {"is_disabled": 0, "fusion_lon": 0.0, "fusion_lat": 0.0, "lat": 38.92086166666667, "type": "electric_scooter", "lon": -77.0348825, "bike_id": "8a8894a1010e677fb40aab291af7ecaa", "rental_uris": {"android": "https://dc.lft.to/lastmile_qr_scan", "ios": "https://dc.lft.to/lastmile_qr_scan"}, "name": "8a8894a1010e677fb40aab291af7ecaa", "is_reserved": 0}, {"is_disabled": 0, "fusion_lon": 0.0, "fusion_lat": 0.0, "lat": 38.9243865, "type": "electric_scooter", "lon": -77.02606033333333, "bike_id": "a4901d8a8dfb3f7a665364a5e1840fff", "rental_uris": {"android": "https://dc.lft.to/lastmile_qr_scan", "ios": "https://dc.lft.to/lastmile_qr_scan"}, "name": "a4901d8a8dfb3f7a665364a5e1840fff", "is_reserved": 0}, {"is_disabled": 0, "fusion_lon": 0.0, "fusion_lat": 0.0, "lat": 38.996688166666665, "type": "electric_bike", "lon": -76.99143716666667, "bike_id": "6cab369f015bcd0ab1e604236115ce51", "rental_uris": {"android": "https://dc.lft.to/lastmile_qr_scan", "ios": "https://dc.lft.to/lastmile_qr_scan"}, "name": "6cab369f015bcd0ab1e604236115ce51", "is_reserved": 0}, {"is_disabled": 0, "fusion_lon": 0.0, "fusion_lat": 0.0, "lat": 38.9288855, "type": "electric_scooter", "lon": -77.03336533333334, "bike_id": "98cb729e455998b6fafb8b9a098f7c31", "rental_uris": {"android": "https://dc.lft.to/lastmile_qr_scan", "ios": "https://dc.lft.to/lastmile_qr_scan"}, "name": "98cb729e455998b6fafb8b9a098f7c31", "is_reserved": 0}, {"is_disabled": 0, "fusion_lon": 0.0, "fusion_lat": 0.0, "lat": 38.90200883333333, "type": "electric_scooter", "lon": -77.04797183333334, "bike_id": "88b7089056aacb52e90e456f844758e5", "rental_uris": {"android": "https://dc.lft.to/lastmile_qr_scan", "ios": "https://dc.lft.to/lastmile_qr_scan"}, "name": "88b7089056aacb52e90e456f844758e5", "is_reserved": 0}, {"is_disabled": 0, "fusion_lon": 0.0, "fusion_lat": 0.0, "lat": 38.926575166666666, "type": "electric_scooter", "lon": -77.0229815, "bike_id": "83d11f7b77b25c74a033725e522c2927", "rental_uris": {"android": "https://dc.lft.to/lastmile_qr_scan", "ios": "https://dc.lft.to/lastmile_qr_scan"}, "name": "83d11f7b77b25c74a033725e522c2927", "is_reserved": 0}, {"is_disabled": 0, "fusion_lon": 0.0, "fusion_lat": 0.0, "lat": 38.9156745, "type": "electric_scooter", "lon": -77.020794, "bike_id": "432940a5f27ed3bb6846d4077f531750", "rental_uris": {"android": "https://dc.lft.to/lastmile_qr_scan", "ios": "https://dc.lft.to/lastmile_qr_scan"}, "name": "432940a5f27ed3bb6846d4077f531750", "is_reserved": 0}, {"is_disabled": 0, "fusion_lon": 0.0, "fusion_lat": 0.0, "lat": 38.935890666666666, "type": "electric_scooter", "lon": -77.08312683333334, "bike_id": "2b48ccf898fb3b5fa0089ab4a24f261f", "rental_uris": {"android": "https://dc.lft.to/lastmile_qr_scan", "ios": "https://dc.lft.to/lastmile_qr_scan"}, "name": "2b48ccf898fb3b5fa0089ab4a24f261f", "is_reserved": 0}, {"is_disabled": 0, "fusion_lon": 0.0, "fusion_lat": 0.0, "lat": 38.875721, "type": "electric_scooter", "lon": -77.02086316666667, "bike_id": "6c13cdc2a4e943e3ae96da9935e61599", "rental_uris": {"android": "https://dc.lft.to/lastmile_qr_scan", "ios": "https://dc.lft.to/lastmile_qr_scan"}, "name": "6c13cdc2a4e943e3ae96da9935e61599", "is_reserved": 0}, {"is_disabled": 0, "fusion_lon": 0.0, "fusion_lat": 0.0, "lat": 38.90357916666667, "type": "electric_scooter", "lon": -77.011094, "bike_id": "91daa060eafefdeff7c1e31f54d9f6ed", "rental_uris": {"android": "https://dc.lft.to/lastmile_qr_scan", "ios": "https://dc.lft.to/lastmile_qr_scan"}, "name": "91daa060eafefdeff7c1e31f54d9f6ed", "is_reserved": 0}, {"is_disabled": 0, "fusion_lon": 0.0, "fusion_lat": 0.0, "lat": 38.94452066666667, "type": "electric_scooter", "lon": -77.060313, "bike_id": "58a7c8c7f236eea0f77a330a8cb81e86", "rental_uris": {"android": "https://dc.lft.to/lastmile_qr_scan", "ios": "https://dc.lft.to/lastmile_qr_scan"}, "name": "58a7c8c7f236eea0f77a330a8cb81e86", "is_reserved": 0}, {"is_disabled": 0, "fusion_lon": 0.0, "fusion_lat": 0.0, "lat": 38.9081015, "type": "electric_scooter", "lon": -77.0015495, "bike_id": "8643652bc9e371b92ce85d49cd135fbe", "rental_uris": {"android": "https://dc.lft.to/lastmile_qr_scan", "ios": "https://dc.lft.to/lastmile_qr_scan"}, "name": "8643652bc9e371b92ce85d49cd135fbe", "is_reserved": 0}, {"is_disabled": 0, "fusion_lon": 0.0, "fusion_lat": 0.0, "lat": 38.87391566666667, "type": "electric_scooter", "lon": -77.00192466666667, "bike_id": "0daece381c16d48f2116308cc5fea663", "rental_uris": {"android": "https://dc.lft.to/lastmile_qr_scan", "ios": "https://dc.lft.to/lastmile_qr_scan"}, "name": "0daece381c16d48f2116308cc5fea663", "is_reserved": 0}, {"is_disabled": 0, "fusion_lon": 0.0, "fusion_lat": 0.0, "lat": 38.9093435, "type": "electric_scooter", "lon": -77.03184433333334, "bike_id": "554321d3cfcf93b08bf2b3be35098157", "rental_uris": {"android": "https://dc.lft.to/lastmile_qr_scan", "ios": "https://dc.lft.to/lastmile_qr_scan"}, "name": "554321d3cfcf93b08bf2b3be35098157", "is_reserved": 0}, {"is_disabled": 0, "fusion_lon": 0.0, "fusion_lat": 0.0, "lat": 38.93640933333333, "type": "electric_bike", "lon": -76.954597, "bike_id": "f33beefe86e1b2dd5984c92df37f24a9", "rental_uris": {"android": "https://dc.lft.to/lastmile_qr_scan", "ios": "https://dc.lft.to/lastmile_qr_scan"}, "name": "f33beefe86e1b2dd5984c92df37f24a9", "is_reserved": 0}, {"is_disabled": 0, "fusion_lon": 0.0, "fusion_lat": 0.0, "lat": 38.904434333333334, "type": "electric_scooter", "lon": -77.03452916666667, "bike_id": "27501da4a8420957726b6faa4a4db77f", "rental_uris": {"android": "https://dc.lft.to/lastmile_qr_scan", "ios": "https://dc.lft.to/lastmile_qr_scan"}, "name": "27501da4a8420957726b6faa4a4db77f", "is_reserved": 0}, {"is_disabled": 0, "fusion_lon": 0.0, "fusion_lat": 0.0, "lat": 38.92357466666667, "type": "electric_scooter", "lon": -77.032302, "bike_id": "862d55c667016314a09ef26078a8395e", "rental_uris": {"android": "https://dc.lft.to/lastmile_qr_scan", "ios": "https://dc.lft.to/lastmile_qr_scan"}, "name": "862d55c667016314a09ef26078a8395e", "is_reserved": 0}, {"is_disabled": 0, "fusion_lon": 0.0, "fusion_lat": 0.0, "lat": 38.904896666666666, "type": "electric_scooter", "lon": -77.0357, "bike_id": "6dd2df3d9c3b0e7af1e20d4213062038", "rental_uris": {"android": "https://dc.lft.to/lastmile_qr_scan", "ios": "https://dc.lft.to/lastmile_qr_scan"}, "name": "6dd2df3d9c3b0e7af1e20d4213062038", "is_reserved": 0}, {"is_disabled": 0, "fusion_lon": 0.0, "fusion_lat": 0.0, "lat": 38.904229666666666, "type": "electric_scooter", "lon": -77.0288305, "bike_id": "2cc64baac46f43a9b67e6c3bbc870a45", "rental_uris": {"android": "https://dc.lft.to/lastmile_qr_scan", "ios": "https://dc.lft.to/lastmile_qr_scan"}, "name": "2cc64baac46f43a9b67e6c3bbc870a45", "is_reserved": 0}, {"is_disabled": 0, "fusion_lon": 0.0, "fusion_lat": 0.0, "lat": 38.93075066666667, "type": "electric_scooter", "lon": -77.03102416666667, "bike_id": "f944eb5d17f205a055b4417407556d8a", "rental_uris": {"android": "https://dc.lft.to/lastmile_qr_scan", "ios": "https://dc.lft.to/lastmile_qr_scan"}, "name": "f944eb5d17f205a055b4417407556d8a", "is_reserved": 0}, {"is_disabled": 0, "fusion_lon": 0.0, "fusion_lat": 0.0, "lat": 38.94577616666667, "type": "electric_bike", "lon": -76.9877345, "bike_id": "7d4287ad7bd9cbf2048b345385d60021", "rental_uris": {"android": "https://dc.lft.to/lastmile_qr_scan", "ios": "https://dc.lft.to/lastmile_qr_scan"}, "name": "7d4287ad7bd9cbf2048b345385d60021", "is_reserved": 0}, {"is_disabled": 0, "fusion_lon": 0.0, "fusion_lat": 0.0, "lat": 38.94738066666667, "type": "electric_scooter", "lon": -77.01794916666667, "bike_id": "fb93cbf3e18c71f935a2d92e5ca3731a", "rental_uris": {"android": "https://dc.lft.to/lastmile_qr_scan", "ios": "https://dc.lft.to/lastmile_qr_scan"}, "name": "fb93cbf3e18c71f935a2d92e5ca3731a", "is_reserved": 0}, {"is_disabled": 0, "fusion_lon": 0.0, "fusion_lat": 0.0, "lat": 38.910450166666664, "type": "electric_scooter", "lon": -77.06456366666667, "bike_id": "0092de9927a1d36a37e3e9b6c4df0b90", "rental_uris": {"android": "https://dc.lft.to/lastmile_qr_scan", "ios": "https://dc.lft.to/lastmile_qr_scan"}, "name": "0092de9927a1d36a37e3e9b6c4df0b90", "is_reserved": 0}, {"is_disabled": 0, "fusion_lon": 0.0, "fusion_lat": 0.0, "lat": 38.878925, "type": "electric_scooter", "lon": -76.9352415, "bike_id": "7474fa6d5f6d5134a5afcb6ef077264b", "rental_uris": {"android": "https://dc.lft.to/lastmile_qr_scan", "ios": "https://dc.lft.to/lastmile_qr_scan"}, "name": "7474fa6d5f6d5134a5afcb6ef077264b", "is_reserved": 0}, {"is_disabled": 0, "fusion_lon": 0.0, "fusion_lat": 0.0, "lat": 38.97405366666667, "type": "electric_bike", "lon": -77.02490583333334, "bike_id": "2fee24f902eda74e5a951bb5852712a6", "rental_uris": {"android": "https://dc.lft.to/lastmile_qr_scan", "ios": "https://dc.lft.to/lastmile_qr_scan"}, "name": "2fee24f902eda74e5a951bb5852712a6", "is_reserved": 0}, {"is_disabled": 0, "fusion_lon": 0.0, "fusion_lat": 0.0, "lat": 38.898445833333334, "type": "electric_scooter", "lon": -77.022178, "bike_id": "23ca89c512448d092991200881fb2973", "rental_uris": {"android": "https://dc.lft.to/lastmile_qr_scan", "ios": "https://dc.lft.to/lastmile_qr_scan"}, "name": "23ca89c512448d092991200881fb2973", "is_reserved": 0}, {"is_disabled": 0, "fusion_lon": 0.0, "fusion_lat": 0.0, "lat": 38.900615, "type": "electric_scooter", "lon": -76.93382016666666, "bike_id": "d559660f6a0f529def311f241832e6bf", "rental_uris": {"android": "https://dc.lft.to/lastmile_qr_scan", "ios": "https://dc.lft.to/lastmile_qr_scan"}, "name": "d559660f6a0f529def311f241832e6bf", "is_reserved": 0}, {"is_disabled": 0, "fusion_lon": 0.0, "fusion_lat": 0.0, "lat": 38.931331666666665, "type": "electric_scooter", "lon": -77.05729783333334, "bike_id": "25d36670bc68e7cb749815bd4f19befc", "rental_uris": {"android": "https://dc.lft.to/lastmile_qr_scan", "ios": "https://dc.lft.to/lastmile_qr_scan"}, "name": "25d36670bc68e7cb749815bd4f19befc", "is_reserved": 0}, {"is_disabled": 0, "fusion_lon": 0.0, "fusion_lat": 0.0, "lat": 38.89357783333333, "type": "electric_scooter", "lon": -77.03957716666666, "bike_id": "76c0da1c7eb6df7250c377f1793f1690", "rental_uris": {"android": "https://dc.lft.to/lastmile_qr_scan", "ios": "https://dc.lft.to/lastmile_qr_scan"}, "name": "76c0da1c7eb6df7250c377f1793f1690", "is_reserved": 0}, {"is_disabled": 0, "fusion_lon": 0.0, "fusion_lat": 0.0, "lat": 38.9134865, "type": "electric_scooter", "lon": -77.03203383333333, "bike_id": "c0c52b84890816bbb03e248e6b0ab151", "rental_uris": {"android": "https://dc.lft.to/lastmile_qr_scan", "ios": "https://dc.lft.to/lastmile_qr_scan"}, "name": "c0c52b84890816bbb03e248e6b0ab151", "is_reserved": 0}, {"is_disabled": 0, "fusion_lon": 0.0, "fusion_lat": 0.0, "lat": 38.89472583333333, "type": "electric_scooter", "lon": -77.0228475, "bike_id": "cf3d1130f6f0123ec8c8f3e025681308", "rental_uris": {"android": "https://dc.lft.to/lastmile_qr_scan", "ios": "https://dc.lft.to/lastmile_qr_scan"}, "name": "cf3d1130f6f0123ec8c8f3e025681308", "is_reserved": 0}, {"is_disabled": 0, "fusion_lon": 0.0, "fusion_lat": 0.0, "lat": 38.905372666666665, "type": "electric_scooter", "lon": -77.02979066666667, "bike_id": "b67314e93a3c616712e6d89535e0c50c", "rental_uris": {"android": "https://dc.lft.to/lastmile_qr_scan", "ios": "https://dc.lft.to/lastmile_qr_scan"}, "name": "b67314e93a3c616712e6d89535e0c50c", "is_reserved": 0}, {"is_disabled": 0, "fusion_lon": 0.0, "fusion_lat": 0.0, "lat": 38.911485166666665, "type": "electric_scooter", "lon": -76.98501033333334, "bike_id": "110213659f1e4b64486690249beb4d71", "rental_uris": {"android": "https://dc.lft.to/lastmile_qr_scan", "ios": "https://dc.lft.to/lastmile_qr_scan"}, "name": "110213659f1e4b64486690249beb4d71", "is_reserved": 0}, {"is_disabled": 0, "fusion_lon": 0.0, "fusion_lat": 0.0, "lat": 38.89464383333333, "type": "electric_scooter", "lon": -76.97717433333334, "bike_id": "ed8c687650d76747885f6aa77fec5872", "rental_uris": {"android": "https://dc.lft.to/lastmile_qr_scan", "ios": "https://dc.lft.to/lastmile_qr_scan"}, "name": "ed8c687650d76747885f6aa77fec5872", "is_reserved": 0}, {"is_disabled": 0, "fusion_lon": 0.0, "fusion_lat": 0.0, "lat": 38.94449383333333, "type": "electric_scooter", "lon": -77.06051866666667, "bike_id": "9b1d16d647f3ee42acb9a18c64af1289", "rental_uris": {"android": "https://dc.lft.to/lastmile_qr_scan", "ios": "https://dc.lft.to/lastmile_qr_scan"}, "name": "9b1d16d647f3ee42acb9a18c64af1289", "is_reserved": 0}, {"is_disabled": 0, "fusion_lon": 0.0, "fusion_lat": 0.0, "lat": 38.904618166666666, "type": "electric_scooter", "lon": -76.99210483333333, "bike_id": "18050985ebdc74b9b141c6e89c99257e", "rental_uris": {"android": "https://dc.lft.to/lastmile_qr_scan", "ios": "https://dc.lft.to/lastmile_qr_scan"}, "name": "18050985ebdc74b9b141c6e89c99257e", "is_reserved": 0}, {"is_disabled": 0, "fusion_lon": 0.0, "fusion_lat": 0.0, "lat": 38.91639983333334, "type": "electric_scooter", "lon": -77.05057083333334, "bike_id": "cceff2338ffb034b229282c16dc4e1f9", "rental_uris": {"android": "https://dc.lft.to/lastmile_qr_scan", "ios": "https://dc.lft.to/lastmile_qr_scan"}, "name": "cceff2338ffb034b229282c16dc4e1f9", "is_reserved": 0}, {"is_disabled": 0, "fusion_lon": 0.0, "fusion_lat": 0.0, "lat": 38.905274666666664, "type": "electric_scooter", "lon": -77.02973866666666, "bike_id": "81fb31510741857bd1f879a41188b9b2", "rental_uris": {"android": "https://dc.lft.to/lastmile_qr_scan", "ios": "https://dc.lft.to/lastmile_qr_scan"}, "name": "81fb31510741857bd1f879a41188b9b2", "is_reserved": 0}, {"is_disabled": 0, "fusion_lon": 0.0, "fusion_lat": 0.0, "lat": 38.86580933333333, "type": "electric_scooter", "lon": -76.99046133333333, "bike_id": "24c64b7b9f92b6b2ac780b7251b24b78", "rental_uris": {"android": "https://dc.lft.to/lastmile_qr_scan", "ios": "https://dc.lft.to/lastmile_qr_scan"}, "name": "24c64b7b9f92b6b2ac780b7251b24b78", "is_reserved": 0}, {"is_disabled": 0, "fusion_lon": 0.0, "fusion_lat": 0.0, "lat": 38.89965933333333, "type": "electric_scooter", "lon": -77.04610666666666, "bike_id": "1e1818827b265d9d82424a9b8981a874", "rental_uris": {"android": "https://dc.lft.to/lastmile_qr_scan", "ios": "https://dc.lft.to/lastmile_qr_scan"}, "name": "1e1818827b265d9d82424a9b8981a874", "is_reserved": 0}, {"is_disabled": 0, "fusion_lon": 0.0, "fusion_lat": 0.0, "lat": 38.896139833333336, "type": "electric_scooter", "lon": -76.99636283333334, "bike_id": "53ed2d525ea789546817811c20d40cf9", "rental_uris": {"android": "https://dc.lft.to/lastmile_qr_scan", "ios": "https://dc.lft.to/lastmile_qr_scan"}, "name": "53ed2d525ea789546817811c20d40cf9", "is_reserved": 0}, {"is_disabled": 0, "fusion_lon": 0.0, "fusion_lat": 0.0, "lat": 38.915674833333334, "type": "electric_scooter", "lon": -77.03276183333334, "bike_id": "0f27406a405901dae4e16f440751c1b8", "rental_uris": {"android": "https://dc.lft.to/lastmile_qr_scan", "ios": "https://dc.lft.to/lastmile_qr_scan"}, "name": "0f27406a405901dae4e16f440751c1b8", "is_reserved": 0}, {"is_disabled": 0, "fusion_lon": 0.0, "fusion_lat": 0.0, "lat": 38.912552, "type": "electric_scooter", "lon": -77.03269616666667, "bike_id": "45f49f62b985134b6f35b62d4b9499e3", "rental_uris": {"android": "https://dc.lft.to/lastmile_qr_scan", "ios": "https://dc.lft.to/lastmile_qr_scan"}, "name": "45f49f62b985134b6f35b62d4b9499e3", "is_reserved": 0}, {"is_disabled": 0, "fusion_lon": 0.0, "fusion_lat": 0.0, "lat": 38.918744833333335, "type": "electric_bike", "lon": -76.96122766666667, "bike_id": "1c7729ba7583af24c6337cc393c58fa9", "rental_uris": {"android": "https://dc.lft.to/lastmile_qr_scan", "ios": "https://dc.lft.to/lastmile_qr_scan"}, "name": "1c7729ba7583af24c6337cc393c58fa9", "is_reserved": 0}, {"is_disabled": 0, "fusion_lon": 0.0, "fusion_lat": 0.0, "lat": 38.9096505, "type": "electric_scooter", "lon": -77.03194566666667, "bike_id": "9137ff9f84b591c4770af4d9eb38c8d5", "rental_uris": {"android": "https://dc.lft.to/lastmile_qr_scan", "ios": "https://dc.lft.to/lastmile_qr_scan"}, "name": "9137ff9f84b591c4770af4d9eb38c8d5", "is_reserved": 0}, {"is_disabled": 0, "fusion_lon": 0.0, "fusion_lat": 0.0, "lat": 38.90539116666667, "type": "electric_scooter", "lon": -77.029586, "bike_id": "26f90da5052dd38d39352d8485b5560f", "rental_uris": {"android": "https://dc.lft.to/lastmile_qr_scan", "ios": "https://dc.lft.to/lastmile_qr_scan"}, "name": "26f90da5052dd38d39352d8485b5560f", "is_reserved": 0}, {"is_disabled": 0, "fusion_lon": 0.0, "fusion_lat": 0.0, "lat": 38.93190933333333, "type": "electric_scooter", "lon": -77.02828766666667, "bike_id": "4b4fe7611a1552c5ace352d55663142b", "rental_uris": {"android": "https://dc.lft.to/lastmile_qr_scan", "ios": "https://dc.lft.to/lastmile_qr_scan"}, "name": "4b4fe7611a1552c5ace352d55663142b", "is_reserved": 0}, {"is_disabled": 0, "fusion_lon": 0.0, "fusion_lat": 0.0, "lat": 38.90544, "type": "electric_scooter", "lon": -77.029745, "bike_id": "8ab4f178cff07c23a70ed319e343a855", "rental_uris": {"android": "https://dc.lft.to/lastmile_qr_scan", "ios": "https://dc.lft.to/lastmile_qr_scan"}, "name": "8ab4f178cff07c23a70ed319e343a855", "is_reserved": 0}, {"is_disabled": 0, "fusion_lon": 0.0, "fusion_lat": 0.0, "lat": 38.90180066666667, "type": "electric_scooter", "lon": -76.92826033333333, "bike_id": "bfc4609b8f02129c893c1a99b831a9bd", "rental_uris": {"android": "https://dc.lft.to/lastmile_qr_scan", "ios": "https://dc.lft.to/lastmile_qr_scan"}, "name": "bfc4609b8f02129c893c1a99b831a9bd", "is_reserved": 0}, {"is_disabled": 0, "fusion_lon": 0.0, "fusion_lat": 0.0, "lat": 38.918751666666665, "type": "electric_scooter", "lon": -77.04726266666667, "bike_id": "b57ae60524054937529efc2adf154f81", "rental_uris": {"android": "https://dc.lft.to/lastmile_qr_scan", "ios": "https://dc.lft.to/lastmile_qr_scan"}, "name": "b57ae60524054937529efc2adf154f81", "is_reserved": 0}, {"is_disabled": 0, "fusion_lon": 0.0, "fusion_lat": 0.0, "lat": 38.917119666666665, "type": "electric_scooter", "lon": -77.0322945, "bike_id": "52e11b8fc6f971262e4aeb601f1a7d68", "rental_uris": {"android": "https://dc.lft.to/lastmile_qr_scan", "ios": "https://dc.lft.to/lastmile_qr_scan"}, "name": "52e11b8fc6f971262e4aeb601f1a7d68", "is_reserved": 0}, {"is_disabled": 0, "fusion_lon": 0.0, "fusion_lat": 0.0, "lat": 38.94783966666667, "type": "electric_scooter", "lon": -77.09281716666666, "bike_id": "40c0c8207bab251893910f5a6f7a4f5d", "rental_uris": {"android": "https://dc.lft.to/lastmile_qr_scan", "ios": "https://dc.lft.to/lastmile_qr_scan"}, "name": "40c0c8207bab251893910f5a6f7a4f5d", "is_reserved": 0}, {"is_disabled": 0, "fusion_lon": 0.0, "fusion_lat": 0.0, "lat": 38.9051515, "type": "electric_scooter", "lon": -77.05088366666666, "bike_id": "4163e76b58e3b21eb18948bd2f28205a", "rental_uris": {"android": "https://dc.lft.to/lastmile_qr_scan", "ios": "https://dc.lft.to/lastmile_qr_scan"}, "name": "4163e76b58e3b21eb18948bd2f28205a", "is_reserved": 0}, {"is_disabled": 0, "fusion_lon": 0.0, "fusion_lat": 0.0, "lat": 38.928682, "type": "electric_scooter", "lon": -77.03264616666667, "bike_id": "52386bec14f4ecfdd022d9597dcab840", "rental_uris": {"android": "https://dc.lft.to/lastmile_qr_scan", "ios": "https://dc.lft.to/lastmile_qr_scan"}, "name": "52386bec14f4ecfdd022d9597dcab840", "is_reserved": 0}, {"is_disabled": 0, "fusion_lon": 0.0, "fusion_lat": 0.0, "lat": 38.89951283333333, "type": "electric_scooter", "lon": -77.05220483333333, "bike_id": "c538b656361b988b019691c33f485366", "rental_uris": {"android": "https://dc.lft.to/lastmile_qr_scan", "ios": "https://dc.lft.to/lastmile_qr_scan"}, "name": "c538b656361b988b019691c33f485366", "is_reserved": 0}, {"is_disabled": 0, "fusion_lon": 0.0, "fusion_lat": 0.0, "lat": 38.90532016666667, "type": "electric_scooter", "lon": -77.0500115, "bike_id": "bf0460304ae5a8df6e7107f8e270fa70", "rental_uris": {"android": "https://dc.lft.to/lastmile_qr_scan", "ios": "https://dc.lft.to/lastmile_qr_scan"}, "name": "bf0460304ae5a8df6e7107f8e270fa70", "is_reserved": 0}, {"is_disabled": 0, "fusion_lon": 0.0, "fusion_lat": 0.0, "lat": 38.924805166666665, "type": "electric_scooter", "lon": -77.027252, "bike_id": "804aad2baf681734cc221eeaba375f13", "rental_uris": {"android": "https://dc.lft.to/lastmile_qr_scan", "ios": "https://dc.lft.to/lastmile_qr_scan"}, "name": "804aad2baf681734cc221eeaba375f13", "is_reserved": 0}, {"is_disabled": 0, "fusion_lon": 0.0, "fusion_lat": 0.0, "lat": 38.903468, "type": "electric_scooter", "lon": -77.04192, "bike_id": "90670fe94318568dafdc71cdfb2705c1", "rental_uris": {"android": "https://dc.lft.to/lastmile_qr_scan", "ios": "https://dc.lft.to/lastmile_qr_scan"}, "name": "90670fe94318568dafdc71cdfb2705c1", "is_reserved": 0}, {"is_disabled": 0, "fusion_lon": 0.0, "fusion_lat": 0.0, "lat": 38.985608666666664, "type": "electric_bike", "lon": -76.98828583333334, "bike_id": "6c8584467fcdfdab9e094ec6766fff6a", "rental_uris": {"android": "https://dc.lft.to/lastmile_qr_scan", "ios": "https://dc.lft.to/lastmile_qr_scan"}, "name": "6c8584467fcdfdab9e094ec6766fff6a", "is_reserved": 0}, {"is_disabled": 0, "fusion_lon": 0.0, "fusion_lat": 0.0, "lat": 38.84290216666667, "type": "electric_scooter", "lon": -76.99947133333333, "bike_id": "c97bb6bd3b80e0aa8a36a541bfac0c1e", "rental_uris": {"android": "https://dc.lft.to/lastmile_qr_scan", "ios": "https://dc.lft.to/lastmile_qr_scan"}, "name": "c97bb6bd3b80e0aa8a36a541bfac0c1e", "is_reserved": 0}, {"is_disabled": 0, "fusion_lon": 0.0, "fusion_lat": 0.0, "lat": 38.917542833333336, "type": "electric_scooter", "lon": -77.0319, "bike_id": "5078a299cb5c2d910fc653ca3b43c126", "rental_uris": {"android": "https://dc.lft.to/lastmile_qr_scan", "ios": "https://dc.lft.to/lastmile_qr_scan"}, "name": "5078a299cb5c2d910fc653ca3b43c126", "is_reserved": 0}, {"is_disabled": 0, "fusion_lon": 0.0, "fusion_lat": 0.0, "lat": 38.940318833333336, "type": "electric_scooter", "lon": -77.02507566666667, "bike_id": "a7a08c4b91c887adf18a43e21c96f08b", "rental_uris": {"android": "https://dc.lft.to/lastmile_qr_scan", "ios": "https://dc.lft.to/lastmile_qr_scan"}, "name": "a7a08c4b91c887adf18a43e21c96f08b", "is_reserved": 0}, {"is_disabled": 0, "fusion_lon": 0.0, "fusion_lat": 0.0, "lat": 38.91180416666667, "type": "electric_scooter", "lon": -77.01877383333333, "bike_id": "84cef42ca1eb6a39d28064733840d73e", "rental_uris": {"android": "https://dc.lft.to/lastmile_qr_scan", "ios": "https://dc.lft.to/lastmile_qr_scan"}, "name": "84cef42ca1eb6a39d28064733840d73e", "is_reserved": 0}, {"is_disabled": 0, "fusion_lon": 0.0, "fusion_lat": 0.0, "lat": 39.02997283333333, "type": "electric_bike", "lon": -77.10651766666666, "bike_id": "5961c3731f045606d42d0518781c3e20", "rental_uris": {"android": "https://dc.lft.to/lastmile_qr_scan", "ios": "https://dc.lft.to/lastmile_qr_scan"}, "name": "5961c3731f045606d42d0518781c3e20", "is_reserved": 0}, {"is_disabled": 0, "fusion_lon": 0.0, "fusion_lat": 0.0, "lat": 38.90830283333333, "type": "electric_scooter", "lon": -76.99688016666667, "bike_id": "6e574accfc7e1249a065008136dd2af7", "rental_uris": {"android": "https://dc.lft.to/lastmile_qr_scan", "ios": "https://dc.lft.to/lastmile_qr_scan"}, "name": "6e574accfc7e1249a065008136dd2af7", "is_reserved": 0}, {"is_disabled": 0, "fusion_lon": 0.0, "fusion_lat": 0.0, "lat": 38.932770833333336, "type": "electric_scooter", "lon": -76.9742095, "bike_id": "3be42228b15f06ea26600852d7cd41e0", "rental_uris": {"android": "https://dc.lft.to/lastmile_qr_scan", "ios": "https://dc.lft.to/lastmile_qr_scan"}, "name": "3be42228b15f06ea26600852d7cd41e0", "is_reserved": 0}, {"is_disabled": 0, "fusion_lon": 0.0, "fusion_lat": 0.0, "lat": 38.905201166666664, "type": "electric_scooter", "lon": -77.04986216666667, "bike_id": "ed9a1e713cc879373bfb4ccf748bca99", "rental_uris": {"android": "https://dc.lft.to/lastmile_qr_scan", "ios": "https://dc.lft.to/lastmile_qr_scan"}, "name": "ed9a1e713cc879373bfb4ccf748bca99", "is_reserved": 0}, {"is_disabled": 0, "fusion_lon": 0.0, "fusion_lat": 0.0, "lat": 38.9320155, "type": "electric_scooter", "lon": -77.02351066666667, "bike_id": "57e7c56de8a3177cbe039012a39da671", "rental_uris": {"android": "https://dc.lft.to/lastmile_qr_scan", "ios": "https://dc.lft.to/lastmile_qr_scan"}, "name": "57e7c56de8a3177cbe039012a39da671", "is_reserved": 0}, {"is_disabled": 0, "fusion_lon": 0.0, "fusion_lat": 0.0, "lat": 38.90828533333333, "type": "electric_bike", "lon": -76.996849, "bike_id": "071f761388c7eb79ac1d3d08857fdfcf", "rental_uris": {"android": "https://dc.lft.to/lastmile_qr_scan", "ios": "https://dc.lft.to/lastmile_qr_scan"}, "name": "071f761388c7eb79ac1d3d08857fdfcf", "is_reserved": 0}, {"is_disabled": 0, "fusion_lon": 0.0, "fusion_lat": 0.0, "lat": 38.924841666666666, "type": "electric_scooter", "lon": -77.02730683333333, "bike_id": "51e2e3b51e47c1f86bc09241fdc65e81", "rental_uris": {"android": "https://dc.lft.to/lastmile_qr_scan", "ios": "https://dc.lft.to/lastmile_qr_scan"}, "name": "51e2e3b51e47c1f86bc09241fdc65e81", "is_reserved": 0}, {"is_disabled": 0, "fusion_lon": 0.0, "fusion_lat": 0.0, "lat": 38.88769466666667, "type": "electric_scooter", "lon": -77.015482, "bike_id": "1dec068972dfa32699a4a7d204b2bb25", "rental_uris": {"android": "https://dc.lft.to/lastmile_qr_scan", "ios": "https://dc.lft.to/lastmile_qr_scan"}, "name": "1dec068972dfa32699a4a7d204b2bb25", "is_reserved": 0}, {"is_disabled": 0, "fusion_lon": 0.0, "fusion_lat": 0.0, "lat": 38.869709, "type": "electric_scooter", "lon": -77.01219383333333, "bike_id": "9d7389d84634a9092ec1c12ad7ce3dc4", "rental_uris": {"android": "https://dc.lft.to/lastmile_qr_scan", "ios": "https://dc.lft.to/lastmile_qr_scan"}, "name": "9d7389d84634a9092ec1c12ad7ce3dc4", "is_reserved": 0}, {"is_disabled": 0, "fusion_lon": 0.0, "fusion_lat": 0.0, "lat": 38.92682583333333, "type": "electric_bike", "lon": -77.02254283333333, "bike_id": "93a076eda96008a9fd226ece2d877f13", "rental_uris": {"android": "https://dc.lft.to/lastmile_qr_scan", "ios": "https://dc.lft.to/lastmile_qr_scan"}, "name": "93a076eda96008a9fd226ece2d877f13", "is_reserved": 0}, {"is_disabled": 0, "fusion_lon": 0.0, "fusion_lat": 0.0, "lat": 38.92256583333333, "type": "electric_scooter", "lon": -77.03526266666667, "bike_id": "2e726170273b84235b8f67a7e0462299", "rental_uris": {"android": "https://dc.lft.to/lastmile_qr_scan", "ios": "https://dc.lft.to/lastmile_qr_scan"}, "name": "2e726170273b84235b8f67a7e0462299", "is_reserved": 0}, {"is_disabled": 0, "fusion_lon": 0.0, "fusion_lat": 0.0, "lat": 38.88643533333333, "type": "electric_scooter", "lon": -77.02258366666666, "bike_id": "1bbff9585fcd3fb8b2ec83101b64c9ed", "rental_uris": {"android": "https://dc.lft.to/lastmile_qr_scan", "ios": "https://dc.lft.to/lastmile_qr_scan"}, "name": "1bbff9585fcd3fb8b2ec83101b64c9ed", "is_reserved": 0}, {"is_disabled": 0, "fusion_lon": 0.0, "fusion_lat": 0.0, "lat": 38.89220616666667, "type": "electric_scooter", "lon": -77.01558133333333, "bike_id": "6e28b3d1d8d2379ec14b565c9ad0f253", "rental_uris": {"android": "https://dc.lft.to/lastmile_qr_scan", "ios": "https://dc.lft.to/lastmile_qr_scan"}, "name": "6e28b3d1d8d2379ec14b565c9ad0f253", "is_reserved": 0}, {"is_disabled": 0, "fusion_lon": 0.0, "fusion_lat": 0.0, "lat": 38.8925855, "type": "electric_scooter", "lon": -76.9415755, "bike_id": "3726ede0c859acb0c736b32ad74083c1", "rental_uris": {"android": "https://dc.lft.to/lastmile_qr_scan", "ios": "https://dc.lft.to/lastmile_qr_scan"}, "name": "3726ede0c859acb0c736b32ad74083c1", "is_reserved": 0}, {"is_disabled": 0, "fusion_lon": 0.0, "fusion_lat": 0.0, "lat": 38.91876583333333, "type": "electric_scooter", "lon": -77.04176133333333, "bike_id": "3645f2b54061138ace1d613485b6da6a", "rental_uris": {"android": "https://dc.lft.to/lastmile_qr_scan", "ios": "https://dc.lft.to/lastmile_qr_scan"}, "name": "3645f2b54061138ace1d613485b6da6a", "is_reserved": 0}, {"is_disabled": 0, "fusion_lon": 0.0, "fusion_lat": 0.0, "lat": 38.9078825, "type": "electric_scooter", "lon": -77.04346433333333, "bike_id": "e559128debad44a2b07e2abf908b4a25", "rental_uris": {"android": "https://dc.lft.to/lastmile_qr_scan", "ios": "https://dc.lft.to/lastmile_qr_scan"}, "name": "e559128debad44a2b07e2abf908b4a25", "is_reserved": 0}, {"is_disabled": 0, "fusion_lon": 0.0, "fusion_lat": 0.0, "lat": 38.909498, "type": "electric_scooter", "lon": -77.01525066666666, "bike_id": "2c41150a3855648e1da7c70dd39ef6c5", "rental_uris": {"android": "https://dc.lft.to/lastmile_qr_scan", "ios": "https://dc.lft.to/lastmile_qr_scan"}, "name": "2c41150a3855648e1da7c70dd39ef6c5", "is_reserved": 0}, {"is_disabled": 0, "fusion_lon": 0.0, "fusion_lat": 0.0, "lat": 38.932515333333335, "type": "electric_scooter", "lon": -77.0327535, "bike_id": "551eb3d5bebc80d755447f7d1d475b1f", "rental_uris": {"android": "https://dc.lft.to/lastmile_qr_scan", "ios": "https://dc.lft.to/lastmile_qr_scan"}, "name": "551eb3d5bebc80d755447f7d1d475b1f", "is_reserved": 0}, {"is_disabled": 0, "fusion_lon": 0.0, "fusion_lat": 0.0, "lat": 38.90682416666667, "type": "electric_bike", "lon": -76.9519755, "bike_id": "641661ae5e046c856d1ae081288ffe8f", "rental_uris": {"android": "https://dc.lft.to/lastmile_qr_scan", "ios": "https://dc.lft.to/lastmile_qr_scan"}, "name": "641661ae5e046c856d1ae081288ffe8f", "is_reserved": 0}, {"is_disabled": 0, "fusion_lon": 0.0, "fusion_lat": 0.0, "lat": 38.916274666666666, "type": "electric_scooter", "lon": -77.03181616666667, "bike_id": "e76f7fdff25e7058eb1c4224eee1edcd", "rental_uris": {"android": "https://dc.lft.to/lastmile_qr_scan", "ios": "https://dc.lft.to/lastmile_qr_scan"}, "name": "e76f7fdff25e7058eb1c4224eee1edcd", "is_reserved": 0}, {"is_disabled": 0, "fusion_lon": 0.0, "fusion_lat": 0.0, "lat": 38.929472833333335, "type": "electric_scooter", "lon": -77.01889266666667, "bike_id": "639734521add3449cb5474fb0608a92c", "rental_uris": {"android": "https://dc.lft.to/lastmile_qr_scan", "ios": "https://dc.lft.to/lastmile_qr_scan"}, "name": "639734521add3449cb5474fb0608a92c", "is_reserved": 0}, {"is_disabled": 0, "fusion_lon": 0.0, "fusion_lat": 0.0, "lat": 38.9079325, "type": "electric_scooter", "lon": -77.03189616666667, "bike_id": "2a2435c9819837a7881b3693d61c3cdb", "rental_uris": {"android": "https://dc.lft.to/lastmile_qr_scan", "ios": "https://dc.lft.to/lastmile_qr_scan"}, "name": "2a2435c9819837a7881b3693d61c3cdb", "is_reserved": 0}, {"is_disabled": 0, "fusion_lon": 0.0, "fusion_lat": 0.0, "lat": 38.9170215, "type": "electric_scooter", "lon": -77.0346905, "bike_id": "eba95a385fc87c4958f0c33d56fbefe3", "rental_uris": {"android": "https://dc.lft.to/lastmile_qr_scan", "ios": "https://dc.lft.to/lastmile_qr_scan"}, "name": "eba95a385fc87c4958f0c33d56fbefe3", "is_reserved": 0}, {"is_disabled": 0, "fusion_lon": 0.0, "fusion_lat": 0.0, "lat": 38.90866416666667, "type": "electric_scooter", "lon": -77.02699383333334, "bike_id": "e2e1e8536e327730f26bf68a70a568fa", "rental_uris": {"android": "https://dc.lft.to/lastmile_qr_scan", "ios": "https://dc.lft.to/lastmile_qr_scan"}, "name": "e2e1e8536e327730f26bf68a70a568fa", "is_reserved": 0}, {"is_disabled": 0, "fusion_lon": 0.0, "fusion_lat": 0.0, "lat": 38.900165666666666, "type": "electric_scooter", "lon": -77.05250283333334, "bike_id": "bf7e3ab7d30fda034309ca79a49e2275", "rental_uris": {"android": "https://dc.lft.to/lastmile_qr_scan", "ios": "https://dc.lft.to/lastmile_qr_scan"}, "name": "bf7e3ab7d30fda034309ca79a49e2275", "is_reserved": 0}, {"is_disabled": 0, "fusion_lon": 0.0, "fusion_lat": 0.0, "lat": 38.91955633333333, "type": "electric_scooter", "lon": -77.01650916666667, "bike_id": "fb50623ebb5acba46773bda65c52b11e", "rental_uris": {"android": "https://dc.lft.to/lastmile_qr_scan", "ios": "https://dc.lft.to/lastmile_qr_scan"}, "name": "fb50623ebb5acba46773bda65c52b11e", "is_reserved": 0}, {"is_disabled": 0, "fusion_lon": 0.0, "fusion_lat": 0.0, "lat": 38.9195435, "type": "electric_scooter", "lon": -77.0007815, "bike_id": "29d4f030e47be8d5fc4b4817701dbf7e", "rental_uris": {"android": "https://dc.lft.to/lastmile_qr_scan", "ios": "https://dc.lft.to/lastmile_qr_scan"}, "name": "29d4f030e47be8d5fc4b4817701dbf7e", "is_reserved": 0}, {"is_disabled": 0, "fusion_lon": 0.0, "fusion_lat": 0.0, "lat": 38.95775866666666, "type": "electric_bike", "lon": -76.94093683333334, "bike_id": "162b6784aac7976555999080a77d2cc6", "rental_uris": {"android": "https://dc.lft.to/lastmile_qr_scan", "ios": "https://dc.lft.to/lastmile_qr_scan"}, "name": "162b6784aac7976555999080a77d2cc6", "is_reserved": 0}, {"is_disabled": 0, "fusion_lon": 0.0, "fusion_lat": 0.0, "lat": 38.89359833333334, "type": "electric_scooter", "lon": -76.94017233333334, "bike_id": "bd39785787eb6c7dacc36bf5759363d8", "rental_uris": {"android": "https://dc.lft.to/lastmile_qr_scan", "ios": "https://dc.lft.to/lastmile_qr_scan"}, "name": "bd39785787eb6c7dacc36bf5759363d8", "is_reserved": 0}, {"is_disabled": 0, "fusion_lon": 0.0, "fusion_lat": 0.0, "lat": 38.8802065, "type": "electric_bike", "lon": -76.960732, "bike_id": "69ae4f097e98230bb594737c4cf382cb", "rental_uris": {"android": "https://dc.lft.to/lastmile_qr_scan", "ios": "https://dc.lft.to/lastmile_qr_scan"}, "name": "69ae4f097e98230bb594737c4cf382cb", "is_reserved": 0}, {"is_disabled": 0, "fusion_lon": 0.0, "fusion_lat": 0.0, "lat": 38.93760416666667, "type": "electric_scooter", "lon": -77.02501216666667, "bike_id": "ff157be25905a62a86b4e53ab7a62122", "rental_uris": {"android": "https://dc.lft.to/lastmile_qr_scan", "ios": "https://dc.lft.to/lastmile_qr_scan"}, "name": "ff157be25905a62a86b4e53ab7a62122", "is_reserved": 0}, {"is_disabled": 0, "fusion_lon": 0.0, "fusion_lat": 0.0, "lat": 38.89979366666667, "type": "electric_scooter", "lon": -76.99500183333333, "bike_id": "636fd42dd3c8cba12df444d21cfe1134", "rental_uris": {"android": "https://dc.lft.to/lastmile_qr_scan", "ios": "https://dc.lft.to/lastmile_qr_scan"}, "name": "636fd42dd3c8cba12df444d21cfe1134", "is_reserved": 0}, {"is_disabled": 0, "fusion_lon": 0.0, "fusion_lat": 0.0, "lat": 38.95312033333333, "type": "electric_scooter", "lon": -77.03602566666666, "bike_id": "5d2763a9db6fac69c0350081aba30773", "rental_uris": {"android": "https://dc.lft.to/lastmile_qr_scan", "ios": "https://dc.lft.to/lastmile_qr_scan"}, "name": "5d2763a9db6fac69c0350081aba30773", "is_reserved": 0}, {"is_disabled": 0, "fusion_lon": 0.0, "fusion_lat": 0.0, "lat": 38.906574, "type": "electric_scooter", "lon": -77.04157933333333, "bike_id": "3a069b32a1a53e994451887ea37fc801", "rental_uris": {"android": "https://dc.lft.to/lastmile_qr_scan", "ios": "https://dc.lft.to/lastmile_qr_scan"}, "name": "3a069b32a1a53e994451887ea37fc801", "is_reserved": 0}, {"is_disabled": 0, "fusion_lon": 0.0, "fusion_lat": 0.0, "lat": 38.934925166666666, "type": "electric_bike", "lon": -77.07278833333334, "bike_id": "d782a71cc0f52af13fe2cf32c1bb87f8", "rental_uris": {"android": "https://dc.lft.to/lastmile_qr_scan", "ios": "https://dc.lft.to/lastmile_qr_scan"}, "name": "d782a71cc0f52af13fe2cf32c1bb87f8", "is_reserved": 0}, {"is_disabled": 0, "fusion_lon": 0.0, "fusion_lat": 0.0, "lat": 38.94982866666667, "type": "electric_scooter", "lon": -77.027031, "bike_id": "d3915aaa99c0f03a5c94c770d72ed644", "rental_uris": {"android": "https://dc.lft.to/lastmile_qr_scan", "ios": "https://dc.lft.to/lastmile_qr_scan"}, "name": "d3915aaa99c0f03a5c94c770d72ed644", "is_reserved": 0}, {"is_disabled": 0, "fusion_lon": 0.0, "fusion_lat": 0.0, "lat": 38.89792466666667, "type": "electric_scooter", "lon": -76.93051083333333, "bike_id": "fd8c39e14fd29f49b1d1858401feeb0b", "rental_uris": {"android": "https://dc.lft.to/lastmile_qr_scan", "ios": "https://dc.lft.to/lastmile_qr_scan"}, "name": "fd8c39e14fd29f49b1d1858401feeb0b", "is_reserved": 0}, {"is_disabled": 0, "fusion_lon": 0.0, "fusion_lat": 0.0, "lat": 38.924763666666664, "type": "electric_scooter", "lon": -77.02725683333334, "bike_id": "0becc488da33d73b2e18c75c8590cb01", "rental_uris": {"android": "https://dc.lft.to/lastmile_qr_scan", "ios": "https://dc.lft.to/lastmile_qr_scan"}, "name": "0becc488da33d73b2e18c75c8590cb01", "is_reserved": 0}, {"is_disabled": 0, "fusion_lon": 0.0, "fusion_lat": 0.0, "lat": 38.83147683333333, "type": "electric_bike", "lon": -76.99693766666667, "bike_id": "e9aabbfd48bcd99488b1b71f2ca4230c", "rental_uris": {"android": "https://dc.lft.to/lastmile_qr_scan", "ios": "https://dc.lft.to/lastmile_qr_scan"}, "name": "e9aabbfd48bcd99488b1b71f2ca4230c", "is_reserved": 0}, {"is_disabled": 0, "fusion_lon": 0.0, "fusion_lat": 0.0, "lat": 38.924157666666666, "type": "electric_scooter", "lon": -77.03547716666667, "bike_id": "a48adffea9cd539a7047b3002df9fd0f", "rental_uris": {"android": "https://dc.lft.to/lastmile_qr_scan", "ios": "https://dc.lft.to/lastmile_qr_scan"}, "name": "a48adffea9cd539a7047b3002df9fd0f", "is_reserved": 0}, {"is_disabled": 0, "fusion_lon": 0.0, "fusion_lat": 0.0, "lat": 38.988236666666666, "type": "electric_bike", "lon": -77.02661516666667, "bike_id": "68ba278f1eb92a788769e37ac22efb5a", "rental_uris": {"android": "https://dc.lft.to/lastmile_qr_scan", "ios": "https://dc.lft.to/lastmile_qr_scan"}, "name": "68ba278f1eb92a788769e37ac22efb5a", "is_reserved": 0}, {"is_disabled": 0, "fusion_lon": 0.0, "fusion_lat": 0.0, "lat": 38.89246116666666, "type": "electric_scooter", "lon": -77.04664016666666, "bike_id": "0149e9aa7fa614b8830932b7b695934f", "rental_uris": {"android": "https://dc.lft.to/lastmile_qr_scan", "ios": "https://dc.lft.to/lastmile_qr_scan"}, "name": "0149e9aa7fa614b8830932b7b695934f", "is_reserved": 0}, {"is_disabled": 0, "fusion_lon": 0.0, "fusion_lat": 0.0, "lat": 38.90523566666667, "type": "electric_scooter", "lon": -77.05391066666667, "bike_id": "2301f61573f0aba233d959c894ad29fc", "rental_uris": {"android": "https://dc.lft.to/lastmile_qr_scan", "ios": "https://dc.lft.to/lastmile_qr_scan"}, "name": "2301f61573f0aba233d959c894ad29fc", "is_reserved": 0}, {"is_disabled": 0, "fusion_lon": 0.0, "fusion_lat": 0.0, "lat": 38.911858333333335, "type": "electric_scooter", "lon": -77.0415785, "bike_id": "272abdf7198427dad9bf03f04e94e058", "rental_uris": {"android": "https://dc.lft.to/lastmile_qr_scan", "ios": "https://dc.lft.to/lastmile_qr_scan"}, "name": "272abdf7198427dad9bf03f04e94e058", "is_reserved": 0}, {"is_disabled": 0, "fusion_lon": 0.0, "fusion_lat": 0.0, "lat": 38.908859666666665, "type": "electric_scooter", "lon": -77.04134, "bike_id": "94489bd584ba0edf6ab1ce52e11b5e9a", "rental_uris": {"android": "https://dc.lft.to/lastmile_qr_scan", "ios": "https://dc.lft.to/lastmile_qr_scan"}, "name": "94489bd584ba0edf6ab1ce52e11b5e9a", "is_reserved": 0}, {"is_disabled": 0, "fusion_lon": 0.0, "fusion_lat": 0.0, "lat": 38.92119433333333, "type": "electric_scooter", "lon": -77.03659183333333, "bike_id": "eb3dc6e55779efc9fa236bb9e1730a94", "rental_uris": {"android": "https://dc.lft.to/lastmile_qr_scan", "ios": "https://dc.lft.to/lastmile_qr_scan"}, "name": "eb3dc6e55779efc9fa236bb9e1730a94", "is_reserved": 0}, {"is_disabled": 0, "fusion_lon": 0.0, "fusion_lat": 0.0, "lat": 38.893997166666665, "type": "electric_scooter", "lon": -76.9499085, "bike_id": "853e2e9b2707f86cb5df82ff54b721c0", "rental_uris": {"android": "https://dc.lft.to/lastmile_qr_scan", "ios": "https://dc.lft.to/lastmile_qr_scan"}, "name": "853e2e9b2707f86cb5df82ff54b721c0", "is_reserved": 0}, {"is_disabled": 0, "fusion_lon": 0.0, "fusion_lat": 0.0, "lat": 38.911186, "type": "electric_scooter", "lon": -77.0440305, "bike_id": "26ccd1b6055f827a98207265f659d216", "rental_uris": {"android": "https://dc.lft.to/lastmile_qr_scan", "ios": "https://dc.lft.to/lastmile_qr_scan"}, "name": "26ccd1b6055f827a98207265f659d216", "is_reserved": 0}, {"is_disabled": 0, "fusion_lon": 0.0, "fusion_lat": 0.0, "lat": 38.912683, "type": "electric_scooter", "lon": -77.0374785, "bike_id": "7395a7a1f000b990d3d90e0104411bd4", "rental_uris": {"android": "https://dc.lft.to/lastmile_qr_scan", "ios": "https://dc.lft.to/lastmile_qr_scan"}, "name": "7395a7a1f000b990d3d90e0104411bd4", "is_reserved": 0}, {"is_disabled": 0, "fusion_lon": 0.0, "fusion_lat": 0.0, "lat": 38.9193415, "type": "electric_scooter", "lon": -77.04174133333333, "bike_id": "cbfc95fbe87d5676f9880dc8cfd568af", "rental_uris": {"android": "https://dc.lft.to/lastmile_qr_scan", "ios": "https://dc.lft.to/lastmile_qr_scan"}, "name": "cbfc95fbe87d5676f9880dc8cfd568af", "is_reserved": 0}, {"is_disabled": 0, "fusion_lon": 0.0, "fusion_lat": 0.0, "lat": 38.909322, "type": "electric_scooter", "lon": -77.031798, "bike_id": "130445f2f12430a5a91dfd810ddcc2aa", "rental_uris": {"android": "https://dc.lft.to/lastmile_qr_scan", "ios": "https://dc.lft.to/lastmile_qr_scan"}, "name": "130445f2f12430a5a91dfd810ddcc2aa", "is_reserved": 0}, {"is_disabled": 0, "fusion_lon": 0.0, "fusion_lat": 0.0, "lat": 38.9001625, "type": "electric_scooter", "lon": -77.03354516666667, "bike_id": "ef4e4ec41cda4f0b1fd8378c150b427c", "rental_uris": {"android": "https://dc.lft.to/lastmile_qr_scan", "ios": "https://dc.lft.to/lastmile_qr_scan"}, "name": "ef4e4ec41cda4f0b1fd8378c150b427c", "is_reserved": 0}, {"is_disabled": 0, "fusion_lon": 0.0, "fusion_lat": 0.0, "lat": 38.92420666666666, "type": "electric_scooter", "lon": -77.020102, "bike_id": "69cdd96f35d520e5aebb09956813f55a", "rental_uris": {"android": "https://dc.lft.to/lastmile_qr_scan", "ios": "https://dc.lft.to/lastmile_qr_scan"}, "name": "69cdd96f35d520e5aebb09956813f55a", "is_reserved": 0}, {"is_disabled": 0, "fusion_lon": 0.0, "fusion_lat": 0.0, "lat": 38.91718483333333, "type": "electric_scooter", "lon": -77.0344585, "bike_id": "e376ae7f4edb5463948cd514eb7bd0f1", "rental_uris": {"android": "https://dc.lft.to/lastmile_qr_scan", "ios": "https://dc.lft.to/lastmile_qr_scan"}, "name": "e376ae7f4edb5463948cd514eb7bd0f1", "is_reserved": 0}, {"is_disabled": 0, "fusion_lon": 0.0, "fusion_lat": 0.0, "lat": 38.92112216666666, "type": "electric_scooter", "lon": -77.03665816666667, "bike_id": "4bf9115ac6f628d101284d15585bd0c5", "rental_uris": {"android": "https://dc.lft.to/lastmile_qr_scan", "ios": "https://dc.lft.to/lastmile_qr_scan"}, "name": "4bf9115ac6f628d101284d15585bd0c5", "is_reserved": 0}, {"is_disabled": 0, "fusion_lon": 0.0, "fusion_lat": 0.0, "lat": 38.91189766666667, "type": "electric_scooter", "lon": -77.04161333333333, "bike_id": "019ddfb15845210c1e30b254a4e370ef", "rental_uris": {"android": "https://dc.lft.to/lastmile_qr_scan", "ios": "https://dc.lft.to/lastmile_qr_scan"}, "name": "019ddfb15845210c1e30b254a4e370ef", "is_reserved": 0}, {"is_disabled": 0, "fusion_lon": 0.0, "fusion_lat": 0.0, "lat": 38.83820383333333, "type": "electric_scooter", "lon": -77.00427266666667, "bike_id": "28000200d9d31a514526b07ae9577d9c", "rental_uris": {"android": "https://dc.lft.to/lastmile_qr_scan", "ios": "https://dc.lft.to/lastmile_qr_scan"}, "name": "28000200d9d31a514526b07ae9577d9c", "is_reserved": 0}, {"is_disabled": 0, "fusion_lon": 0.0, "fusion_lat": 0.0, "lat": 38.897172166666664, "type": "electric_scooter", "lon": -77.00794633333334, "bike_id": "610605cd015e7db17196c0b16a03bc81", "rental_uris": {"android": "https://dc.lft.to/lastmile_qr_scan", "ios": "https://dc.lft.to/lastmile_qr_scan"}, "name": "610605cd015e7db17196c0b16a03bc81", "is_reserved": 0}, {"is_disabled": 0, "fusion_lon": 0.0, "fusion_lat": 0.0, "lat": 38.93700066666667, "type": "electric_scooter", "lon": -77.0240275, "bike_id": "cf336351e3c379d2217b39e81332c3bc", "rental_uris": {"android": "https://dc.lft.to/lastmile_qr_scan", "ios": "https://dc.lft.to/lastmile_qr_scan"}, "name": "cf336351e3c379d2217b39e81332c3bc", "is_reserved": 0}, {"is_disabled": 0, "fusion_lon": 0.0, "fusion_lat": 0.0, "lat": 38.89874983333333, "type": "electric_scooter", "lon": -76.93182733333333, "bike_id": "01ecee174e0fc982bb76faf5f836cfac", "rental_uris": {"android": "https://dc.lft.to/lastmile_qr_scan", "ios": "https://dc.lft.to/lastmile_qr_scan"}, "name": "01ecee174e0fc982bb76faf5f836cfac", "is_reserved": 0}, {"is_disabled": 0, "fusion_lon": 0.0, "fusion_lat": 0.0, "lat": 38.93703433333334, "type": "electric_scooter", "lon": -77.0610315, "bike_id": "0ad9232da49d7f8e8c6f9e673b9793d2", "rental_uris": {"android": "https://dc.lft.to/lastmile_qr_scan", "ios": "https://dc.lft.to/lastmile_qr_scan"}, "name": "0ad9232da49d7f8e8c6f9e673b9793d2", "is_reserved": 0}, {"is_disabled": 0, "fusion_lon": 0.0, "fusion_lat": 0.0, "lat": 38.903862, "type": "electric_scooter", "lon": -77.0163705, "bike_id": "85276c877cc670dfffd88a1495668b7d", "rental_uris": {"android": "https://dc.lft.to/lastmile_qr_scan", "ios": "https://dc.lft.to/lastmile_qr_scan"}, "name": "85276c877cc670dfffd88a1495668b7d", "is_reserved": 0}, {"is_disabled": 0, "fusion_lon": 0.0, "fusion_lat": 0.0, "lat": 38.8831995, "type": "electric_scooter", "lon": -77.01621033333333, "bike_id": "4358cb33f0c35011ed1cb4c62a3b28d2", "rental_uris": {"android": "https://dc.lft.to/lastmile_qr_scan", "ios": "https://dc.lft.to/lastmile_qr_scan"}, "name": "4358cb33f0c35011ed1cb4c62a3b28d2", "is_reserved": 0}, {"is_disabled": 0, "fusion_lon": 0.0, "fusion_lat": 0.0, "lat": 38.8873685, "type": "electric_scooter", "lon": -77.015343, "bike_id": "79fba7910f72d96c1a84edf0bf1a05ce", "rental_uris": {"android": "https://dc.lft.to/lastmile_qr_scan", "ios": "https://dc.lft.to/lastmile_qr_scan"}, "name": "79fba7910f72d96c1a84edf0bf1a05ce", "is_reserved": 0}, {"is_disabled": 0, "fusion_lon": 0.0, "fusion_lat": 0.0, "lat": 38.899082166666666, "type": "electric_scooter", "lon": -77.03282733333333, "bike_id": "7e7b3804ae3bdd9434346c0f27a9cacd", "rental_uris": {"android": "https://dc.lft.to/lastmile_qr_scan", "ios": "https://dc.lft.to/lastmile_qr_scan"}, "name": "7e7b3804ae3bdd9434346c0f27a9cacd", "is_reserved": 0}, {"is_disabled": 0, "fusion_lon": 0.0, "fusion_lat": 0.0, "lat": 38.9015095, "type": "electric_scooter", "lon": -77.03982533333334, "bike_id": "aa9ddeedbe10064f434530f416e61364", "rental_uris": {"android": "https://dc.lft.to/lastmile_qr_scan", "ios": "https://dc.lft.to/lastmile_qr_scan"}, "name": "aa9ddeedbe10064f434530f416e61364", "is_reserved": 0}, {"is_disabled": 0, "fusion_lon": 0.0, "fusion_lat": 0.0, "lat": 38.89353083333334, "type": "electric_scooter", "lon": -76.98473166666666, "bike_id": "8cfc364d9d7c2ff191aeb337da810c00", "rental_uris": {"android": "https://dc.lft.to/lastmile_qr_scan", "ios": "https://dc.lft.to/lastmile_qr_scan"}, "name": "8cfc364d9d7c2ff191aeb337da810c00", "is_reserved": 0}, {"is_disabled": 0, "fusion_lon": 0.0, "fusion_lat": 0.0, "lat": 38.88017266666667, "type": "electric_scooter", "lon": -76.98235083333333, "bike_id": "88d21fbfdf9c0b2043c0df88f7198a08", "rental_uris": {"android": "https://dc.lft.to/lastmile_qr_scan", "ios": "https://dc.lft.to/lastmile_qr_scan"}, "name": "88d21fbfdf9c0b2043c0df88f7198a08", "is_reserved": 0}, {"is_disabled": 0, "fusion_lon": 0.0, "fusion_lat": 0.0, "lat": 38.9246535, "type": "electric_scooter", "lon": -77.02816916666667, "bike_id": "7a6c5179f14a511f0813fab2b4c99493", "rental_uris": {"android": "https://dc.lft.to/lastmile_qr_scan", "ios": "https://dc.lft.to/lastmile_qr_scan"}, "name": "7a6c5179f14a511f0813fab2b4c99493", "is_reserved": 0}, {"is_disabled": 0, "fusion_lon": 0.0, "fusion_lat": 0.0, "lat": 38.9052345, "type": "electric_scooter", "lon": -77.03445933333333, "bike_id": "2d93410226a60a300b37274cb0e07166", "rental_uris": {"android": "https://dc.lft.to/lastmile_qr_scan", "ios": "https://dc.lft.to/lastmile_qr_scan"}, "name": "2d93410226a60a300b37274cb0e07166", "is_reserved": 0}, {"is_disabled": 0, "fusion_lon": 0.0, "fusion_lat": 0.0, "lat": 38.924624666666666, "type": "electric_scooter", "lon": -77.07863333333333, "bike_id": "9d5663bd2d519481cc829f3d4f9433cc", "rental_uris": {"android": "https://dc.lft.to/lastmile_qr_scan", "ios": "https://dc.lft.to/lastmile_qr_scan"}, "name": "9d5663bd2d519481cc829f3d4f9433cc", "is_reserved": 0}, {"is_disabled": 0, "fusion_lon": 0.0, "fusion_lat": 0.0, "lat": 38.909532666666664, "type": "electric_scooter", "lon": -77.048744, "bike_id": "25e9feede38adf1ac281ce25c884ad02", "rental_uris": {"android": "https://dc.lft.to/lastmile_qr_scan", "ios": "https://dc.lft.to/lastmile_qr_scan"}, "name": "25e9feede38adf1ac281ce25c884ad02", "is_reserved": 0}, {"is_disabled": 0, "fusion_lon": 0.0, "fusion_lat": 0.0, "lat": 38.930549166666665, "type": "electric_scooter", "lon": -77.03231433333333, "bike_id": "8ca6cccc96a97da72b497ac87a25c99c", "rental_uris": {"android": "https://dc.lft.to/lastmile_qr_scan", "ios": "https://dc.lft.to/lastmile_qr_scan"}, "name": "8ca6cccc96a97da72b497ac87a25c99c", "is_reserved": 0}, {"is_disabled": 0, "fusion_lon": 0.0, "fusion_lat": 0.0, "lat": 38.91459866666667, "type": "electric_scooter", "lon": -76.9844655, "bike_id": "f6ec8bd2c1a7d28a93813ce076ab4c25", "rental_uris": {"android": "https://dc.lft.to/lastmile_qr_scan", "ios": "https://dc.lft.to/lastmile_qr_scan"}, "name": "f6ec8bd2c1a7d28a93813ce076ab4c25", "is_reserved": 0}, {"is_disabled": 0, "fusion_lon": 0.0, "fusion_lat": 0.0, "lat": 38.92561883333333, "type": "electric_scooter", "lon": -77.08058233333334, "bike_id": "9eb9a62882708d06df7830fc577987cb", "rental_uris": {"android": "https://dc.lft.to/lastmile_qr_scan", "ios": "https://dc.lft.to/lastmile_qr_scan"}, "name": "9eb9a62882708d06df7830fc577987cb", "is_reserved": 0}, {"is_disabled": 0, "fusion_lon": 0.0, "fusion_lat": 0.0, "lat": 38.895301833333335, "type": "electric_scooter", "lon": -77.0484925, "bike_id": "7c652d12e0ac82032c64c936f97ce73c", "rental_uris": {"android": "https://dc.lft.to/lastmile_qr_scan", "ios": "https://dc.lft.to/lastmile_qr_scan"}, "name": "7c652d12e0ac82032c64c936f97ce73c", "is_reserved": 0}, {"is_disabled": 0, "fusion_lon": 0.0, "fusion_lat": 0.0, "lat": 38.877571833333334, "type": "electric_bike", "lon": -76.97994433333334, "bike_id": "265a81ace8badd77c25971f1018a4a5b", "rental_uris": {"android": "https://dc.lft.to/lastmile_qr_scan", "ios": "https://dc.lft.to/lastmile_qr_scan"}, "name": "265a81ace8badd77c25971f1018a4a5b", "is_reserved": 0}, {"is_disabled": 0, "fusion_lon": 0.0, "fusion_lat": 0.0, "lat": 38.92112266666667, "type": "electric_scooter", "lon": -77.0177565, "bike_id": "a64689ae63bb837ae146c718f00800b3", "rental_uris": {"android": "https://dc.lft.to/lastmile_qr_scan", "ios": "https://dc.lft.to/lastmile_qr_scan"}, "name": "a64689ae63bb837ae146c718f00800b3", "is_reserved": 0}, {"is_disabled": 0, "fusion_lon": 0.0, "fusion_lat": 0.0, "lat": 38.939577, "type": "electric_bike", "lon": -77.36094116666666, "bike_id": "c8d3f76d8d0f7015bdf1e7a348cb366b", "rental_uris": {"android": "https://dc.lft.to/lastmile_qr_scan", "ios": "https://dc.lft.to/lastmile_qr_scan"}, "name": "c8d3f76d8d0f7015bdf1e7a348cb366b", "is_reserved": 0}, {"is_disabled": 0, "fusion_lon": 0.0, "fusion_lat": 0.0, "lat": 38.929747666666664, "type": "electric_scooter", "lon": -77.02799516666667, "bike_id": "476628348ef5ca40c2b622a37796e6e8", "rental_uris": {"android": "https://dc.lft.to/lastmile_qr_scan", "ios": "https://dc.lft.to/lastmile_qr_scan"}, "name": "476628348ef5ca40c2b622a37796e6e8", "is_reserved": 0}, {"is_disabled": 0, "fusion_lon": 0.0, "fusion_lat": 0.0, "lat": 38.90336816666667, "type": "electric_scooter", "lon": -77.03915133333334, "bike_id": "ad5d599bec1b12f59bff1fafa23507a2", "rental_uris": {"android": "https://dc.lft.to/lastmile_qr_scan", "ios": "https://dc.lft.to/lastmile_qr_scan"}, "name": "ad5d599bec1b12f59bff1fafa23507a2", "is_reserved": 0}, {"is_disabled": 0, "fusion_lon": 0.0, "fusion_lat": 0.0, "lat": 38.90279783333333, "type": "electric_scooter", "lon": -77.03651016666667, "bike_id": "e33a3c3812449e151c54ef65e5248afe", "rental_uris": {"android": "https://dc.lft.to/lastmile_qr_scan", "ios": "https://dc.lft.to/lastmile_qr_scan"}, "name": "e33a3c3812449e151c54ef65e5248afe", "is_reserved": 0}, {"is_disabled": 0, "fusion_lon": 0.0, "fusion_lat": 0.0, "lat": 38.921529, "type": "electric_scooter", "lon": -77.034359, "bike_id": "11d7ce740bf98709fae8a4e7e60b594e", "rental_uris": {"android": "https://dc.lft.to/lastmile_qr_scan", "ios": "https://dc.lft.to/lastmile_qr_scan"}, "name": "11d7ce740bf98709fae8a4e7e60b594e", "is_reserved": 0}, {"is_disabled": 0, "fusion_lon": 0.0, "fusion_lat": 0.0, "lat": 38.916043333333334, "type": "electric_scooter", "lon": -77.02300933333333, "bike_id": "06fc313ae27fa73817aba6cea22dface", "rental_uris": {"android": "https://dc.lft.to/lastmile_qr_scan", "ios": "https://dc.lft.to/lastmile_qr_scan"}, "name": "06fc313ae27fa73817aba6cea22dface", "is_reserved": 0}, {"is_disabled": 0, "fusion_lon": 0.0, "fusion_lat": 0.0, "lat": 38.92265616666667, "type": "electric_scooter", "lon": -77.04212883333334, "bike_id": "85a68cedc82cd0cd43bc3db5f9c22f53", "rental_uris": {"android": "https://dc.lft.to/lastmile_qr_scan", "ios": "https://dc.lft.to/lastmile_qr_scan"}, "name": "85a68cedc82cd0cd43bc3db5f9c22f53", "is_reserved": 0}, {"is_disabled": 0, "fusion_lon": 0.0, "fusion_lat": 0.0, "lat": 38.9227475, "type": "electric_scooter", "lon": -77.04471433333333, "bike_id": "d672b0ba8d5e7fa3e1fd80b5870dbd46", "rental_uris": {"android": "https://dc.lft.to/lastmile_qr_scan", "ios": "https://dc.lft.to/lastmile_qr_scan"}, "name": "d672b0ba8d5e7fa3e1fd80b5870dbd46", "is_reserved": 0}, {"is_disabled": 0, "fusion_lon": 0.0, "fusion_lat": 0.0, "lat": 38.90520083333333, "type": "electric_scooter", "lon": -77.067885, "bike_id": "916865ccbadadaf1cb095787f4abe8ed", "rental_uris": {"android": "https://dc.lft.to/lastmile_qr_scan", "ios": "https://dc.lft.to/lastmile_qr_scan"}, "name": "916865ccbadadaf1cb095787f4abe8ed", "is_reserved": 0}, {"is_disabled": 0, "fusion_lon": 0.0, "fusion_lat": 0.0, "lat": 38.91427683333333, "type": "electric_scooter", "lon": -77.032103, "bike_id": "50b5b29f4e463557d31222e09fa9cce2", "rental_uris": {"android": "https://dc.lft.to/lastmile_qr_scan", "ios": "https://dc.lft.to/lastmile_qr_scan"}, "name": "50b5b29f4e463557d31222e09fa9cce2", "is_reserved": 0}, {"is_disabled": 0, "fusion_lon": 0.0, "fusion_lat": 0.0, "lat": 38.82777466666667, "type": "electric_bike", "lon": -77.11074533333333, "bike_id": "0bd792a6e0a8d83655a0a15854b7f7ed", "rental_uris": {"android": "https://dc.lft.to/lastmile_qr_scan", "ios": "https://dc.lft.to/lastmile_qr_scan"}, "name": "0bd792a6e0a8d83655a0a15854b7f7ed", "is_reserved": 0}, {"is_disabled": 0, "fusion_lon": 0.0, "fusion_lat": 0.0, "lat": 38.899649333333336, "type": "electric_scooter", "lon": -76.93975583333334, "bike_id": "63d1896d50ffd425f80139519de2772b", "rental_uris": {"android": "https://dc.lft.to/lastmile_qr_scan", "ios": "https://dc.lft.to/lastmile_qr_scan"}, "name": "63d1896d50ffd425f80139519de2772b", "is_reserved": 0}, {"is_disabled": 0, "fusion_lon": 0.0, "fusion_lat": 0.0, "lat": 38.92065566666667, "type": "electric_scooter", "lon": -77.03284316666667, "bike_id": "28d2172067b09f6fd7a334da143ee50f", "rental_uris": {"android": "https://dc.lft.to/lastmile_qr_scan", "ios": "https://dc.lft.to/lastmile_qr_scan"}, "name": "28d2172067b09f6fd7a334da143ee50f", "is_reserved": 0}, {"is_disabled": 0, "fusion_lon": 0.0, "fusion_lat": 0.0, "lat": 38.82446816666667, "type": "electric_bike", "lon": -77.07048633333333, "bike_id": "b98c63cee47cc32f50bbbea70fbb93d2", "rental_uris": {"android": "https://dc.lft.to/lastmile_qr_scan", "ios": "https://dc.lft.to/lastmile_qr_scan"}, "name": "b98c63cee47cc32f50bbbea70fbb93d2", "is_reserved": 0}, {"is_disabled": 0, "fusion_lon": 0.0, "fusion_lat": 0.0, "lat": 38.962553, "type": "electric_scooter", "lon": -77.02896766666667, "bike_id": "0d38934c45ac1c1e207c66fe0a9e4da0", "rental_uris": {"android": "https://dc.lft.to/lastmile_qr_scan", "ios": "https://dc.lft.to/lastmile_qr_scan"}, "name": "0d38934c45ac1c1e207c66fe0a9e4da0", "is_reserved": 0}, {"is_disabled": 0, "fusion_lon": 0.0, "fusion_lat": 0.0, "lat": 38.927496166666664, "type": "electric_scooter", "lon": -77.01616966666667, "bike_id": "b20e1b3ec5c13278cc0c5532fff0c087", "rental_uris": {"android": "https://dc.lft.to/lastmile_qr_scan", "ios": "https://dc.lft.to/lastmile_qr_scan"}, "name": "b20e1b3ec5c13278cc0c5532fff0c087", "is_reserved": 0}, {"is_disabled": 0, "fusion_lon": 0.0, "fusion_lat": 0.0, "lat": 38.9297525, "type": "electric_scooter", "lon": -77.0206555, "bike_id": "174e67ef4c7e0908c25482f7b37b1484", "rental_uris": {"android": "https://dc.lft.to/lastmile_qr_scan", "ios": "https://dc.lft.to/lastmile_qr_scan"}, "name": "174e67ef4c7e0908c25482f7b37b1484", "is_reserved": 0}, {"is_disabled": 0, "fusion_lon": 0.0, "fusion_lat": 0.0, "lat": 38.94202683333334, "type": "electric_scooter", "lon": -77.02586666666667, "bike_id": "4bfa505a43186d754781251ca4b01856", "rental_uris": {"android": "https://dc.lft.to/lastmile_qr_scan", "ios": "https://dc.lft.to/lastmile_qr_scan"}, "name": "4bfa505a43186d754781251ca4b01856", "is_reserved": 0}, {"is_disabled": 0, "fusion_lon": 0.0, "fusion_lat": 0.0, "lat": 38.96417733333333, "type": "electric_scooter", "lon": -77.0752855, "bike_id": "121a5638a4551cf68a902c93b73511d6", "rental_uris": {"android": "https://dc.lft.to/lastmile_qr_scan", "ios": "https://dc.lft.to/lastmile_qr_scan"}, "name": "121a5638a4551cf68a902c93b73511d6", "is_reserved": 0}, {"is_disabled": 0, "fusion_lon": 0.0, "fusion_lat": 0.0, "lat": 38.921847166666666, "type": "electric_scooter", "lon": -76.99701933333333, "bike_id": "fe15e97f6ff4998d26081200212838c1", "rental_uris": {"android": "https://dc.lft.to/lastmile_qr_scan", "ios": "https://dc.lft.to/lastmile_qr_scan"}, "name": "fe15e97f6ff4998d26081200212838c1", "is_reserved": 0}, {"is_disabled": 0, "fusion_lon": 0.0, "fusion_lat": 0.0, "lat": 38.917590833333335, "type": "electric_scooter", "lon": -77.03439916666666, "bike_id": "432fe75f94bcb8a75850664d8710f292", "rental_uris": {"android": "https://dc.lft.to/lastmile_qr_scan", "ios": "https://dc.lft.to/lastmile_qr_scan"}, "name": "432fe75f94bcb8a75850664d8710f292", "is_reserved": 0}, {"is_disabled": 0, "fusion_lon": 0.0, "fusion_lat": 0.0, "lat": 38.906813, "type": "electric_scooter", "lon": -76.97999583333333, "bike_id": "7043e35accf85a9d299db7e6f5ce47d8", "rental_uris": {"android": "https://dc.lft.to/lastmile_qr_scan", "ios": "https://dc.lft.to/lastmile_qr_scan"}, "name": "7043e35accf85a9d299db7e6f5ce47d8", "is_reserved": 0}, {"is_disabled": 0, "fusion_lon": 0.0, "fusion_lat": 0.0, "lat": 38.910380333333336, "type": "electric_scooter", "lon": -77.040104, "bike_id": "b54aa6ffe7f824eb507e1991b3f4447f", "rental_uris": {"android": "https://dc.lft.to/lastmile_qr_scan", "ios": "https://dc.lft.to/lastmile_qr_scan"}, "name": "b54aa6ffe7f824eb507e1991b3f4447f", "is_reserved": 0}, {"is_disabled": 0, "fusion_lon": 0.0, "fusion_lat": 0.0, "lat": 38.902424, "type": "electric_scooter", "lon": -77.0617125, "bike_id": "e76df84f0155a8099b4a72d1a9082e3f", "rental_uris": {"android": "https://dc.lft.to/lastmile_qr_scan", "ios": "https://dc.lft.to/lastmile_qr_scan"}, "name": "e76df84f0155a8099b4a72d1a9082e3f", "is_reserved": 0}, {"is_disabled": 0, "fusion_lon": 0.0, "fusion_lat": 0.0, "lat": 38.858031, "type": "electric_scooter", "lon": -76.98653983333334, "bike_id": "62853ecf1a669128ebb42163f7ea080b", "rental_uris": {"android": "https://dc.lft.to/lastmile_qr_scan", "ios": "https://dc.lft.to/lastmile_qr_scan"}, "name": "62853ecf1a669128ebb42163f7ea080b", "is_reserved": 0}, {"is_disabled": 0, "fusion_lon": 0.0, "fusion_lat": 0.0, "lat": 38.90700566666667, "type": "electric_scooter", "lon": -77.00755366666667, "bike_id": "feff5c9dd9f827823273646071148946", "rental_uris": {"android": "https://dc.lft.to/lastmile_qr_scan", "ios": "https://dc.lft.to/lastmile_qr_scan"}, "name": "feff5c9dd9f827823273646071148946", "is_reserved": 0}, {"is_disabled": 0, "fusion_lon": 0.0, "fusion_lat": 0.0, "lat": 38.900900166666666, "type": "electric_scooter", "lon": -77.01821, "bike_id": "9ce9ab7c04a14d198a269939d598a51d", "rental_uris": {"android": "https://dc.lft.to/lastmile_qr_scan", "ios": "https://dc.lft.to/lastmile_qr_scan"}, "name": "9ce9ab7c04a14d198a269939d598a51d", "is_reserved": 0}, {"is_disabled": 0, "fusion_lon": 0.0, "fusion_lat": 0.0, "lat": 38.859875, "type": "electric_bike", "lon": -76.97051666666667, "bike_id": "6e11a8b3272f09e52ce5edff1b19bece", "rental_uris": {"android": "https://dc.lft.to/lastmile_qr_scan", "ios": "https://dc.lft.to/lastmile_qr_scan"}, "name": "6e11a8b3272f09e52ce5edff1b19bece", "is_reserved": 0}, {"is_disabled": 0, "fusion_lon": 0.0, "fusion_lat": 0.0, "lat": 38.88326433333334, "type": "electric_scooter", "lon": -77.0163325, "bike_id": "61072385cb18f8a4a2ca74988314843e", "rental_uris": {"android": "https://dc.lft.to/lastmile_qr_scan", "ios": "https://dc.lft.to/lastmile_qr_scan"}, "name": "61072385cb18f8a4a2ca74988314843e", "is_reserved": 0}, {"is_disabled": 0, "fusion_lon": 0.0, "fusion_lat": 0.0, "lat": 38.885974166666664, "type": "electric_scooter", "lon": -77.00578233333333, "bike_id": "16ef6c61287713bfab05465ad381c50c", "rental_uris": {"android": "https://dc.lft.to/lastmile_qr_scan", "ios": "https://dc.lft.to/lastmile_qr_scan"}, "name": "16ef6c61287713bfab05465ad381c50c", "is_reserved": 0}, {"is_disabled": 0, "fusion_lon": 0.0, "fusion_lat": 0.0, "lat": 38.994527, "type": "electric_bike", "lon": -76.90817833333334, "bike_id": "2476b8e373deea6b2daabe31d471887f", "rental_uris": {"android": "https://dc.lft.to/lastmile_qr_scan", "ios": "https://dc.lft.to/lastmile_qr_scan"}, "name": "2476b8e373deea6b2daabe31d471887f", "is_reserved": 0}, {"is_disabled": 0, "fusion_lon": 0.0, "fusion_lat": 0.0, "lat": 38.91462166666667, "type": "electric_scooter", "lon": -77.0279715, "bike_id": "3097f58f4e9de8d19e7c68ff3c6d5640", "rental_uris": {"android": "https://dc.lft.to/lastmile_qr_scan", "ios": "https://dc.lft.to/lastmile_qr_scan"}, "name": "3097f58f4e9de8d19e7c68ff3c6d5640", "is_reserved": 0}, {"is_disabled": 0, "fusion_lon": 0.0, "fusion_lat": 0.0, "lat": 38.90133266666667, "type": "electric_scooter", "lon": -76.9517265, "bike_id": "6c11153e149bd6d101e25055b565dee8", "rental_uris": {"android": "https://dc.lft.to/lastmile_qr_scan", "ios": "https://dc.lft.to/lastmile_qr_scan"}, "name": "6c11153e149bd6d101e25055b565dee8", "is_reserved": 0}, {"is_disabled": 0, "fusion_lon": 0.0, "fusion_lat": 0.0, "lat": 38.901988833333334, "type": "electric_scooter", "lon": -77.02417316666667, "bike_id": "cc1c86f03c3f8eaca556255f90dbf066", "rental_uris": {"android": "https://dc.lft.to/lastmile_qr_scan", "ios": "https://dc.lft.to/lastmile_qr_scan"}, "name": "cc1c86f03c3f8eaca556255f90dbf066", "is_reserved": 0}, {"is_disabled": 0, "fusion_lon": 0.0, "fusion_lat": 0.0, "lat": 38.88008083333333, "type": "electric_bike", "lon": -76.916, "bike_id": "66106c3d647d00273fc50a0e74cb93c0", "rental_uris": {"android": "https://dc.lft.to/lastmile_qr_scan", "ios": "https://dc.lft.to/lastmile_qr_scan"}, "name": "66106c3d647d00273fc50a0e74cb93c0", "is_reserved": 0}, {"is_disabled": 0, "fusion_lon": 0.0, "fusion_lat": 0.0, "lat": 38.8689095, "type": "electric_scooter", "lon": -76.983118, "bike_id": "b29b703899fbedd4a63009698e8cf895", "rental_uris": {"android": "https://dc.lft.to/lastmile_qr_scan", "ios": "https://dc.lft.to/lastmile_qr_scan"}, "name": "b29b703899fbedd4a63009698e8cf895", "is_reserved": 0}, {"is_disabled": 0, "fusion_lon": 0.0, "fusion_lat": 0.0, "lat": 38.923872833333334, "type": "electric_scooter", "lon": -77.040786, "bike_id": "4f4eb5d59d9a3e74ac8986b310970bd5", "rental_uris": {"android": "https://dc.lft.to/lastmile_qr_scan", "ios": "https://dc.lft.to/lastmile_qr_scan"}, "name": "4f4eb5d59d9a3e74ac8986b310970bd5", "is_reserved": 0}, {"is_disabled": 0, "fusion_lon": 0.0, "fusion_lat": 0.0, "lat": 38.8988145, "type": "electric_scooter", "lon": -77.0205695, "bike_id": "cc33d6e348808a0d6f5d3a93c97a3e1c", "rental_uris": {"android": "https://dc.lft.to/lastmile_qr_scan", "ios": "https://dc.lft.to/lastmile_qr_scan"}, "name": "cc33d6e348808a0d6f5d3a93c97a3e1c", "is_reserved": 0}, {"is_disabled": 0, "fusion_lon": 0.0, "fusion_lat": 0.0, "lat": 38.88753766666667, "type": "electric_bike", "lon": -76.90089283333333, "bike_id": "316927964f46db849732b48d91339ff4", "rental_uris": {"android": "https://dc.lft.to/lastmile_qr_scan", "ios": "https://dc.lft.to/lastmile_qr_scan"}, "name": "316927964f46db849732b48d91339ff4", "is_reserved": 0}, {"is_disabled": 0, "fusion_lon": 0.0, "fusion_lat": 0.0, "lat": 38.929629166666665, "type": "electric_scooter", "lon": -77.0327145, "bike_id": "beed7db96750102c645f15c10c8cdd08", "rental_uris": {"android": "https://dc.lft.to/lastmile_qr_scan", "ios": "https://dc.lft.to/lastmile_qr_scan"}, "name": "beed7db96750102c645f15c10c8cdd08", "is_reserved": 0}, {"is_disabled": 0, "fusion_lon": 0.0, "fusion_lat": 0.0, "lat": 38.921081666666666, "type": "electric_scooter", "lon": -76.99422716666666, "bike_id": "4950c60705029eeceacd30949c40b53a", "rental_uris": {"android": "https://dc.lft.to/lastmile_qr_scan", "ios": "https://dc.lft.to/lastmile_qr_scan"}, "name": "4950c60705029eeceacd30949c40b53a", "is_reserved": 0}, {"is_disabled": 0, "fusion_lon": 0.0, "fusion_lat": 0.0, "lat": 38.9133205, "type": "electric_scooter", "lon": -77.0303825, "bike_id": "21aaa3369d8aa4b340cb83d17eefdaf0", "rental_uris": {"android": "https://dc.lft.to/lastmile_qr_scan", "ios": "https://dc.lft.to/lastmile_qr_scan"}, "name": "21aaa3369d8aa4b340cb83d17eefdaf0", "is_reserved": 0}, {"is_disabled": 0, "fusion_lon": 0.0, "fusion_lat": 0.0, "lat": 38.92878133333333, "type": "electric_scooter", "lon": -77.0328935, "bike_id": "6de15736624a7cba232fbe945f065552", "rental_uris": {"android": "https://dc.lft.to/lastmile_qr_scan", "ios": "https://dc.lft.to/lastmile_qr_scan"}, "name": "6de15736624a7cba232fbe945f065552", "is_reserved": 0}, {"is_disabled": 0, "fusion_lon": 0.0, "fusion_lat": 0.0, "lat": 38.92446433333333, "type": "electric_bike", "lon": -76.96839416666667, "bike_id": "4a5f65c5fa9646dfbd03b426fbf3a1bb", "rental_uris": {"android": "https://dc.lft.to/lastmile_qr_scan", "ios": "https://dc.lft.to/lastmile_qr_scan"}, "name": "4a5f65c5fa9646dfbd03b426fbf3a1bb", "is_reserved": 0}, {"is_disabled": 0, "fusion_lon": 0.0, "fusion_lat": 0.0, "lat": 38.9027925, "type": "electric_scooter", "lon": -77.04248783333334, "bike_id": "9d99e4df8fa5bba310e2f4970ac657d9", "rental_uris": {"android": "https://dc.lft.to/lastmile_qr_scan", "ios": "https://dc.lft.to/lastmile_qr_scan"}, "name": "9d99e4df8fa5bba310e2f4970ac657d9", "is_reserved": 0}, {"is_disabled": 0, "fusion_lon": 0.0, "fusion_lat": 0.0, "lat": 39.10564133333333, "type": "electric_bike", "lon": -77.1526925, "bike_id": "b6f9e1b3d1f2b3fc34fc305223f5ab76", "rental_uris": {"android": "https://dc.lft.to/lastmile_qr_scan", "ios": "https://dc.lft.to/lastmile_qr_scan"}, "name": "b6f9e1b3d1f2b3fc34fc305223f5ab76", "is_reserved": 0}, {"is_disabled": 0, "fusion_lon": 0.0, "fusion_lat": 0.0, "lat": 38.8937045, "type": "electric_scooter", "lon": -76.94999916666667, "bike_id": "0274e7804ef2f81055e56410661bdf91", "rental_uris": {"android": "https://dc.lft.to/lastmile_qr_scan", "ios": "https://dc.lft.to/lastmile_qr_scan"}, "name": "0274e7804ef2f81055e56410661bdf91", "is_reserved": 0}, {"is_disabled": 0, "fusion_lon": 0.0, "fusion_lat": 0.0, "lat": 38.91969616666667, "type": "electric_scooter", "lon": -77.00019433333334, "bike_id": "9872d33f323cb4b15aac4ec3b0686f0a", "rental_uris": {"android": "https://dc.lft.to/lastmile_qr_scan", "ios": "https://dc.lft.to/lastmile_qr_scan"}, "name": "9872d33f323cb4b15aac4ec3b0686f0a", "is_reserved": 0}, {"is_disabled": 0, "fusion_lon": 0.0, "fusion_lat": 0.0, "lat": 38.833192, "type": "electric_scooter", "lon": -77.000082, "bike_id": "2932bdba3dc8dc3c4f892c33800ad48f", "rental_uris": {"android": "https://dc.lft.to/lastmile_qr_scan", "ios": "https://dc.lft.to/lastmile_qr_scan"}, "name": "2932bdba3dc8dc3c4f892c33800ad48f", "is_reserved": 0}, {"is_disabled": 0, "fusion_lon": 0.0, "fusion_lat": 0.0, "lat": 38.870335, "type": "electric_scooter", "lon": -77.01073866666667, "bike_id": "f17cacff3fc7535d8a04bda4d74d2005", "rental_uris": {"android": "https://dc.lft.to/lastmile_qr_scan", "ios": "https://dc.lft.to/lastmile_qr_scan"}, "name": "f17cacff3fc7535d8a04bda4d74d2005", "is_reserved": 0}, {"is_disabled": 0, "fusion_lon": 0.0, "fusion_lat": 0.0, "lat": 38.928236166666665, "type": "electric_scooter", "lon": -77.0370875, "bike_id": "db634b107586de1f4f65f3933a79eb48", "rental_uris": {"android": "https://dc.lft.to/lastmile_qr_scan", "ios": "https://dc.lft.to/lastmile_qr_scan"}, "name": "db634b107586de1f4f65f3933a79eb48", "is_reserved": 0}, {"is_disabled": 0, "fusion_lon": 0.0, "fusion_lat": 0.0, "lat": 38.91702266666667, "type": "electric_scooter", "lon": -77.024502, "bike_id": "75ee6b2725a6aa18e92dda27d898484e", "rental_uris": {"android": "https://dc.lft.to/lastmile_qr_scan", "ios": "https://dc.lft.to/lastmile_qr_scan"}, "name": "75ee6b2725a6aa18e92dda27d898484e", "is_reserved": 0}, {"is_disabled": 0, "fusion_lon": 0.0, "fusion_lat": 0.0, "lat": 38.925874, "type": "electric_scooter", "lon": -77.05537816666667, "bike_id": "c036d74339de3faa61c2bc261e555573", "rental_uris": {"android": "https://dc.lft.to/lastmile_qr_scan", "ios": "https://dc.lft.to/lastmile_qr_scan"}, "name": "c036d74339de3faa61c2bc261e555573", "is_reserved": 0}, {"is_disabled": 0, "fusion_lon": 0.0, "fusion_lat": 0.0, "lat": 38.90728983333333, "type": "electric_scooter", "lon": -77.03481283333333, "bike_id": "e3cb0934bf593cae8fe7b9df2a2f456b", "rental_uris": {"android": "https://dc.lft.to/lastmile_qr_scan", "ios": "https://dc.lft.to/lastmile_qr_scan"}, "name": "e3cb0934bf593cae8fe7b9df2a2f456b", "is_reserved": 0}, {"is_disabled": 0, "fusion_lon": 0.0, "fusion_lat": 0.0, "lat": 38.95173416666667, "type": "electric_scooter", "lon": -77.05653466666666, "bike_id": "5e195e9dc5defea3644a654ea591d38f", "rental_uris": {"android": "https://dc.lft.to/lastmile_qr_scan", "ios": "https://dc.lft.to/lastmile_qr_scan"}, "name": "5e195e9dc5defea3644a654ea591d38f", "is_reserved": 0}, {"is_disabled": 0, "fusion_lon": 0.0, "fusion_lat": 0.0, "lat": 38.90812916666667, "type": "electric_scooter", "lon": -77.03444916666666, "bike_id": "259edbeaa5519f9a18c3c54c12a36e26", "rental_uris": {"android": "https://dc.lft.to/lastmile_qr_scan", "ios": "https://dc.lft.to/lastmile_qr_scan"}, "name": "259edbeaa5519f9a18c3c54c12a36e26", "is_reserved": 0}, {"is_disabled": 0, "fusion_lon": 0.0, "fusion_lat": 0.0, "lat": 38.83195383333333, "type": "electric_bike", "lon": -77.07683283333333, "bike_id": "42073982eefcd520ace7077787c14a10", "rental_uris": {"android": "https://dc.lft.to/lastmile_qr_scan", "ios": "https://dc.lft.to/lastmile_qr_scan"}, "name": "42073982eefcd520ace7077787c14a10", "is_reserved": 0}, {"is_disabled": 0, "fusion_lon": 0.0, "fusion_lat": 0.0, "lat": 38.9553955, "type": "electric_bike", "lon": -76.93521766666667, "bike_id": "dbf74194ea391d8bcc7539eb4a0d1d83", "rental_uris": {"android": "https://dc.lft.to/lastmile_qr_scan", "ios": "https://dc.lft.to/lastmile_qr_scan"}, "name": "dbf74194ea391d8bcc7539eb4a0d1d83", "is_reserved": 0}, {"is_disabled": 0, "fusion_lon": 0.0, "fusion_lat": 0.0, "lat": 38.82870916666667, "type": "electric_bike", "lon": -77.11222583333333, "bike_id": "d489980f276dd7e9bb425edfe842b3a4", "rental_uris": {"android": "https://dc.lft.to/lastmile_qr_scan", "ios": "https://dc.lft.to/lastmile_qr_scan"}, "name": "d489980f276dd7e9bb425edfe842b3a4", "is_reserved": 0}, {"is_disabled": 0, "fusion_lon": 0.0, "fusion_lat": 0.0, "lat": 38.913392333333334, "type": "electric_scooter", "lon": -77.04866033333333, "bike_id": "cfe6d6c13ca3ee4601da53677f689b6c", "rental_uris": {"android": "https://dc.lft.to/lastmile_qr_scan", "ios": "https://dc.lft.to/lastmile_qr_scan"}, "name": "cfe6d6c13ca3ee4601da53677f689b6c", "is_reserved": 0}, {"is_disabled": 0, "fusion_lon": 0.0, "fusion_lat": 0.0, "lat": 38.89729333333333, "type": "electric_scooter", "lon": -77.02277166666667, "bike_id": "8ee2f1f93e27ca59b1deabc9319fc55f", "rental_uris": {"android": "https://dc.lft.to/lastmile_qr_scan", "ios": "https://dc.lft.to/lastmile_qr_scan"}, "name": "8ee2f1f93e27ca59b1deabc9319fc55f", "is_reserved": 0}, {"is_disabled": 0, "fusion_lon": 0.0, "fusion_lat": 0.0, "lat": 38.87052833333333, "type": "electric_scooter", "lon": -76.98081233333333, "bike_id": "fa66f207fa0ccd38edaccd96c11d064a", "rental_uris": {"android": "https://dc.lft.to/lastmile_qr_scan", "ios": "https://dc.lft.to/lastmile_qr_scan"}, "name": "fa66f207fa0ccd38edaccd96c11d064a", "is_reserved": 0}, {"is_disabled": 0, "fusion_lon": 0.0, "fusion_lat": 0.0, "lat": 38.91226983333333, "type": "electric_scooter", "lon": -77.0449165, "bike_id": "80c54c5f5ba28882070e5b76fc772bf5", "rental_uris": {"android": "https://dc.lft.to/lastmile_qr_scan", "ios": "https://dc.lft.to/lastmile_qr_scan"}, "name": "80c54c5f5ba28882070e5b76fc772bf5", "is_reserved": 0}, {"is_disabled": 0, "fusion_lon": 0.0, "fusion_lat": 0.0, "lat": 38.91701233333333, "type": "electric_scooter", "lon": -77.01171383333333, "bike_id": "e18e181c1aac62760134aa0c8cff1de9", "rental_uris": {"android": "https://dc.lft.to/lastmile_qr_scan", "ios": "https://dc.lft.to/lastmile_qr_scan"}, "name": "e18e181c1aac62760134aa0c8cff1de9", "is_reserved": 0}, {"is_disabled": 0, "fusion_lon": 0.0, "fusion_lat": 0.0, "lat": 38.88691566666667, "type": "electric_scooter", "lon": -76.98794983333333, "bike_id": "0241a1dc69d13d8c62da1d21e35554c3", "rental_uris": {"android": "https://dc.lft.to/lastmile_qr_scan", "ios": "https://dc.lft.to/lastmile_qr_scan"}, "name": "0241a1dc69d13d8c62da1d21e35554c3", "is_reserved": 0}, {"is_disabled": 0, "fusion_lon": 0.0, "fusion_lat": 0.0, "lat": 38.8860975, "type": "electric_scooter", "lon": -77.00587783333333, "bike_id": "3b43b0761af048483f4849ea72a4f490", "rental_uris": {"android": "https://dc.lft.to/lastmile_qr_scan", "ios": "https://dc.lft.to/lastmile_qr_scan"}, "name": "3b43b0761af048483f4849ea72a4f490", "is_reserved": 0}, {"is_disabled": 0, "fusion_lon": 0.0, "fusion_lat": 0.0, "lat": 38.95641716666667, "type": "electric_scooter", "lon": -77.09097283333334, "bike_id": "9f8e5d7d1dea642a8d42a942dfe06de9", "rental_uris": {"android": "https://dc.lft.to/lastmile_qr_scan", "ios": "https://dc.lft.to/lastmile_qr_scan"}, "name": "9f8e5d7d1dea642a8d42a942dfe06de9", "is_reserved": 0}, {"is_disabled": 0, "fusion_lon": 0.0, "fusion_lat": 0.0, "lat": 38.8493085, "type": "electric_bike", "lon": -77.100144, "bike_id": "b7f8d970e1d536e53f1dd542984d989f", "rental_uris": {"android": "https://dc.lft.to/lastmile_qr_scan", "ios": "https://dc.lft.to/lastmile_qr_scan"}, "name": "b7f8d970e1d536e53f1dd542984d989f", "is_reserved": 0}, {"is_disabled": 0, "fusion_lon": 0.0, "fusion_lat": 0.0, "lat": 38.89480966666667, "type": "electric_scooter", "lon": -76.9487195, "bike_id": "bc214e8e4ff0ab65badc9162a7dd86d6", "rental_uris": {"android": "https://dc.lft.to/lastmile_qr_scan", "ios": "https://dc.lft.to/lastmile_qr_scan"}, "name": "bc214e8e4ff0ab65badc9162a7dd86d6", "is_reserved": 0}, {"is_disabled": 0, "fusion_lon": 0.0, "fusion_lat": 0.0, "lat": 38.856490666666666, "type": "electric_bike", "lon": -77.08529633333333, "bike_id": "ebd8d8aa7f9811c48790443748274444", "rental_uris": {"android": "https://dc.lft.to/lastmile_qr_scan", "ios": "https://dc.lft.to/lastmile_qr_scan"}, "name": "ebd8d8aa7f9811c48790443748274444", "is_reserved": 0}, {"is_disabled": 0, "fusion_lon": 0.0, "fusion_lat": 0.0, "lat": 38.90544216666667, "type": "electric_scooter", "lon": -77.03246933333334, "bike_id": "134319c88319387d2a6ffb36be5f35b7", "rental_uris": {"android": "https://dc.lft.to/lastmile_qr_scan", "ios": "https://dc.lft.to/lastmile_qr_scan"}, "name": "134319c88319387d2a6ffb36be5f35b7", "is_reserved": 0}, {"is_disabled": 0, "fusion_lon": 0.0, "fusion_lat": 0.0, "lat": 38.911880833333335, "type": "electric_scooter", "lon": -77.041603, "bike_id": "9735306876d88f9217e5dbc06bd90d5f", "rental_uris": {"android": "https://dc.lft.to/lastmile_qr_scan", "ios": "https://dc.lft.to/lastmile_qr_scan"}, "name": "9735306876d88f9217e5dbc06bd90d5f", "is_reserved": 0}, {"is_disabled": 0, "fusion_lon": 0.0, "fusion_lat": 0.0, "lat": 38.86606583333333, "type": "electric_scooter", "lon": -77.01078983333333, "bike_id": "6acea300de571eed981cce4e0b161805", "rental_uris": {"android": "https://dc.lft.to/lastmile_qr_scan", "ios": "https://dc.lft.to/lastmile_qr_scan"}, "name": "6acea300de571eed981cce4e0b161805", "is_reserved": 0}, {"is_disabled": 0, "fusion_lon": 0.0, "fusion_lat": 0.0, "lat": 38.937031, "type": "electric_scooter", "lon": -77.0559585, "bike_id": "2e0e2ff2cb07f3f5bd0c6facfa3d64e8", "rental_uris": {"android": "https://dc.lft.to/lastmile_qr_scan", "ios": "https://dc.lft.to/lastmile_qr_scan"}, "name": "2e0e2ff2cb07f3f5bd0c6facfa3d64e8", "is_reserved": 0}, {"is_disabled": 0, "fusion_lon": 0.0, "fusion_lat": 0.0, "lat": 38.887411, "type": "electric_scooter", "lon": -77.01536433333334, "bike_id": "d214f8d80f41f3c0652e38022bf69501", "rental_uris": {"android": "https://dc.lft.to/lastmile_qr_scan", "ios": "https://dc.lft.to/lastmile_qr_scan"}, "name": "d214f8d80f41f3c0652e38022bf69501", "is_reserved": 0}, {"is_disabled": 0, "fusion_lon": 0.0, "fusion_lat": 0.0, "lat": 38.8029285, "type": "electric_bike", "lon": -77.0398715, "bike_id": "4b24e3e0e7a849698866422bfc6b2b20", "rental_uris": {"android": "https://dc.lft.to/lastmile_qr_scan", "ios": "https://dc.lft.to/lastmile_qr_scan"}, "name": "4b24e3e0e7a849698866422bfc6b2b20", "is_reserved": 0}, {"is_disabled": 0, "fusion_lon": 0.0, "fusion_lat": 0.0, "lat": 38.91213616666667, "type": "electric_scooter", "lon": -77.03195316666667, "bike_id": "984b96fafc742b8051c0cfa8e5ef297a", "rental_uris": {"android": "https://dc.lft.to/lastmile_qr_scan", "ios": "https://dc.lft.to/lastmile_qr_scan"}, "name": "984b96fafc742b8051c0cfa8e5ef297a", "is_reserved": 0}, {"is_disabled": 0, "fusion_lon": 0.0, "fusion_lat": 0.0, "lat": 38.922559666666665, "type": "electric_scooter", "lon": -77.0329815, "bike_id": "e509361db09cd90fef3ca3a6859bc31e", "rental_uris": {"android": "https://dc.lft.to/lastmile_qr_scan", "ios": "https://dc.lft.to/lastmile_qr_scan"}, "name": "e509361db09cd90fef3ca3a6859bc31e", "is_reserved": 0}, {"is_disabled": 0, "fusion_lon": 0.0, "fusion_lat": 0.0, "lat": 38.91947283333333, "type": "electric_scooter", "lon": -77.01390033333334, "bike_id": "5d172483eafb2b06005c682ffdaaf6e1", "rental_uris": {"android": "https://dc.lft.to/lastmile_qr_scan", "ios": "https://dc.lft.to/lastmile_qr_scan"}, "name": "5d172483eafb2b06005c682ffdaaf6e1", "is_reserved": 0}, {"is_disabled": 0, "fusion_lon": 0.0, "fusion_lat": 0.0, "lat": 38.91694783333333, "type": "electric_scooter", "lon": -77.02885966666666, "bike_id": "ddd04702de64900c314ce9b66ee6e76f", "rental_uris": {"android": "https://dc.lft.to/lastmile_qr_scan", "ios": "https://dc.lft.to/lastmile_qr_scan"}, "name": "ddd04702de64900c314ce9b66ee6e76f", "is_reserved": 0}, {"is_disabled": 0, "fusion_lon": 0.0, "fusion_lat": 0.0, "lat": 38.936073, "type": "electric_scooter", "lon": -77.055927, "bike_id": "5bfa8a6d7486b304eea9539107671272", "rental_uris": {"android": "https://dc.lft.to/lastmile_qr_scan", "ios": "https://dc.lft.to/lastmile_qr_scan"}, "name": "5bfa8a6d7486b304eea9539107671272", "is_reserved": 0}, {"is_disabled": 0, "fusion_lon": 0.0, "fusion_lat": 0.0, "lat": 38.91735516666667, "type": "electric_scooter", "lon": -77.00042683333334, "bike_id": "fa49c7e721adbbd630c659194b03674b", "rental_uris": {"android": "https://dc.lft.to/lastmile_qr_scan", "ios": "https://dc.lft.to/lastmile_qr_scan"}, "name": "fa49c7e721adbbd630c659194b03674b", "is_reserved": 0}, {"is_disabled": 0, "fusion_lon": 0.0, "fusion_lat": 0.0, "lat": 38.920303, "type": "electric_scooter", "lon": -77.0191, "bike_id": "b89fec26302a9dc6fb160a36f17b0b0d", "rental_uris": {"android": "https://dc.lft.to/lastmile_qr_scan", "ios": "https://dc.lft.to/lastmile_qr_scan"}, "name": "b89fec26302a9dc6fb160a36f17b0b0d", "is_reserved": 0}, {"is_disabled": 0, "fusion_lon": 0.0, "fusion_lat": 0.0, "lat": 38.93483533333333, "type": "electric_scooter", "lon": -77.024204, "bike_id": "3d69b46c4e066c2ccec475a28a8ad948", "rental_uris": {"android": "https://dc.lft.to/lastmile_qr_scan", "ios": "https://dc.lft.to/lastmile_qr_scan"}, "name": "3d69b46c4e066c2ccec475a28a8ad948", "is_reserved": 0}, {"is_disabled": 0, "fusion_lon": 0.0, "fusion_lat": 0.0, "lat": 38.90128216666667, "type": "electric_scooter", "lon": -77.015366, "bike_id": "cd3f0ca82ad6c6da4f8ea72703cca2d8", "rental_uris": {"android": "https://dc.lft.to/lastmile_qr_scan", "ios": "https://dc.lft.to/lastmile_qr_scan"}, "name": "cd3f0ca82ad6c6da4f8ea72703cca2d8", "is_reserved": 0}, {"is_disabled": 0, "fusion_lon": 0.0, "fusion_lat": 0.0, "lat": 38.9169, "type": "electric_scooter", "lon": -77.0414055, "bike_id": "1347a613a037707c93b9f5b39304c9c5", "rental_uris": {"android": "https://dc.lft.to/lastmile_qr_scan", "ios": "https://dc.lft.to/lastmile_qr_scan"}, "name": "1347a613a037707c93b9f5b39304c9c5", "is_reserved": 0}, {"is_disabled": 0, "fusion_lon": 0.0, "fusion_lat": 0.0, "lat": 39.0038095, "type": "electric_bike", "lon": -77.0129075, "bike_id": "064b59a43f6870e366ad50952961074b", "rental_uris": {"android": "https://dc.lft.to/lastmile_qr_scan", "ios": "https://dc.lft.to/lastmile_qr_scan"}, "name": "064b59a43f6870e366ad50952961074b", "is_reserved": 0}, {"is_disabled": 0, "fusion_lon": 0.0, "fusion_lat": 0.0, "lat": 38.898693, "type": "electric_scooter", "lon": -77.04164633333333, "bike_id": "8e37798d2e57978bc15fa8857562d5d2", "rental_uris": {"android": "https://dc.lft.to/lastmile_qr_scan", "ios": "https://dc.lft.to/lastmile_qr_scan"}, "name": "8e37798d2e57978bc15fa8857562d5d2", "is_reserved": 0}, {"is_disabled": 0, "fusion_lon": 0.0, "fusion_lat": 0.0, "lat": 38.898188833333336, "type": "electric_scooter", "lon": -77.002117, "bike_id": "5befce14c6c069a76899333577b5f4f9", "rental_uris": {"android": "https://dc.lft.to/lastmile_qr_scan", "ios": "https://dc.lft.to/lastmile_qr_scan"}, "name": "5befce14c6c069a76899333577b5f4f9", "is_reserved": 0}, {"is_disabled": 0, "fusion_lon": 0.0, "fusion_lat": 0.0, "lat": 38.965555333333334, "type": "electric_bike", "lon": -77.02299716666667, "bike_id": "cbad01a765f32fb05f27bc847e49cc96", "rental_uris": {"android": "https://dc.lft.to/lastmile_qr_scan", "ios": "https://dc.lft.to/lastmile_qr_scan"}, "name": "cbad01a765f32fb05f27bc847e49cc96", "is_reserved": 0}, {"is_disabled": 0, "fusion_lon": 0.0, "fusion_lat": 0.0, "lat": 38.90098016666666, "type": "electric_bike", "lon": -77.0246805, "bike_id": "aa1ec803cf02786e4e2f0db3e5655f5f", "rental_uris": {"android": "https://dc.lft.to/lastmile_qr_scan", "ios": "https://dc.lft.to/lastmile_qr_scan"}, "name": "aa1ec803cf02786e4e2f0db3e5655f5f", "is_reserved": 0}, {"is_disabled": 0, "fusion_lon": 0.0, "fusion_lat": 0.0, "lat": 38.900232333333335, "type": "electric_scooter", "lon": -76.99871566666667, "bike_id": "e066ca9ac0b85e3933e381e6d442a4c4", "rental_uris": {"android": "https://dc.lft.to/lastmile_qr_scan", "ios": "https://dc.lft.to/lastmile_qr_scan"}, "name": "e066ca9ac0b85e3933e381e6d442a4c4", "is_reserved": 0}, {"is_disabled": 0, "fusion_lon": 0.0, "fusion_lat": 0.0, "lat": 38.91708, "type": "electric_scooter", "lon": -77.026165, "bike_id": "0f6abceec81c8a0ec2619a717cb381fb", "rental_uris": {"android": "https://dc.lft.to/lastmile_qr_scan", "ios": "https://dc.lft.to/lastmile_qr_scan"}, "name": "0f6abceec81c8a0ec2619a717cb381fb", "is_reserved": 0}, {"is_disabled": 0, "fusion_lon": 0.0, "fusion_lat": 0.0, "lat": 38.90248, "type": "electric_scooter", "lon": -77.0309725, "bike_id": "53db455e2b23cb28466079765ec2073f", "rental_uris": {"android": "https://dc.lft.to/lastmile_qr_scan", "ios": "https://dc.lft.to/lastmile_qr_scan"}, "name": "53db455e2b23cb28466079765ec2073f", "is_reserved": 0}, {"is_disabled": 0, "fusion_lon": 0.0, "fusion_lat": 0.0, "lat": 38.93918083333333, "type": "electric_scooter", "lon": -77.02472216666666, "bike_id": "46dd7df5def9ca69f20c09ae0fcc6c60", "rental_uris": {"android": "https://dc.lft.to/lastmile_qr_scan", "ios": "https://dc.lft.to/lastmile_qr_scan"}, "name": "46dd7df5def9ca69f20c09ae0fcc6c60", "is_reserved": 0}, {"is_disabled": 0, "fusion_lon": 0.0, "fusion_lat": 0.0, "lat": 38.91191166666667, "type": "electric_scooter", "lon": -77.03639766666667, "bike_id": "0f74172f95e0163185718604ab7c559e", "rental_uris": {"android": "https://dc.lft.to/lastmile_qr_scan", "ios": "https://dc.lft.to/lastmile_qr_scan"}, "name": "0f74172f95e0163185718604ab7c559e", "is_reserved": 0}, {"is_disabled": 0, "fusion_lon": 0.0, "fusion_lat": 0.0, "lat": 38.909368, "type": "electric_scooter", "lon": -77.03180666666667, "bike_id": "354ed849261bf02d9b70d172e727c624", "rental_uris": {"android": "https://dc.lft.to/lastmile_qr_scan", "ios": "https://dc.lft.to/lastmile_qr_scan"}, "name": "354ed849261bf02d9b70d172e727c624", "is_reserved": 0}, {"is_disabled": 0, "fusion_lon": 0.0, "fusion_lat": 0.0, "lat": 38.89499933333333, "type": "electric_scooter", "lon": -76.94877366666667, "bike_id": "7df32fd41b54969d289706c41ee1a9ee", "rental_uris": {"android": "https://dc.lft.to/lastmile_qr_scan", "ios": "https://dc.lft.to/lastmile_qr_scan"}, "name": "7df32fd41b54969d289706c41ee1a9ee", "is_reserved": 0}, {"is_disabled": 0, "fusion_lon": 0.0, "fusion_lat": 0.0, "lat": 38.91469333333333, "type": "electric_scooter", "lon": -77.019785, "bike_id": "2c0724c11b5c4810187f937598be01da", "rental_uris": {"android": "https://dc.lft.to/lastmile_qr_scan", "ios": "https://dc.lft.to/lastmile_qr_scan"}, "name": "2c0724c11b5c4810187f937598be01da", "is_reserved": 0}, {"is_disabled": 0, "fusion_lon": 0.0, "fusion_lat": 0.0, "lat": 38.909203166666664, "type": "electric_scooter", "lon": -77.03207216666667, "bike_id": "9438cab480c20800a4beab7fe80f1a68", "rental_uris": {"android": "https://dc.lft.to/lastmile_qr_scan", "ios": "https://dc.lft.to/lastmile_qr_scan"}, "name": "9438cab480c20800a4beab7fe80f1a68", "is_reserved": 0}, {"is_disabled": 0, "fusion_lon": 0.0, "fusion_lat": 0.0, "lat": 38.91757466666667, "type": "electric_scooter", "lon": -77.03661416666667, "bike_id": "e6e0f375a7df7a0c19b6d219243ab642", "rental_uris": {"android": "https://dc.lft.to/lastmile_qr_scan", "ios": "https://dc.lft.to/lastmile_qr_scan"}, "name": "e6e0f375a7df7a0c19b6d219243ab642", "is_reserved": 0},