{"data": {"bikes": [{"lon": -77.02759466666667, "bike_id": "ad961ea8e1458584195b9f8eeebbefba", "lat": 38.96563533333333, "fusion_lon": 0.0, "fusion_lat": 0.0, "type": "electric_bike", "name": "ad961ea8e1458584195b9f8eeebbefba", "is_disabled": 0, "rental_uris": {"ios": "https://dc.lft.to/lastmile_qr_scan", "android": "https://dc.lft.to/lastmile_qr_scan"}, "is_reserved": 0}, {"lon": -77.046568, "bike_id": "925fa3a58a70d57ac9e9ec811dc3dc28", "lat": 39.054972166666666, "fusion_lon": 0.0, "fusion_lat": 0.0, "type": "electric_bike", "name": "925fa3a58a70d57ac9e9ec811dc3dc28", "is_disabled": 0, "rental_uris": {"ios": "https://dc.lft.to/lastmile_qr_scan", "android": "https://dc.lft.to/lastmile_qr_scan"}, "is_reserved": 0}, {"lon": -77.04334666666666, "bike_id": "97ab1a7955f1ab0e926d4f7a92fde9bd", "lat": 38.922191833333336, "fusion_lon": 0.0, "fusion_lat": 0.0, "type": "electric_scooter", "name": "97ab1a7955f1ab0e926d4f7a92fde9bd", "is_disabled": 0, "rental_uris": {"ios": "https://dc.lft.to/lastmile_qr_scan", "android": "https://dc.lft.to/lastmile_qr_scan"}, "is_reserved": 0}, {"lon": -77.01768833333334, "bike_id": "79595d5890e73438e08a317ccd576de5", "lat": 38.887396833333334, "fusion_lon": 0.0, "fusion_lat": 0.0, "type": "electric_scooter", "name": "79595d5890e73438e08a317ccd576de5", "is_disabled": 0, "rental_uris": {"ios": "https://dc.lft.to/lastmile_qr_scan", "android": "https://dc.lft.to/lastmile_qr_scan"}, "is_reserved": 0}, {"lon": -77.0417795, "bike_id": "f35d316a66ff05612f9485afe056799f", "lat": 38.9173625, "fusion_lon": 0.0, "fusion_lat": 0.0, "type": "electric_scooter", "name": "f35d316a66ff05612f9485afe056799f", "is_disabled": 0, "rental_uris": {"ios": "https://dc.lft.to/lastmile_qr_scan", "android": "https://dc.lft.to/lastmile_qr_scan"}, "is_reserved": 0}, {"lon": -76.88404266666667, "bike_id": "649082e5261732e72fd67d8c4d14c15e", "lat": 38.93163216666667, "fusion_lon": 0.0, "fusion_lat": 0.0, "type": "electric_bike", "name": "649082e5261732e72fd67d8c4d14c15e", "is_disabled": 0, "rental_uris": {"ios": "https://dc.lft.to/lastmile_qr_scan", "android": "https://dc.lft.to/lastmile_qr_scan"}, "is_reserved": 0}, {"lon": -76.95658516666667, "bike_id": "69c594f6ac71a3066b91382d469fa6ab", "lat": 38.8962265, "fusion_lon": 0.0, "fusion_lat": 0.0, "type": "electric_scooter", "name": "69c594f6ac71a3066b91382d469fa6ab", "is_disabled": 0, "rental_uris": {"ios": "https://dc.lft.to/lastmile_qr_scan", "android": "https://dc.lft.to/lastmile_qr_scan"}, "is_reserved": 0}, {"lon": -77.05594633333334, "bike_id": "e62208f1d9d3b7919c7da672747db909", "lat": 38.93356083333333, "fusion_lon": 0.0, "fusion_lat": 0.0, "type": "electric_scooter", "name": "e62208f1d9d3b7919c7da672747db909", "is_disabled": 0, "rental_uris": {"ios": "https://dc.lft.to/lastmile_qr_scan", "android": "https://dc.lft.to/lastmile_qr_scan"}, "is_reserved": 0}, {"lon": -77.01807966666667, "bike_id": "0abf83d0dce4ae1c868e2c5b27d00e4c", "lat": 38.96479033333333, "fusion_lon": 0.0, "fusion_lat": 0.0, "type": "electric_scooter", "name": "0abf83d0dce4ae1c868e2c5b27d00e4c", "is_disabled": 0, "rental_uris": {"ios": "https://dc.lft.to/lastmile_qr_scan", "android": "https://dc.lft.to/lastmile_qr_scan"}, "is_reserved": 0}, {"lon": -77.03887266666666, "bike_id": "730da584b3b3844a115989fe1ec5e65e", "lat": 38.948678666666666, "fusion_lon": 0.0, "fusion_lat": 0.0, "type": "electric_scooter", "name": "730da584b3b3844a115989fe1ec5e65e", "is_disabled": 0, "rental_uris": {"ios": "https://dc.lft.to/lastmile_qr_scan", "android": "https://dc.lft.to/lastmile_qr_scan"}, "is_reserved": 0}, {"lon": -77.060395, "bike_id": "71bdf017bd30d08aba6752d836030372", "lat": 38.933527, "fusion_lon": 0.0, "fusion_lat": 0.0, "type": "electric_scooter", "name": "71bdf017bd30d08aba6752d836030372", "is_disabled": 0, "rental_uris": {"ios": "https://dc.lft.to/lastmile_qr_scan", "android": "https://dc.lft.to/lastmile_qr_scan"}, "is_reserved": 0}, {"lon": -76.98585616666666, "bike_id": "1b167c8de9c727ab8bfcfd49038632e4", "lat": 38.866781833333334, "fusion_lon": 0.0, "fusion_lat": 0.0, "type": "electric_scooter", "name": "1b167c8de9c727ab8bfcfd49038632e4", "is_disabled": 0, "rental_uris": {"ios": "https://dc.lft.to/lastmile_qr_scan", "android": "https://dc.lft.to/lastmile_qr_scan"}, "is_reserved": 0}, {"lon": -77.0417745, "bike_id": "fc12d2de9ad37a828531f39f6d17145b", "lat": 38.919828333333335, "fusion_lon": 0.0, "fusion_lat": 0.0, "type": "electric_scooter", "name": "fc12d2de9ad37a828531f39f6d17145b", "is_disabled": 0, "rental_uris": {"ios": "https://dc.lft.to/lastmile_qr_scan", "android": "https://dc.lft.to/lastmile_qr_scan"}, "is_reserved": 0}, {"lon": -77.00081183333333, "bike_id": "afd37d9dcf2b18d0668907ec6df30fe4", "lat": 38.87388766666667, "fusion_lon": 0.0, "fusion_lat": 0.0, "type": "electric_scooter", "name": "afd37d9dcf2b18d0668907ec6df30fe4", "is_disabled": 0, "rental_uris": {"ios": "https://dc.lft.to/lastmile_qr_scan", "android": "https://dc.lft.to/lastmile_qr_scan"}, "is_reserved": 0}, {"lon": -77.047568, "bike_id": "aac8889241841807ea32a7b3e5252aa3", "lat": 38.901574333333336, "fusion_lon": 0.0, "fusion_lat": 0.0, "type": "electric_scooter", "name": "aac8889241841807ea32a7b3e5252aa3", "is_disabled": 0, "rental_uris": {"ios": "https://dc.lft.to/lastmile_qr_scan", "android": "https://dc.lft.to/lastmile_qr_scan"}, "is_reserved": 0}, {"lon": -76.98456233333333, "bike_id": "8a064848362175e0c9cf398e602bd55d", "lat": 38.90557366666667, "fusion_lon": 0.0, "fusion_lat": 0.0, "type": "electric_scooter", "name": "8a064848362175e0c9cf398e602bd55d", "is_disabled": 0, "rental_uris": {"ios": "https://dc.lft.to/lastmile_qr_scan", "android": "https://dc.lft.to/lastmile_qr_scan"}, "is_reserved": 0}, {"lon": -77.03204566666666, "bike_id": "6a046b651d0a9648d0f5b271833be97f", "lat": 38.919638, "fusion_lon": 0.0, "fusion_lat": 0.0, "type": "electric_scooter", "name": "6a046b651d0a9648d0f5b271833be97f", "is_disabled": 0, "rental_uris": {"ios": "https://dc.lft.to/lastmile_qr_scan", "android": "https://dc.lft.to/lastmile_qr_scan"}, "is_reserved": 0}, {"lon": -77.03645433333334, "bike_id": "ee30437c9b861a07f068f5b64f02f053", "lat": 38.9175775, "fusion_lon": 0.0, "fusion_lat": 0.0, "type": "electric_scooter", "name": "ee30437c9b861a07f068f5b64f02f053", "is_disabled": 0, "rental_uris": {"ios": "https://dc.lft.to/lastmile_qr_scan", "android": "https://dc.lft.to/lastmile_qr_scan"}, "is_reserved": 0}, {"lon": -77.003495, "bike_id": "751a40b1d2cf2bac09a7d503162addb1", "lat": 38.91625333333333, "fusion_lon": 0.0, "fusion_lat": 0.0, "type": "electric_scooter", "name": "751a40b1d2cf2bac09a7d503162addb1", "is_disabled": 0, "rental_uris": {"ios": "https://dc.lft.to/lastmile_qr_scan", "android": "https://dc.lft.to/lastmile_qr_scan"}, "is_reserved": 0}, {"lon": -76.9917545, "bike_id": "0f38e83dc0ff73324c13f392a6efed41", "lat": 38.88989133333333, "fusion_lon": 0.0, "fusion_lat": 0.0, "type": "electric_scooter", "name": "0f38e83dc0ff73324c13f392a6efed41", "is_disabled": 0, "rental_uris": {"ios": "https://dc.lft.to/lastmile_qr_scan", "android": "https://dc.lft.to/lastmile_qr_scan"}, "is_reserved": 0}, {"lon": -77.05063516666667, "bike_id": "5412078c75d6627a02421303b816b037", "lat": 38.925812666666666, "fusion_lon": 0.0, "fusion_lat": 0.0, "type": "electric_scooter", "name": "5412078c75d6627a02421303b816b037", "is_disabled": 0, "rental_uris": {"ios": "https://dc.lft.to/lastmile_qr_scan", "android": "https://dc.lft.to/lastmile_qr_scan"}, "is_reserved": 0}, {"lon": -77.024256, "bike_id": "38df8e694e7955a4638fbbed38506dae", "lat": 38.9234325, "fusion_lon": 0.0, "fusion_lat": 0.0, "type": "electric_scooter", "name": "38df8e694e7955a4638fbbed38506dae", "is_disabled": 0, "rental_uris": {"ios": "https://dc.lft.to/lastmile_qr_scan", "android": "https://dc.lft.to/lastmile_qr_scan"}, "is_reserved": 0}, {"lon": -77.03770566666667, "bike_id": "ffb870158e7f0b35e7692ba6180298f6", "lat": 38.928695166666664, "fusion_lon": 0.0, "fusion_lat": 0.0, "type": "electric_scooter", "name": "ffb870158e7f0b35e7692ba6180298f6", "is_disabled": 0, "rental_uris": {"ios": "https://dc.lft.to/lastmile_qr_scan", "android": "https://dc.lft.to/lastmile_qr_scan"}, "is_reserved": 0}, {"lon": -77.02730266666667, "bike_id": "4ce9b9a0f3a597a273525f0b4b72472a", "lat": 38.9141805, "fusion_lon": 0.0, "fusion_lat": 0.0, "type": "electric_scooter", "name": "4ce9b9a0f3a597a273525f0b4b72472a", "is_disabled": 0, "rental_uris": {"ios": "https://dc.lft.to/lastmile_qr_scan", "android": "https://dc.lft.to/lastmile_qr_scan"}, "is_reserved": 0}, {"lon": -77.0433045, "bike_id": "1df3ca208124413c5a153bcd94f8690b", "lat": 38.90725833333333, "fusion_lon": 0.0, "fusion_lat": 0.0, "type": "electric_scooter", "name": "1df3ca208124413c5a153bcd94f8690b", "is_disabled": 0, "rental_uris": {"ios": "https://dc.lft.to/lastmile_qr_scan", "android": "https://dc.lft.to/lastmile_qr_scan"}, "is_reserved": 0}, {"lon": -77.06353, "bike_id": "d4d841e1fb2ac60f183bdf85f28e2e16", "lat": 38.90600233333333, "fusion_lon": 0.0, "fusion_lat": 0.0, "type": "electric_scooter", "name": "d4d841e1fb2ac60f183bdf85f28e2e16", "is_disabled": 0, "rental_uris": {"ios": "https://dc.lft.to/lastmile_qr_scan", "android": "https://dc.lft.to/lastmile_qr_scan"}, "is_reserved": 0}, {"lon": -76.98923683333334, "bike_id": "0a65e1319a3ae3a937ecfe666e964f7c", "lat": 38.858094333333334, "fusion_lon": 0.0, "fusion_lat": 0.0, "type": "electric_scooter", "name": "0a65e1319a3ae3a937ecfe666e964f7c", "is_disabled": 0, "rental_uris": {"ios": "https://dc.lft.to/lastmile_qr_scan", "android": "https://dc.lft.to/lastmile_qr_scan"}, "is_reserved": 0}, {"lon": -76.9558185, "bike_id": "e5a72d7cd00cf41f1910ba256ad89bec", "lat": 38.887652, "fusion_lon": 0.0, "fusion_lat": 0.0, "type": "electric_scooter", "name": "e5a72d7cd00cf41f1910ba256ad89bec", "is_disabled": 0, "rental_uris": {"ios": "https://dc.lft.to/lastmile_qr_scan", "android": "https://dc.lft.to/lastmile_qr_scan"}, "is_reserved": 0}, {"lon": -77.02224516666666, "bike_id": "4ee8b7d2b9edafb9407a4872651c2d2a", "lat": 38.92605483333333, "fusion_lon": 0.0, "fusion_lat": 0.0, "type": "electric_scooter", "name": "4ee8b7d2b9edafb9407a4872651c2d2a", "is_disabled": 0, "rental_uris": {"ios": "https://dc.lft.to/lastmile_qr_scan", "android": "https://dc.lft.to/lastmile_qr_scan"}, "is_reserved": 0}, {"lon": -77.02847366666667, "bike_id": "6163a129339eafcd597914925735d1d7", "lat": 38.92562316666667, "fusion_lon": 0.0, "fusion_lat": 0.0, "type": "electric_scooter", "name": "6163a129339eafcd597914925735d1d7", "is_disabled": 0, "rental_uris": {"ios": "https://dc.lft.to/lastmile_qr_scan", "android": "https://dc.lft.to/lastmile_qr_scan"}, "is_reserved": 0}, {"lon": -77.04393016666667, "bike_id": "b080bce724e02fd22160c693cbf45445", "lat": 39.04715383333333, "fusion_lon": 0.0, "fusion_lat": 0.0, "type": "electric_bike", "name": "b080bce724e02fd22160c693cbf45445", "is_disabled": 0, "rental_uris": {"ios": "https://dc.lft.to/lastmile_qr_scan", "android": "https://dc.lft.to/lastmile_qr_scan"}, "is_reserved": 0}, {"lon": -77.03246616666667, "bike_id": "9bfce976e78d13ab5ce6e0d64df322a7", "lat": 38.9301105, "fusion_lon": 0.0, "fusion_lat": 0.0, "type": "electric_scooter", "name": "9bfce976e78d13ab5ce6e0d64df322a7", "is_disabled": 0, "rental_uris": {"ios": "https://dc.lft.to/lastmile_qr_scan", "android": "https://dc.lft.to/lastmile_qr_scan"}, "is_reserved": 0}, {"lon": -77.02235783333333, "bike_id": "057ae57303403b1a9ccf38471dbf42d3", "lat": 38.962153, "fusion_lon": 0.0, "fusion_lat": 0.0, "type": "electric_bike", "name": "057ae57303403b1a9ccf38471dbf42d3", "is_disabled": 0, "rental_uris": {"ios": "https://dc.lft.to/lastmile_qr_scan", "android": "https://dc.lft.to/lastmile_qr_scan"}, "is_reserved": 0}, {"lon": -77.02032816666667, "bike_id": "5c27782487eedaa535eaaf4dd6b307e9", "lat": 38.92420583333333, "fusion_lon": 0.0, "fusion_lat": 0.0, "type": "electric_scooter", "name": "5c27782487eedaa535eaaf4dd6b307e9", "is_disabled": 0, "rental_uris": {"ios": "https://dc.lft.to/lastmile_qr_scan", "android": "https://dc.lft.to/lastmile_qr_scan"}, "is_reserved": 0}, {"lon": -77.04660483333333, "bike_id": "8eabb6bd876cce3fe7178da55a0288fe", "lat": 38.89824816666667, "fusion_lon": 0.0, "fusion_lat": 0.0, "type": "electric_scooter", "name": "8eabb6bd876cce3fe7178da55a0288fe", "is_disabled": 0, "rental_uris": {"ios": "https://dc.lft.to/lastmile_qr_scan", "android": "https://dc.lft.to/lastmile_qr_scan"}, "is_reserved": 0}, {"lon": -77.05258466666666, "bike_id": "b1f6d45ab6b6bac8cef9c883c680e2da", "lat": 38.899975166666664, "fusion_lon": 0.0, "fusion_lat": 0.0, "type": "electric_scooter", "name": "b1f6d45ab6b6bac8cef9c883c680e2da", "is_disabled": 0, "rental_uris": {"ios": "https://dc.lft.to/lastmile_qr_scan", "android": "https://dc.lft.to/lastmile_qr_scan"}, "is_reserved": 0}, {"lon": -77.03386516666667, "bike_id": "c93ece90c88ff090d95907c7793e7530", "lat": 38.90988183333333, "fusion_lon": 0.0, "fusion_lat": 0.0, "type": "electric_scooter", "name": "c93ece90c88ff090d95907c7793e7530", "is_disabled": 0, "rental_uris": {"ios": "https://dc.lft.to/lastmile_qr_scan", "android": "https://dc.lft.to/lastmile_qr_scan"}, "is_reserved": 0}, {"lon": -77.03662533333333, "bike_id": "8e30c90e329a5d8de64420faecfeee08", "lat": 38.93914266666667, "fusion_lon": 0.0, "fusion_lat": 0.0, "type": "electric_bike", "name": "8e30c90e329a5d8de64420faecfeee08", "is_disabled": 0, "rental_uris": {"ios": "https://dc.lft.to/lastmile_qr_scan", "android": "https://dc.lft.to/lastmile_qr_scan"}, "is_reserved": 0}, {"lon": -77.01964816666667, "bike_id": "a4857b6f0a18254c8c800d5dea0a146b", "lat": 38.922065, "fusion_lon": 0.0, "fusion_lat": 0.0, "type": "electric_scooter", "name": "a4857b6f0a18254c8c800d5dea0a146b", "is_disabled": 0, "rental_uris": {"ios": "https://dc.lft.to/lastmile_qr_scan", "android": "https://dc.lft.to/lastmile_qr_scan"}, "is_reserved": 0}, {"lon": -77.0195245, "bike_id": "2746f483e372df609367d85fe0409047", "lat": 38.922436833333336, "fusion_lon": 0.0, "fusion_lat": 0.0, "type": "electric_scooter", "name": "2746f483e372df609367d85fe0409047", "is_disabled": 0, "rental_uris": {"ios": "https://dc.lft.to/lastmile_qr_scan", "android": "https://dc.lft.to/lastmile_qr_scan"}, "is_reserved": 0}, {"lon": -76.95186266666667, "bike_id": "42558bcf10a13e3f47ea44029e64d654", "lat": 38.907396166666665, "fusion_lon": 0.0, "fusion_lat": 0.0, "type": "electric_scooter", "name": "42558bcf10a13e3f47ea44029e64d654", "is_disabled": 0, "rental_uris": {"ios": "https://dc.lft.to/lastmile_qr_scan", "android": "https://dc.lft.to/lastmile_qr_scan"}, "is_reserved": 0}, {"lon": -76.98204716666666, "bike_id": "ee4efbfc05df3fa8bc2ed04c353ceed5", "lat": 38.89945183333333, "fusion_lon": 0.0, "fusion_lat": 0.0, "type": "electric_scooter", "name": "ee4efbfc05df3fa8bc2ed04c353ceed5", "is_disabled": 0, "rental_uris": {"ios": "https://dc.lft.to/lastmile_qr_scan", "android": "https://dc.lft.to/lastmile_qr_scan"}, "is_reserved": 0}, {"lon": -77.04040516666667, "bike_id": "f99e500580ccf9789b1fda7dd361e9cd", "lat": 38.9231305, "fusion_lon": 0.0, "fusion_lat": 0.0, "type": "electric_scooter", "name": "f99e500580ccf9789b1fda7dd361e9cd", "is_disabled": 0, "rental_uris": {"ios": "https://dc.lft.to/lastmile_qr_scan", "android": "https://dc.lft.to/lastmile_qr_scan"}, "is_reserved": 0}, {"lon": -77.01788516666667, "bike_id": "343fff51ee9c34f4fd0defe83a16387d", "lat": 38.877065, "fusion_lon": 0.0, "fusion_lat": 0.0, "type": "electric_scooter", "name": "343fff51ee9c34f4fd0defe83a16387d", "is_disabled": 0, "rental_uris": {"ios": "https://dc.lft.to/lastmile_qr_scan", "android": "https://dc.lft.to/lastmile_qr_scan"}, "is_reserved": 0}, {"lon": -77.0279295, "bike_id": "95569e913649e60016a040b2a952ba03", "lat": 38.929609, "fusion_lon": 0.0, "fusion_lat": 0.0, "type": "electric_scooter", "name": "95569e913649e60016a040b2a952ba03", "is_disabled": 0, "rental_uris": {"ios": "https://dc.lft.to/lastmile_qr_scan", "android": "https://dc.lft.to/lastmile_qr_scan"}, "is_reserved": 0}, {"lon": -77.004597, "bike_id": "3eca285e8d851669f29474fc37cbaed7", "lat": 38.914423166666666, "fusion_lon": 0.0, "fusion_lat": 0.0, "type": "electric_scooter", "name": "3eca285e8d851669f29474fc37cbaed7", "is_disabled": 0, "rental_uris": {"ios": "https://dc.lft.to/lastmile_qr_scan", "android": "https://dc.lft.to/lastmile_qr_scan"}, "is_reserved": 0}, {"lon": -76.98257733333334, "bike_id": "0b7f23df901b290db5365c93a4f22c89", "lat": 38.908498, "fusion_lon": 0.0, "fusion_lat": 0.0, "type": "electric_scooter", "name": "0b7f23df901b290db5365c93a4f22c89", "is_disabled": 0, "rental_uris": {"ios": "https://dc.lft.to/lastmile_qr_scan", "android": "https://dc.lft.to/lastmile_qr_scan"}, "is_reserved": 0}, {"lon": -76.98727966666667, "bike_id": "d5d097eea9987f523c433ef1b3cc6603", "lat": 38.866239, "fusion_lon": 0.0, "fusion_lat": 0.0, "type": "electric_scooter", "name": "d5d097eea9987f523c433ef1b3cc6603", "is_disabled": 0, "rental_uris": {"ios": "https://dc.lft.to/lastmile_qr_scan", "android": "https://dc.lft.to/lastmile_qr_scan"}, "is_reserved": 0}, {"lon": -77.02700883333333, "bike_id": "ad0c25d0cb27075ed7b3fd6aba6bd5b7", "lat": 38.911651166666665, "fusion_lon": 0.0, "fusion_lat": 0.0, "type": "electric_scooter", "name": "ad0c25d0cb27075ed7b3fd6aba6bd5b7", "is_disabled": 0, "rental_uris": {"ios": "https://dc.lft.to/lastmile_qr_scan", "android": "https://dc.lft.to/lastmile_qr_scan"}, "is_reserved": 0}, {"lon": -77.023752, "bike_id": "4ad5bd1846f766b080d8d7172d4f8a7d", "lat": 38.90199666666667, "fusion_lon": 0.0, "fusion_lat": 0.0, "type": "electric_scooter", "name": "4ad5bd1846f766b080d8d7172d4f8a7d", "is_disabled": 0, "rental_uris": {"ios": "https://dc.lft.to/lastmile_qr_scan", "android": "https://dc.lft.to/lastmile_qr_scan"}, "is_reserved": 0}, {"lon": -77.037748, "bike_id": "984fd1c9bcc7567fc51703ef3eb87690", "lat": 38.9293745, "fusion_lon": 0.0, "fusion_lat": 0.0, "type": "electric_scooter", "name": "984fd1c9bcc7567fc51703ef3eb87690", "is_disabled": 0, "rental_uris": {"ios": "https://dc.lft.to/lastmile_qr_scan", "android": "https://dc.lft.to/lastmile_qr_scan"}, "is_reserved": 0}, {"lon": -77.00548183333333, "bike_id": "fba274904301695ffa9144d9a6ee2109", "lat": 38.87455833333333, "fusion_lon": 0.0, "fusion_lat": 0.0, "type": "electric_scooter", "name": "fba274904301695ffa9144d9a6ee2109", "is_disabled": 0, "rental_uris": {"ios": "https://dc.lft.to/lastmile_qr_scan", "android": "https://dc.lft.to/lastmile_qr_scan"}, "is_reserved": 0}, {"lon": -77.03805133333333, "bike_id": "6b7927358d1aba397b6b1da3cf718921", "lat": 38.91033633333333, "fusion_lon": 0.0, "fusion_lat": 0.0, "type": "electric_scooter", "name": "6b7927358d1aba397b6b1da3cf718921", "is_disabled": 0, "rental_uris": {"ios": "https://dc.lft.to/lastmile_qr_scan", "android": "https://dc.lft.to/lastmile_qr_scan"}, "is_reserved": 0}, {"lon": -77.0278455, "bike_id": "b3fb41289bafeed1992c8c28365ecac6", "lat": 38.927745333333334, "fusion_lon": 0.0, "fusion_lat": 0.0, "type": "electric_scooter", "name": "b3fb41289bafeed1992c8c28365ecac6", "is_disabled": 0, "rental_uris": {"ios": "https://dc.lft.to/lastmile_qr_scan", "android": "https://dc.lft.to/lastmile_qr_scan"}, "is_reserved": 0}, {"lon": -77.039341, "bike_id": "2bda048ed3fa3c499aa371a0e5af13cb", "lat": 38.9249465, "fusion_lon": 0.0, "fusion_lat": 0.0, "type": "electric_scooter", "name": "2bda048ed3fa3c499aa371a0e5af13cb", "is_disabled": 0, "rental_uris": {"ios": "https://dc.lft.to/lastmile_qr_scan", "android": "https://dc.lft.to/lastmile_qr_scan"}, "is_reserved": 0}, {"lon": -77.00050433333334, "bike_id": "bcfc2b6a134143a995a16c1c309b05be", "lat": 38.967793, "fusion_lon": 0.0, "fusion_lat": 0.0, "type": "electric_bike", "name": "bcfc2b6a134143a995a16c1c309b05be", "is_disabled": 0, "rental_uris": {"ios": "https://dc.lft.to/lastmile_qr_scan", "android": "https://dc.lft.to/lastmile_qr_scan"}, "is_reserved": 0}, {"lon": -77.02447816666667, "bike_id": "9d264659e901354ff4ac375c321359d3", "lat": 38.914149333333334, "fusion_lon": 0.0, "fusion_lat": 0.0, "type": "electric_scooter", "name": "9d264659e901354ff4ac375c321359d3", "is_disabled": 0, "rental_uris": {"ios": "https://dc.lft.to/lastmile_qr_scan", "android": "https://dc.lft.to/lastmile_qr_scan"}, "is_reserved": 0}, {"lon": -77.05039866666667, "bike_id": "fa969ef4c5e3abe3bc9c85c192b28303", "lat": 38.90050883333333, "fusion_lon": 0.0, "fusion_lat": 0.0, "type": "electric_scooter", "name": "fa969ef4c5e3abe3bc9c85c192b28303", "is_disabled": 0, "rental_uris": {"ios": "https://dc.lft.to/lastmile_qr_scan", "android": "https://dc.lft.to/lastmile_qr_scan"}, "is_reserved": 0}, {"lon": -77.03325266666667, "bike_id": "824c0bb9d1b6cdea0cecd50917065185", "lat": 38.90135983333333, "fusion_lon": 0.0, "fusion_lat": 0.0, "type": "electric_scooter", "name": "824c0bb9d1b6cdea0cecd50917065185", "is_disabled": 0, "rental_uris": {"ios": "https://dc.lft.to/lastmile_qr_scan", "android": "https://dc.lft.to/lastmile_qr_scan"}, "is_reserved": 0}, {"lon": -77.03207433333333, "bike_id": "621f8dd5a22cb4ad9127290d974d0683", "lat": 38.944054666666666, "fusion_lon": 0.0, "fusion_lat": 0.0, "type": "electric_scooter", "name": "621f8dd5a22cb4ad9127290d974d0683", "is_disabled": 0, "rental_uris": {"ios": "https://dc.lft.to/lastmile_qr_scan", "android": "https://dc.lft.to/lastmile_qr_scan"}, "is_reserved": 0}, {"lon": -77.0343275, "bike_id": "5167067537d32b7ee7c80ba58a9a042b", "lat": 38.909723166666666, "fusion_lon": 0.0, "fusion_lat": 0.0, "type": "electric_scooter", "name": "5167067537d32b7ee7c80ba58a9a042b", "is_disabled": 0, "rental_uris": {"ios": "https://dc.lft.to/lastmile_qr_scan", "android": "https://dc.lft.to/lastmile_qr_scan"}, "is_reserved": 0}, {"lon": -77.04559366666666, "bike_id": "4df2d6d6dbf7e5ce768441d2a46775b4", "lat": 38.89606833333333, "fusion_lon": 0.0, "fusion_lat": 0.0, "type": "electric_scooter", "name": "4df2d6d6dbf7e5ce768441d2a46775b4", "is_disabled": 0, "rental_uris": {"ios": "https://dc.lft.to/lastmile_qr_scan", "android": "https://dc.lft.to/lastmile_qr_scan"}, "is_reserved": 0}, {"lon": -77.04201033333334, "bike_id": "d9dca636d4ef7e6e1756443b59ee8c35", "lat": 38.920405333333335, "fusion_lon": 0.0, "fusion_lat": 0.0, "type": "electric_scooter", "name": "d9dca636d4ef7e6e1756443b59ee8c35", "is_disabled": 0, "rental_uris": {"ios": "https://dc.lft.to/lastmile_qr_scan", "android": "https://dc.lft.to/lastmile_qr_scan"}, "is_reserved": 0}, {"lon": -77.0450915, "bike_id": "c602ed040dffc46ff275c609e3167122", "lat": 38.911114166666664, "fusion_lon": 0.0, "fusion_lat": 0.0, "type": "electric_scooter", "name": "c602ed040dffc46ff275c609e3167122", "is_disabled": 0, "rental_uris": {"ios": "https://dc.lft.to/lastmile_qr_scan", "android": "https://dc.lft.to/lastmile_qr_scan"}, "is_reserved": 0}, {"lon": -77.02399516666667, "bike_id": "052f73582187a46c1ac5b29e7ecdc3b5", "lat": 38.88135166666667, "fusion_lon": 0.0, "fusion_lat": 0.0, "type": "electric_scooter", "name": "052f73582187a46c1ac5b29e7ecdc3b5", "is_disabled": 0, "rental_uris": {"ios": "https://dc.lft.to/lastmile_qr_scan", "android": "https://dc.lft.to/lastmile_qr_scan"}, "is_reserved": 0}, {"lon": -76.99472716666666, "bike_id": "0f782860353632b48b0022fedd48d208", "lat": 38.882674, "fusion_lon": 0.0, "fusion_lat": 0.0, "type": "electric_scooter", "name": "0f782860353632b48b0022fedd48d208", "is_disabled": 0, "rental_uris": {"ios": "https://dc.lft.to/lastmile_qr_scan", "android": "https://dc.lft.to/lastmile_qr_scan"}, "is_reserved": 0}, {"lon": -77.03985366666667, "bike_id": "037887fd410b4c0b35ab55f6148e6d69", "lat": 38.933333833333336, "fusion_lon": 0.0, "fusion_lat": 0.0, "type": "electric_scooter", "name": "037887fd410b4c0b35ab55f6148e6d69", "is_disabled": 0, "rental_uris": {"ios": "https://dc.lft.to/lastmile_qr_scan", "android": "https://dc.lft.to/lastmile_qr_scan"}, "is_reserved": 0}, {"lon": -77.03250733333333, "bike_id": "d951907c3dae5a5d857f1400a5f171df", "lat": 38.920996, "fusion_lon": 0.0, "fusion_lat": 0.0, "type": "electric_scooter", "name": "d951907c3dae5a5d857f1400a5f171df", "is_disabled": 0, "rental_uris": {"ios": "https://dc.lft.to/lastmile_qr_scan", "android": "https://dc.lft.to/lastmile_qr_scan"}, "is_reserved": 0}, {"lon": -77.07081916666667, "bike_id": "dd8f5410d2a257222efb6e61c1da85bd", "lat": 38.894790666666665, "fusion_lon": 0.0, "fusion_lat": 0.0, "type": "electric_bike", "name": "dd8f5410d2a257222efb6e61c1da85bd", "is_disabled": 0, "rental_uris": {"ios": "https://dc.lft.to/lastmile_qr_scan", "android": "https://dc.lft.to/lastmile_qr_scan"}, "is_reserved": 0}, {"lon": -77.03197183333333, "bike_id": "e6b310b00cd84dd805f014ba460d2c9f", "lat": 38.8923165, "fusion_lon": 0.0, "fusion_lat": 0.0, "type": "electric_scooter", "name": "e6b310b00cd84dd805f014ba460d2c9f", "is_disabled": 0, "rental_uris": {"ios": "https://dc.lft.to/lastmile_qr_scan", "android": "https://dc.lft.to/lastmile_qr_scan"}, "is_reserved": 0}, {"lon": -77.032914, "bike_id": "501b25f8f96342a9d4e489dce7faffe3", "lat": 38.95642866666667, "fusion_lon": 0.0, "fusion_lat": 0.0, "type": "electric_scooter", "name": "501b25f8f96342a9d4e489dce7faffe3", "is_disabled": 0, "rental_uris": {"ios": "https://dc.lft.to/lastmile_qr_scan", "android": "https://dc.lft.to/lastmile_qr_scan"}, "is_reserved": 0}, {"lon": -77.04193283333333, "bike_id": "6797ccd61bfacfcf25db51c89453e781", "lat": 38.89982716666667, "fusion_lon": 0.0, "fusion_lat": 0.0, "type": "electric_scooter", "name": "6797ccd61bfacfcf25db51c89453e781", "is_disabled": 0, "rental_uris": {"ios": "https://dc.lft.to/lastmile_qr_scan", "android": "https://dc.lft.to/lastmile_qr_scan"}, "is_reserved": 0}, {"lon": -77.017779, "bike_id": "8557595495c95e63cdf014d836ea893d", "lat": 38.8871425, "fusion_lon": 0.0, "fusion_lat": 0.0, "type": "electric_scooter", "name": "8557595495c95e63cdf014d836ea893d", "is_disabled": 0, "rental_uris": {"ios": "https://dc.lft.to/lastmile_qr_scan", "android": "https://dc.lft.to/lastmile_qr_scan"}, "is_reserved": 0}, {"lon": -76.97321883333333, "bike_id": "92e38996bf272485dff2d20210080252", "lat": 38.904794, "fusion_lon": 0.0, "fusion_lat": 0.0, "type": "electric_bike", "name": "92e38996bf272485dff2d20210080252", "is_disabled": 0, "rental_uris": {"ios": "https://dc.lft.to/lastmile_qr_scan", "android": "https://dc.lft.to/lastmile_qr_scan"}, "is_reserved": 0}, {"lon": -76.9980075, "bike_id": "e7b494e9963141e70ca021ab26d5b982", "lat": 38.95636916666667, "fusion_lon": 0.0, "fusion_lat": 0.0, "type": "electric_bike", "name": "e7b494e9963141e70ca021ab26d5b982", "is_disabled": 0, "rental_uris": {"ios": "https://dc.lft.to/lastmile_qr_scan", "android": "https://dc.lft.to/lastmile_qr_scan"}, "is_reserved": 0}, {"lon": -77.05859, "bike_id": "e983bd6a0ebd6a24533e59681446a453", "lat": 38.935429, "fusion_lon": 0.0, "fusion_lat": 0.0, "type": "electric_scooter", "name": "e983bd6a0ebd6a24533e59681446a453", "is_disabled": 0, "rental_uris": {"ios": "https://dc.lft.to/lastmile_qr_scan", "android": "https://dc.lft.to/lastmile_qr_scan"}, "is_reserved": 0}, {"lon": -77.036366, "bike_id": "ec2d6bb9e90409783b749cee7f52d1de", "lat": 38.937621166666666, "fusion_lon": 0.0, "fusion_lat": 0.0, "type": "electric_bike", "name": "ec2d6bb9e90409783b749cee7f52d1de", "is_disabled": 0, "rental_uris": {"ios": "https://dc.lft.to/lastmile_qr_scan", "android": "https://dc.lft.to/lastmile_qr_scan"}, "is_reserved": 0}, {"lon": -76.97733566666666, "bike_id": "4ad7d8114eb325aa9c6ed2dd70b1c752", "lat": 38.86485883333334, "fusion_lon": 0.0, "fusion_lat": 0.0, "type": "electric_bike", "name": "4ad7d8114eb325aa9c6ed2dd70b1c752", "is_disabled": 0, "rental_uris": {"ios": "https://dc.lft.to/lastmile_qr_scan", "android": "https://dc.lft.to/lastmile_qr_scan"}, "is_reserved": 0}, {"lon": -77.0391715, "bike_id": "e81aae0cd845c3f67df221aea1a9d72b", "lat": 38.918441, "fusion_lon": 0.0, "fusion_lat": 0.0, "type": "electric_scooter", "name": "e81aae0cd845c3f67df221aea1a9d72b", "is_disabled": 0, "rental_uris": {"ios": "https://dc.lft.to/lastmile_qr_scan", "android": "https://dc.lft.to/lastmile_qr_scan"}, "is_reserved": 0}, {"lon": -76.96265916666667, "bike_id": "63ad2f5d28305b02f866dad00a66ed6e", "lat": 38.8824465, "fusion_lon": 0.0, "fusion_lat": 0.0, "type": "electric_bike", "name": "63ad2f5d28305b02f866dad00a66ed6e", "is_disabled": 0, "rental_uris": {"ios": "https://dc.lft.to/lastmile_qr_scan", "android": "https://dc.lft.to/lastmile_qr_scan"}, "is_reserved": 0}, {"lon": -77.00657933333333, "bike_id": "906b08bc0ded09b72afc934bd6f03e90", "lat": 38.944617666666666, "fusion_lon": 0.0, "fusion_lat": 0.0, "type": "electric_scooter", "name": "906b08bc0ded09b72afc934bd6f03e90", "is_disabled": 0, "rental_uris": {"ios": "https://dc.lft.to/lastmile_qr_scan", "android": "https://dc.lft.to/lastmile_qr_scan"}, "is_reserved": 0}, {"lon": -77.0317765, "bike_id": "a4195e60a054dc9d9e13973fda928967", "lat": 38.9361165, "fusion_lon": 0.0, "fusion_lat": 0.0, "type": "electric_scooter", "name": "a4195e60a054dc9d9e13973fda928967", "is_disabled": 0, "rental_uris": {"ios": "https://dc.lft.to/lastmile_qr_scan", "android": "https://dc.lft.to/lastmile_qr_scan"}, "is_reserved": 0}, {"lon": -76.98355133333334, "bike_id": "f1d187ca9cfaa9a8e9e5d0248e36fd53", "lat": 38.89204683333333, "fusion_lon": 0.0, "fusion_lat": 0.0, "type": "electric_bike", "name": "f1d187ca9cfaa9a8e9e5d0248e36fd53", "is_disabled": 0, "rental_uris": {"ios": "https://dc.lft.to/lastmile_qr_scan", "android": "https://dc.lft.to/lastmile_qr_scan"}, "is_reserved": 0}, {"lon": -77.03463716666667, "bike_id": "e6fe2546ee928a9e01b72eba3175507b", "lat": 38.91000833333333, "fusion_lon": 0.0, "fusion_lat": 0.0, "type": "electric_scooter", "name": "e6fe2546ee928a9e01b72eba3175507b", "is_disabled": 0, "rental_uris": {"ios": "https://dc.lft.to/lastmile_qr_scan", "android": "https://dc.lft.to/lastmile_qr_scan"}, "is_reserved": 0}, {"lon": -77.02165516666666, "bike_id": "56f3a73539e3f09a0c6e4cbd0aa7875a", "lat": 38.926092833333335, "fusion_lon": 0.0, "fusion_lat": 0.0, "type": "electric_scooter", "name": "56f3a73539e3f09a0c6e4cbd0aa7875a", "is_disabled": 0, "rental_uris": {"ios": "https://dc.lft.to/lastmile_qr_scan", "android": "https://dc.lft.to/lastmile_qr_scan"}, "is_reserved": 0}, {"lon": -77.039142, "bike_id": "c9175efe489409c6f9c4fe3b0fc42009", "lat": 38.89890316666666, "fusion_lon": 0.0, "fusion_lat": 0.0, "type": "electric_scooter", "name": "c9175efe489409c6f9c4fe3b0fc42009", "is_disabled": 0, "rental_uris": {"ios": "https://dc.lft.to/lastmile_qr_scan", "android": "https://dc.lft.to/lastmile_qr_scan"}, "is_reserved": 0}, {"lon": -77.18567266666666, "bike_id": "ba371991bd892cb4ebfa323673f225cd", "lat": 39.0997455, "fusion_lon": 0.0, "fusion_lat": 0.0, "type": "electric_bike", "name": "ba371991bd892cb4ebfa323673f225cd", "is_disabled": 0, "rental_uris": {"ios": "https://dc.lft.to/lastmile_qr_scan", "android": "https://dc.lft.to/lastmile_qr_scan"}, "is_reserved": 0}, {"lon": -77.02959316666667, "bike_id": "db17661c1589ff5b7022641cfbd7abd4", "lat": 38.9276365, "fusion_lon": 0.0, "fusion_lat": 0.0, "type": "electric_scooter", "name": "db17661c1589ff5b7022641cfbd7abd4", "is_disabled": 0, "rental_uris": {"ios": "https://dc.lft.to/lastmile_qr_scan", "android": "https://dc.lft.to/lastmile_qr_scan"}, "is_reserved": 0}, {"lon": -77.05882533333333, "bike_id": "ff3b532b77a9670790c2b386cca1bf1a", "lat": 38.93549216666667, "fusion_lon": 0.0, "fusion_lat": 0.0, "type": "electric_scooter", "name": "ff3b532b77a9670790c2b386cca1bf1a", "is_disabled": 0, "rental_uris": {"ios": "https://dc.lft.to/lastmile_qr_scan", "android": "https://dc.lft.to/lastmile_qr_scan"}, "is_reserved": 0}, {"lon": -77.0312695, "bike_id": "0bd6462c5b6e77aaf5cb6233d276a78f", "lat": 38.98824966666667, "fusion_lon": 0.0, "fusion_lat": 0.0, "type": "electric_scooter", "name": "0bd6462c5b6e77aaf5cb6233d276a78f", "is_disabled": 0, "rental_uris": {"ios": "https://dc.lft.to/lastmile_qr_scan", "android": "https://dc.lft.to/lastmile_qr_scan"}, "is_reserved": 0}, {"lon": -77.04184033333334, "bike_id": "fc023c1518c69dbe418900935a14c91f", "lat": 38.906536, "fusion_lon": 0.0, "fusion_lat": 0.0, "type": "electric_scooter", "name": "fc023c1518c69dbe418900935a14c91f", "is_disabled": 0, "rental_uris": {"ios": "https://dc.lft.to/lastmile_qr_scan", "android": "https://dc.lft.to/lastmile_qr_scan"}, "is_reserved": 0}, {"lon": -77.04416383333333, "bike_id": "a512a1fb2c92454c70f3425b4fb51db7", "lat": 38.91118, "fusion_lon": 0.0, "fusion_lat": 0.0, "type": "electric_scooter", "name": "a512a1fb2c92454c70f3425b4fb51db7", "is_disabled": 0, "rental_uris": {"ios": "https://dc.lft.to/lastmile_qr_scan", "android": "https://dc.lft.to/lastmile_qr_scan"}, "is_reserved": 0}, {"lon": -77.02029633333333, "bike_id": "023e1a0017dce4f536fdc93b827d8a1f", "lat": 38.91546866666667, "fusion_lon": 0.0, "fusion_lat": 0.0, "type": "electric_scooter", "name": "023e1a0017dce4f536fdc93b827d8a1f", "is_disabled": 0, "rental_uris": {"ios": "https://dc.lft.to/lastmile_qr_scan", "android": "https://dc.lft.to/lastmile_qr_scan"}, "is_reserved": 0}, {"lon": -77.0215115, "bike_id": "4d981bc055a945b5f01ee4735f490a89", "lat": 38.897106, "fusion_lon": 0.0, "fusion_lat": 0.0, "type": "electric_scooter", "name": "4d981bc055a945b5f01ee4735f490a89", "is_disabled": 0, "rental_uris": {"ios": "https://dc.lft.to/lastmile_qr_scan", "android": "https://dc.lft.to/lastmile_qr_scan"}, "is_reserved": 0}, {"lon": -77.003757, "bike_id": "bb9d252f5a3d27fea38ec93bf00ee3c5", "lat": 38.899299666666664, "fusion_lon": 0.0, "fusion_lat": 0.0, "type": "electric_scooter", "name": "bb9d252f5a3d27fea38ec93bf00ee3c5", "is_disabled": 0, "rental_uris": {"ios": "https://dc.lft.to/lastmile_qr_scan", "android": "https://dc.lft.to/lastmile_qr_scan"}, "is_reserved": 0}, {"lon": -77.04097083333333, "bike_id": "93b68e3ca691c89f6e53f0a1cbcd7fe5", "lat": 38.923903, "fusion_lon": 0.0, "fusion_lat": 0.0, "type": "electric_scooter", "name": "93b68e3ca691c89f6e53f0a1cbcd7fe5", "is_disabled": 0, "rental_uris": {"ios": "https://dc.lft.to/lastmile_qr_scan", "android": "https://dc.lft.to/lastmile_qr_scan"}, "is_reserved": 0}, {"lon": -77.22801883333334, "bike_id": "c6f3a903bc2adbc114440ce703d39333", "lat": 38.910145166666666, "fusion_lon": 0.0, "fusion_lat": 0.0, "type": "electric_bike", "name": "c6f3a903bc2adbc114440ce703d39333", "is_disabled": 0, "rental_uris": {"ios": "https://dc.lft.to/lastmile_qr_scan", "android": "https://dc.lft.to/lastmile_qr_scan"}, "is_reserved": 0}, {"lon": -76.96394816666667, "bike_id": "86c933e625a784511055bfb2905a3f4c", "lat": 38.9516905, "fusion_lon": 0.0, "fusion_lat": 0.0, "type": "electric_bike", "name": "86c933e625a784511055bfb2905a3f4c", "is_disabled": 0, "rental_uris": {"ios": "https://dc.lft.to/lastmile_qr_scan", "android": "https://dc.lft.to/lastmile_qr_scan"}, "is_reserved": 0}, {"lon": -77.04355866666667, "bike_id": "cb6b880b7ae196a55482c1a1a9cdddcd", "lat": 38.9105025, "fusion_lon": 0.0, "fusion_lat": 0.0, "type": "electric_scooter", "name": "cb6b880b7ae196a55482c1a1a9cdddcd", "is_disabled": 0, "rental_uris": {"ios": "https://dc.lft.to/lastmile_qr_scan", "android": "https://dc.lft.to/lastmile_qr_scan"}, "is_reserved": 0}, {"lon": -77.027987, "bike_id": "1c69b371bec804c8e6193482aa0dc163", "lat": 38.95394566666667, "fusion_lon": 0.0, "fusion_lat": 0.0, "type": "electric_scooter", "name": "1c69b371bec804c8e6193482aa0dc163", "is_disabled": 0, "rental_uris": {"ios": "https://dc.lft.to/lastmile_qr_scan", "android": "https://dc.lft.to/lastmile_qr_scan"}, "is_reserved": 0}, {"lon": -77.0209345, "bike_id": "0b584f5e4bf831eebc1c0d65e0239911", "lat": 38.92910583333333, "fusion_lon": 0.0, "fusion_lat": 0.0, "type": "electric_scooter", "name": "0b584f5e4bf831eebc1c0d65e0239911", "is_disabled": 0, "rental_uris": {"ios": "https://dc.lft.to/lastmile_qr_scan", "android": "https://dc.lft.to/lastmile_qr_scan"}, "is_reserved": 0}, {"lon": -77.00747083333333, "bike_id": "33fc1079c4155a4cb2f5fae8de8da028", "lat": 38.92524566666667, "fusion_lon": 0.0, "fusion_lat": 0.0, "type": "electric_scooter", "name": "33fc1079c4155a4cb2f5fae8de8da028", "is_disabled": 0, "rental_uris": {"ios": "https://dc.lft.to/lastmile_qr_scan", "android": "https://dc.lft.to/lastmile_qr_scan"}, "is_reserved": 0}, {"lon": -77.03659933333333, "bike_id": "5739930a633a51fa2aaccc2f76f13f3b", "lat": 38.912856833333336, "fusion_lon": 0.0, "fusion_lat": 0.0, "type": "electric_scooter", "name": "5739930a633a51fa2aaccc2f76f13f3b", "is_disabled": 0, "rental_uris": {"ios": "https://dc.lft.to/lastmile_qr_scan", "android": "https://dc.lft.to/lastmile_qr_scan"}, "is_reserved": 0}, {"lon": -77.03410316666667, "bike_id": "6a7f814e492ded1b265ee8baf7535268", "lat": 38.905604333333336, "fusion_lon": 0.0, "fusion_lat": 0.0, "type": "electric_scooter", "name": "6a7f814e492ded1b265ee8baf7535268", "is_disabled": 0, "rental_uris": {"ios": "https://dc.lft.to/lastmile_qr_scan", "android": "https://dc.lft.to/lastmile_qr_scan"}, "is_reserved": 0}, {"lon": -77.06522833333334, "bike_id": "235c51ed71695b22c9df97fc24aed96d", "lat": 38.9040155, "fusion_lon": 0.0, "fusion_lat": 0.0, "type": "electric_scooter", "name": "235c51ed71695b22c9df97fc24aed96d", "is_disabled": 0, "rental_uris": {"ios": "https://dc.lft.to/lastmile_qr_scan", "android": "https://dc.lft.to/lastmile_qr_scan"}, "is_reserved": 0}, {"lon": -77.0021825, "bike_id": "5bc594640e186597248df85858afba18", "lat": 38.90031233333333, "fusion_lon": 0.0, "fusion_lat": 0.0, "type": "electric_scooter", "name": "5bc594640e186597248df85858afba18", "is_disabled": 0, "rental_uris": {"ios": "https://dc.lft.to/lastmile_qr_scan", "android": "https://dc.lft.to/lastmile_qr_scan"}, "is_reserved": 0}, {"lon": -76.99019133333333, "bike_id": "b5f4b4588a178f503e53bb3549b08c05", "lat": 38.866453666666665, "fusion_lon": 0.0, "fusion_lat": 0.0, "type": "electric_scooter", "name": "b5f4b4588a178f503e53bb3549b08c05", "is_disabled": 0, "rental_uris": {"ios": "https://dc.lft.to/lastmile_qr_scan", "android": "https://dc.lft.to/lastmile_qr_scan"}, "is_reserved": 0}, {"lon": -77.0414655, "bike_id": "8ff64af201913dd48eea2a2fe454aaad", "lat": 38.899116, "fusion_lon": 0.0, "fusion_lat": 0.0, "type": "electric_scooter", "name": "8ff64af201913dd48eea2a2fe454aaad", "is_disabled": 0, "rental_uris": {"ios": "https://dc.lft.to/lastmile_qr_scan", "android": "https://dc.lft.to/lastmile_qr_scan"}, "is_reserved": 0}, {"lon": -77.03438366666667, "bike_id": "5b966d137d3744a2d9f9d4e2c2fc163a", "lat": 38.909752, "fusion_lon": 0.0, "fusion_lat": 0.0, "type": "electric_scooter", "name": "5b966d137d3744a2d9f9d4e2c2fc163a", "is_disabled": 0, "rental_uris": {"ios": "https://dc.lft.to/lastmile_qr_scan", "android": "https://dc.lft.to/lastmile_qr_scan"}, "is_reserved": 0}, {"lon": -77.0193975, "bike_id": "4e65daa8111a47bfe7994c8ddcfd7711", "lat": 38.93521116666667, "fusion_lon": 0.0, "fusion_lat": 0.0, "type": "electric_scooter", "name": "4e65daa8111a47bfe7994c8ddcfd7711", "is_disabled": 0, "rental_uris": {"ios": "https://dc.lft.to/lastmile_qr_scan", "android": "https://dc.lft.to/lastmile_qr_scan"}, "is_reserved": 0}, {"lon": -77.08072383333334, "bike_id": "5bf39831275e8d01a4905d24fe9fbeaf", "lat": 39.052793, "fusion_lon": 0.0, "fusion_lat": 0.0, "type": "electric_bike", "name": "5bf39831275e8d01a4905d24fe9fbeaf", "is_disabled": 0, "rental_uris": {"ios": "https://dc.lft.to/lastmile_qr_scan", "android": "https://dc.lft.to/lastmile_qr_scan"}, "is_reserved": 0}, {"lon": -77.0418395, "bike_id": "111b469e25f7a262410f6e5118332f8c", "lat": 38.9230485, "fusion_lon": 0.0, "fusion_lat": 0.0, "type": "electric_scooter", "name": "111b469e25f7a262410f6e5118332f8c", "is_disabled": 0, "rental_uris": {"ios": "https://dc.lft.to/lastmile_qr_scan", "android": "https://dc.lft.to/lastmile_qr_scan"}, "is_reserved": 0}, {"lon": -76.99533333333333, "bike_id": "cc2bf902b5548a83a556c0f5d7a42878", "lat": 38.88362383333333, "fusion_lon": 0.0, "fusion_lat": 0.0, "type": "electric_scooter", "name": "cc2bf902b5548a83a556c0f5d7a42878", "is_disabled": 0, "rental_uris": {"ios": "https://dc.lft.to/lastmile_qr_scan", "android": "https://dc.lft.to/lastmile_qr_scan"}, "is_reserved": 0}, {"lon": -77.0064945, "bike_id": "03343fe0656a34c581e4917c2c59e96a", "lat": 38.926194333333335, "fusion_lon": 0.0, "fusion_lat": 0.0, "type": "electric_scooter", "name": "03343fe0656a34c581e4917c2c59e96a", "is_disabled": 0, "rental_uris": {"ios": "https://dc.lft.to/lastmile_qr_scan", "android": "https://dc.lft.to/lastmile_qr_scan"}, "is_reserved": 0}, {"lon": -76.9908615, "bike_id": "ced84c430591705af0043bb9951606bd", "lat": 38.862279, "fusion_lon": 0.0, "fusion_lat": 0.0, "type": "electric_bike", "name": "ced84c430591705af0043bb9951606bd", "is_disabled": 0, "rental_uris": {"ios": "https://dc.lft.to/lastmile_qr_scan", "android": "https://dc.lft.to/lastmile_qr_scan"}, "is_reserved": 0}, {"lon": -76.9748605, "bike_id": "e377d3f12ab776f49f5091f718910b9d", "lat": 38.90348433333333, "fusion_lon": 0.0, "fusion_lat": 0.0, "type": "electric_scooter", "name": "e377d3f12ab776f49f5091f718910b9d", "is_disabled": 0, "rental_uris": {"ios": "https://dc.lft.to/lastmile_qr_scan", "android": "https://dc.lft.to/lastmile_qr_scan"}, "is_reserved": 0}, {"lon": -77.03871266666667, "bike_id": "80e2dba92f0888f6ecda13593407d084", "lat": 38.91558466666667, "fusion_lon": 0.0, "fusion_lat": 0.0, "type": "electric_scooter", "name": "80e2dba92f0888f6ecda13593407d084", "is_disabled": 0, "rental_uris": {"ios": "https://dc.lft.to/lastmile_qr_scan", "android": "https://dc.lft.to/lastmile_qr_scan"}, "is_reserved": 0}, {"lon": -77.03916033333333, "bike_id": "65767ebe8789f4655784a24b9c01e7e1", "lat": 38.92312666666667, "fusion_lon": 0.0, "fusion_lat": 0.0, "type": "electric_scooter", "name": "65767ebe8789f4655784a24b9c01e7e1", "is_disabled": 0, "rental_uris": {"ios": "https://dc.lft.to/lastmile_qr_scan", "android": "https://dc.lft.to/lastmile_qr_scan"}, "is_reserved": 0}, {"lon": -77.04875266666667, "bike_id": "ded7a9b79d051beaabbebd56c6409944", "lat": 38.8984535, "fusion_lon": 0.0, "fusion_lat": 0.0, "type": "electric_scooter", "name": "ded7a9b79d051beaabbebd56c6409944", "is_disabled": 0, "rental_uris": {"ios": "https://dc.lft.to/lastmile_qr_scan", "android": "https://dc.lft.to/lastmile_qr_scan"}, "is_reserved": 0}, {"lon": -77.02447483333333, "bike_id": "2494ef5295231d733bb1702cd5ee4d4e", "lat": 38.914114833333336, "fusion_lon": 0.0, "fusion_lat": 0.0, "type": "electric_scooter", "name": "2494ef5295231d733bb1702cd5ee4d4e", "is_disabled": 0, "rental_uris": {"ios": "https://dc.lft.to/lastmile_qr_scan", "android": "https://dc.lft.to/lastmile_qr_scan"}, "is_reserved": 0}, {"lon": -77.06003133333333, "bike_id": "2e482466075f2ead095eb2dbf548bf64", "lat": 38.90243183333333, "fusion_lon": 0.0, "fusion_lat": 0.0, "type": "electric_scooter", "name": "2e482466075f2ead095eb2dbf548bf64", "is_disabled": 0, "rental_uris": {"ios": "https://dc.lft.to/lastmile_qr_scan", "android": "https://dc.lft.to/lastmile_qr_scan"}, "is_reserved": 0}, {"lon": -77.04622616666667, "bike_id": "2e81cd49a2c613882d9d28e4ba86da3c", "lat": 38.915637, "fusion_lon": 0.0, "fusion_lat": 0.0, "type": "electric_scooter", "name": "2e81cd49a2c613882d9d28e4ba86da3c", "is_disabled": 0, "rental_uris": {"ios": "https://dc.lft.to/lastmile_qr_scan", "android": "https://dc.lft.to/lastmile_qr_scan"}, "is_reserved": 0}, {"lon": -76.99611266666666, "bike_id": "8e5caa931290c8f85b9bee630a83a3e3", "lat": 38.88696066666667, "fusion_lon": 0.0, "fusion_lat": 0.0, "type": "electric_scooter", "name": "8e5caa931290c8f85b9bee630a83a3e3", "is_disabled": 0, "rental_uris": {"ios": "https://dc.lft.to/lastmile_qr_scan", "android": "https://dc.lft.to/lastmile_qr_scan"}, "is_reserved": 0}, {"lon": -77.016351, "bike_id": "9e7f9960bc06af48ebb5ba06a4f5fe84", "lat": 38.90339816666667, "fusion_lon": 0.0, "fusion_lat": 0.0, "type": "electric_scooter", "name": "9e7f9960bc06af48ebb5ba06a4f5fe84", "is_disabled": 0, "rental_uris": {"ios": "https://dc.lft.to/lastmile_qr_scan", "android": "https://dc.lft.to/lastmile_qr_scan"}, "is_reserved": 0}, {"lon": -77.0160175, "bike_id": "d91a4c5f7531c64289bbb8b539a4dfa6", "lat": 38.901726833333335, "fusion_lon": 0.0, "fusion_lat": 0.0, "type": "electric_scooter", "name": "d91a4c5f7531c64289bbb8b539a4dfa6", "is_disabled": 0, "rental_uris": {"ios": "https://dc.lft.to/lastmile_qr_scan", "android": "https://dc.lft.to/lastmile_qr_scan"}, "is_reserved": 0}, {"lon": -77.02405133333333, "bike_id": "2f4d6ccfb0c97e2d90018f5c667ffecb", "lat": 38.919806666666666, "fusion_lon": 0.0, "fusion_lat": 0.0, "type": "electric_scooter", "name": "2f4d6ccfb0c97e2d90018f5c667ffecb", "is_disabled": 0, "rental_uris": {"ios": "https://dc.lft.to/lastmile_qr_scan", "android": "https://dc.lft.to/lastmile_qr_scan"}, "is_reserved": 0}, {"lon": -77.02968383333334, "bike_id": "9ce1420fb8674f7a4b7fdf7a02fcddb0", "lat": 38.923859666666665, "fusion_lon": 0.0, "fusion_lat": 0.0, "type": "electric_scooter", "name": "9ce1420fb8674f7a4b7fdf7a02fcddb0", "is_disabled": 0, "rental_uris": {"ios": "https://dc.lft.to/lastmile_qr_scan", "android": "https://dc.lft.to/lastmile_qr_scan"}, "is_reserved": 0}, {"lon": -77.02119383333333, "bike_id": "30faa2abe699ddc6426ecb921e5b70f9", "lat": 38.9370095, "fusion_lon": 0.0, "fusion_lat": 0.0, "type": "electric_scooter", "name": "30faa2abe699ddc6426ecb921e5b70f9", "is_disabled": 0, "rental_uris": {"ios": "https://dc.lft.to/lastmile_qr_scan", "android": "https://dc.lft.to/lastmile_qr_scan"}, "is_reserved": 0}, {"lon": -77.0251785, "bike_id": "c9a54684cdb396d0289f1fccc97eaf29", "lat": 38.93093366666667, "fusion_lon": 0.0, "fusion_lat": 0.0, "type": "electric_scooter", "name": "c9a54684cdb396d0289f1fccc97eaf29", "is_disabled": 0, "rental_uris": {"ios": "https://dc.lft.to/lastmile_qr_scan", "android": "https://dc.lft.to/lastmile_qr_scan"}, "is_reserved": 0}, {"lon": -77.0178235, "bike_id": "1d07dda39b887123b4fddd99629d8548", "lat": 38.877067333333336, "fusion_lon": 0.0, "fusion_lat": 0.0, "type": "electric_scooter", "name": "1d07dda39b887123b4fddd99629d8548", "is_disabled": 0, "rental_uris": {"ios": "https://dc.lft.to/lastmile_qr_scan", "android": "https://dc.lft.to/lastmile_qr_scan"}, "is_reserved": 0}, {"lon": -77.03172233333333, "bike_id": "f054c2e33bad56698ffd2f1c8f52e40d", "lat": 38.9141515, "fusion_lon": 0.0, "fusion_lat": 0.0, "type": "electric_scooter", "name": "f054c2e33bad56698ffd2f1c8f52e40d", "is_disabled": 0, "rental_uris": {"ios": "https://dc.lft.to/lastmile_qr_scan", "android": "https://dc.lft.to/lastmile_qr_scan"}, "is_reserved": 0}, {"lon": -77.02951283333333, "bike_id": "35a665770c185b676796e85f18fe3e0c", "lat": 38.923678333333335, "fusion_lon": 0.0, "fusion_lat": 0.0, "type": "electric_scooter", "name": "35a665770c185b676796e85f18fe3e0c", "is_disabled": 0, "rental_uris": {"ios": "https://dc.lft.to/lastmile_qr_scan", "android": "https://dc.lft.to/lastmile_qr_scan"}, "is_reserved": 0}, {"lon": -76.93355783333334, "bike_id": "46b4683885cddee65b78a4af9a5a2f08", "lat": 38.888009833333335, "fusion_lon": 0.0, "fusion_lat": 0.0, "type": "electric_scooter", "name": "46b4683885cddee65b78a4af9a5a2f08", "is_disabled": 0, "rental_uris": {"ios": "https://dc.lft.to/lastmile_qr_scan", "android": "https://dc.lft.to/lastmile_qr_scan"}, "is_reserved": 0}, {"lon": -77.0481345, "bike_id": "e41cbc504d831d42d6ab48fdf5d9ebbf", "lat": 38.909524166666664, "fusion_lon": 0.0, "fusion_lat": 0.0, "type": "electric_scooter", "name": "e41cbc504d831d42d6ab48fdf5d9ebbf", "is_disabled": 0, "rental_uris": {"ios": "https://dc.lft.to/lastmile_qr_scan", "android": "https://dc.lft.to/lastmile_qr_scan"}, "is_reserved": 0}, {"lon": -77.01002216666667, "bike_id": "9c12e76884f0af413fd9ba6f379475e3", "lat": 38.9192135, "fusion_lon": 0.0, "fusion_lat": 0.0, "type": "electric_scooter", "name": "9c12e76884f0af413fd9ba6f379475e3", "is_disabled": 0, "rental_uris": {"ios": "https://dc.lft.to/lastmile_qr_scan", "android": "https://dc.lft.to/lastmile_qr_scan"}, "is_reserved": 0}, {"lon": -77.04246183333333, "bike_id": "b3e2b240b56f40a790fa33479edbfc79", "lat": 38.90707183333333, "fusion_lon": 0.0, "fusion_lat": 0.0, "type": "electric_scooter", "name": "b3e2b240b56f40a790fa33479edbfc79", "is_disabled": 0, "rental_uris": {"ios": "https://dc.lft.to/lastmile_qr_scan", "android": "https://dc.lft.to/lastmile_qr_scan"}, "is_reserved": 0}, {"lon": -76.946353, "bike_id": "47335de81cae5c02965d70b4ed942948", "lat": 38.89832, "fusion_lon": 0.0, "fusion_lat": 0.0, "type": "electric_scooter", "name": "47335de81cae5c02965d70b4ed942948", "is_disabled": 0, "rental_uris": {"ios": "https://dc.lft.to/lastmile_qr_scan", "android": "https://dc.lft.to/lastmile_qr_scan"}, "is_reserved": 0}, {"lon": -76.98377233333333, "bike_id": "d0ecefd1b274ad57f81e3bc6bc694f26", "lat": 38.89967516666667, "fusion_lon": 0.0, "fusion_lat": 0.0, "type": "electric_scooter", "name": "d0ecefd1b274ad57f81e3bc6bc694f26", "is_disabled": 0, "rental_uris": {"ios": "https://dc.lft.to/lastmile_qr_scan", "android": "https://dc.lft.to/lastmile_qr_scan"}, "is_reserved": 0}, {"lon": -77.0507005, "bike_id": "1d34d49fd51343eed5dfec9c290e7b5d", "lat": 38.900812, "fusion_lon": 0.0, "fusion_lat": 0.0, "type": "electric_scooter", "name": "1d34d49fd51343eed5dfec9c290e7b5d", "is_disabled": 0, "rental_uris": {"ios": "https://dc.lft.to/lastmile_qr_scan", "android": "https://dc.lft.to/lastmile_qr_scan"}, "is_reserved": 0}, {"lon": -77.003711, "bike_id": "a6ab1f2595bad41e8f44a1b29c495c5a", "lat": 38.89728566666667, "fusion_lon": 0.0, "fusion_lat": 0.0, "type": "electric_scooter", "name": "a6ab1f2595bad41e8f44a1b29c495c5a", "is_disabled": 0, "rental_uris": {"ios": "https://dc.lft.to/lastmile_qr_scan", "android": "https://dc.lft.to/lastmile_qr_scan"}, "is_reserved": 0}, {"lon": -77.0221485, "bike_id": "8e35631f6c6d04a64b10435fa9251bed", "lat": 38.89827916666667, "fusion_lon": 0.0, "fusion_lat": 0.0, "type": "electric_scooter", "name": "8e35631f6c6d04a64b10435fa9251bed", "is_disabled": 0, "rental_uris": {"ios": "https://dc.lft.to/lastmile_qr_scan", "android": "https://dc.lft.to/lastmile_qr_scan"}, "is_reserved": 0}, {"lon": -77.02428833333333, "bike_id": "7f215793c8239617f5b42c4539bac8f0", "lat": 38.926557333333335, "fusion_lon": 0.0, "fusion_lat": 0.0, "type": "electric_scooter", "name": "7f215793c8239617f5b42c4539bac8f0", "is_disabled": 0, "rental_uris": {"ios": "https://dc.lft.to/lastmile_qr_scan", "android": "https://dc.lft.to/lastmile_qr_scan"}, "is_reserved": 0}, {"lon": -77.02856516666667, "bike_id": "68486b75e02a51876b229e24aacfdb26", "lat": 38.932727166666666, "fusion_lon": 0.0, "fusion_lat": 0.0, "type": "electric_scooter", "name": "68486b75e02a51876b229e24aacfdb26", "is_disabled": 0, "rental_uris": {"ios": "https://dc.lft.to/lastmile_qr_scan", "android": "https://dc.lft.to/lastmile_qr_scan"}, "is_reserved": 0}, {"lon": -77.02170216666667, "bike_id": "73ab019f3579593f9da13ff9bb69026e", "lat": 38.899475333333335, "fusion_lon": 0.0, "fusion_lat": 0.0, "type": "electric_scooter", "name": "73ab019f3579593f9da13ff9bb69026e", "is_disabled": 0, "rental_uris": {"ios": "https://dc.lft.to/lastmile_qr_scan", "android": "https://dc.lft.to/lastmile_qr_scan"}, "is_reserved": 0}, {"lon": -77.13106216666667, "bike_id": "32bd6ebf54b0bfd0a7f4698dd6e560bc", "lat": 39.02432683333333, "fusion_lon": 0.0, "fusion_lat": 0.0, "type": "electric_bike", "name": "32bd6ebf54b0bfd0a7f4698dd6e560bc", "is_disabled": 0, "rental_uris": {"ios": "https://dc.lft.to/lastmile_qr_scan", "android": "https://dc.lft.to/lastmile_qr_scan"}, "is_reserved": 0}, {"lon": -77.03266733333334, "bike_id": "a0503d81f5247630976e32b68d8125c6", "lat": 38.92538366666667, "fusion_lon": 0.0, "fusion_lat": 0.0, "type": "electric_scooter", "name": "a0503d81f5247630976e32b68d8125c6", "is_disabled": 0, "rental_uris": {"ios": "https://dc.lft.to/lastmile_qr_scan", "android": "https://dc.lft.to/lastmile_qr_scan"}, "is_reserved": 0}, {"lon": -77.01932766666667, "bike_id": "af22ea8968b5c249b1f2330aa7d13b3b", "lat": 38.92224133333333, "fusion_lon": 0.0, "fusion_lat": 0.0, "type": "electric_scooter", "name": "af22ea8968b5c249b1f2330aa7d13b3b", "is_disabled": 0, "rental_uris": {"ios": "https://dc.lft.to/lastmile_qr_scan", "android": "https://dc.lft.to/lastmile_qr_scan"}, "is_reserved": 0}, {"lon": -77.06393833333334, "bike_id": "16011180ca4b78bfe0eb66ac6a26cc89", "lat": 38.908230833333334, "fusion_lon": 0.0, "fusion_lat": 0.0, "type": "electric_scooter", "name": "16011180ca4b78bfe0eb66ac6a26cc89", "is_disabled": 0, "rental_uris": {"ios": "https://dc.lft.to/lastmile_qr_scan", "android": "https://dc.lft.to/lastmile_qr_scan"}, "is_reserved": 0}, {"lon": -76.8749615, "bike_id": "11ce672c583679091bc9f24628e74a9b", "lat": 38.99089633333333, "fusion_lon": 0.0, "fusion_lat": 0.0, "type": "electric_bike", "name": "11ce672c583679091bc9f24628e74a9b", "is_disabled": 0, "rental_uris": {"ios": "https://dc.lft.to/lastmile_qr_scan", "android": "https://dc.lft.to/lastmile_qr_scan"}, "is_reserved": 0}, {"lon": -77.07168683333333, "bike_id": "35166f54e7443c18fe2112ab36f1deb1", "lat": 38.907947166666666, "fusion_lon": 0.0, "fusion_lat": 0.0, "type": "electric_bike", "name": "35166f54e7443c18fe2112ab36f1deb1", "is_disabled": 0, "rental_uris": {"ios": "https://dc.lft.to/lastmile_qr_scan", "android": "https://dc.lft.to/lastmile_qr_scan"}, "is_reserved": 0}, {"lon": -77.03427433333333, "bike_id": "5d90acace256cdb7e4549f6ef206360f", "lat": 38.933475333333334, "fusion_lon": 0.0, "fusion_lat": 0.0, "type": "electric_scooter", "name": "5d90acace256cdb7e4549f6ef206360f", "is_disabled": 0, "rental_uris": {"ios": "https://dc.lft.to/lastmile_qr_scan", "android": "https://dc.lft.to/lastmile_qr_scan"}, "is_reserved": 0}, {"lon": -77.038687, "bike_id": "6084679d9761bda5ce116f1b24181b56", "lat": 38.91250216666667, "fusion_lon": 0.0, "fusion_lat": 0.0, "type": "electric_scooter", "name": "6084679d9761bda5ce116f1b24181b56", "is_disabled": 0, "rental_uris": {"ios": "https://dc.lft.to/lastmile_qr_scan", "android": "https://dc.lft.to/lastmile_qr_scan"}, "is_reserved": 0}, {"lon": -77.00651316666666, "bike_id": "300e2ce3b2d5f8d676e29a0dc520c579", "lat": 38.83888366666667, "fusion_lon": 0.0, "fusion_lat": 0.0, "type": "electric_scooter", "name": "300e2ce3b2d5f8d676e29a0dc520c579", "is_disabled": 0, "rental_uris": {"ios": "https://dc.lft.to/lastmile_qr_scan", "android": "https://dc.lft.to/lastmile_qr_scan"}, "is_reserved": 0}, {"lon": -77.040923, "bike_id": "aa3c1b7118e304a969d70fff72d9dbe1", "lat": 38.9168255, "fusion_lon": 0.0, "fusion_lat": 0.0, "type": "electric_scooter", "name": "aa3c1b7118e304a969d70fff72d9dbe1", "is_disabled": 0, "rental_uris": {"ios": "https://dc.lft.to/lastmile_qr_scan", "android": "https://dc.lft.to/lastmile_qr_scan"}, "is_reserved": 0}, {"lon": -76.930199, "bike_id": "7c2dc1dbd4f793d7239931167bdc8b3a", "lat": 38.8965275, "fusion_lon": 0.0, "fusion_lat": 0.0, "type": "electric_bike", "name": "7c2dc1dbd4f793d7239931167bdc8b3a", "is_disabled": 0, "rental_uris": {"ios": "https://dc.lft.to/lastmile_qr_scan", "android": "https://dc.lft.to/lastmile_qr_scan"}, "is_reserved": 0}, {"lon": -76.931761, "bike_id": "1ae8c1a898d228152e4b058f2d2599c3", "lat": 38.89881833333333, "fusion_lon": 0.0, "fusion_lat": 0.0, "type": "electric_scooter", "name": "1ae8c1a898d228152e4b058f2d2599c3", "is_disabled": 0, "rental_uris": {"ios": "https://dc.lft.to/lastmile_qr_scan", "android": "https://dc.lft.to/lastmile_qr_scan"}, "is_reserved": 0}, {"lon": -76.936453, "bike_id": "38942ef235eb85e7fb575789da5eadb4", "lat": 38.90059383333333, "fusion_lon": 0.0, "fusion_lat": 0.0, "type": "electric_scooter", "name": "38942ef235eb85e7fb575789da5eadb4", "is_disabled": 0, "rental_uris": {"ios": "https://dc.lft.to/lastmile_qr_scan", "android": "https://dc.lft.to/lastmile_qr_scan"}, "is_reserved": 0}, {"lon": -76.95752433333334, "bike_id": "b2ca4fdcea9ddef35a34d988c22b0c92", "lat": 38.88424833333333, "fusion_lon": 0.0, "fusion_lat": 0.0, "type": "electric_scooter", "name": "b2ca4fdcea9ddef35a34d988c22b0c92", "is_disabled": 0, "rental_uris": {"ios": "https://dc.lft.to/lastmile_qr_scan", "android": "https://dc.lft.to/lastmile_qr_scan"}, "is_reserved": 0}, {"lon": -77.03290733333333, "bike_id": "ebda1e47578e42ed877affec4c05bd49", "lat": 38.95644216666667, "fusion_lon": 0.0, "fusion_lat": 0.0, "type": "electric_scooter", "name": "ebda1e47578e42ed877affec4c05bd49", "is_disabled": 0, "rental_uris": {"ios": "https://dc.lft.to/lastmile_qr_scan", "android": "https://dc.lft.to/lastmile_qr_scan"}, "is_reserved": 0}, {"lon": -77.03871733333334, "bike_id": "4e3c6d9e95dfef45f90cc7afe38f2f37", "lat": 38.9154955, "fusion_lon": 0.0, "fusion_lat": 0.0, "type": "electric_scooter", "name": "4e3c6d9e95dfef45f90cc7afe38f2f37", "is_disabled": 0, "rental_uris": {"ios": "https://dc.lft.to/lastmile_qr_scan", "android": "https://dc.lft.to/lastmile_qr_scan"}, "is_reserved": 0}, {"lon": -77.00072866666666, "bike_id": "f83c402490d11033603474ff70f086b2", "lat": 38.90139333333333, "fusion_lon": 0.0, "fusion_lat": 0.0, "type": "electric_scooter", "name": "f83c402490d11033603474ff70f086b2", "is_disabled": 0, "rental_uris": {"ios": "https://dc.lft.to/lastmile_qr_scan", "android": "https://dc.lft.to/lastmile_qr_scan"}, "is_reserved": 0}, {"lon": -77.02446716666667, "bike_id": "56dae299b7c7394a9a580193d5d2c81e", "lat": 38.902600166666666, "fusion_lon": 0.0, "fusion_lat": 0.0, "type": "electric_scooter", "name": "56dae299b7c7394a9a580193d5d2c81e", "is_disabled": 0, "rental_uris": {"ios": "https://dc.lft.to/lastmile_qr_scan", "android": "https://dc.lft.to/lastmile_qr_scan"}, "is_reserved": 0}, {"lon": -77.03666066666666, "bike_id": "b38f3dd52b0605feabfaa7a9524a2071", "lat": 38.93331883333333, "fusion_lon": 0.0, "fusion_lat": 0.0, "type": "electric_scooter", "name": "b38f3dd52b0605feabfaa7a9524a2071", "is_disabled": 0, "rental_uris": {"ios": "https://dc.lft.to/lastmile_qr_scan", "android": "https://dc.lft.to/lastmile_qr_scan"}, "is_reserved": 0}, {"lon": -77.02939966666666, "bike_id": "e92b36c156f2caa821e149a151220527", "lat": 38.916865666666666, "fusion_lon": 0.0, "fusion_lat": 0.0, "type": "electric_scooter", "name": "e92b36c156f2caa821e149a151220527", "is_disabled": 0, "rental_uris": {"ios": "https://dc.lft.to/lastmile_qr_scan", "android": "https://dc.lft.to/lastmile_qr_scan"}, "is_reserved": 0}, {"lon": -76.98247983333333, "bike_id": "598fb1c255e7c972670508572854ebe8", "lat": 38.86460366666667, "fusion_lon": 0.0, "fusion_lat": 0.0, "type": "electric_scooter", "name": "598fb1c255e7c972670508572854ebe8", "is_disabled": 0, "rental_uris": {"ios": "https://dc.lft.to/lastmile_qr_scan", "android": "https://dc.lft.to/lastmile_qr_scan"}, "is_reserved": 0}, {"lon": -77.02335866666667, "bike_id": "468812c1e5c51c3959acd274a13953c2", "lat": 38.90849033333333, "fusion_lon": 0.0, "fusion_lat": 0.0, "type": "electric_scooter", "name": "468812c1e5c51c3959acd274a13953c2", "is_disabled": 0, "rental_uris": {"ios": "https://dc.lft.to/lastmile_qr_scan", "android": "https://dc.lft.to/lastmile_qr_scan"}, "is_reserved": 0}, {"lon": -77.03254983333333, "bike_id": "bb650ecf45a91fdd5a041c2d93d6d80a", "lat": 38.92897, "fusion_lon": 0.0, "fusion_lat": 0.0, "type": "electric_scooter", "name": "bb650ecf45a91fdd5a041c2d93d6d80a", "is_disabled": 0, "rental_uris": {"ios": "https://dc.lft.to/lastmile_qr_scan", "android": "https://dc.lft.to/lastmile_qr_scan"}, "is_reserved": 0}, {"lon": -77.00965533333333, "bike_id": "9c36bba395329f8996e3970ef5bae91c", "lat": 38.92135283333333, "fusion_lon": 0.0, "fusion_lat": 0.0, "type": "electric_scooter", "name": "9c36bba395329f8996e3970ef5bae91c", "is_disabled": 0, "rental_uris": {"ios": "https://dc.lft.to/lastmile_qr_scan", "android": "https://dc.lft.to/lastmile_qr_scan"}, "is_reserved": 0}, {"lon": -77.01139183333333, "bike_id": "8a7b97c68dcb37975f9a51a271cc7ccc", "lat": 38.90730283333333, "fusion_lon": 0.0, "fusion_lat": 0.0, "type": "electric_scooter", "name": "8a7b97c68dcb37975f9a51a271cc7ccc", "is_disabled": 0, "rental_uris": {"ios": "https://dc.lft.to/lastmile_qr_scan", "android": "https://dc.lft.to/lastmile_qr_scan"}, "is_reserved": 0}, {"lon": -76.99789433333333, "bike_id": "18699a5ebb9ba23a7ab042f397dbfc3d", "lat": 38.8909235, "fusion_lon": 0.0, "fusion_lat": 0.0, "type": "electric_scooter", "name": "18699a5ebb9ba23a7ab042f397dbfc3d", "is_disabled": 0, "rental_uris": {"ios": "https://dc.lft.to/lastmile_qr_scan", "android": "https://dc.lft.to/lastmile_qr_scan"}, "is_reserved": 0}, {"lon": -77.00360883333333, "bike_id": "a396c2f295a096480ee36babec2de7da", "lat": 38.895374, "fusion_lon": 0.0, "fusion_lat": 0.0, "type": "electric_scooter", "name": "a396c2f295a096480ee36babec2de7da", "is_disabled": 0, "rental_uris": {"ios": "https://dc.lft.to/lastmile_qr_scan", "android": "https://dc.lft.to/lastmile_qr_scan"}, "is_reserved": 0}, {"lon": -76.999339, "bike_id": "368d0d881ea6c216c6b88c40ae651832", "lat": 38.907504333333335, "fusion_lon": 0.0, "fusion_lat": 0.0, "type": "electric_scooter", "name": "368d0d881ea6c216c6b88c40ae651832", "is_disabled": 0, "rental_uris": {"ios": "https://dc.lft.to/lastmile_qr_scan", "android": "https://dc.lft.to/lastmile_qr_scan"}, "is_reserved": 0}, {"lon": -76.98107833333333, "bike_id": "43272ca4aca7351e6d9836888052f39e", "lat": 38.87732416666667, "fusion_lon": 0.0, "fusion_lat": 0.0, "type": "electric_bike", "name": "43272ca4aca7351e6d9836888052f39e", "is_disabled": 0, "rental_uris": {"ios": "https://dc.lft.to/lastmile_qr_scan", "android": "https://dc.lft.to/lastmile_qr_scan"}, "is_reserved": 0}, {"lon": -77.0332555, "bike_id": "c8bc52cea7e6b166d240f748718564fa", "lat": 38.92648783333333, "fusion_lon": 0.0, "fusion_lat": 0.0, "type": "electric_scooter", "name": "c8bc52cea7e6b166d240f748718564fa", "is_disabled": 0, "rental_uris": {"ios": "https://dc.lft.to/lastmile_qr_scan", "android": "https://dc.lft.to/lastmile_qr_scan"}, "is_reserved": 0}, {"lon": -76.9991655, "bike_id": "dc639d5de87d7ebe7b5d787b05279303", "lat": 38.8897425, "fusion_lon": 0.0, "fusion_lat": 0.0, "type": "electric_scooter", "name": "dc639d5de87d7ebe7b5d787b05279303", "is_disabled": 0, "rental_uris": {"ios": "https://dc.lft.to/lastmile_qr_scan", "android": "https://dc.lft.to/lastmile_qr_scan"}, "is_reserved": 0}, {"lon": -77.023519, "bike_id": "7156c2f59dd93dd06e2d75c352c8d7e9", "lat": 38.92246033333333, "fusion_lon": 0.0, "fusion_lat": 0.0, "type": "electric_scooter", "name": "7156c2f59dd93dd06e2d75c352c8d7e9", "is_disabled": 0, "rental_uris": {"ios": "https://dc.lft.to/lastmile_qr_scan", "android": "https://dc.lft.to/lastmile_qr_scan"}, "is_reserved": 0}, {"lon": -77.036622, "bike_id": "a30e4e7d468b81248471abcee49f174e", "lat": 38.932011, "fusion_lon": 0.0, "fusion_lat": 0.0, "type": "electric_scooter", "name": "a30e4e7d468b81248471abcee49f174e", "is_disabled": 0, "rental_uris": {"ios": "https://dc.lft.to/lastmile_qr_scan", "android": "https://dc.lft.to/lastmile_qr_scan"}, "is_reserved": 0}, {"lon": -76.987005, "bike_id": "7dfc9620e2ffb8fea91d8b18571d581c", "lat": 38.912184, "fusion_lon": 0.0, "fusion_lat": 0.0, "type": "electric_scooter", "name": "7dfc9620e2ffb8fea91d8b18571d581c", "is_disabled": 0, "rental_uris": {"ios": "https://dc.lft.to/lastmile_qr_scan", "android": "https://dc.lft.to/lastmile_qr_scan"}, "is_reserved": 0}, {"lon": -77.03704, "bike_id": "9c27ed13706d8202535d6440b56d77b9", "lat": 38.92645066666667, "fusion_lon": 0.0, "fusion_lat": 0.0, "type": "electric_scooter", "name": "9c27ed13706d8202535d6440b56d77b9", "is_disabled": 0, "rental_uris": {"ios": "https://dc.lft.to/lastmile_qr_scan", "android": "https://dc.lft.to/lastmile_qr_scan"}, "is_reserved": 0}, {"lon": -76.95538016666667, "bike_id": "44f46a72bfaf812d47077254e8dd2eaf", "lat": 38.888693333333336, "fusion_lon": 0.0, "fusion_lat": 0.0, "type": "electric_scooter", "name": "44f46a72bfaf812d47077254e8dd2eaf", "is_disabled": 0, "rental_uris": {"ios": "https://dc.lft.to/lastmile_qr_scan", "android": "https://dc.lft.to/lastmile_qr_scan"}, "is_reserved": 0}, {"lon": -77.01504933333334, "bike_id": "4e8975170b6ed40a2d035cc906b987fb", "lat": 38.900139, "fusion_lon": 0.0, "fusion_lat": 0.0, "type": "electric_scooter", "name": "4e8975170b6ed40a2d035cc906b987fb", "is_disabled": 0, "rental_uris": {"ios": "https://dc.lft.to/lastmile_qr_scan", "android": "https://dc.lft.to/lastmile_qr_scan"}, "is_reserved": 0}, {"lon": -77.04116166666667, "bike_id": "8d2da170217dd1970292d7d20a6d39f2", "lat": 38.90861366666667, "fusion_lon": 0.0, "fusion_lat": 0.0, "type": "electric_scooter", "name": "8d2da170217dd1970292d7d20a6d39f2", "is_disabled": 0, "rental_uris": {"ios": "https://dc.lft.to/lastmile_qr_scan", "android": "https://dc.lft.to/lastmile_qr_scan"}, "is_reserved": 0}, {"lon": -77.00495566666666, "bike_id": "49c5138ec670145df600fcb3a3a9de8a", "lat": 38.90554266666667, "fusion_lon": 0.0, "fusion_lat": 0.0, "type": "electric_scooter", "name": "49c5138ec670145df600fcb3a3a9de8a", "is_disabled": 0, "rental_uris": {"ios": "https://dc.lft.to/lastmile_qr_scan", "android": "https://dc.lft.to/lastmile_qr_scan"}, "is_reserved": 0}, {"lon": -76.99676266666667, "bike_id": "c8755eaa5151d3c18c32a87b3d8df25c", "lat": 38.8601745, "fusion_lon": 0.0, "fusion_lat": 0.0, "type": "electric_scooter", "name": "c8755eaa5151d3c18c32a87b3d8df25c", "is_disabled": 0, "rental_uris": {"ios": "https://dc.lft.to/lastmile_qr_scan", "android": "https://dc.lft.to/lastmile_qr_scan"}, "is_reserved": 0}, {"lon": -77.03536433333333, "bike_id": "59b8f6354125430641e32fa985a17450", "lat": 38.91845166666667, "fusion_lon": 0.0, "fusion_lat": 0.0, "type": "electric_scooter", "name": "59b8f6354125430641e32fa985a17450", "is_disabled": 0, "rental_uris": {"ios": "https://dc.lft.to/lastmile_qr_scan", "android": "https://dc.lft.to/lastmile_qr_scan"}, "is_reserved": 0}, {"lon": -77.04131483333333, "bike_id": "bf135af890f106dd2dfaf7d2ba162fcd", "lat": 38.89937333333334, "fusion_lon": 0.0, "fusion_lat": 0.0, "type": "electric_scooter", "name": "bf135af890f106dd2dfaf7d2ba162fcd", "is_disabled": 0, "rental_uris": {"ios": "https://dc.lft.to/lastmile_qr_scan", "android": "https://dc.lft.to/lastmile_qr_scan"}, "is_reserved": 0}, {"lon": -76.97520583333333, "bike_id": "04e7282a26ff6fe6060f343a80068f02", "lat": 38.96695316666667, "fusion_lon": 0.0, "fusion_lat": 0.0, "type": "electric_bike", "name": "04e7282a26ff6fe6060f343a80068f02", "is_disabled": 0, "rental_uris": {"ios": "https://dc.lft.to/lastmile_qr_scan", "android": "https://dc.lft.to/lastmile_qr_scan"}, "is_reserved": 0}, {"lon": -77.02366733333334, "bike_id": "77754ba3f43eca25329cc3216d87821a", "lat": 38.89220866666667, "fusion_lon": 0.0, "fusion_lat": 0.0, "type": "electric_scooter", "name": "77754ba3f43eca25329cc3216d87821a", "is_disabled": 0, "rental_uris": {"ios": "https://dc.lft.to/lastmile_qr_scan", "android": "https://dc.lft.to/lastmile_qr_scan"}, "is_reserved": 0}, {"lon": -77.05065716666667, "bike_id": "9ed457ef17fdce4e24c8aa4c660b7212", "lat": 38.9071565, "fusion_lon": 0.0, "fusion_lat": 0.0, "type": "electric_scooter", "name": "9ed457ef17fdce4e24c8aa4c660b7212", "is_disabled": 0, "rental_uris": {"ios": "https://dc.lft.to/lastmile_qr_scan", "android": "https://dc.lft.to/lastmile_qr_scan"}, "is_reserved": 0}, {"lon": -77.02939666666667, "bike_id": "4e83c58ee3e9376933918f71bbfe71c9", "lat": 38.904746, "fusion_lon": 0.0, "fusion_lat": 0.0, "type": "electric_scooter", "name": "4e83c58ee3e9376933918f71bbfe71c9", "is_disabled": 0, "rental_uris": {"ios": "https://dc.lft.to/lastmile_qr_scan", "android": "https://dc.lft.to/lastmile_qr_scan"}, "is_reserved": 0}, {"lon": -77.053119, "bike_id": "c0ffbf4137b47d0b45130c2a51259373", "lat": 38.90071833333333, "fusion_lon": 0.0, "fusion_lat": 0.0, "type": "electric_scooter", "name": "c0ffbf4137b47d0b45130c2a51259373", "is_disabled": 0, "rental_uris": {"ios": "https://dc.lft.to/lastmile_qr_scan", "android": "https://dc.lft.to/lastmile_qr_scan"}, "is_reserved": 0}, {"lon": -77.02088766666667, "bike_id": "fc3ff0c7d1ef7dcf649180dbe4920547", "lat": 38.95747516666667, "fusion_lon": 0.0, "fusion_lat": 0.0, "type": "electric_scooter", "name": "fc3ff0c7d1ef7dcf649180dbe4920547", "is_disabled": 0, "rental_uris": {"ios": "https://dc.lft.to/lastmile_qr_scan", "android": "https://dc.lft.to/lastmile_qr_scan"}, "is_reserved": 0}, {"lon": -77.0387315, "bike_id": "66133d7cd4bcaaa37b1dfe22053fa06a", "lat": 38.911686833333334, "fusion_lon": 0.0, "fusion_lat": 0.0, "type": "electric_scooter", "name": "66133d7cd4bcaaa37b1dfe22053fa06a", "is_disabled": 0, "rental_uris": {"ios": "https://dc.lft.to/lastmile_qr_scan", "android": "https://dc.lft.to/lastmile_qr_scan"}, "is_reserved": 0}, {"lon": -77.0338975, "bike_id": "8d595b1050e5a73575c6b0df2cb0d141", "lat": 38.909686, "fusion_lon": 0.0, "fusion_lat": 0.0, "type": "electric_scooter", "name": "8d595b1050e5a73575c6b0df2cb0d141", "is_disabled": 0, "rental_uris": {"ios": "https://dc.lft.to/lastmile_qr_scan", "android": "https://dc.lft.to/lastmile_qr_scan"}, "is_reserved": 0}, {"lon": -77.07117616666666, "bike_id": "340b81eb123037844f311f2996e750bf", "lat": 38.919731, "fusion_lon": 0.0, "fusion_lat": 0.0, "type": "electric_scooter", "name": "340b81eb123037844f311f2996e750bf", "is_disabled": 0, "rental_uris": {"ios": "https://dc.lft.to/lastmile_qr_scan", "android": "https://dc.lft.to/lastmile_qr_scan"}, "is_reserved": 0}, {"lon": -76.94998, "bike_id": "b10873b798feb8708bd41cbf4743ece0", "lat": 38.893762833333334, "fusion_lon": 0.0, "fusion_lat": 0.0, "type": "electric_scooter", "name": "b10873b798feb8708bd41cbf4743ece0", "is_disabled": 0, "rental_uris": {"ios": "https://dc.lft.to/lastmile_qr_scan", "android": "https://dc.lft.to/lastmile_qr_scan"}, "is_reserved": 0}, {"lon": -76.9889085, "bike_id": "3533d15645c26d4650d13ff6b3836f82", "lat": 38.8664855, "fusion_lon": 0.0, "fusion_lat": 0.0, "type": "electric_scooter", "name": "3533d15645c26d4650d13ff6b3836f82", "is_disabled": 0, "rental_uris": {"ios": "https://dc.lft.to/lastmile_qr_scan", "android": "https://dc.lft.to/lastmile_qr_scan"}, "is_reserved": 0}, {"lon": -77.02699283333334, "bike_id": "a050d8aaeae4eb51c6ad19df32dd4e0e", "lat": 38.90844233333333, "fusion_lon": 0.0, "fusion_lat": 0.0, "type": "electric_scooter", "name": "a050d8aaeae4eb51c6ad19df32dd4e0e", "is_disabled": 0, "rental_uris": {"ios": "https://dc.lft.to/lastmile_qr_scan", "android": "https://dc.lft.to/lastmile_qr_scan"}, "is_reserved": 0}, {"lon": -77.0279975, "bike_id": "e2a7ab8d47eb084ba756b026dd616625", "lat": 38.929590833333336, "fusion_lon": 0.0, "fusion_lat": 0.0, "type": "electric_scooter", "name": "e2a7ab8d47eb084ba756b026dd616625", "is_disabled": 0, "rental_uris": {"ios": "https://dc.lft.to/lastmile_qr_scan", "android": "https://dc.lft.to/lastmile_qr_scan"}, "is_reserved": 0}, {"lon": -77.00108083333333, "bike_id": "aace0a7324e46a5821717358a3814596", "lat": 38.9123995, "fusion_lon": 0.0, "fusion_lat": 0.0, "type": "electric_scooter", "name": "aace0a7324e46a5821717358a3814596", "is_disabled": 0, "rental_uris": {"ios": "https://dc.lft.to/lastmile_qr_scan", "android": "https://dc.lft.to/lastmile_qr_scan"}, "is_reserved": 0}, {"lon": -77.03977483333334, "bike_id": "95bc14b02157f49e15ed3ebdf91343ae", "lat": 38.92802916666667, "fusion_lon": 0.0, "fusion_lat": 0.0, "type": "electric_scooter", "name": "95bc14b02157f49e15ed3ebdf91343ae", "is_disabled": 0, "rental_uris": {"ios": "https://dc.lft.to/lastmile_qr_scan", "android": "https://dc.lft.to/lastmile_qr_scan"}, "is_reserved": 0}, {"lon": -77.03159433333333, "bike_id": "8ffcd320dead698af779ef0eb29c821e", "lat": 38.916916, "fusion_lon": 0.0, "fusion_lat": 0.0, "type": "electric_scooter", "name": "8ffcd320dead698af779ef0eb29c821e", "is_disabled": 0, "rental_uris": {"ios": "https://dc.lft.to/lastmile_qr_scan", "android": "https://dc.lft.to/lastmile_qr_scan"}, "is_reserved": 0}, {"lon": -76.9853, "bike_id": "703d8e79f9d652f2351a49b6bc791c36", "lat": 38.866819, "fusion_lon": 0.0, "fusion_lat": 0.0, "type": "electric_scooter", "name": "703d8e79f9d652f2351a49b6bc791c36", "is_disabled": 0, "rental_uris": {"ios": "https://dc.lft.to/lastmile_qr_scan", "android": "https://dc.lft.to/lastmile_qr_scan"}, "is_reserved": 0}, {"lon": -76.97304233333334, "bike_id": "d35a308399bfa97e8415d8fff5e8414c", "lat": 38.91647833333333, "fusion_lon": 0.0, "fusion_lat": 0.0, "type": "electric_bike", "name": "d35a308399bfa97e8415d8fff5e8414c", "is_disabled": 0, "rental_uris": {"ios": "https://dc.lft.to/lastmile_qr_scan", "android": "https://dc.lft.to/lastmile_qr_scan"}, "is_reserved": 0}, {"lon": -77.04353066666667, "bike_id": "f51b77515f5c1f59a67982be81422edd", "lat": 38.91118516666667, "fusion_lon": 0.0, "fusion_lat": 0.0, "type": "electric_scooter", "name": "f51b77515f5c1f59a67982be81422edd", "is_disabled": 0, "rental_uris": {"ios": "https://dc.lft.to/lastmile_qr_scan", "android": "https://dc.lft.to/lastmile_qr_scan"}, "is_reserved": 0}, {"lon": -77.23330216666666, "bike_id": "6447ac8a1f3440bba8425a9fde4b9fa7", "lat": 38.8727305, "fusion_lon": 0.0, "fusion_lat": 0.0, "type": "electric_bike", "name": "6447ac8a1f3440bba8425a9fde4b9fa7", "is_disabled": 0, "rental_uris": {"ios": "https://dc.lft.to/lastmile_qr_scan", "android": "https://dc.lft.to/lastmile_qr_scan"}, "is_reserved": 0}, {"lon": -77.02652366666666, "bike_id": "b334b9112721b61880fbc11eb448928a", "lat": 38.89741183333334, "fusion_lon": 0.0, "fusion_lat": 0.0, "type": "electric_scooter", "name": "b334b9112721b61880fbc11eb448928a", "is_disabled": 0, "rental_uris": {"ios": "https://dc.lft.to/lastmile_qr_scan", "android": "https://dc.lft.to/lastmile_qr_scan"}, "is_reserved": 0}, {"lon": -76.96543733333333, "bike_id": "05d7950189fa499ed0e1823e257890c3", "lat": 38.91841866666667, "fusion_lon": 0.0, "fusion_lat": 0.0, "type": "electric_scooter", "name": "05d7950189fa499ed0e1823e257890c3", "is_disabled": 0, "rental_uris": {"ios": "https://dc.lft.to/lastmile_qr_scan", "android": "https://dc.lft.to/lastmile_qr_scan"}, "is_reserved": 0}, {"lon": -76.99450633333333, "bike_id": "334b3e828162ce8d2c19039bf1654d15", "lat": 38.86276566666667, "fusion_lon": 0.0, "fusion_lat": 0.0, "type": "electric_scooter", "name": "334b3e828162ce8d2c19039bf1654d15", "is_disabled": 0, "rental_uris": {"ios": "https://dc.lft.to/lastmile_qr_scan", "android": "https://dc.lft.to/lastmile_qr_scan"}, "is_reserved": 0}, {"lon": -77.03718116666667, "bike_id": "5f38e84415c384947cdf9d1cf54baf36", "lat": 38.91481233333333, "fusion_lon": 0.0, "fusion_lat": 0.0, "type": "electric_scooter", "name": "5f38e84415c384947cdf9d1cf54baf36", "is_disabled": 0, "rental_uris": {"ios": "https://dc.lft.to/lastmile_qr_scan", "android": "https://dc.lft.to/lastmile_qr_scan"}, "is_reserved": 0}, {"lon": -77.00098783333334, "bike_id": "be08b31146dffb0be56a1e99c332dde2", "lat": 38.917053833333334, "fusion_lon": 0.0, "fusion_lat": 0.0, "type": "electric_scooter", "name": "be08b31146dffb0be56a1e99c332dde2", "is_disabled": 0, "rental_uris": {"ios": "https://dc.lft.to/lastmile_qr_scan", "android": "https://dc.lft.to/lastmile_qr_scan"}, "is_reserved": 0}, {"lon": -77.01897533333333, "bike_id": "284cae734fd6f00d2e726d9c239d4af4", "lat": 38.87460183333334, "fusion_lon": 0.0, "fusion_lat": 0.0, "type": "electric_scooter", "name": "284cae734fd6f00d2e726d9c239d4af4", "is_disabled": 0, "rental_uris": {"ios": "https://dc.lft.to/lastmile_qr_scan", "android": "https://dc.lft.to/lastmile_qr_scan"}, "is_reserved": 0}, {"lon": -77.03265483333334, "bike_id": "48236d1229ac47dfcd2747d3cdf25d90", "lat": 38.9326145, "fusion_lon": 0.0, "fusion_lat": 0.0, "type": "electric_scooter", "name": "48236d1229ac47dfcd2747d3cdf25d90", "is_disabled": 0, "rental_uris": {"ios": "https://dc.lft.to/lastmile_qr_scan", "android": "https://dc.lft.to/lastmile_qr_scan"}, "is_reserved": 0}, {"lon": -77.03430566666667, "bike_id": "daa745f55e8c282d1eb0d7ada40c652f", "lat": 38.909732, "fusion_lon": 0.0, "fusion_lat": 0.0, "type": "electric_scooter", "name": "daa745f55e8c282d1eb0d7ada40c652f", "is_disabled": 0, "rental_uris": {"ios": "https://dc.lft.to/lastmile_qr_scan", "android": "https://dc.lft.to/lastmile_qr_scan"}, "is_reserved": 0}, {"lon": -77.04105, "bike_id": "4823f8232ac62eb39d829fea6ace22ec", "lat": 38.892313333333334, "fusion_lon": 0.0, "fusion_lat": 0.0, "type": "electric_scooter", "name": "4823f8232ac62eb39d829fea6ace22ec", "is_disabled": 0, "rental_uris": {"ios": "https://dc.lft.to/lastmile_qr_scan", "android": "https://dc.lft.to/lastmile_qr_scan"}, "is_reserved": 0}, {"lon": -77.00262916666667, "bike_id": "f6cf770d7afdd72744e8ae285a4e30da", "lat": 38.918142333333336, "fusion_lon": 0.0, "fusion_lat": 0.0, "type": "electric_scooter", "name": "f6cf770d7afdd72744e8ae285a4e30da", "is_disabled": 0, "rental_uris": {"ios": "https://dc.lft.to/lastmile_qr_scan", "android": "https://dc.lft.to/lastmile_qr_scan"}, "is_reserved": 0}, {"lon": -77.027083, "bike_id": "7c1948cb392b0ed3594e7871fa1134ad", "lat": 38.9066635, "fusion_lon": 0.0, "fusion_lat": 0.0, "type": "electric_scooter", "name": "7c1948cb392b0ed3594e7871fa1134ad", "is_disabled": 0, "rental_uris": {"ios": "https://dc.lft.to/lastmile_qr_scan", "android": "https://dc.lft.to/lastmile_qr_scan"}, "is_reserved": 0}, {"lon": -77.04017783333333, "bike_id": "fecb499b7219046e4a3c4af7bc284cfc", "lat": 38.91101416666667, "fusion_lon": 0.0, "fusion_lat": 0.0, "type": "electric_scooter", "name": "fecb499b7219046e4a3c4af7bc284cfc", "is_disabled": 0, "rental_uris": {"ios": "https://dc.lft.to/lastmile_qr_scan", "android": "https://dc.lft.to/lastmile_qr_scan"}, "is_reserved": 0}, {"lon": -77.0141805, "bike_id": "78e8150ce4c2636d329e3c04ef8abfe6", "lat": 38.92866633333333, "fusion_lon": 0.0, "fusion_lat": 0.0, "type": "electric_scooter", "name": "78e8150ce4c2636d329e3c04ef8abfe6", "is_disabled": 0, "rental_uris": {"ios": "https://dc.lft.to/lastmile_qr_scan", "android": "https://dc.lft.to/lastmile_qr_scan"}, "is_reserved": 0}, {"lon": -77.04340716666667, "bike_id": "40aae88310846dc29da4d00fe258677b", "lat": 38.9072385, "fusion_lon": 0.0, "fusion_lat": 0.0, "type": "electric_scooter", "name": "40aae88310846dc29da4d00fe258677b", "is_disabled": 0, "rental_uris": {"ios": "https://dc.lft.to/lastmile_qr_scan", "android": "https://dc.lft.to/lastmile_qr_scan"}, "is_reserved": 0}, {"lon": -77.03174666666666, "bike_id": "c24bf03a008eb8d92f4ed12787b279aa", "lat": 38.9112235, "fusion_lon": 0.0, "fusion_lat": 0.0, "type": "electric_scooter", "name": "c24bf03a008eb8d92f4ed12787b279aa", "is_disabled": 0, "rental_uris": {"ios": "https://dc.lft.to/lastmile_qr_scan", "android": "https://dc.lft.to/lastmile_qr_scan"}, "is_reserved": 0}, {"lon": -77.02713516666667, "bike_id": "9610b79021c6b5a61c6acfe544ad055a", "lat": 38.92588966666667, "fusion_lon": 0.0, "fusion_lat": 0.0, "type": "electric_scooter", "name": "9610b79021c6b5a61c6acfe544ad055a", "is_disabled": 0, "rental_uris": {"ios": "https://dc.lft.to/lastmile_qr_scan", "android": "https://dc.lft.to/lastmile_qr_scan"}, "is_reserved": 0}, {"lon": -77.0321215, "bike_id": "6966cc30c79d99604625f63f267c3fee", "lat": 38.91538716666667, "fusion_lon": 0.0, "fusion_lat": 0.0, "type": "electric_scooter", "name": "6966cc30c79d99604625f63f267c3fee", "is_disabled": 0, "rental_uris": {"ios": "https://dc.lft.to/lastmile_qr_scan", "android": "https://dc.lft.to/lastmile_qr_scan"}, "is_reserved": 0}, {"lon": -77.01739866666667, "bike_id": "71589a216662e0245c3d46d4bdfd8794", "lat": 38.9160915, "fusion_lon": 0.0, "fusion_lat": 0.0, "type": "electric_bike", "name": "71589a216662e0245c3d46d4bdfd8794", "is_disabled": 0, "rental_uris": {"ios": "https://dc.lft.to/lastmile_qr_scan", "android": "https://dc.lft.to/lastmile_qr_scan"}, "is_reserved": 0}, {"lon": -77.03140733333333, "bike_id": "98e87031bffd291389f84d75f1df52c6", "lat": 38.89618383333333, "fusion_lon": 0.0, "fusion_lat": 0.0, "type": "electric_scooter", "name": "98e87031bffd291389f84d75f1df52c6", "is_disabled": 0, "rental_uris": {"ios": "https://dc.lft.to/lastmile_qr_scan", "android": "https://dc.lft.to/lastmile_qr_scan"}, "is_reserved": 0}, {"lon": -76.93004066666667, "bike_id": "f05716db6493945e172c2dd441674f34", "lat": 38.90186883333333, "fusion_lon": 0.0, "fusion_lat": 0.0, "type": "electric_scooter", "name": "f05716db6493945e172c2dd441674f34", "is_disabled": 0, "rental_uris": {"ios": "https://dc.lft.to/lastmile_qr_scan", "android": "https://dc.lft.to/lastmile_qr_scan"}, "is_reserved": 0}, {"lon": -77.10916766666666, "bike_id": "3ca4ee32f4534136e80429f1b5d26df4", "lat": 39.052029833333336, "fusion_lon": 0.0, "fusion_lat": 0.0, "type": "electric_bike", "name": "3ca4ee32f4534136e80429f1b5d26df4", "is_disabled": 0, "rental_uris": {"ios": "https://dc.lft.to/lastmile_qr_scan", "android": "https://dc.lft.to/lastmile_qr_scan"}, "is_reserved": 0}, {"lon": -77.02854366666666, "bike_id": "82146797a5983c9448351c1f9c576b5b", "lat": 38.925704333333336, "fusion_lon": 0.0, "fusion_lat": 0.0, "type": "electric_scooter", "name": "82146797a5983c9448351c1f9c576b5b", "is_disabled": 0, "rental_uris": {"ios": "https://dc.lft.to/lastmile_qr_scan", "android": "https://dc.lft.to/lastmile_qr_scan"}, "is_reserved": 0}, {"lon": -76.95757416666666, "bike_id": "29dc5717a84f19a2ac7f7964e24619d8", "lat": 38.884291166666664, "fusion_lon": 0.0, "fusion_lat": 0.0, "type": "electric_scooter", "name": "29dc5717a84f19a2ac7f7964e24619d8", "is_disabled": 0, "rental_uris": {"ios": "https://dc.lft.to/lastmile_qr_scan", "android": "https://dc.lft.to/lastmile_qr_scan"}, "is_reserved": 0}, {"lon": -77.01511983333333, "bike_id": "c7d45f0f51b3782981e988483066c0d8", "lat": 38.926703, "fusion_lon": 0.0, "fusion_lat": 0.0, "type": "electric_bike", "name": "c7d45f0f51b3782981e988483066c0d8", "is_disabled": 0, "rental_uris": {"ios": "https://dc.lft.to/lastmile_qr_scan", "android": "https://dc.lft.to/lastmile_qr_scan"}, "is_reserved": 0}, {"lon": -77.025751, "bike_id": "d621a5e3f39150677f92ebb0484056aa", "lat": 38.8904235, "fusion_lon": 0.0, "fusion_lat": 0.0, "type": "electric_scooter", "name": "d621a5e3f39150677f92ebb0484056aa", "is_disabled": 0, "rental_uris": {"ios": "https://dc.lft.to/lastmile_qr_scan", "android": "https://dc.lft.to/lastmile_qr_scan"}, "is_reserved": 0}, {"lon": -76.9908665, "bike_id": "f9c3d900543f27fa2a7c6178e843b9e3", "lat": 38.9002345, "fusion_lon": 0.0, "fusion_lat": 0.0, "type": "electric_scooter", "name": "f9c3d900543f27fa2a7c6178e843b9e3", "is_disabled": 0, "rental_uris": {"ios": "https://dc.lft.to/lastmile_qr_scan", "android": "https://dc.lft.to/lastmile_qr_scan"}, "is_reserved": 0}, {"lon": -77.02764433333333, "bike_id": "a95510e188e41c4359a6944d01ceca12", "lat": 38.93460683333333, "fusion_lon": 0.0, "fusion_lat": 0.0, "type": "electric_scooter", "name": "a95510e188e41c4359a6944d01ceca12", "is_disabled": 0, "rental_uris": {"ios": "https://dc.lft.to/lastmile_qr_scan", "android": "https://dc.lft.to/lastmile_qr_scan"}, "is_reserved": 0}, {"lon": -77.03140233333333, "bike_id": "186522cf3395ee0da3f48de51ae43e80", "lat": 38.91483383333333, "fusion_lon": 0.0, "fusion_lat": 0.0, "type": "electric_scooter", "name": "186522cf3395ee0da3f48de51ae43e80", "is_disabled": 0, "rental_uris": {"ios": "https://dc.lft.to/lastmile_qr_scan", "android": "https://dc.lft.to/lastmile_qr_scan"}, "is_reserved": 0}, {"lon": -77.04866916666667, "bike_id": "29591b0f9a64ffbdcd7bca456e3c2ab6", "lat": 38.909556, "fusion_lon": 0.0, "fusion_lat": 0.0, "type": "electric_scooter", "name": "29591b0f9a64ffbdcd7bca456e3c2ab6", "is_disabled": 0, "rental_uris": {"ios": "https://dc.lft.to/lastmile_qr_scan", "android": "https://dc.lft.to/lastmile_qr_scan"}, "is_reserved": 0}, {"lon": -77.08686083333333, "bike_id": "b20bf7aa026bb8187dabb27a5986e7c4", "lat": 38.87393466666666, "fusion_lon": 0.0, "fusion_lat": 0.0, "type": "electric_bike", "name": "b20bf7aa026bb8187dabb27a5986e7c4", "is_disabled": 0, "rental_uris": {"ios": "https://dc.lft.to/lastmile_qr_scan", "android": "https://dc.lft.to/lastmile_qr_scan"}, "is_reserved": 0}, {"lon": -77.05239416666667, "bike_id": "5356f15615b82d742af2197c9e67ab8d", "lat": 38.924579333333334, "fusion_lon": 0.0, "fusion_lat": 0.0, "type": "electric_scooter", "name": "5356f15615b82d742af2197c9e67ab8d", "is_disabled": 0, "rental_uris": {"ios": "https://dc.lft.to/lastmile_qr_scan", "android": "https://dc.lft.to/lastmile_qr_scan"}, "is_reserved": 0}, {"lon": -77.0250305, "bike_id": "6ea950f14beab31430570a226cf197b6", "lat": 38.919519666666666, "fusion_lon": 0.0, "fusion_lat": 0.0, "type": "electric_scooter", "name": "6ea950f14beab31430570a226cf197b6", "is_disabled": 0, "rental_uris": {"ios": "https://dc.lft.to/lastmile_qr_scan", "android": "https://dc.lft.to/lastmile_qr_scan"}, "is_reserved": 0}, {"lon": -77.024923, "bike_id": "1725b1123ba5800211900cbcd212af3d", "lat": 38.89816416666667, "fusion_lon": 0.0, "fusion_lat": 0.0, "type": "electric_bike", "name": "1725b1123ba5800211900cbcd212af3d", "is_disabled": 0, "rental_uris": {"ios": "https://dc.lft.to/lastmile_qr_scan", "android": "https://dc.lft.to/lastmile_qr_scan"}, "is_reserved": 0}, {"lon": -76.93308133333333, "bike_id": "5ce3c4b5b44d5a58857aa1e13b93b58b", "lat": 38.89471833333333, "fusion_lon": 0.0, "fusion_lat": 0.0, "type": "electric_scooter", "name": "5ce3c4b5b44d5a58857aa1e13b93b58b", "is_disabled": 0, "rental_uris": {"ios": "https://dc.lft.to/lastmile_qr_scan", "android": "https://dc.lft.to/lastmile_qr_scan"}, "is_reserved": 0}, {"lon": -76.9953615, "bike_id": "8f554f3f679613bb673f20036174f5bb", "lat": 38.88364883333333, "fusion_lon": 0.0, "fusion_lat": 0.0, "type": "electric_scooter", "name": "8f554f3f679613bb673f20036174f5bb", "is_disabled": 0, "rental_uris": {"ios": "https://dc.lft.to/lastmile_qr_scan", "android": "https://dc.lft.to/lastmile_qr_scan"}, "is_reserved": 0}, {"lon": -77.01947183333333, "bike_id": "f7a4992d56dd31dffd90fa4c28c02fd3", "lat": 38.936844, "fusion_lon": 0.0, "fusion_lat": 0.0, "type": "electric_scooter", "name": "f7a4992d56dd31dffd90fa4c28c02fd3", "is_disabled": 0, "rental_uris": {"ios": "https://dc.lft.to/lastmile_qr_scan", "android": "https://dc.lft.to/lastmile_qr_scan"}, "is_reserved": 0}, {"lon": -77.04770166666667, "bike_id": "881302e847cb16346e2e367dd0e6b72b", "lat": 38.921373833333334, "fusion_lon": 0.0, "fusion_lat": 0.0, "type": "electric_scooter", "name": "881302e847cb16346e2e367dd0e6b72b", "is_disabled": 0, "rental_uris": {"ios": "https://dc.lft.to/lastmile_qr_scan", "android": "https://dc.lft.to/lastmile_qr_scan"}, "is_reserved": 0}, {"lon": -77.03857166666667, "bike_id": "e01fad0acdf9723813e772caffae6b0e", "lat": 38.9177905, "fusion_lon": 0.0, "fusion_lat": 0.0, "type": "electric_scooter", "name": "e01fad0acdf9723813e772caffae6b0e", "is_disabled": 0, "rental_uris": {"ios": "https://dc.lft.to/lastmile_qr_scan", "android": "https://dc.lft.to/lastmile_qr_scan"}, "is_reserved": 0}, {"lon": -77.032197, "bike_id": "884ef9296e3f9b72824c16eeff6a2b03", "lat": 38.914031, "fusion_lon": 0.0, "fusion_lat": 0.0, "type": "electric_scooter", "name": "884ef9296e3f9b72824c16eeff6a2b03", "is_disabled": 0, "rental_uris": {"ios": "https://dc.lft.to/lastmile_qr_scan", "android": "https://dc.lft.to/lastmile_qr_scan"}, "is_reserved": 0}, {"lon": -76.99493566666666, "bike_id": "2961a1e3ecb52ace018908c21a45aea3", "lat": 38.86243, "fusion_lon": 0.0, "fusion_lat": 0.0, "type": "electric_scooter", "name": "2961a1e3ecb52ace018908c21a45aea3", "is_disabled": 0, "rental_uris": {"ios": "https://dc.lft.to/lastmile_qr_scan", "android": "https://dc.lft.to/lastmile_qr_scan"}, "is_reserved": 0}, {"lon": -77.05269566666666, "bike_id": "58157b4852e38e94ea478a3fb3b14f43", "lat": 38.89972866666667, "fusion_lon": 0.0, "fusion_lat": 0.0, "type": "electric_scooter", "name": "58157b4852e38e94ea478a3fb3b14f43", "is_disabled": 0, "rental_uris": {"ios": "https://dc.lft.to/lastmile_qr_scan", "android": "https://dc.lft.to/lastmile_qr_scan"}, "is_reserved": 0}, {"lon": -77.03863916666667, "bike_id": "c462b208576ac0c93439fcbf19f9f644", "lat": 38.915534666666666, "fusion_lon": 0.0, "fusion_lat": 0.0, "type": "electric_scooter", "name": "c462b208576ac0c93439fcbf19f9f644", "is_disabled": 0, "rental_uris": {"ios": "https://dc.lft.to/lastmile_qr_scan", "android": "https://dc.lft.to/lastmile_qr_scan"}, "is_reserved": 0}, {"lon": -76.98538483333333, "bike_id": "c4fb1b5379be16f94504f8a4c064e946", "lat": 38.896548333333335, "fusion_lon": 0.0, "fusion_lat": 0.0, "type": "electric_scooter", "name": "c4fb1b5379be16f94504f8a4c064e946", "is_disabled": 0, "rental_uris": {"ios": "https://dc.lft.to/lastmile_qr_scan", "android": "https://dc.lft.to/lastmile_qr_scan"}, "is_reserved": 0}, {"lon": -77.0264245, "bike_id": "38fd7067e996a7cd3c5f0a62ff2335fa", "lat": 38.91694616666667, "fusion_lon": 0.0, "fusion_lat": 0.0, "type": "electric_scooter", "name": "38fd7067e996a7cd3c5f0a62ff2335fa", "is_disabled": 0, "rental_uris": {"ios": "https://dc.lft.to/lastmile_qr_scan", "android": "https://dc.lft.to/lastmile_qr_scan"}, "is_reserved": 0}, {"lon": -77.0331945, "bike_id": "3df83df0f9b94b25395c4c08fdc2beb5", "lat": 38.92560733333333, "fusion_lon": 0.0, "fusion_lat": 0.0, "type": "electric_scooter", "name": "3df83df0f9b94b25395c4c08fdc2beb5", "is_disabled": 0, "rental_uris": {"ios": "https://dc.lft.to/lastmile_qr_scan", "android": "https://dc.lft.to/lastmile_qr_scan"}, "is_reserved": 0}, {"lon": -77.05364116666667, "bike_id": "dc3ebbe7cf98dc8fc9086fb3047a7e57", "lat": 38.927157333333334, "fusion_lon": 0.0, "fusion_lat": 0.0, "type": "electric_scooter", "name": "dc3ebbe7cf98dc8fc9086fb3047a7e57", "is_disabled": 0, "rental_uris": {"ios": "https://dc.lft.to/lastmile_qr_scan", "android": "https://dc.lft.to/lastmile_qr_scan"}, "is_reserved": 0}, {"lon": -77.04165316666666, "bike_id": "afd695d01ca8bc98890deac8a3d65a88", "lat": 38.91244433333333, "fusion_lon": 0.0, "fusion_lat": 0.0, "type": "electric_scooter", "name": "afd695d01ca8bc98890deac8a3d65a88", "is_disabled": 0, "rental_uris": {"ios": "https://dc.lft.to/lastmile_qr_scan", "android": "https://dc.lft.to/lastmile_qr_scan"}, "is_reserved": 0}, {"lon": -76.99592483333333, "bike_id": "2fe180704ca9bd9555f84976a68fc02a", "lat": 38.884327166666665, "fusion_lon": 0.0, "fusion_lat": 0.0, "type": "electric_scooter", "name": "2fe180704ca9bd9555f84976a68fc02a", "is_disabled": 0, "rental_uris": {"ios": "https://dc.lft.to/lastmile_qr_scan", "android": "https://dc.lft.to/lastmile_qr_scan"}, "is_reserved": 0}, {"lon": -77.05142983333333, "bike_id": "7a7780eabfb0e06469f0059dff32dbdb", "lat": 38.898569, "fusion_lon": 0.0, "fusion_lat": 0.0, "type": "electric_scooter", "name": "7a7780eabfb0e06469f0059dff32dbdb", "is_disabled": 0, "rental_uris": {"ios": "https://dc.lft.to/lastmile_qr_scan", "android": "https://dc.lft.to/lastmile_qr_scan"}, "is_reserved": 0}, {"lon": -77.07665983333334, "bike_id": "cba0ea6f5f21894a7e7e645cee327dd5", "lat": 38.8624995, "fusion_lon": 0.0, "fusion_lat": 0.0, "type": "electric_bike", "name": "cba0ea6f5f21894a7e7e645cee327dd5", "is_disabled": 0, "rental_uris": {"ios": "https://dc.lft.to/lastmile_qr_scan", "android": "https://dc.lft.to/lastmile_qr_scan"}, "is_reserved": 0}, {"lon": -76.97867983333333, "bike_id": "61ef7c19cdefa8ec047d8f8eacab603d", "lat": 38.88305966666667, "fusion_lon": 0.0, "fusion_lat": 0.0, "type": "electric_scooter", "name": "61ef7c19cdefa8ec047d8f8eacab603d", "is_disabled": 0, "rental_uris": {"ios": "https://dc.lft.to/lastmile_qr_scan", "android": "https://dc.lft.to/lastmile_qr_scan"}, "is_reserved": 0}, {"lon": -77.04984683333333, "bike_id": "7e065077e447d20172b0342a9e7693ab", "lat": 39.06292833333333, "fusion_lon": 0.0, "fusion_lat": 0.0, "type": "electric_bike", "name": "7e065077e447d20172b0342a9e7693ab", "is_disabled": 0, "rental_uris": {"ios": "https://dc.lft.to/lastmile_qr_scan", "android": "https://dc.lft.to/lastmile_qr_scan"}, "is_reserved": 0}, {"lon": -76.993695, "bike_id": "aab155cfd6ab9917d36f9f88e1304d3b", "lat": 38.940220333333336, "fusion_lon": 0.0, "fusion_lat": 0.0, "type": "electric_scooter", "name": "aab155cfd6ab9917d36f9f88e1304d3b", "is_disabled": 0, "rental_uris": {"ios": "https://dc.lft.to/lastmile_qr_scan", "android": "https://dc.lft.to/lastmile_qr_scan"}, "is_reserved": 0}, {"lon": -77.0296305, "bike_id": "585a8411c77a55831526a0d4ad0c6849", "lat": 38.912753333333335, "fusion_lon": 0.0, "fusion_lat": 0.0, "type": "electric_scooter", "name": "585a8411c77a55831526a0d4ad0c6849", "is_disabled": 0, "rental_uris": {"ios": "https://dc.lft.to/lastmile_qr_scan", "android": "https://dc.lft.to/lastmile_qr_scan"}, "is_reserved": 0}, {"lon": -77.03811866666666, "bike_id": "9b4695d5aaaf9699379f67cede791e1d", "lat": 38.9096105, "fusion_lon": 0.0, "fusion_lat": 0.0, "type": "electric_scooter", "name": "9b4695d5aaaf9699379f67cede791e1d", "is_disabled": 0, "rental_uris": {"ios": "https://dc.lft.to/lastmile_qr_scan", "android": "https://dc.lft.to/lastmile_qr_scan"}, "is_reserved": 0}, {"lon": -77.03866283333333, "bike_id": "c06a11e705ab9bbba2d046bc463b39d6", "lat": 38.920121333333334, "fusion_lon": 0.0, "fusion_lat": 0.0, "type": "electric_scooter", "name": "c06a11e705ab9bbba2d046bc463b39d6", "is_disabled": 0, "rental_uris": {"ios": "https://dc.lft.to/lastmile_qr_scan", "android": "https://dc.lft.to/lastmile_qr_scan"}, "is_reserved": 0}, {"lon": -76.990083, "bike_id": "bd127f5fe944de259401cf70ad43cc51", "lat": 38.94605816666667, "fusion_lon": 0.0, "fusion_lat": 0.0, "type": "electric_scooter", "name": "bd127f5fe944de259401cf70ad43cc51", "is_disabled": 0, "rental_uris": {"ios": "https://dc.lft.to/lastmile_qr_scan", "android": "https://dc.lft.to/lastmile_qr_scan"}, "is_reserved": 0}, {"lon": -77.02966933333333, "bike_id": "eda8b369fbbe54a51604f57d9d83eeb9", "lat": 38.91659633333333, "fusion_lon": 0.0, "fusion_lat": 0.0, "type": "electric_scooter", "name": "eda8b369fbbe54a51604f57d9d83eeb9", "is_disabled": 0, "rental_uris": {"ios": "https://dc.lft.to/lastmile_qr_scan", "android": "https://dc.lft.to/lastmile_qr_scan"}, "is_reserved": 0}, {"lon": -77.050401, "bike_id": "cc5b97632a5a868abe3fa17a68c1c379", "lat": 38.923575166666666, "fusion_lon": 0.0, "fusion_lat": 0.0, "type": "electric_scooter", "name": "cc5b97632a5a868abe3fa17a68c1c379", "is_disabled": 0, "rental_uris": {"ios": "https://dc.lft.to/lastmile_qr_scan", "android": "https://dc.lft.to/lastmile_qr_scan"}, "is_reserved": 0}, {"lon": -77.0415635, "bike_id": "f22b150d18eb7e889c9a574ba0f0097d", "lat": 38.91988283333333, "fusion_lon": 0.0, "fusion_lat": 0.0, "type": "electric_scooter", "name": "f22b150d18eb7e889c9a574ba0f0097d", "is_disabled": 0, "rental_uris": {"ios": "https://dc.lft.to/lastmile_qr_scan", "android": "https://dc.lft.to/lastmile_qr_scan"}, "is_reserved": 0}, {"lon": -76.96530683333333, "bike_id": "c51db036cc05df495d49f863ae839905", "lat": 38.876272, "fusion_lon": 0.0, "fusion_lat": 0.0, "type": "electric_scooter", "name": "c51db036cc05df495d49f863ae839905", "is_disabled": 0, "rental_uris": {"ios": "https://dc.lft.to/lastmile_qr_scan", "android": "https://dc.lft.to/lastmile_qr_scan"}, "is_reserved": 0}, {"lon": -77.03211366666666, "bike_id": "a0842cf6e52f500fbad8fe93adfaf731", "lat": 38.8869015, "fusion_lon": 0.0, "fusion_lat": 0.0, "type": "electric_scooter", "name": "a0842cf6e52f500fbad8fe93adfaf731", "is_disabled": 0, "rental_uris": {"ios": "https://dc.lft.to/lastmile_qr_scan", "android": "https://dc.lft.to/lastmile_qr_scan"}, "is_reserved": 0}, {"lon": -77.03956833333334, "bike_id": "81104d7d509167868f2fc5433b4844f9", "lat": 38.915622166666665, "fusion_lon": 0.0, "fusion_lat": 0.0, "type": "electric_scooter", "name": "81104d7d509167868f2fc5433b4844f9", "is_disabled": 0, "rental_uris": {"ios": "https://dc.lft.to/lastmile_qr_scan", "android": "https://dc.lft.to/lastmile_qr_scan"}, "is_reserved": 0}, {"lon": -77.03688766666667, "bike_id": "3a8938f2bc465eeaaee4e3c87f7a2f6a", "lat": 38.939296166666665, "fusion_lon": 0.0, "fusion_lat": 0.0, "type": "electric_scooter", "name": "3a8938f2bc465eeaaee4e3c87f7a2f6a", "is_disabled": 0, "rental_uris": {"ios": "https://dc.lft.to/lastmile_qr_scan", "android": "https://dc.lft.to/lastmile_qr_scan"}, "is_reserved": 0}, {"lon": -77.052018, "bike_id": "60cfd5183d92a95008039d8969935918", "lat": 38.923747, "fusion_lon": 0.0, "fusion_lat": 0.0, "type": "electric_scooter", "name": "60cfd5183d92a95008039d8969935918", "is_disabled": 0, "rental_uris": {"ios": "https://dc.lft.to/lastmile_qr_scan", "android": "https://dc.lft.to/lastmile_qr_scan"}, "is_reserved": 0}, {"lon": -77.06416566666667, "bike_id": "9832744b1dc28eeb28644f0f5d9e98b4", "lat": 38.9933215, "fusion_lon": 0.0, "fusion_lat": 0.0, "type": "electric_scooter", "name": "9832744b1dc28eeb28644f0f5d9e98b4", "is_disabled": 0, "rental_uris": {"ios": "https://dc.lft.to/lastmile_qr_scan", "android": "https://dc.lft.to/lastmile_qr_scan"}, "is_reserved": 0}, {"lon": -76.98736283333334, "bike_id": "51fe29b777f386e7c86c2a766e37624d", "lat": 38.86578866666667, "fusion_lon": 0.0, "fusion_lat": 0.0, "type": "electric_bike", "name": "51fe29b777f386e7c86c2a766e37624d", "is_disabled": 0, "rental_uris": {"ios": "https://dc.lft.to/lastmile_qr_scan", "android": "https://dc.lft.to/lastmile_qr_scan"}, "is_reserved": 0}, {"lon": -77.036353, "bike_id": "cc79209ea2201532eb052001a43463c6", "lat": 38.9449225, "fusion_lon": 0.0, "fusion_lat": 0.0, "type": "electric_scooter", "name": "cc79209ea2201532eb052001a43463c6", "is_disabled": 0, "rental_uris": {"ios": "https://dc.lft.to/lastmile_qr_scan", "android": "https://dc.lft.to/lastmile_qr_scan"}, "is_reserved": 0}, {"lon": -77.0211105, "bike_id": "ecdb2fe5f046605961e9d256aa786de3", "lat": 38.90562633333333, "fusion_lon": 0.0, "fusion_lat": 0.0, "type": "electric_scooter", "name": "ecdb2fe5f046605961e9d256aa786de3", "is_disabled": 0, "rental_uris": {"ios": "https://dc.lft.to/lastmile_qr_scan", "android": "https://dc.lft.to/lastmile_qr_scan"}, "is_reserved": 0}, {"lon": -77.03517083333334, "bike_id": "6b7367d34967c4648921919f9b99cea9", "lat": 38.92729283333333, "fusion_lon": 0.0, "fusion_lat": 0.0, "type": "electric_scooter", "name": "6b7367d34967c4648921919f9b99cea9", "is_disabled": 0, "rental_uris": {"ios": "https://dc.lft.to/lastmile_qr_scan", "android": "https://dc.lft.to/lastmile_qr_scan"}, "is_reserved": 0}, {"lon": -77.023266, "bike_id": "05f45cb269e44486cbbd3f06716eea3a", "lat": 38.9240605, "fusion_lon": 0.0, "fusion_lat": 0.0, "type": "electric_scooter", "name": "05f45cb269e44486cbbd3f06716eea3a", "is_disabled": 0, "rental_uris": {"ios": "https://dc.lft.to/lastmile_qr_scan", "android": "https://dc.lft.to/lastmile_qr_scan"}, "is_reserved": 0}, {"lon": -76.981842, "bike_id": "509ebc8b587c17ba88d6403a52580a1f", "lat": 38.899941166666665, "fusion_lon": 0.0, "fusion_lat": 0.0, "type": "electric_bike", "name": "509ebc8b587c17ba88d6403a52580a1f", "is_disabled": 0, "rental_uris": {"ios": "https://dc.lft.to/lastmile_qr_scan", "android": "https://dc.lft.to/lastmile_qr_scan"}, "is_reserved": 0}, {"lon": -77.05625416666666, "bike_id": "76914f1daa47d8723135219c6350383e", "lat": 38.92331633333333, "fusion_lon": 0.0, "fusion_lat": 0.0, "type": "electric_scooter", "name": "76914f1daa47d8723135219c6350383e", "is_disabled": 0, "rental_uris": {"ios": "https://dc.lft.to/lastmile_qr_scan", "android": "https://dc.lft.to/lastmile_qr_scan"}, "is_reserved": 0}, {"lon": -77.00977116666667, "bike_id": "70f4cfa0c2883611e6962a10a39e3788", "lat": 38.87070083333333, "fusion_lon": 0.0, "fusion_lat": 0.0, "type": "electric_scooter", "name": "70f4cfa0c2883611e6962a10a39e3788", "is_disabled": 0, "rental_uris": {"ios": "https://dc.lft.to/lastmile_qr_scan", "android": "https://dc.lft.to/lastmile_qr_scan"}, "is_reserved": 0}, {"lon": -77.00885633333333, "bike_id": "2d4a648872af7b1156eafc3c8424c9c9", "lat": 38.825378, "fusion_lon": 0.0, "fusion_lat": 0.0, "type": "electric_scooter", "name": "2d4a648872af7b1156eafc3c8424c9c9", "is_disabled": 0, "rental_uris": {"ios": "https://dc.lft.to/lastmile_qr_scan", "android": "https://dc.lft.to/lastmile_qr_scan"}, "is_reserved": 0}, {"lon": -76.995073, "bike_id": "d5aa2561f46c4b4fa0a991d84933384d", "lat": 38.862484, "fusion_lon": 0.0, "fusion_lat": 0.0, "type": "electric_scooter", "name": "d5aa2561f46c4b4fa0a991d84933384d", "is_disabled": 0, "rental_uris": {"ios": "https://dc.lft.to/lastmile_qr_scan", "android": "https://dc.lft.to/lastmile_qr_scan"}, "is_reserved": 0},