{"data": {"bikes": [{"is_reserved": 0, "type": "electric_scooter", "bike_id": "ea36a9835c2f0a2485a464ac9b429db8", "lat": 38.907893, "lon": -77.00191666666667, "rental_uris": {"android": "https://dc.lft.to/lastmile_qr_scan", "ios": "https://dc.lft.to/lastmile_qr_scan"}, "is_disabled": 0, "fusion_lat": 0.0, "name": "ea36a9835c2f0a2485a464ac9b429db8", "fusion_lon": 0.0}, {"is_reserved": 0, "type": "electric_scooter", "bike_id": "e5362e22fbd875ed77ca9f7bddcf565e", "lat": 38.924508, "lon": -76.9966775, "rental_uris": {"android": "https://dc.lft.to/lastmile_qr_scan", "ios": "https://dc.lft.to/lastmile_qr_scan"}, "is_disabled": 0, "fusion_lat": 0.0, "name": "e5362e22fbd875ed77ca9f7bddcf565e", "fusion_lon": 0.0}, {"is_reserved": 0, "type": "electric_scooter", "bike_id": "b8e2b07fc62927718e35de3ffbcf0982", "lat": 38.9182425, "lon": -77.01211516666666, "rental_uris": {"android": "https://dc.lft.to/lastmile_qr_scan", "ios": "https://dc.lft.to/lastmile_qr_scan"}, "is_disabled": 0, "fusion_lat": 0.0, "name": "b8e2b07fc62927718e35de3ffbcf0982", "fusion_lon": 0.0}, {"is_reserved": 0, "type": "electric_bike", "bike_id": "50646d9cf4639b2aab2f070c7bc1f7ee", "lat": 38.9211545, "lon": -76.98881466666667, "rental_uris": {"android": "https://dc.lft.to/lastmile_qr_scan", "ios": "https://dc.lft.to/lastmile_qr_scan"}, "is_disabled": 0, "fusion_lat": 0.0, "name": "50646d9cf4639b2aab2f070c7bc1f7ee", "fusion_lon": 0.0}, {"is_reserved": 0, "type": "electric_bike", "bike_id": "b28834df81b85bc4fb687c6683aecd55", "lat": 39.010930333333334, "lon": -77.0496025, "rental_uris": {"android": "https://dc.lft.to/lastmile_qr_scan", "ios": "https://dc.lft.to/lastmile_qr_scan"}, "is_disabled": 0, "fusion_lat": 0.0, "name": "b28834df81b85bc4fb687c6683aecd55", "fusion_lon": 0.0}, {"is_reserved": 0, "type": "electric_scooter", "bike_id": "99d708cd103a1410dbf052849138dbcc", "lat": 38.925458166666665, "lon": -77.03829233333333, "rental_uris": {"android": "https://dc.lft.to/lastmile_qr_scan", "ios": "https://dc.lft.to/lastmile_qr_scan"}, "is_disabled": 0, "fusion_lat": 0.0, "name": "99d708cd103a1410dbf052849138dbcc", "fusion_lon": 0.0}, {"is_reserved": 0, "type": "electric_bike", "bike_id": "f1ecb40c98dcf0ca9c11618ce0023436", "lat": 39.000069333333336, "lon": -76.91806, "rental_uris": {"android": "https://dc.lft.to/lastmile_qr_scan", "ios": "https://dc.lft.to/lastmile_qr_scan"}, "is_disabled": 0, "fusion_lat": 0.0, "name": "f1ecb40c98dcf0ca9c11618ce0023436", "fusion_lon": 0.0}, {"is_reserved": 0, "type": "electric_scooter", "bike_id": "10d41b1a6325052707d904b7fc318746", "lat": 38.9085025, "lon": -77.0355605, "rental_uris": {"android": "https://dc.lft.to/lastmile_qr_scan", "ios": "https://dc.lft.to/lastmile_qr_scan"}, "is_disabled": 0, "fusion_lat": 0.0, "name": "10d41b1a6325052707d904b7fc318746", "fusion_lon": 0.0}, {"is_reserved": 0, "type": "electric_scooter", "bike_id": "9ac5cbd451a504ddd36ad09210769b6f", "lat": 38.923651166666666, "lon": -77.01918033333334, "rental_uris": {"android": "https://dc.lft.to/lastmile_qr_scan", "ios": "https://dc.lft.to/lastmile_qr_scan"}, "is_disabled": 0, "fusion_lat": 0.0, "name": "9ac5cbd451a504ddd36ad09210769b6f", "fusion_lon": 0.0}, {"is_reserved": 0, "type": "electric_scooter", "bike_id": "ad3e25309eb552e668e4ef2d93ec380d", "lat": 38.93658333333333, "lon": -77.03694133333333, "rental_uris": {"android": "https://dc.lft.to/lastmile_qr_scan", "ios": "https://dc.lft.to/lastmile_qr_scan"}, "is_disabled": 0, "fusion_lat": 0.0, "name": "ad3e25309eb552e668e4ef2d93ec380d", "fusion_lon": 0.0}, {"is_reserved": 0, "type": "electric_scooter", "bike_id": "9fef626985d08711234b24ec4b003d2c", "lat": 38.920814166666666, "lon": -77.04020233333334, "rental_uris": {"android": "https://dc.lft.to/lastmile_qr_scan", "ios": "https://dc.lft.to/lastmile_qr_scan"}, "is_disabled": 0, "fusion_lat": 0.0, "name": "9fef626985d08711234b24ec4b003d2c", "fusion_lon": 0.0}, {"is_reserved": 0, "type": "electric_scooter", "bike_id": "0f34de04fe1ac5c3b11fe77351d1e710", "lat": 38.93866, "lon": -77.02703233333334, "rental_uris": {"android": "https://dc.lft.to/lastmile_qr_scan", "ios": "https://dc.lft.to/lastmile_qr_scan"}, "is_disabled": 0, "fusion_lat": 0.0, "name": "0f34de04fe1ac5c3b11fe77351d1e710", "fusion_lon": 0.0}, {"is_reserved": 0, "type": "electric_scooter", "bike_id": "c41b54f999bc5c7c86f2abc61933c3fe", "lat": 38.905255833333335, "lon": -76.9841175, "rental_uris": {"android": "https://dc.lft.to/lastmile_qr_scan", "ios": "https://dc.lft.to/lastmile_qr_scan"}, "is_disabled": 0, "fusion_lat": 0.0, "name": "c41b54f999bc5c7c86f2abc61933c3fe", "fusion_lon": 0.0}, {"is_reserved": 0, "type": "electric_scooter", "bike_id": "51b9ea6888c8c974d614a143ca692ef5", "lat": 38.89824566666667, "lon": -77.04894566666667, "rental_uris": {"android": "https://dc.lft.to/lastmile_qr_scan", "ios": "https://dc.lft.to/lastmile_qr_scan"}, "is_disabled": 0, "fusion_lat": 0.0, "name": "51b9ea6888c8c974d614a143ca692ef5", "fusion_lon": 0.0}, {"is_reserved": 0, "type": "electric_scooter", "bike_id": "f5bcfa15ca98f0897c11d199cdd0bf5e", "lat": 38.9156755, "lon": -77.0313215, "rental_uris": {"android": "https://dc.lft.to/lastmile_qr_scan", "ios": "https://dc.lft.to/lastmile_qr_scan"}, "is_disabled": 0, "fusion_lat": 0.0, "name": "f5bcfa15ca98f0897c11d199cdd0bf5e", "fusion_lon": 0.0}, {"is_reserved": 0, "type": "electric_scooter", "bike_id": "57851e2e9ce1c816c3c74d8b3f8a7e2e", "lat": 38.91224716666667, "lon": -76.98703666666667, "rental_uris": {"android": "https://dc.lft.to/lastmile_qr_scan", "ios": "https://dc.lft.to/lastmile_qr_scan"}, "is_disabled": 0, "fusion_lat": 0.0, "name": "57851e2e9ce1c816c3c74d8b3f8a7e2e", "fusion_lon": 0.0}, {"is_reserved": 0, "type": "electric_scooter", "bike_id": "9eb54467fb504b21c24f82ce8a4f39cf", "lat": 38.89227233333333, "lon": -77.0241745, "rental_uris": {"android": "https://dc.lft.to/lastmile_qr_scan", "ios": "https://dc.lft.to/lastmile_qr_scan"}, "is_disabled": 0, "fusion_lat": 0.0, "name": "9eb54467fb504b21c24f82ce8a4f39cf", "fusion_lon": 0.0}, {"is_reserved": 0, "type": "electric_bike", "bike_id": "ca4c861b01fe1d6d0f4893edaca80802", "lat": 38.8313825, "lon": -77.11348583333333, "rental_uris": {"android": "https://dc.lft.to/lastmile_qr_scan", "ios": "https://dc.lft.to/lastmile_qr_scan"}, "is_disabled": 0, "fusion_lat": 0.0, "name": "ca4c861b01fe1d6d0f4893edaca80802", "fusion_lon": 0.0}, {"is_reserved": 0, "type": "electric_scooter", "bike_id": "b1bc0ebebd8c5acd60fb3700f3c84679", "lat": 38.92236666666667, "lon": -77.0334755, "rental_uris": {"android": "https://dc.lft.to/lastmile_qr_scan", "ios": "https://dc.lft.to/lastmile_qr_scan"}, "is_disabled": 0, "fusion_lat": 0.0, "name": "b1bc0ebebd8c5acd60fb3700f3c84679", "fusion_lon": 0.0}, {"is_reserved": 0, "type": "electric_scooter", "bike_id": "fdf429d3f4a2501ffaab8274db6d0808", "lat": 38.91129266666667, "lon": -77.02199583333334, "rental_uris": {"android": "https://dc.lft.to/lastmile_qr_scan", "ios": "https://dc.lft.to/lastmile_qr_scan"}, "is_disabled": 0, "fusion_lat": 0.0, "name": "fdf429d3f4a2501ffaab8274db6d0808", "fusion_lon": 0.0}, {"is_reserved": 0, "type": "electric_scooter", "bike_id": "98bf042c295adf9ae23b5bc2d3abb4da", "lat": 38.917191, "lon": -77.03862416666666, "rental_uris": {"android": "https://dc.lft.to/lastmile_qr_scan", "ios": "https://dc.lft.to/lastmile_qr_scan"}, "is_disabled": 0, "fusion_lat": 0.0, "name": "98bf042c295adf9ae23b5bc2d3abb4da", "fusion_lon": 0.0}, {"is_reserved": 0, "type": "electric_scooter", "bike_id": "bec093699ffbeab6830b0a6ac1571922", "lat": 38.90526933333334, "lon": -77.06536116666666, "rental_uris": {"android": "https://dc.lft.to/lastmile_qr_scan", "ios": "https://dc.lft.to/lastmile_qr_scan"}, "is_disabled": 0, "fusion_lat": 0.0, "name": "bec093699ffbeab6830b0a6ac1571922", "fusion_lon": 0.0}, {"is_reserved": 0, "type": "electric_scooter", "bike_id": "f7fadd8b734efb3288fbf12d7d2e2648", "lat": 38.906143, "lon": -76.95016933333333, "rental_uris": {"android": "https://dc.lft.to/lastmile_qr_scan", "ios": "https://dc.lft.to/lastmile_qr_scan"}, "is_disabled": 0, "fusion_lat": 0.0, "name": "f7fadd8b734efb3288fbf12d7d2e2648", "fusion_lon": 0.0}, {"is_reserved": 0, "type": "electric_scooter", "bike_id": "b1768ce99bc3a5122130c3449059f087", "lat": 38.9013045, "lon": -77.0382845, "rental_uris": {"android": "https://dc.lft.to/lastmile_qr_scan", "ios": "https://dc.lft.to/lastmile_qr_scan"}, "is_disabled": 0, "fusion_lat": 0.0, "name": "b1768ce99bc3a5122130c3449059f087", "fusion_lon": 0.0}, {"is_reserved": 0, "type": "electric_scooter", "bike_id": "a16bb3d8752071990a66c4907a00a53a", "lat": 38.88512683333333, "lon": -77.01120616666667, "rental_uris": {"android": "https://dc.lft.to/lastmile_qr_scan", "ios": "https://dc.lft.to/lastmile_qr_scan"}, "is_disabled": 0, "fusion_lat": 0.0, "name": "a16bb3d8752071990a66c4907a00a53a", "fusion_lon": 0.0}, {"is_reserved": 0, "type": "electric_scooter", "bike_id": "e5a4e19257f62dbb5c4b2c89ed56f698", "lat": 38.946935, "lon": -77.02245583333334, "rental_uris": {"android": "https://dc.lft.to/lastmile_qr_scan", "ios": "https://dc.lft.to/lastmile_qr_scan"}, "is_disabled": 0, "fusion_lat": 0.0, "name": "e5a4e19257f62dbb5c4b2c89ed56f698", "fusion_lon": 0.0}, {"is_reserved": 0, "type": "electric_scooter", "bike_id": "802c1ec48b5260468132d33907e8cb12", "lat": 38.900273166666665, "lon": -76.99872433333333, "rental_uris": {"android": "https://dc.lft.to/lastmile_qr_scan", "ios": "https://dc.lft.to/lastmile_qr_scan"}, "is_disabled": 0, "fusion_lat": 0.0, "name": "802c1ec48b5260468132d33907e8cb12", "fusion_lon": 0.0}, {"is_reserved": 0, "type": "electric_bike", "bike_id": "93cf58a892c81c235f7fbba1fd90886b", "lat": 38.898171, "lon": -76.99073766666666, "rental_uris": {"android": "https://dc.lft.to/lastmile_qr_scan", "ios": "https://dc.lft.to/lastmile_qr_scan"}, "is_disabled": 0, "fusion_lat": 0.0, "name": "93cf58a892c81c235f7fbba1fd90886b", "fusion_lon": 0.0}, {"is_reserved": 0, "type": "electric_scooter", "bike_id": "e76b7036e3a02e063041191581a390a1", "lat": 38.9119035, "lon": -77.00729483333333, "rental_uris": {"android": "https://dc.lft.to/lastmile_qr_scan", "ios": "https://dc.lft.to/lastmile_qr_scan"}, "is_disabled": 0, "fusion_lat": 0.0, "name": "e76b7036e3a02e063041191581a390a1", "fusion_lon": 0.0}, {"is_reserved": 0, "type": "electric_scooter", "bike_id": "93a666572da6fcdbddb4a5fb23a704fe", "lat": 38.91420016666667, "lon": -77.02872816666667, "rental_uris": {"android": "https://dc.lft.to/lastmile_qr_scan", "ios": "https://dc.lft.to/lastmile_qr_scan"}, "is_disabled": 0, "fusion_lat": 0.0, "name": "93a666572da6fcdbddb4a5fb23a704fe", "fusion_lon": 0.0}, {"is_reserved": 0, "type": "electric_scooter", "bike_id": "0217ef715c902413eeccc505a2444558", "lat": 38.89954066666667, "lon": -77.02718983333334, "rental_uris": {"android": "https://dc.lft.to/lastmile_qr_scan", "ios": "https://dc.lft.to/lastmile_qr_scan"}, "is_disabled": 0, "fusion_lat": 0.0, "name": "0217ef715c902413eeccc505a2444558", "fusion_lon": 0.0}, {"is_reserved": 0, "type": "electric_scooter", "bike_id": "8dd9a1d434440bb62f72fa6add567cc6", "lat": 38.90017683333333, "lon": -77.01024, "rental_uris": {"android": "https://dc.lft.to/lastmile_qr_scan", "ios": "https://dc.lft.to/lastmile_qr_scan"}, "is_disabled": 0, "fusion_lat": 0.0, "name": "8dd9a1d434440bb62f72fa6add567cc6", "fusion_lon": 0.0}, {"is_reserved": 0, "type": "electric_scooter", "bike_id": "dfd6f41a0e060aae381c6c70f3a149df", "lat": 38.933628166666665, "lon": -77.0572235, "rental_uris": {"android": "https://dc.lft.to/lastmile_qr_scan", "ios": "https://dc.lft.to/lastmile_qr_scan"}, "is_disabled": 0, "fusion_lat": 0.0, "name": "dfd6f41a0e060aae381c6c70f3a149df", "fusion_lon": 0.0}, {"is_reserved": 0, "type": "electric_scooter", "bike_id": "f0f8811ff1539c9d5f1e7fc76972977f", "lat": 38.903509166666666, "lon": -77.03303133333333, "rental_uris": {"android": "https://dc.lft.to/lastmile_qr_scan", "ios": "https://dc.lft.to/lastmile_qr_scan"}, "is_disabled": 0, "fusion_lat": 0.0, "name": "f0f8811ff1539c9d5f1e7fc76972977f", "fusion_lon": 0.0}, {"is_reserved": 0, "type": "electric_scooter", "bike_id": "06cfe61cc574c64f8873bd272e16f5cf", "lat": 38.9063525, "lon": -77.011372, "rental_uris": {"android": "https://dc.lft.to/lastmile_qr_scan", "ios": "https://dc.lft.to/lastmile_qr_scan"}, "is_disabled": 0, "fusion_lat": 0.0, "name": "06cfe61cc574c64f8873bd272e16f5cf", "fusion_lon": 0.0}, {"is_reserved": 0, "type": "electric_scooter", "bike_id": "8af44ab394975930d0939fb951159040", "lat": 38.914159166666664, "lon": -77.0261215, "rental_uris": {"android": "https://dc.lft.to/lastmile_qr_scan", "ios": "https://dc.lft.to/lastmile_qr_scan"}, "is_disabled": 0, "fusion_lat": 0.0, "name": "8af44ab394975930d0939fb951159040", "fusion_lon": 0.0}, {"is_reserved": 0, "type": "electric_scooter", "bike_id": "39c23d335a513337def325daeb01f6bc", "lat": 38.944427833333336, "lon": -77.063572, "rental_uris": {"android": "https://dc.lft.to/lastmile_qr_scan", "ios": "https://dc.lft.to/lastmile_qr_scan"}, "is_disabled": 0, "fusion_lat": 0.0, "name": "39c23d335a513337def325daeb01f6bc", "fusion_lon": 0.0}, {"is_reserved": 0, "type": "electric_scooter", "bike_id": "7ea87ca6277a57b6eea19ac7cd252e8e", "lat": 38.932377, "lon": -77.02964083333333, "rental_uris": {"android": "https://dc.lft.to/lastmile_qr_scan", "ios": "https://dc.lft.to/lastmile_qr_scan"}, "is_disabled": 0, "fusion_lat": 0.0, "name": "7ea87ca6277a57b6eea19ac7cd252e8e", "fusion_lon": 0.0}, {"is_reserved": 0, "type": "electric_scooter", "bike_id": "9f4e1e38afc35724fb340730e7fa82d9", "lat": 38.90597416666667, "lon": -76.95055133333334, "rental_uris": {"android": "https://dc.lft.to/lastmile_qr_scan", "ios": "https://dc.lft.to/lastmile_qr_scan"}, "is_disabled": 0, "fusion_lat": 0.0, "name": "9f4e1e38afc35724fb340730e7fa82d9", "fusion_lon": 0.0}, {"is_reserved": 0, "type": "electric_scooter", "bike_id": "2234dc777868b91a8ed306b30eb2f837", "lat": 38.90651583333333, "lon": -77.04864133333334, "rental_uris": {"android": "https://dc.lft.to/lastmile_qr_scan", "ios": "https://dc.lft.to/lastmile_qr_scan"}, "is_disabled": 0, "fusion_lat": 0.0, "name": "2234dc777868b91a8ed306b30eb2f837", "fusion_lon": 0.0}, {"is_reserved": 0, "type": "electric_bike", "bike_id": "21c83ece1662e8ab139a68f89e6c632f", "lat": 38.8946205, "lon": -77.19136516666667, "rental_uris": {"android": "https://dc.lft.to/lastmile_qr_scan", "ios": "https://dc.lft.to/lastmile_qr_scan"}, "is_disabled": 0, "fusion_lat": 0.0, "name": "21c83ece1662e8ab139a68f89e6c632f", "fusion_lon": 0.0}, {"is_reserved": 0, "type": "electric_scooter", "bike_id": "a298ecf0a1601a9821fcc239130f8c98", "lat": 38.88394383333333, "lon": -76.93039416666667, "rental_uris": {"android": "https://dc.lft.to/lastmile_qr_scan", "ios": "https://dc.lft.to/lastmile_qr_scan"}, "is_disabled": 0, "fusion_lat": 0.0, "name": "a298ecf0a1601a9821fcc239130f8c98", "fusion_lon": 0.0}, {"is_reserved": 0, "type": "electric_scooter", "bike_id": "36678bc8053f5a7cec2f15b3d1e0e20f", "lat": 38.92323483333333, "lon": -77.03679133333333, "rental_uris": {"android": "https://dc.lft.to/lastmile_qr_scan", "ios": "https://dc.lft.to/lastmile_qr_scan"}, "is_disabled": 0, "fusion_lat": 0.0, "name": "36678bc8053f5a7cec2f15b3d1e0e20f", "fusion_lon": 0.0}, {"is_reserved": 0, "type": "electric_scooter", "bike_id": "1a22cb56b1c1fb5faa6d874ce67f0c3e", "lat": 38.8998795, "lon": -77.00925033333333, "rental_uris": {"android": "https://dc.lft.to/lastmile_qr_scan", "ios": "https://dc.lft.to/lastmile_qr_scan"}, "is_disabled": 0, "fusion_lat": 0.0, "name": "1a22cb56b1c1fb5faa6d874ce67f0c3e", "fusion_lon": 0.0}, {"is_reserved": 0, "type": "electric_scooter", "bike_id": "d565b5e4dea697ac6413135f27b054a6", "lat": 38.892388, "lon": -77.0489585, "rental_uris": {"android": "https://dc.lft.to/lastmile_qr_scan", "ios": "https://dc.lft.to/lastmile_qr_scan"}, "is_disabled": 0, "fusion_lat": 0.0, "name": "d565b5e4dea697ac6413135f27b054a6", "fusion_lon": 0.0}, {"is_reserved": 0, "type": "electric_scooter", "bike_id": "54530411984d18a6c5ece04ce63ca09a", "lat": 38.90341166666666, "lon": -77.02002716666667, "rental_uris": {"android": "https://dc.lft.to/lastmile_qr_scan", "ios": "https://dc.lft.to/lastmile_qr_scan"}, "is_disabled": 0, "fusion_lat": 0.0, "name": "54530411984d18a6c5ece04ce63ca09a", "fusion_lon": 0.0}, {"is_reserved": 0, "type": "electric_scooter", "bike_id": "7b766fced312969cc0c95f8520a1f7db", "lat": 38.8923115, "lon": -77.05005483333333, "rental_uris": {"android": "https://dc.lft.to/lastmile_qr_scan", "ios": "https://dc.lft.to/lastmile_qr_scan"}, "is_disabled": 0, "fusion_lat": 0.0, "name": "7b766fced312969cc0c95f8520a1f7db", "fusion_lon": 0.0}, {"is_reserved": 0, "type": "electric_scooter", "bike_id": "7a90d653969eb959d5587e0888cded45", "lat": 38.87346933333333, "lon": -76.99174933333333, "rental_uris": {"android": "https://dc.lft.to/lastmile_qr_scan", "ios": "https://dc.lft.to/lastmile_qr_scan"}, "is_disabled": 0, "fusion_lat": 0.0, "name": "7a90d653969eb959d5587e0888cded45", "fusion_lon": 0.0}, {"is_reserved": 0, "type": "electric_scooter", "bike_id": "c0f6cfceafc616c9967bffa67bee8d8a", "lat": 38.91883266666667, "lon": -77.03469066666666, "rental_uris": {"android": "https://dc.lft.to/lastmile_qr_scan", "ios": "https://dc.lft.to/lastmile_qr_scan"}, "is_disabled": 0, "fusion_lat": 0.0, "name": "c0f6cfceafc616c9967bffa67bee8d8a", "fusion_lon": 0.0}, {"is_reserved": 0, "type": "electric_scooter", "bike_id": "da4f86bef274668d7cb3e3648a3ec1d4", "lat": 38.894263, "lon": -77.0208835, "rental_uris": {"android": "https://dc.lft.to/lastmile_qr_scan", "ios": "https://dc.lft.to/lastmile_qr_scan"}, "is_disabled": 0, "fusion_lat": 0.0, "name": "da4f86bef274668d7cb3e3648a3ec1d4", "fusion_lon": 0.0}, {"is_reserved": 0, "type": "electric_scooter", "bike_id": "4d6ce8db354f1b8e0ee03a3694a34c92", "lat": 38.91803616666667, "lon": -77.0330625, "rental_uris": {"android": "https://dc.lft.to/lastmile_qr_scan", "ios": "https://dc.lft.to/lastmile_qr_scan"}, "is_disabled": 0, "fusion_lat": 0.0, "name": "4d6ce8db354f1b8e0ee03a3694a34c92", "fusion_lon": 0.0}, {"is_reserved": 0, "type": "electric_bike", "bike_id": "31260f42f67b804c7d54ee95e825d162", "lat": 38.89142983333333, "lon": -77.1828235, "rental_uris": {"android": "https://dc.lft.to/lastmile_qr_scan", "ios": "https://dc.lft.to/lastmile_qr_scan"}, "is_disabled": 0, "fusion_lat": 0.0, "name": "31260f42f67b804c7d54ee95e825d162", "fusion_lon": 0.0}, {"is_reserved": 0, "type": "electric_scooter", "bike_id": "35cebb650d757c70441dfca327904651", "lat": 38.90261433333333, "lon": -77.003308, "rental_uris": {"android": "https://dc.lft.to/lastmile_qr_scan", "ios": "https://dc.lft.to/lastmile_qr_scan"}, "is_disabled": 0, "fusion_lat": 0.0, "name": "35cebb650d757c70441dfca327904651", "fusion_lon": 0.0}, {"is_reserved": 0, "type": "electric_scooter", "bike_id": "9bb73d256258f8d69998084c410b4d29", "lat": 38.91919633333333, "lon": -77.04820216666667, "rental_uris": {"android": "https://dc.lft.to/lastmile_qr_scan", "ios": "https://dc.lft.to/lastmile_qr_scan"}, "is_disabled": 0, "fusion_lat": 0.0, "name": "9bb73d256258f8d69998084c410b4d29", "fusion_lon": 0.0}, {"is_reserved": 0, "type": "electric_scooter", "bike_id": "8e733ec4f5527167ff11a757f24b5cd8", "lat": 38.92041116666667, "lon": -77.04824016666667, "rental_uris": {"android": "https://dc.lft.to/lastmile_qr_scan", "ios": "https://dc.lft.to/lastmile_qr_scan"}, "is_disabled": 0, "fusion_lat": 0.0, "name": "8e733ec4f5527167ff11a757f24b5cd8", "fusion_lon": 0.0}, {"is_reserved": 0, "type": "electric_scooter", "bike_id": "d820799c6e7b5fe48df5fce9e5bdab7d", "lat": 38.93719766666667, "lon": -77.0326135, "rental_uris": {"android": "https://dc.lft.to/lastmile_qr_scan", "ios": "https://dc.lft.to/lastmile_qr_scan"}, "is_disabled": 0, "fusion_lat": 0.0, "name": "d820799c6e7b5fe48df5fce9e5bdab7d", "fusion_lon": 0.0}, {"is_reserved": 0, "type": "electric_scooter", "bike_id": "d38a7847cc628f2fc2d60e93feab0a75", "lat": 38.90837916666667, "lon": -77.02189366666667, "rental_uris": {"android": "https://dc.lft.to/lastmile_qr_scan", "ios": "https://dc.lft.to/lastmile_qr_scan"}, "is_disabled": 0, "fusion_lat": 0.0, "name": "d38a7847cc628f2fc2d60e93feab0a75", "fusion_lon": 0.0}, {"is_reserved": 0, "type": "electric_scooter", "bike_id": "6a3e42cf4dfac6259b0b7e224c420716", "lat": 38.92754083333333, "lon": -77.0327565, "rental_uris": {"android": "https://dc.lft.to/lastmile_qr_scan", "ios": "https://dc.lft.to/lastmile_qr_scan"}, "is_disabled": 0, "fusion_lat": 0.0, "name": "6a3e42cf4dfac6259b0b7e224c420716", "fusion_lon": 0.0}, {"is_reserved": 0, "type": "electric_scooter", "bike_id": "5c24a4b82f22eb7785668aa76b5f4cd4", "lat": 38.9441195, "lon": -77.063245, "rental_uris": {"android": "https://dc.lft.to/lastmile_qr_scan", "ios": "https://dc.lft.to/lastmile_qr_scan"}, "is_disabled": 0, "fusion_lat": 0.0, "name": "5c24a4b82f22eb7785668aa76b5f4cd4", "fusion_lon": 0.0}, {"is_reserved": 0, "type": "electric_scooter", "bike_id": "10a4535f692750609f52ddeaaf1572bd", "lat": 38.882803833333334, "lon": -76.98613616666667, "rental_uris": {"android": "https://dc.lft.to/lastmile_qr_scan", "ios": "https://dc.lft.to/lastmile_qr_scan"}, "is_disabled": 0, "fusion_lat": 0.0, "name": "10a4535f692750609f52ddeaaf1572bd", "fusion_lon": 0.0}, {"is_reserved": 0, "type": "electric_scooter", "bike_id": "87c700d5e07ea3e7e8f5f88b5c917a8c", "lat": 38.916745666666664, "lon": -77.0240465, "rental_uris": {"android": "https://dc.lft.to/lastmile_qr_scan", "ios": "https://dc.lft.to/lastmile_qr_scan"}, "is_disabled": 0, "fusion_lat": 0.0, "name": "87c700d5e07ea3e7e8f5f88b5c917a8c", "fusion_lon": 0.0}, {"is_reserved": 0, "type": "electric_scooter", "bike_id": "c2c9b7606635d4ce08151afd113be9bd", "lat": 38.89739216666667, "lon": -77.02488983333333, "rental_uris": {"android": "https://dc.lft.to/lastmile_qr_scan", "ios": "https://dc.lft.to/lastmile_qr_scan"}, "is_disabled": 0, "fusion_lat": 0.0, "name": "c2c9b7606635d4ce08151afd113be9bd", "fusion_lon": 0.0}, {"is_reserved": 0, "type": "electric_scooter", "bike_id": "b1c52dc6dd003807a37f1d3ce9c2d644", "lat": 38.853308, "lon": -76.98008866666666, "rental_uris": {"android": "https://dc.lft.to/lastmile_qr_scan", "ios": "https://dc.lft.to/lastmile_qr_scan"}, "is_disabled": 0, "fusion_lat": 0.0, "name": "b1c52dc6dd003807a37f1d3ce9c2d644", "fusion_lon": 0.0}, {"is_reserved": 0, "type": "electric_scooter", "bike_id": "c3a7b4b1b485517f26095d0d038bd4ab", "lat": 38.92492433333334, "lon": -77.03935183333333, "rental_uris": {"android": "https://dc.lft.to/lastmile_qr_scan", "ios": "https://dc.lft.to/lastmile_qr_scan"}, "is_disabled": 0, "fusion_lat": 0.0, "name": "c3a7b4b1b485517f26095d0d038bd4ab", "fusion_lon": 0.0}, {"is_reserved": 0, "type": "electric_scooter", "bike_id": "788ec33fc39794d1221dbc8bf5bf9966", "lat": 38.898843166666666, "lon": -76.98838083333334, "rental_uris": {"android": "https://dc.lft.to/lastmile_qr_scan", "ios": "https://dc.lft.to/lastmile_qr_scan"}, "is_disabled": 0, "fusion_lat": 0.0, "name": "788ec33fc39794d1221dbc8bf5bf9966", "fusion_lon": 0.0}, {"is_reserved": 0, "type": "electric_scooter", "bike_id": "56d6f040dcc2eaaeeac93e7d762c63c2", "lat": 38.913792666666666, "lon": -77.04609233333333, "rental_uris": {"android": "https://dc.lft.to/lastmile_qr_scan", "ios": "https://dc.lft.to/lastmile_qr_scan"}, "is_disabled": 0, "fusion_lat": 0.0, "name": "56d6f040dcc2eaaeeac93e7d762c63c2", "fusion_lon": 0.0}, {"is_reserved": 0, "type": "electric_scooter", "bike_id": "542a375ced28cec0dbed0110c3fd95b6", "lat": 38.934982, "lon": -77.0445975, "rental_uris": {"android": "https://dc.lft.to/lastmile_qr_scan", "ios": "https://dc.lft.to/lastmile_qr_scan"}, "is_disabled": 0, "fusion_lat": 0.0, "name": "542a375ced28cec0dbed0110c3fd95b6", "fusion_lon": 0.0}, {"is_reserved": 0, "type": "electric_scooter", "bike_id": "8b6063cda1a6403351bbaae5a5a9d7c2", "lat": 38.926458, "lon": -77.02505183333334, "rental_uris": {"android": "https://dc.lft.to/lastmile_qr_scan", "ios": "https://dc.lft.to/lastmile_qr_scan"}, "is_disabled": 0, "fusion_lat": 0.0, "name": "8b6063cda1a6403351bbaae5a5a9d7c2", "fusion_lon": 0.0}, {"is_reserved": 0, "type": "electric_scooter", "bike_id": "c73bc50bf8afdb8f297dbe616c4427ad", "lat": 38.89780283333333, "lon": -76.99271483333334, "rental_uris": {"android": "https://dc.lft.to/lastmile_qr_scan", "ios": "https://dc.lft.to/lastmile_qr_scan"}, "is_disabled": 0, "fusion_lat": 0.0, "name": "c73bc50bf8afdb8f297dbe616c4427ad", "fusion_lon": 0.0}, {"is_reserved": 0, "type": "electric_scooter", "bike_id": "8f0a61a99ab1e3b1a8cb8514a917ab4c", "lat": 38.862661, "lon": -76.981924, "rental_uris": {"android": "https://dc.lft.to/lastmile_qr_scan", "ios": "https://dc.lft.to/lastmile_qr_scan"}, "is_disabled": 0, "fusion_lat": 0.0, "name": "8f0a61a99ab1e3b1a8cb8514a917ab4c", "fusion_lon": 0.0}, {"is_reserved": 0, "type": "electric_scooter", "bike_id": "cdb0bf04ac8d157b08403f7679d802de", "lat": 38.927384333333336, "lon": -77.022503, "rental_uris": {"android": "https://dc.lft.to/lastmile_qr_scan", "ios": "https://dc.lft.to/lastmile_qr_scan"}, "is_disabled": 0, "fusion_lat": 0.0, "name": "cdb0bf04ac8d157b08403f7679d802de", "fusion_lon": 0.0}, {"is_reserved": 0, "type": "electric_scooter", "bike_id": "401db57679afea903422f696e1a64bca", "lat": 38.92554633333334, "lon": -77.05324966666667, "rental_uris": {"android": "https://dc.lft.to/lastmile_qr_scan", "ios": "https://dc.lft.to/lastmile_qr_scan"}, "is_disabled": 0, "fusion_lat": 0.0, "name": "401db57679afea903422f696e1a64bca", "fusion_lon": 0.0}, {"is_reserved": 0, "type": "electric_scooter", "bike_id": "9eeed03c564ae62315ee3879c7637ff0", "lat": 38.910607666666664, "lon": -77.00460566666666, "rental_uris": {"android": "https://dc.lft.to/lastmile_qr_scan", "ios": "https://dc.lft.to/lastmile_qr_scan"}, "is_disabled": 0, "fusion_lat": 0.0, "name": "9eeed03c564ae62315ee3879c7637ff0", "fusion_lon": 0.0}, {"is_reserved": 0, "type": "electric_scooter", "bike_id": "1d2bd744f3a6beae2b70833362244a85", "lat": 38.9899165, "lon": -77.0336215, "rental_uris": {"android": "https://dc.lft.to/lastmile_qr_scan", "ios": "https://dc.lft.to/lastmile_qr_scan"}, "is_disabled": 0, "fusion_lat": 0.0, "name": "1d2bd744f3a6beae2b70833362244a85", "fusion_lon": 0.0}, {"is_reserved": 0, "type": "electric_scooter", "bike_id": "d4a766bd2901ecbe61b0a6a4ec2f5b8d", "lat": 38.906332166666665, "lon": -77.0250475, "rental_uris": {"android": "https://dc.lft.to/lastmile_qr_scan", "ios": "https://dc.lft.to/lastmile_qr_scan"}, "is_disabled": 0, "fusion_lat": 0.0, "name": "d4a766bd2901ecbe61b0a6a4ec2f5b8d", "fusion_lon": 0.0}, {"is_reserved": 0, "type": "electric_scooter", "bike_id": "dbabce82a7504a4a7496d6b8b858dba3", "lat": 38.898680166666665, "lon": -76.94639516666666, "rental_uris": {"android": "https://dc.lft.to/lastmile_qr_scan", "ios": "https://dc.lft.to/lastmile_qr_scan"}, "is_disabled": 0, "fusion_lat": 0.0, "name": "dbabce82a7504a4a7496d6b8b858dba3", "fusion_lon": 0.0}, {"is_reserved": 0, "type": "electric_bike", "bike_id": "5d96d10da7fe620e07e6f585e4e6646d", "lat": 38.98136, "lon": -77.00767666666667, "rental_uris": {"android": "https://dc.lft.to/lastmile_qr_scan", "ios": "https://dc.lft.to/lastmile_qr_scan"}, "is_disabled": 0, "fusion_lat": 0.0, "name": "5d96d10da7fe620e07e6f585e4e6646d", "fusion_lon": 0.0}, {"is_reserved": 0, "type": "electric_scooter", "bike_id": "57458054787a5b6f5589de6bc5995778", "lat": 38.886142, "lon": -77.0034325, "rental_uris": {"android": "https://dc.lft.to/lastmile_qr_scan", "ios": "https://dc.lft.to/lastmile_qr_scan"}, "is_disabled": 0, "fusion_lat": 0.0, "name": "57458054787a5b6f5589de6bc5995778", "fusion_lon": 0.0}, {"is_reserved": 0, "type": "electric_scooter", "bike_id": "b20fadb7cbaefe9511a344b988e58c1c", "lat": 38.918238333333335, "lon": -77.04005166666667, "rental_uris": {"android": "https://dc.lft.to/lastmile_qr_scan", "ios": "https://dc.lft.to/lastmile_qr_scan"}, "is_disabled": 0, "fusion_lat": 0.0, "name": "b20fadb7cbaefe9511a344b988e58c1c", "fusion_lon": 0.0}, {"is_reserved": 0, "type": "electric_scooter", "bike_id": "fc42aa2bc5ccd8a9681a5161cb611245", "lat": 38.89912416666667, "lon": -76.93362183333333, "rental_uris": {"android": "https://dc.lft.to/lastmile_qr_scan", "ios": "https://dc.lft.to/lastmile_qr_scan"}, "is_disabled": 0, "fusion_lat": 0.0, "name": "fc42aa2bc5ccd8a9681a5161cb611245", "fusion_lon": 0.0}, {"is_reserved": 0, "type": "electric_scooter", "bike_id": "baa12e780170d7f02afc9de01992745f", "lat": 38.92114316666667, "lon": -77.04224016666667, "rental_uris": {"android": "https://dc.lft.to/lastmile_qr_scan", "ios": "https://dc.lft.to/lastmile_qr_scan"}, "is_disabled": 0, "fusion_lat": 0.0, "name": "baa12e780170d7f02afc9de01992745f", "fusion_lon": 0.0}, {"is_reserved": 0, "type": "electric_scooter", "bike_id": "04a7369e48cf735e10bb1a6bbc0b7643", "lat": 38.91821083333333, "lon": -77.02478783333333, "rental_uris": {"android": "https://dc.lft.to/lastmile_qr_scan", "ios": "https://dc.lft.to/lastmile_qr_scan"}, "is_disabled": 0, "fusion_lat": 0.0, "name": "04a7369e48cf735e10bb1a6bbc0b7643", "fusion_lon": 0.0}, {"is_reserved": 0, "type": "electric_scooter", "bike_id": "20e720a915d062660fbae8f2b089772f", "lat": 38.9213325, "lon": -77.01903066666667, "rental_uris": {"android": "https://dc.lft.to/lastmile_qr_scan", "ios": "https://dc.lft.to/lastmile_qr_scan"}, "is_disabled": 0, "fusion_lat": 0.0, "name": "20e720a915d062660fbae8f2b089772f", "fusion_lon": 0.0}, {"is_reserved": 0, "type": "electric_scooter", "bike_id": "09d2ac005f5cb234bbd94981f5a2bc10", "lat": 38.916812, "lon": -77.02951566666667, "rental_uris": {"android": "https://dc.lft.to/lastmile_qr_scan", "ios": "https://dc.lft.to/lastmile_qr_scan"}, "is_disabled": 0, "fusion_lat": 0.0, "name": "09d2ac005f5cb234bbd94981f5a2bc10", "fusion_lon": 0.0}, {"is_reserved": 0, "type": "electric_scooter", "bike_id": "b45f556863bf2361e511db984a7f338b", "lat": 38.9071695, "lon": -77.00804733333334, "rental_uris": {"android": "https://dc.lft.to/lastmile_qr_scan", "ios": "https://dc.lft.to/lastmile_qr_scan"}, "is_disabled": 0, "fusion_lat": 0.0, "name": "b45f556863bf2361e511db984a7f338b", "fusion_lon": 0.0}, {"is_reserved": 0, "type": "electric_scooter", "bike_id": "2d6833c9fc044a8ad462550010380afc", "lat": 38.93074683333333, "lon": -77.02814216666667, "rental_uris": {"android": "https://dc.lft.to/lastmile_qr_scan", "ios": "https://dc.lft.to/lastmile_qr_scan"}, "is_disabled": 0, "fusion_lat": 0.0, "name": "2d6833c9fc044a8ad462550010380afc", "fusion_lon": 0.0}, {"is_reserved": 0, "type": "electric_scooter", "bike_id": "f48d3a94af791113ba8823c7ad5e776e", "lat": 38.87474183333333, "lon": -77.005496, "rental_uris": {"android": "https://dc.lft.to/lastmile_qr_scan", "ios": "https://dc.lft.to/lastmile_qr_scan"}, "is_disabled": 0, "fusion_lat": 0.0, "name": "f48d3a94af791113ba8823c7ad5e776e", "fusion_lon": 0.0}, {"is_reserved": 0, "type": "electric_scooter", "bike_id": "4ae131178b0ad99ac5c5824c2f402b56", "lat": 38.896224333333336, "lon": -76.99732016666667, "rental_uris": {"android": "https://dc.lft.to/lastmile_qr_scan", "ios": "https://dc.lft.to/lastmile_qr_scan"}, "is_disabled": 0, "fusion_lat": 0.0, "name": "4ae131178b0ad99ac5c5824c2f402b56", "fusion_lon": 0.0}, {"is_reserved": 0, "type": "electric_scooter", "bike_id": "c523a0777877d62cced3c74d86f621d6", "lat": 38.9322585, "lon": -76.99750233333333, "rental_uris": {"android": "https://dc.lft.to/lastmile_qr_scan", "ios": "https://dc.lft.to/lastmile_qr_scan"}, "is_disabled": 0, "fusion_lat": 0.0, "name": "c523a0777877d62cced3c74d86f621d6", "fusion_lon": 0.0}, {"is_reserved": 0, "type": "electric_scooter", "bike_id": "51b659823bd75f0b27f82054cecd4c66", "lat": 38.9164995, "lon": -77.021811, "rental_uris": {"android": "https://dc.lft.to/lastmile_qr_scan", "ios": "https://dc.lft.to/lastmile_qr_scan"}, "is_disabled": 0, "fusion_lat": 0.0, "name": "51b659823bd75f0b27f82054cecd4c66", "fusion_lon": 0.0}, {"is_reserved": 0, "type": "electric_scooter", "bike_id": "15c644fdee1a8fb3d802b42138501dfe", "lat": 38.923967166666664, "lon": -77.0506135, "rental_uris": {"android": "https://dc.lft.to/lastmile_qr_scan", "ios": "https://dc.lft.to/lastmile_qr_scan"}, "is_disabled": 0, "fusion_lat": 0.0, "name": "15c644fdee1a8fb3d802b42138501dfe", "fusion_lon": 0.0}, {"is_reserved": 0, "type": "electric_bike", "bike_id": "06e86479562e4367846ae8fc8ca47e52", "lat": 38.945682166666664, "lon": -76.95840583333333, "rental_uris": {"android": "https://dc.lft.to/lastmile_qr_scan", "ios": "https://dc.lft.to/lastmile_qr_scan"}, "is_disabled": 0, "fusion_lat": 0.0, "name": "06e86479562e4367846ae8fc8ca47e52", "fusion_lon": 0.0}, {"is_reserved": 0, "type": "electric_scooter", "bike_id": "886e316fccc961fedb3d7230e963788d", "lat": 38.899510666666664, "lon": -76.94636383333334, "rental_uris": {"android": "https://dc.lft.to/lastmile_qr_scan", "ios": "https://dc.lft.to/lastmile_qr_scan"}, "is_disabled": 0, "fusion_lat": 0.0, "name": "886e316fccc961fedb3d7230e963788d", "fusion_lon": 0.0}, {"is_reserved": 0, "type": "electric_scooter", "bike_id": "7209bcf84d6c0da41b309dcbe2cbb77f", "lat": 38.903682833333335, "lon": -77.007342, "rental_uris": {"android": "https://dc.lft.to/lastmile_qr_scan", "ios": "https://dc.lft.to/lastmile_qr_scan"}, "is_disabled": 0, "fusion_lat": 0.0, "name": "7209bcf84d6c0da41b309dcbe2cbb77f", "fusion_lon": 0.0}, {"is_reserved": 0, "type": "electric_scooter", "bike_id": "4841bafd79aa49e614b3b92b947c3040", "lat": 38.92362933333333, "lon": -77.05114083333333, "rental_uris": {"android": "https://dc.lft.to/lastmile_qr_scan", "ios": "https://dc.lft.to/lastmile_qr_scan"}, "is_disabled": 0, "fusion_lat": 0.0, "name": "4841bafd79aa49e614b3b92b947c3040", "fusion_lon": 0.0}, {"is_reserved": 0, "type": "electric_bike", "bike_id": "a79b76ef2f30a23caf77273d1e3e0a18", "lat": 38.958702, "lon": -76.97056383333333, "rental_uris": {"android": "https://dc.lft.to/lastmile_qr_scan", "ios": "https://dc.lft.to/lastmile_qr_scan"}, "is_disabled": 0, "fusion_lat": 0.0, "name": "a79b76ef2f30a23caf77273d1e3e0a18", "fusion_lon": 0.0}, {"is_reserved": 0, "type": "electric_scooter", "bike_id": "fef6cb832d8f620514c6613b702e91fe", "lat": 38.90571166666667, "lon": -77.00437716666667, "rental_uris": {"android": "https://dc.lft.to/lastmile_qr_scan", "ios": "https://dc.lft.to/lastmile_qr_scan"}, "is_disabled": 0, "fusion_lat": 0.0, "name": "fef6cb832d8f620514c6613b702e91fe", "fusion_lon": 0.0}, {"is_reserved": 0, "type": "electric_scooter", "bike_id": "0f71601a95126d2171b260ce352ac4e9", "lat": 38.9242835, "lon": -77.0194445, "rental_uris": {"android": "https://dc.lft.to/lastmile_qr_scan", "ios": "https://dc.lft.to/lastmile_qr_scan"}, "is_disabled": 0, "fusion_lat": 0.0, "name": "0f71601a95126d2171b260ce352ac4e9", "fusion_lon": 0.0}, {"is_reserved": 0, "type": "electric_scooter", "bike_id": "569b3d2539d4152888c1b97d953ce955", "lat": 38.9260885, "lon": -77.02161333333333, "rental_uris": {"android": "https://dc.lft.to/lastmile_qr_scan", "ios": "https://dc.lft.to/lastmile_qr_scan"}, "is_disabled": 0, "fusion_lat": 0.0, "name": "569b3d2539d4152888c1b97d953ce955", "fusion_lon": 0.0}, {"is_reserved": 0, "type": "electric_scooter", "bike_id": "306f5d76945b6b41d875d54baaaeef41", "lat": 38.897836, "lon": -77.016245, "rental_uris": {"android": "https://dc.lft.to/lastmile_qr_scan", "ios": "https://dc.lft.to/lastmile_qr_scan"}, "is_disabled": 0, "fusion_lat": 0.0, "name": "306f5d76945b6b41d875d54baaaeef41", "fusion_lon": 0.0}, {"is_reserved": 0, "type": "electric_scooter", "bike_id": "2fc8e3a76df061834e40d5b71e0f6974", "lat": 38.92238366666667, "lon": -77.035187, "rental_uris": {"android": "https://dc.lft.to/lastmile_qr_scan", "ios": "https://dc.lft.to/lastmile_qr_scan"}, "is_disabled": 0, "fusion_lat": 0.0, "name": "2fc8e3a76df061834e40d5b71e0f6974", "fusion_lon": 0.0}, {"is_reserved": 0, "type": "electric_scooter", "bike_id": "bf75fc6a76de7d958cdb8d64cffc7ea4", "lat": 38.941792, "lon": -77.02565533333333, "rental_uris": {"android": "https://dc.lft.to/lastmile_qr_scan", "ios": "https://dc.lft.to/lastmile_qr_scan"}, "is_disabled": 0, "fusion_lat": 0.0, "name": "bf75fc6a76de7d958cdb8d64cffc7ea4", "fusion_lon": 0.0}, {"is_reserved": 0, "type": "electric_scooter", "bike_id": "5d3e43861924d695bf3af27f8fd134ce", "lat": 38.914719166666664, "lon": -77.0260515, "rental_uris": {"android": "https://dc.lft.to/lastmile_qr_scan", "ios": "https://dc.lft.to/lastmile_qr_scan"}, "is_disabled": 0, "fusion_lat": 0.0, "name": "5d3e43861924d695bf3af27f8fd134ce", "fusion_lon": 0.0}, {"is_reserved": 0, "type": "electric_scooter", "bike_id": "5f6d5a6c514b974975be83b22ff76a76", "lat": 38.87869516666667, "lon": -76.962613, "rental_uris": {"android": "https://dc.lft.to/lastmile_qr_scan", "ios": "https://dc.lft.to/lastmile_qr_scan"}, "is_disabled": 0, "fusion_lat": 0.0, "name": "5f6d5a6c514b974975be83b22ff76a76", "fusion_lon": 0.0}, {"is_reserved": 0, "type": "electric_scooter", "bike_id": "996d49b7d8da13401f0452b4c8d4f997", "lat": 38.9005505, "lon": -77.00746366666667, "rental_uris": {"android": "https://dc.lft.to/lastmile_qr_scan", "ios": "https://dc.lft.to/lastmile_qr_scan"}, "is_disabled": 0, "fusion_lat": 0.0, "name": "996d49b7d8da13401f0452b4c8d4f997", "fusion_lon": 0.0}, {"is_reserved": 0, "type": "electric_scooter", "bike_id": "2818149136073c2e3295d3cd2db6b82d", "lat": 38.838031, "lon": -76.99856083333333, "rental_uris": {"android": "https://dc.lft.to/lastmile_qr_scan", "ios": "https://dc.lft.to/lastmile_qr_scan"}, "is_disabled": 0, "fusion_lat": 0.0, "name": "2818149136073c2e3295d3cd2db6b82d", "fusion_lon": 0.0}, {"is_reserved": 0, "type": "electric_scooter", "bike_id": "d957e81d4c85479d0c1047a4f2c5a2a5", "lat": 38.89964466666667, "lon": -77.0449035, "rental_uris": {"android": "https://dc.lft.to/lastmile_qr_scan", "ios": "https://dc.lft.to/lastmile_qr_scan"}, "is_disabled": 0, "fusion_lat": 0.0, "name": "d957e81d4c85479d0c1047a4f2c5a2a5", "fusion_lon": 0.0}, {"is_reserved": 0, "type": "electric_scooter", "bike_id": "f0d80a83d7dd5a731ed3adbd0cd6a3d2", "lat": 38.91261766666667, "lon": -77.0286175, "rental_uris": {"android": "https://dc.lft.to/lastmile_qr_scan", "ios": "https://dc.lft.to/lastmile_qr_scan"}, "is_disabled": 0, "fusion_lat": 0.0, "name": "f0d80a83d7dd5a731ed3adbd0cd6a3d2", "fusion_lon": 0.0}, {"is_reserved": 0, "type": "electric_scooter", "bike_id": "4e1cf855cfcec6c2ef96cd58d82e15cf", "lat": 38.938469, "lon": -77.02481883333333, "rental_uris": {"android": "https://dc.lft.to/lastmile_qr_scan", "ios": "https://dc.lft.to/lastmile_qr_scan"}, "is_disabled": 0, "fusion_lat": 0.0, "name": "4e1cf855cfcec6c2ef96cd58d82e15cf", "fusion_lon": 0.0}, {"is_reserved": 0, "type": "electric_scooter", "bike_id": "0d69607dc0aaad812bd2b1b13f48a26c", "lat": 38.931037333333336, "lon": -77.024796, "rental_uris": {"android": "https://dc.lft.to/lastmile_qr_scan", "ios": "https://dc.lft.to/lastmile_qr_scan"}, "is_disabled": 0, "fusion_lat": 0.0, "name": "0d69607dc0aaad812bd2b1b13f48a26c", "fusion_lon": 0.0}, {"is_reserved": 0, "type": "electric_scooter", "bike_id": "f12e0bdcfe5ce7723b5b5f546bf1c978", "lat": 38.898268333333334, "lon": -76.94655266666666, "rental_uris": {"android": "https://dc.lft.to/lastmile_qr_scan", "ios": "https://dc.lft.to/lastmile_qr_scan"}, "is_disabled": 0, "fusion_lat": 0.0, "name": "f12e0bdcfe5ce7723b5b5f546bf1c978", "fusion_lon": 0.0}, {"is_reserved": 0, "type": "electric_bike", "bike_id": "372a2f439d0d3bec7b922590281b0a72", "lat": 38.900344, "lon": -76.98038033333333, "rental_uris": {"android": "https://dc.lft.to/lastmile_qr_scan", "ios": "https://dc.lft.to/lastmile_qr_scan"}, "is_disabled": 0, "fusion_lat": 0.0, "name": "372a2f439d0d3bec7b922590281b0a72", "fusion_lon": 0.0}, {"is_reserved": 0, "type": "electric_scooter", "bike_id": "f14df126b5559908b2e09a9f7cfcc39c", "lat": 38.960326333333335, "lon": -77.024291, "rental_uris": {"android": "https://dc.lft.to/lastmile_qr_scan", "ios": "https://dc.lft.to/lastmile_qr_scan"}, "is_disabled": 0, "fusion_lat": 0.0, "name": "f14df126b5559908b2e09a9f7cfcc39c", "fusion_lon": 0.0}, {"is_reserved": 0, "type": "electric_scooter", "bike_id": "e22d40a59b1a7495c2694c4bba2eb479", "lat": 38.93634016666667, "lon": -77.07302516666667, "rental_uris": {"android": "https://dc.lft.to/lastmile_qr_scan", "ios": "https://dc.lft.to/lastmile_qr_scan"}, "is_disabled": 0, "fusion_lat": 0.0, "name": "e22d40a59b1a7495c2694c4bba2eb479", "fusion_lon": 0.0}, {"is_reserved": 0, "type": "electric_scooter", "bike_id": "af5b6b01d765b8d4d8690fb5523c9469", "lat": 38.917556833333336, "lon": -77.0146595, "rental_uris": {"android": "https://dc.lft.to/lastmile_qr_scan", "ios": "https://dc.lft.to/lastmile_qr_scan"}, "is_disabled": 0, "fusion_lat": 0.0, "name": "af5b6b01d765b8d4d8690fb5523c9469", "fusion_lon": 0.0}, {"is_reserved": 0, "type": "electric_scooter", "bike_id": "5d3df0e342321ca8dfce6a299e6005ef", "lat": 38.91769016666667, "lon": -77.023068, "rental_uris": {"android": "https://dc.lft.to/lastmile_qr_scan", "ios": "https://dc.lft.to/lastmile_qr_scan"}, "is_disabled": 0, "fusion_lat": 0.0, "name": "5d3df0e342321ca8dfce6a299e6005ef", "fusion_lon": 0.0}, {"is_reserved": 0, "type": "electric_scooter", "bike_id": "72a49fc50a1a34e0f18e3aa184a342f4", "lat": 38.905577, "lon": -77.02727166666666, "rental_uris": {"android": "https://dc.lft.to/lastmile_qr_scan", "ios": "https://dc.lft.to/lastmile_qr_scan"}, "is_disabled": 0, "fusion_lat": 0.0, "name": "72a49fc50a1a34e0f18e3aa184a342f4", "fusion_lon": 0.0}, {"is_reserved": 0, "type": "electric_scooter", "bike_id": "a5f50ef606cb198ff4be88b943cef524", "lat": 38.9279395, "lon": -77.02535216666666, "rental_uris": {"android": "https://dc.lft.to/lastmile_qr_scan", "ios": "https://dc.lft.to/lastmile_qr_scan"}, "is_disabled": 0, "fusion_lat": 0.0, "name": "a5f50ef606cb198ff4be88b943cef524", "fusion_lon": 0.0}, {"is_reserved": 0, "type": "electric_scooter", "bike_id": "8b01d58b1a58cd44f46701823df019de", "lat": 38.872970333333335, "lon": -77.00228383333334, "rental_uris": {"android": "https://dc.lft.to/lastmile_qr_scan", "ios": "https://dc.lft.to/lastmile_qr_scan"}, "is_disabled": 0, "fusion_lat": 0.0, "name": "8b01d58b1a58cd44f46701823df019de", "fusion_lon": 0.0}, {"is_reserved": 0, "type": "electric_scooter", "bike_id": "b9f96f392bfc74e3121035797965b7a9", "lat": 38.9264575, "lon": -77.03472283333333, "rental_uris": {"android": "https://dc.lft.to/lastmile_qr_scan", "ios": "https://dc.lft.to/lastmile_qr_scan"}, "is_disabled": 0, "fusion_lat": 0.0, "name": "b9f96f392bfc74e3121035797965b7a9", "fusion_lon": 0.0}, {"is_reserved": 0, "type": "electric_scooter", "bike_id": "0a46a160d856ec02d724fbd99cee14e0", "lat": 38.8914655, "lon": -76.99945983333333, "rental_uris": {"android": "https://dc.lft.to/lastmile_qr_scan", "ios": "https://dc.lft.to/lastmile_qr_scan"}, "is_disabled": 0, "fusion_lat": 0.0, "name": "0a46a160d856ec02d724fbd99cee14e0", "fusion_lon": 0.0}, {"is_reserved": 0, "type": "electric_scooter", "bike_id": "aab713ac76a5f2c2d9797a3f7911a785", "lat": 38.924128, "lon": -77.0194785, "rental_uris": {"android": "https://dc.lft.to/lastmile_qr_scan", "ios": "https://dc.lft.to/lastmile_qr_scan"}, "is_disabled": 0, "fusion_lat": 0.0, "name": "aab713ac76a5f2c2d9797a3f7911a785", "fusion_lon": 0.0}, {"is_reserved": 0, "type": "electric_scooter", "bike_id": "eafaddf3ca92973741b0a49b8f88eb2a", "lat": 38.91368716666667, "lon": -77.02000083333333, "rental_uris": {"android": "https://dc.lft.to/lastmile_qr_scan", "ios": "https://dc.lft.to/lastmile_qr_scan"}, "is_disabled": 0, "fusion_lat": 0.0, "name": "eafaddf3ca92973741b0a49b8f88eb2a", "fusion_lon": 0.0}, {"is_reserved": 0, "type": "electric_scooter", "bike_id": "40ba22fd6a34904a13a4d0be0e216eb7", "lat": 38.9077205, "lon": -77.045173, "rental_uris": {"android": "https://dc.lft.to/lastmile_qr_scan", "ios": "https://dc.lft.to/lastmile_qr_scan"}, "is_disabled": 0, "fusion_lat": 0.0, "name": "40ba22fd6a34904a13a4d0be0e216eb7", "fusion_lon": 0.0}, {"is_reserved": 0, "type": "electric_scooter", "bike_id": "b9876d82dc32e28cb5b30fc05e7f1546", "lat": 38.922368666666664, "lon": -77.04387416666667, "rental_uris": {"android": "https://dc.lft.to/lastmile_qr_scan", "ios": "https://dc.lft.to/lastmile_qr_scan"}, "is_disabled": 0, "fusion_lat": 0.0, "name": "b9876d82dc32e28cb5b30fc05e7f1546", "fusion_lon": 0.0}, {"is_reserved": 0, "type": "electric_scooter", "bike_id": "53205b52512fa5ee48d2043a0ea8d702", "lat": 38.914063166666665, "lon": -77.03259233333333, "rental_uris": {"android": "https://dc.lft.to/lastmile_qr_scan", "ios": "https://dc.lft.to/lastmile_qr_scan"}, "is_disabled": 0, "fusion_lat": 0.0, "name": "53205b52512fa5ee48d2043a0ea8d702", "fusion_lon": 0.0}, {"is_reserved": 0, "type": "electric_scooter", "bike_id": "02b453413da3edc77a99a23d851d32f1", "lat": 38.91387433333333, "lon": -77.02612, "rental_uris": {"android": "https://dc.lft.to/lastmile_qr_scan", "ios": "https://dc.lft.to/lastmile_qr_scan"}, "is_disabled": 0, "fusion_lat": 0.0, "name": "02b453413da3edc77a99a23d851d32f1", "fusion_lon": 0.0}, {"is_reserved": 0, "type": "electric_bike", "bike_id": "b45252f035f5045d3936bb5f14cfaf19", "lat": 38.87047583333333, "lon": -77.22915283333333, "rental_uris": {"android": "https://dc.lft.to/lastmile_qr_scan", "ios": "https://dc.lft.to/lastmile_qr_scan"}, "is_disabled": 0, "fusion_lat": 0.0, "name": "b45252f035f5045d3936bb5f14cfaf19", "fusion_lon": 0.0}, {"is_reserved": 0, "type": "electric_bike", "bike_id": "738b398bee069ce13fd53cca3a168c78", "lat": 38.85437983333333, "lon": -77.08320066666667, "rental_uris": {"android": "https://dc.lft.to/lastmile_qr_scan", "ios": "https://dc.lft.to/lastmile_qr_scan"}, "is_disabled": 0, "fusion_lat": 0.0, "name": "738b398bee069ce13fd53cca3a168c78", "fusion_lon": 0.0}, {"is_reserved": 0, "type": "electric_scooter", "bike_id": "16bf90c5003042ddda848118102d5036", "lat": 38.8942445, "lon": -76.99826716666666, "rental_uris": {"android": "https://dc.lft.to/lastmile_qr_scan", "ios": "https://dc.lft.to/lastmile_qr_scan"}, "is_disabled": 0, "fusion_lat": 0.0, "name": "16bf90c5003042ddda848118102d5036", "fusion_lon": 0.0}, {"is_reserved": 0, "type": "electric_bike", "bike_id": "2b13702fb97b61ef88992789f29780b2", "lat": 38.998864166666664, "lon": -76.90860766666667, "rental_uris": {"android": "https://dc.lft.to/lastmile_qr_scan", "ios": "https://dc.lft.to/lastmile_qr_scan"}, "is_disabled": 0, "fusion_lat": 0.0, "name": "2b13702fb97b61ef88992789f29780b2", "fusion_lon": 0.0}, {"is_reserved": 0, "type": "electric_scooter", "bike_id": "6d1a43d65bbbd49e662e6f12664a2ed3", "lat": 38.942235833333335, "lon": -77.02965883333333, "rental_uris": {"android": "https://dc.lft.to/lastmile_qr_scan", "ios": "https://dc.lft.to/lastmile_qr_scan"}, "is_disabled": 0, "fusion_lat": 0.0, "name": "6d1a43d65bbbd49e662e6f12664a2ed3", "fusion_lon": 0.0}, {"is_reserved": 0, "type": "electric_scooter", "bike_id": "55537def66d3404d34f85eb214ff89cb", "lat": 38.92451533333333, "lon": -77.02037116666666, "rental_uris": {"android": "https://dc.lft.to/lastmile_qr_scan", "ios": "https://dc.lft.to/lastmile_qr_scan"}, "is_disabled": 0, "fusion_lat": 0.0, "name": "55537def66d3404d34f85eb214ff89cb", "fusion_lon": 0.0}, {"is_reserved": 0, "type": "electric_bike", "bike_id": "f76e1e6e39bc6b7009b4b03c142b0c36", "lat": 38.964422166666665, "lon": -77.03158666666667, "rental_uris": {"android": "https://dc.lft.to/lastmile_qr_scan", "ios": "https://dc.lft.to/lastmile_qr_scan"}, "is_disabled": 0, "fusion_lat": 0.0, "name": "f76e1e6e39bc6b7009b4b03c142b0c36", "fusion_lon": 0.0}, {"is_reserved": 0, "type": "electric_scooter", "bike_id": "9ee64b94f4cb1a14305f8d4d34cca2bb", "lat": 38.90147983333333, "lon": -77.0275105, "rental_uris": {"android": "https://dc.lft.to/lastmile_qr_scan", "ios": "https://dc.lft.to/lastmile_qr_scan"}, "is_disabled": 0, "fusion_lat": 0.0, "name": "9ee64b94f4cb1a14305f8d4d34cca2bb", "fusion_lon": 0.0}, {"is_reserved": 0, "type": "electric_scooter", "bike_id": "f989a0e89013c5a6d429f62f67643247", "lat": 38.9312085, "lon": -77.02099416666667, "rental_uris": {"android": "https://dc.lft.to/lastmile_qr_scan", "ios": "https://dc.lft.to/lastmile_qr_scan"}, "is_disabled": 0, "fusion_lat": 0.0, "name": "f989a0e89013c5a6d429f62f67643247", "fusion_lon": 0.0}, {"is_reserved": 0, "type": "electric_scooter", "bike_id": "1aa439b48b7d01f8057be0b751062bce", "lat": 38.89928033333333, "lon": -77.033011, "rental_uris": {"android": "https://dc.lft.to/lastmile_qr_scan", "ios": "https://dc.lft.to/lastmile_qr_scan"}, "is_disabled": 0, "fusion_lat": 0.0, "name": "1aa439b48b7d01f8057be0b751062bce", "fusion_lon": 0.0}, {"is_reserved": 0, "type": "electric_scooter", "bike_id": "8b4bf52cd65a31c64f4c72d8cacd59a6", "lat": 38.9187345, "lon": -77.03654683333333, "rental_uris": {"android": "https://dc.lft.to/lastmile_qr_scan", "ios": "https://dc.lft.to/lastmile_qr_scan"}, "is_disabled": 0, "fusion_lat": 0.0, "name": "8b4bf52cd65a31c64f4c72d8cacd59a6", "fusion_lon": 0.0}, {"is_reserved": 0, "type": "electric_scooter", "bike_id": "4a6e99f9b8c4447a76954caeead3ea63", "lat": 38.9125675, "lon": -77.007763, "rental_uris": {"android": "https://dc.lft.to/lastmile_qr_scan", "ios": "https://dc.lft.to/lastmile_qr_scan"}, "is_disabled": 0, "fusion_lat": 0.0, "name": "4a6e99f9b8c4447a76954caeead3ea63", "fusion_lon": 0.0}, {"is_reserved": 0, "type": "electric_bike", "bike_id": "8ac34f549002c1975a16a6aa9cd3f29e", "lat": 38.94673616666667, "lon": -76.9933815, "rental_uris": {"android": "https://dc.lft.to/lastmile_qr_scan", "ios": "https://dc.lft.to/lastmile_qr_scan"}, "is_disabled": 0, "fusion_lat": 0.0, "name": "8ac34f549002c1975a16a6aa9cd3f29e", "fusion_lon": 0.0}, {"is_reserved": 0, "type": "electric_scooter", "bike_id": "5e9a9545ba07d4466dcc1cebf09112ff", "lat": 38.897452, "lon": -76.997682, "rental_uris": {"android": "https://dc.lft.to/lastmile_qr_scan", "ios": "https://dc.lft.to/lastmile_qr_scan"}, "is_disabled": 0, "fusion_lat": 0.0, "name": "5e9a9545ba07d4466dcc1cebf09112ff", "fusion_lon": 0.0}, {"is_reserved": 0, "type": "electric_scooter", "bike_id": "8fdd6ad2eabf656a26f834d3d58ec5ba", "lat": 38.91648816666667, "lon": -77.0237835, "rental_uris": {"android": "https://dc.lft.to/lastmile_qr_scan", "ios": "https://dc.lft.to/lastmile_qr_scan"}, "is_disabled": 0, "fusion_lat": 0.0, "name": "8fdd6ad2eabf656a26f834d3d58ec5ba", "fusion_lon": 0.0}, {"is_reserved": 0, "type": "electric_bike", "bike_id": "18d43629658765a589d5bea45a3e5d90", "lat": 38.886061833333336, "lon": -77.142355, "rental_uris": {"android": "https://dc.lft.to/lastmile_qr_scan", "ios": "https://dc.lft.to/lastmile_qr_scan"}, "is_disabled": 0, "fusion_lat": 0.0, "name": "18d43629658765a589d5bea45a3e5d90", "fusion_lon": 0.0}, {"is_reserved": 0, "type": "electric_scooter", "bike_id": "1462056639def2c0007a38265fe130e2", "lat": 38.915583833333336, "lon": -77.03990883333333, "rental_uris": {"android": "https://dc.lft.to/lastmile_qr_scan", "ios": "https://dc.lft.to/lastmile_qr_scan"}, "is_disabled": 0, "fusion_lat": 0.0, "name": "1462056639def2c0007a38265fe130e2", "fusion_lon": 0.0}, {"is_reserved": 0, "type": "electric_scooter", "bike_id": "488e9fab19a354a358d7993a2a99ba80", "lat": 38.87662183333333, "lon": -76.99326, "rental_uris": {"android": "https://dc.lft.to/lastmile_qr_scan", "ios": "https://dc.lft.to/lastmile_qr_scan"}, "is_disabled": 0, "fusion_lat": 0.0, "name": "488e9fab19a354a358d7993a2a99ba80", "fusion_lon": 0.0}, {"is_reserved": 0, "type": "electric_scooter", "bike_id": "2d3afea62796eb6e8cfc14171b982f84", "lat": 38.91951816666667, "lon": -77.02496466666666, "rental_uris": {"android": "https://dc.lft.to/lastmile_qr_scan", "ios": "https://dc.lft.to/lastmile_qr_scan"}, "is_disabled": 0, "fusion_lat": 0.0, "name": "2d3afea62796eb6e8cfc14171b982f84", "fusion_lon": 0.0}, {"is_reserved": 0, "type": "electric_scooter", "bike_id": "66c6d7a5346d743c12f2284e88b89967", "lat": 38.908517333333336, "lon": -77.0102415, "rental_uris": {"android": "https://dc.lft.to/lastmile_qr_scan", "ios": "https://dc.lft.to/lastmile_qr_scan"}, "is_disabled": 0, "fusion_lat": 0.0, "name": "66c6d7a5346d743c12f2284e88b89967", "fusion_lon": 0.0}, {"is_reserved": 0, "type": "electric_scooter", "bike_id": "7119427dca06566f611d15c802d00ab6", "lat": 38.910670333333336, "lon": -77.04095383333333, "rental_uris": {"android": "https://dc.lft.to/lastmile_qr_scan", "ios": "https://dc.lft.to/lastmile_qr_scan"}, "is_disabled": 0, "fusion_lat": 0.0, "name": "7119427dca06566f611d15c802d00ab6", "fusion_lon": 0.0}, {"is_reserved": 0, "type": "electric_scooter", "bike_id": "4c53304b062187f288a6476e3060e496", "lat": 38.91578916666667, "lon": -77.0451305, "rental_uris": {"android": "https://dc.lft.to/lastmile_qr_scan", "ios": "https://dc.lft.to/lastmile_qr_scan"}, "is_disabled": 0, "fusion_lat": 0.0, "name": "4c53304b062187f288a6476e3060e496", "fusion_lon": 0.0}, {"is_reserved": 0, "type": "electric_scooter", "bike_id": "adf3cdac62bf8b8ec40c0822538b095c", "lat": 38.904108666666666, "lon": -76.97331633333333, "rental_uris": {"android": "https://dc.lft.to/lastmile_qr_scan", "ios": "https://dc.lft.to/lastmile_qr_scan"}, "is_disabled": 0, "fusion_lat": 0.0, "name": "adf3cdac62bf8b8ec40c0822538b095c", "fusion_lon": 0.0}, {"is_reserved": 0, "type": "electric_scooter", "bike_id": "cdf1aa938a0cbae0509079325f4349b5", "lat": 38.92034533333333, "lon": -77.0172485, "rental_uris": {"android": "https://dc.lft.to/lastmile_qr_scan", "ios": "https://dc.lft.to/lastmile_qr_scan"}, "is_disabled": 0, "fusion_lat": 0.0, "name": "cdf1aa938a0cbae0509079325f4349b5", "fusion_lon": 0.0}, {"is_reserved": 0, "type": "electric_scooter", "bike_id": "099c3909a3c28ee5d62199fe40a0f738", "lat": 38.906877, "lon": -77.01548633333333, "rental_uris": {"android": "https://dc.lft.to/lastmile_qr_scan", "ios": "https://dc.lft.to/lastmile_qr_scan"}, "is_disabled": 0, "fusion_lat": 0.0, "name": "099c3909a3c28ee5d62199fe40a0f738", "fusion_lon": 0.0}, {"is_reserved": 0, "type": "electric_scooter", "bike_id": "f2c2f70fa2b5654c49def5b18a37cebe", "lat": 38.899691833333335, "lon": -77.04486316666667, "rental_uris": {"android": "https://dc.lft.to/lastmile_qr_scan", "ios": "https://dc.lft.to/lastmile_qr_scan"}, "is_disabled": 0, "fusion_lat": 0.0, "name": "f2c2f70fa2b5654c49def5b18a37cebe", "fusion_lon": 0.0}, {"is_reserved": 0, "type": "electric_scooter", "bike_id": "27f8d47a1ff004f5d7420d6817b7fd52", "lat": 38.92582483333333, "lon": -76.99490583333333, "rental_uris": {"android": "https://dc.lft.to/lastmile_qr_scan", "ios": "https://dc.lft.to/lastmile_qr_scan"}, "is_disabled": 0, "fusion_lat": 0.0, "name": "27f8d47a1ff004f5d7420d6817b7fd52", "fusion_lon": 0.0}, {"is_reserved": 0, "type": "electric_bike", "bike_id": "c1e5af9b4747016bc01f715b9171d54b", "lat": 38.8813435, "lon": -77.016778, "rental_uris": {"android": "https://dc.lft.to/lastmile_qr_scan", "ios": "https://dc.lft.to/lastmile_qr_scan"}, "is_disabled": 0, "fusion_lat": 0.0, "name": "c1e5af9b4747016bc01f715b9171d54b", "fusion_lon": 0.0}, {"is_reserved": 0, "type": "electric_scooter", "bike_id": "9cf8cfd1e075b2acf385b59834d6fb33", "lat": 38.88613383333333, "lon": -76.99653, "rental_uris": {"android": "https://dc.lft.to/lastmile_qr_scan", "ios": "https://dc.lft.to/lastmile_qr_scan"}, "is_disabled": 0, "fusion_lat": 0.0, "name": "9cf8cfd1e075b2acf385b59834d6fb33", "fusion_lon": 0.0}, {"is_reserved": 0, "type": "electric_scooter", "bike_id": "bc0d0640ae708d5b53ad5fdd2c31aba6", "lat": 38.91769433333333, "lon": -77.012197, "rental_uris": {"android": "https://dc.lft.to/lastmile_qr_scan", "ios": "https://dc.lft.to/lastmile_qr_scan"}, "is_disabled": 0, "fusion_lat": 0.0, "name": "bc0d0640ae708d5b53ad5fdd2c31aba6", "fusion_lon": 0.0}, {"is_reserved": 0, "type": "electric_scooter", "bike_id": "633e8083c3bfe3996274614714a4cd7b", "lat": 38.898419, "lon": -77.02771533333333, "rental_uris": {"android": "https://dc.lft.to/lastmile_qr_scan", "ios": "https://dc.lft.to/lastmile_qr_scan"}, "is_disabled": 0, "fusion_lat": 0.0, "name": "633e8083c3bfe3996274614714a4cd7b", "fusion_lon": 0.0}, {"is_reserved": 0, "type": "electric_scooter", "bike_id": "d83a660a2d718df844bbc769f402c1a7", "lat": 38.884952, "lon": -77.0071795, "rental_uris": {"android": "https://dc.lft.to/lastmile_qr_scan", "ios": "https://dc.lft.to/lastmile_qr_scan"}, "is_disabled": 0, "fusion_lat": 0.0, "name": "d83a660a2d718df844bbc769f402c1a7", "fusion_lon": 0.0}, {"is_reserved": 0, "type": "electric_scooter", "bike_id": "cff3a7c136e985b39c56025628fcfac8", "lat": 38.924393333333335, "lon": -77.0340175, "rental_uris": {"android": "https://dc.lft.to/lastmile_qr_scan", "ios": "https://dc.lft.to/lastmile_qr_scan"}, "is_disabled": 0, "fusion_lat": 0.0, "name": "cff3a7c136e985b39c56025628fcfac8", "fusion_lon": 0.0}, {"is_reserved": 0, "type": "electric_scooter", "bike_id": "b2c2e2a686870d69a8c6149714167936", "lat": 38.92448233333333, "lon": -77.034056, "rental_uris": {"android": "https://dc.lft.to/lastmile_qr_scan", "ios": "https://dc.lft.to/lastmile_qr_scan"}, "is_disabled": 0, "fusion_lat": 0.0, "name": "b2c2e2a686870d69a8c6149714167936", "fusion_lon": 0.0}, {"is_reserved": 0, "type": "electric_scooter", "bike_id": "f2b20ec656df0a03e815c8ea2c068148", "lat": 38.90374583333333, "lon": -77.0161365, "rental_uris": {"android": "https://dc.lft.to/lastmile_qr_scan", "ios": "https://dc.lft.to/lastmile_qr_scan"}, "is_disabled": 0, "fusion_lat": 0.0, "name": "f2b20ec656df0a03e815c8ea2c068148", "fusion_lon": 0.0}, {"is_reserved": 0, "type": "electric_scooter", "bike_id": "4929059a47fe91d60376846eaf74abd6", "lat": 38.912807666666666, "lon": -77.03157366666667, "rental_uris": {"android": "https://dc.lft.to/lastmile_qr_scan", "ios": "https://dc.lft.to/lastmile_qr_scan"}, "is_disabled": 0, "fusion_lat": 0.0, "name": "4929059a47fe91d60376846eaf74abd6", "fusion_lon": 0.0}, {"is_reserved": 0, "type": "electric_scooter", "bike_id": "6ab7fd27cd48defd4d3eb57858d0ed53", "lat": 38.922211, "lon": -77.01812166666667, "rental_uris": {"android": "https://dc.lft.to/lastmile_qr_scan", "ios": "https://dc.lft.to/lastmile_qr_scan"}, "is_disabled": 0, "fusion_lat": 0.0, "name": "6ab7fd27cd48defd4d3eb57858d0ed53", "fusion_lon": 0.0}, {"is_reserved": 0, "type": "electric_scooter", "bike_id": "7f79c59dadcc533286edc41df77fcc1e", "lat": 38.912614, "lon": -77.0281835, "rental_uris": {"android": "https://dc.lft.to/lastmile_qr_scan", "ios": "https://dc.lft.to/lastmile_qr_scan"}, "is_disabled": 0, "fusion_lat": 0.0, "name": "7f79c59dadcc533286edc41df77fcc1e", "fusion_lon": 0.0}, {"is_reserved": 0, "type": "electric_scooter", "bike_id": "e37374b1fd19a3d015dcd87f16f4cec3", "lat": 38.9076175, "lon": -77.00767116666667, "rental_uris": {"android": "https://dc.lft.to/lastmile_qr_scan", "ios": "https://dc.lft.to/lastmile_qr_scan"}, "is_disabled": 0, "fusion_lat": 0.0, "name": "e37374b1fd19a3d015dcd87f16f4cec3", "fusion_lon": 0.0}, {"is_reserved": 0, "type": "electric_scooter", "bike_id": "79c0333089d285de079263ebc136f4e3", "lat": 38.903928666666665, "lon": -77.021662, "rental_uris": {"android": "https://dc.lft.to/lastmile_qr_scan", "ios": "https://dc.lft.to/lastmile_qr_scan"}, "is_disabled": 0, "fusion_lat": 0.0, "name": "79c0333089d285de079263ebc136f4e3", "fusion_lon": 0.0}, {"is_reserved": 0, "type": "electric_scooter", "bike_id": "d18500e16ae4ab67da4a8872bb6dc917", "lat": 38.9236385, "lon": -77.05112716666666, "rental_uris": {"android": "https://dc.lft.to/lastmile_qr_scan", "ios": "https://dc.lft.to/lastmile_qr_scan"}, "is_disabled": 0, "fusion_lat": 0.0, "name": "d18500e16ae4ab67da4a8872bb6dc917", "fusion_lon": 0.0}, {"is_reserved": 0, "type": "electric_scooter", "bike_id": "4fab65542fd38012c700bb6ec58bd400", "lat": 38.939933, "lon": -77.02003533333334, "rental_uris": {"android": "https://dc.lft.to/lastmile_qr_scan", "ios": "https://dc.lft.to/lastmile_qr_scan"}, "is_disabled": 0, "fusion_lat": 0.0, "name": "4fab65542fd38012c700bb6ec58bd400", "fusion_lon": 0.0}, {"is_reserved": 0, "type": "electric_scooter", "bike_id": "555736b3900e2487bc0be0edd31b9469", "lat": 38.91271183333333, "lon": -77.0121805, "rental_uris": {"android": "https://dc.lft.to/lastmile_qr_scan", "ios": "https://dc.lft.to/lastmile_qr_scan"}, "is_disabled": 0, "fusion_lat": 0.0, "name": "555736b3900e2487bc0be0edd31b9469", "fusion_lon": 0.0}, {"is_reserved": 0, "type": "electric_scooter", "bike_id": "e820ace467430e8f5b5af24fe95ada9a", "lat": 38.97523, "lon": -77.01741733333333, "rental_uris": {"android": "https://dc.lft.to/lastmile_qr_scan", "ios": "https://dc.lft.to/lastmile_qr_scan"}, "is_disabled": 0, "fusion_lat": 0.0, "name": "e820ace467430e8f5b5af24fe95ada9a", "fusion_lon": 0.0}, {"is_reserved": 0, "type": "electric_scooter", "bike_id": "9a2b73f25d5cc9cf0d21f5518618a087", "lat": 38.914297166666664, "lon": -77.01801516666667, "rental_uris": {"android": "https://dc.lft.to/lastmile_qr_scan", "ios": "https://dc.lft.to/lastmile_qr_scan"}, "is_disabled": 0, "fusion_lat": 0.0, "name": "9a2b73f25d5cc9cf0d21f5518618a087", "fusion_lon": 0.0}, {"is_reserved": 0, "type": "electric_scooter", "bike_id": "75664c6bb216942a8f209b434adb3513", "lat": 38.89998766666667, "lon": -77.02714616666667, "rental_uris": {"android": "https://dc.lft.to/lastmile_qr_scan", "ios": "https://dc.lft.to/lastmile_qr_scan"}, "is_disabled": 0, "fusion_lat": 0.0, "name": "75664c6bb216942a8f209b434adb3513", "fusion_lon": 0.0}, {"is_reserved": 0, "type": "electric_bike", "bike_id": "31dda52488db78521b8d41ad4dc85239", "lat": 38.9575515, "lon": -76.980218, "rental_uris": {"android": "https://dc.lft.to/lastmile_qr_scan", "ios": "https://dc.lft.to/lastmile_qr_scan"}, "is_disabled": 0, "fusion_lat": 0.0, "name": "31dda52488db78521b8d41ad4dc85239", "fusion_lon": 0.0}, {"is_reserved": 0, "type": "electric_scooter", "bike_id": "96dec9b1f54b5495581a33611a15cb58", "lat": 38.901941666666666, "lon": -77.02182066666667, "rental_uris": {"android": "https://dc.lft.to/lastmile_qr_scan", "ios": "https://dc.lft.to/lastmile_qr_scan"}, "is_disabled": 0, "fusion_lat": 0.0, "name": "96dec9b1f54b5495581a33611a15cb58", "fusion_lon": 0.0}, {"is_reserved": 0, "type": "electric_scooter", "bike_id": "ec04341132e81f31f4c7f3106bf8d061", "lat": 38.9034645, "lon": -76.98612083333333, "rental_uris": {"android": "https://dc.lft.to/lastmile_qr_scan", "ios": "https://dc.lft.to/lastmile_qr_scan"}, "is_disabled": 0, "fusion_lat": 0.0, "name": "ec04341132e81f31f4c7f3106bf8d061", "fusion_lon": 0.0}, {"is_reserved": 0, "type": "electric_scooter", "bike_id": "77c2dd5179f49b972ec1d6bd0a3e700d", "lat": 38.902661, "lon": -77.01771066666667, "rental_uris": {"android": "https://dc.lft.to/lastmile_qr_scan", "ios": "https://dc.lft.to/lastmile_qr_scan"}, "is_disabled": 0, "fusion_lat": 0.0, "name": "77c2dd5179f49b972ec1d6bd0a3e700d", "fusion_lon": 0.0}, {"is_reserved": 0, "type": "electric_scooter", "bike_id": "f5eeb9ff672bc49438291326e66e93c5", "lat": 38.930759333333334, "lon": -77.02815316666667, "rental_uris": {"android": "https://dc.lft.to/lastmile_qr_scan", "ios": "https://dc.lft.to/lastmile_qr_scan"}, "is_disabled": 0, "fusion_lat": 0.0, "name": "f5eeb9ff672bc49438291326e66e93c5", "fusion_lon": 0.0}, {"is_reserved": 0, "type": "electric_scooter", "bike_id": "9d70c4725da9f834627fedbf94d40143", "lat": 38.907606666666666, "lon": -77.00034333333333, "rental_uris": {"android": "https://dc.lft.to/lastmile_qr_scan", "ios": "https://dc.lft.to/lastmile_qr_scan"}, "is_disabled": 0, "fusion_lat": 0.0, "name": "9d70c4725da9f834627fedbf94d40143", "fusion_lon": 0.0}, {"is_reserved": 0, "type": "electric_scooter", "bike_id": "7fa1e2e88606916c71793461bc13ab54", "lat": 38.893457833333336, "lon": -77.01172216666667, "rental_uris": {"android": "https://dc.lft.to/lastmile_qr_scan", "ios": "https://dc.lft.to/lastmile_qr_scan"}, "is_disabled": 0, "fusion_lat": 0.0, "name": "7fa1e2e88606916c71793461bc13ab54", "fusion_lon": 0.0}, {"is_reserved": 0, "type": "electric_scooter", "bike_id": "d98d8056ccef03bbd2d3e67a0e1cffe3", "lat": 38.89229366666667, "lon": -77.04161266666667, "rental_uris": {"android": "https://dc.lft.to/lastmile_qr_scan", "ios": "https://dc.lft.to/lastmile_qr_scan"}, "is_disabled": 0, "fusion_lat": 0.0, "name": "d98d8056ccef03bbd2d3e67a0e1cffe3", "fusion_lon": 0.0}, {"is_reserved": 0, "type": "electric_scooter", "bike_id": "7f6e98f04c248f1373e2bd57be259508", "lat": 38.9419135, "lon": -77.02347616666667, "rental_uris": {"android": "https://dc.lft.to/lastmile_qr_scan", "ios": "https://dc.lft.to/lastmile_qr_scan"}, "is_disabled": 0, "fusion_lat": 0.0, "name": "7f6e98f04c248f1373e2bd57be259508", "fusion_lon": 0.0}, {"is_reserved": 0, "type": "electric_scooter", "bike_id": "8f4a37984ed2c630f26aef29de8c92f7", "lat": 38.932453333333335, "lon": -76.99712233333334, "rental_uris": {"android": "https://dc.lft.to/lastmile_qr_scan", "ios": "https://dc.lft.to/lastmile_qr_scan"}, "is_disabled": 0, "fusion_lat": 0.0, "name": "8f4a37984ed2c630f26aef29de8c92f7", "fusion_lon": 0.0}, {"is_reserved": 0, "type": "electric_scooter", "bike_id": "9439520af9b535a0906730a2b9c060fd", "lat": 38.91695766666667, "lon": -77.03162366666666, "rental_uris": {"android": "https://dc.lft.to/lastmile_qr_scan", "ios": "https://dc.lft.to/lastmile_qr_scan"}, "is_disabled": 0, "fusion_lat": 0.0, "name": "9439520af9b535a0906730a2b9c060fd", "fusion_lon": 0.0}, {"is_reserved": 0, "type": "electric_scooter", "bike_id": "9ceba4f723c292bf6b174d83303954c7", "lat": 38.89961233333333, "lon": -77.03159783333334, "rental_uris": {"android": "https://dc.lft.to/lastmile_qr_scan", "ios": "https://dc.lft.to/lastmile_qr_scan"}, "is_disabled": 0, "fusion_lat": 0.0, "name": "9ceba4f723c292bf6b174d83303954c7", "fusion_lon": 0.0}, {"is_reserved": 0, "type": "electric_scooter", "bike_id": "5aa1d129d3c47a15275fa3e84ef459ba", "lat": 38.92458666666667, "lon": -77.00891766666666, "rental_uris": {"android": "https://dc.lft.to/lastmile_qr_scan", "ios": "https://dc.lft.to/lastmile_qr_scan"}, "is_disabled": 0, "fusion_lat": 0.0, "name": "5aa1d129d3c47a15275fa3e84ef459ba", "fusion_lon": 0.0}, {"is_reserved": 0, "type": "electric_scooter", "bike_id": "689dd088a502e85f03d05c4f5b248aa2", "lat": 38.906758333333336, "lon": -77.07512983333334, "rental_uris": {"android": "https://dc.lft.to/lastmile_qr_scan", "ios": "https://dc.lft.to/lastmile_qr_scan"}, "is_disabled": 0, "fusion_lat": 0.0, "name": "689dd088a502e85f03d05c4f5b248aa2", "fusion_lon": 0.0}, {"is_reserved": 0, "type": "electric_scooter", "bike_id": "290a76f1b3196ec2edf61076a3e5d24c", "lat": 38.916360166666664, "lon": -77.02256016666666, "rental_uris": {"android": "https://dc.lft.to/lastmile_qr_scan", "ios": "https://dc.lft.to/lastmile_qr_scan"}, "is_disabled": 0, "fusion_lat": 0.0, "name": "290a76f1b3196ec2edf61076a3e5d24c", "fusion_lon": 0.0}, {"is_reserved": 0, "type": "electric_scooter", "bike_id": "d09fbff5253e1a30ff0fe890a616cc9f", "lat": 38.9236725, "lon": -77.05112216666667, "rental_uris": {"android": "https://dc.lft.to/lastmile_qr_scan", "ios": "https://dc.lft.to/lastmile_qr_scan"}, "is_disabled": 0, "fusion_lat": 0.0, "name": "d09fbff5253e1a30ff0fe890a616cc9f", "fusion_lon": 0.0}, {"is_reserved": 0, "type": "electric_scooter", "bike_id": "9063a5c2a2a84e850477796017425072", "lat": 38.9018005, "lon": -77.04486333333334, "rental_uris": {"android": "https://dc.lft.to/lastmile_qr_scan", "ios": "https://dc.lft.to/lastmile_qr_scan"}, "is_disabled": 0, "fusion_lat": 0.0, "name": "9063a5c2a2a84e850477796017425072", "fusion_lon": 0.0}, {"is_reserved": 0, "type": "electric_scooter", "bike_id": "d4fe93e9d9dc3ec2baa9c7c269ca57e7", "lat": 38.90565316666667, "lon": -77.01945983333333, "rental_uris": {"android": "https://dc.lft.to/lastmile_qr_scan", "ios": "https://dc.lft.to/lastmile_qr_scan"}, "is_disabled": 0, "fusion_lat": 0.0, "name": "d4fe93e9d9dc3ec2baa9c7c269ca57e7", "fusion_lon": 0.0}, {"is_reserved": 0, "type": "electric_scooter", "bike_id": "db89fe2b2efb87bcef86f67a7adaa3af", "lat": 38.901771333333336, "lon": -77.02486366666666, "rental_uris": {"android": "https://dc.lft.to/lastmile_qr_scan", "ios": "https://dc.lft.to/lastmile_qr_scan"}, "is_disabled": 0, "fusion_lat": 0.0, "name": "db89fe2b2efb87bcef86f67a7adaa3af", "fusion_lon": 0.0}, {"is_reserved": 0, "type": "electric_scooter", "bike_id": "3d5c0b8ffd1524aa081d4eb6fcbf9867", "lat": 38.90597616666667, "lon": -77.046945, "rental_uris": {"android": "https://dc.lft.to/lastmile_qr_scan", "ios": "https://dc.lft.to/lastmile_qr_scan"}, "is_disabled": 0, "fusion_lat": 0.0, "name": "3d5c0b8ffd1524aa081d4eb6fcbf9867", "fusion_lon": 0.0}, {"is_reserved": 0, "type": "electric_scooter", "bike_id": "6c5b4bec82b96a04d96ec940dd55ead8", "lat": 38.931858166666665, "lon": -77.03857633333334, "rental_uris": {"android": "https://dc.lft.to/lastmile_qr_scan", "ios": "https://dc.lft.to/lastmile_qr_scan"}, "is_disabled": 0, "fusion_lat": 0.0, "name": "6c5b4bec82b96a04d96ec940dd55ead8", "fusion_lon": 0.0}, {"is_reserved": 0, "type": "electric_scooter", "bike_id": "4c22da5d96e49731108ed9832d3fd477", "lat": 38.909601333333335, "lon": -77.01439333333333, "rental_uris": {"android": "https://dc.lft.to/lastmile_qr_scan", "ios": "https://dc.lft.to/lastmile_qr_scan"}, "is_disabled": 0, "fusion_lat": 0.0, "name": "4c22da5d96e49731108ed9832d3fd477", "fusion_lon": 0.0}, {"is_reserved": 0, "type": "electric_bike", "bike_id": "3fc6c2cbc92f691b4bd1eab0855ede67", "lat": 38.8988265, "lon": -76.9788685, "rental_uris": {"android": "https://dc.lft.to/lastmile_qr_scan", "ios": "https://dc.lft.to/lastmile_qr_scan"}, "is_disabled": 0, "fusion_lat": 0.0, "name": "3fc6c2cbc92f691b4bd1eab0855ede67", "fusion_lon": 0.0}, {"is_reserved": 0, "type": "electric_scooter", "bike_id": "6d0ae98a7e01177856cac4a84ec54b14", "lat": 38.92403733333333, "lon": -76.95145933333333, "rental_uris": {"android": "https://dc.lft.to/lastmile_qr_scan", "ios": "https://dc.lft.to/lastmile_qr_scan"}, "is_disabled": 0, "fusion_lat": 0.0, "name": "6d0ae98a7e01177856cac4a84ec54b14", "fusion_lon": 0.0}, {"is_reserved": 0, "type": "electric_scooter", "bike_id": "9d643e85431e8caaa4e5a8244ba98764", "lat": 38.896333166666665, "lon": -77.0021165, "rental_uris": {"android": "https://dc.lft.to/lastmile_qr_scan", "ios": "https://dc.lft.to/lastmile_qr_scan"}, "is_disabled": 0, "fusion_lat": 0.0, "name": "9d643e85431e8caaa4e5a8244ba98764", "fusion_lon": 0.0}, {"is_reserved": 0, "type": "electric_scooter", "bike_id": "38574d70fb8d8cf0bc624c1c0d24692b", "lat": 38.914299166666666, "lon": -77.01801433333333, "rental_uris": {"android": "https://dc.lft.to/lastmile_qr_scan", "ios": "https://dc.lft.to/lastmile_qr_scan"}, "is_disabled": 0, "fusion_lat": 0.0, "name": "38574d70fb8d8cf0bc624c1c0d24692b", "fusion_lon": 0.0}, {"is_reserved": 0, "type": "electric_scooter", "bike_id": "a783b4b99928c5264cb8006817444db0", "lat": 38.8997675, "lon": -77.02893266666666, "rental_uris": {"android": "https://dc.lft.to/lastmile_qr_scan", "ios": "https://dc.lft.to/lastmile_qr_scan"}, "is_disabled": 0, "fusion_lat": 0.0, "name": "a783b4b99928c5264cb8006817444db0", "fusion_lon": 0.0}, {"is_reserved": 0, "type": "electric_scooter", "bike_id": "75a585b8692898831dd79243a837708c", "lat": 38.91812933333333, "lon": -77.02476666666666, "rental_uris": {"android": "https://dc.lft.to/lastmile_qr_scan", "ios": "https://dc.lft.to/lastmile_qr_scan"}, "is_disabled": 0, "fusion_lat": 0.0, "name": "75a585b8692898831dd79243a837708c", "fusion_lon": 0.0}, {"is_reserved": 0, "type": "electric_scooter", "bike_id": "2d1f74f969906ba33f755410916f6641", "lat": 38.92806066666667, "lon": -77.03626116666666, "rental_uris": {"android": "https://dc.lft.to/lastmile_qr_scan", "ios": "https://dc.lft.to/lastmile_qr_scan"}, "is_disabled": 0, "fusion_lat": 0.0, "name": "2d1f74f969906ba33f755410916f6641", "fusion_lon": 0.0}, {"is_reserved": 0, "type": "electric_scooter", "bike_id": "3687368182bf9a54c570e17a9685442c", "lat": 38.897069, "lon": -77.05029966666666, "rental_uris": {"android": "https://dc.lft.to/lastmile_qr_scan", "ios": "https://dc.lft.to/lastmile_qr_scan"}, "is_disabled": 0, "fusion_lat": 0.0, "name": "3687368182bf9a54c570e17a9685442c", "fusion_lon": 0.0}, {"is_reserved": 0, "type": "electric_bike", "bike_id": "07ec7fb93631451aa84a28d5d2b2aad1", "lat": 38.91705666666667, "lon": -77.05722383333334, "rental_uris": {"android": "https://dc.lft.to/lastmile_qr_scan", "ios": "https://dc.lft.to/lastmile_qr_scan"}, "is_disabled": 0, "fusion_lat": 0.0, "name": "07ec7fb93631451aa84a28d5d2b2aad1", "fusion_lon": 0.0}, {"is_reserved": 0, "type": "electric_scooter", "bike_id": "7da158bd7e6ae95295ecbea8da8adf6b", "lat": 38.87583216666667, "lon": -77.02001833333334, "rental_uris": {"android": "https://dc.lft.to/lastmile_qr_scan", "ios": "https://dc.lft.to/lastmile_qr_scan"}, "is_disabled": 0, "fusion_lat": 0.0, "name": "7da158bd7e6ae95295ecbea8da8adf6b", "fusion_lon": 0.0}, {"is_reserved": 0, "type": "electric_scooter", "bike_id": "5927ca0834c3cbb7871a340fe509d1c9", "lat": 38.933562, "lon": -77.05723483333334, "rental_uris": {"android": "https://dc.lft.to/lastmile_qr_scan", "ios": "https://dc.lft.to/lastmile_qr_scan"}, "is_disabled": 0, "fusion_lat": 0.0, "name": "5927ca0834c3cbb7871a340fe509d1c9", "fusion_lon": 0.0}, {"is_reserved": 0, "type": "electric_scooter", "bike_id": "42b5149a065dedcb7a8c0f7216086aeb", "lat": 38.91129766666667, "lon": -77.02199066666667, "rental_uris": {"android": "https://dc.lft.to/lastmile_qr_scan", "ios": "https://dc.lft.to/lastmile_qr_scan"}, "is_disabled": 0, "fusion_lat": 0.0, "name": "42b5149a065dedcb7a8c0f7216086aeb", "fusion_lon": 0.0}, {"is_reserved": 0, "type": "electric_scooter", "bike_id": "296bdae5b75781c55e0d6aacdf9509b2", "lat": 38.924471833333335, "lon": -77.02165666666667, "rental_uris": {"android": "https://dc.lft.to/lastmile_qr_scan", "ios": "https://dc.lft.to/lastmile_qr_scan"}, "is_disabled": 0, "fusion_lat": 0.0, "name": "296bdae5b75781c55e0d6aacdf9509b2", "fusion_lon": 0.0}, {"is_reserved": 0, "type": "electric_scooter", "bike_id": "7dbe2efe999bc06ae80ee070db048364", "lat": 38.939538666666664, "lon": -77.027616, "rental_uris": {"android": "https://dc.lft.to/lastmile_qr_scan", "ios": "https://dc.lft.to/lastmile_qr_scan"}, "is_disabled": 0, "fusion_lat": 0.0, "name": "7dbe2efe999bc06ae80ee070db048364", "fusion_lon": 0.0}, {"is_reserved": 0, "type": "electric_scooter", "bike_id": "af771ade9cae6d8a5e89059c05fa565b", "lat": 38.919636833333335, "lon": -77.022222, "rental_uris": {"android": "https://dc.lft.to/lastmile_qr_scan", "ios": "https://dc.lft.to/lastmile_qr_scan"}, "is_disabled": 0, "fusion_lat": 0.0, "name": "af771ade9cae6d8a5e89059c05fa565b", "fusion_lon": 0.0}, {"is_reserved": 0, "type": "electric_scooter", "bike_id": "10fa1cd97acee0c6942a8979f731b19a", "lat": 38.925523, "lon": -77.03223433333334, "rental_uris": {"android": "https://dc.lft.to/lastmile_qr_scan", "ios": "https://dc.lft.to/lastmile_qr_scan"}, "is_disabled": 0, "fusion_lat": 0.0, "name": "10fa1cd97acee0c6942a8979f731b19a", "fusion_lon": 0.0}, {"is_reserved": 0, "type": "electric_scooter", "bike_id": "535e88d1dd70761ffbe25c03f0bf4184", "lat": 38.90804466666667, "lon": -77.04257283333334, "rental_uris": {"android": "https://dc.lft.to/lastmile_qr_scan", "ios": "https://dc.lft.to/lastmile_qr_scan"}, "is_disabled": 0, "fusion_lat": 0.0, "name": "535e88d1dd70761ffbe25c03f0bf4184", "fusion_lon": 0.0}, {"is_reserved": 0, "type": "electric_scooter", "bike_id": "4487759bd336ca8913b333209035fba8", "lat": 38.914910666666664, "lon": -77.019964, "rental_uris": {"android": "https://dc.lft.to/lastmile_qr_scan", "ios": "https://dc.lft.to/lastmile_qr_scan"}, "is_disabled": 0, "fusion_lat": 0.0, "name": "4487759bd336ca8913b333209035fba8", "fusion_lon": 0.0}, {"is_reserved": 0, "type": "electric_scooter", "bike_id": "1f6c65d1f7bb69c3f29de7ac87db9a3b", "lat": 38.92326533333333, "lon": -77.02971966666667, "rental_uris": {"android": "https://dc.lft.to/lastmile_qr_scan", "ios": "https://dc.lft.to/lastmile_qr_scan"}, "is_disabled": 0, "fusion_lat": 0.0, "name": "1f6c65d1f7bb69c3f29de7ac87db9a3b", "fusion_lon": 0.0}, {"is_reserved": 0, "type": "electric_scooter", "bike_id": "cab892da5a116032b845ba2614cc4662", "lat": 38.911761166666665, "lon": -77.02828766666667, "rental_uris": {"android": "https://dc.lft.to/lastmile_qr_scan", "ios": "https://dc.lft.to/lastmile_qr_scan"}, "is_disabled": 0, "fusion_lat": 0.0, "name": "cab892da5a116032b845ba2614cc4662", "fusion_lon": 0.0}, {"is_reserved": 0, "type": "electric_scooter", "bike_id": "464c84997fc4bcb511d846b6ab4ae065", "lat": 38.864344833333334, "lon": -76.998631, "rental_uris": {"android": "https://dc.lft.to/lastmile_qr_scan", "ios": "https://dc.lft.to/lastmile_qr_scan"}, "is_disabled": 0, "fusion_lat": 0.0, "name": "464c84997fc4bcb511d846b6ab4ae065", "fusion_lon": 0.0}, {"is_reserved": 0, "type": "electric_scooter", "bike_id": "ee679dd98b762ae630406b1f7580b385", "lat": 38.93465, "lon": -77.02248883333333, "rental_uris": {"android": "https://dc.lft.to/lastmile_qr_scan", "ios": "https://dc.lft.to/lastmile_qr_scan"}, "is_disabled": 0, "fusion_lat": 0.0, "name": "ee679dd98b762ae630406b1f7580b385", "fusion_lon": 0.0}, {"is_reserved": 0, "type": "electric_scooter", "bike_id": "34b317d92fbfd34aac2337ec19ee4877", "lat": 38.92896566666667, "lon": -77.02253166666667, "rental_uris": {"android": "https://dc.lft.to/lastmile_qr_scan", "ios": "https://dc.lft.to/lastmile_qr_scan"}, "is_disabled": 0, "fusion_lat": 0.0, "name": "34b317d92fbfd34aac2337ec19ee4877", "fusion_lon": 0.0}, {"is_reserved": 0, "type": "electric_scooter", "bike_id": "1ebc5a767a50563dc266959045ada336", "lat": 38.917726333333334, "lon": -77.03192566666667, "rental_uris": {"android": "https://dc.lft.to/lastmile_qr_scan", "ios": "https://dc.lft.to/lastmile_qr_scan"}, "is_disabled": 0, "fusion_lat": 0.0, "name": "1ebc5a767a50563dc266959045ada336", "fusion_lon": 0.0}, {"is_reserved": 0, "type": "electric_scooter", "bike_id": "a33dd33abfb0191f7f426e31cfbb5c0f", "lat": 38.950896, "lon": -77.02812933333334, "rental_uris": {"android": "https://dc.lft.to/lastmile_qr_scan", "ios": "https://dc.lft.to/lastmile_qr_scan"}, "is_disabled": 0, "fusion_lat": 0.0, "name": "a33dd33abfb0191f7f426e31cfbb5c0f", "fusion_lon": 0.0}, {"is_reserved": 0, "type": "electric_scooter", "bike_id": "c92cdd6ec17fcabf845be67456362fc4", "lat": 38.900597833333336, "lon": -76.986858, "rental_uris": {"android": "https://dc.lft.to/lastmile_qr_scan", "ios": "https://dc.lft.to/lastmile_qr_scan"}, "is_disabled": 0, "fusion_lat": 0.0, "name": "c92cdd6ec17fcabf845be67456362fc4", "fusion_lon": 0.0}, {"is_reserved": 0, "type": "electric_scooter", "bike_id": "2d3c540d0fad679c2ddb54f169f06faf", "lat": 38.90355683333333, "lon": -77.01089983333334, "rental_uris": {"android": "https://dc.lft.to/lastmile_qr_scan", "ios": "https://dc.lft.to/lastmile_qr_scan"}, "is_disabled": 0, "fusion_lat": 0.0, "name": "2d3c540d0fad679c2ddb54f169f06faf", "fusion_lon": 0.0}, {"is_reserved": 0, "type": "electric_scooter", "bike_id": "96fe2e1aa2c238dd1d088bfbfac2d9e5", "lat": 38.930005333333334, "lon": -77.023064, "rental_uris": {"android": "https://dc.lft.to/lastmile_qr_scan", "ios": "https://dc.lft.to/lastmile_qr_scan"}, "is_disabled": 0, "fusion_lat": 0.0, "name": "96fe2e1aa2c238dd1d088bfbfac2d9e5", "fusion_lon": 0.0}, {"is_reserved": 0, "type": "electric_bike", "bike_id": "a2e1c347e553bc051d29e6b033e047c1", "lat": 38.895670833333334, "lon": -77.12740833333334, "rental_uris": {"android": "https://dc.lft.to/lastmile_qr_scan", "ios": "https://dc.lft.to/lastmile_qr_scan"}, "is_disabled": 0, "fusion_lat": 0.0, "name": "a2e1c347e553bc051d29e6b033e047c1", "fusion_lon": 0.0}, {"is_reserved": 0, "type": "electric_scooter", "bike_id": "5ec0892efb9ffa20e5e0ed478d0210a6", "lat": 38.940332, "lon": -77.02646183333333, "rental_uris": {"android": "https://dc.lft.to/lastmile_qr_scan", "ios": "https://dc.lft.to/lastmile_qr_scan"}, "is_disabled": 0, "fusion_lat": 0.0, "name": "5ec0892efb9ffa20e5e0ed478d0210a6", "fusion_lon": 0.0}, {"is_reserved": 0, "type": "electric_scooter", "bike_id": "179d4cbbd98257700b798a28c1f207dd", "lat": 38.9180745, "lon": -77.0345095, "rental_uris": {"android": "https://dc.lft.to/lastmile_qr_scan", "ios": "https://dc.lft.to/lastmile_qr_scan"}, "is_disabled": 0, "fusion_lat": 0.0, "name": "179d4cbbd98257700b798a28c1f207dd", "fusion_lon": 0.0}, {"is_reserved": 0, "type": "electric_scooter", "bike_id": "e20f6916a2e377834716bb6af54d0b48", "lat": 38.910260666666666, "lon": -77.04411133333333, "rental_uris": {"android": "https://dc.lft.to/lastmile_qr_scan", "ios": "https://dc.lft.to/lastmile_qr_scan"}, "is_disabled": 0, "fusion_lat": 0.0, "name": "e20f6916a2e377834716bb6af54d0b48", "fusion_lon": 0.0}, {"is_reserved": 0, "type": "electric_scooter", "bike_id": "16a7b53548b154148908991a4e6c2abc", "lat": 38.906494, "lon": -77.0120155, "rental_uris": {"android": "https://dc.lft.to/lastmile_qr_scan", "ios": "https://dc.lft.to/lastmile_qr_scan"}, "is_disabled": 0, "fusion_lat": 0.0, "name": "16a7b53548b154148908991a4e6c2abc", "fusion_lon": 0.0}, {"is_reserved": 0, "type": "electric_scooter", "bike_id": "c914520967f6435e7e08cea73adb7996", "lat": 38.95739783333333, "lon": -77.0301585, "rental_uris": {"android": "https://dc.lft.to/lastmile_qr_scan", "ios": "https://dc.lft.to/lastmile_qr_scan"}, "is_disabled": 0, "fusion_lat": 0.0, "name": "c914520967f6435e7e08cea73adb7996", "fusion_lon": 0.0}, {"is_reserved": 0, "type": "electric_scooter", "bike_id": "f434fa4a8af7ccdb84a2eb6b31b139e5", "lat": 38.8953235, "lon": -77.04476, "rental_uris": {"android": "https://dc.lft.to/lastmile_qr_scan", "ios": "https://dc.lft.to/lastmile_qr_scan"}, "is_disabled": 0, "fusion_lat": 0.0, "name": "f434fa4a8af7ccdb84a2eb6b31b139e5", "fusion_lon": 0.0}, {"is_reserved": 0, "type": "electric_scooter", "bike_id": "a5d29cf6e7bea650938ef6ea771ecdf4", "lat": 38.914729, "lon": -77.03238083333333, "rental_uris": {"android": "https://dc.lft.to/lastmile_qr_scan", "ios": "https://dc.lft.to/lastmile_qr_scan"}, "is_disabled": 0, "fusion_lat": 0.0, "name": "a5d29cf6e7bea650938ef6ea771ecdf4", "fusion_lon": 0.0}, {"is_reserved": 0, "type": "electric_scooter", "bike_id": "c8a39a359e7c8b26a75fa479622b73ed", "lat": 38.9192945, "lon": -77.03424966666667, "rental_uris": {"android": "https://dc.lft.to/lastmile_qr_scan", "ios": "https://dc.lft.to/lastmile_qr_scan"}, "is_disabled": 0, "fusion_lat": 0.0, "name": "c8a39a359e7c8b26a75fa479622b73ed", "fusion_lon": 0.0}, {"is_reserved": 0, "type": "electric_scooter", "bike_id": "760c1e75f90bc1cbb76c31bc318a0f06", "lat": 38.920563333333334, "lon": -77.01684233333333, "rental_uris": {"android": "https://dc.lft.to/lastmile_qr_scan", "ios": "https://dc.lft.to/lastmile_qr_scan"}, "is_disabled": 0, "fusion_lat": 0.0, "name": "760c1e75f90bc1cbb76c31bc318a0f06", "fusion_lon": 0.0}, {"is_reserved": 0, "type": "electric_bike", "bike_id": "825e016d3c4b0ac48664c5e9d9388d14", "lat": 39.08492233333333, "lon": -76.95059883333333, "rental_uris": {"android": "https://dc.lft.to/lastmile_qr_scan", "ios": "https://dc.lft.to/lastmile_qr_scan"}, "is_disabled": 0, "fusion_lat": 0.0, "name": "825e016d3c4b0ac48664c5e9d9388d14", "fusion_lon": 0.0}, {"is_reserved": 0, "type": "electric_scooter", "bike_id": "021fc6c29d5c94fa64309bb57ce4f5ec", "lat": 38.92659916666667, "lon": -77.037134, "rental_uris": {"android": "https://dc.lft.to/lastmile_qr_scan", "ios": "https://dc.lft.to/lastmile_qr_scan"}, "is_disabled": 0, "fusion_lat": 0.0, "name": "021fc6c29d5c94fa64309bb57ce4f5ec", "fusion_lon": 0.0}, {"is_reserved": 0, "type": "electric_scooter", "bike_id": "5e287c7b0666b6bc7e8a9a44cdd5f713", "lat": 38.95621916666666, "lon": -77.00326633333333, "rental_uris": {"android": "https://dc.lft.to/lastmile_qr_scan", "ios": "https://dc.lft.to/lastmile_qr_scan"}, "is_disabled": 0, "fusion_lat": 0.0, "name": "5e287c7b0666b6bc7e8a9a44cdd5f713", "fusion_lon": 0.0}, {"is_reserved": 0, "type": "electric_scooter", "bike_id": "b99f60e6936c0eee6d4abe35571ffbb1", "lat": 38.897240333333336, "lon": -77.02285466666666, "rental_uris": {"android": "https://dc.lft.to/lastmile_qr_scan", "ios": "https://dc.lft.to/lastmile_qr_scan"}, "is_disabled": 0, "fusion_lat": 0.0, "name": "b99f60e6936c0eee6d4abe35571ffbb1", "fusion_lon": 0.0}, {"is_reserved": 0, "type": "electric_scooter", "bike_id": "7dba10b988212bae0364e982133c2978", "lat": 38.88274716666667, "lon": -77.00361816666667, "rental_uris": {"android": "https://dc.lft.to/lastmile_qr_scan", "ios": "https://dc.lft.to/lastmile_qr_scan"}, "is_disabled": 0, "fusion_lat": 0.0, "name": "7dba10b988212bae0364e982133c2978", "fusion_lon": 0.0}, {"is_reserved": 0, "type": "electric_scooter", "bike_id": "c5de6e9a9765ab92e412107c7e236314", "lat": 38.91799816666666, "lon": -77.034436, "rental_uris": {"android": "https://dc.lft.to/lastmile_qr_scan", "ios": "https://dc.lft.to/lastmile_qr_scan"}, "is_disabled": 0, "fusion_lat": 0.0, "name": "c5de6e9a9765ab92e412107c7e236314", "fusion_lon": 0.0}, {"is_reserved": 0, "type": "electric_scooter", "bike_id": "2d86907c9f7f49cc6119da677e6867d3", "lat": 38.9313285, "lon": -77.03852266666667, "rental_uris": {"android": "https://dc.lft.to/lastmile_qr_scan", "ios": "https://dc.lft.to/lastmile_qr_scan"}, "is_disabled": 0, "fusion_lat": 0.0, "name": "2d86907c9f7f49cc6119da677e6867d3", "fusion_lon": 0.0}, {"is_reserved": 0, "type": "electric_scooter", "bike_id": "74d4ddd2032bb5b93b2704fe10461c2f", "lat": 38.90159633333333, "lon": -77.0286185, "rental_uris": {"android": "https://dc.lft.to/lastmile_qr_scan", "ios": "https://dc.lft.to/lastmile_qr_scan"}, "is_disabled": 0, "fusion_lat": 0.0, "name": "74d4ddd2032bb5b93b2704fe10461c2f", "fusion_lon": 0.0}, {"is_reserved": 0, "type": "electric_scooter", "bike_id": "138ef104293f46d9e31b8bd19567f43a", "lat": 38.937022166666665, "lon": -77.02123, "rental_uris": {"android": "https://dc.lft.to/lastmile_qr_scan", "ios": "https://dc.lft.to/lastmile_qr_scan"}, "is_disabled": 0, "fusion_lat": 0.0, "name": "138ef104293f46d9e31b8bd19567f43a", "fusion_lon": 0.0}, {"is_reserved": 0, "type": "electric_scooter", "bike_id": "738d3f07e3e8274d3f3b8612d3326854", "lat": 38.895397833333334, "lon": -77.030113, "rental_uris": {"android": "https://dc.lft.to/lastmile_qr_scan", "ios": "https://dc.lft.to/lastmile_qr_scan"}, "is_disabled": 0, "fusion_lat": 0.0, "name": "738d3f07e3e8274d3f3b8612d3326854", "fusion_lon": 0.0}, {"is_reserved": 0, "type": "electric_scooter", "bike_id": "5ac4a590427d8f51604efcfa55c5f0ba", "lat": 38.923699666666664, "lon": -77.05029383333333, "rental_uris": {"android": "https://dc.lft.to/lastmile_qr_scan", "ios": "https://dc.lft.to/lastmile_qr_scan"}, "is_disabled": 0, "fusion_lat": 0.0, "name": "5ac4a590427d8f51604efcfa55c5f0ba", "fusion_lon": 0.0}, {"is_reserved": 0, "type": "electric_scooter", "bike_id": "51b7cd01747420e415aa73456f93888e", "lat": 38.89924383333334, "lon": -76.97837216666667, "rental_uris": {"android": "https://dc.lft.to/lastmile_qr_scan", "ios": "https://dc.lft.to/lastmile_qr_scan"}, "is_disabled": 0, "fusion_lat": 0.0, "name": "51b7cd01747420e415aa73456f93888e", "fusion_lon": 0.0}, {"is_reserved": 0, "type": "electric_bike", "bike_id": "1719102a7b7907542c7d5c2ec2928242", "lat": 38.882506166666666, "lon": -76.96262266666666, "rental_uris": {"android": "https://dc.lft.to/lastmile_qr_scan", "ios": "https://dc.lft.to/lastmile_qr_scan"}, "is_disabled": 0, "fusion_lat": 0.0, "name": "1719102a7b7907542c7d5c2ec2928242", "fusion_lon": 0.0}, {"is_reserved": 0, "type": "electric_scooter", "bike_id": "979de46f1dfa0f8289e58739829b7dc8", "lat": 38.90084983333333, "lon": -77.04882083333334, "rental_uris": {"android": "https://dc.lft.to/lastmile_qr_scan", "ios": "https://dc.lft.to/lastmile_qr_scan"}, "is_disabled": 0, "fusion_lat": 0.0, "name": "979de46f1dfa0f8289e58739829b7dc8", "fusion_lon": 0.0}, {"is_reserved": 0, "type": "electric_scooter", "bike_id": "7286ad19583959c6dd07861a67b16eba", "lat": 38.897004833333334, "lon": -77.005026, "rental_uris": {"android": "https://dc.lft.to/lastmile_qr_scan", "ios": "https://dc.lft.to/lastmile_qr_scan"}, "is_disabled": 0, "fusion_lat": 0.0, "name": "7286ad19583959c6dd07861a67b16eba", "fusion_lon": 0.0}, {"is_reserved": 0, "type": "electric_scooter", "bike_id": "15b6dc9f810a459762f8ba536e80b3c7", "lat": 38.92598866666667, "lon": -77.0248855, "rental_uris": {"android": "https://dc.lft.to/lastmile_qr_scan", "ios": "https://dc.lft.to/lastmile_qr_scan"}, "is_disabled": 0, "fusion_lat": 0.0, "name": "15b6dc9f810a459762f8ba536e80b3c7", "fusion_lon": 0.0}, {"is_reserved": 0, "type": "electric_scooter", "bike_id": "3531aec792e43ebfc52fb751b41d9f84", "lat": 38.8967775, "lon": -77.0503955, "rental_uris": {"android": "https://dc.lft.to/lastmile_qr_scan", "ios": "https://dc.lft.to/lastmile_qr_scan"}, "is_disabled": 0, "fusion_lat": 0.0, "name": "3531aec792e43ebfc52fb751b41d9f84", "fusion_lon": 0.0}, {"is_reserved": 0, "type": "electric_scooter", "bike_id": "5834eec0f893ffe814c7b698aa079236", "lat": 38.92690866666667, "lon": -77.02582483333333, "rental_uris": {"android": "https://dc.lft.to/lastmile_qr_scan", "ios": "https://dc.lft.to/lastmile_qr_scan"}, "is_disabled": 0, "fusion_lat": 0.0, "name": "5834eec0f893ffe814c7b698aa079236", "fusion_lon": 0.0}, {"is_reserved": 0, "type": "electric_scooter", "bike_id": "28999ae60ebb6ae7531f8d2225ae21a4", "lat": 38.923322, "lon": -77.008955, "rental_uris": {"android": "https://dc.lft.to/lastmile_qr_scan", "ios": "https://dc.lft.to/lastmile_qr_scan"}, "is_disabled": 0, "fusion_lat": 0.0, "name": "28999ae60ebb6ae7531f8d2225ae21a4", "fusion_lon": 0.0}, {"is_reserved": 0, "type": "electric_scooter", "bike_id": "3efb30fe0d26c5a183e6c5bbc0c4899b", "lat": 38.91846366666667, "lon": -77.04115183333333, "rental_uris": {"android": "https://dc.lft.to/lastmile_qr_scan", "ios": "https://dc.lft.to/lastmile_qr_scan"}, "is_disabled": 0, "fusion_lat": 0.0, "name": "3efb30fe0d26c5a183e6c5bbc0c4899b", "fusion_lon": 0.0}, {"is_reserved": 0, "type": "electric_scooter", "bike_id": "f4fc9bc4499230ea9e4921a69187d229", "lat": 38.905628166666666, "lon": -77.04174233333333, "rental_uris": {"android": "https://dc.lft.to/lastmile_qr_scan", "ios": "https://dc.lft.to/lastmile_qr_scan"}, "is_disabled": 0, "fusion_lat": 0.0, "name": "f4fc9bc4499230ea9e4921a69187d229", "fusion_lon": 0.0}, {"is_reserved": 0, "type": "electric_scooter", "bike_id": "d8e403c6f61c9d8b71007b189a3a82f3", "lat": 38.91694283333333, "lon": -77.02598833333333, "rental_uris": {"android": "https://dc.lft.to/lastmile_qr_scan", "ios": "https://dc.lft.to/lastmile_qr_scan"}, "is_disabled": 0, "fusion_lat": 0.0, "name": "d8e403c6f61c9d8b71007b189a3a82f3", "fusion_lon": 0.0}, {"is_reserved": 0, "type": "electric_scooter", "bike_id": "b2ffd77ad52b5c0237a41c5a4e0d272c", "lat": 38.9037665, "lon": -77.03220283333333, "rental_uris": {"android": "https://dc.lft.to/lastmile_qr_scan", "ios": "https://dc.lft.to/lastmile_qr_scan"}, "is_disabled": 0, "fusion_lat": 0.0, "name": "b2ffd77ad52b5c0237a41c5a4e0d272c", "fusion_lon": 0.0}, {"is_reserved": 0, "type": "electric_scooter", "bike_id": "8cb9056195c7bcecfc10926c8254b320", "lat": 38.891978333333334, "lon": -77.02176533333333, "rental_uris": {"android": "https://dc.lft.to/lastmile_qr_scan", "ios": "https://dc.lft.to/lastmile_qr_scan"}, "is_disabled": 0, "fusion_lat": 0.0, "name": "8cb9056195c7bcecfc10926c8254b320", "fusion_lon": 0.0}, {"is_reserved": 0, "type": "electric_scooter", "bike_id": "52ea1ac31569840f4c64df5244d94917", "lat": 38.892234, "lon": -77.02625933333333, "rental_uris": {"android": "https://dc.lft.to/lastmile_qr_scan", "ios": "https://dc.lft.to/lastmile_qr_scan"}, "is_disabled": 0, "fusion_lat": 0.0, "name": "52ea1ac31569840f4c64df5244d94917", "fusion_lon": 0.0}, {"is_reserved": 0, "type": "electric_bike", "bike_id": "3bc6e8f0b3496660bae4c3f123bd7599", "lat": 38.893960666666665, "lon": -76.8684355, "rental_uris": {"android": "https://dc.lft.to/lastmile_qr_scan", "ios": "https://dc.lft.to/lastmile_qr_scan"}, "is_disabled": 0, "fusion_lat": 0.0, "name": "3bc6e8f0b3496660bae4c3f123bd7599", "fusion_lon": 0.0}, {"is_reserved": 0, "type": "electric_scooter", "bike_id": "9b2c104144047a3cf211e1f82386b612", "lat": 38.920725, "lon": -77.02316866666666, "rental_uris": {"android": "https://dc.lft.to/lastmile_qr_scan", "ios": "https://dc.lft.to/lastmile_qr_scan"}, "is_disabled": 0, "fusion_lat": 0.0, "name": "9b2c104144047a3cf211e1f82386b612", "fusion_lon": 0.0}, {"is_reserved": 0, "type": "electric_scooter", "bike_id": "abef682f9c0a1cfe0470a1fd52ba629e", "lat": 38.92251866666667, "lon": -77.031091, "rental_uris": {"android": "https://dc.lft.to/lastmile_qr_scan", "ios": "https://dc.lft.to/lastmile_qr_scan"}, "is_disabled": 0, "fusion_lat": 0.0, "name": "abef682f9c0a1cfe0470a1fd52ba629e", "fusion_lon": 0.0}, {"is_reserved": 0, "type": "electric_scooter", "bike_id": "3c4ab4e58457f339fbcecf9fc3a642b6", "lat": 38.91562733333333, "lon": -77.03117333333333, "rental_uris": {"android": "https://dc.lft.to/lastmile_qr_scan", "ios": "https://dc.lft.to/lastmile_qr_scan"}, "is_disabled": 0, "fusion_lat": 0.0, "name": "3c4ab4e58457f339fbcecf9fc3a642b6", "fusion_lon": 0.0}, {"is_reserved": 0, "type": "electric_scooter", "bike_id": "0d075abe3d6b173ac9f8d33fd8341530", "lat": 38.86529616666667, "lon": -76.9690915, "rental_uris": {"android": "https://dc.lft.to/lastmile_qr_scan", "ios": "https://dc.lft.to/lastmile_qr_scan"}, "is_disabled": 0, "fusion_lat": 0.0, "name": "0d075abe3d6b173ac9f8d33fd8341530", "fusion_lon": 0.0}, {"is_reserved": 0, "type": "electric_scooter", "bike_id": "14308433b8c52b81aa7ed71f5eaed4c6", "lat": 38.89607183333333, "lon": -77.04412116666667, "rental_uris": {"android": "https://dc.lft.to/lastmile_qr_scan", "ios": "https://dc.lft.to/lastmile_qr_scan"}, "is_disabled": 0, "fusion_lat": 0.0, "name": "14308433b8c52b81aa7ed71f5eaed4c6", "fusion_lon": 0.0}, {"is_reserved": 0, "type": "electric_scooter", "bike_id": "e2e73f6df9a9275c2b842d0498a3e425", "lat": 38.92373, "lon": -77.01915, "rental_uris": {"android": "https://dc.lft.to/lastmile_qr_scan", "ios": "https://dc.lft.to/lastmile_qr_scan"}, "is_disabled": 0, "fusion_lat": 0.0, "name": "e2e73f6df9a9275c2b842d0498a3e425", "fusion_lon": 0.0}, {"is_reserved": 0, "type": "electric_scooter", "bike_id": "857af151acf553e85020fdf7c51e959a", "lat": 38.91868516666667, "lon": -77.0366565, "rental_uris": {"android": "https://dc.lft.to/lastmile_qr_scan", "ios": "https://dc.lft.to/lastmile_qr_scan"}, "is_disabled": 0, "fusion_lat": 0.0, "name": "857af151acf553e85020fdf7c51e959a", "fusion_lon": 0.0}, {"is_reserved": 0, "type": "electric_scooter", "bike_id": "93731010dd3c06b83453ba137a11a373", "lat": 38.89427283333333, "lon": -77.05604266666667, "rental_uris": {"android": "https://dc.lft.to/lastmile_qr_scan", "ios": "https://dc.lft.to/lastmile_qr_scan"}, "is_disabled": 0, "fusion_lat": 0.0, "name": "93731010dd3c06b83453ba137a11a373", "fusion_lon": 0.0}, {"is_reserved": 0, "type": "electric_scooter", "bike_id": "10bb33238d207a324550b4227d28273e", "lat": 38.92501, "lon": -77.038779, "rental_uris": {"android": "https://dc.lft.to/lastmile_qr_scan", "ios": "https://dc.lft.to/lastmile_qr_scan"}, "is_disabled": 0, "fusion_lat": 0.0, "name": "10bb33238d207a324550b4227d28273e", "fusion_lon": 0.0}, {"is_reserved": 0, "type": "electric_scooter", "bike_id": "8e8d88ff9f89dad4119bea3bf7ab8f10", "lat": 38.931892, "lon": -77.02831316666666, "rental_uris": {"android": "https://dc.lft.to/lastmile_qr_scan", "ios": "https://dc.lft.to/lastmile_qr_scan"}, "is_disabled": 0, "fusion_lat": 0.0, "name": "8e8d88ff9f89dad4119bea3bf7ab8f10", "fusion_lon": 0.0}, {"is_reserved": 0, "type": "electric_bike", "bike_id": "1f8f833250eff6182925b2c3ebc33fce", "lat": 38.80252933333333, "lon": -77.11444333333333, "rental_uris": {"android": "https://dc.lft.to/lastmile_qr_scan", "ios": "https://dc.lft.to/lastmile_qr_scan"}, "is_disabled": 0, "fusion_lat": 0.0, "name": "1f8f833250eff6182925b2c3ebc33fce", "fusion_lon": 0.0}, {"is_reserved": 0, "type": "electric_scooter", "bike_id": "bc45b369bb8e433698d9cc478820b52e", "lat": 38.90768666666666, "lon": -77.04515983333333, "rental_uris": {"android": "https://dc.lft.to/lastmile_qr_scan", "ios": "https://dc.lft.to/lastmile_qr_scan"}, "is_disabled": 0, "fusion_lat": 0.0, "name": "bc45b369bb8e433698d9cc478820b52e", "fusion_lon": 0.0}, {"is_reserved": 0, "type": "electric_scooter", "bike_id": "fda1bc977c73cf581e2dee29ad414dc2", "lat": 38.92543233333333, "lon": -77.04131366666667, "rental_uris": {"android": "https://dc.lft.to/lastmile_qr_scan", "ios": "https://dc.lft.to/lastmile_qr_scan"}, "is_disabled": 0, "fusion_lat": 0.0, "name": "fda1bc977c73cf581e2dee29ad414dc2", "fusion_lon": 0.0}, {"is_reserved": 0, "type": "electric_scooter", "bike_id": "cede4e5edd8ad97d6b2487bf4e73766f", "lat": 38.915499833333335, "lon": -77.014144, "rental_uris": {"android": "https://dc.lft.to/lastmile_qr_scan", "ios": "https://dc.lft.to/lastmile_qr_scan"}, "is_disabled": 0, "fusion_lat": 0.0, "name": "cede4e5edd8ad97d6b2487bf4e73766f", "fusion_lon": 0.0}, {"is_reserved": 0, "type": "electric_scooter", "bike_id": "c3141b76885dc20bc00a2956c017395e", "lat": 38.926493666666666, "lon": -77.02510933333333, "rental_uris": {"android": "https://dc.lft.to/lastmile_qr_scan", "ios": "https://dc.lft.to/lastmile_qr_scan"}, "is_disabled": 0, "fusion_lat": 0.0, "name": "c3141b76885dc20bc00a2956c017395e", "fusion_lon": 0.0}, {"is_reserved": 0, "type": "electric_bike", "bike_id": "e87a7581da706a17e9c358ef87d28dbd", "lat": 39.085988666666665, "lon": -77.12275833333334, "rental_uris": {"android": "https://dc.lft.to/lastmile_qr_scan", "ios": "https://dc.lft.to/lastmile_qr_scan"}, "is_disabled": 0, "fusion_lat": 0.0, "name": "e87a7581da706a17e9c358ef87d28dbd", "fusion_lon": 0.0}, {"is_reserved": 0, "type": "electric_scooter", "bike_id": "b2c2077b2784f353ebcd1dec815ec815", "lat": 38.920559, "lon": -77.04196083333333, "rental_uris": {"android": "https://dc.lft.to/lastmile_qr_scan", "ios": "https://dc.lft.to/lastmile_qr_scan"}, "is_disabled": 0, "fusion_lat": 0.0, "name": "b2c2077b2784f353ebcd1dec815ec815", "fusion_lon": 0.0}, {"is_reserved": 0, "type": "electric_scooter", "bike_id": "e1adeee5b1f42abb9017a1a0087ecd24", "lat": 38.9330755, "lon": -77.02147416666666, "rental_uris": {"android": "https://dc.lft.to/lastmile_qr_scan", "ios": "https://dc.lft.to/lastmile_qr_scan"}, "is_disabled": 0, "fusion_lat": 0.0, "name": "e1adeee5b1f42abb9017a1a0087ecd24", "fusion_lon": 0.0}, {"is_reserved": 0, "type": "electric_scooter", "bike_id": "dc9f2bf7d2a14fbbd5b5895bc3f99473", "lat": 38.90848, "lon": -77.02601333333334, "rental_uris": {"android": "https://dc.lft.to/lastmile_qr_scan", "ios": "https://dc.lft.to/lastmile_qr_scan"}, "is_disabled": 0, "fusion_lat": 0.0, "name": "dc9f2bf7d2a14fbbd5b5895bc3f99473", "fusion_lon": 0.0}, {"is_reserved": 0, "type": "electric_scooter", "bike_id": "8806f1dd2925dcb56558e2492bfb911a", "lat": 38.8962025, "lon": -76.97686033333333, "rental_uris": {"android": "https://dc.lft.to/lastmile_qr_scan", "ios": "https://dc.lft.to/lastmile_qr_scan"}, "is_disabled": 0, "fusion_lat": 0.0, "name": "8806f1dd2925dcb56558e2492bfb911a", "fusion_lon": 0.0}, {"is_reserved": 0, "type": "electric_scooter", "bike_id": "72ef60eae387e52f2b17e1f1af9ce028", "lat": 38.93534866666667, "lon": -77.02353133333334, "rental_uris": {"android": "https://dc.lft.to/lastmile_qr_scan", "ios": "https://dc.lft.to/lastmile_qr_scan"}, "is_disabled": 0, "fusion_lat": 0.0, "name": "72ef60eae387e52f2b17e1f1af9ce028", "fusion_lon": 0.0}, {"is_reserved": 0, "type": "electric_scooter", "bike_id": "ec5a2153a8e78918cf579b55b2cd4799", "lat": 38.896438, "lon": -76.99036100000001, "rental_uris": {"android": "https://dc.lft.to/lastmile_qr_scan", "ios": "https://dc.lft.to/lastmile_qr_scan"}, "is_disabled": 0, "fusion_lat": 0.0, "name": "ec5a2153a8e78918cf579b55b2cd4799", "fusion_lon": 0.0}, {"is_reserved": 0, "type": "electric_scooter", "bike_id": "d5baf0075ce9bd16406dd9889eb63c37", "lat": 38.8840125, "lon": -76.93044283333333, "rental_uris": {"android": "https://dc.lft.to/lastmile_qr_scan", "ios": "https://dc.lft.to/lastmile_qr_scan"}, "is_disabled": 0, "fusion_lat": 0.0, "name": "d5baf0075ce9bd16406dd9889eb63c37", "fusion_lon": 0.0},