{"data": {"bikes": [{"rental_uris": {"ios": "https://dc.lft.to/lastmile_qr_scan", "android": "https://dc.lft.to/lastmile_qr_scan"}, "lon": -77.02788066666666, "type": "electric_scooter", "fusion_lat": 0.0, "lat": 38.953813, "name": "77a62121498ec56074af55de4fec72d9", "fusion_lon": 0.0, "bike_id": "77a62121498ec56074af55de4fec72d9", "is_disabled": 0, "is_reserved": 0}, {"rental_uris": {"ios": "https://dc.lft.to/lastmile_qr_scan", "android": "https://dc.lft.to/lastmile_qr_scan"}, "lon": -77.07725733333334, "type": "electric_scooter", "fusion_lat": 0.0, "lat": 38.947031833333334, "name": "06996258066c7c3d8c33372958a22372", "fusion_lon": 0.0, "bike_id": "06996258066c7c3d8c33372958a22372", "is_disabled": 0, "is_reserved": 0}, {"rental_uris": {"ios": "https://dc.lft.to/lastmile_qr_scan", "android": "https://dc.lft.to/lastmile_qr_scan"}, "lon": -77.02540316666666, "type": "electric_scooter", "fusion_lat": 0.0, "lat": 38.92401866666667, "name": "566dd7fab071875c5cb49625c253eaee", "fusion_lon": 0.0, "bike_id": "566dd7fab071875c5cb49625c253eaee", "is_disabled": 0, "is_reserved": 0}, {"rental_uris": {"ios": "https://dc.lft.to/lastmile_qr_scan", "android": "https://dc.lft.to/lastmile_qr_scan"}, "lon": -76.973083, "type": "electric_scooter", "fusion_lat": 0.0, "lat": 38.919857666666665, "name": "38a267f53c215af45e3322b9056355cd", "fusion_lon": 0.0, "bike_id": "38a267f53c215af45e3322b9056355cd", "is_disabled": 0, "is_reserved": 0}, {"rental_uris": {"ios": "https://dc.lft.to/lastmile_qr_scan", "android": "https://dc.lft.to/lastmile_qr_scan"}, "lon": -77.0346405, "type": "electric_scooter", "fusion_lat": 0.0, "lat": 38.923483166666664, "name": "d28f4999226dadda4e012f485ea5f9c8", "fusion_lon": 0.0, "bike_id": "d28f4999226dadda4e012f485ea5f9c8", "is_disabled": 0, "is_reserved": 0}, {"rental_uris": {"ios": "https://dc.lft.to/lastmile_qr_scan", "android": "https://dc.lft.to/lastmile_qr_scan"}, "lon": -77.070985, "type": "electric_bike", "fusion_lat": 0.0, "lat": 38.914487, "name": "caa6e251d227bc3b9219f146487efb2b", "fusion_lon": 0.0, "bike_id": "caa6e251d227bc3b9219f146487efb2b", "is_disabled": 0, "is_reserved": 0}, {"rental_uris": {"ios": "https://dc.lft.to/lastmile_qr_scan", "android": "https://dc.lft.to/lastmile_qr_scan"}, "lon": -77.0218565, "type": "electric_scooter", "fusion_lat": 0.0, "lat": 38.88033466666667, "name": "3d0ac75533dc2303e4b919bdaa9bb05b", "fusion_lon": 0.0, "bike_id": "3d0ac75533dc2303e4b919bdaa9bb05b", "is_disabled": 0, "is_reserved": 0}, {"rental_uris": {"ios": "https://dc.lft.to/lastmile_qr_scan", "android": "https://dc.lft.to/lastmile_qr_scan"}, "lon": -77.04788883333333, "type": "electric_scooter", "fusion_lat": 0.0, "lat": 38.8996045, "name": "f2bc8b83361530e0e102124de41e23ac", "fusion_lon": 0.0, "bike_id": "f2bc8b83361530e0e102124de41e23ac", "is_disabled": 0, "is_reserved": 0}, {"rental_uris": {"ios": "https://dc.lft.to/lastmile_qr_scan", "android": "https://dc.lft.to/lastmile_qr_scan"}, "lon": -76.98089966666667, "type": "electric_bike", "fusion_lat": 0.0, "lat": 38.88136033333333, "name": "c82862a43c43ebfbe7a243f595d1925d", "fusion_lon": 0.0, "bike_id": "c82862a43c43ebfbe7a243f595d1925d", "is_disabled": 0, "is_reserved": 0}, {"rental_uris": {"ios": "https://dc.lft.to/lastmile_qr_scan", "android": "https://dc.lft.to/lastmile_qr_scan"}, "lon": -77.03364116666667, "type": "electric_scooter", "fusion_lat": 0.0, "lat": 38.932158, "name": "5d28df3dbc357f4ff703c18e8abba02b", "fusion_lon": 0.0, "bike_id": "5d28df3dbc357f4ff703c18e8abba02b", "is_disabled": 0, "is_reserved": 0}, {"rental_uris": {"ios": "https://dc.lft.to/lastmile_qr_scan", "android": "https://dc.lft.to/lastmile_qr_scan"}, "lon": -77.03659733333333, "type": "electric_scooter", "fusion_lat": 0.0, "lat": 38.91814316666667, "name": "00b65e20563580ad02674acf452f3b05", "fusion_lon": 0.0, "bike_id": "00b65e20563580ad02674acf452f3b05", "is_disabled": 0, "is_reserved": 0}, {"rental_uris": {"ios": "https://dc.lft.to/lastmile_qr_scan", "android": "https://dc.lft.to/lastmile_qr_scan"}, "lon": -77.00602166666667, "type": "electric_scooter", "fusion_lat": 0.0, "lat": 38.884916833333335, "name": "7d51b4a36c0d0f866a5c0d44ba2af792", "fusion_lon": 0.0, "bike_id": "7d51b4a36c0d0f866a5c0d44ba2af792", "is_disabled": 0, "is_reserved": 0}, {"rental_uris": {"ios": "https://dc.lft.to/lastmile_qr_scan", "android": "https://dc.lft.to/lastmile_qr_scan"}, "lon": -77.03730333333333, "type": "electric_scooter", "fusion_lat": 0.0, "lat": 38.906902333333335, "name": "8655070b49be84e00316e107463be097", "fusion_lon": 0.0, "bike_id": "8655070b49be84e00316e107463be097", "is_disabled": 0, "is_reserved": 0}, {"rental_uris": {"ios": "https://dc.lft.to/lastmile_qr_scan", "android": "https://dc.lft.to/lastmile_qr_scan"}, "lon": -77.038325, "type": "electric_scooter", "fusion_lat": 0.0, "lat": 38.90746983333333, "name": "0858b574799ffe1841c509ee5147c386", "fusion_lon": 0.0, "bike_id": "0858b574799ffe1841c509ee5147c386", "is_disabled": 0, "is_reserved": 0}, {"rental_uris": {"ios": "https://dc.lft.to/lastmile_qr_scan", "android": "https://dc.lft.to/lastmile_qr_scan"}, "lon": -77.03508666666667, "type": "electric_scooter", "fusion_lat": 0.0, "lat": 38.92154933333333, "name": "abf8988bbc3a178d13fe3687bc5aeb33", "fusion_lon": 0.0, "bike_id": "abf8988bbc3a178d13fe3687bc5aeb33", "is_disabled": 0, "is_reserved": 0}, {"rental_uris": {"ios": "https://dc.lft.to/lastmile_qr_scan", "android": "https://dc.lft.to/lastmile_qr_scan"}, "lon": -76.874963, "type": "electric_bike", "fusion_lat": 0.0, "lat": 38.99090133333333, "name": "98eed6780dbd48f0d348b76babd93d80", "fusion_lon": 0.0, "bike_id": "98eed6780dbd48f0d348b76babd93d80", "is_disabled": 0, "is_reserved": 0}, {"rental_uris": {"ios": "https://dc.lft.to/lastmile_qr_scan", "android": "https://dc.lft.to/lastmile_qr_scan"}, "lon": -77.0218865, "type": "electric_scooter", "fusion_lat": 0.0, "lat": 38.90839666666667, "name": "1be483c6337353f38fb2d2f09f49b75d", "fusion_lon": 0.0, "bike_id": "1be483c6337353f38fb2d2f09f49b75d", "is_disabled": 0, "is_reserved": 0}, {"rental_uris": {"ios": "https://dc.lft.to/lastmile_qr_scan", "android": "https://dc.lft.to/lastmile_qr_scan"}, "lon": -76.931594, "type": "electric_scooter", "fusion_lat": 0.0, "lat": 38.89875283333333, "name": "c94dd513acb7571ff2c55555dd6ab578", "fusion_lon": 0.0, "bike_id": "c94dd513acb7571ff2c55555dd6ab578", "is_disabled": 0, "is_reserved": 0}, {"rental_uris": {"ios": "https://dc.lft.to/lastmile_qr_scan", "android": "https://dc.lft.to/lastmile_qr_scan"}, "lon": -77.02082716666666, "type": "electric_scooter", "fusion_lat": 0.0, "lat": 38.88184866666667, "name": "932cea73a196a166452ef01ba5616802", "fusion_lon": 0.0, "bike_id": "932cea73a196a166452ef01ba5616802", "is_disabled": 0, "is_reserved": 0}, {"rental_uris": {"ios": "https://dc.lft.to/lastmile_qr_scan", "android": "https://dc.lft.to/lastmile_qr_scan"}, "lon": -77.02006216666666, "type": "electric_scooter", "fusion_lat": 0.0, "lat": 38.89731616666667, "name": "1b621ecf57c427f5a3385901f97bfaad", "fusion_lon": 0.0, "bike_id": "1b621ecf57c427f5a3385901f97bfaad", "is_disabled": 0, "is_reserved": 0}, {"rental_uris": {"ios": "https://dc.lft.to/lastmile_qr_scan", "android": "https://dc.lft.to/lastmile_qr_scan"}, "lon": -76.9917945, "type": "electric_scooter", "fusion_lat": 0.0, "lat": 38.904595, "name": "d1b1ff3f980163afaafb2568216b303b", "fusion_lon": 0.0, "bike_id": "d1b1ff3f980163afaafb2568216b303b", "is_disabled": 0, "is_reserved": 0}, {"rental_uris": {"ios": "https://dc.lft.to/lastmile_qr_scan", "android": "https://dc.lft.to/lastmile_qr_scan"}, "lon": -77.0507855, "type": "electric_scooter", "fusion_lat": 0.0, "lat": 38.92452683333333, "name": "4887f4b72e9cd36b95c069dbc06abe97", "fusion_lon": 0.0, "bike_id": "4887f4b72e9cd36b95c069dbc06abe97", "is_disabled": 0, "is_reserved": 0}, {"rental_uris": {"ios": "https://dc.lft.to/lastmile_qr_scan", "android": "https://dc.lft.to/lastmile_qr_scan"}, "lon": -77.112218, "type": "electric_bike", "fusion_lat": 0.0, "lat": 38.82869216666667, "name": "b72bfbd4b8477d31c818b62db57e80fa", "fusion_lon": 0.0, "bike_id": "b72bfbd4b8477d31c818b62db57e80fa", "is_disabled": 0, "is_reserved": 0}, {"rental_uris": {"ios": "https://dc.lft.to/lastmile_qr_scan", "android": "https://dc.lft.to/lastmile_qr_scan"}, "lon": -77.0269275, "type": "electric_scooter", "fusion_lat": 0.0, "lat": 38.91630283333333, "name": "6d0149009ca041287259596e287620b7", "fusion_lon": 0.0, "bike_id": "6d0149009ca041287259596e287620b7", "is_disabled": 0, "is_reserved": 0}, {"rental_uris": {"ios": "https://dc.lft.to/lastmile_qr_scan", "android": "https://dc.lft.to/lastmile_qr_scan"}, "lon": -77.041904, "type": "electric_scooter", "fusion_lat": 0.0, "lat": 38.9262095, "name": "b83285078817bd810c7ee62bee682ba6", "fusion_lon": 0.0, "bike_id": "b83285078817bd810c7ee62bee682ba6", "is_disabled": 0, "is_reserved": 0}, {"rental_uris": {"ios": "https://dc.lft.to/lastmile_qr_scan", "android": "https://dc.lft.to/lastmile_qr_scan"}, "lon": -77.04154533333333, "type": "electric_scooter", "fusion_lat": 0.0, "lat": 38.9191335, "name": "bd2b85a6c5cd70b67f0d7f6045cf72c4", "fusion_lon": 0.0, "bike_id": "bd2b85a6c5cd70b67f0d7f6045cf72c4", "is_disabled": 0, "is_reserved": 0}, {"rental_uris": {"ios": "https://dc.lft.to/lastmile_qr_scan", "android": "https://dc.lft.to/lastmile_qr_scan"}, "lon": -77.01133783333333, "type": "electric_scooter", "fusion_lat": 0.0, "lat": 38.894893, "name": "5d245c86c0d060247477cf01c30224a4", "fusion_lon": 0.0, "bike_id": "5d245c86c0d060247477cf01c30224a4", "is_disabled": 0, "is_reserved": 0}, {"rental_uris": {"ios": "https://dc.lft.to/lastmile_qr_scan", "android": "https://dc.lft.to/lastmile_qr_scan"}, "lon": -77.01847116666667, "type": "electric_scooter", "fusion_lat": 0.0, "lat": 38.919699333333334, "name": "3006ed4f7afdb0c5371623ab75eef3a8", "fusion_lon": 0.0, "bike_id": "3006ed4f7afdb0c5371623ab75eef3a8", "is_disabled": 0, "is_reserved": 0}, {"rental_uris": {"ios": "https://dc.lft.to/lastmile_qr_scan", "android": "https://dc.lft.to/lastmile_qr_scan"}, "lon": -77.02557, "type": "electric_scooter", "fusion_lat": 0.0, "lat": 38.925319333333334, "name": "afe00b031c3929d62983cab15ce127fb", "fusion_lon": 0.0, "bike_id": "afe00b031c3929d62983cab15ce127fb", "is_disabled": 0, "is_reserved": 0}, {"rental_uris": {"ios": "https://dc.lft.to/lastmile_qr_scan", "android": "https://dc.lft.to/lastmile_qr_scan"}, "lon": -76.99946283333334, "type": "electric_scooter", "fusion_lat": 0.0, "lat": 38.84292766666667, "name": "648e1da0e84188af6e5200b9ceee2274", "fusion_lon": 0.0, "bike_id": "648e1da0e84188af6e5200b9ceee2274", "is_disabled": 0, "is_reserved": 0}, {"rental_uris": {"ios": "https://dc.lft.to/lastmile_qr_scan", "android": "https://dc.lft.to/lastmile_qr_scan"}, "lon": -77.0464735, "type": "electric_bike", "fusion_lat": 0.0, "lat": 38.8520985, "name": "629c49dfcb795eaed66410877b209ed2", "fusion_lon": 0.0, "bike_id": "629c49dfcb795eaed66410877b209ed2", "is_disabled": 0, "is_reserved": 0}, {"rental_uris": {"ios": "https://dc.lft.to/lastmile_qr_scan", "android": "https://dc.lft.to/lastmile_qr_scan"}, "lon": -77.04195033333333, "type": "electric_scooter", "fusion_lat": 0.0, "lat": 38.920201, "name": "217f659a0bf8ccaeea1010e8f6209b07", "fusion_lon": 0.0, "bike_id": "217f659a0bf8ccaeea1010e8f6209b07", "is_disabled": 0, "is_reserved": 0}, {"rental_uris": {"ios": "https://dc.lft.to/lastmile_qr_scan", "android": "https://dc.lft.to/lastmile_qr_scan"}, "lon": -77.03310466666667, "type": "electric_scooter", "fusion_lat": 0.0, "lat": 38.900437, "name": "f581c385329a1e202ac807af2fbc8c5a", "fusion_lon": 0.0, "bike_id": "f581c385329a1e202ac807af2fbc8c5a", "is_disabled": 0, "is_reserved": 0}, {"rental_uris": {"ios": "https://dc.lft.to/lastmile_qr_scan", "android": "https://dc.lft.to/lastmile_qr_scan"}, "lon": -77.04381633333334, "type": "electric_scooter", "fusion_lat": 0.0, "lat": 38.91782116666667, "name": "194865f9f8b86e1cdaed5a3c38b716bb", "fusion_lon": 0.0, "bike_id": "194865f9f8b86e1cdaed5a3c38b716bb", "is_disabled": 0, "is_reserved": 0}, {"rental_uris": {"ios": "https://dc.lft.to/lastmile_qr_scan", "android": "https://dc.lft.to/lastmile_qr_scan"}, "lon": -76.94709, "type": "electric_scooter", "fusion_lat": 0.0, "lat": 38.896958, "name": "920eb7567b97486bbc452a3f8bcd05de", "fusion_lon": 0.0, "bike_id": "920eb7567b97486bbc452a3f8bcd05de", "is_disabled": 0, "is_reserved": 0}, {"rental_uris": {"ios": "https://dc.lft.to/lastmile_qr_scan", "android": "https://dc.lft.to/lastmile_qr_scan"}, "lon": -77.01214983333334, "type": "electric_scooter", "fusion_lat": 0.0, "lat": 38.91526483333333, "name": "5e039013f1a120671766c8ca35553519", "fusion_lon": 0.0, "bike_id": "5e039013f1a120671766c8ca35553519", "is_disabled": 0, "is_reserved": 0}, {"rental_uris": {"ios": "https://dc.lft.to/lastmile_qr_scan", "android": "https://dc.lft.to/lastmile_qr_scan"}, "lon": -76.9043675, "type": "electric_bike", "fusion_lat": 0.0, "lat": 38.897649333333334, "name": "7575db744b52b6e6e35dfc66bae14bfb", "fusion_lon": 0.0, "bike_id": "7575db744b52b6e6e35dfc66bae14bfb", "is_disabled": 0, "is_reserved": 0}, {"rental_uris": {"ios": "https://dc.lft.to/lastmile_qr_scan", "android": "https://dc.lft.to/lastmile_qr_scan"}, "lon": -77.03519833333333, "type": "electric_scooter", "fusion_lat": 0.0, "lat": 38.91841633333333, "name": "5658fbc267580d2a9a9fc26c25c982d4", "fusion_lon": 0.0, "bike_id": "5658fbc267580d2a9a9fc26c25c982d4", "is_disabled": 0, "is_reserved": 0}, {"rental_uris": {"ios": "https://dc.lft.to/lastmile_qr_scan", "android": "https://dc.lft.to/lastmile_qr_scan"}, "lon": -77.0389535, "type": "electric_scooter", "fusion_lat": 0.0, "lat": 38.902564166666664, "name": "179d311697683346120e40e31b6e8855", "fusion_lon": 0.0, "bike_id": "179d311697683346120e40e31b6e8855", "is_disabled": 0, "is_reserved": 0}, {"rental_uris": {"ios": "https://dc.lft.to/lastmile_qr_scan", "android": "https://dc.lft.to/lastmile_qr_scan"}, "lon": -77.048672, "type": "electric_scooter", "fusion_lat": 0.0, "lat": 38.91242, "name": "a6fb32e0c1b5a21aa68ec9c4325c1d9d", "fusion_lon": 0.0, "bike_id": "a6fb32e0c1b5a21aa68ec9c4325c1d9d", "is_disabled": 0, "is_reserved": 0}, {"rental_uris": {"ios": "https://dc.lft.to/lastmile_qr_scan", "android": "https://dc.lft.to/lastmile_qr_scan"}, "lon": -77.0151275, "type": "electric_scooter", "fusion_lat": 0.0, "lat": 38.8873295, "name": "d7154259f235938de1d6462f32d3d361", "fusion_lon": 0.0, "bike_id": "d7154259f235938de1d6462f32d3d361", "is_disabled": 0, "is_reserved": 0}, {"rental_uris": {"ios": "https://dc.lft.to/lastmile_qr_scan", "android": "https://dc.lft.to/lastmile_qr_scan"}, "lon": -77.007258, "type": "electric_scooter", "fusion_lat": 0.0, "lat": 38.884884166666666, "name": "7b68d8683a373bb36c36056fd2dec10d", "fusion_lon": 0.0, "bike_id": "7b68d8683a373bb36c36056fd2dec10d", "is_disabled": 0, "is_reserved": 0}, {"rental_uris": {"ios": "https://dc.lft.to/lastmile_qr_scan", "android": "https://dc.lft.to/lastmile_qr_scan"}, "lon": -77.02713766666666, "type": "electric_scooter", "fusion_lat": 0.0, "lat": 38.9181115, "name": "f584a605031b66c9b9eab2326a926826", "fusion_lon": 0.0, "bike_id": "f584a605031b66c9b9eab2326a926826", "is_disabled": 0, "is_reserved": 0}, {"rental_uris": {"ios": "https://dc.lft.to/lastmile_qr_scan", "android": "https://dc.lft.to/lastmile_qr_scan"}, "lon": -77.01962683333333, "type": "electric_scooter", "fusion_lat": 0.0, "lat": 38.9297235, "name": "994d65cdc2f14f2b19f658899c197fa2", "fusion_lon": 0.0, "bike_id": "994d65cdc2f14f2b19f658899c197fa2", "is_disabled": 0, "is_reserved": 0}, {"rental_uris": {"ios": "https://dc.lft.to/lastmile_qr_scan", "android": "https://dc.lft.to/lastmile_qr_scan"}, "lon": -77.01992566666667, "type": "electric_scooter", "fusion_lat": 0.0, "lat": 38.90472666666667, "name": "90884d4d5f2ff481b08573bbe4c9138d", "fusion_lon": 0.0, "bike_id": "90884d4d5f2ff481b08573bbe4c9138d", "is_disabled": 0, "is_reserved": 0}, {"rental_uris": {"ios": "https://dc.lft.to/lastmile_qr_scan", "android": "https://dc.lft.to/lastmile_qr_scan"}, "lon": -77.02342683333333, "type": "electric_scooter", "fusion_lat": 0.0, "lat": 38.929381666666664, "name": "e738d11aa95cc546a5c1b40770c086b8", "fusion_lon": 0.0, "bike_id": "e738d11aa95cc546a5c1b40770c086b8", "is_disabled": 0, "is_reserved": 0}, {"rental_uris": {"ios": "https://dc.lft.to/lastmile_qr_scan", "android": "https://dc.lft.to/lastmile_qr_scan"}, "lon": -77.01748333333333, "type": "electric_scooter", "fusion_lat": 0.0, "lat": 38.91707533333334, "name": "92479ff170942216922a43a2737c341c", "fusion_lon": 0.0, "bike_id": "92479ff170942216922a43a2737c341c", "is_disabled": 0, "is_reserved": 0}, {"rental_uris": {"ios": "https://dc.lft.to/lastmile_qr_scan", "android": "https://dc.lft.to/lastmile_qr_scan"}, "lon": -77.03453416666666, "type": "electric_scooter", "fusion_lat": 0.0, "lat": 38.90364233333333, "name": "9ac2139aed78fab390229ffeaa79e40d", "fusion_lon": 0.0, "bike_id": "9ac2139aed78fab390229ffeaa79e40d", "is_disabled": 0, "is_reserved": 0}, {"rental_uris": {"ios": "https://dc.lft.to/lastmile_qr_scan", "android": "https://dc.lft.to/lastmile_qr_scan"}, "lon": -77.030784, "type": "electric_scooter", "fusion_lat": 0.0, "lat": 38.909882, "name": "9da8b4d8816d0b89a6cfaf43516713b3", "fusion_lon": 0.0, "bike_id": "9da8b4d8816d0b89a6cfaf43516713b3", "is_disabled": 0, "is_reserved": 0}, {"rental_uris": {"ios": "https://dc.lft.to/lastmile_qr_scan", "android": "https://dc.lft.to/lastmile_qr_scan"}, "lon": -77.04157866666667, "type": "electric_scooter", "fusion_lat": 0.0, "lat": 38.919265833333334, "name": "9d88b1b54f34609930e62518ee229d60", "fusion_lon": 0.0, "bike_id": "9d88b1b54f34609930e62518ee229d60", "is_disabled": 0, "is_reserved": 0}, {"rental_uris": {"ios": "https://dc.lft.to/lastmile_qr_scan", "android": "https://dc.lft.to/lastmile_qr_scan"}, "lon": -77.1226285, "type": "electric_bike", "fusion_lat": 0.0, "lat": 38.89187733333333, "name": "3348d667d761479f4a3a6a2bfc0cf026", "fusion_lon": 0.0, "bike_id": "3348d667d761479f4a3a6a2bfc0cf026", "is_disabled": 0, "is_reserved": 0}, {"rental_uris": {"ios": "https://dc.lft.to/lastmile_qr_scan", "android": "https://dc.lft.to/lastmile_qr_scan"}, "lon": -77.03359933333333, "type": "electric_scooter", "fusion_lat": 0.0, "lat": 38.92443866666667, "name": "c5a4c8574571ad2b055350fbeffcdc68", "fusion_lon": 0.0, "bike_id": "c5a4c8574571ad2b055350fbeffcdc68", "is_disabled": 0, "is_reserved": 0}, {"rental_uris": {"ios": "https://dc.lft.to/lastmile_qr_scan", "android": "https://dc.lft.to/lastmile_qr_scan"}, "lon": -77.04747266666666, "type": "electric_scooter", "fusion_lat": 0.0, "lat": 38.90222883333333, "name": "e0fea02583bd25f6c1722c9d1c6bf31b", "fusion_lon": 0.0, "bike_id": "e0fea02583bd25f6c1722c9d1c6bf31b", "is_disabled": 0, "is_reserved": 0}, {"rental_uris": {"ios": "https://dc.lft.to/lastmile_qr_scan", "android": "https://dc.lft.to/lastmile_qr_scan"}, "lon": -77.11226783333333, "type": "electric_bike", "fusion_lat": 0.0, "lat": 38.828696666666666, "name": "27d38a67a3014012184307a30c871ef4", "fusion_lon": 0.0, "bike_id": "27d38a67a3014012184307a30c871ef4", "is_disabled": 0, "is_reserved": 0}, {"rental_uris": {"ios": "https://dc.lft.to/lastmile_qr_scan", "android": "https://dc.lft.to/lastmile_qr_scan"}, "lon": -76.93535266666666, "type": "electric_bike", "fusion_lat": 0.0, "lat": 38.9555265, "name": "6c52b7cd37f814e79d16cad84644647c", "fusion_lon": 0.0, "bike_id": "6c52b7cd37f814e79d16cad84644647c", "is_disabled": 0, "is_reserved": 0}, {"rental_uris": {"ios": "https://dc.lft.to/lastmile_qr_scan", "android": "https://dc.lft.to/lastmile_qr_scan"}, "lon": -77.076812, "type": "electric_bike", "fusion_lat": 0.0, "lat": 38.8319235, "name": "66c95260ad668b80074e8caa907ab91a", "fusion_lon": 0.0, "bike_id": "66c95260ad668b80074e8caa907ab91a", "is_disabled": 0, "is_reserved": 0}, {"rental_uris": {"ios": "https://dc.lft.to/lastmile_qr_scan", "android": "https://dc.lft.to/lastmile_qr_scan"}, "lon": -77.0500395, "type": "electric_scooter", "fusion_lat": 0.0, "lat": 38.89896733333333, "name": "99b345fddda851c0664b09456ad3ba15", "fusion_lon": 0.0, "bike_id": "99b345fddda851c0664b09456ad3ba15", "is_disabled": 0, "is_reserved": 0}, {"rental_uris": {"ios": "https://dc.lft.to/lastmile_qr_scan", "android": "https://dc.lft.to/lastmile_qr_scan"}, "lon": -77.023962, "type": "electric_scooter", "fusion_lat": 0.0, "lat": 38.91604266666667, "name": "86cd0805abd44aeef730ab78d2712f8f", "fusion_lon": 0.0, "bike_id": "86cd0805abd44aeef730ab78d2712f8f", "is_disabled": 0, "is_reserved": 0}, {"rental_uris": {"ios": "https://dc.lft.to/lastmile_qr_scan", "android": "https://dc.lft.to/lastmile_qr_scan"}, "lon": -77.01609466666666, "type": "electric_scooter", "fusion_lat": 0.0, "lat": 38.87685833333333, "name": "bc25c97e980e555ea3dbb07864041ee0", "fusion_lon": 0.0, "bike_id": "bc25c97e980e555ea3dbb07864041ee0", "is_disabled": 0, "is_reserved": 0}, {"rental_uris": {"ios": "https://dc.lft.to/lastmile_qr_scan", "android": "https://dc.lft.to/lastmile_qr_scan"}, "lon": -77.02417166666666, "type": "electric_scooter", "fusion_lat": 0.0, "lat": 38.918251166666664, "name": "ba28666b0b7ca65a3543faf9deb64b65", "fusion_lon": 0.0, "bike_id": "ba28666b0b7ca65a3543faf9deb64b65", "is_disabled": 0, "is_reserved": 0}, {"rental_uris": {"ios": "https://dc.lft.to/lastmile_qr_scan", "android": "https://dc.lft.to/lastmile_qr_scan"}, "lon": -77.10026433333333, "type": "electric_bike", "fusion_lat": 0.0, "lat": 38.990610833333335, "name": "f7c2912f82cfc1453fcf33a47ced05ff", "fusion_lon": 0.0, "bike_id": "f7c2912f82cfc1453fcf33a47ced05ff", "is_disabled": 0, "is_reserved": 0}, {"rental_uris": {"ios": "https://dc.lft.to/lastmile_qr_scan", "android": "https://dc.lft.to/lastmile_qr_scan"}, "lon": -77.03204033333333, "type": "electric_scooter", "fusion_lat": 0.0, "lat": 38.920060166666666, "name": "21204594a38df245aa21bab4046d3137", "fusion_lon": 0.0, "bike_id": "21204594a38df245aa21bab4046d3137", "is_disabled": 0, "is_reserved": 0}, {"rental_uris": {"ios": "https://dc.lft.to/lastmile_qr_scan", "android": "https://dc.lft.to/lastmile_qr_scan"}, "lon": -77.03432666666667, "type": "electric_scooter", "fusion_lat": 0.0, "lat": 38.939682166666664, "name": "6be871c9645e9607ee5a55a92ad93896", "fusion_lon": 0.0, "bike_id": "6be871c9645e9607ee5a55a92ad93896", "is_disabled": 0, "is_reserved": 0}, {"rental_uris": {"ios": "https://dc.lft.to/lastmile_qr_scan", "android": "https://dc.lft.to/lastmile_qr_scan"}, "lon": -77.04898316666667, "type": "electric_bike", "fusion_lat": 0.0, "lat": 38.87494233333334, "name": "8877447ad9f99f760a4575c3444025b9", "fusion_lon": 0.0, "bike_id": "8877447ad9f99f760a4575c3444025b9", "is_disabled": 0, "is_reserved": 0}, {"rental_uris": {"ios": "https://dc.lft.to/lastmile_qr_scan", "android": "https://dc.lft.to/lastmile_qr_scan"}, "lon": -77.03203633333334, "type": "electric_scooter", "fusion_lat": 0.0, "lat": 38.90728283333333, "name": "926a26b4006b7288ecbcae10f9271e0f", "fusion_lon": 0.0, "bike_id": "926a26b4006b7288ecbcae10f9271e0f", "is_disabled": 0, "is_reserved": 0}, {"rental_uris": {"ios": "https://dc.lft.to/lastmile_qr_scan", "android": "https://dc.lft.to/lastmile_qr_scan"}, "lon": -77.03996916666667, "type": "electric_scooter", "fusion_lat": 0.0, "lat": 38.91333566666667, "name": "5dde0266006cf4ade4d3baaf736924dd", "fusion_lon": 0.0, "bike_id": "5dde0266006cf4ade4d3baaf736924dd", "is_disabled": 0, "is_reserved": 0}, {"rental_uris": {"ios": "https://dc.lft.to/lastmile_qr_scan", "android": "https://dc.lft.to/lastmile_qr_scan"}, "lon": -76.9857195, "type": "electric_scooter", "fusion_lat": 0.0, "lat": 38.89877516666667, "name": "3f780462c2f3bcee16932397b63e2519", "fusion_lon": 0.0, "bike_id": "3f780462c2f3bcee16932397b63e2519", "is_disabled": 0, "is_reserved": 0}, {"rental_uris": {"ios": "https://dc.lft.to/lastmile_qr_scan", "android": "https://dc.lft.to/lastmile_qr_scan"}, "lon": -76.99605783333334, "type": "electric_scooter", "fusion_lat": 0.0, "lat": 38.9002895, "name": "51453d5a0a2c1355d04e674a2b7cd157", "fusion_lon": 0.0, "bike_id": "51453d5a0a2c1355d04e674a2b7cd157", "is_disabled": 0, "is_reserved": 0}, {"rental_uris": {"ios": "https://dc.lft.to/lastmile_qr_scan", "android": "https://dc.lft.to/lastmile_qr_scan"}, "lon": -77.0181445, "type": "electric_scooter", "fusion_lat": 0.0, "lat": 38.91190666666667, "name": "b0bae89cb1c0a074a3d42b9f16005c0d", "fusion_lon": 0.0, "bike_id": "b0bae89cb1c0a074a3d42b9f16005c0d", "is_disabled": 0, "is_reserved": 0}, {"rental_uris": {"ios": "https://dc.lft.to/lastmile_qr_scan", "android": "https://dc.lft.to/lastmile_qr_scan"}, "lon": -77.04682433333333, "type": "electric_scooter", "fusion_lat": 0.0, "lat": 38.89221633333333, "name": "78a256700917a0a5ffc833b301af8115", "fusion_lon": 0.0, "bike_id": "78a256700917a0a5ffc833b301af8115", "is_disabled": 0, "is_reserved": 0}, {"rental_uris": {"ios": "https://dc.lft.to/lastmile_qr_scan", "android": "https://dc.lft.to/lastmile_qr_scan"}, "lon": -76.94652766666667, "type": "electric_scooter", "fusion_lat": 0.0, "lat": 38.898251, "name": "7d00779c4efa417662e1b0e35d64cc08", "fusion_lon": 0.0, "bike_id": "7d00779c4efa417662e1b0e35d64cc08", "is_disabled": 0, "is_reserved": 0}, {"rental_uris": {"ios": "https://dc.lft.to/lastmile_qr_scan", "android": "https://dc.lft.to/lastmile_qr_scan"}, "lon": -77.06280566666666, "type": "electric_scooter", "fusion_lat": 0.0, "lat": 38.9068025, "name": "9ba78835035996f38936ef63b7f6131a", "fusion_lon": 0.0, "bike_id": "9ba78835035996f38936ef63b7f6131a", "is_disabled": 0, "is_reserved": 0}, {"rental_uris": {"ios": "https://dc.lft.to/lastmile_qr_scan", "android": "https://dc.lft.to/lastmile_qr_scan"}, "lon": -77.03994616666667, "type": "electric_scooter", "fusion_lat": 0.0, "lat": 38.914093, "name": "d59f5ee007e57a64efa93ede7e32b49b", "fusion_lon": 0.0, "bike_id": "d59f5ee007e57a64efa93ede7e32b49b", "is_disabled": 0, "is_reserved": 0}, {"rental_uris": {"ios": "https://dc.lft.to/lastmile_qr_scan", "android": "https://dc.lft.to/lastmile_qr_scan"}, "lon": -76.97218666666667, "type": "electric_bike", "fusion_lat": 0.0, "lat": 38.844813, "name": "e4c4e093a39ff5b7838e27544d44ca10", "fusion_lon": 0.0, "bike_id": "e4c4e093a39ff5b7838e27544d44ca10", "is_disabled": 0, "is_reserved": 0}, {"rental_uris": {"ios": "https://dc.lft.to/lastmile_qr_scan", "android": "https://dc.lft.to/lastmile_qr_scan"}, "lon": -77.0057905, "type": "electric_scooter", "fusion_lat": 0.0, "lat": 38.89821083333333, "name": "dedee460c6281dbeae58e5676dfd9c45", "fusion_lon": 0.0, "bike_id": "dedee460c6281dbeae58e5676dfd9c45", "is_disabled": 0, "is_reserved": 0}, {"rental_uris": {"ios": "https://dc.lft.to/lastmile_qr_scan", "android": "https://dc.lft.to/lastmile_qr_scan"}, "lon": -77.0230645, "type": "electric_scooter", "fusion_lat": 0.0, "lat": 38.92884266666667, "name": "ac0b9c1a518f1c8b4b8681d83a698ab6", "fusion_lon": 0.0, "bike_id": "ac0b9c1a518f1c8b4b8681d83a698ab6", "is_disabled": 0, "is_reserved": 0}, {"rental_uris": {"ios": "https://dc.lft.to/lastmile_qr_scan", "android": "https://dc.lft.to/lastmile_qr_scan"}, "lon": -77.00131933333333, "type": "electric_scooter", "fusion_lat": 0.0, "lat": 38.907325166666666, "name": "e68989ca36e74677c435be4b78d5ddca", "fusion_lon": 0.0, "bike_id": "e68989ca36e74677c435be4b78d5ddca", "is_disabled": 0, "is_reserved": 0}, {"rental_uris": {"ios": "https://dc.lft.to/lastmile_qr_scan", "android": "https://dc.lft.to/lastmile_qr_scan"}, "lon": -76.97705283333333, "type": "electric_scooter", "fusion_lat": 0.0, "lat": 38.89885316666667, "name": "93f900b05fd346c30c57ac15f8ae3e78", "fusion_lon": 0.0, "bike_id": "93f900b05fd346c30c57ac15f8ae3e78", "is_disabled": 0, "is_reserved": 0}, {"rental_uris": {"ios": "https://dc.lft.to/lastmile_qr_scan", "android": "https://dc.lft.to/lastmile_qr_scan"}, "lon": -77.0215055, "type": "electric_scooter", "fusion_lat": 0.0, "lat": 38.92999783333333, "name": "400dc23b229a89eb707b92cc079b53e5", "fusion_lon": 0.0, "bike_id": "400dc23b229a89eb707b92cc079b53e5", "is_disabled": 0, "is_reserved": 0}, {"rental_uris": {"ios": "https://dc.lft.to/lastmile_qr_scan", "android": "https://dc.lft.to/lastmile_qr_scan"}, "lon": -77.12959216666667, "type": "electric_bike", "fusion_lat": 0.0, "lat": 38.85216333333334, "name": "6121e8c539699aae0e10bf69dab0c6f7", "fusion_lon": 0.0, "bike_id": "6121e8c539699aae0e10bf69dab0c6f7", "is_disabled": 0, "is_reserved": 0}, {"rental_uris": {"ios": "https://dc.lft.to/lastmile_qr_scan", "android": "https://dc.lft.to/lastmile_qr_scan"}, "lon": -76.93229466666666, "type": "electric_bike", "fusion_lat": 0.0, "lat": 38.86594933333333, "name": "77b40ac151f3ec9acc2a26c0c2381b60", "fusion_lon": 0.0, "bike_id": "77b40ac151f3ec9acc2a26c0c2381b60", "is_disabled": 0, "is_reserved": 0}, {"rental_uris": {"ios": "https://dc.lft.to/lastmile_qr_scan", "android": "https://dc.lft.to/lastmile_qr_scan"}, "lon": -77.05474816666667, "type": "electric_scooter", "fusion_lat": 0.0, "lat": 38.89390066666667, "name": "5dd291f3051529b91812b69c8642e7f5", "fusion_lon": 0.0, "bike_id": "5dd291f3051529b91812b69c8642e7f5", "is_disabled": 0, "is_reserved": 0}, {"rental_uris": {"ios": "https://dc.lft.to/lastmile_qr_scan", "android": "https://dc.lft.to/lastmile_qr_scan"}, "lon": -77.00334466666666, "type": "electric_scooter", "fusion_lat": 0.0, "lat": 38.893545333333336, "name": "d040ca74cdcc5958db69003752ec631d", "fusion_lon": 0.0, "bike_id": "d040ca74cdcc5958db69003752ec631d", "is_disabled": 0, "is_reserved": 0}, {"rental_uris": {"ios": "https://dc.lft.to/lastmile_qr_scan", "android": "https://dc.lft.to/lastmile_qr_scan"}, "lon": -77.00702266666667, "type": "electric_scooter", "fusion_lat": 0.0, "lat": 38.87907633333333, "name": "36140e50bac6e0924ebc5ce933cbe6e8", "fusion_lon": 0.0, "bike_id": "36140e50bac6e0924ebc5ce933cbe6e8", "is_disabled": 0, "is_reserved": 0}, {"rental_uris": {"ios": "https://dc.lft.to/lastmile_qr_scan", "android": "https://dc.lft.to/lastmile_qr_scan"}, "lon": -77.04865633333333, "type": "electric_scooter", "fusion_lat": 0.0, "lat": 38.90633733333333, "name": "70436ccdfa51a26010193abc60906baf", "fusion_lon": 0.0, "bike_id": "70436ccdfa51a26010193abc60906baf", "is_disabled": 0, "is_reserved": 0}, {"rental_uris": {"ios": "https://dc.lft.to/lastmile_qr_scan", "android": "https://dc.lft.to/lastmile_qr_scan"}, "lon": -76.9951505, "type": "electric_scooter", "fusion_lat": 0.0, "lat": 38.8948355, "name": "3cf63eba319a75fc735b7b588bc295b5", "fusion_lon": 0.0, "bike_id": "3cf63eba319a75fc735b7b588bc295b5", "is_disabled": 0, "is_reserved": 0}, {"rental_uris": {"ios": "https://dc.lft.to/lastmile_qr_scan", "android": "https://dc.lft.to/lastmile_qr_scan"}, "lon": -76.996922, "type": "electric_scooter", "fusion_lat": 0.0, "lat": 38.90072983333334, "name": "0b840f5bb2aefdd37c506bc91d44a7ac", "fusion_lon": 0.0, "bike_id": "0b840f5bb2aefdd37c506bc91d44a7ac", "is_disabled": 0, "is_reserved": 0}, {"rental_uris": {"ios": "https://dc.lft.to/lastmile_qr_scan", "android": "https://dc.lft.to/lastmile_qr_scan"}, "lon": -77.04636916666666, "type": "electric_scooter", "fusion_lat": 0.0, "lat": 38.892183333333335, "name": "862b333a9e60f2fc26271121cab88d6c", "fusion_lon": 0.0, "bike_id": "862b333a9e60f2fc26271121cab88d6c", "is_disabled": 0, "is_reserved": 0}, {"rental_uris": {"ios": "https://dc.lft.to/lastmile_qr_scan", "android": "https://dc.lft.to/lastmile_qr_scan"}, "lon": -76.94217233333333, "type": "electric_scooter", "fusion_lat": 0.0, "lat": 38.896671, "name": "41f866a1442a74f19349427c472c8d7c", "fusion_lon": 0.0, "bike_id": "41f866a1442a74f19349427c472c8d7c", "is_disabled": 0, "is_reserved": 0}, {"rental_uris": {"ios": "https://dc.lft.to/lastmile_qr_scan", "android": "https://dc.lft.to/lastmile_qr_scan"}, "lon": -76.9729395, "type": "electric_scooter", "fusion_lat": 0.0, "lat": 38.9033625, "name": "ccd49b0b4d6a79915030e333bc09cc23", "fusion_lon": 0.0, "bike_id": "ccd49b0b4d6a79915030e333bc09cc23", "is_disabled": 0, "is_reserved": 0}, {"rental_uris": {"ios": "https://dc.lft.to/lastmile_qr_scan", "android": "https://dc.lft.to/lastmile_qr_scan"}, "lon": -77.09203283333333, "type": "electric_scooter", "fusion_lat": 0.0, "lat": 38.94130883333333, "name": "f4af3199815a868a11f1445161f0ee48", "fusion_lon": 0.0, "bike_id": "f4af3199815a868a11f1445161f0ee48", "is_disabled": 0, "is_reserved": 0}, {"rental_uris": {"ios": "https://dc.lft.to/lastmile_qr_scan", "android": "https://dc.lft.to/lastmile_qr_scan"}, "lon": -77.01511816666667, "type": "electric_scooter", "fusion_lat": 0.0, "lat": 38.918653, "name": "684c3c78dfd71cc21910aa5bb6749edd", "fusion_lon": 0.0, "bike_id": "684c3c78dfd71cc21910aa5bb6749edd", "is_disabled": 0, "is_reserved": 0}, {"rental_uris": {"ios": "https://dc.lft.to/lastmile_qr_scan", "android": "https://dc.lft.to/lastmile_qr_scan"}, "lon": -77.01821916666667, "type": "electric_scooter", "fusion_lat": 0.0, "lat": 38.908125166666665, "name": "456ac95f7023b98ed28b7b0f21fb806f", "fusion_lon": 0.0, "bike_id": "456ac95f7023b98ed28b7b0f21fb806f", "is_disabled": 0, "is_reserved": 0}, {"rental_uris": {"ios": "https://dc.lft.to/lastmile_qr_scan", "android": "https://dc.lft.to/lastmile_qr_scan"}, "lon": -77.02319866666667, "type": "electric_scooter", "fusion_lat": 0.0, "lat": 38.887274166666664, "name": "3bf381450914bf93827d23644e4b58ab", "fusion_lon": 0.0, "bike_id": "3bf381450914bf93827d23644e4b58ab", "is_disabled": 0, "is_reserved": 0}, {"rental_uris": {"ios": "https://dc.lft.to/lastmile_qr_scan", "android": "https://dc.lft.to/lastmile_qr_scan"}, "lon": -77.00464833333334, "type": "electric_scooter", "fusion_lat": 0.0, "lat": 38.876781333333334, "name": "5bde4a09e3135c2ac2c8096121188bbc", "fusion_lon": 0.0, "bike_id": "5bde4a09e3135c2ac2c8096121188bbc", "is_disabled": 0, "is_reserved": 0}, {"rental_uris": {"ios": "https://dc.lft.to/lastmile_qr_scan", "android": "https://dc.lft.to/lastmile_qr_scan"}, "lon": -77.00234433333334, "type": "electric_bike", "fusion_lat": 0.0, "lat": 38.911646166666664, "name": "4d0d63a1d6b694234d402075e0589619", "fusion_lon": 0.0, "bike_id": "4d0d63a1d6b694234d402075e0589619", "is_disabled": 0, "is_reserved": 0}, {"rental_uris": {"ios": "https://dc.lft.to/lastmile_qr_scan", "android": "https://dc.lft.to/lastmile_qr_scan"}, "lon": -77.04391, "type": "electric_scooter", "fusion_lat": 0.0, "lat": 38.922737833333336, "name": "c69ef3d6fac4b3d9216121be824aa887", "fusion_lon": 0.0, "bike_id": "c69ef3d6fac4b3d9216121be824aa887", "is_disabled": 0, "is_reserved": 0}, {"rental_uris": {"ios": "https://dc.lft.to/lastmile_qr_scan", "android": "https://dc.lft.to/lastmile_qr_scan"}, "lon": -76.97615233333333, "type": "electric_bike", "fusion_lat": 0.0, "lat": 38.913077666666666, "name": "8b9c4370fa7503d92e9e9f54655efaec", "fusion_lon": 0.0, "bike_id": "8b9c4370fa7503d92e9e9f54655efaec", "is_disabled": 0, "is_reserved": 0}, {"rental_uris": {"ios": "https://dc.lft.to/lastmile_qr_scan", "android": "https://dc.lft.to/lastmile_qr_scan"}, "lon": -77.020048, "type": "electric_scooter", "fusion_lat": 0.0, "lat": 38.89245566666666, "name": "40de0b561136b0e7c3f4cd01a7722dcf", "fusion_lon": 0.0, "bike_id": "40de0b561136b0e7c3f4cd01a7722dcf", "is_disabled": 0, "is_reserved": 0}, {"rental_uris": {"ios": "https://dc.lft.to/lastmile_qr_scan", "android": "https://dc.lft.to/lastmile_qr_scan"}, "lon": -76.99031166666667, "type": "electric_scooter", "fusion_lat": 0.0, "lat": 38.85868383333333, "name": "6a48ba5abad66ea4ab59ace38b63ee26", "fusion_lon": 0.0, "bike_id": "6a48ba5abad66ea4ab59ace38b63ee26", "is_disabled": 0, "is_reserved": 0}, {"rental_uris": {"ios": "https://dc.lft.to/lastmile_qr_scan", "android": "https://dc.lft.to/lastmile_qr_scan"}, "lon": -77.06688133333333, "type": "electric_scooter", "fusion_lat": 0.0, "lat": 38.9096955, "name": "d1a0cec436f6096a90b4065ea5aed218", "fusion_lon": 0.0, "bike_id": "d1a0cec436f6096a90b4065ea5aed218", "is_disabled": 0, "is_reserved": 0}, {"rental_uris": {"ios": "https://dc.lft.to/lastmile_qr_scan", "android": "https://dc.lft.to/lastmile_qr_scan"}, "lon": -76.97188566666667, "type": "electric_scooter", "fusion_lat": 0.0, "lat": 38.91262616666667, "name": "f795ee259454438e6baeb0024d824396", "fusion_lon": 0.0, "bike_id": "f795ee259454438e6baeb0024d824396", "is_disabled": 0, "is_reserved": 0}, {"rental_uris": {"ios": "https://dc.lft.to/lastmile_qr_scan", "android": "https://dc.lft.to/lastmile_qr_scan"}, "lon": -77.00212266666666, "type": "electric_scooter", "fusion_lat": 0.0, "lat": 38.90221733333333, "name": "ab49854d74b891562f4eda13643cfa53", "fusion_lon": 0.0, "bike_id": "ab49854d74b891562f4eda13643cfa53", "is_disabled": 0, "is_reserved": 0}, {"rental_uris": {"ios": "https://dc.lft.to/lastmile_qr_scan", "android": "https://dc.lft.to/lastmile_qr_scan"}, "lon": -77.05149833333333, "type": "electric_scooter", "fusion_lat": 0.0, "lat": 38.897838, "name": "d0e8c8c6d2741297bf8e8bff6f123a7e", "fusion_lon": 0.0, "bike_id": "d0e8c8c6d2741297bf8e8bff6f123a7e", "is_disabled": 0, "is_reserved": 0}, {"rental_uris": {"ios": "https://dc.lft.to/lastmile_qr_scan", "android": "https://dc.lft.to/lastmile_qr_scan"}, "lon": -77.04659316666667, "type": "electric_scooter", "fusion_lat": 0.0, "lat": 38.89338983333333, "name": "89d76c7214585d7ae4a6abf9a86cb93d", "fusion_lon": 0.0, "bike_id": "89d76c7214585d7ae4a6abf9a86cb93d", "is_disabled": 0, "is_reserved": 0}, {"rental_uris": {"ios": "https://dc.lft.to/lastmile_qr_scan", "android": "https://dc.lft.to/lastmile_qr_scan"}, "lon": -76.99463316666667, "type": "electric_bike", "fusion_lat": 0.0, "lat": 38.94064216666666, "name": "7c71e3bc232bca38b88fcae154ed7680", "fusion_lon": 0.0, "bike_id": "7c71e3bc232bca38b88fcae154ed7680", "is_disabled": 0, "is_reserved": 0}, {"rental_uris": {"ios": "https://dc.lft.to/lastmile_qr_scan", "android": "https://dc.lft.to/lastmile_qr_scan"}, "lon": -77.12022116666667, "type": "electric_bike", "fusion_lat": 0.0, "lat": 38.85516883333333, "name": "4ac46146325fc0c1e2d8f1ec4be392b7", "fusion_lon": 0.0, "bike_id": "4ac46146325fc0c1e2d8f1ec4be392b7", "is_disabled": 0, "is_reserved": 0}, {"rental_uris": {"ios": "https://dc.lft.to/lastmile_qr_scan", "android": "https://dc.lft.to/lastmile_qr_scan"}, "lon": -76.94971716666667, "type": "electric_scooter", "fusion_lat": 0.0, "lat": 38.893704666666665, "name": "7a57ec02a4a4995c5d7120d88ca359bf", "fusion_lon": 0.0, "bike_id": "7a57ec02a4a4995c5d7120d88ca359bf", "is_disabled": 0, "is_reserved": 0}, {"rental_uris": {"ios": "https://dc.lft.to/lastmile_qr_scan", "android": "https://dc.lft.to/lastmile_qr_scan"}, "lon": -77.03200566666666, "type": "electric_scooter", "fusion_lat": 0.0, "lat": 38.9174335, "name": "e452f907be6dc098ce69f6d0878935a6", "fusion_lon": 0.0, "bike_id": "e452f907be6dc098ce69f6d0878935a6", "is_disabled": 0, "is_reserved": 0}, {"rental_uris": {"ios": "https://dc.lft.to/lastmile_qr_scan", "android": "https://dc.lft.to/lastmile_qr_scan"}, "lon": -77.02968616666666, "type": "electric_scooter", "fusion_lat": 0.0, "lat": 38.90045933333333, "name": "e5627a962929f9f38b1bfc6ca90718b8", "fusion_lon": 0.0, "bike_id": "e5627a962929f9f38b1bfc6ca90718b8", "is_disabled": 0, "is_reserved": 0}, {"rental_uris": {"ios": "https://dc.lft.to/lastmile_qr_scan", "android": "https://dc.lft.to/lastmile_qr_scan"}, "lon": -76.93177883333334, "type": "electric_scooter", "fusion_lat": 0.0, "lat": 38.89883616666667, "name": "73faebf52362f572d5cf4ba493d3e460", "fusion_lon": 0.0, "bike_id": "73faebf52362f572d5cf4ba493d3e460", "is_disabled": 0, "is_reserved": 0}, {"rental_uris": {"ios": "https://dc.lft.to/lastmile_qr_scan", "android": "https://dc.lft.to/lastmile_qr_scan"}, "lon": -77.03195066666666, "type": "electric_scooter", "fusion_lat": 0.0, "lat": 38.8862355, "name": "984898ede948341295b080cf68154c9a", "fusion_lon": 0.0, "bike_id": "984898ede948341295b080cf68154c9a", "is_disabled": 0, "is_reserved": 0}, {"rental_uris": {"ios": "https://dc.lft.to/lastmile_qr_scan", "android": "https://dc.lft.to/lastmile_qr_scan"}, "lon": -76.9315955, "type": "electric_scooter", "fusion_lat": 0.0, "lat": 38.898749333333335, "name": "3008b23649bfb9e6bb53c9fe32d825f5", "fusion_lon": 0.0, "bike_id": "3008b23649bfb9e6bb53c9fe32d825f5", "is_disabled": 0, "is_reserved": 0}, {"rental_uris": {"ios": "https://dc.lft.to/lastmile_qr_scan", "android": "https://dc.lft.to/lastmile_qr_scan"}, "lon": -76.948375, "type": "electric_scooter", "fusion_lat": 0.0, "lat": 38.884103833333334, "name": "f1c84d544c77f548ec2c0d45b7d3ad4b", "fusion_lon": 0.0, "bike_id": "f1c84d544c77f548ec2c0d45b7d3ad4b", "is_disabled": 0, "is_reserved": 0}, {"rental_uris": {"ios": "https://dc.lft.to/lastmile_qr_scan", "android": "https://dc.lft.to/lastmile_qr_scan"}, "lon": -77.0456955, "type": "electric_scooter", "fusion_lat": 0.0, "lat": 38.910556666666665, "name": "074809f5fa6a7ef2903ba720d5eb5b5b", "fusion_lon": 0.0, "bike_id": "074809f5fa6a7ef2903ba720d5eb5b5b", "is_disabled": 0, "is_reserved": 0}, {"rental_uris": {"ios": "https://dc.lft.to/lastmile_qr_scan", "android": "https://dc.lft.to/lastmile_qr_scan"}, "lon": -76.92881966666667, "type": "electric_scooter", "fusion_lat": 0.0, "lat": 38.88443983333333, "name": "d82cd87f81c41803e15c605a904ed061", "fusion_lon": 0.0, "bike_id": "d82cd87f81c41803e15c605a904ed061", "is_disabled": 0, "is_reserved": 0}, {"rental_uris": {"ios": "https://dc.lft.to/lastmile_qr_scan", "android": "https://dc.lft.to/lastmile_qr_scan"}, "lon": -77.08042966666666, "type": "electric_bike", "fusion_lat": 0.0, "lat": 38.84846133333333, "name": "3526204799be69eaf2b14f30089a693e", "fusion_lon": 0.0, "bike_id": "3526204799be69eaf2b14f30089a693e", "is_disabled": 0, "is_reserved": 0}, {"rental_uris": {"ios": "https://dc.lft.to/lastmile_qr_scan", "android": "https://dc.lft.to/lastmile_qr_scan"}, "lon": -77.03969433333333, "type": "electric_scooter", "fusion_lat": 0.0, "lat": 38.90244233333333, "name": "fcc042e825857457009088ae9d422035", "fusion_lon": 0.0, "bike_id": "fcc042e825857457009088ae9d422035", "is_disabled": 0, "is_reserved": 0}, {"rental_uris": {"ios": "https://dc.lft.to/lastmile_qr_scan", "android": "https://dc.lft.to/lastmile_qr_scan"}, "lon": -77.020102, "type": "electric_bike", "fusion_lat": 0.0, "lat": 38.93726983333333, "name": "adf44383c4a14a76d9b7c05063e355b0", "fusion_lon": 0.0, "bike_id": "adf44383c4a14a76d9b7c05063e355b0", "is_disabled": 0, "is_reserved": 0}, {"rental_uris": {"ios": "https://dc.lft.to/lastmile_qr_scan", "android": "https://dc.lft.to/lastmile_qr_scan"}, "lon": -77.03656233333334, "type": "electric_scooter", "fusion_lat": 0.0, "lat": 38.90270183333333, "name": "8dc08d667105f24007b0c293d7b353c5", "fusion_lon": 0.0, "bike_id": "8dc08d667105f24007b0c293d7b353c5", "is_disabled": 0, "is_reserved": 0}, {"rental_uris": {"ios": "https://dc.lft.to/lastmile_qr_scan", "android": "https://dc.lft.to/lastmile_qr_scan"}, "lon": -77.0482455, "type": "electric_scooter", "fusion_lat": 0.0, "lat": 38.909578, "name": "14ce3fb459ee363e6d3e3fd0beb4f37e", "fusion_lon": 0.0, "bike_id": "14ce3fb459ee363e6d3e3fd0beb4f37e", "is_disabled": 0, "is_reserved": 0}, {"rental_uris": {"ios": "https://dc.lft.to/lastmile_qr_scan", "android": "https://dc.lft.to/lastmile_qr_scan"}, "lon": -76.98518266666666, "type": "electric_scooter", "fusion_lat": 0.0, "lat": 38.91004433333333, "name": "c12a8e3652b59a3063e828a082ecf044", "fusion_lon": 0.0, "bike_id": "c12a8e3652b59a3063e828a082ecf044", "is_disabled": 0, "is_reserved": 0}, {"rental_uris": {"ios": "https://dc.lft.to/lastmile_qr_scan", "android": "https://dc.lft.to/lastmile_qr_scan"}, "lon": -76.98611816666667, "type": "electric_scooter", "fusion_lat": 0.0, "lat": 38.87828616666667, "name": "31f5dafe971668026685b2522d9de4b0", "fusion_lon": 0.0, "bike_id": "31f5dafe971668026685b2522d9de4b0", "is_disabled": 0, "is_reserved": 0}, {"rental_uris": {"ios": "https://dc.lft.to/lastmile_qr_scan", "android": "https://dc.lft.to/lastmile_qr_scan"}, "lon": -76.956784, "type": "electric_bike", "fusion_lat": 0.0, "lat": 38.94729933333333, "name": "2b8104f38d60a88e982253a02ab983eb", "fusion_lon": 0.0, "bike_id": "2b8104f38d60a88e982253a02ab983eb", "is_disabled": 0, "is_reserved": 0}, {"rental_uris": {"ios": "https://dc.lft.to/lastmile_qr_scan", "android": "https://dc.lft.to/lastmile_qr_scan"}, "lon": -77.011118, "type": "electric_scooter", "fusion_lat": 0.0, "lat": 38.870752, "name": "a000b704d76b9c22ba22ac95e31b2948", "fusion_lon": 0.0, "bike_id": "a000b704d76b9c22ba22ac95e31b2948", "is_disabled": 0, "is_reserved": 0}, {"rental_uris": {"ios": "https://dc.lft.to/lastmile_qr_scan", "android": "https://dc.lft.to/lastmile_qr_scan"}, "lon": -76.97407816666667, "type": "electric_scooter", "fusion_lat": 0.0, "lat": 38.90237483333333, "name": "2a803c7c772aeaa55cede88c9122a13e", "fusion_lon": 0.0, "bike_id": "2a803c7c772aeaa55cede88c9122a13e", "is_disabled": 0, "is_reserved": 0}, {"rental_uris": {"ios": "https://dc.lft.to/lastmile_qr_scan", "android": "https://dc.lft.to/lastmile_qr_scan"}, "lon": -77.03833066666667, "type": "electric_scooter", "fusion_lat": 0.0, "lat": 38.907492, "name": "159a4ecaadda8f21a73ff12650234840", "fusion_lon": 0.0, "bike_id": "159a4ecaadda8f21a73ff12650234840", "is_disabled": 0, "is_reserved": 0}, {"rental_uris": {"ios": "https://dc.lft.to/lastmile_qr_scan", "android": "https://dc.lft.to/lastmile_qr_scan"}, "lon": -77.003354, "type": "electric_bike", "fusion_lat": 0.0, "lat": 38.87659816666667, "name": "2ddff5b79d16062f56ad11c4df7530e4", "fusion_lon": 0.0, "bike_id": "2ddff5b79d16062f56ad11c4df7530e4", "is_disabled": 0, "is_reserved": 0}, {"rental_uris": {"ios": "https://dc.lft.to/lastmile_qr_scan", "android": "https://dc.lft.to/lastmile_qr_scan"}, "lon": -77.03888466666666, "type": "electric_scooter", "fusion_lat": 0.0, "lat": 38.922441166666665, "name": "8df01210f7e69748e1d801ac1e8601b3", "fusion_lon": 0.0, "bike_id": "8df01210f7e69748e1d801ac1e8601b3", "is_disabled": 0, "is_reserved": 0}, {"rental_uris": {"ios": "https://dc.lft.to/lastmile_qr_scan", "android": "https://dc.lft.to/lastmile_qr_scan"}, "lon": -76.928468, "type": "electric_scooter", "fusion_lat": 0.0, "lat": 38.883568833333335, "name": "e468b33aebe62ab98e73fc67a012207b", "fusion_lon": 0.0, "bike_id": "e468b33aebe62ab98e73fc67a012207b", "is_disabled": 0, "is_reserved": 0}, {"rental_uris": {"ios": "https://dc.lft.to/lastmile_qr_scan", "android": "https://dc.lft.to/lastmile_qr_scan"}, "lon": -77.034063, "type": "electric_scooter", "fusion_lat": 0.0, "lat": 38.92422333333333, "name": "5d5889d33f21feb33a4190a614bb084c", "fusion_lon": 0.0, "bike_id": "5d5889d33f21feb33a4190a614bb084c", "is_disabled": 0, "is_reserved": 0}, {"rental_uris": {"ios": "https://dc.lft.to/lastmile_qr_scan", "android": "https://dc.lft.to/lastmile_qr_scan"}, "lon": -77.03152783333333, "type": "electric_scooter", "fusion_lat": 0.0, "lat": 38.8934535, "name": "17778e298f70997b4548a8e49ae94342", "fusion_lon": 0.0, "bike_id": "17778e298f70997b4548a8e49ae94342", "is_disabled": 0, "is_reserved": 0}, {"rental_uris": {"ios": "https://dc.lft.to/lastmile_qr_scan", "android": "https://dc.lft.to/lastmile_qr_scan"}, "lon": -76.99459266666666, "type": "electric_scooter", "fusion_lat": 0.0, "lat": 38.85164066666667, "name": "8cfccfa2db7fc465a122c8068f5ca042", "fusion_lon": 0.0, "bike_id": "8cfccfa2db7fc465a122c8068f5ca042", "is_disabled": 0, "is_reserved": 0}, {"rental_uris": {"ios": "https://dc.lft.to/lastmile_qr_scan", "android": "https://dc.lft.to/lastmile_qr_scan"}, "lon": -77.00224633333333, "type": "electric_scooter", "fusion_lat": 0.0, "lat": 38.900219, "name": "960fd250a6aba9cfa740e2026b9376f2", "fusion_lon": 0.0, "bike_id": "960fd250a6aba9cfa740e2026b9376f2", "is_disabled": 0, "is_reserved": 0}, {"rental_uris": {"ios": "https://dc.lft.to/lastmile_qr_scan", "android": "https://dc.lft.to/lastmile_qr_scan"}, "lon": -77.0667455, "type": "electric_scooter", "fusion_lat": 0.0, "lat": 38.9140645, "name": "ffe0ab7f575cecab4715a0225af6fbda", "fusion_lon": 0.0, "bike_id": "ffe0ab7f575cecab4715a0225af6fbda", "is_disabled": 0, "is_reserved": 0}, {"rental_uris": {"ios": "https://dc.lft.to/lastmile_qr_scan", "android": "https://dc.lft.to/lastmile_qr_scan"}, "lon": -77.06601533333334, "type": "electric_scooter", "fusion_lat": 0.0, "lat": 38.90524533333333, "name": "aeff4d3cc013dfb30a7075ad646d221f", "fusion_lon": 0.0, "bike_id": "aeff4d3cc013dfb30a7075ad646d221f", "is_disabled": 0, "is_reserved": 0}, {"rental_uris": {"ios": "https://dc.lft.to/lastmile_qr_scan", "android": "https://dc.lft.to/lastmile_qr_scan"}, "lon": -77.10714733333333, "type": "electric_bike", "fusion_lat": 0.0, "lat": 38.85540066666667, "name": "a63620bb6f1da9e792c04fdeaa2b1bba", "fusion_lon": 0.0, "bike_id": "a63620bb6f1da9e792c04fdeaa2b1bba", "is_disabled": 0, "is_reserved": 0}, {"rental_uris": {"ios": "https://dc.lft.to/lastmile_qr_scan", "android": "https://dc.lft.to/lastmile_qr_scan"}, "lon": -77.03870416666666, "type": "electric_scooter", "fusion_lat": 0.0, "lat": 38.9125515, "name": "0c7dcd0e109d0df02d3ed644dea18fc6", "fusion_lon": 0.0, "bike_id": "0c7dcd0e109d0df02d3ed644dea18fc6", "is_disabled": 0, "is_reserved": 0}, {"rental_uris": {"ios": "https://dc.lft.to/lastmile_qr_scan", "android": "https://dc.lft.to/lastmile_qr_scan"}, "lon": -77.04401433333334, "type": "electric_scooter", "fusion_lat": 0.0, "lat": 38.91083233333333, "name": "8aec13a6b8effd77c692a7e26cff3b83", "fusion_lon": 0.0, "bike_id": "8aec13a6b8effd77c692a7e26cff3b83", "is_disabled": 0, "is_reserved": 0}, {"rental_uris": {"ios": "https://dc.lft.to/lastmile_qr_scan", "android": "https://dc.lft.to/lastmile_qr_scan"}, "lon": -77.052693, "type": "electric_scooter", "fusion_lat": 0.0, "lat": 38.8983775, "name": "64ef417717b3f78c014f0269bb186525", "fusion_lon": 0.0, "bike_id": "64ef417717b3f78c014f0269bb186525", "is_disabled": 0, "is_reserved": 0}, {"rental_uris": {"ios": "https://dc.lft.to/lastmile_qr_scan", "android": "https://dc.lft.to/lastmile_qr_scan"}, "lon": -77.0111355, "type": "electric_scooter", "fusion_lat": 0.0, "lat": 38.8736915, "name": "dc8fa5c390c23a2564013dbd6479f2cd", "fusion_lon": 0.0, "bike_id": "dc8fa5c390c23a2564013dbd6479f2cd", "is_disabled": 0, "is_reserved": 0}, {"rental_uris": {"ios": "https://dc.lft.to/lastmile_qr_scan", "android": "https://dc.lft.to/lastmile_qr_scan"}, "lon": -77.00333066666667, "type": "electric_bike", "fusion_lat": 0.0, "lat": 38.91982766666667, "name": "e2511201e1a05f546b1fde892a421b3b", "fusion_lon": 0.0, "bike_id": "e2511201e1a05f546b1fde892a421b3b", "is_disabled": 0, "is_reserved": 0}, {"rental_uris": {"ios": "https://dc.lft.to/lastmile_qr_scan", "android": "https://dc.lft.to/lastmile_qr_scan"}, "lon": -77.029559, "type": "electric_scooter", "fusion_lat": 0.0, "lat": 38.91182583333333, "name": "97a2a1f7bdbdabd6e15c41fd649bd512", "fusion_lon": 0.0, "bike_id": "97a2a1f7bdbdabd6e15c41fd649bd512", "is_disabled": 0, "is_reserved": 0}, {"rental_uris": {"ios": "https://dc.lft.to/lastmile_qr_scan", "android": "https://dc.lft.to/lastmile_qr_scan"}, "lon": -77.05151483333333, "type": "electric_scooter", "fusion_lat": 0.0, "lat": 38.897654, "name": "8d4f011675eb102b1d4509eb10d7a022", "fusion_lon": 0.0, "bike_id": "8d4f011675eb102b1d4509eb10d7a022", "is_disabled": 0, "is_reserved": 0}, {"rental_uris": {"ios": "https://dc.lft.to/lastmile_qr_scan", "android": "https://dc.lft.to/lastmile_qr_scan"}, "lon": -77.0425345, "type": "electric_scooter", "fusion_lat": 0.0, "lat": 38.9206705, "name": "eb44761213e79b6adf6d75f33114f608", "fusion_lon": 0.0, "bike_id": "eb44761213e79b6adf6d75f33114f608", "is_disabled": 0, "is_reserved": 0}, {"rental_uris": {"ios": "https://dc.lft.to/lastmile_qr_scan", "android": "https://dc.lft.to/lastmile_qr_scan"}, "lon": -77.03391766666667, "type": "electric_scooter", "fusion_lat": 0.0, "lat": 38.886564166666666, "name": "77726b80bc3af4ff5f2c0ced16a779dc", "fusion_lon": 0.0, "bike_id": "77726b80bc3af4ff5f2c0ced16a779dc", "is_disabled": 0, "is_reserved": 0}, {"rental_uris": {"ios": "https://dc.lft.to/lastmile_qr_scan", "android": "https://dc.lft.to/lastmile_qr_scan"}, "lon": -77.020835, "type": "electric_scooter", "fusion_lat": 0.0, "lat": 38.881841, "name": "214945d9a7a8f3ccb04320a3eab74e66", "fusion_lon": 0.0, "bike_id": "214945d9a7a8f3ccb04320a3eab74e66", "is_disabled": 0, "is_reserved": 0}, {"rental_uris": {"ios": "https://dc.lft.to/lastmile_qr_scan", "android": "https://dc.lft.to/lastmile_qr_scan"}, "lon": -77.021136, "type": "electric_scooter", "fusion_lat": 0.0, "lat": 38.89451283333333, "name": "6857eca21a006c8e3b1d7561dd378f4f", "fusion_lon": 0.0, "bike_id": "6857eca21a006c8e3b1d7561dd378f4f", "is_disabled": 0, "is_reserved": 0}, {"rental_uris": {"ios": "https://dc.lft.to/lastmile_qr_scan", "android": "https://dc.lft.to/lastmile_qr_scan"}, "lon": -77.01980433333334, "type": "electric_scooter", "fusion_lat": 0.0, "lat": 38.90258516666667, "name": "1a22be5858d1e86f40f33c214df57478", "fusion_lon": 0.0, "bike_id": "1a22be5858d1e86f40f33c214df57478", "is_disabled": 0, "is_reserved": 0}, {"rental_uris": {"ios": "https://dc.lft.to/lastmile_qr_scan", "android": "https://dc.lft.to/lastmile_qr_scan"}, "lon": -77.0259995, "type": "electric_scooter", "fusion_lat": 0.0, "lat": 38.97586666666667, "name": "5044a5bd1044e6004eb8886ca39d9d60", "fusion_lon": 0.0, "bike_id": "5044a5bd1044e6004eb8886ca39d9d60", "is_disabled": 0, "is_reserved": 0}, {"rental_uris": {"ios": "https://dc.lft.to/lastmile_qr_scan", "android": "https://dc.lft.to/lastmile_qr_scan"}, "lon": -77.0529945, "type": "electric_scooter", "fusion_lat": 0.0, "lat": 38.92779866666667, "name": "8021dc88c98c8010604634625c900101", "fusion_lon": 0.0, "bike_id": "8021dc88c98c8010604634625c900101", "is_disabled": 0, "is_reserved": 0}, {"rental_uris": {"ios": "https://dc.lft.to/lastmile_qr_scan", "android": "https://dc.lft.to/lastmile_qr_scan"}, "lon": -77.04895, "type": "electric_scooter", "fusion_lat": 0.0, "lat": 38.905962833333334, "name": "8ca1e6529c340f0e5221253fa6c40ef5", "fusion_lon": 0.0, "bike_id": "8ca1e6529c340f0e5221253fa6c40ef5", "is_disabled": 0, "is_reserved": 0}, {"rental_uris": {"ios": "https://dc.lft.to/lastmile_qr_scan", "android": "https://dc.lft.to/lastmile_qr_scan"}, "lon": -77.05355766666666, "type": "electric_scooter", "fusion_lat": 0.0, "lat": 38.927909, "name": "184239d75c88335e0e2d0a9d52b87790", "fusion_lon": 0.0, "bike_id": "184239d75c88335e0e2d0a9d52b87790", "is_disabled": 0, "is_reserved": 0}, {"rental_uris": {"ios": "https://dc.lft.to/lastmile_qr_scan", "android": "https://dc.lft.to/lastmile_qr_scan"}, "lon": -77.02395683333333, "type": "electric_scooter", "fusion_lat": 0.0, "lat": 38.915877, "name": "958984ae9fdd20cb8e3f8f2c99b0a252", "fusion_lon": 0.0, "bike_id": "958984ae9fdd20cb8e3f8f2c99b0a252", "is_disabled": 0, "is_reserved": 0}, {"rental_uris": {"ios": "https://dc.lft.to/lastmile_qr_scan", "android": "https://dc.lft.to/lastmile_qr_scan"}, "lon": -77.05216416666667, "type": "electric_scooter", "fusion_lat": 0.0, "lat": 38.924947333333336, "name": "54f69b0da96344efd825e01220df59ce", "fusion_lon": 0.0, "bike_id": "54f69b0da96344efd825e01220df59ce", "is_disabled": 0, "is_reserved": 0}, {"rental_uris": {"ios": "https://dc.lft.to/lastmile_qr_scan", "android": "https://dc.lft.to/lastmile_qr_scan"}, "lon": -77.0269365, "type": "electric_scooter", "fusion_lat": 0.0, "lat": 38.908705499999996, "name": "86956924a6ece721e6b756649ad2e763", "fusion_lon": 0.0, "bike_id": "86956924a6ece721e6b756649ad2e763", "is_disabled": 0, "is_reserved": 0}, {"rental_uris": {"ios": "https://dc.lft.to/lastmile_qr_scan", "android": "https://dc.lft.to/lastmile_qr_scan"}, "lon": -77.01829183333334, "type": "electric_scooter", "fusion_lat": 0.0, "lat": 38.877033, "name": "4c21452439ad0b19a039699464197590", "fusion_lon": 0.0, "bike_id": "4c21452439ad0b19a039699464197590", "is_disabled": 0, "is_reserved": 0}, {"rental_uris": {"ios": "https://dc.lft.to/lastmile_qr_scan", "android": "https://dc.lft.to/lastmile_qr_scan"}, "lon": -77.0663295, "type": "electric_scooter", "fusion_lat": 0.0, "lat": 38.9136205, "name": "aecf586a83edd38da37f74c9e62f0f1a", "fusion_lon": 0.0, "bike_id": "aecf586a83edd38da37f74c9e62f0f1a", "is_disabled": 0, "is_reserved": 0}, {"rental_uris": {"ios": "https://dc.lft.to/lastmile_qr_scan", "android": "https://dc.lft.to/lastmile_qr_scan"}, "lon": -76.98376466666667, "type": "electric_scooter", "fusion_lat": 0.0, "lat": 38.860275333333334, "name": "46291a47f8dde08bb1cc0518b1965b5d", "fusion_lon": 0.0, "bike_id": "46291a47f8dde08bb1cc0518b1965b5d", "is_disabled": 0, "is_reserved": 0}, {"rental_uris": {"ios": "https://dc.lft.to/lastmile_qr_scan", "android": "https://dc.lft.to/lastmile_qr_scan"}, "lon": -77.12900016666667, "type": "electric_bike", "fusion_lat": 0.0, "lat": 38.863778333333336, "name": "76b7d86890d782317a6a53bf8cde2283", "fusion_lon": 0.0, "bike_id": "76b7d86890d782317a6a53bf8cde2283", "is_disabled": 0, "is_reserved": 0}, {"rental_uris": {"ios": "https://dc.lft.to/lastmile_qr_scan", "android": "https://dc.lft.to/lastmile_qr_scan"}, "lon": -77.007728, "type": "electric_scooter", "fusion_lat": 0.0, "lat": 38.906592333333336, "name": "6470bca95890144dcc9dfdad7d77a7be", "fusion_lon": 0.0, "bike_id": "6470bca95890144dcc9dfdad7d77a7be", "is_disabled": 0, "is_reserved": 0}, {"rental_uris": {"ios": "https://dc.lft.to/lastmile_qr_scan", "android": "https://dc.lft.to/lastmile_qr_scan"}, "lon": -77.03852866666666, "type": "electric_scooter", "fusion_lat": 0.0, "lat": 38.90865, "name": "0c6a9fc0dc52494b24929ae2e0fa9825", "fusion_lon": 0.0, "bike_id": "0c6a9fc0dc52494b24929ae2e0fa9825", "is_disabled": 0, "is_reserved": 0}, {"rental_uris": {"ios": "https://dc.lft.to/lastmile_qr_scan", "android": "https://dc.lft.to/lastmile_qr_scan"}, "lon": -77.025303, "type": "electric_scooter", "fusion_lat": 0.0, "lat": 38.9248395, "name": "dc2b3dc6609eefe0453cb0c4c0bd1b0b", "fusion_lon": 0.0, "bike_id": "dc2b3dc6609eefe0453cb0c4c0bd1b0b", "is_disabled": 0, "is_reserved": 0}, {"rental_uris": {"ios": "https://dc.lft.to/lastmile_qr_scan", "android": "https://dc.lft.to/lastmile_qr_scan"}, "lon": -77.037039, "type": "electric_scooter", "fusion_lat": 0.0, "lat": 38.926319166666666, "name": "ea8df4419678fa7d0a49c3f0a318e168", "fusion_lon": 0.0, "bike_id": "ea8df4419678fa7d0a49c3f0a318e168", "is_disabled": 0, "is_reserved": 0}, {"rental_uris": {"ios": "https://dc.lft.to/lastmile_qr_scan", "android": "https://dc.lft.to/lastmile_qr_scan"}, "lon": -77.00782616666666, "type": "electric_scooter", "fusion_lat": 0.0, "lat": 38.911912, "name": "49863d898ad41eaa262ed95baf26fbac", "fusion_lon": 0.0, "bike_id": "49863d898ad41eaa262ed95baf26fbac", "is_disabled": 0, "is_reserved": 0}, {"rental_uris": {"ios": "https://dc.lft.to/lastmile_qr_scan", "android": "https://dc.lft.to/lastmile_qr_scan"}, "lon": -77.06576016666666, "type": "electric_bike", "fusion_lat": 0.0, "lat": 38.91132416666667, "name": "cbac72fb0ffb808235593076573e6f52", "fusion_lon": 0.0, "bike_id": "cbac72fb0ffb808235593076573e6f52", "is_disabled": 0, "is_reserved": 0}, {"rental_uris": {"ios": "https://dc.lft.to/lastmile_qr_scan", "android": "https://dc.lft.to/lastmile_qr_scan"}, "lon": -77.058826, "type": "electric_scooter", "fusion_lat": 0.0, "lat": 38.936351333333334, "name": "67debf7d6dc51a9e6ff56fe9242b918a", "fusion_lon": 0.0, "bike_id": "67debf7d6dc51a9e6ff56fe9242b918a", "is_disabled": 0, "is_reserved": 0}, {"rental_uris": {"ios": "https://dc.lft.to/lastmile_qr_scan", "android": "https://dc.lft.to/lastmile_qr_scan"}, "lon": -77.03160533333333, "type": "electric_scooter", "fusion_lat": 0.0, "lat": 38.923767833333336, "name": "82e8c241e1441d6d009b8ccecff46de1", "fusion_lon": 0.0, "bike_id": "82e8c241e1441d6d009b8ccecff46de1", "is_disabled": 0, "is_reserved": 0}, {"rental_uris": {"ios": "https://dc.lft.to/lastmile_qr_scan", "android": "https://dc.lft.to/lastmile_qr_scan"}, "lon": -77.03048183333334, "type": "electric_scooter", "fusion_lat": 0.0, "lat": 38.92681733333333, "name": "b297f9df7d095547c14a154feea270bf", "fusion_lon": 0.0, "bike_id": "b297f9df7d095547c14a154feea270bf", "is_disabled": 0, "is_reserved": 0}, {"rental_uris": {"ios": "https://dc.lft.to/lastmile_qr_scan", "android": "https://dc.lft.to/lastmile_qr_scan"}, "lon": -77.0469145, "type": "electric_scooter", "fusion_lat": 0.0, "lat": 38.9179405, "name": "112121373ee42c0c2c1c2467e03326ee", "fusion_lon": 0.0, "bike_id": "112121373ee42c0c2c1c2467e03326ee", "is_disabled": 0, "is_reserved": 0}, {"rental_uris": {"ios": "https://dc.lft.to/lastmile_qr_scan", "android": "https://dc.lft.to/lastmile_qr_scan"}, "lon": -76.95654233333333, "type": "electric_scooter", "fusion_lat": 0.0, "lat": 38.89615233333333, "name": "8af452731536554f639fa3e231a3d3ea", "fusion_lon": 0.0, "bike_id": "8af452731536554f639fa3e231a3d3ea", "is_disabled": 0, "is_reserved": 0}, {"rental_uris": {"ios": "https://dc.lft.to/lastmile_qr_scan", "android": "https://dc.lft.to/lastmile_qr_scan"}, "lon": -76.9725205, "type": "electric_bike", "fusion_lat": 0.0, "lat": 38.957411666666665, "name": "c3ebc5dde311696d9caaa3a0af549d4e", "fusion_lon": 0.0, "bike_id": "c3ebc5dde311696d9caaa3a0af549d4e", "is_disabled": 0, "is_reserved": 0}, {"rental_uris": {"ios": "https://dc.lft.to/lastmile_qr_scan", "android": "https://dc.lft.to/lastmile_qr_scan"}, "lon": -77.00121716666666, "type": "electric_scooter", "fusion_lat": 0.0, "lat": 38.914831, "name": "28fd566c841be759477a6fa2ba3d5528", "fusion_lon": 0.0, "bike_id": "28fd566c841be759477a6fa2ba3d5528", "is_disabled": 0, "is_reserved": 0}, {"rental_uris": {"ios": "https://dc.lft.to/lastmile_qr_scan", "android": "https://dc.lft.to/lastmile_qr_scan"}, "lon": -77.0344215, "type": "electric_scooter", "fusion_lat": 0.0, "lat": 38.91794016666667, "name": "24f2265b9ce73da45123ea324a0e30b6", "fusion_lon": 0.0, "bike_id": "24f2265b9ce73da45123ea324a0e30b6", "is_disabled": 0, "is_reserved": 0}, {"rental_uris": {"ios": "https://dc.lft.to/lastmile_qr_scan", "android": "https://dc.lft.to/lastmile_qr_scan"}, "lon": -77.032078, "type": "electric_scooter", "fusion_lat": 0.0, "lat": 38.93759083333333, "name": "a9dae6067cdad0f1c1d627291ef13057", "fusion_lon": 0.0, "bike_id": "a9dae6067cdad0f1c1d627291ef13057", "is_disabled": 0, "is_reserved": 0}, {"rental_uris": {"ios": "https://dc.lft.to/lastmile_qr_scan", "android": "https://dc.lft.to/lastmile_qr_scan"}, "lon": -77.02390683333333, "type": "electric_scooter", "fusion_lat": 0.0, "lat": 38.91600183333333, "name": "e59ee6ff77166935c8e010218982ddfa", "fusion_lon": 0.0, "bike_id": "e59ee6ff77166935c8e010218982ddfa", "is_disabled": 0, "is_reserved": 0}, {"rental_uris": {"ios": "https://dc.lft.to/lastmile_qr_scan", "android": "https://dc.lft.to/lastmile_qr_scan"}, "lon": -77.02200483333333, "type": "electric_scooter", "fusion_lat": 0.0, "lat": 38.908346333333334, "name": "9e80f926d9e063d2aa7c7ac7647add97", "fusion_lon": 0.0, "bike_id": "9e80f926d9e063d2aa7c7ac7647add97", "is_disabled": 0, "is_reserved": 0}, {"rental_uris": {"ios": "https://dc.lft.to/lastmile_qr_scan", "android": "https://dc.lft.to/lastmile_qr_scan"}, "lon": -76.94654266666667, "type": "electric_scooter", "fusion_lat": 0.0, "lat": 38.89826083333333, "name": "825e81422bd232ed8d9a21550e36c76c", "fusion_lon": 0.0, "bike_id": "825e81422bd232ed8d9a21550e36c76c", "is_disabled": 0, "is_reserved": 0}, {"rental_uris": {"ios": "https://dc.lft.to/lastmile_qr_scan", "android": "https://dc.lft.to/lastmile_qr_scan"}, "lon": -76.97930216666667, "type": "electric_scooter", "fusion_lat": 0.0, "lat": 38.90668266666667, "name": "9d0ae3bc60cbe37bdf2b4dfd57548019", "fusion_lon": 0.0, "bike_id": "9d0ae3bc60cbe37bdf2b4dfd57548019", "is_disabled": 0, "is_reserved": 0}, {"rental_uris": {"ios": "https://dc.lft.to/lastmile_qr_scan", "android": "https://dc.lft.to/lastmile_qr_scan"}, "lon": -77.02963783333334, "type": "electric_scooter", "fusion_lat": 0.0, "lat": 38.923291, "name": "18e6e7594dd688f00061ced3a5bd3aed", "fusion_lon": 0.0, "bike_id": "18e6e7594dd688f00061ced3a5bd3aed", "is_disabled": 0, "is_reserved": 0}, {"rental_uris": {"ios": "https://dc.lft.to/lastmile_qr_scan", "android": "https://dc.lft.to/lastmile_qr_scan"}, "lon": -77.00233333333334, "type": "electric_scooter", "fusion_lat": 0.0, "lat": 38.91176566666667, "name": "d81834fdb9c10d87a7591f8a0abbd957", "fusion_lon": 0.0, "bike_id": "d81834fdb9c10d87a7591f8a0abbd957", "is_disabled": 0, "is_reserved": 0}, {"rental_uris": {"ios": "https://dc.lft.to/lastmile_qr_scan", "android": "https://dc.lft.to/lastmile_qr_scan"}, "lon": -77.03492583333333, "type": "electric_scooter", "fusion_lat": 0.0, "lat": 38.9036545, "name": "6d9cc3d71abe644d91349bf5dbe7fb55", "fusion_lon": 0.0, "bike_id": "6d9cc3d71abe644d91349bf5dbe7fb55", "is_disabled": 0, "is_reserved": 0}, {"rental_uris": {"ios": "https://dc.lft.to/lastmile_qr_scan", "android": "https://dc.lft.to/lastmile_qr_scan"}, "lon": -76.9762045, "type": "electric_bike", "fusion_lat": 0.0, "lat": 38.89575683333333, "name": "dacdf555e67aaf5ae46ce828b5c944ac", "fusion_lon": 0.0, "bike_id": "dacdf555e67aaf5ae46ce828b5c944ac", "is_disabled": 0, "is_reserved": 0}, {"rental_uris": {"ios": "https://dc.lft.to/lastmile_qr_scan", "android": "https://dc.lft.to/lastmile_qr_scan"}, "lon": -77.04666116666667, "type": "electric_scooter", "fusion_lat": 0.0, "lat": 38.913194, "name": "015089eb3e3b12c966e1606d2a22898a", "fusion_lon": 0.0, "bike_id": "015089eb3e3b12c966e1606d2a22898a", "is_disabled": 0, "is_reserved": 0}, {"rental_uris": {"ios": "https://dc.lft.to/lastmile_qr_scan", "android": "https://dc.lft.to/lastmile_qr_scan"}, "lon": -77.03262166666667, "type": "electric_scooter", "fusion_lat": 0.0, "lat": 38.904559166666665, "name": "8ac2a3496900a527b913a3df8892a9e9", "fusion_lon": 0.0, "bike_id": "8ac2a3496900a527b913a3df8892a9e9", "is_disabled": 0, "is_reserved": 0}, {"rental_uris": {"ios": "https://dc.lft.to/lastmile_qr_scan", "android": "https://dc.lft.to/lastmile_qr_scan"}, "lon": -77.01081633333334, "type": "electric_scooter", "fusion_lat": 0.0, "lat": 38.89499766666667, "name": "318c3c12f0c90ea0d95511ba528336d0", "fusion_lon": 0.0, "bike_id": "318c3c12f0c90ea0d95511ba528336d0", "is_disabled": 0, "is_reserved": 0}, {"rental_uris": {"ios": "https://dc.lft.to/lastmile_qr_scan", "android": "https://dc.lft.to/lastmile_qr_scan"}, "lon": -77.01204083333333, "type": "electric_scooter", "fusion_lat": 0.0, "lat": 38.870962166666665, "name": "90a5737130f8b3b61281f639ecd9a5c7", "fusion_lon": 0.0, "bike_id": "90a5737130f8b3b61281f639ecd9a5c7", "is_disabled": 0, "is_reserved": 0}, {"rental_uris": {"ios": "https://dc.lft.to/lastmile_qr_scan", "android": "https://dc.lft.to/lastmile_qr_scan"}, "lon": -77.0418095, "type": "electric_scooter", "fusion_lat": 0.0, "lat": 38.90530916666667, "name": "f99d99e376d3195d3f9b8a63147d1f5b", "fusion_lon": 0.0, "bike_id": "f99d99e376d3195d3f9b8a63147d1f5b", "is_disabled": 0, "is_reserved": 0}, {"rental_uris": {"ios": "https://dc.lft.to/lastmile_qr_scan", "android": "https://dc.lft.to/lastmile_qr_scan"}, "lon": -77.01864766666667, "type": "electric_scooter", "fusion_lat": 0.0, "lat": 38.9157245, "name": "02dfc8cbb370d435e89e4073b0575fba", "fusion_lon": 0.0, "bike_id": "02dfc8cbb370d435e89e4073b0575fba", "is_disabled": 0, "is_reserved": 0}, {"rental_uris": {"ios": "https://dc.lft.to/lastmile_qr_scan", "android": "https://dc.lft.to/lastmile_qr_scan"}, "lon": -77.01946766666667, "type": "electric_scooter", "fusion_lat": 0.0, "lat": 38.9035625, "name": "df819bcc3e941d8cabef5e56e3f41ca4", "fusion_lon": 0.0, "bike_id": "df819bcc3e941d8cabef5e56e3f41ca4", "is_disabled": 0, "is_reserved": 0}, {"rental_uris": {"ios": "https://dc.lft.to/lastmile_qr_scan", "android": "https://dc.lft.to/lastmile_qr_scan"}, "lon": -77.0411365, "type": "electric_scooter", "fusion_lat": 0.0, "lat": 38.92447766666667, "name": "89840d2ca9c312e49b54abc3b6bf2fa4", "fusion_lon": 0.0, "bike_id": "89840d2ca9c312e49b54abc3b6bf2fa4", "is_disabled": 0, "is_reserved": 0}, {"rental_uris": {"ios": "https://dc.lft.to/lastmile_qr_scan", "android": "https://dc.lft.to/lastmile_qr_scan"}, "lon": -77.00247733333333, "type": "electric_scooter", "fusion_lat": 0.0, "lat": 38.9126675, "name": "0e527dbce5f47b14b941ee54d821ff3c", "fusion_lon": 0.0, "bike_id": "0e527dbce5f47b14b941ee54d821ff3c", "is_disabled": 0, "is_reserved": 0}, {"rental_uris": {"ios": "https://dc.lft.to/lastmile_qr_scan", "android": "https://dc.lft.to/lastmile_qr_scan"}, "lon": -77.04249616666667, "type": "electric_scooter", "fusion_lat": 0.0, "lat": 38.907107833333335, "name": "93bf243864e1c0cbe39948144e6edaaf", "fusion_lon": 0.0, "bike_id": "93bf243864e1c0cbe39948144e6edaaf", "is_disabled": 0, "is_reserved": 0}, {"rental_uris": {"ios": "https://dc.lft.to/lastmile_qr_scan", "android": "https://dc.lft.to/lastmile_qr_scan"}, "lon": -77.03437583333333, "type": "electric_scooter", "fusion_lat": 0.0, "lat": 38.90351883333334, "name": "b85203d683895dca4725da35e2acb376", "fusion_lon": 0.0, "bike_id": "b85203d683895dca4725da35e2acb376", "is_disabled": 0, "is_reserved": 0}, {"rental_uris": {"ios": "https://dc.lft.to/lastmile_qr_scan", "android": "https://dc.lft.to/lastmile_qr_scan"}, "lon": -76.93714983333334, "type": "electric_scooter", "fusion_lat": 0.0, "lat": 38.895891166666665, "name": "6ddab9822603eadd5e505b4a9dfc15df", "fusion_lon": 0.0, "bike_id": "6ddab9822603eadd5e505b4a9dfc15df", "is_disabled": 0, "is_reserved": 0}, {"rental_uris": {"ios": "https://dc.lft.to/lastmile_qr_scan", "android": "https://dc.lft.to/lastmile_qr_scan"}, "lon": -76.974052, "type": "electric_scooter", "fusion_lat": 0.0, "lat": 38.901554833333336, "name": "38757f0b3764608c39889389a17ebc56", "fusion_lon": 0.0, "bike_id": "38757f0b3764608c39889389a17ebc56", "is_disabled": 0, "is_reserved": 0}, {"rental_uris": {"ios": "https://dc.lft.to/lastmile_qr_scan", "android": "https://dc.lft.to/lastmile_qr_scan"}, "lon": -77.02590266666667, "type": "electric_scooter", "fusion_lat": 0.0, "lat": 38.8840265, "name": "2ae0fe1c60e125e27629c281612d2e59", "fusion_lon": 0.0, "bike_id": "2ae0fe1c60e125e27629c281612d2e59", "is_disabled": 0, "is_reserved": 0}, {"rental_uris": {"ios": "https://dc.lft.to/lastmile_qr_scan", "android": "https://dc.lft.to/lastmile_qr_scan"}, "lon": -77.05272266666667, "type": "electric_scooter", "fusion_lat": 0.0, "lat": 38.910152333333336, "name": "2b7d3ce4d54e6587240c04db46b54a40", "fusion_lon": 0.0, "bike_id": "2b7d3ce4d54e6587240c04db46b54a40", "is_disabled": 0, "is_reserved": 0}, {"rental_uris": {"ios": "https://dc.lft.to/lastmile_qr_scan", "android": "https://dc.lft.to/lastmile_qr_scan"}, "lon": -76.973339, "type": "electric_bike", "fusion_lat": 0.0, "lat": 38.8505875, "name": "aa9a0ffe23c95131d6967927e6dfabd6", "fusion_lon": 0.0, "bike_id": "aa9a0ffe23c95131d6967927e6dfabd6", "is_disabled": 0, "is_reserved": 0}, {"rental_uris": {"ios": "https://dc.lft.to/lastmile_qr_scan", "android": "https://dc.lft.to/lastmile_qr_scan"}, "lon": -77.03181816666667, "type": "electric_scooter", "fusion_lat": 0.0, "lat": 38.9173135, "name": "a5c2c9cbfe679b04fd8db3027ee540b9", "fusion_lon": 0.0, "bike_id": "a5c2c9cbfe679b04fd8db3027ee540b9", "is_disabled": 0, "is_reserved": 0}, {"rental_uris": {"ios": "https://dc.lft.to/lastmile_qr_scan", "android": "https://dc.lft.to/lastmile_qr_scan"}, "lon": -77.03949116666666, "type": "electric_scooter", "fusion_lat": 0.0, "lat": 38.902723333333334, "name": "624c901e91b97c985ee344ba253eb2e3", "fusion_lon": 0.0, "bike_id": "624c901e91b97c985ee344ba253eb2e3", "is_disabled": 0, "is_reserved": 0}, {"rental_uris": {"ios": "https://dc.lft.to/lastmile_qr_scan", "android": "https://dc.lft.to/lastmile_qr_scan"}, "lon": -77.0473015, "type": "electric_scooter", "fusion_lat": 0.0, "lat": 38.9072835, "name": "ddae910314846edb37dfa8024359b393", "fusion_lon": 0.0, "bike_id": "ddae910314846edb37dfa8024359b393", "is_disabled": 0, "is_reserved": 0}, {"rental_uris": {"ios": "https://dc.lft.to/lastmile_qr_scan", "android": "https://dc.lft.to/lastmile_qr_scan"}, "lon": -77.00770966666667, "type": "electric_scooter", "fusion_lat": 0.0, "lat": 38.90763666666667, "name": "f52672151b25daa55d49d148c0e6cc14", "fusion_lon": 0.0, "bike_id": "f52672151b25daa55d49d148c0e6cc14", "is_disabled": 0, "is_reserved": 0}, {"rental_uris": {"ios": "https://dc.lft.to/lastmile_qr_scan", "android": "https://dc.lft.to/lastmile_qr_scan"}, "lon": -77.02039916666666, "type": "electric_scooter", "fusion_lat": 0.0, "lat": 38.915585666666665, "name": "7ccdeb97322ec197c582ae027216a8d2", "fusion_lon": 0.0, "bike_id": "7ccdeb97322ec197c582ae027216a8d2", "is_disabled": 0, "is_reserved": 0}, {"rental_uris": {"ios": "https://dc.lft.to/lastmile_qr_scan", "android": "https://dc.lft.to/lastmile_qr_scan"}, "lon": -77.00569533333334, "type": "electric_scooter", "fusion_lat": 0.0, "lat": 38.9055415, "name": "25a200ea419521c0dc60429d5fa9225b", "fusion_lon": 0.0, "bike_id": "25a200ea419521c0dc60429d5fa9225b", "is_disabled": 0, "is_reserved": 0}, {"rental_uris": {"ios": "https://dc.lft.to/lastmile_qr_scan", "android": "https://dc.lft.to/lastmile_qr_scan"}, "lon": -77.04537966666666, "type": "electric_scooter", "fusion_lat": 0.0, "lat": 38.9194165, "name": "a2a88e23154bd95657f1185cd3048a5f", "fusion_lon": 0.0, "bike_id": "a2a88e23154bd95657f1185cd3048a5f", "is_disabled": 0, "is_reserved": 0}, {"rental_uris": {"ios": "https://dc.lft.to/lastmile_qr_scan", "android": "https://dc.lft.to/lastmile_qr_scan"}, "lon": -77.0609615, "type": "electric_scooter", "fusion_lat": 0.0, "lat": 38.912153333333336, "name": "fabb082d4614cf05a551325b8daa5578", "fusion_lon": 0.0, "bike_id": "fabb082d4614cf05a551325b8daa5578", "is_disabled": 0, "is_reserved": 0}, {"rental_uris": {"ios": "https://dc.lft.to/lastmile_qr_scan", "android": "https://dc.lft.to/lastmile_qr_scan"}, "lon": -76.9353405, "type": "electric_scooter", "fusion_lat": 0.0, "lat": 38.896770333333336, "name": "bb14682ddb07af05a2ef60ef7a28eab3", "fusion_lon": 0.0, "bike_id": "bb14682ddb07af05a2ef60ef7a28eab3", "is_disabled": 0, "is_reserved": 0}, {"rental_uris": {"ios": "https://dc.lft.to/lastmile_qr_scan", "android": "https://dc.lft.to/lastmile_qr_scan"}, "lon": -76.98967966666666, "type": "electric_scooter", "fusion_lat": 0.0, "lat": 38.902432833333336, "name": "001b427f1043d59b66cef6197abfd0d0", "fusion_lon": 0.0, "bike_id": "001b427f1043d59b66cef6197abfd0d0", "is_disabled": 0, "is_reserved": 0}, {"rental_uris": {"ios": "https://dc.lft.to/lastmile_qr_scan", "android": "https://dc.lft.to/lastmile_qr_scan"}, "lon": -77.03141116666667, "type": "electric_scooter", "fusion_lat": 0.0, "lat": 38.9168855, "name": "2d4deef0d783b8c809f633972a92daa7", "fusion_lon": 0.0, "bike_id": "2d4deef0d783b8c809f633972a92daa7", "is_disabled": 0, "is_reserved": 0}, {"rental_uris": {"ios": "https://dc.lft.to/lastmile_qr_scan", "android": "https://dc.lft.to/lastmile_qr_scan"}, "lon": -77.03183483333333, "type": "electric_scooter", "fusion_lat": 0.0, "lat": 38.91463316666667, "name": "9e7c560a2db909550009788cab18d875", "fusion_lon": 0.0, "bike_id": "9e7c560a2db909550009788cab18d875", "is_disabled": 0, "is_reserved": 0}, {"rental_uris": {"ios": "https://dc.lft.to/lastmile_qr_scan", "android": "https://dc.lft.to/lastmile_qr_scan"}, "lon": -77.020062, "type": "electric_scooter", "fusion_lat": 0.0, "lat": 38.9130975, "name": "a7595b6be628f92531b0b699989f59ab", "fusion_lon": 0.0, "bike_id": "a7595b6be628f92531b0b699989f59ab", "is_disabled": 0, "is_reserved": 0}, {"rental_uris": {"ios": "https://dc.lft.to/lastmile_qr_scan", "android": "https://dc.lft.to/lastmile_qr_scan"}, "lon": -76.946334, "type": "electric_scooter", "fusion_lat": 0.0, "lat": 38.898306833333336, "name": "295f40518db5224d89a30a91b84ced2b", "fusion_lon": 0.0, "bike_id": "295f40518db5224d89a30a91b84ced2b", "is_disabled": 0, "is_reserved": 0}, {"rental_uris": {"ios": "https://dc.lft.to/lastmile_qr_scan", "android": "https://dc.lft.to/lastmile_qr_scan"}, "lon": -77.03624733333334, "type": "electric_scooter", "fusion_lat": 0.0, "lat": 38.903209333333336, "name": "ceec11ce96a1fd12aaf292774bc4e08f", "fusion_lon": 0.0, "bike_id": "ceec11ce96a1fd12aaf292774bc4e08f", "is_disabled": 0, "is_reserved": 0}, {"rental_uris": {"ios": "https://dc.lft.to/lastmile_qr_scan", "android": "https://dc.lft.to/lastmile_qr_scan"}, "lon": -77.03603433333333, "type": "electric_scooter", "fusion_lat": 0.0, "lat": 38.93484133333333, "name": "e2238083370b912ccc7ff0debb5f85b9", "fusion_lon": 0.0, "bike_id": "e2238083370b912ccc7ff0debb5f85b9", "is_disabled": 0, "is_reserved": 0}, {"rental_uris": {"ios": "https://dc.lft.to/lastmile_qr_scan", "android": "https://dc.lft.to/lastmile_qr_scan"}, "lon": -77.00989433333334, "type": "electric_scooter", "fusion_lat": 0.0, "lat": 38.89588616666666, "name": "06e26cb02f2e3d24ddea5464f861b3fa", "fusion_lon": 0.0, "bike_id": "06e26cb02f2e3d24ddea5464f861b3fa", "is_disabled": 0, "is_reserved": 0}, {"rental_uris": {"ios": "https://dc.lft.to/lastmile_qr_scan", "android": "https://dc.lft.to/lastmile_qr_scan"}, "lon": -77.013839, "type": "electric_scooter", "fusion_lat": 0.0, "lat": 38.928726833333336, "name": "f6e582ed737052248c4cd2c50bb62db9", "fusion_lon": 0.0, "bike_id": "f6e582ed737052248c4cd2c50bb62db9", "is_disabled": 0, "is_reserved": 0}, {"rental_uris": {"ios": "https://dc.lft.to/lastmile_qr_scan", "android": "https://dc.lft.to/lastmile_qr_scan"}, "lon": -77.02845116666667, "type": "electric_scooter", "fusion_lat": 0.0, "lat": 38.93415066666667, "name": "792b228fc6b741eff22e0e31a0b73b78", "fusion_lon": 0.0, "bike_id": "792b228fc6b741eff22e0e31a0b73b78", "is_disabled": 0, "is_reserved": 0}, {"rental_uris": {"ios": "https://dc.lft.to/lastmile_qr_scan", "android": "https://dc.lft.to/lastmile_qr_scan"}, "lon": -76.98950783333333, "type": "electric_scooter", "fusion_lat": 0.0, "lat": 38.901316333333334, "name": "012edd4e45d713a490fcf90651067a0c", "fusion_lon": 0.0, "bike_id": "012edd4e45d713a490fcf90651067a0c", "is_disabled": 0, "is_reserved": 0}, {"rental_uris": {"ios": "https://dc.lft.to/lastmile_qr_scan", "android": "https://dc.lft.to/lastmile_qr_scan"}, "lon": -76.99924783333333, "type": "electric_scooter", "fusion_lat": 0.0, "lat": 38.909063333333336, "name": "8160c4a817632a87655326f020ebcd6c", "fusion_lon": 0.0, "bike_id": "8160c4a817632a87655326f020ebcd6c", "is_disabled": 0, "is_reserved": 0}, {"rental_uris": {"ios": "https://dc.lft.to/lastmile_qr_scan", "android": "https://dc.lft.to/lastmile_qr_scan"}, "lon": -77.02706133333334, "type": "electric_scooter", "fusion_lat": 0.0, "lat": 38.9499955, "name": "bcbf445924ec616667419a3aa62a2f3a", "fusion_lon": 0.0, "bike_id": "bcbf445924ec616667419a3aa62a2f3a", "is_disabled": 0, "is_reserved": 0}, {"rental_uris": {"ios": "https://dc.lft.to/lastmile_qr_scan", "android": "https://dc.lft.to/lastmile_qr_scan"}, "lon": -77.0059825, "type": "electric_scooter", "fusion_lat": 0.0, "lat": 38.90258083333333, "name": "ed28df4a9ec1ff472f9eea6ccd14051d", "fusion_lon": 0.0, "bike_id": "ed28df4a9ec1ff472f9eea6ccd14051d", "is_disabled": 0, "is_reserved": 0}, {"rental_uris": {"ios": "https://dc.lft.to/lastmile_qr_scan", "android": "https://dc.lft.to/lastmile_qr_scan"}, "lon": -77.02836616666667, "type": "electric_scooter", "fusion_lat": 0.0, "lat": 38.887667, "name": "cb6f30b6d498ce9d8e57c6b2b966c373", "fusion_lon": 0.0, "bike_id": "cb6f30b6d498ce9d8e57c6b2b966c373", "is_disabled": 0, "is_reserved": 0}, {"rental_uris": {"ios": "https://dc.lft.to/lastmile_qr_scan", "android": "https://dc.lft.to/lastmile_qr_scan"}, "lon": -77.03743016666667, "type": "electric_scooter", "fusion_lat": 0.0, "lat": 38.92573183333333, "name": "10115f4b3171a12ad3d8584012291ba1", "fusion_lon": 0.0, "bike_id": "10115f4b3171a12ad3d8584012291ba1", "is_disabled": 0, "is_reserved": 0}, {"rental_uris": {"ios": "https://dc.lft.to/lastmile_qr_scan", "android": "https://dc.lft.to/lastmile_qr_scan"}, "lon": -77.04807516666666, "type": "electric_scooter", "fusion_lat": 0.0, "lat": 38.90379166666666, "name": "ae1d1e0bf291e589e8e6ff8f743fcfae", "fusion_lon": 0.0, "bike_id": "ae1d1e0bf291e589e8e6ff8f743fcfae", "is_disabled": 0, "is_reserved": 0}, {"rental_uris": {"ios": "https://dc.lft.to/lastmile_qr_scan", "android": "https://dc.lft.to/lastmile_qr_scan"}, "lon": -77.02522166666667, "type": "electric_scooter", "fusion_lat": 0.0, "lat": 38.9198015, "name": "5a57a948adf5f3ffb09f593b1f31c657", "fusion_lon": 0.0, "bike_id": "5a57a948adf5f3ffb09f593b1f31c657", "is_disabled": 0, "is_reserved": 0}, {"rental_uris": {"ios": "https://dc.lft.to/lastmile_qr_scan", "android": "https://dc.lft.to/lastmile_qr_scan"}, "lon": -77.0262255, "type": "electric_scooter", "fusion_lat": 0.0, "lat": 38.929164166666666, "name": "8190ffbf734d4b3c82e8845556f66ac1", "fusion_lon": 0.0, "bike_id": "8190ffbf734d4b3c82e8845556f66ac1", "is_disabled": 0, "is_reserved": 0}, {"rental_uris": {"ios": "https://dc.lft.to/lastmile_qr_scan", "android": "https://dc.lft.to/lastmile_qr_scan"}, "lon": -77.0575165, "type": "electric_scooter", "fusion_lat": 0.0, "lat": 38.9341315, "name": "ea4273179faabff6ba5d983300d8b183", "fusion_lon": 0.0, "bike_id": "ea4273179faabff6ba5d983300d8b183", "is_disabled": 0, "is_reserved": 0}, {"rental_uris": {"ios": "https://dc.lft.to/lastmile_qr_scan", "android": "https://dc.lft.to/lastmile_qr_scan"}, "lon": -77.11522033333334, "type": "electric_bike", "fusion_lat": 0.0, "lat": 38.854911666666666, "name": "d23b7d0a83650e6d22536f6bc7a90c8c", "fusion_lon": 0.0, "bike_id": "d23b7d0a83650e6d22536f6bc7a90c8c", "is_disabled": 0, "is_reserved": 0}, {"rental_uris": {"ios": "https://dc.lft.to/lastmile_qr_scan", "android": "https://dc.lft.to/lastmile_qr_scan"}, "lon": -77.03856766666667, "type": "electric_scooter", "fusion_lat": 0.0, "lat": 38.932311, "name": "7bb7258e5c9beb5ffedae9ade0888bfa", "fusion_lon": 0.0, "bike_id": "7bb7258e5c9beb5ffedae9ade0888bfa", "is_disabled": 0, "is_reserved": 0}, {"rental_uris": {"ios": "https://dc.lft.to/lastmile_qr_scan", "android": "https://dc.lft.to/lastmile_qr_scan"}, "lon": -76.999174, "type": "electric_scooter", "fusion_lat": 0.0, "lat": 38.90935833333333, "name": "15e308d1b16f4485f02be9c679200f97", "fusion_lon": 0.0, "bike_id": "15e308d1b16f4485f02be9c679200f97", "is_disabled": 0, "is_reserved": 0}, {"rental_uris": {"ios": "https://dc.lft.to/lastmile_qr_scan", "android": "https://dc.lft.to/lastmile_qr_scan"}, "lon": -77.04106683333333, "type": "electric_scooter", "fusion_lat": 0.0, "lat": 38.91561633333333, "name": "fbfb5b9efe2a57ce58d8d1ba396469b3", "fusion_lon": 0.0, "bike_id": "fbfb5b9efe2a57ce58d8d1ba396469b3", "is_disabled": 0, "is_reserved": 0}, {"rental_uris": {"ios": "https://dc.lft.to/lastmile_qr_scan", "android": "https://dc.lft.to/lastmile_qr_scan"}, "lon": -77.03073333333333, "type": "electric_scooter", "fusion_lat": 0.0, "lat": 38.91186583333333, "name": "fd4c9570d61bd68598057f9c78988351", "fusion_lon": 0.0, "bike_id": "fd4c9570d61bd68598057f9c78988351", "is_disabled": 0, "is_reserved": 0}, {"rental_uris": {"ios": "https://dc.lft.to/lastmile_qr_scan", "android": "https://dc.lft.to/lastmile_qr_scan"}, "lon": -77.04597483333333, "type": "electric_scooter", "fusion_lat": 0.0, "lat": 38.917145833333336, "name": "59c4e2c07f70ed33c2fc7ccceda68ec9", "fusion_lon": 0.0, "bike_id": "59c4e2c07f70ed33c2fc7ccceda68ec9", "is_disabled": 0, "is_reserved": 0}, {"rental_uris": {"ios": "https://dc.lft.to/lastmile_qr_scan", "android": "https://dc.lft.to/lastmile_qr_scan"}, "lon": -77.0132605, "type": "electric_scooter", "fusion_lat": 0.0, "lat": 38.89234616666667, "name": "97c2cff4c2d6aee4a9c91442d67d7b8b", "fusion_lon": 0.0, "bike_id": "97c2cff4c2d6aee4a9c91442d67d7b8b", "is_disabled": 0, "is_reserved": 0}, {"rental_uris": {"ios": "https://dc.lft.to/lastmile_qr_scan", "android": "https://dc.lft.to/lastmile_qr_scan"}, "lon": -77.03630216666667, "type": "electric_scooter", "fusion_lat": 0.0, "lat": 38.91857266666667, "name": "583cbbf4aa57a7da11263fbc020a24b1", "fusion_lon": 0.0, "bike_id": "583cbbf4aa57a7da11263fbc020a24b1", "is_disabled": 0, "is_reserved": 0}, {"rental_uris": {"ios": "https://dc.lft.to/lastmile_qr_scan", "android": "https://dc.lft.to/lastmile_qr_scan"}, "lon": -77.00064516666667, "type": "electric_bike", "fusion_lat": 0.0, "lat": 38.87434566666667, "name": "f96f8b780e0c7bbbc3f63bf6729b4833", "fusion_lon": 0.0, "bike_id": "f96f8b780e0c7bbbc3f63bf6729b4833", "is_disabled": 0, "is_reserved": 0}, {"rental_uris": {"ios": "https://dc.lft.to/lastmile_qr_scan", "android": "https://dc.lft.to/lastmile_qr_scan"}, "lon": -77.02129683333334, "type": "electric_scooter", "fusion_lat": 0.0, "lat": 38.899797666666664, "name": "98f863760aaf44031e6c2dca2449b57c", "fusion_lon": 0.0, "bike_id": "98f863760aaf44031e6c2dca2449b57c", "is_disabled": 0, "is_reserved": 0}, {"rental_uris": {"ios": "https://dc.lft.to/lastmile_qr_scan", "android": "https://dc.lft.to/lastmile_qr_scan"}, "lon": -76.984351, "type": "electric_scooter", "fusion_lat": 0.0, "lat": 38.91425783333333, "name": "e89d6ad20565a2fd785ba3d303a0be7b", "fusion_lon": 0.0, "bike_id": "e89d6ad20565a2fd785ba3d303a0be7b", "is_disabled": 0, "is_reserved": 0}, {"rental_uris": {"ios": "https://dc.lft.to/lastmile_qr_scan", "android": "https://dc.lft.to/lastmile_qr_scan"}, "lon": -77.04808716666666, "type": "electric_scooter", "fusion_lat": 0.0, "lat": 38.91323716666667, "name": "367632f66fd0e32a13a1694c8222494d", "fusion_lon": 0.0, "bike_id": "367632f66fd0e32a13a1694c8222494d", "is_disabled": 0, "is_reserved": 0}, {"rental_uris": {"ios": "https://dc.lft.to/lastmile_qr_scan", "android": "https://dc.lft.to/lastmile_qr_scan"}, "lon": -77.02700266666666, "type": "electric_scooter", "fusion_lat": 0.0, "lat": 38.903605, "name": "8d7f6d8a59bc2c87bf9db81cb79b21bb", "fusion_lon": 0.0, "bike_id": "8d7f6d8a59bc2c87bf9db81cb79b21bb", "is_disabled": 0, "is_reserved": 0}, {"rental_uris": {"ios": "https://dc.lft.to/lastmile_qr_scan", "android": "https://dc.lft.to/lastmile_qr_scan"}, "lon": -77.06533333333333, "type": "electric_scooter", "fusion_lat": 0.0, "lat": 38.9347635, "name": "8393ec3ed39e55d658ad7edb3c15380d", "fusion_lon": 0.0, "bike_id": "8393ec3ed39e55d658ad7edb3c15380d", "is_disabled": 0, "is_reserved": 0}, {"rental_uris": {"ios": "https://dc.lft.to/lastmile_qr_scan", "android": "https://dc.lft.to/lastmile_qr_scan"}, "lon": -77.0252875, "type": "electric_scooter", "fusion_lat": 0.0, "lat": 38.918145, "name": "2b7caffdec0bda098dcb06123b043ffb", "fusion_lon": 0.0, "bike_id": "2b7caffdec0bda098dcb06123b043ffb", "is_disabled": 0, "is_reserved": 0}, {"rental_uris": {"ios": "https://dc.lft.to/lastmile_qr_scan", "android": "https://dc.lft.to/lastmile_qr_scan"}, "lon": -77.09561733333334, "type": "electric_bike", "fusion_lat": 0.0, "lat": 38.91703166666667, "name": "6994c9f615aaf20c951015c0961a8887", "fusion_lon": 0.0, "bike_id": "6994c9f615aaf20c951015c0961a8887", "is_disabled": 0, "is_reserved": 0}, {"rental_uris": {"ios": "https://dc.lft.to/lastmile_qr_scan", "android": "https://dc.lft.to/lastmile_qr_scan"}, "lon": -76.9081535, "type": "electric_bike", "fusion_lat": 0.0, "lat": 38.99453483333333, "name": "ebaa595fa6c7c355ebd3b4d1903d22a4", "fusion_lon": 0.0, "bike_id": "ebaa595fa6c7c355ebd3b4d1903d22a4", "is_disabled": 0, "is_reserved": 0}, {"rental_uris": {"ios": "https://dc.lft.to/lastmile_qr_scan", "android": "https://dc.lft.to/lastmile_qr_scan"}, "lon": -77.037963, "type": "electric_scooter", "fusion_lat": 0.0, "lat": 38.93609466666667, "name": "2afcb3bf658cb69e18a07a9a073e5838", "fusion_lon": 0.0, "bike_id": "2afcb3bf658cb69e18a07a9a073e5838", "is_disabled": 0, "is_reserved": 0}, {"rental_uris": {"ios": "https://dc.lft.to/lastmile_qr_scan", "android": "https://dc.lft.to/lastmile_qr_scan"}, "lon": -77.04405516666667, "type": "electric_scooter", "fusion_lat": 0.0, "lat": 38.87423583333333, "name": "5a37deb04e5d2a222924c2d77f77d709", "fusion_lon": 0.0, "bike_id": "5a37deb04e5d2a222924c2d77f77d709", "is_disabled": 0, "is_reserved": 0}, {"rental_uris": {"ios": "https://dc.lft.to/lastmile_qr_scan", "android": "https://dc.lft.to/lastmile_qr_scan"}, "lon": -77.02316683333333, "type": "electric_scooter", "fusion_lat": 0.0, "lat": 38.883383333333335, "name": "1e2816b8612626ca4e34bdbf97a5d240", "fusion_lon": 0.0, "bike_id": "1e2816b8612626ca4e34bdbf97a5d240", "is_disabled": 0, "is_reserved": 0}, {"rental_uris": {"ios": "https://dc.lft.to/lastmile_qr_scan", "android": "https://dc.lft.to/lastmile_qr_scan"}, "lon": -77.03943266666667, "type": "electric_scooter", "fusion_lat": 0.0, "lat": 38.9026345, "name": "3b1af3c9e37835953dd43c070324d5d2", "fusion_lon": 0.0, "bike_id": "3b1af3c9e37835953dd43c070324d5d2", "is_disabled": 0, "is_reserved": 0}, {"rental_uris": {"ios": "https://dc.lft.to/lastmile_qr_scan", "android": "https://dc.lft.to/lastmile_qr_scan"}, "lon": -77.03122933333333, "type": "electric_scooter", "fusion_lat": 0.0, "lat": 38.973751166666666, "name": "a358be18815c5e580bf06d6714403878", "fusion_lon": 0.0, "bike_id": "a358be18815c5e580bf06d6714403878", "is_disabled": 0, "is_reserved": 0}, {"rental_uris": {"ios": "https://dc.lft.to/lastmile_qr_scan", "android": "https://dc.lft.to/lastmile_qr_scan"}, "lon": -76.96176916666667, "type": "electric_bike", "fusion_lat": 0.0, "lat": 38.91857433333333, "name": "91e7df63791f0703642c4ad17d506543", "fusion_lon": 0.0, "bike_id": "91e7df63791f0703642c4ad17d506543", "is_disabled": 0, "is_reserved": 0}, {"rental_uris": {"ios": "https://dc.lft.to/lastmile_qr_scan", "android": "https://dc.lft.to/lastmile_qr_scan"}, "lon": -77.03925883333334, "type": "electric_scooter", "fusion_lat": 0.0, "lat": 38.91757583333333, "name": "ede9a2bdfe61e6936e63e114a43b766a", "fusion_lon": 0.0, "bike_id": "ede9a2bdfe61e6936e63e114a43b766a", "is_disabled": 0, "is_reserved": 0}, {"rental_uris": {"ios": "https://dc.lft.to/lastmile_qr_scan", "android": "https://dc.lft.to/lastmile_qr_scan"}, "lon": -77.03732816666667, "type": "electric_scooter", "fusion_lat": 0.0, "lat": 38.92573316666667, "name": "0220192f01890734fbbb52955a5fdeac", "fusion_lon": 0.0, "bike_id": "0220192f01890734fbbb52955a5fdeac", "is_disabled": 0, "is_reserved": 0}, {"rental_uris": {"ios": "https://dc.lft.to/lastmile_qr_scan", "android": "https://dc.lft.to/lastmile_qr_scan"}, "lon": -77.04155483333334, "type": "electric_scooter", "fusion_lat": 0.0, "lat": 38.91851366666667, "name": "9ce4fdf7cca43eac0d116a28f4fc7072", "fusion_lon": 0.0, "bike_id": "9ce4fdf7cca43eac0d116a28f4fc7072", "is_disabled": 0, "is_reserved": 0}, {"rental_uris": {"ios": "https://dc.lft.to/lastmile_qr_scan", "android": "https://dc.lft.to/lastmile_qr_scan"}, "lon": -77.05594833333333, "type": "electric_scooter", "fusion_lat": 0.0, "lat": 38.9369735, "name": "f505f804d6dd87e473eadda003104b77", "fusion_lon": 0.0, "bike_id": "f505f804d6dd87e473eadda003104b77", "is_disabled": 0, "is_reserved": 0}, {"rental_uris": {"ios": "https://dc.lft.to/lastmile_qr_scan", "android": "https://dc.lft.to/lastmile_qr_scan"}, "lon": -77.13095933333334, "type": "electric_bike", "fusion_lat": 0.0, "lat": 38.861625833333335, "name": "dcbc2b7a5b1231bdc659c6211d59d659", "fusion_lon": 0.0, "bike_id": "dcbc2b7a5b1231bdc659c6211d59d659", "is_disabled": 0, "is_reserved": 0}, {"rental_uris": {"ios": "https://dc.lft.to/lastmile_qr_scan", "android": "https://dc.lft.to/lastmile_qr_scan"}, "lon": -77.0469945, "type": "electric_scooter", "fusion_lat": 0.0, "lat": 38.921011666666665, "name": "c54818b5e8367c23d2b804ba65ed1056", "fusion_lon": 0.0, "bike_id": "c54818b5e8367c23d2b804ba65ed1056", "is_disabled": 0, "is_reserved": 0}, {"rental_uris": {"ios": "https://dc.lft.to/lastmile_qr_scan", "android": "https://dc.lft.to/lastmile_qr_scan"}, "lon": -77.028783, "type": "electric_scooter", "fusion_lat": 0.0, "lat": 38.90451983333333, "name": "99d6933a14c3f109aef0fa2918572cff", "fusion_lon": 0.0, "bike_id": "99d6933a14c3f109aef0fa2918572cff", "is_disabled": 0, "is_reserved": 0}, {"rental_uris": {"ios": "https://dc.lft.to/lastmile_qr_scan", "android": "https://dc.lft.to/lastmile_qr_scan"}, "lon": -77.03230933333333, "type": "electric_scooter", "fusion_lat": 0.0, "lat": 38.89631983333334, "name": "19f38ea7912b8cd9ec193887f6d29045", "fusion_lon": 0.0, "bike_id": "19f38ea7912b8cd9ec193887f6d29045", "is_disabled": 0, "is_reserved": 0}, {"rental_uris": {"ios": "https://dc.lft.to/lastmile_qr_scan", "android": "https://dc.lft.to/lastmile_qr_scan"}, "lon": -77.09160016666667, "type": "electric_bike", "fusion_lat": 0.0, "lat": 38.96761516666667, "name": "8afa74d4c2457753a789766fce0d498a", "fusion_lon": 0.0, "bike_id": "8afa74d4c2457753a789766fce0d498a", "is_disabled": 0, "is_reserved": 0}, {"rental_uris": {"ios": "https://dc.lft.to/lastmile_qr_scan", "android": "https://dc.lft.to/lastmile_qr_scan"}, "lon": -77.01336266666667, "type": "electric_scooter", "fusion_lat": 0.0, "lat": 38.966054, "name": "3ee4e8f84be9d9b8f9cf4b89110eb76c", "fusion_lon": 0.0, "bike_id": "3ee4e8f84be9d9b8f9cf4b89110eb76c", "is_disabled": 0, "is_reserved": 0}, {"rental_uris": {"ios": "https://dc.lft.to/lastmile_qr_scan", "android": "https://dc.lft.to/lastmile_qr_scan"}, "lon": -76.98393583333333, "type": "electric_bike", "fusion_lat": 0.0, "lat": 38.92199566666667, "name": "1cc65f7d5206465ac7b52ada71072191", "fusion_lon": 0.0, "bike_id": "1cc65f7d5206465ac7b52ada71072191", "is_disabled": 0, "is_reserved": 0}, {"rental_uris": {"ios": "https://dc.lft.to/lastmile_qr_scan", "android": "https://dc.lft.to/lastmile_qr_scan"}, "lon": -77.126267, "type": "electric_bike", "fusion_lat": 0.0, "lat": 39.058136, "name": "4deedfb77fa7e6ea95bdce0fb2c642c3", "fusion_lon": 0.0, "bike_id": "4deedfb77fa7e6ea95bdce0fb2c642c3", "is_disabled": 0, "is_reserved": 0}, {"rental_uris": {"ios": "https://dc.lft.to/lastmile_qr_scan", "android": "https://dc.lft.to/lastmile_qr_scan"}, "lon": -77.03218383333333, "type": "electric_scooter", "fusion_lat": 0.0, "lat": 38.892161333333334, "name": "a652b6ce97354714599318a0406e5571", "fusion_lon": 0.0, "bike_id": "a652b6ce97354714599318a0406e5571", "is_disabled": 0, "is_reserved": 0}, {"rental_uris": {"ios": "https://dc.lft.to/lastmile_qr_scan", "android": "https://dc.lft.to/lastmile_qr_scan"}, "lon": -77.020461, "type": "electric_scooter", "fusion_lat": 0.0, "lat": 38.91555116666667, "name": "b3b713711205347db04ebce35ecf1bec", "fusion_lon": 0.0, "bike_id": "b3b713711205347db04ebce35ecf1bec", "is_disabled": 0, "is_reserved": 0}, {"rental_uris": {"ios": "https://dc.lft.to/lastmile_qr_scan", "android": "https://dc.lft.to/lastmile_qr_scan"}, "lon": -77.03315483333333, "type": "electric_scooter", "fusion_lat": 0.0, "lat": 38.89890666666667, "name": "2bb345f74d7b56fd6a3e168774ea115d", "fusion_lon": 0.0, "bike_id": "2bb345f74d7b56fd6a3e168774ea115d", "is_disabled": 0, "is_reserved": 0}, {"rental_uris": {"ios": "https://dc.lft.to/lastmile_qr_scan", "android": "https://dc.lft.to/lastmile_qr_scan"}, "lon": -77.04878166666667, "type": "electric_scooter", "fusion_lat": 0.0, "lat": 38.9058885, "name": "568b4b1ee99887e5b313822371339b7a", "fusion_lon": 0.0, "bike_id": "568b4b1ee99887e5b313822371339b7a", "is_disabled": 0, "is_reserved": 0}, {"rental_uris": {"ios": "https://dc.lft.to/lastmile_qr_scan", "android": "https://dc.lft.to/lastmile_qr_scan"}, "lon": -77.03423266666667, "type": "electric_scooter", "fusion_lat": 0.0, "lat": 38.9353965, "name": "f734a6d21d192ca00accbccb20e8cf20", "fusion_lon": 0.0, "bike_id": "f734a6d21d192ca00accbccb20e8cf20", "is_disabled": 0, "is_reserved": 0}, {"rental_uris": {"ios": "https://dc.lft.to/lastmile_qr_scan", "android": "https://dc.lft.to/lastmile_qr_scan"}, "lon": -77.029615, "type": "electric_scooter", "fusion_lat": 0.0, "lat": 38.89218783333333, "name": "d599c24eba2fc85bbf9e9a5299101446", "fusion_lon": 0.0, "bike_id": "d599c24eba2fc85bbf9e9a5299101446", "is_disabled": 0, "is_reserved": 0}, {"rental_uris": {"ios": "https://dc.lft.to/lastmile_qr_scan", "android": "https://dc.lft.to/lastmile_qr_scan"}, "lon": -77.07162383333333, "type": "electric_scooter", "fusion_lat": 0.0, "lat": 38.9077475, "name": "c989b19fabde5015b44bbe6139700c49", "fusion_lon": 0.0, "bike_id": "c989b19fabde5015b44bbe6139700c49", "is_disabled": 0, "is_reserved": 0}, {"rental_uris": {"ios": "https://dc.lft.to/lastmile_qr_scan", "android": "https://dc.lft.to/lastmile_qr_scan"}, "lon": -77.03270283333333, "type": "electric_scooter", "fusion_lat": 0.0, "lat": 38.92858233333333, "name": "be1f33fbb3376f17b894ed84d507ce84", "fusion_lon": 0.0, "bike_id": "be1f33fbb3376f17b894ed84d507ce84", "is_disabled": 0, "is_reserved": 0}, {"rental_uris": {"ios": "https://dc.lft.to/lastmile_qr_scan", "android": "https://dc.lft.to/lastmile_qr_scan"}, "lon": -77.03128016666666, "type": "electric_scooter", "fusion_lat": 0.0, "lat": 38.910330333333334, "name": "fdb211106961acced247d38283a8033a", "fusion_lon": 0.0, "bike_id": "fdb211106961acced247d38283a8033a", "is_disabled": 0, "is_reserved": 0}, {"rental_uris": {"ios": "https://dc.lft.to/lastmile_qr_scan", "android": "https://dc.lft.to/lastmile_qr_scan"}, "lon": -76.97828433333333, "type": "electric_bike", "fusion_lat": 0.0, "lat": 38.846090833333335, "name": "acc356102924be94f887a3d77d32e22e", "fusion_lon": 0.0, "bike_id": "acc356102924be94f887a3d77d32e22e", "is_disabled": 0, "is_reserved": 0}, {"rental_uris": {"ios": "https://dc.lft.to/lastmile_qr_scan", "android": "https://dc.lft.to/lastmile_qr_scan"}, "lon": -77.04319366666667, "type": "electric_scooter", "fusion_lat": 0.0, "lat": 38.9035225, "name": "57ed8d8dd3ef859b942f900b4cdd4180", "fusion_lon": 0.0, "bike_id": "57ed8d8dd3ef859b942f900b4cdd4180", "is_disabled": 0, "is_reserved": 0}, {"rental_uris": {"ios": "https://dc.lft.to/lastmile_qr_scan", "android": "https://dc.lft.to/lastmile_qr_scan"}, "lon": -77.01998566666667, "type": "electric_scooter", "fusion_lat": 0.0, "lat": 38.89738216666667, "name": "506072621d3f9e161acaa3d1c9e8f2ba", "fusion_lon": 0.0, "bike_id": "506072621d3f9e161acaa3d1c9e8f2ba", "is_disabled": 0, "is_reserved": 0}, {"rental_uris": {"ios": "https://dc.lft.to/lastmile_qr_scan", "android": "https://dc.lft.to/lastmile_qr_scan"}, "lon": -77.05077166666666, "type": "electric_scooter", "fusion_lat": 0.0, "lat": 38.89604033333333, "name": "3606f083c4dbf92a8bd7eea8416423ed", "fusion_lon": 0.0, "bike_id": "3606f083c4dbf92a8bd7eea8416423ed", "is_disabled": 0, "is_reserved": 0}, {"rental_uris": {"ios": "https://dc.lft.to/lastmile_qr_scan", "android": "https://dc.lft.to/lastmile_qr_scan"}, "lon": -76.99881216666667, "type": "electric_scooter", "fusion_lat": 0.0, "lat": 38.90752283333333, "name": "c6f71cac1740076673fe325b37693cca", "fusion_lon": 0.0, "bike_id": "c6f71cac1740076673fe325b37693cca", "is_disabled": 0, "is_reserved": 0}, {"rental_uris": {"ios": "https://dc.lft.to/lastmile_qr_scan", "android": "https://dc.lft.to/lastmile_qr_scan"}, "lon": -76.97202883333334, "type": "electric_scooter", "fusion_lat": 0.0, "lat": 38.854937, "name": "b837c3a15a3b490f4e7f7e73253dc2c4", "fusion_lon": 0.0, "bike_id": "b837c3a15a3b490f4e7f7e73253dc2c4", "is_disabled": 0, "is_reserved": 0}, {"rental_uris": {"ios": "https://dc.lft.to/lastmile_qr_scan", "android": "https://dc.lft.to/lastmile_qr_scan"}, "lon": -77.03277733333333, "type": "electric_scooter", "fusion_lat": 0.0, "lat": 38.93195683333333, "name": "009ed819fa3502b1da7358b35c32b10d", "fusion_lon": 0.0, "bike_id": "009ed819fa3502b1da7358b35c32b10d", "is_disabled": 0, "is_reserved": 0}, {"rental_uris": {"ios": "https://dc.lft.to/lastmile_qr_scan", "android": "https://dc.lft.to/lastmile_qr_scan"}, "lon": -76.9914885, "type": "electric_scooter", "fusion_lat": 0.0, "lat": 38.88593733333333, "name": "12879071c27617981123821ba531112c", "fusion_lon": 0.0, "bike_id": "12879071c27617981123821ba531112c", "is_disabled": 0, "is_reserved": 0}, {"rental_uris": {"ios": "https://dc.lft.to/lastmile_qr_scan", "android": "https://dc.lft.to/lastmile_qr_scan"}, "lon": -77.0363645, "type": "electric_scooter", "fusion_lat": 0.0, "lat": 38.93717, "name": "f74a108b6feeb5be5cc45c9dff0a4142", "fusion_lon": 0.0, "bike_id": "f74a108b6feeb5be5cc45c9dff0a4142", "is_disabled": 0, "is_reserved": 0}, {"rental_uris": {"ios": "https://dc.lft.to/lastmile_qr_scan", "android": "https://dc.lft.to/lastmile_qr_scan"}, "lon": -77.07165466666666, "type": "electric_scooter", "fusion_lat": 0.0, "lat": 38.90741966666667, "name": "acf7b10c10cf95514995ea319a596002", "fusion_lon": 0.0, "bike_id": "acf7b10c10cf95514995ea319a596002", "is_disabled": 0, "is_reserved": 0}, {"rental_uris": {"ios": "https://dc.lft.to/lastmile_qr_scan", "android": "https://dc.lft.to/lastmile_qr_scan"},