{"data": {"bikes": [{"is_reserved": 0, "is_disabled": 0, "fusion_lon": 0.0, "lat": 38.937489666666664, "name": "ebdccafe575fdd95a9d498896816ce10", "bike_id": "ebdccafe575fdd95a9d498896816ce10", "lon": -77.02440483333334, "fusion_lat": 0.0, "rental_uris": {"android": "https://dc.lft.to/lastmile_qr_scan", "ios": "https://dc.lft.to/lastmile_qr_scan"}, "type": "electric_scooter"}, {"is_reserved": 0, "is_disabled": 0, "fusion_lon": 0.0, "lat": 38.885092, "name": "c2a53ed302ebd7a1fa17621417a37e50", "bike_id": "c2a53ed302ebd7a1fa17621417a37e50", "lon": -77.02090233333334, "fusion_lat": 0.0, "rental_uris": {"android": "https://dc.lft.to/lastmile_qr_scan", "ios": "https://dc.lft.to/lastmile_qr_scan"}, "type": "electric_scooter"}, {"is_reserved": 0, "is_disabled": 0, "fusion_lon": 0.0, "lat": 38.907072666666664, "name": "ed09b17460c275759707e52a5a5379c9", "bike_id": "ed09b17460c275759707e52a5a5379c9", "lon": -76.98853216666667, "fusion_lat": 0.0, "rental_uris": {"android": "https://dc.lft.to/lastmile_qr_scan", "ios": "https://dc.lft.to/lastmile_qr_scan"}, "type": "electric_scooter"}, {"is_reserved": 0, "is_disabled": 0, "fusion_lon": 0.0, "lat": 38.91533783333333, "name": "51d9b8fd7d684a319c0716233d3a220a", "bike_id": "51d9b8fd7d684a319c0716233d3a220a", "lon": -77.04441016666667, "fusion_lat": 0.0, "rental_uris": {"android": "https://dc.lft.to/lastmile_qr_scan", "ios": "https://dc.lft.to/lastmile_qr_scan"}, "type": "electric_scooter"}, {"is_reserved": 0, "is_disabled": 0, "fusion_lon": 0.0, "lat": 38.89225716666667, "name": "8fd95c59be67c4c05c328bdcf2039ded", "bike_id": "8fd95c59be67c4c05c328bdcf2039ded", "lon": -77.04679566666667, "fusion_lat": 0.0, "rental_uris": {"android": "https://dc.lft.to/lastmile_qr_scan", "ios": "https://dc.lft.to/lastmile_qr_scan"}, "type": "electric_scooter"}, {"is_reserved": 0, "is_disabled": 0, "fusion_lon": 0.0, "lat": 38.935370166666665, "name": "7c71d396f40db911c7f6e13550708615", "bike_id": "7c71d396f40db911c7f6e13550708615", "lon": -77.05826983333333, "fusion_lat": 0.0, "rental_uris": {"android": "https://dc.lft.to/lastmile_qr_scan", "ios": "https://dc.lft.to/lastmile_qr_scan"}, "type": "electric_scooter"}, {"is_reserved": 0, "is_disabled": 0, "fusion_lon": 0.0, "lat": 38.893082, "name": "fb4ae9d8ff28a414b45572e7485769eb", "bike_id": "fb4ae9d8ff28a414b45572e7485769eb", "lon": -76.93973516666667, "fusion_lat": 0.0, "rental_uris": {"android": "https://dc.lft.to/lastmile_qr_scan", "ios": "https://dc.lft.to/lastmile_qr_scan"}, "type": "electric_scooter"}, {"is_reserved": 0, "is_disabled": 0, "fusion_lon": 0.0, "lat": 38.92070833333333, "name": "341ac884ef1b16fca343bb08b3a4606b", "bike_id": "341ac884ef1b16fca343bb08b3a4606b", "lon": -77.02526583333334, "fusion_lat": 0.0, "rental_uris": {"android": "https://dc.lft.to/lastmile_qr_scan", "ios": "https://dc.lft.to/lastmile_qr_scan"}, "type": "electric_scooter"}, {"is_reserved": 0, "is_disabled": 0, "fusion_lon": 0.0, "lat": 38.91596883333333, "name": "696f309adf15bd21ca2def9809f3f5d5", "bike_id": "696f309adf15bd21ca2def9809f3f5d5", "lon": -77.03861583333334, "fusion_lat": 0.0, "rental_uris": {"android": "https://dc.lft.to/lastmile_qr_scan", "ios": "https://dc.lft.to/lastmile_qr_scan"}, "type": "electric_scooter"}, {"is_reserved": 0, "is_disabled": 0, "fusion_lon": 0.0, "lat": 38.894909, "name": "e214689a408ffe58aa57a24482353979", "bike_id": "e214689a408ffe58aa57a24482353979", "lon": -76.94893916666666, "fusion_lat": 0.0, "rental_uris": {"android": "https://dc.lft.to/lastmile_qr_scan", "ios": "https://dc.lft.to/lastmile_qr_scan"}, "type": "electric_scooter"}, {"is_reserved": 0, "is_disabled": 0, "fusion_lon": 0.0, "lat": 38.9386375, "name": "08921d14e927dee76a8ae9dc76cf0df4", "bike_id": "08921d14e927dee76a8ae9dc76cf0df4", "lon": -77.024942, "fusion_lat": 0.0, "rental_uris": {"android": "https://dc.lft.to/lastmile_qr_scan", "ios": "https://dc.lft.to/lastmile_qr_scan"}, "type": "electric_scooter"}, {"is_reserved": 0, "is_disabled": 0, "fusion_lon": 0.0, "lat": 38.900048166666664, "name": "a2e5c8aaa626062e5adc64b2cd483af6", "bike_id": "a2e5c8aaa626062e5adc64b2cd483af6", "lon": -77.0410205, "fusion_lat": 0.0, "rental_uris": {"android": "https://dc.lft.to/lastmile_qr_scan", "ios": "https://dc.lft.to/lastmile_qr_scan"}, "type": "electric_scooter"}, {"is_reserved": 0, "is_disabled": 0, "fusion_lon": 0.0, "lat": 38.847547666666664, "name": "156410c9ad86b3894631b994b0dc427a", "bike_id": "156410c9ad86b3894631b994b0dc427a", "lon": -77.053744, "fusion_lat": 0.0, "rental_uris": {"android": "https://dc.lft.to/lastmile_qr_scan", "ios": "https://dc.lft.to/lastmile_qr_scan"}, "type": "electric_bike"}, {"is_reserved": 0, "is_disabled": 0, "fusion_lon": 0.0, "lat": 38.936582333333334, "name": "e86e8b90cf03bb68b55ab2190f0d9136", "bike_id": "e86e8b90cf03bb68b55ab2190f0d9136", "lon": -76.99357316666666, "fusion_lat": 0.0, "rental_uris": {"android": "https://dc.lft.to/lastmile_qr_scan", "ios": "https://dc.lft.to/lastmile_qr_scan"}, "type": "electric_scooter"}, {"is_reserved": 0, "is_disabled": 0, "fusion_lon": 0.0, "lat": 38.91989783333333, "name": "aeeb41c2bff63b45456b3ee6d8a69031", "bike_id": "aeeb41c2bff63b45456b3ee6d8a69031", "lon": -77.032513, "fusion_lat": 0.0, "rental_uris": {"android": "https://dc.lft.to/lastmile_qr_scan", "ios": "https://dc.lft.to/lastmile_qr_scan"}, "type": "electric_scooter"}, {"is_reserved": 0, "is_disabled": 0, "fusion_lon": 0.0, "lat": 38.895095166666664, "name": "44e4d1914d168e50712a2cffd2384fd3", "bike_id": "44e4d1914d168e50712a2cffd2384fd3", "lon": -77.0229185, "fusion_lat": 0.0, "rental_uris": {"android": "https://dc.lft.to/lastmile_qr_scan", "ios": "https://dc.lft.to/lastmile_qr_scan"}, "type": "electric_scooter"}, {"is_reserved": 0, "is_disabled": 0, "fusion_lon": 0.0, "lat": 38.874703333333336, "name": "669a4a985a4acf94eb566ecdd4c31a8e", "bike_id": "669a4a985a4acf94eb566ecdd4c31a8e", "lon": -77.00507283333333, "fusion_lat": 0.0, "rental_uris": {"android": "https://dc.lft.to/lastmile_qr_scan", "ios": "https://dc.lft.to/lastmile_qr_scan"}, "type": "electric_scooter"}, {"is_reserved": 0, "is_disabled": 0, "fusion_lon": 0.0, "lat": 38.917168, "name": "f6d10c2d74bce7ddbc8ea73b79e9cc6c", "bike_id": "f6d10c2d74bce7ddbc8ea73b79e9cc6c", "lon": -77.03352616666666, "fusion_lat": 0.0, "rental_uris": {"android": "https://dc.lft.to/lastmile_qr_scan", "ios": "https://dc.lft.to/lastmile_qr_scan"}, "type": "electric_scooter"}, {"is_reserved": 0, "is_disabled": 0, "fusion_lon": 0.0, "lat": 38.92384883333333, "name": "97c3c6f3008161b77c632f4ed937c409", "bike_id": "97c3c6f3008161b77c632f4ed937c409", "lon": -77.03665466666666, "fusion_lat": 0.0, "rental_uris": {"android": "https://dc.lft.to/lastmile_qr_scan", "ios": "https://dc.lft.to/lastmile_qr_scan"}, "type": "electric_scooter"}, {"is_reserved": 0, "is_disabled": 0, "fusion_lon": 0.0, "lat": 38.90720616666667, "name": "666add991db480314b264e697bfc4ed7", "bike_id": "666add991db480314b264e697bfc4ed7", "lon": -77.02810183333334, "fusion_lat": 0.0, "rental_uris": {"android": "https://dc.lft.to/lastmile_qr_scan", "ios": "https://dc.lft.to/lastmile_qr_scan"}, "type": "electric_scooter"}, {"is_reserved": 0, "is_disabled": 0, "fusion_lon": 0.0, "lat": 38.926894833333336, "name": "1cb9ddf240cfda338868a8640d88f466", "bike_id": "1cb9ddf240cfda338868a8640d88f466", "lon": -77.02968233333333, "fusion_lat": 0.0, "rental_uris": {"android": "https://dc.lft.to/lastmile_qr_scan", "ios": "https://dc.lft.to/lastmile_qr_scan"}, "type": "electric_scooter"}, {"is_reserved": 0, "is_disabled": 0, "fusion_lon": 0.0, "lat": 38.92085516666667, "name": "0814a9ce60296b376acb8324bc267a63", "bike_id": "0814a9ce60296b376acb8324bc267a63", "lon": -77.02536983333333, "fusion_lat": 0.0, "rental_uris": {"android": "https://dc.lft.to/lastmile_qr_scan", "ios": "https://dc.lft.to/lastmile_qr_scan"}, "type": "electric_scooter"}, {"is_reserved": 0, "is_disabled": 0, "fusion_lon": 0.0, "lat": 38.9082535, "name": "04c4e3ceb0148dfeec1bbb6d3b126902", "bike_id": "04c4e3ceb0148dfeec1bbb6d3b126902", "lon": -77.0436655, "fusion_lat": 0.0, "rental_uris": {"android": "https://dc.lft.to/lastmile_qr_scan", "ios": "https://dc.lft.to/lastmile_qr_scan"}, "type": "electric_scooter"}, {"is_reserved": 0, "is_disabled": 0, "fusion_lon": 0.0, "lat": 38.92340216666667, "name": "a569a9ac13063a273d1e9b26b9aac669", "bike_id": "a569a9ac13063a273d1e9b26b9aac669", "lon": -77.02443033333333, "fusion_lat": 0.0, "rental_uris": {"android": "https://dc.lft.to/lastmile_qr_scan", "ios": "https://dc.lft.to/lastmile_qr_scan"}, "type": "electric_scooter"}, {"is_reserved": 0, "is_disabled": 0, "fusion_lon": 0.0, "lat": 38.90772616666667, "name": "5cd90c5b973074a27a0122e2086dbeba", "bike_id": "5cd90c5b973074a27a0122e2086dbeba", "lon": -77.03216683333333, "fusion_lat": 0.0, "rental_uris": {"android": "https://dc.lft.to/lastmile_qr_scan", "ios": "https://dc.lft.to/lastmile_qr_scan"}, "type": "electric_scooter"}, {"is_reserved": 0, "is_disabled": 0, "fusion_lon": 0.0, "lat": 38.91710633333334, "name": "68e71e59d56db42b234503513f88241b", "bike_id": "68e71e59d56db42b234503513f88241b", "lon": -77.03726333333333, "fusion_lat": 0.0, "rental_uris": {"android": "https://dc.lft.to/lastmile_qr_scan", "ios": "https://dc.lft.to/lastmile_qr_scan"}, "type": "electric_scooter"}, {"is_reserved": 0, "is_disabled": 0, "fusion_lon": 0.0, "lat": 38.8706455, "name": "1ee25c44f6582510e989bc672bb6a636", "bike_id": "1ee25c44f6582510e989bc672bb6a636", "lon": -77.11040533333333, "fusion_lat": 0.0, "rental_uris": {"android": "https://dc.lft.to/lastmile_qr_scan", "ios": "https://dc.lft.to/lastmile_qr_scan"}, "type": "electric_bike"}, {"is_reserved": 0, "is_disabled": 0, "fusion_lon": 0.0, "lat": 38.923952, "name": "550f07e1eb3e01c44023bddd7d64260e", "bike_id": "550f07e1eb3e01c44023bddd7d64260e", "lon": -77.03411816666667, "fusion_lat": 0.0, "rental_uris": {"android": "https://dc.lft.to/lastmile_qr_scan", "ios": "https://dc.lft.to/lastmile_qr_scan"}, "type": "electric_scooter"}, {"is_reserved": 0, "is_disabled": 0, "fusion_lon": 0.0, "lat": 38.964075, "name": "253d2eb6fa01130491b9b2a37bf4e1ae", "bike_id": "253d2eb6fa01130491b9b2a37bf4e1ae", "lon": -77.03288666666667, "fusion_lat": 0.0, "rental_uris": {"android": "https://dc.lft.to/lastmile_qr_scan", "ios": "https://dc.lft.to/lastmile_qr_scan"}, "type": "electric_scooter"}, {"is_reserved": 0, "is_disabled": 0, "fusion_lon": 0.0, "lat": 38.897317666666666, "name": "c651f31e1965d3f283d1c8cd7bdb1b3c", "bike_id": "c651f31e1965d3f283d1c8cd7bdb1b3c", "lon": -77.05524566666666, "fusion_lat": 0.0, "rental_uris": {"android": "https://dc.lft.to/lastmile_qr_scan", "ios": "https://dc.lft.to/lastmile_qr_scan"}, "type": "electric_scooter"}, {"is_reserved": 0, "is_disabled": 0, "fusion_lon": 0.0, "lat": 38.90363, "name": "ec563246a4dc80aa65e129470853212a", "bike_id": "ec563246a4dc80aa65e129470853212a", "lon": -77.017614, "fusion_lat": 0.0, "rental_uris": {"android": "https://dc.lft.to/lastmile_qr_scan", "ios": "https://dc.lft.to/lastmile_qr_scan"}, "type": "electric_scooter"}, {"is_reserved": 0, "is_disabled": 0, "fusion_lon": 0.0, "lat": 38.96213, "name": "c957f07414b68773ed416407121bf332", "bike_id": "c957f07414b68773ed416407121bf332", "lon": -77.02774466666666, "fusion_lat": 0.0, "rental_uris": {"android": "https://dc.lft.to/lastmile_qr_scan", "ios": "https://dc.lft.to/lastmile_qr_scan"}, "type": "electric_scooter"}, {"is_reserved": 0, "is_disabled": 0, "fusion_lon": 0.0, "lat": 38.90390383333333, "name": "1b6d2cf30364a74c9e1010f1d39b4013", "bike_id": "1b6d2cf30364a74c9e1010f1d39b4013", "lon": -77.03742033333333, "fusion_lat": 0.0, "rental_uris": {"android": "https://dc.lft.to/lastmile_qr_scan", "ios": "https://dc.lft.to/lastmile_qr_scan"}, "type": "electric_scooter"}, {"is_reserved": 0, "is_disabled": 0, "fusion_lon": 0.0, "lat": 38.926826166666665, "name": "a3da45a9ebe15cfb7c9d6f5e5cd10221", "bike_id": "a3da45a9ebe15cfb7c9d6f5e5cd10221", "lon": -77.0151355, "fusion_lat": 0.0, "rental_uris": {"android": "https://dc.lft.to/lastmile_qr_scan", "ios": "https://dc.lft.to/lastmile_qr_scan"}, "type": "electric_scooter"}, {"is_reserved": 0, "is_disabled": 0, "fusion_lon": 0.0, "lat": 38.8922035, "name": "c055ee465fa0d4de7296ec55f2c2a623", "bike_id": "c055ee465fa0d4de7296ec55f2c2a623", "lon": -77.02373216666666, "fusion_lat": 0.0, "rental_uris": {"android": "https://dc.lft.to/lastmile_qr_scan", "ios": "https://dc.lft.to/lastmile_qr_scan"}, "type": "electric_scooter"}, {"is_reserved": 0, "is_disabled": 0, "fusion_lon": 0.0, "lat": 38.92473433333333, "name": "f4a564b6c239656fc58e90c1fc497033", "bike_id": "f4a564b6c239656fc58e90c1fc497033", "lon": -77.02204183333333, "fusion_lat": 0.0, "rental_uris": {"android": "https://dc.lft.to/lastmile_qr_scan", "ios": "https://dc.lft.to/lastmile_qr_scan"}, "type": "electric_scooter"}, {"is_reserved": 0, "is_disabled": 0, "fusion_lon": 0.0, "lat": 38.92238316666667, "name": "1426d3db7d56f2d2780cf758662c4324", "bike_id": "1426d3db7d56f2d2780cf758662c4324", "lon": -77.03664816666667, "fusion_lat": 0.0, "rental_uris": {"android": "https://dc.lft.to/lastmile_qr_scan", "ios": "https://dc.lft.to/lastmile_qr_scan"}, "type": "electric_scooter"}, {"is_reserved": 0, "is_disabled": 0, "fusion_lon": 0.0, "lat": 38.895045833333334, "name": "2b05c152a7fe4c3eb4ae06d2b3187c6d", "bike_id": "2b05c152a7fe4c3eb4ae06d2b3187c6d", "lon": -76.93476933333334, "fusion_lat": 0.0, "rental_uris": {"android": "https://dc.lft.to/lastmile_qr_scan", "ios": "https://dc.lft.to/lastmile_qr_scan"}, "type": "electric_scooter"}, {"is_reserved": 0, "is_disabled": 0, "fusion_lon": 0.0, "lat": 38.904125, "name": "6cea6ca30066d62afd46566732ebebee", "bike_id": "6cea6ca30066d62afd46566732ebebee", "lon": -76.9733195, "fusion_lat": 0.0, "rental_uris": {"android": "https://dc.lft.to/lastmile_qr_scan", "ios": "https://dc.lft.to/lastmile_qr_scan"}, "type": "electric_scooter"}, {"is_reserved": 0, "is_disabled": 0, "fusion_lon": 0.0, "lat": 38.90508633333334, "name": "eb3426daa3b1c4a079ee084bf4e3daa9", "bike_id": "eb3426daa3b1c4a079ee084bf4e3daa9", "lon": -77.02970016666667, "fusion_lat": 0.0, "rental_uris": {"android": "https://dc.lft.to/lastmile_qr_scan", "ios": "https://dc.lft.to/lastmile_qr_scan"}, "type": "electric_scooter"}, {"is_reserved": 0, "is_disabled": 0, "fusion_lon": 0.0, "lat": 38.92237766666667, "name": "f7803ef70bd7d1cdfa4f07870e5684ff", "bike_id": "f7803ef70bd7d1cdfa4f07870e5684ff", "lon": -77.0285505, "fusion_lat": 0.0, "rental_uris": {"android": "https://dc.lft.to/lastmile_qr_scan", "ios": "https://dc.lft.to/lastmile_qr_scan"}, "type": "electric_scooter"}, {"is_reserved": 0, "is_disabled": 0, "fusion_lon": 0.0, "lat": 38.9208205, "name": "2420a151902495f6d5f8395dfe60680a", "bike_id": "2420a151902495f6d5f8395dfe60680a", "lon": -77.02535983333334, "fusion_lat": 0.0, "rental_uris": {"android": "https://dc.lft.to/lastmile_qr_scan", "ios": "https://dc.lft.to/lastmile_qr_scan"}, "type": "electric_scooter"}, {"is_reserved": 0, "is_disabled": 0, "fusion_lon": 0.0, "lat": 38.896058833333335, "name": "ffff4d8f2b6046cf2e097c754db709e0", "bike_id": "ffff4d8f2b6046cf2e097c754db709e0", "lon": -77.01897733333334, "fusion_lat": 0.0, "rental_uris": {"android": "https://dc.lft.to/lastmile_qr_scan", "ios": "https://dc.lft.to/lastmile_qr_scan"}, "type": "electric_scooter"}, {"is_reserved": 0, "is_disabled": 0, "fusion_lon": 0.0, "lat": 38.89689116666667, "name": "1555b076a541cfbec625dcd052b8df17", "bike_id": "1555b076a541cfbec625dcd052b8df17", "lon": -76.92797233333333, "fusion_lat": 0.0, "rental_uris": {"android": "https://dc.lft.to/lastmile_qr_scan", "ios": "https://dc.lft.to/lastmile_qr_scan"}, "type": "electric_scooter"}, {"is_reserved": 0, "is_disabled": 0, "fusion_lon": 0.0, "lat": 38.93490366666666, "name": "d8c022cab0f0336b91681b96a21aff01", "bike_id": "d8c022cab0f0336b91681b96a21aff01", "lon": -77.029782, "fusion_lat": 0.0, "rental_uris": {"android": "https://dc.lft.to/lastmile_qr_scan", "ios": "https://dc.lft.to/lastmile_qr_scan"}, "type": "electric_scooter"}, {"is_reserved": 0, "is_disabled": 0, "fusion_lon": 0.0, "lat": 38.92244566666667, "name": "daf0c1a842c0af7d79eebe8e324d4a9f", "bike_id": "daf0c1a842c0af7d79eebe8e324d4a9f", "lon": -77.0436515, "fusion_lat": 0.0, "rental_uris": {"android": "https://dc.lft.to/lastmile_qr_scan", "ios": "https://dc.lft.to/lastmile_qr_scan"}, "type": "electric_scooter"}, {"is_reserved": 0, "is_disabled": 0, "fusion_lon": 0.0, "lat": 38.910106666666664, "name": "19aec40c2dc6b8dcb034d04424015c18", "bike_id": "19aec40c2dc6b8dcb034d04424015c18", "lon": -77.0466285, "fusion_lat": 0.0, "rental_uris": {"android": "https://dc.lft.to/lastmile_qr_scan", "ios": "https://dc.lft.to/lastmile_qr_scan"}, "type": "electric_scooter"}, {"is_reserved": 0, "is_disabled": 0, "fusion_lon": 0.0, "lat": 38.8983285, "name": "3f6b9dbd798831bd03e0d0b080283fdc", "bike_id": "3f6b9dbd798831bd03e0d0b080283fdc", "lon": -76.987679, "fusion_lat": 0.0, "rental_uris": {"android": "https://dc.lft.to/lastmile_qr_scan", "ios": "https://dc.lft.to/lastmile_qr_scan"}, "type": "electric_scooter"}, {"is_reserved": 0, "is_disabled": 0, "fusion_lon": 0.0, "lat": 38.8881675, "name": "e010499dd7e5148483a8142276584ec8", "bike_id": "e010499dd7e5148483a8142276584ec8", "lon": -76.97703916666667, "fusion_lat": 0.0, "rental_uris": {"android": "https://dc.lft.to/lastmile_qr_scan", "ios": "https://dc.lft.to/lastmile_qr_scan"}, "type": "electric_scooter"}, {"is_reserved": 0, "is_disabled": 0, "fusion_lon": 0.0, "lat": 38.933833, "name": "0de4f8dee829c5a75bf702ab61bd931f", "bike_id": "0de4f8dee829c5a75bf702ab61bd931f", "lon": -77.02967583333333, "fusion_lat": 0.0, "rental_uris": {"android": "https://dc.lft.to/lastmile_qr_scan", "ios": "https://dc.lft.to/lastmile_qr_scan"}, "type": "electric_scooter"}, {"is_reserved": 0, "is_disabled": 0, "fusion_lon": 0.0, "lat": 38.916887833333334, "name": "5dd52df1d1eec53aef78f0fd11b52769", "bike_id": "5dd52df1d1eec53aef78f0fd11b52769", "lon": -77.02950716666666, "fusion_lat": 0.0, "rental_uris": {"android": "https://dc.lft.to/lastmile_qr_scan", "ios": "https://dc.lft.to/lastmile_qr_scan"}, "type": "electric_scooter"}, {"is_reserved": 0, "is_disabled": 0, "fusion_lon": 0.0, "lat": 38.916534, "name": "beb6acc6237ae7a832093e18a6f17ba5", "bike_id": "beb6acc6237ae7a832093e18a6f17ba5", "lon": -77.02005916666667, "fusion_lat": 0.0, "rental_uris": {"android": "https://dc.lft.to/lastmile_qr_scan", "ios": "https://dc.lft.to/lastmile_qr_scan"}, "type": "electric_scooter"}, {"is_reserved": 0, "is_disabled": 0, "fusion_lon": 0.0, "lat": 38.96620983333333, "name": "217ebda11bf3188760b5c20defb4db58", "bike_id": "217ebda11bf3188760b5c20defb4db58", "lon": -77.03438333333334, "fusion_lat": 0.0, "rental_uris": {"android": "https://dc.lft.to/lastmile_qr_scan", "ios": "https://dc.lft.to/lastmile_qr_scan"}, "type": "electric_bike"}, {"is_reserved": 0, "is_disabled": 0, "fusion_lon": 0.0, "lat": 38.900370333333335, "name": "adf0956f5125ac2483232adc6a8bba19", "bike_id": "adf0956f5125ac2483232adc6a8bba19", "lon": -76.99155383333333, "fusion_lat": 0.0, "rental_uris": {"android": "https://dc.lft.to/lastmile_qr_scan", "ios": "https://dc.lft.to/lastmile_qr_scan"}, "type": "electric_scooter"}, {"is_reserved": 0, "is_disabled": 0, "fusion_lon": 0.0, "lat": 38.924167833333335, "name": "2179823bccb7607755bb5cb59a20b202", "bike_id": "2179823bccb7607755bb5cb59a20b202", "lon": -77.05068466666667, "fusion_lat": 0.0, "rental_uris": {"android": "https://dc.lft.to/lastmile_qr_scan", "ios": "https://dc.lft.to/lastmile_qr_scan"}, "type": "electric_scooter"}, {"is_reserved": 0, "is_disabled": 0, "fusion_lon": 0.0, "lat": 38.90011833333333, "name": "82793ff6bac4f6eeb22564344c7d5e7f", "bike_id": "82793ff6bac4f6eeb22564344c7d5e7f", "lon": -76.93023933333333, "fusion_lat": 0.0, "rental_uris": {"android": "https://dc.lft.to/lastmile_qr_scan", "ios": "https://dc.lft.to/lastmile_qr_scan"}, "type": "electric_scooter"}, {"is_reserved": 0, "is_disabled": 0, "fusion_lon": 0.0, "lat": 38.926147666666665, "name": "22c95436e4bd696bafa00dd7c0f2c4b6", "bike_id": "22c95436e4bd696bafa00dd7c0f2c4b6", "lon": -77.02163266666666, "fusion_lat": 0.0, "rental_uris": {"android": "https://dc.lft.to/lastmile_qr_scan", "ios": "https://dc.lft.to/lastmile_qr_scan"}, "type": "electric_scooter"}, {"is_reserved": 0, "is_disabled": 0, "fusion_lon": 0.0, "lat": 38.87595666666667, "name": "938a830a6c60505e7e577d0173c0a306", "bike_id": "938a830a6c60505e7e577d0173c0a306", "lon": -77.0057975, "fusion_lat": 0.0, "rental_uris": {"android": "https://dc.lft.to/lastmile_qr_scan", "ios": "https://dc.lft.to/lastmile_qr_scan"}, "type": "electric_scooter"}, {"is_reserved": 0, "is_disabled": 0, "fusion_lon": 0.0, "lat": 38.908558666666664, "name": "53d0f62a557f5a29270f0330b8ad39ce", "bike_id": "53d0f62a557f5a29270f0330b8ad39ce", "lon": -76.99685083333334, "fusion_lat": 0.0, "rental_uris": {"android": "https://dc.lft.to/lastmile_qr_scan", "ios": "https://dc.lft.to/lastmile_qr_scan"}, "type": "electric_scooter"}, {"is_reserved": 0, "is_disabled": 0, "fusion_lon": 0.0, "lat": 38.89002166666667, "name": "d46f54c0ea973030969fa96f45c92252", "bike_id": "d46f54c0ea973030969fa96f45c92252", "lon": -76.937498, "fusion_lat": 0.0, "rental_uris": {"android": "https://dc.lft.to/lastmile_qr_scan", "ios": "https://dc.lft.to/lastmile_qr_scan"}, "type": "electric_scooter"}, {"is_reserved": 0, "is_disabled": 0, "fusion_lon": 0.0, "lat": 38.886643666666664, "name": "d0031d9938aec3c6574d6587880249f9", "bike_id": "d0031d9938aec3c6574d6587880249f9", "lon": -77.01375083333333, "fusion_lat": 0.0, "rental_uris": {"android": "https://dc.lft.to/lastmile_qr_scan", "ios": "https://dc.lft.to/lastmile_qr_scan"}, "type": "electric_scooter"}, {"is_reserved": 0, "is_disabled": 0, "fusion_lon": 0.0, "lat": 38.91994416666667, "name": "caa5eb281787a1b377c7c64f621359e5", "bike_id": "caa5eb281787a1b377c7c64f621359e5", "lon": -77.03250383333334, "fusion_lat": 0.0, "rental_uris": {"android": "https://dc.lft.to/lastmile_qr_scan", "ios": "https://dc.lft.to/lastmile_qr_scan"}, "type": "electric_scooter"}, {"is_reserved": 0, "is_disabled": 0, "fusion_lon": 0.0, "lat": 38.89624933333333, "name": "7aa0050a939b85a7f8db66dc0369cabb", "bike_id": "7aa0050a939b85a7f8db66dc0369cabb", "lon": -76.90751416666667, "fusion_lat": 0.0, "rental_uris": {"android": "https://dc.lft.to/lastmile_qr_scan", "ios": "https://dc.lft.to/lastmile_qr_scan"}, "type": "electric_bike"}, {"is_reserved": 0, "is_disabled": 0, "fusion_lon": 0.0, "lat": 38.9002245, "name": "1bfbf66fb564f606fe2d7090564c326b", "bike_id": "1bfbf66fb564f606fe2d7090564c326b", "lon": -76.99849916666666, "fusion_lat": 0.0, "rental_uris": {"android": "https://dc.lft.to/lastmile_qr_scan", "ios": "https://dc.lft.to/lastmile_qr_scan"}, "type": "electric_scooter"}, {"is_reserved": 0, "is_disabled": 0, "fusion_lon": 0.0, "lat": 38.908710166666665, "name": "8f13c9a71acb20341d7e24c3bcf4cd3f", "bike_id": "8f13c9a71acb20341d7e24c3bcf4cd3f", "lon": -77.08592833333333, "fusion_lat": 0.0, "rental_uris": {"android": "https://dc.lft.to/lastmile_qr_scan", "ios": "https://dc.lft.to/lastmile_qr_scan"}, "type": "electric_scooter"}, {"is_reserved": 0, "is_disabled": 0, "fusion_lon": 0.0, "lat": 38.905706, "name": "5a96358be5500e4ff3425c4ef33cf502", "bike_id": "5a96358be5500e4ff3425c4ef33cf502", "lon": -77.00277166666666, "fusion_lat": 0.0, "rental_uris": {"android": "https://dc.lft.to/lastmile_qr_scan", "ios": "https://dc.lft.to/lastmile_qr_scan"}, "type": "electric_scooter"}, {"is_reserved": 0, "is_disabled": 0, "fusion_lon": 0.0, "lat": 38.90790583333333, "name": "25a228557b1d553e03fe4e4e319ade94", "bike_id": "25a228557b1d553e03fe4e4e319ade94", "lon": -77.00970216666667, "fusion_lat": 0.0, "rental_uris": {"android": "https://dc.lft.to/lastmile_qr_scan", "ios": "https://dc.lft.to/lastmile_qr_scan"}, "type": "electric_scooter"}, {"is_reserved": 0, "is_disabled": 0, "fusion_lon": 0.0, "lat": 38.907756666666664, "name": "ae8e56130b3040408307979d5570410e", "bike_id": "ae8e56130b3040408307979d5570410e", "lon": -77.0322395, "fusion_lat": 0.0, "rental_uris": {"android": "https://dc.lft.to/lastmile_qr_scan", "ios": "https://dc.lft.to/lastmile_qr_scan"}, "type": "electric_scooter"}, {"is_reserved": 0, "is_disabled": 0, "fusion_lon": 0.0, "lat": 38.9424375, "name": "1e434f276ae60b6b5afefcea8d21f145", "bike_id": "1e434f276ae60b6b5afefcea8d21f145", "lon": -77.00228616666666, "fusion_lat": 0.0, "rental_uris": {"android": "https://dc.lft.to/lastmile_qr_scan", "ios": "https://dc.lft.to/lastmile_qr_scan"}, "type": "electric_scooter"}, {"is_reserved": 0, "is_disabled": 0, "fusion_lon": 0.0, "lat": 38.91709816666667, "name": "80caa712441651e64ea2041a7230aea9", "bike_id": "80caa712441651e64ea2041a7230aea9", "lon": -77.04163183333333, "fusion_lat": 0.0, "rental_uris": {"android": "https://dc.lft.to/lastmile_qr_scan", "ios": "https://dc.lft.to/lastmile_qr_scan"}, "type": "electric_scooter"}, {"is_reserved": 0, "is_disabled": 0, "fusion_lon": 0.0, "lat": 38.975472333333336, "name": "a75b5f1fe6b2f59707fe0e8cea852214", "bike_id": "a75b5f1fe6b2f59707fe0e8cea852214", "lon": -77.026769, "fusion_lat": 0.0, "rental_uris": {"android": "https://dc.lft.to/lastmile_qr_scan", "ios": "https://dc.lft.to/lastmile_qr_scan"}, "type": "electric_scooter"}, {"is_reserved": 0, "is_disabled": 0, "fusion_lon": 0.0, "lat": 38.90863933333333, "name": "c2d639b73097dbf7a4b1ebd83c26c2c5", "bike_id": "c2d639b73097dbf7a4b1ebd83c26c2c5", "lon": -77.08080233333334, "fusion_lat": 0.0, "rental_uris": {"android": "https://dc.lft.to/lastmile_qr_scan", "ios": "https://dc.lft.to/lastmile_qr_scan"}, "type": "electric_bike"}, {"is_reserved": 0, "is_disabled": 0, "fusion_lon": 0.0, "lat": 38.9095545, "name": "b28889ea95b00f4d25bcae3c86968fbd", "bike_id": "b28889ea95b00f4d25bcae3c86968fbd", "lon": -77.02392633333334, "fusion_lat": 0.0, "rental_uris": {"android": "https://dc.lft.to/lastmile_qr_scan", "ios": "https://dc.lft.to/lastmile_qr_scan"}, "type": "electric_scooter"}, {"is_reserved": 0, "is_disabled": 0, "fusion_lon": 0.0, "lat": 38.921361166666664, "name": "97d961524fe558d843e79734fc9476f2", "bike_id": "97d961524fe558d843e79734fc9476f2", "lon": -77.01800483333334, "fusion_lat": 0.0, "rental_uris": {"android": "https://dc.lft.to/lastmile_qr_scan", "ios": "https://dc.lft.to/lastmile_qr_scan"}, "type": "electric_scooter"}, {"is_reserved": 0, "is_disabled": 0, "fusion_lon": 0.0, "lat": 38.87116733333333, "name": "4c574ea36655a04ec156a8def485d369", "bike_id": "4c574ea36655a04ec156a8def485d369", "lon": -77.00909766666666, "fusion_lat": 0.0, "rental_uris": {"android": "https://dc.lft.to/lastmile_qr_scan", "ios": "https://dc.lft.to/lastmile_qr_scan"}, "type": "electric_scooter"}, {"is_reserved": 0, "is_disabled": 0, "fusion_lon": 0.0, "lat": 38.9726225, "name": "0aa8e210c17b85d55c69d0aa97e2aed6", "bike_id": "0aa8e210c17b85d55c69d0aa97e2aed6", "lon": -76.99280833333333, "fusion_lat": 0.0, "rental_uris": {"android": "https://dc.lft.to/lastmile_qr_scan", "ios": "https://dc.lft.to/lastmile_qr_scan"}, "type": "electric_bike"}, {"is_reserved": 0, "is_disabled": 0, "fusion_lon": 0.0, "lat": 38.92352066666667, "name": "99da8be98f77ee0ab7f2ea39fd6f9d9d", "bike_id": "99da8be98f77ee0ab7f2ea39fd6f9d9d", "lon": -77.02097483333333, "fusion_lat": 0.0, "rental_uris": {"android": "https://dc.lft.to/lastmile_qr_scan", "ios": "https://dc.lft.to/lastmile_qr_scan"}, "type": "electric_scooter"}, {"is_reserved": 0, "is_disabled": 0, "fusion_lon": 0.0, "lat": 38.90805733333333, "name": "1e44c44ddf9f3b2e35166162bd311429", "bike_id": "1e44c44ddf9f3b2e35166162bd311429", "lon": -77.08400833333333, "fusion_lat": 0.0, "rental_uris": {"android": "https://dc.lft.to/lastmile_qr_scan", "ios": "https://dc.lft.to/lastmile_qr_scan"}, "type": "electric_scooter"}, {"is_reserved": 0, "is_disabled": 0, "fusion_lon": 0.0, "lat": 38.9041665, "name": "41cf5b69edbbfc72bfa3b48cdcd1fb3d", "bike_id": "41cf5b69edbbfc72bfa3b48cdcd1fb3d", "lon": -77.03277683333333, "fusion_lat": 0.0, "rental_uris": {"android": "https://dc.lft.to/lastmile_qr_scan", "ios": "https://dc.lft.to/lastmile_qr_scan"}, "type": "electric_scooter"}, {"is_reserved": 0, "is_disabled": 0, "fusion_lon": 0.0, "lat": 38.855747666666666, "name": "10929de237364bdb3f5a05c29969bd38", "bike_id": "10929de237364bdb3f5a05c29969bd38", "lon": -77.05336033333333, "fusion_lat": 0.0, "rental_uris": {"android": "https://dc.lft.to/lastmile_qr_scan", "ios": "https://dc.lft.to/lastmile_qr_scan"}, "type": "electric_bike"}, {"is_reserved": 0, "is_disabled": 0, "fusion_lon": 0.0, "lat": 38.9111895, "name": "b8d7e85f0a4dd1b573642f2cb10a658d", "bike_id": "b8d7e85f0a4dd1b573642f2cb10a658d", "lon": -77.0383475, "fusion_lat": 0.0, "rental_uris": {"android": "https://dc.lft.to/lastmile_qr_scan", "ios": "https://dc.lft.to/lastmile_qr_scan"}, "type": "electric_scooter"}, {"is_reserved": 0, "is_disabled": 0, "fusion_lon": 0.0, "lat": 38.87700683333333, "name": "e0b22816cf6c3075cd618103aee2f951", "bike_id": "e0b22816cf6c3075cd618103aee2f951", "lon": -76.99316833333333, "fusion_lat": 0.0, "rental_uris": {"android": "https://dc.lft.to/lastmile_qr_scan", "ios": "https://dc.lft.to/lastmile_qr_scan"}, "type": "electric_scooter"}, {"is_reserved": 0, "is_disabled": 0, "fusion_lon": 0.0, "lat": 38.8866205, "name": "a668b9ed14cfcbf44540130884c25ed5", "bike_id": "a668b9ed14cfcbf44540130884c25ed5", "lon": -76.9367465, "fusion_lat": 0.0, "rental_uris": {"android": "https://dc.lft.to/lastmile_qr_scan", "ios": "https://dc.lft.to/lastmile_qr_scan"}, "type": "electric_scooter"}, {"is_reserved": 0, "is_disabled": 0, "fusion_lon": 0.0, "lat": 38.91921933333333, "name": "72bfb25b8b3deaf3b2779d8e22da7bf5", "bike_id": "72bfb25b8b3deaf3b2779d8e22da7bf5", "lon": -77.009997, "fusion_lat": 0.0, "rental_uris": {"android": "https://dc.lft.to/lastmile_qr_scan", "ios": "https://dc.lft.to/lastmile_qr_scan"}, "type": "electric_scooter"}, {"is_reserved": 0, "is_disabled": 0, "fusion_lon": 0.0, "lat": 38.924708, "name": "95112c16a4f029f9c1da1fd042f4d941", "bike_id": "95112c16a4f029f9c1da1fd042f4d941", "lon": -77.02217233333333, "fusion_lat": 0.0, "rental_uris": {"android": "https://dc.lft.to/lastmile_qr_scan", "ios": "https://dc.lft.to/lastmile_qr_scan"}, "type": "electric_scooter"}, {"is_reserved": 0, "is_disabled": 0, "fusion_lon": 0.0, "lat": 39.08432583333333, "name": "cd0f70b3d5b9f1ef2e7e42b6c6801bfc", "bike_id": "cd0f70b3d5b9f1ef2e7e42b6c6801bfc", "lon": -76.9514955, "fusion_lat": 0.0, "rental_uris": {"android": "https://dc.lft.to/lastmile_qr_scan", "ios": "https://dc.lft.to/lastmile_qr_scan"}, "type": "electric_bike"}, {"is_reserved": 0, "is_disabled": 0, "fusion_lon": 0.0, "lat": 38.9213635, "name": "a6e715e4721d7ec5bc7555cc8cf713e6", "bike_id": "a6e715e4721d7ec5bc7555cc8cf713e6", "lon": -77.01171516666666, "fusion_lat": 0.0, "rental_uris": {"android": "https://dc.lft.to/lastmile_qr_scan", "ios": "https://dc.lft.to/lastmile_qr_scan"}, "type": "electric_scooter"}, {"is_reserved": 0, "is_disabled": 0, "fusion_lon": 0.0, "lat": 38.920663833333336, "name": "da045dd5191ee5bf69c65bad28f92ca4", "bike_id": "da045dd5191ee5bf69c65bad28f92ca4", "lon": -77.04552, "fusion_lat": 0.0, "rental_uris": {"android": "https://dc.lft.to/lastmile_qr_scan", "ios": "https://dc.lft.to/lastmile_qr_scan"}, "type": "electric_scooter"}, {"is_reserved": 0, "is_disabled": 0, "fusion_lon": 0.0, "lat": 38.919466166666666, "name": "8d6ed18682dafdac17b4e728a31d7013", "bike_id": "8d6ed18682dafdac17b4e728a31d7013", "lon": -77.02188683333334, "fusion_lat": 0.0, "rental_uris": {"android": "https://dc.lft.to/lastmile_qr_scan", "ios": "https://dc.lft.to/lastmile_qr_scan"}, "type": "electric_scooter"}, {"is_reserved": 0, "is_disabled": 0, "fusion_lon": 0.0, "lat": 38.920677166666664, "name": "abee2e9c9212e7b26b2b034045abb633", "bike_id": "abee2e9c9212e7b26b2b034045abb633", "lon": -77.02435416666667, "fusion_lat": 0.0, "rental_uris": {"android": "https://dc.lft.to/lastmile_qr_scan", "ios": "https://dc.lft.to/lastmile_qr_scan"}, "type": "electric_scooter"}, {"is_reserved": 0, "is_disabled": 0, "fusion_lon": 0.0, "lat": 38.91064033333333, "name": "7710ef9c0874e12fbd99218ceef808b7", "bike_id": "7710ef9c0874e12fbd99218ceef808b7", "lon": -77.05388783333333, "fusion_lat": 0.0, "rental_uris": {"android": "https://dc.lft.to/lastmile_qr_scan", "ios": "https://dc.lft.to/lastmile_qr_scan"}, "type": "electric_scooter"}, {"is_reserved": 0, "is_disabled": 0, "fusion_lon": 0.0, "lat": 38.94542916666666, "name": "790ae1d3951a2b9811377381fcfa6428", "bike_id": "790ae1d3951a2b9811377381fcfa6428", "lon": -77.34463783333334, "fusion_lat": 0.0, "rental_uris": {"android": "https://dc.lft.to/lastmile_qr_scan", "ios": "https://dc.lft.to/lastmile_qr_scan"}, "type": "electric_bike"}, {"is_reserved": 0, "is_disabled": 0, "fusion_lon": 0.0, "lat": 38.918053666666665, "name": "6187584c179b9dcffcf6590acefcff4c", "bike_id": "6187584c179b9dcffcf6590acefcff4c", "lon": -77.03179616666667, "fusion_lat": 0.0, "rental_uris": {"android": "https://dc.lft.to/lastmile_qr_scan", "ios": "https://dc.lft.to/lastmile_qr_scan"}, "type": "electric_scooter"}, {"is_reserved": 0, "is_disabled": 0, "fusion_lon": 0.0, "lat": 38.88239083333333, "name": "f6951442bd3d0efa08e6596f48cacd03", "bike_id": "f6951442bd3d0efa08e6596f48cacd03", "lon": -76.99493016666666, "fusion_lat": 0.0, "rental_uris": {"android": "https://dc.lft.to/lastmile_qr_scan", "ios": "https://dc.lft.to/lastmile_qr_scan"}, "type": "electric_scooter"}, {"is_reserved": 0, "is_disabled": 0, "fusion_lon": 0.0, "lat": 38.9184825, "name": "71a20c110a0c3de9c3e52c8a473e317d", "bike_id": "71a20c110a0c3de9c3e52c8a473e317d", "lon": -77.025331, "fusion_lat": 0.0, "rental_uris": {"android": "https://dc.lft.to/lastmile_qr_scan", "ios": "https://dc.lft.to/lastmile_qr_scan"}, "type": "electric_scooter"}, {"is_reserved": 0, "is_disabled": 0, "fusion_lon": 0.0, "lat": 38.8839205, "name": "3a6b9ad4fa9e3c82c7717e9551a03300", "bike_id": "3a6b9ad4fa9e3c82c7717e9551a03300", "lon": -76.93043483333334, "fusion_lat": 0.0, "rental_uris": {"android": "https://dc.lft.to/lastmile_qr_scan", "ios": "https://dc.lft.to/lastmile_qr_scan"}, "type": "electric_scooter"}, {"is_reserved": 0, "is_disabled": 0, "fusion_lon": 0.0, "lat": 38.925995, "name": "f6f457dcb790e3ff60634ef6866f3a7b", "bike_id": "f6f457dcb790e3ff60634ef6866f3a7b", "lon": -77.02158733333333, "fusion_lat": 0.0, "rental_uris": {"android": "https://dc.lft.to/lastmile_qr_scan", "ios": "https://dc.lft.to/lastmile_qr_scan"}, "type": "electric_scooter"}, {"is_reserved": 0, "is_disabled": 0, "fusion_lon": 0.0, "lat": 38.9025595, "name": "e97e6f9fa67ad44b655bd1e1832ae9f8", "bike_id": "e97e6f9fa67ad44b655bd1e1832ae9f8", "lon": -77.04370566666667, "fusion_lat": 0.0, "rental_uris": {"android": "https://dc.lft.to/lastmile_qr_scan", "ios": "https://dc.lft.to/lastmile_qr_scan"}, "type": "electric_scooter"}, {"is_reserved": 0, "is_disabled": 0, "fusion_lon": 0.0, "lat": 38.92506566666667, "name": "a61de09ea1148c56cf52eb04b9028a3c", "bike_id": "a61de09ea1148c56cf52eb04b9028a3c", "lon": -77.0235695, "fusion_lat": 0.0, "rental_uris": {"android": "https://dc.lft.to/lastmile_qr_scan", "ios": "https://dc.lft.to/lastmile_qr_scan"}, "type": "electric_scooter"}, {"is_reserved": 0, "is_disabled": 0, "fusion_lon": 0.0, "lat": 38.918122, "name": "1661e353c5934550a5d3cdfcc831ea76", "bike_id": "1661e353c5934550a5d3cdfcc831ea76", "lon": -77.023026, "fusion_lat": 0.0, "rental_uris": {"android": "https://dc.lft.to/lastmile_qr_scan", "ios": "https://dc.lft.to/lastmile_qr_scan"}, "type": "electric_scooter"}, {"is_reserved": 0, "is_disabled": 0, "fusion_lon": 0.0, "lat": 38.92139383333333, "name": "b483312ccf8b2ac1d912e2778945a051", "bike_id": "b483312ccf8b2ac1d912e2778945a051", "lon": -77.045774, "fusion_lat": 0.0, "rental_uris": {"android": "https://dc.lft.to/lastmile_qr_scan", "ios": "https://dc.lft.to/lastmile_qr_scan"}, "type": "electric_scooter"}, {"is_reserved": 0, "is_disabled": 0, "fusion_lon": 0.0, "lat": 38.93534866666667, "name": "04257474ad0bf73e3a2e7a632c25c241", "bike_id": "04257474ad0bf73e3a2e7a632c25c241", "lon": -77.02352833333333, "fusion_lat": 0.0, "rental_uris": {"android": "https://dc.lft.to/lastmile_qr_scan", "ios": "https://dc.lft.to/lastmile_qr_scan"}, "type": "electric_scooter"}, {"is_reserved": 0, "is_disabled": 0, "fusion_lon": 0.0, "lat": 38.91490133333333, "name": "2a81d53310480976c1dc23f410caa144", "bike_id": "2a81d53310480976c1dc23f410caa144", "lon": -77.01855666666667, "fusion_lat": 0.0, "rental_uris": {"android": "https://dc.lft.to/lastmile_qr_scan", "ios": "https://dc.lft.to/lastmile_qr_scan"}, "type": "electric_scooter"}, {"is_reserved": 0, "is_disabled": 0, "fusion_lon": 0.0, "lat": 38.92085983333333, "name": "2e868b9de0c0130ca5bd719c99941040", "bike_id": "2e868b9de0c0130ca5bd719c99941040", "lon": -77.023397, "fusion_lat": 0.0, "rental_uris": {"android": "https://dc.lft.to/lastmile_qr_scan", "ios": "https://dc.lft.to/lastmile_qr_scan"}, "type": "electric_scooter"}, {"is_reserved": 0, "is_disabled": 0, "fusion_lon": 0.0, "lat": 38.91957516666667, "name": "ee10cd755cfb0f3c30d60076cacbcdcd", "bike_id": "ee10cd755cfb0f3c30d60076cacbcdcd", "lon": -77.07871583333333, "fusion_lat": 0.0, "rental_uris": {"android": "https://dc.lft.to/lastmile_qr_scan", "ios": "https://dc.lft.to/lastmile_qr_scan"}, "type": "electric_scooter"}, {"is_reserved": 0, "is_disabled": 0, "fusion_lon": 0.0, "lat": 38.92672483333333, "name": "3e559dbf5ecf7be61fb9341a313c739a", "bike_id": "3e559dbf5ecf7be61fb9341a313c739a", "lon": -77.0544425, "fusion_lat": 0.0, "rental_uris": {"android": "https://dc.lft.to/lastmile_qr_scan", "ios": "https://dc.lft.to/lastmile_qr_scan"}, "type": "electric_scooter"}, {"is_reserved": 0, "is_disabled": 0, "fusion_lon": 0.0, "lat": 38.864996, "name": "08ff7da4ddb91832a2e55e8bc55f02ee", "bike_id": "08ff7da4ddb91832a2e55e8bc55f02ee", "lon": -76.9775495, "fusion_lat": 0.0, "rental_uris": {"android": "https://dc.lft.to/lastmile_qr_scan", "ios": "https://dc.lft.to/lastmile_qr_scan"}, "type": "electric_bike"}, {"is_reserved": 0, "is_disabled": 0, "fusion_lon": 0.0, "lat": 38.917343333333335, "name": "232c34697630a66a98163687f6da8eab", "bike_id": "232c34697630a66a98163687f6da8eab", "lon": -77.04178883333333, "fusion_lat": 0.0, "rental_uris": {"android": "https://dc.lft.to/lastmile_qr_scan", "ios": "https://dc.lft.to/lastmile_qr_scan"}, "type": "electric_scooter"}, {"is_reserved": 0, "is_disabled": 0, "fusion_lon": 0.0, "lat": 38.91337933333333, "name": "3efc14496e422e019ca7188ce2ef5dbd", "bike_id": "3efc14496e422e019ca7188ce2ef5dbd", "lon": -77.03983933333333, "fusion_lat": 0.0, "rental_uris": {"android": "https://dc.lft.to/lastmile_qr_scan", "ios": "https://dc.lft.to/lastmile_qr_scan"}, "type": "electric_scooter"}, {"is_reserved": 0, "is_disabled": 0, "fusion_lon": 0.0, "lat": 38.89879583333333, "name": "dff2a337cfe75dc107ec132aa7f9dc99", "bike_id": "dff2a337cfe75dc107ec132aa7f9dc99", "lon": -76.9800385, "fusion_lat": 0.0, "rental_uris": {"android": "https://dc.lft.to/lastmile_qr_scan", "ios": "https://dc.lft.to/lastmile_qr_scan"}, "type": "electric_scooter"}, {"is_reserved": 0, "is_disabled": 0, "fusion_lon": 0.0, "lat": 38.92979616666667, "name": "f9241ba1c745b48d407ace29864b7f0f", "bike_id": "f9241ba1c745b48d407ace29864b7f0f", "lon": -77.02342683333333, "fusion_lat": 0.0, "rental_uris": {"android": "https://dc.lft.to/lastmile_qr_scan", "ios": "https://dc.lft.to/lastmile_qr_scan"}, "type": "electric_scooter"}, {"is_reserved": 0, "is_disabled": 0, "fusion_lon": 0.0, "lat": 38.9245755, "name": "d2c2954ea3a46ecd6a657901171086be", "bike_id": "d2c2954ea3a46ecd6a657901171086be", "lon": -76.9991445, "fusion_lat": 0.0, "rental_uris": {"android": "https://dc.lft.to/lastmile_qr_scan", "ios": "https://dc.lft.to/lastmile_qr_scan"}, "type": "electric_scooter"}, {"is_reserved": 0, "is_disabled": 0, "fusion_lon": 0.0, "lat": 38.9244135, "name": "d04f3ce87b8eff8b18a59d4db3a42161", "bike_id": "d04f3ce87b8eff8b18a59d4db3a42161", "lon": -77.04031383333333, "fusion_lat": 0.0, "rental_uris": {"android": "https://dc.lft.to/lastmile_qr_scan", "ios": "https://dc.lft.to/lastmile_qr_scan"}, "type": "electric_scooter"}, {"is_reserved": 0, "is_disabled": 0, "fusion_lon": 0.0, "lat": 38.937023333333336, "name": "f29b165995b7b15ec4f332061c5f96d6", "bike_id": "f29b165995b7b15ec4f332061c5f96d6", "lon": -77.0328545, "fusion_lat": 0.0, "rental_uris": {"android": "https://dc.lft.to/lastmile_qr_scan", "ios": "https://dc.lft.to/lastmile_qr_scan"}, "type": "electric_scooter"}, {"is_reserved": 0, "is_disabled": 0, "fusion_lon": 0.0, "lat": 38.920551833333334, "name": "d95762ee39a0d9d66e6f4680a2721a66", "bike_id": "d95762ee39a0d9d66e6f4680a2721a66", "lon": -77.03321233333334, "fusion_lat": 0.0, "rental_uris": {"android": "https://dc.lft.to/lastmile_qr_scan", "ios": "https://dc.lft.to/lastmile_qr_scan"}, "type": "electric_bike"}, {"is_reserved": 0, "is_disabled": 0, "fusion_lon": 0.0, "lat": 38.909940166666665, "name": "8b2a59ef6cbbad89ed8257ae20a8febb", "bike_id": "8b2a59ef6cbbad89ed8257ae20a8febb", "lon": -77.0321195, "fusion_lat": 0.0, "rental_uris": {"android": "https://dc.lft.to/lastmile_qr_scan", "ios": "https://dc.lft.to/lastmile_qr_scan"}, "type": "electric_scooter"}, {"is_reserved": 0, "is_disabled": 0, "fusion_lon": 0.0, "lat": 38.921516833333335, "name": "76e811fdeb82435e6ac251f38bc2639b", "bike_id": "76e811fdeb82435e6ac251f38bc2639b", "lon": -77.03874116666667, "fusion_lat": 0.0, "rental_uris": {"android": "https://dc.lft.to/lastmile_qr_scan", "ios": "https://dc.lft.to/lastmile_qr_scan"}, "type": "electric_scooter"}, {"is_reserved": 0, "is_disabled": 0, "fusion_lon": 0.0, "lat": 38.909632, "name": "e686d3abdda4561d472a839555ff582a", "bike_id": "e686d3abdda4561d472a839555ff582a", "lon": -77.0880715, "fusion_lat": 0.0, "rental_uris": {"android": "https://dc.lft.to/lastmile_qr_scan", "ios": "https://dc.lft.to/lastmile_qr_scan"}, "type": "electric_bike"}, {"is_reserved": 0, "is_disabled": 0, "fusion_lon": 0.0, "lat": 38.92473, "name": "55882b80d4b5087cd1d593b233066184", "bike_id": "55882b80d4b5087cd1d593b233066184", "lon": -77.03935633333333, "fusion_lat": 0.0, "rental_uris": {"android": "https://dc.lft.to/lastmile_qr_scan", "ios": "https://dc.lft.to/lastmile_qr_scan"}, "type": "electric_scooter"}, {"is_reserved": 0, "is_disabled": 0, "fusion_lon": 0.0, "lat": 38.898468, "name": "7e3f241e7ae50f4c2cc8b42c9806c491", "bike_id": "7e3f241e7ae50f4c2cc8b42c9806c491", "lon": -77.02280783333333, "fusion_lat": 0.0, "rental_uris": {"android": "https://dc.lft.to/lastmile_qr_scan", "ios": "https://dc.lft.to/lastmile_qr_scan"}, "type": "electric_scooter"}, {"is_reserved": 0, "is_disabled": 0, "fusion_lon": 0.0, "lat": 38.9268685, "name": "ea97af34dc790b058fb255ee59ce8c28", "bike_id": "ea97af34dc790b058fb255ee59ce8c28", "lon": -77.0257205, "fusion_lat": 0.0, "rental_uris": {"android": "https://dc.lft.to/lastmile_qr_scan", "ios": "https://dc.lft.to/lastmile_qr_scan"}, "type": "electric_scooter"}, {"is_reserved": 0, "is_disabled": 0, "fusion_lon": 0.0, "lat": 38.905550166666664, "name": "a562ea304589116fb62a8d6e6a0e4c10", "bike_id": "a562ea304589116fb62a8d6e6a0e4c10", "lon": -77.00717766666666, "fusion_lat": 0.0, "rental_uris": {"android": "https://dc.lft.to/lastmile_qr_scan", "ios": "https://dc.lft.to/lastmile_qr_scan"}, "type": "electric_scooter"}, {"is_reserved": 0, "is_disabled": 0, "fusion_lon": 0.0, "lat": 38.929976833333335, "name": "9c99ccd87b427c12ea6edb013dbca232", "bike_id": "9c99ccd87b427c12ea6edb013dbca232", "lon": -77.0378275, "fusion_lat": 0.0, "rental_uris": {"android": "https://dc.lft.to/lastmile_qr_scan", "ios": "https://dc.lft.to/lastmile_qr_scan"}, "type": "electric_scooter"}, {"is_reserved": 0, "is_disabled": 0, "fusion_lon": 0.0, "lat": 38.934138833333336, "name": "90aa8467a564b527c12c70712d77065b", "bike_id": "90aa8467a564b527c12c70712d77065b", "lon": -77.019945, "fusion_lat": 0.0, "rental_uris": {"android": "https://dc.lft.to/lastmile_qr_scan", "ios": "https://dc.lft.to/lastmile_qr_scan"}, "type": "electric_scooter"}, {"is_reserved": 0, "is_disabled": 0, "fusion_lon": 0.0, "lat": 38.9154435, "name": "d2098c0ecb1dfd0e5000108d7c951740", "bike_id": "d2098c0ecb1dfd0e5000108d7c951740", "lon": -77.04450366666667, "fusion_lat": 0.0, "rental_uris": {"android": "https://dc.lft.to/lastmile_qr_scan", "ios": "https://dc.lft.to/lastmile_qr_scan"}, "type": "electric_scooter"}, {"is_reserved": 0, "is_disabled": 0, "fusion_lon": 0.0, "lat": 38.89624466666667, "name": "726bfefe852ef123e4cdd6e20c7945c3", "bike_id": "726bfefe852ef123e4cdd6e20c7945c3", "lon": -77.04010933333333, "fusion_lat": 0.0, "rental_uris": {"android": "https://dc.lft.to/lastmile_qr_scan", "ios": "https://dc.lft.to/lastmile_qr_scan"}, "type": "electric_scooter"}, {"is_reserved": 0, "is_disabled": 0, "fusion_lon": 0.0, "lat": 38.902267333333334, "name": "f8024e749b5dc97451f7373d4928ac13", "bike_id": "f8024e749b5dc97451f7373d4928ac13", "lon": -77.05132883333333, "fusion_lat": 0.0, "rental_uris": {"android": "https://dc.lft.to/lastmile_qr_scan", "ios": "https://dc.lft.to/lastmile_qr_scan"}, "type": "electric_scooter"}, {"is_reserved": 0, "is_disabled": 0, "fusion_lon": 0.0, "lat": 38.886962833333335, "name": "305db5106b9a32b9ae2c759a545b430a", "bike_id": "305db5106b9a32b9ae2c759a545b430a", "lon": -76.97639733333334, "fusion_lat": 0.0, "rental_uris": {"android": "https://dc.lft.to/lastmile_qr_scan", "ios": "https://dc.lft.to/lastmile_qr_scan"}, "type": "electric_scooter"}, {"is_reserved": 0, "is_disabled": 0, "fusion_lon": 0.0, "lat": 38.90989033333334, "name": "a52bbc51406a6b11726cbc66b8b16c70", "bike_id": "a52bbc51406a6b11726cbc66b8b16c70", "lon": -77.0220755, "fusion_lat": 0.0, "rental_uris": {"android": "https://dc.lft.to/lastmile_qr_scan", "ios": "https://dc.lft.to/lastmile_qr_scan"}, "type": "electric_scooter"}, {"is_reserved": 0, "is_disabled": 0, "fusion_lon": 0.0, "lat": 38.912653166666665, "name": "12fa691833dc1c208ae0658ed6b32b68", "bike_id": "12fa691833dc1c208ae0658ed6b32b68", "lon": -76.97208616666667, "fusion_lat": 0.0, "rental_uris": {"android": "https://dc.lft.to/lastmile_qr_scan", "ios": "https://dc.lft.to/lastmile_qr_scan"}, "type": "electric_scooter"}, {"is_reserved": 0, "is_disabled": 0, "fusion_lon": 0.0, "lat": 38.891760833333336, "name": "33576392287138841acfdbe0bd2cc122", "bike_id": "33576392287138841acfdbe0bd2cc122", "lon": -77.015638, "fusion_lat": 0.0, "rental_uris": {"android": "https://dc.lft.to/lastmile_qr_scan", "ios": "https://dc.lft.to/lastmile_qr_scan"}, "type": "electric_scooter"}, {"is_reserved": 0, "is_disabled": 0, "fusion_lon": 0.0, "lat": 38.924877333333335, "name": "eb3150d401f15b877e64afab6d69c915", "bike_id": "eb3150d401f15b877e64afab6d69c915", "lon": -77.0213795, "fusion_lat": 0.0, "rental_uris": {"android": "https://dc.lft.to/lastmile_qr_scan", "ios": "https://dc.lft.to/lastmile_qr_scan"}, "type": "electric_scooter"}, {"is_reserved": 0, "is_disabled": 0, "fusion_lon": 0.0, "lat": 38.900321166666664, "name": "bfed032939d45b830194b22ec22257fa", "bike_id": "bfed032939d45b830194b22ec22257fa", "lon": -77.00230016666667, "fusion_lat": 0.0, "rental_uris": {"android": "https://dc.lft.to/lastmile_qr_scan", "ios": "https://dc.lft.to/lastmile_qr_scan"}, "type": "electric_scooter"}, {"is_reserved": 0, "is_disabled": 0, "fusion_lon": 0.0, "lat": 38.88126033333333, "name": "f71ec9d881e79d1dd77d98bcde4b7543", "bike_id": "f71ec9d881e79d1dd77d98bcde4b7543", "lon": -76.99348733333333, "fusion_lat": 0.0, "rental_uris": {"android": "https://dc.lft.to/lastmile_qr_scan", "ios": "https://dc.lft.to/lastmile_qr_scan"}, "type": "electric_scooter"}, {"is_reserved": 0, "is_disabled": 0, "fusion_lon": 0.0, "lat": 38.917639, "name": "454a23211e2fa5427a24638d1b4ef048", "bike_id": "454a23211e2fa5427a24638d1b4ef048", "lon": -77.014917, "fusion_lat": 0.0, "rental_uris": {"android": "https://dc.lft.to/lastmile_qr_scan", "ios": "https://dc.lft.to/lastmile_qr_scan"}, "type": "electric_scooter"}, {"is_reserved": 0, "is_disabled": 0, "fusion_lon": 0.0, "lat": 38.91025616666667, "name": "fdfe2c873a786171d93b932ad67926ea", "bike_id": "fdfe2c873a786171d93b932ad67926ea", "lon": -77.02940266666667, "fusion_lat": 0.0, "rental_uris": {"android": "https://dc.lft.to/lastmile_qr_scan", "ios": "https://dc.lft.to/lastmile_qr_scan"}, "type": "electric_scooter"}, {"is_reserved": 0, "is_disabled": 0, "fusion_lon": 0.0, "lat": 38.8581205, "name": "0ea214628c9dfb9b4d85193ddf3ad2bd", "bike_id": "0ea214628c9dfb9b4d85193ddf3ad2bd", "lon": -76.98999483333333, "fusion_lat": 0.0, "rental_uris": {"android": "https://dc.lft.to/lastmile_qr_scan", "ios": "https://dc.lft.to/lastmile_qr_scan"}, "type": "electric_scooter"}, {"is_reserved": 0, "is_disabled": 0, "fusion_lon": 0.0, "lat": 38.90556083333333, "name": "db1fa86d7358f4a3122a5cdd395cdd29", "bike_id": "db1fa86d7358f4a3122a5cdd395cdd29", "lon": -76.9837685, "fusion_lat": 0.0, "rental_uris": {"android": "https://dc.lft.to/lastmile_qr_scan", "ios": "https://dc.lft.to/lastmile_qr_scan"}, "type": "electric_scooter"}, {"is_reserved": 0, "is_disabled": 0, "fusion_lon": 0.0, "lat": 38.88711166666667, "name": "6fa0d032a1c6a6786da859dc218051f6", "bike_id": "6fa0d032a1c6a6786da859dc218051f6", "lon": -76.98344516666667, "fusion_lat": 0.0, "rental_uris": {"android": "https://dc.lft.to/lastmile_qr_scan", "ios": "https://dc.lft.to/lastmile_qr_scan"}, "type": "electric_scooter"}, {"is_reserved": 0, "is_disabled": 0, "fusion_lon": 0.0, "lat": 38.80382766666666, "name": "6b2b44a75b8edb38e48ca2993c0d33b3", "bike_id": "6b2b44a75b8edb38e48ca2993c0d33b3", "lon": -76.98817933333333, "fusion_lat": 0.0, "rental_uris": {"android": "https://dc.lft.to/lastmile_qr_scan", "ios": "https://dc.lft.to/lastmile_qr_scan"}, "type": "electric_bike"}, {"is_reserved": 0, "is_disabled": 0, "fusion_lon": 0.0, "lat": 38.9067355, "name": "c47660b92e1a9e9221179926a7293aad", "bike_id": "c47660b92e1a9e9221179926a7293aad", "lon": -76.9837795, "fusion_lat": 0.0, "rental_uris": {"android": "https://dc.lft.to/lastmile_qr_scan", "ios": "https://dc.lft.to/lastmile_qr_scan"}, "type": "electric_scooter"}, {"is_reserved": 0, "is_disabled": 0, "fusion_lon": 0.0, "lat": 38.937027666666665, "name": "e389510c8500d8a69b83acc569efe3b1", "bike_id": "e389510c8500d8a69b83acc569efe3b1", "lon": -77.023976, "fusion_lat": 0.0, "rental_uris": {"android": "https://dc.lft.to/lastmile_qr_scan", "ios": "https://dc.lft.to/lastmile_qr_scan"}, "type": "electric_scooter"}, {"is_reserved": 0, "is_disabled": 0, "fusion_lon": 0.0, "lat": 38.9387105, "name": "ffca1fb7ce5a0b127fe69eb6b77c40ce", "bike_id": "ffca1fb7ce5a0b127fe69eb6b77c40ce", "lon": -77.03398866666667, "fusion_lat": 0.0, "rental_uris": {"android": "https://dc.lft.to/lastmile_qr_scan", "ios": "https://dc.lft.to/lastmile_qr_scan"}, "type": "electric_scooter"}, {"is_reserved": 0, "is_disabled": 0, "fusion_lon": 0.0, "lat": 38.912692666666665, "name": "e2c36e513c6d2b2ede4cb07fbe0c24f9", "bike_id": "e2c36e513c6d2b2ede4cb07fbe0c24f9", "lon": -77.0221535, "fusion_lat": 0.0, "rental_uris": {"android": "https://dc.lft.to/lastmile_qr_scan", "ios": "https://dc.lft.to/lastmile_qr_scan"}, "type": "electric_scooter"}, {"is_reserved": 0, "is_disabled": 0, "fusion_lon": 0.0, "lat": 38.898344, "name": "2597dde8984e888305ecbd573a7630ba", "bike_id": "2597dde8984e888305ecbd573a7630ba", "lon": -76.9464465, "fusion_lat": 0.0, "rental_uris": {"android": "https://dc.lft.to/lastmile_qr_scan", "ios": "https://dc.lft.to/lastmile_qr_scan"}, "type": "electric_scooter"}, {"is_reserved": 0, "is_disabled": 0, "fusion_lon": 0.0, "lat": 38.921515, "name": "5195787d63e78c3cfd30b1907dfcc9cc", "bike_id": "5195787d63e78c3cfd30b1907dfcc9cc", "lon": -77.04026266666666, "fusion_lat": 0.0, "rental_uris": {"android": "https://dc.lft.to/lastmile_qr_scan", "ios": "https://dc.lft.to/lastmile_qr_scan"}, "type": "electric_scooter"}, {"is_reserved": 0, "is_disabled": 0, "fusion_lon": 0.0, "lat": 38.88022733333333, "name": "68bb4f6274249385f21c8d97a0b1e2a7", "bike_id": "68bb4f6274249385f21c8d97a0b1e2a7", "lon": -76.94326, "fusion_lat": 0.0, "rental_uris": {"android": "https://dc.lft.to/lastmile_qr_scan", "ios": "https://dc.lft.to/lastmile_qr_scan"}, "type": "electric_scooter"}, {"is_reserved": 0, "is_disabled": 0, "fusion_lon": 0.0, "lat": 38.9156135, "name": "4bc2fe1950c26224af68273cb3c02c0b", "bike_id": "4bc2fe1950c26224af68273cb3c02c0b", "lon": -77.007194, "fusion_lat": 0.0, "rental_uris": {"android": "https://dc.lft.to/lastmile_qr_scan", "ios": "https://dc.lft.to/lastmile_qr_scan"}, "type": "electric_scooter"}, {"is_reserved": 0, "is_disabled": 0, "fusion_lon": 0.0, "lat": 38.90375733333333, "name": "b43981cead88ca21451a92990e92497c", "bike_id": "b43981cead88ca21451a92990e92497c", "lon": -77.036756, "fusion_lat": 0.0, "rental_uris": {"android": "https://dc.lft.to/lastmile_qr_scan", "ios": "https://dc.lft.to/lastmile_qr_scan"}, "type": "electric_scooter"}, {"is_reserved": 0, "is_disabled": 0, "fusion_lon": 0.0, "lat": 38.951146333333334, "name": "6a7071aed722a83972d1c1dbb5e00d11", "bike_id": "6a7071aed722a83972d1c1dbb5e00d11", "lon": -77.08870883333333, "fusion_lat": 0.0, "rental_uris": {"android": "https://dc.lft.to/lastmile_qr_scan", "ios": "https://dc.lft.to/lastmile_qr_scan"}, "type": "electric_bike"}, {"is_reserved": 0, "is_disabled": 0, "fusion_lon": 0.0, "lat": 38.9191155, "name": "70e4878d6e0f46debf38f7def755bf91", "bike_id": "70e4878d6e0f46debf38f7def755bf91", "lon": -77.02620466666667, "fusion_lat": 0.0, "rental_uris": {"android": "https://dc.lft.to/lastmile_qr_scan", "ios": "https://dc.lft.to/lastmile_qr_scan"}, "type": "electric_scooter"}, {"is_reserved": 0, "is_disabled": 0, "fusion_lon": 0.0, "lat": 38.89490933333333, "name": "5752bf6169fa0549a8ab8052c3bd7e91", "bike_id": "5752bf6169fa0549a8ab8052c3bd7e91", "lon": -76.94893083333334, "fusion_lat": 0.0, "rental_uris": {"android": "https://dc.lft.to/lastmile_qr_scan", "ios": "https://dc.lft.to/lastmile_qr_scan"}, "type": "electric_scooter"}, {"is_reserved": 0, "is_disabled": 0, "fusion_lon": 0.0, "lat": 38.89719083333333, "name": "3902a462c374ab723e5b3362bc1045e9", "bike_id": "3902a462c374ab723e5b3362bc1045e9", "lon": -77.00799366666666, "fusion_lat": 0.0, "rental_uris": {"android": "https://dc.lft.to/lastmile_qr_scan", "ios": "https://dc.lft.to/lastmile_qr_scan"}, "type": "electric_scooter"}, {"is_reserved": 0, "is_disabled": 0, "fusion_lon": 0.0, "lat": 38.934625833333335, "name": "00aa3e625c63700c20971e7ee5239e21", "bike_id": "00aa3e625c63700c20971e7ee5239e21", "lon": -77.058105, "fusion_lat": 0.0, "rental_uris": {"android": "https://dc.lft.to/lastmile_qr_scan", "ios": "https://dc.lft.to/lastmile_qr_scan"}, "type": "electric_scooter"}, {"is_reserved": 0, "is_disabled": 0, "fusion_lon": 0.0, "lat": 38.92481733333334, "name": "ca53830294a8bebf72333bb100d1b4ad", "bike_id": "ca53830294a8bebf72333bb100d1b4ad", "lon": -77.03000733333333, "fusion_lat": 0.0, "rental_uris": {"android": "https://dc.lft.to/lastmile_qr_scan", "ios": "https://dc.lft.to/lastmile_qr_scan"}, "type": "electric_scooter"}, {"is_reserved": 0, "is_disabled": 0, "fusion_lon": 0.0, "lat": 38.901034, "name": "6f4a87a57b41a9f64a86a81be23e8e67", "bike_id": "6f4a87a57b41a9f64a86a81be23e8e67", "lon": -77.01762066666667, "fusion_lat": 0.0, "rental_uris": {"android": "https://dc.lft.to/lastmile_qr_scan", "ios": "https://dc.lft.to/lastmile_qr_scan"}, "type": "electric_scooter"}, {"is_reserved": 0, "is_disabled": 0, "fusion_lon": 0.0, "lat": 38.95733666666667, "name": "1770a43dd1a142b864f83e9ea185eff0", "bike_id": "1770a43dd1a142b864f83e9ea185eff0", "lon": -77.0240375, "fusion_lat": 0.0, "rental_uris": {"android": "https://dc.lft.to/lastmile_qr_scan", "ios": "https://dc.lft.to/lastmile_qr_scan"}, "type": "electric_scooter"}, {"is_reserved": 0, "is_disabled": 0, "fusion_lon": 0.0, "lat": 38.90687783333333, "name": "633754f778de13537717d3d63ec70c48", "bike_id": "633754f778de13537717d3d63ec70c48", "lon": -77.02691066666667, "fusion_lat": 0.0, "rental_uris": {"android": "https://dc.lft.to/lastmile_qr_scan", "ios": "https://dc.lft.to/lastmile_qr_scan"}, "type": "electric_scooter"}, {"is_reserved": 0, "is_disabled": 0, "fusion_lon": 0.0, "lat": 38.909582666666665, "name": "0fb02f32957de530ce0c26409973449a", "bike_id": "0fb02f32957de530ce0c26409973449a", "lon": -77.02283333333334, "fusion_lat": 0.0, "rental_uris": {"android": "https://dc.lft.to/lastmile_qr_scan", "ios": "https://dc.lft.to/lastmile_qr_scan"}, "type": "electric_scooter"}, {"is_reserved": 0, "is_disabled": 0, "fusion_lon": 0.0, "lat": 38.9231925, "name": "5b0050bdc5434ba08b654d4481917146", "bike_id": "5b0050bdc5434ba08b654d4481917146", "lon": -77.02908266666667, "fusion_lat": 0.0, "rental_uris": {"android": "https://dc.lft.to/lastmile_qr_scan", "ios": "https://dc.lft.to/lastmile_qr_scan"}, "type": "electric_scooter"}, {"is_reserved": 0, "is_disabled": 0, "fusion_lon": 0.0, "lat": 38.9370595, "name": "4fe5e94008e6977b0ff4d1ce162ebd8b", "bike_id": "4fe5e94008e6977b0ff4d1ce162ebd8b", "lon": -77.05614883333334, "fusion_lat": 0.0, "rental_uris": {"android": "https://dc.lft.to/lastmile_qr_scan", "ios": "https://dc.lft.to/lastmile_qr_scan"}, "type": "electric_scooter"}, {"is_reserved": 0, "is_disabled": 0, "fusion_lon": 0.0, "lat": 38.908120833333335, "name": "6fd9460f9551f2a6167d621ed3370419", "bike_id": "6fd9460f9551f2a6167d621ed3370419", "lon": -77.03469683333333, "fusion_lat": 0.0, "rental_uris": {"android": "https://dc.lft.to/lastmile_qr_scan", "ios": "https://dc.lft.to/lastmile_qr_scan"}, "type": "electric_scooter"}, {"is_reserved": 0, "is_disabled": 0, "fusion_lon": 0.0, "lat": 38.903405166666666, "name": "b46732aa2d3b658a6006c6e8d8244477", "bike_id": "b46732aa2d3b658a6006c6e8d8244477", "lon": -76.98278333333333, "fusion_lat": 0.0, "rental_uris": {"android": "https://dc.lft.to/lastmile_qr_scan", "ios": "https://dc.lft.to/lastmile_qr_scan"}, "type": "electric_scooter"}, {"is_reserved": 0, "is_disabled": 0, "fusion_lon": 0.0, "lat": 38.90522816666667, "name": "bf5c72ce0010cb79bf7b770bbfccea99", "bike_id": "bf5c72ce0010cb79bf7b770bbfccea99", "lon": -77.064502, "fusion_lat": 0.0, "rental_uris": {"android": "https://dc.lft.to/lastmile_qr_scan", "ios": "https://dc.lft.to/lastmile_qr_scan"}, "type": "electric_scooter"}, {"is_reserved": 0, "is_disabled": 0, "fusion_lon": 0.0, "lat": 38.927597, "name": "5a96e40b033bb99f401facb10eefab09", "bike_id": "5a96e40b033bb99f401facb10eefab09", "lon": -77.03203, "fusion_lat": 0.0, "rental_uris": {"android": "https://dc.lft.to/lastmile_qr_scan", "ios": "https://dc.lft.to/lastmile_qr_scan"}, "type": "electric_scooter"}, {"is_reserved": 0, "is_disabled": 0, "fusion_lon": 0.0, "lat": 38.911225, "name": "dae8345d2aa36d0317f428bb5a19f61a", "bike_id": "dae8345d2aa36d0317f428bb5a19f61a", "lon": -77.0451395, "fusion_lat": 0.0, "rental_uris": {"android": "https://dc.lft.to/lastmile_qr_scan", "ios": "https://dc.lft.to/lastmile_qr_scan"}, "type": "electric_scooter"}, {"is_reserved": 0, "is_disabled": 0, "fusion_lon": 0.0, "lat": 38.899720333333335, "name": "7955c0278db05e83ace0cfa1af40eba6", "bike_id": "7955c0278db05e83ace0cfa1af40eba6", "lon": -77.03356033333333, "fusion_lat": 0.0, "rental_uris": {"android": "https://dc.lft.to/lastmile_qr_scan", "ios": "https://dc.lft.to/lastmile_qr_scan"}, "type": "electric_scooter"}, {"is_reserved": 0, "is_disabled": 0, "fusion_lon": 0.0, "lat": 38.93811, "name": "efa192f038c64bdc65c7bd5f3f432c07", "bike_id": "efa192f038c64bdc65c7bd5f3f432c07", "lon": -77.0598775, "fusion_lat": 0.0, "rental_uris": {"android": "https://dc.lft.to/lastmile_qr_scan", "ios": "https://dc.lft.to/lastmile_qr_scan"}, "type": "electric_scooter"}, {"is_reserved": 0, "is_disabled": 0, "fusion_lon": 0.0, "lat": 38.892224166666665, "name": "2e2de0be35b520dd62f2c409743db2ac", "bike_id": "2e2de0be35b520dd62f2c409743db2ac", "lon": -77.04361833333333, "fusion_lat": 0.0, "rental_uris": {"android": "https://dc.lft.to/lastmile_qr_scan", "ios": "https://dc.lft.to/lastmile_qr_scan"}, "type": "electric_scooter"}, {"is_reserved": 0, "is_disabled": 0, "fusion_lon": 0.0, "lat": 38.9163595, "name": "aca37174bbe12b08881ef03d930a0b9b", "bike_id": "aca37174bbe12b08881ef03d930a0b9b", "lon": -77.04818066666667, "fusion_lat": 0.0, "rental_uris": {"android": "https://dc.lft.to/lastmile_qr_scan", "ios": "https://dc.lft.to/lastmile_qr_scan"}, "type": "electric_scooter"}, {"is_reserved": 0, "is_disabled": 0, "fusion_lon": 0.0, "lat": 38.920618833333336, "name": "f5d55a5e3b16b7f63e5257a5143a55b6", "bike_id": "f5d55a5e3b16b7f63e5257a5143a55b6", "lon": -77.04195016666667, "fusion_lat": 0.0, "rental_uris": {"android": "https://dc.lft.to/lastmile_qr_scan", "ios": "https://dc.lft.to/lastmile_qr_scan"}, "type": "electric_scooter"}, {"is_reserved": 0, "is_disabled": 0, "fusion_lon": 0.0, "lat": 38.946742, "name": "99d50cc86becf62a4b6fd0b43feb3d6d", "bike_id": "99d50cc86becf62a4b6fd0b43feb3d6d", "lon": -76.993356, "fusion_lat": 0.0, "rental_uris": {"android": "https://dc.lft.to/lastmile_qr_scan", "ios": "https://dc.lft.to/lastmile_qr_scan"}, "type": "electric_bike"}, {"is_reserved": 0, "is_disabled": 0, "fusion_lon": 0.0, "lat": 38.900294, "name": "912b17f71847bad9860c1c6d61ee8398", "bike_id": "912b17f71847bad9860c1c6d61ee8398", "lon": -77.0434595, "fusion_lat": 0.0, "rental_uris": {"android": "https://dc.lft.to/lastmile_qr_scan", "ios": "https://dc.lft.to/lastmile_qr_scan"}, "type": "electric_scooter"}, {"is_reserved": 0, "is_disabled": 0, "fusion_lon": 0.0, "lat": 38.87891483333333, "name": "226dbec2eb33b4bcb5af6557478d3589", "bike_id": "226dbec2eb33b4bcb5af6557478d3589", "lon": -77.0058245, "fusion_lat": 0.0, "rental_uris": {"android": "https://dc.lft.to/lastmile_qr_scan", "ios": "https://dc.lft.to/lastmile_qr_scan"}, "type": "electric_scooter"}, {"is_reserved": 0, "is_disabled": 0, "fusion_lon": 0.0, "lat": 38.877072, "name": "c0260a5d2a8623290d943ae0c9d9272b", "bike_id": "c0260a5d2a8623290d943ae0c9d9272b", "lon": -77.01766783333333, "fusion_lat": 0.0, "rental_uris": {"android": "https://dc.lft.to/lastmile_qr_scan", "ios": "https://dc.lft.to/lastmile_qr_scan"}, "type": "electric_scooter"}, {"is_reserved": 0, "is_disabled": 0, "fusion_lon": 0.0, "lat": 38.924428166666665, "name": "f326c44a9043c64e44f5242b94f72688", "bike_id": "f326c44a9043c64e44f5242b94f72688", "lon": -77.04031433333333, "fusion_lat": 0.0, "rental_uris": {"android": "https://dc.lft.to/lastmile_qr_scan", "ios": "https://dc.lft.to/lastmile_qr_scan"}, "type": "electric_scooter"}, {"is_reserved": 0, "is_disabled": 0, "fusion_lon": 0.0, "lat": 38.92688233333333, "name": "05670399935093c74760d0ccaa0b5ae5", "bike_id": "05670399935093c74760d0ccaa0b5ae5", "lon": -77.02969283333333, "fusion_lat": 0.0, "rental_uris": {"android": "https://dc.lft.to/lastmile_qr_scan", "ios": "https://dc.lft.to/lastmile_qr_scan"}, "type": "electric_scooter"}, {"is_reserved": 0, "is_disabled": 0, "fusion_lon": 0.0, "lat": 38.905118, "name": "065d47f387ab95125817c8e31076ca13", "bike_id": "065d47f387ab95125817c8e31076ca13", "lon": -77.02956566666667, "fusion_lat": 0.0, "rental_uris": {"android": "https://dc.lft.to/lastmile_qr_scan", "ios": "https://dc.lft.to/lastmile_qr_scan"}, "type": "electric_scooter"}, {"is_reserved": 0, "is_disabled": 0, "fusion_lon": 0.0, "lat": 38.905786666666664, "name": "f224f171a949fc34c42397c873395126", "bike_id": "f224f171a949fc34c42397c873395126", "lon": -77.03424216666667, "fusion_lat": 0.0, "rental_uris": {"android": "https://dc.lft.to/lastmile_qr_scan", "ios": "https://dc.lft.to/lastmile_qr_scan"}, "type": "electric_scooter"}, {"is_reserved": 0, "is_disabled": 0, "fusion_lon": 0.0, "lat": 38.992329833333336, "name": "d1852d0a309fc2452a988d321495f713", "bike_id": "d1852d0a309fc2452a988d321495f713", "lon": -77.02383533333334, "fusion_lat": 0.0, "rental_uris": {"android": "https://dc.lft.to/lastmile_qr_scan", "ios": "https://dc.lft.to/lastmile_qr_scan"}, "type": "electric_bike"}, {"is_reserved": 0, "is_disabled": 0, "fusion_lon": 0.0, "lat": 38.92176416666667, "name": "8721bd28d08dbf4400a2ff0cd2cbb20c", "bike_id": "8721bd28d08dbf4400a2ff0cd2cbb20c", "lon": -77.04225666666666, "fusion_lat": 0.0, "rental_uris": {"android": "https://dc.lft.to/lastmile_qr_scan", "ios": "https://dc.lft.to/lastmile_qr_scan"}, "type": "electric_scooter"}, {"is_reserved": 0, "is_disabled": 0, "fusion_lon": 0.0, "lat": 38.90001616666667, "name": "526aad2c190aceed6be9f62afa012a85", "bike_id": "526aad2c190aceed6be9f62afa012a85", "lon": -76.99143766666667, "fusion_lat": 0.0, "rental_uris": {"android": "https://dc.lft.to/lastmile_qr_scan", "ios": "https://dc.lft.to/lastmile_qr_scan"}, "type": "electric_scooter"}, {"is_reserved": 0, "is_disabled": 0, "fusion_lon": 0.0, "lat": 38.960271666666664, "name": "d233253db8dba2eb7007dbdda9382238", "bike_id": "d233253db8dba2eb7007dbdda9382238", "lon": -77.03015183333333, "fusion_lat": 0.0, "rental_uris": {"android": "https://dc.lft.to/lastmile_qr_scan", "ios": "https://dc.lft.to/lastmile_qr_scan"}, "type": "electric_scooter"}, {"is_reserved": 0, "is_disabled": 0, "fusion_lon": 0.0, "lat": 38.8306225, "name": "b87f1ba261ebbf044fc028564b3451e2", "bike_id": "b87f1ba261ebbf044fc028564b3451e2", "lon": -77.00217133333334, "fusion_lat": 0.0, "rental_uris": {"android": "https://dc.lft.to/lastmile_qr_scan", "ios": "https://dc.lft.to/lastmile_qr_scan"}, "type": "electric_scooter"}, {"is_reserved": 0, "is_disabled": 0, "fusion_lon": 0.0, "lat": 38.91358966666667, "name": "60442252265425a2319f1a6e55c990eb", "bike_id": "60442252265425a2319f1a6e55c990eb", "lon": -77.01987183333334, "fusion_lat": 0.0, "rental_uris": {"android": "https://dc.lft.to/lastmile_qr_scan", "ios": "https://dc.lft.to/lastmile_qr_scan"}, "type": "electric_scooter"}, {"is_reserved": 0, "is_disabled": 0, "fusion_lon": 0.0, "lat": 38.848115166666666, "name": "057980bb44c57048747d14b6ab039168", "bike_id": "057980bb44c57048747d14b6ab039168", "lon": -76.95253616666666, "fusion_lat": 0.0, "rental_uris": {"android": "https://dc.lft.to/lastmile_qr_scan", "ios": "https://dc.lft.to/lastmile_qr_scan"}, "type": "electric_bike"}, {"is_reserved": 0, "is_disabled": 0, "fusion_lon": 0.0, "lat": 38.8886915, "name": "a30e28f02ccb98812f08f7b4f66d498a", "bike_id": "a30e28f02ccb98812f08f7b4f66d498a", "lon": -76.99029333333333, "fusion_lat": 0.0, "rental_uris": {"android": "https://dc.lft.to/lastmile_qr_scan", "ios": "https://dc.lft.to/lastmile_qr_scan"}, "type": "electric_scooter"}, {"is_reserved": 0, "is_disabled": 0, "fusion_lon": 0.0, "lat": 38.9090975, "name": "4d1fc884c0369ed5b2462c6f4507e9b9", "bike_id": "4d1fc884c0369ed5b2462c6f4507e9b9", "lon": -77.03390033333334, "fusion_lat": 0.0, "rental_uris": {"android": "https://dc.lft.to/lastmile_qr_scan", "ios": "https://dc.lft.to/lastmile_qr_scan"}, "type": "electric_scooter"}, {"is_reserved": 0, "is_disabled": 0, "fusion_lon": 0.0, "lat": 38.892285, "name": "b63c0383910f824f0632b216175e5670", "bike_id": "b63c0383910f824f0632b216175e5670", "lon": -77.031864, "fusion_lat": 0.0, "rental_uris": {"android": "https://dc.lft.to/lastmile_qr_scan", "ios": "https://dc.lft.to/lastmile_qr_scan"}, "type": "electric_scooter"}, {"is_reserved": 0, "is_disabled": 0, "fusion_lon": 0.0, "lat": 38.924566166666665, "name": "d715f5b274691ce9ebdc485828ef1804", "bike_id": "d715f5b274691ce9ebdc485828ef1804", "lon": -77.03379783333334, "fusion_lat": 0.0, "rental_uris": {"android": "https://dc.lft.to/lastmile_qr_scan", "ios": "https://dc.lft.to/lastmile_qr_scan"}, "type": "electric_scooter"}, {"is_reserved": 0, "is_disabled": 0, "fusion_lon": 0.0, "lat": 38.920745, "name": "67e2e8d8f1ae9e0d4848040309efb3d8", "bike_id": "67e2e8d8f1ae9e0d4848040309efb3d8", "lon": -77.04251416666666, "fusion_lat": 0.0, "rental_uris": {"android": "https://dc.lft.to/lastmile_qr_scan", "ios": "https://dc.lft.to/lastmile_qr_scan"}, "type": "electric_scooter"}, {"is_reserved": 0, "is_disabled": 0, "fusion_lon": 0.0, "lat": 38.89497883333333, "name": "c98f8f80c423a3203aec5a4ef827e33d", "bike_id": "c98f8f80c423a3203aec5a4ef827e33d", "lon": -77.046409, "fusion_lat": 0.0, "rental_uris": {"android": "https://dc.lft.to/lastmile_qr_scan", "ios": "https://dc.lft.to/lastmile_qr_scan"}, "type": "electric_scooter"}, {"is_reserved": 0, "is_disabled": 0, "fusion_lon": 0.0, "lat": 38.899288, "name": "95e0177b3c89f63c4082371e488353b6", "bike_id": "95e0177b3c89f63c4082371e488353b6", "lon": -77.04059866666667, "fusion_lat": 0.0, "rental_uris": {"android": "https://dc.lft.to/lastmile_qr_scan", "ios": "https://dc.lft.to/lastmile_qr_scan"}, "type": "electric_scooter"}, {"is_reserved": 0, "is_disabled": 0, "fusion_lon": 0.0, "lat": 38.907484333333336, "name": "46363840b304cd04bfb5434e5ab7d437", "bike_id": "46363840b304cd04bfb5434e5ab7d437", "lon": -77.0453905, "fusion_lat": 0.0, "rental_uris": {"android": "https://dc.lft.to/lastmile_qr_scan", "ios": "https://dc.lft.to/lastmile_qr_scan"}, "type": "electric_scooter"}, {"is_reserved": 0, "is_disabled": 0, "fusion_lon": 0.0, "lat": 38.93851683333333, "name": "432da5ce4a7aa0d36f3b6b6234c5d5a0", "bike_id": "432da5ce4a7aa0d36f3b6b6234c5d5a0", "lon": -77.024774, "fusion_lat": 0.0, "rental_uris": {"android": "https://dc.lft.to/lastmile_qr_scan", "ios": "https://dc.lft.to/lastmile_qr_scan"}, "type": "electric_scooter"}, {"is_reserved": 0, "is_disabled": 0, "fusion_lon": 0.0, "lat": 38.89737566666667, "name": "32e2e8e233ab971e129af979dce432e8", "bike_id": "32e2e8e233ab971e129af979dce432e8", "lon": -76.97579166666667, "fusion_lat": 0.0, "rental_uris": {"android": "https://dc.lft.to/lastmile_qr_scan", "ios": "https://dc.lft.to/lastmile_qr_scan"}, "type": "electric_scooter"}, {"is_reserved": 0, "is_disabled": 0, "fusion_lon": 0.0, "lat": 38.91728583333333, "name": "824ee0e43d84af30410391714ed63187", "bike_id": "824ee0e43d84af30410391714ed63187", "lon": -77.0321255, "fusion_lat": 0.0, "rental_uris": {"android": "https://dc.lft.to/lastmile_qr_scan", "ios": "https://dc.lft.to/lastmile_qr_scan"}, "type": "electric_scooter"}, {"is_reserved": 0, "is_disabled": 0, "fusion_lon": 0.0, "lat": 38.8790955, "name": "5f08ff18253da6fa529fa6629e74cab1", "bike_id": "5f08ff18253da6fa529fa6629e74cab1", "lon": -76.98678533333333, "fusion_lat": 0.0, "rental_uris": {"android": "https://dc.lft.to/lastmile_qr_scan", "ios": "https://dc.lft.to/lastmile_qr_scan"}, "type": "electric_scooter"}, {"is_reserved": 0, "is_disabled": 0, "fusion_lon": 0.0, "lat": 38.91361766666667, "name": "c3e7b5d14682ac62ea1d9ac53175fa96", "bike_id": "c3e7b5d14682ac62ea1d9ac53175fa96", "lon": -77.01998516666667, "fusion_lat": 0.0, "rental_uris": {"android": "https://dc.lft.to/lastmile_qr_scan", "ios": "https://dc.lft.to/lastmile_qr_scan"}, "type": "electric_scooter"}, {"is_reserved": 0, "is_disabled": 0, "fusion_lon": 0.0, "lat": 38.917174, "name": "94e349874361f30ca356ea6fbb6a2e47", "bike_id": "94e349874361f30ca356ea6fbb6a2e47", "lon": -77.0318875, "fusion_lat": 0.0, "rental_uris": {"android": "https://dc.lft.to/lastmile_qr_scan", "ios": "https://dc.lft.to/lastmile_qr_scan"}, "type": "electric_scooter"}, {"is_reserved": 0, "is_disabled": 0, "fusion_lon": 0.0, "lat": 38.901148, "name": "8d29edad56fd1ccdae5c0b38d4354ca9", "bike_id": "8d29edad56fd1ccdae5c0b38d4354ca9", "lon": -77.04989516666667, "fusion_lat": 0.0, "rental_uris": {"android": "https://dc.lft.to/lastmile_qr_scan", "ios": "https://dc.lft.to/lastmile_qr_scan"}, "type": "electric_scooter"}, {"is_reserved": 0, "is_disabled": 0, "fusion_lon": 0.0, "lat": 38.884592833333336, "name": "659f33e5c447a62fbd7b197a46bb70b0", "bike_id": "659f33e5c447a62fbd7b197a46bb70b0", "lon": -77.0004535, "fusion_lat": 0.0, "rental_uris": {"android": "https://dc.lft.to/lastmile_qr_scan", "ios": "https://dc.lft.to/lastmile_qr_scan"}, "type": "electric_scooter"}, {"is_reserved": 0, "is_disabled": 0, "fusion_lon": 0.0, "lat": 38.9163815, "name": "1ecfa9c123b9d0ab393593e139b9e7af", "bike_id": "1ecfa9c123b9d0ab393593e139b9e7af", "lon": -77.03216066666667, "fusion_lat": 0.0, "rental_uris": {"android": "https://dc.lft.to/lastmile_qr_scan", "ios": "https://dc.lft.to/lastmile_qr_scan"}, "type": "electric_scooter"}, {"is_reserved": 0, "is_disabled": 0, "fusion_lon": 0.0, "lat": 38.84702733333334, "name": "c2bd68734e5c699eb24dfcd827e291db", "bike_id": "c2bd68734e5c699eb24dfcd827e291db", "lon": -76.99626933333333, "fusion_lat": 0.0, "rental_uris": {"android": "https://dc.lft.to/lastmile_qr_scan", "ios": "https://dc.lft.to/lastmile_qr_scan"}, "type": "electric_scooter"}, {"is_reserved": 0, "is_disabled": 0, "fusion_lon": 0.0, "lat": 38.9240475, "name": "ae769dedaea7d3c27b5c7eb771e69246", "bike_id": "ae769dedaea7d3c27b5c7eb771e69246", "lon": -77.027233, "fusion_lat": 0.0, "rental_uris": {"android": "https://dc.lft.to/lastmile_qr_scan", "ios": "https://dc.lft.to/lastmile_qr_scan"}, "type": "electric_scooter"}, {"is_reserved": 0, "is_disabled": 0, "fusion_lon": 0.0, "lat": 38.904302, "name": "6d24444efdbc2f2dfd18e87b3b6334f4", "bike_id": "6d24444efdbc2f2dfd18e87b3b6334f4", "lon": -77.043575, "fusion_lat": 0.0, "rental_uris": {"android": "https://dc.lft.to/lastmile_qr_scan", "ios": "https://dc.lft.to/lastmile_qr_scan"}, "type": "electric_scooter"}, {"is_reserved": 0, "is_disabled": 0, "fusion_lon": 0.0, "lat": 38.89813216666667, "name": "68bf90eee1f6ad2d4b59ddb185a33056", "bike_id": "68bf90eee1f6ad2d4b59ddb185a33056", "lon": -77.02923966666667, "fusion_lat": 0.0, "rental_uris": {"android": "https://dc.lft.to/lastmile_qr_scan", "ios": "https://dc.lft.to/lastmile_qr_scan"}, "type": "electric_scooter"}, {"is_reserved": 0, "is_disabled": 0, "fusion_lon": 0.0, "lat": 38.87551066666666, "name": "dd67896001135a8db39b69dd2e312238", "bike_id": "dd67896001135a8db39b69dd2e312238", "lon": -77.005943, "fusion_lat": 0.0, "rental_uris": {"android": "https://dc.lft.to/lastmile_qr_scan", "ios": "https://dc.lft.to/lastmile_qr_scan"}, "type": "electric_scooter"}, {"is_reserved": 0, "is_disabled": 0, "fusion_lon": 0.0, "lat": 38.929917833333334, "name": "9e56ec51c6d8955cfdbac14482059f3c", "bike_id": "9e56ec51c6d8955cfdbac14482059f3c", "lon": -77.03778766666667, "fusion_lat": 0.0, "rental_uris": {"android": "https://dc.lft.to/lastmile_qr_scan", "ios": "https://dc.lft.to/lastmile_qr_scan"}, "type": "electric_scooter"}, {"is_reserved": 0, "is_disabled": 0, "fusion_lon": 0.0, "lat": 38.9003405, "name": "2f1599dd752beb762851eaeaf52c9033", "bike_id": "2f1599dd752beb762851eaeaf52c9033", "lon": -77.00213133333334, "fusion_lat": 0.0, "rental_uris": {"android": "https://dc.lft.to/lastmile_qr_scan", "ios": "https://dc.lft.to/lastmile_qr_scan"}, "type": "electric_scooter"}, {"is_reserved": 0, "is_disabled": 0, "fusion_lon": 0.0, "lat": 38.87656883333333, "name": "d9c8832f54e0e928d8b0002a7f5c2286", "bike_id": "d9c8832f54e0e928d8b0002a7f5c2286", "lon": -77.00243416666666, "fusion_lat": 0.0, "rental_uris": {"android": "https://dc.lft.to/lastmile_qr_scan", "ios": "https://dc.lft.to/lastmile_qr_scan"}, "type": "electric_scooter"}, {"is_reserved": 0, "is_disabled": 0, "fusion_lon": 0.0, "lat": 38.8968165, "name": "2c013216b9ccf9545a035f9edf88e22a", "bike_id": "2c013216b9ccf9545a035f9edf88e22a", "lon": -76.9630635, "fusion_lat": 0.0, "rental_uris": {"android": "https://dc.lft.to/lastmile_qr_scan", "ios": "https://dc.lft.to/lastmile_qr_scan"}, "type": "electric_bike"}, {"is_reserved": 0, "is_disabled": 0, "fusion_lon": 0.0, "lat": 38.923124333333334, "name": "8350f59857e2d7baaeb2a9146fdc6752", "bike_id": "8350f59857e2d7baaeb2a9146fdc6752", "lon": -77.0271905, "fusion_lat": 0.0, "rental_uris": {"android": "https://dc.lft.to/lastmile_qr_scan", "ios": "https://dc.lft.to/lastmile_qr_scan"}, "type": "electric_scooter"}, {"is_reserved": 0, "is_disabled": 0, "fusion_lon": 0.0, "lat": 38.99801133333333, "name": "f3b830ed5d0303cb633ddfdbeaefca09", "bike_id": "f3b830ed5d0303cb633ddfdbeaefca09", "lon": -77.028866, "fusion_lat": 0.0, "rental_uris": {"android": "https://dc.lft.to/lastmile_qr_scan", "ios": "https://dc.lft.to/lastmile_qr_scan"}, "type": "electric_bike"}, {"is_reserved": 0, "is_disabled": 0, "fusion_lon": 0.0, "lat": 38.92761766666667, "name": "0e82146391f2a2a460ad0bdc71b51923", "bike_id": "0e82146391f2a2a460ad0bdc71b51923", "lon": -77.032141, "fusion_lat": 0.0, "rental_uris": {"android": "https://dc.lft.to/lastmile_qr_scan", "ios": "https://dc.lft.to/lastmile_qr_scan"}, "type": "electric_scooter"}, {"is_reserved": 0, "is_disabled": 0, "fusion_lon": 0.0, "lat": 38.9130125, "name": "8aa0dcfb7f3325280384130ecf816044", "bike_id": "8aa0dcfb7f3325280384130ecf816044", "lon": -77.03656016666666, "fusion_lat": 0.0, "rental_uris": {"android": "https://dc.lft.to/lastmile_qr_scan", "ios": "https://dc.lft.to/lastmile_qr_scan"}, "type": "electric_scooter"}, {"is_reserved": 0, "is_disabled": 0, "fusion_lon": 0.0, "lat": 38.918353333333336, "name": "ced0f99bf5a8eb81a8aa9f537ace04ba", "bike_id": "ced0f99bf5a8eb81a8aa9f537ace04ba", "lon": -77.0229885, "fusion_lat": 0.0, "rental_uris": {"android": "https://dc.lft.to/lastmile_qr_scan", "ios": "https://dc.lft.to/lastmile_qr_scan"}, "type": "electric_scooter"}, {"is_reserved": 0, "is_disabled": 0, "fusion_lon": 0.0, "lat": 38.914342833333336, "name": "84d4346c5823b8ef14c531bc1dcbc0fe", "bike_id": "84d4346c5823b8ef14c531bc1dcbc0fe", "lon": -77.003592, "fusion_lat": 0.0, "rental_uris": {"android": "https://dc.lft.to/lastmile_qr_scan", "ios": "https://dc.lft.to/lastmile_qr_scan"}, "type": "electric_scooter"}, {"is_reserved": 0, "is_disabled": 0, "fusion_lon": 0.0, "lat": 38.91914716666667, "name": "79c8813896b9969b82b5908fa38f39db", "bike_id": "79c8813896b9969b82b5908fa38f39db", "lon": -77.03329916666667, "fusion_lat": 0.0, "rental_uris": {"android": "https://dc.lft.to/lastmile_qr_scan", "ios": "https://dc.lft.to/lastmile_qr_scan"}, "type": "electric_scooter"}, {"is_reserved": 0, "is_disabled": 0, "fusion_lon": 0.0, "lat": 38.894785666666664, "name": "6ee927a130a084c5dc6b68c42335c44b", "bike_id": "6ee927a130a084c5dc6b68c42335c44b", "lon": -77.041878, "fusion_lat": 0.0, "rental_uris": {"android": "https://dc.lft.to/lastmile_qr_scan", "ios": "https://dc.lft.to/lastmile_qr_scan"}, "type": "electric_scooter"}, {"is_reserved": 0, "is_disabled": 0, "fusion_lon": 0.0, "lat": 38.842198833333335, "name": "54e3145eb4500c29455c5bceb3ff1d0b", "bike_id": "54e3145eb4500c29455c5bceb3ff1d0b", "lon": -76.94904283333334, "fusion_lat": 0.0, "rental_uris": {"android": "https://dc.lft.to/lastmile_qr_scan", "ios": "https://dc.lft.to/lastmile_qr_scan"}, "type": "electric_bike"}, {"is_reserved": 0, "is_disabled": 0, "fusion_lon": 0.0, "lat": 38.92339483333333, "name": "e8758c2939de6e20ecec84582271fcb3", "bike_id": "e8758c2939de6e20ecec84582271fcb3", "lon": -77.0567955, "fusion_lat": 0.0, "rental_uris": {"android": "https://dc.lft.to/lastmile_qr_scan", "ios": "https://dc.lft.to/lastmile_qr_scan"}, "type": "electric_scooter"}, {"is_reserved": 0, "is_disabled": 0, "fusion_lon": 0.0, "lat": 38.892237, "name": "6277bef11b773561a952b6395c21261d", "bike_id": "6277bef11b773561a952b6395c21261d", "lon": -77.04870416666667, "fusion_lat": 0.0, "rental_uris": {"android": "https://dc.lft.to/lastmile_qr_scan", "ios": "https://dc.lft.to/lastmile_qr_scan"}, "type": "electric_scooter"}, {"is_reserved": 0, "is_disabled": 0, "fusion_lon": 0.0, "lat": 38.91125316666667, "name": "cd57fd10098c3865604ffbff4dd24b20", "bike_id": "cd57fd10098c3865604ffbff4dd24b20", "lon": -77.045136, "fusion_lat": 0.0, "rental_uris": {"android": "https://dc.lft.to/lastmile_qr_scan", "ios": "https://dc.lft.to/lastmile_qr_scan"}, "type": "electric_scooter"}, {"is_reserved": 0, "is_disabled": 0, "fusion_lon": 0.0, "lat": 38.86062283333333, "name": "04d6bdaa3d7ce8c615ed6cc669f0a8fe", "bike_id": "04d6bdaa3d7ce8c615ed6cc669f0a8fe", "lon": -76.9842825, "fusion_lat": 0.0, "rental_uris": {"android": "https://dc.lft.to/lastmile_qr_scan", "ios": "https://dc.lft.to/lastmile_qr_scan"}, "type": "electric_scooter"}, {"is_reserved": 0, "is_disabled": 0, "fusion_lon": 0.0, "lat": 38.92075883333333, "name": "18b62efeb3ad805f62a42d2eae113e86", "bike_id": "18b62efeb3ad805f62a42d2eae113e86", "lon": -77.02307883333333, "fusion_lat": 0.0, "rental_uris": {"android": "https://dc.lft.to/lastmile_qr_scan", "ios": "https://dc.lft.to/lastmile_qr_scan"}, "type": "electric_scooter"}, {"is_reserved": 0, "is_disabled": 0, "fusion_lon": 0.0, "lat": 38.9180095, "name": "95845df43ee3b7920abaf79ba65dd8f7", "bike_id": "95845df43ee3b7920abaf79ba65dd8f7", "lon": -77.04028666666666, "fusion_lat": 0.0, "rental_uris": {"android": "https://dc.lft.to/lastmile_qr_scan", "ios": "https://dc.lft.to/lastmile_qr_scan"}, "type": "electric_scooter"}, {"is_reserved": 0, "is_disabled": 0, "fusion_lon": 0.0, "lat": 38.902673, "name": "8ec5c48dbcb39522d16c2e232e658336", "bike_id": "8ec5c48dbcb39522d16c2e232e658336", "lon": -77.0299985, "fusion_lat": 0.0, "rental_uris": {"android": "https://dc.lft.to/lastmile_qr_scan", "ios": "https://dc.lft.to/lastmile_qr_scan"}, "type": "electric_scooter"}, {"is_reserved": 0, "is_disabled": 0, "fusion_lon": 0.0, "lat": 38.85221033333333, "name": "4614eeba67ba3e5d2491336ebeee8509", "bike_id": "4614eeba67ba3e5d2491336ebeee8509", "lon": -76.993772, "fusion_lat": 0.0, "rental_uris": {"android": "https://dc.lft.to/lastmile_qr_scan", "ios": "https://dc.lft.to/lastmile_qr_scan"}, "type": "electric_scooter"}, {"is_reserved": 0, "is_disabled": 0, "fusion_lon": 0.0, "lat": 38.914051666666666, "name": "0a13a1770f434bcdcd2bd5896d042290", "bike_id": "0a13a1770f434bcdcd2bd5896d042290", "lon": -77.032661, "fusion_lat": 0.0, "rental_uris": {"android": "https://dc.lft.to/lastmile_qr_scan", "ios": "https://dc.lft.to/lastmile_qr_scan"}, "type": "electric_scooter"}, {"is_reserved": 0, "is_disabled": 0, "fusion_lon": 0.0, "lat": 38.9203, "name": "f9fdca2b1553d5adc37ad5bc4b93dc7b", "bike_id": "f9fdca2b1553d5adc37ad5bc4b93dc7b", "lon": -77.0122315, "fusion_lat": 0.0, "rental_uris": {"android": "https://dc.lft.to/lastmile_qr_scan", "ios": "https://dc.lft.to/lastmile_qr_scan"}, "type": "electric_scooter"}, {"is_reserved": 0, "is_disabled": 0, "fusion_lon": 0.0, "lat": 38.955995333333334, "name": "7e2acecfbff11049b36d4cba759d7cca", "bike_id": "7e2acecfbff11049b36d4cba759d7cca", "lon": -77.0102435, "fusion_lat": 0.0, "rental_uris": {"android": "https://dc.lft.to/lastmile_qr_scan", "ios": "https://dc.lft.to/lastmile_qr_scan"}, "type": "electric_bike"}, {"is_reserved": 0, "is_disabled": 0, "fusion_lon": 0.0, "lat": 38.92700083333333, "name": "7cf295a34612afa88474b37626024f48", "bike_id": "7cf295a34612afa88474b37626024f48", "lon": -77.02070266666666, "fusion_lat": 0.0, "rental_uris": {"android": "https://dc.lft.to/lastmile_qr_scan", "ios": "https://dc.lft.to/lastmile_qr_scan"}, "type": "electric_scooter"}, {"is_reserved": 0, "is_disabled": 0, "fusion_lon": 0.0, "lat": 38.92563833333333, "name": "4dae0bbb4629da2ce16ef60ddc13377f", "bike_id": "4dae0bbb4629da2ce16ef60ddc13377f", "lon": -77.0228405, "fusion_lat": 0.0, "rental_uris": {"android": "https://dc.lft.to/lastmile_qr_scan", "ios": "https://dc.lft.to/lastmile_qr_scan"}, "type": "electric_scooter"}, {"is_reserved": 0, "is_disabled": 0, "fusion_lon": 0.0, "lat": 38.94384483333333, "name": "327cf200b60d6b4607695e756d870921", "bike_id": "327cf200b60d6b4607695e756d870921", "lon": -77.06374383333333, "fusion_lat": 0.0, "rental_uris": {"android": "https://dc.lft.to/lastmile_qr_scan", "ios": "https://dc.lft.to/lastmile_qr_scan"}, "type": "electric_scooter"}, {"is_reserved": 0, "is_disabled": 0, "fusion_lon": 0.0, "lat": 38.91105616666667, "name": "7b7c1f21aef884ea238861d5015d5782", "bike_id": "7b7c1f21aef884ea238861d5015d5782", "lon": -77.03864216666666, "fusion_lat": 0.0, "rental_uris": {"android": "https://dc.lft.to/lastmile_qr_scan", "ios": "https://dc.lft.to/lastmile_qr_scan"}, "type": "electric_scooter"}, {"is_reserved": 0, "is_disabled": 0, "fusion_lon": 0.0, "lat": 38.92607133333333, "name": "6b5b018cd68e72d966ce07b3d2bcc4cd", "bike_id": "6b5b018cd68e72d966ce07b3d2bcc4cd", "lon": -76.98202033333334, "fusion_lat": 0.0, "rental_uris": {"android": "https://dc.lft.to/lastmile_qr_scan", "ios": "https://dc.lft.to/lastmile_qr_scan"}, "type": "electric_scooter"}, {"is_reserved": 0, "is_disabled": 0, "fusion_lon": 0.0, "lat": 38.92142833333333, "name": "c522b1f4c5bdccd85bf888225b852609", "bike_id": "c522b1f4c5bdccd85bf888225b852609", "lon": -77.01800366666667, "fusion_lat": 0.0, "rental_uris": {"android": "https://dc.lft.to/lastmile_qr_scan", "ios": "https://dc.lft.to/lastmile_qr_scan"}, "type": "electric_scooter"}, {"is_reserved": 0, "is_disabled": 0, "fusion_lon": 0.0, "lat": 38.924509666666665, "name": "3aa152e07a659e28d1614a7967ca6559", "bike_id": "3aa152e07a659e28d1614a7967ca6559", "lon": -77.05229183333333, "fusion_lat": 0.0, "rental_uris": {"android": "https://dc.lft.to/lastmile_qr_scan", "ios": "https://dc.lft.to/lastmile_qr_scan"}, "type": "electric_scooter"}, {"is_reserved": 0, "is_disabled": 0, "fusion_lon": 0.0, "lat": 38.80737083333333, "name": "28be2ddd35284b31f87062dc23bec664", "bike_id": "28be2ddd35284b31f87062dc23bec664", "lon": -77.0969325, "fusion_lat": 0.0, "rental_uris": {"android": "https://dc.lft.to/lastmile_qr_scan", "ios": "https://dc.lft.to/lastmile_qr_scan"}, "type": "electric_bike"}, {"is_reserved": 0, "is_disabled": 0, "fusion_lon": 0.0, "lat": 38.919961666666666, "name": "1eebb99eb0b78f810d1b969f887ddb6e", "bike_id": "1eebb99eb0b78f810d1b969f887ddb6e", "lon": -77.02391983333334, "fusion_lat": 0.0, "rental_uris": {"android": "https://dc.lft.to/lastmile_qr_scan", "ios": "https://dc.lft.to/lastmile_qr_scan"}, "type": "electric_scooter"}, {"is_reserved": 0, "is_disabled": 0, "fusion_lon": 0.0, "lat": 38.888199166666666, "name": "8d8d8db39b479a7195c2c03f32eb9e0f", "bike_id": "8d8d8db39b479a7195c2c03f32eb9e0f", "lon": -76.9770665, "fusion_lat": 0.0, "rental_uris": {"android": "https://dc.lft.to/lastmile_qr_scan", "ios": "https://dc.lft.to/lastmile_qr_scan"}, "type": "electric_scooter"}, {"is_reserved": 0, "is_disabled": 0, "fusion_lon": 0.0, "lat": 38.9223645, "name": "0d1b5a246df4db5c93acb13fd1a1731e", "bike_id": "0d1b5a246df4db5c93acb13fd1a1731e", "lon": -77.02125216666667, "fusion_lat": 0.0, "rental_uris": {"android": "https://dc.lft.to/lastmile_qr_scan", "ios": "https://dc.lft.to/lastmile_qr_scan"}, "type": "electric_scooter"}, {"is_reserved": 0, "is_disabled": 0, "fusion_lon": 0.0, "lat": 38.88187716666667, "name": "6dfa64f6215aef814223650a69a04f32", "bike_id": "6dfa64f6215aef814223650a69a04f32", "lon": -77.02856666666666, "fusion_lat": 0.0, "rental_uris": {"android": "https://dc.lft.to/lastmile_qr_scan", "ios": "https://dc.lft.to/lastmile_qr_scan"}, "type": "electric_scooter"}, {"is_reserved": 0, "is_disabled": 0, "fusion_lon": 0.0, "lat": 38.89918433333333, "name": "9f5885360d92290a86b51dbbd7411802", "bike_id": "9f5885360d92290a86b51dbbd7411802", "lon": -77.04884233333334, "fusion_lat": 0.0, "rental_uris": {"android": "https://dc.lft.to/lastmile_qr_scan", "ios": "https://dc.lft.to/lastmile_qr_scan"}, "type": "electric_scooter"}, {"is_reserved": 0, "is_disabled": 0, "fusion_lon": 0.0, "lat": 38.891896333333335, "name": "d654ae19d8a5500c6145f460f9277888", "bike_id": "d654ae19d8a5500c6145f460f9277888", "lon": -77.03676883333333, "fusion_lat": 0.0, "rental_uris": {"android": "https://dc.lft.to/lastmile_qr_scan", "ios": "https://dc.lft.to/lastmile_qr_scan"}, "type": "electric_scooter"}, {"is_reserved": 0, "is_disabled": 0, "fusion_lon": 0.0, "lat": 38.92461383333333, "name": "f15cb0456f2aaf2aaa6e0efc580f24e3", "bike_id": "f15cb0456f2aaf2aaa6e0efc580f24e3", "lon": -77.02157, "fusion_lat": 0.0, "rental_uris": {"android": "https://dc.lft.to/lastmile_qr_scan", "ios": "https://dc.lft.to/lastmile_qr_scan"}, "type": "electric_scooter"}, {"is_reserved": 0, "is_disabled": 0, "fusion_lon": 0.0, "lat": 38.9335625, "name": "5bac55009925296554f126337f9c52cb", "bike_id": "5bac55009925296554f126337f9c52cb", "lon": -77.024126, "fusion_lat": 0.0, "rental_uris": {"android": "https://dc.lft.to/lastmile_qr_scan", "ios": "https://dc.lft.to/lastmile_qr_scan"}, "type": "electric_scooter"}, {"is_reserved": 0, "is_disabled": 0, "fusion_lon": 0.0, "lat": 38.9173555, "name": "3ffd13476b2e33fc0fc7e7754652ffe9", "bike_id": "3ffd13476b2e33fc0fc7e7754652ffe9", "lon": -77.0212205, "fusion_lat": 0.0, "rental_uris": {"android": "https://dc.lft.to/lastmile_qr_scan", "ios": "https://dc.lft.to/lastmile_qr_scan"}, "type": "electric_scooter"}, {"is_reserved": 0, "is_disabled": 0, "fusion_lon": 0.0, "lat": 38.93143416666667, "name": "12f257e6efdb12c0af1579b09fdea783", "bike_id": "12f257e6efdb12c0af1579b09fdea783", "lon": -77.0569795, "fusion_lat": 0.0, "rental_uris": {"android": "https://dc.lft.to/lastmile_qr_scan", "ios": "https://dc.lft.to/lastmile_qr_scan"}, "type": "electric_scooter"}, {"is_reserved": 0, "is_disabled": 0, "fusion_lon": 0.0, "lat": 38.92507416666667, "name": "c62120d44588c681bd75feaaea22ced7", "bike_id": "c62120d44588c681bd75feaaea22ced7", "lon": -77.02579383333334, "fusion_lat": 0.0, "rental_uris": {"android": "https://dc.lft.to/lastmile_qr_scan", "ios": "https://dc.lft.to/lastmile_qr_scan"}, "type": "electric_scooter"}, {"is_reserved": 0, "is_disabled": 0, "fusion_lon": 0.0, "lat": 38.92344033333333, "name": "a175f09b82b04d3116bd9fede39d32f8", "bike_id": "a175f09b82b04d3116bd9fede39d32f8", "lon": -77.034182, "fusion_lat": 0.0, "rental_uris": {"android": "https://dc.lft.to/lastmile_qr_scan", "ios": "https://dc.lft.to/lastmile_qr_scan"}, "type": "electric_scooter"}, {"is_reserved": 0, "is_disabled": 0, "fusion_lon": 0.0, "lat": 38.908864666666666, "name": "5426a0978afe9b265eabb9fb8f00294b", "bike_id": "5426a0978afe9b265eabb9fb8f00294b", "lon": -77.021896, "fusion_lat": 0.0, "rental_uris": {"android": "https://dc.lft.to/lastmile_qr_scan", "ios": "https://dc.lft.to/lastmile_qr_scan"}, "type": "electric_bike"}, {"is_reserved": 0, "is_disabled": 0, "fusion_lon": 0.0, "lat": 38.88524816666666, "name": "ab9d992191195084ba96f9fb51f61890", "bike_id": "ab9d992191195084ba96f9fb51f61890", "lon": -77.01473166666666, "fusion_lat": 0.0, "rental_uris": {"android": "https://dc.lft.to/lastmile_qr_scan", "ios": "https://dc.lft.to/lastmile_qr_scan"}, "type": "electric_scooter"}, {"is_reserved": 0, "is_disabled": 0, "fusion_lon": 0.0, "lat": 38.90375133333333, "name": "21fcaf6bc5ceb7eacdf7e1e07e321df7", "bike_id": "21fcaf6bc5ceb7eacdf7e1e07e321df7", "lon": -77.053343, "fusion_lat": 0.0, "rental_uris": {"android": "https://dc.lft.to/lastmile_qr_scan", "ios": "https://dc.lft.to/lastmile_qr_scan"}, "type": "electric_scooter"}, {"is_reserved": 0, "is_disabled": 0, "fusion_lon": 0.0, "lat": 38.9308235, "name": "73540364b5afbc72408e3b4da9ab2a55", "bike_id": "73540364b5afbc72408e3b4da9ab2a55", "lon": -77.02793833333334, "fusion_lat": 0.0, "rental_uris": {"android": "https://dc.lft.to/lastmile_qr_scan", "ios": "https://dc.lft.to/lastmile_qr_scan"}, "type": "electric_scooter"}, {"is_reserved": 0, "is_disabled": 0, "fusion_lon": 0.0, "lat": 38.91115583333333, "name": "5c9fea7386622b022f0cfce08f79bb7b", "bike_id": "5c9fea7386622b022f0cfce08f79bb7b", "lon": -77.007692, "fusion_lat": 0.0, "rental_uris": {"android": "https://dc.lft.to/lastmile_qr_scan", "ios": "https://dc.lft.to/lastmile_qr_scan"}, "type": "electric_scooter"}, {"is_reserved": 0, "is_disabled": 0, "fusion_lon": 0.0, "lat": 38.907787166666665, "name": "43e02b98ac18f81343c22445ca54ae56", "bike_id": "43e02b98ac18f81343c22445ca54ae56", "lon": -77.01831, "fusion_lat": 0.0, "rental_uris": {"android": "https://dc.lft.to/lastmile_qr_scan", "ios": "https://dc.lft.to/lastmile_qr_scan"}, "type": "electric_scooter"}, {"is_reserved": 0, "is_disabled": 0, "fusion_lon": 0.0, "lat": 38.918299833333336, "name": "7fb7a1f238f0685d4fea96467f0739f9", "bike_id": "7fb7a1f238f0685d4fea96467f0739f9", "lon": -77.05319533333333, "fusion_lat": 0.0, "rental_uris": {"android": "https://dc.lft.to/lastmile_qr_scan", "ios": "https://dc.lft.to/lastmile_qr_scan"}, "type": "electric_scooter"}, {"is_reserved": 0, "is_disabled": 0, "fusion_lon": 0.0, "lat": 38.91816033333333, "name": "8412152aaefd0e27bda529f242eb7e71", "bike_id": "8412152aaefd0e27bda529f242eb7e71", "lon": -77.02475933333334, "fusion_lat": 0.0, "rental_uris": {"android": "https://dc.lft.to/lastmile_qr_scan", "ios": "https://dc.lft.to/lastmile_qr_scan"}, "type": "electric_scooter"}, {"is_reserved": 0, "is_disabled": 0, "fusion_lon": 0.0, "lat": 38.924694833333334, "name": "a8c744ece6409b7c4ec98a9a25a37792", "bike_id": "a8c744ece6409b7c4ec98a9a25a37792", "lon": -77.027159, "fusion_lat": 0.0, "rental_uris": {"android": "https://dc.lft.to/lastmile_qr_scan", "ios": "https://dc.lft.to/lastmile_qr_scan"}, "type": "electric_scooter"}, {"is_reserved": 0, "is_disabled": 0, "fusion_lon": 0.0, "lat": 38.89251133333333, "name": "462e454c8dada7617936c4acb1ac1fe6", "bike_id": "462e454c8dada7617936c4acb1ac1fe6", "lon": -77.03960416666666, "fusion_lat": 0.0, "rental_uris": {"android": "https://dc.lft.to/lastmile_qr_scan", "ios": "https://dc.lft.to/lastmile_qr_scan"}, "type": "electric_scooter"}, {"is_reserved": 0, "is_disabled": 0, "fusion_lon": 0.0, "lat": 38.908614666666665, "name": "d281c7f907124c9005f5a68c9c45d569", "bike_id": "d281c7f907124c9005f5a68c9c45d569", "lon": -77.08073, "fusion_lat": 0.0, "rental_uris": {"android": "https://dc.lft.to/lastmile_qr_scan", "ios": "https://dc.lft.to/lastmile_qr_scan"}, "type": "electric_bike"}, {"is_reserved": 0, "is_disabled": 0, "fusion_lon": 0.0, "lat": 38.90708933333333, "name": "24a4ce9d57e25ceae6e3f40c1aad713d", "bike_id": "24a4ce9d57e25ceae6e3f40c1aad713d", "lon": -76.99824233333334, "fusion_lat": 0.0, "rental_uris": {"android": "https://dc.lft.to/lastmile_qr_scan", "ios": "https://dc.lft.to/lastmile_qr_scan"}, "type": "electric_scooter"}, {"is_reserved": 0, "is_disabled": 0, "fusion_lon": 0.0, "lat": 38.9026815, "name": "d51d42e433e0c82a1d70fc3875863236", "bike_id": "d51d42e433e0c82a1d70fc3875863236", "lon": -77.04480166666667, "fusion_lat": 0.0, "rental_uris": {"android": "https://dc.lft.to/lastmile_qr_scan", "ios": "https://dc.lft.to/lastmile_qr_scan"}, "type": "electric_scooter"}, {"is_reserved": 0, "is_disabled": 0, "fusion_lon": 0.0, "lat": 38.928636166666664, "name": "7a6812d8a0401cfcb2f38fb49a884225", "bike_id": "7a6812d8a0401cfcb2f38fb49a884225", "lon": -77.03719916666667, "fusion_lat": 0.0, "rental_uris": {"android": "https://dc.lft.to/lastmile_qr_scan", "ios": "https://dc.lft.to/lastmile_qr_scan"}, "type": "electric_scooter"}, {"is_reserved": 0, "is_disabled": 0, "fusion_lon": 0.0, "lat": 38.929612666666664, "name": "de7917a5f7e2a30add6e0ee1fb922efd", "bike_id": "de7917a5f7e2a30add6e0ee1fb922efd", "lon": -77.0412765, "fusion_lat": 0.0, "rental_uris": {"android": "https://dc.lft.to/lastmile_qr_scan", "ios": "https://dc.lft.to/lastmile_qr_scan"}, "type": "electric_scooter"}, {"is_reserved": 0, "is_disabled": 0, "fusion_lon": 0.0, "lat": 38.84278, "name": "0ba2effd0fc4f92c31905bac37fc48cf", "bike_id": "0ba2effd0fc4f92c31905bac37fc48cf", "lon": -76.988412, "fusion_lat": 0.0, "rental_uris": {"android": "https://dc.lft.to/lastmile_qr_scan", "ios": "https://dc.lft.to/lastmile_qr_scan"}, "type": "electric_bike"}, {"is_reserved": 0, "is_disabled": 0, "fusion_lon": 0.0, "lat": 38.899703, "name": "09872d854380999dc2c2594d8911bfff", "bike_id": "09872d854380999dc2c2594d8911bfff", "lon": -77.01624433333333, "fusion_lat": 0.0, "rental_uris": {"android": "https://dc.lft.to/lastmile_qr_scan", "ios": "https://dc.lft.to/lastmile_qr_scan"}, "type": "electric_scooter"}, {"is_reserved": 0, "is_disabled": 0, "fusion_lon": 0.0, "lat": 38.897577, "name": "71fe51d5ac3ac6a680930f3292d9a1a7", "bike_id": "71fe51d5ac3ac6a680930f3292d9a1a7", "lon": -77.00953616666666, "fusion_lat": 0.0, "rental_uris": {"android": "https://dc.lft.to/lastmile_qr_scan", "ios": "https://dc.lft.to/lastmile_qr_scan"}, "type": "electric_scooter"}, {"is_reserved": 0, "is_disabled": 0, "fusion_lon": 0.0, "lat": 38.918049, "name": "1a13e1ab2470405ba97efd511366f19b", "bike_id": "1a13e1ab2470405ba97efd511366f19b", "lon": -77.02721633333333, "fusion_lat": 0.0, "rental_uris": {"android": "https://dc.lft.to/lastmile_qr_scan", "ios": "https://dc.lft.to/lastmile_qr_scan"}, "type": "electric_scooter"}, {"is_reserved": 0, "is_disabled": 0, "fusion_lon": 0.0, "lat": 38.92228633333333, "name": "c955013733c6fc0c2a18184f825f3818", "bike_id": "c955013733c6fc0c2a18184f825f3818", "lon": -77.04307033333333, "fusion_lat": 0.0, "rental_uris": {"android": "https://dc.lft.to/lastmile_qr_scan", "ios": "https://dc.lft.to/lastmile_qr_scan"}, "type": "electric_scooter"}, {"is_reserved": 0, "is_disabled": 0, "fusion_lon": 0.0, "lat": 38.857917, "name": "470dd080f01a8067fa851b103abf7f98", "bike_id": "470dd080f01a8067fa851b103abf7f98", "lon": -77.0996195, "fusion_lat": 0.0, "rental_uris": {"android": "https://dc.lft.to/lastmile_qr_scan", "ios": "https://dc.lft.to/lastmile_qr_scan"}, "type": "electric_bike"}, {"is_reserved": 0, "is_disabled": 0, "fusion_lon": 0.0, "lat": 38.876794, "name": "aa8e35befae647b2e30e0144349c0705", "bike_id": "aa8e35befae647b2e30e0144349c0705", "lon": -77.01438116666667, "fusion_lat": 0.0, "rental_uris": {"android": "https://dc.lft.to/lastmile_qr_scan", "ios": "https://dc.lft.to/lastmile_qr_scan"}, "type": "electric_bike"}, {"is_reserved": 0, "is_disabled": 0, "fusion_lon": 0.0, "lat": 38.924752166666664, "name": "61390e2377d11f9da88de890f679f823", "bike_id": "61390e2377d11f9da88de890f679f823", "lon": -77.03793933333333, "fusion_lat": 0.0, "rental_uris": {"android": "https://dc.lft.to/lastmile_qr_scan", "ios": "https://dc.lft.to/lastmile_qr_scan"}, "type": "electric_scooter"}, {"is_reserved": 0, "is_disabled": 0, "fusion_lon": 0.0, "lat": 38.9242265, "name": "97a0007a5afbad2de0ca37d6bc36e89f", "bike_id": "97a0007a5afbad2de0ca37d6bc36e89f", "lon": -77.021313, "fusion_lat": 0.0, "rental_uris": {"android": "https://dc.lft.to/lastmile_qr_scan", "ios": "https://dc.lft.to/lastmile_qr_scan"}, "type": "electric_scooter"}, {"is_reserved": 0, "is_disabled": 0, "fusion_lon": 0.0, "lat": 38.901676, "name": "b45c7e761f6ce99fd9730ca915c60c20", "bike_id": "b45c7e761f6ce99fd9730ca915c60c20", "lon": -77.04886483333334, "fusion_lat": 0.0, "rental_uris": {"android": "https://dc.lft.to/lastmile_qr_scan", "ios": "https://dc.lft.to/lastmile_qr_scan"}, "type": "electric_scooter"}, {"is_reserved": 0, "is_disabled": 0, "fusion_lon": 0.0, "lat": 38.904453333333336, "name": "dee28e649e130e837df1c36982eb7c05", "bike_id": "dee28e649e130e837df1c36982eb7c05", "lon": -77.04354966666666, "fusion_lat": 0.0, "rental_uris": {"android": "https://dc.lft.to/lastmile_qr_scan", "ios": "https://dc.lft.to/lastmile_qr_scan"}, "type": "electric_scooter"}, {"is_reserved": 0, "is_disabled": 0, "fusion_lon": 0.0, "lat": 38.95067433333333, "name": "d3ac8d1490e09ab0d662cfafd470cb8a", "bike_id": "d3ac8d1490e09ab0d662cfafd470cb8a", "lon": -76.97083683333334, "fusion_lat": 0.0, "rental_uris": {"android": "https://dc.lft.to/lastmile_qr_scan", "ios": "https://dc.lft.to/lastmile_qr_scan"}, "type": "electric_bike"}, {"is_reserved": 0, "is_disabled": 0, "fusion_lon": 0.0, "lat": 38.902103833333335, "name": "22a0705721d068d9067d6366d841e824", "bike_id": "22a0705721d068d9067d6366d841e824", "lon": -77.02829883333334, "fusion_lat": 0.0, "rental_uris": {"android": "https://dc.lft.to/lastmile_qr_scan", "ios": "https://dc.lft.to/lastmile_qr_scan"}, "type": "electric_scooter"}, {"is_reserved": 0, "is_disabled": 0, "fusion_lon": 0.0, "lat": 38.914818333333336, "name": "5d41447175e4ea9db21fbd0c1473da0c", "bike_id": "5d41447175e4ea9db21fbd0c1473da0c", "lon": -77.0218515, "fusion_lat": 0.0, "rental_uris": {"android": "https://dc.lft.to/lastmile_qr_scan", "ios": "https://dc.lft.to/lastmile_qr_scan"}, "type": "electric_scooter"}, {"is_reserved": 0, "is_disabled": 0, "fusion_lon": 0.0, "lat": 38.904818166666665, "name": "45575dc8e50de95d288552c7f7162a2c", "bike_id": "45575dc8e50de95d288552c7f7162a2c", "lon": -77.0012975, "fusion_lat": 0.0, "rental_uris": {"android": "https://dc.lft.to/lastmile_qr_scan", "ios": "https://dc.lft.to/lastmile_qr_scan"}, "type": "electric_scooter"},