{"data": {"bikes": [{"fusion_lat": 0.0, "name": "910e14c9a6fd6790e4335d17411a6695", "is_disabled": 0, "rental_uris": {"android": "https://dc.lft.to/lastmile_qr_scan", "ios": "https://dc.lft.to/lastmile_qr_scan"}, "fusion_lon": 0.0, "lat": 38.866287, "bike_id": "910e14c9a6fd6790e4335d17411a6695", "type": "electric_scooter", "is_reserved": 0, "lon": -76.98717016666667}, {"fusion_lat": 0.0, "name": "74135df31c67f2e82afea315d1580592", "is_disabled": 0, "rental_uris": {"android": "https://dc.lft.to/lastmile_qr_scan", "ios": "https://dc.lft.to/lastmile_qr_scan"}, "fusion_lon": 0.0, "lat": 38.89963866666667, "bike_id": "74135df31c67f2e82afea315d1580592", "type": "electric_scooter", "is_reserved": 0, "lon": -77.0466005}, {"fusion_lat": 0.0, "name": "a10ccc13fce7d239e2b2ff1e71bdbfdc", "is_disabled": 0, "rental_uris": {"android": "https://dc.lft.to/lastmile_qr_scan", "ios": "https://dc.lft.to/lastmile_qr_scan"}, "fusion_lon": 0.0, "lat": 38.892262333333335, "bike_id": "a10ccc13fce7d239e2b2ff1e71bdbfdc", "type": "electric_scooter", "is_reserved": 0, "lon": -77.046881}, {"fusion_lat": 0.0, "name": "e561c282028dc0a2503a5790174533f4", "is_disabled": 0, "rental_uris": {"android": "https://dc.lft.to/lastmile_qr_scan", "ios": "https://dc.lft.to/lastmile_qr_scan"}, "fusion_lon": 0.0, "lat": 38.93155866666667, "bike_id": "e561c282028dc0a2503a5790174533f4", "type": "electric_scooter", "is_reserved": 0, "lon": -77.07860283333333}, {"fusion_lat": 0.0, "name": "8a678e040babd333b7d8dbf947e8b7ee", "is_disabled": 0, "rental_uris": {"android": "https://dc.lft.to/lastmile_qr_scan", "ios": "https://dc.lft.to/lastmile_qr_scan"}, "fusion_lon": 0.0, "lat": 38.880168, "bike_id": "8a678e040babd333b7d8dbf947e8b7ee", "type": "electric_scooter", "is_reserved": 0, "lon": -77.024789}, {"fusion_lat": 0.0, "name": "fd271bd7d78c41293e3bcee2ca311edb", "is_disabled": 0, "rental_uris": {"android": "https://dc.lft.to/lastmile_qr_scan", "ios": "https://dc.lft.to/lastmile_qr_scan"}, "fusion_lon": 0.0, "lat": 38.94446583333333, "bike_id": "fd271bd7d78c41293e3bcee2ca311edb", "type": "electric_scooter", "is_reserved": 0, "lon": -77.02342583333333}, {"fusion_lat": 0.0, "name": "12cb6e3a4376fab3ff00b8d7df4a5445", "is_disabled": 0, "rental_uris": {"android": "https://dc.lft.to/lastmile_qr_scan", "ios": "https://dc.lft.to/lastmile_qr_scan"}, "fusion_lon": 0.0, "lat": 38.9073415, "bike_id": "12cb6e3a4376fab3ff00b8d7df4a5445", "type": "electric_scooter", "is_reserved": 0, "lon": -77.02506883333334}, {"fusion_lat": 0.0, "name": "0fc87f90a526547393c3582aebf9eadd", "is_disabled": 0, "rental_uris": {"android": "https://dc.lft.to/lastmile_qr_scan", "ios": "https://dc.lft.to/lastmile_qr_scan"}, "fusion_lon": 0.0, "lat": 38.90679266666667, "bike_id": "0fc87f90a526547393c3582aebf9eadd", "type": "electric_scooter", "is_reserved": 0, "lon": -77.02383966666666}, {"fusion_lat": 0.0, "name": "4b5b9014c31594b7e2cb702aeb069552", "is_disabled": 0, "rental_uris": {"android": "https://dc.lft.to/lastmile_qr_scan", "ios": "https://dc.lft.to/lastmile_qr_scan"}, "fusion_lon": 0.0, "lat": 38.9725745, "bike_id": "4b5b9014c31594b7e2cb702aeb069552", "type": "electric_bike", "is_reserved": 0, "lon": -76.99274916666667}, {"fusion_lat": 0.0, "name": "867bb3e02c52ffda0aaaa4c6432e8234", "is_disabled": 0, "rental_uris": {"android": "https://dc.lft.to/lastmile_qr_scan", "ios": "https://dc.lft.to/lastmile_qr_scan"}, "fusion_lon": 0.0, "lat": 38.923163833333334, "bike_id": "867bb3e02c52ffda0aaaa4c6432e8234", "type": "electric_scooter", "is_reserved": 0, "lon": -77.02974383333333}, {"fusion_lat": 0.0, "name": "6cabf9633d8e7c29b07abf11d49a5cb2", "is_disabled": 0, "rental_uris": {"android": "https://dc.lft.to/lastmile_qr_scan", "ios": "https://dc.lft.to/lastmile_qr_scan"}, "fusion_lon": 0.0, "lat": 38.917412666666664, "bike_id": "6cabf9633d8e7c29b07abf11d49a5cb2", "type": "electric_scooter", "is_reserved": 0, "lon": -77.02119516666667}, {"fusion_lat": 0.0, "name": "05a498eff2ae7f6d98aea9fabee31d4c", "is_disabled": 0, "rental_uris": {"android": "https://dc.lft.to/lastmile_qr_scan", "ios": "https://dc.lft.to/lastmile_qr_scan"}, "fusion_lon": 0.0, "lat": 38.89674633333333, "bike_id": "05a498eff2ae7f6d98aea9fabee31d4c", "type": "electric_scooter", "is_reserved": 0, "lon": -77.05153233333333}, {"fusion_lat": 0.0, "name": "bb109f06349719bf48ecff2f18edf461", "is_disabled": 0, "rental_uris": {"android": "https://dc.lft.to/lastmile_qr_scan", "ios": "https://dc.lft.to/lastmile_qr_scan"}, "fusion_lon": 0.0, "lat": 38.90667533333333, "bike_id": "bb109f06349719bf48ecff2f18edf461", "type": "electric_scooter", "is_reserved": 0, "lon": -77.07521116666666}, {"fusion_lat": 0.0, "name": "94881adc919cb4469871e8268c9bf71f", "is_disabled": 0, "rental_uris": {"android": "https://dc.lft.to/lastmile_qr_scan", "ios": "https://dc.lft.to/lastmile_qr_scan"}, "fusion_lon": 0.0, "lat": 38.894754, "bike_id": "94881adc919cb4469871e8268c9bf71f", "type": "electric_scooter", "is_reserved": 0, "lon": -77.02666966666666}, {"fusion_lat": 0.0, "name": "3ba94b16c4bf5f1ac7146b4e33615db2", "is_disabled": 0, "rental_uris": {"android": "https://dc.lft.to/lastmile_qr_scan", "ios": "https://dc.lft.to/lastmile_qr_scan"}, "fusion_lon": 0.0, "lat": 38.922398, "bike_id": "3ba94b16c4bf5f1ac7146b4e33615db2", "type": "electric_scooter", "is_reserved": 0, "lon": -77.0366065}, {"fusion_lat": 0.0, "name": "02d4ecfed40c863a806a20c8e9f42008", "is_disabled": 0, "rental_uris": {"android": "https://dc.lft.to/lastmile_qr_scan", "ios": "https://dc.lft.to/lastmile_qr_scan"}, "fusion_lon": 0.0, "lat": 38.883305666666665, "bike_id": "02d4ecfed40c863a806a20c8e9f42008", "type": "electric_scooter", "is_reserved": 0, "lon": -77.01391916666667}, {"fusion_lat": 0.0, "name": "5e9dfa6ab9fa176279d688420af8a10f", "is_disabled": 0, "rental_uris": {"android": "https://dc.lft.to/lastmile_qr_scan", "ios": "https://dc.lft.to/lastmile_qr_scan"}, "fusion_lon": 0.0, "lat": 39.03408616666667, "bike_id": "5e9dfa6ab9fa176279d688420af8a10f", "type": "electric_bike", "is_reserved": 0, "lon": -77.04304366666666}, {"fusion_lat": 0.0, "name": "f847850a15bd140b1a46501b4520ef93", "is_disabled": 0, "rental_uris": {"android": "https://dc.lft.to/lastmile_qr_scan", "ios": "https://dc.lft.to/lastmile_qr_scan"}, "fusion_lon": 0.0, "lat": 38.9245205, "bike_id": "f847850a15bd140b1a46501b4520ef93", "type": "electric_scooter", "is_reserved": 0, "lon": -77.0087925}, {"fusion_lat": 0.0, "name": "b428d65e510fdab00d973c34b729e696", "is_disabled": 0, "rental_uris": {"android": "https://dc.lft.to/lastmile_qr_scan", "ios": "https://dc.lft.to/lastmile_qr_scan"}, "fusion_lon": 0.0, "lat": 38.89216783333333, "bike_id": "b428d65e510fdab00d973c34b729e696", "type": "electric_scooter", "is_reserved": 0, "lon": -77.04307566666667}, {"fusion_lat": 0.0, "name": "e4de3349efd7db634182f1fa1678a5ae", "is_disabled": 0, "rental_uris": {"android": "https://dc.lft.to/lastmile_qr_scan", "ios": "https://dc.lft.to/lastmile_qr_scan"}, "fusion_lon": 0.0, "lat": 38.884130666666664, "bike_id": "e4de3349efd7db634182f1fa1678a5ae", "type": "electric_scooter", "is_reserved": 0, "lon": -77.025918}, {"fusion_lat": 0.0, "name": "74d285f1513cd9674d9e36ce66f13e9f", "is_disabled": 0, "rental_uris": {"android": "https://dc.lft.to/lastmile_qr_scan", "ios": "https://dc.lft.to/lastmile_qr_scan"}, "fusion_lon": 0.0, "lat": 38.927452333333335, "bike_id": "74d285f1513cd9674d9e36ce66f13e9f", "type": "electric_scooter", "is_reserved": 0, "lon": -77.02306116666666}, {"fusion_lat": 0.0, "name": "99e7a4a0e8d6b98a365ee75e742034b5", "is_disabled": 0, "rental_uris": {"android": "https://dc.lft.to/lastmile_qr_scan", "ios": "https://dc.lft.to/lastmile_qr_scan"}, "fusion_lon": 0.0, "lat": 38.902602333333334, "bike_id": "99e7a4a0e8d6b98a365ee75e742034b5", "type": "electric_scooter", "is_reserved": 0, "lon": -77.03336266666666}, {"fusion_lat": 0.0, "name": "98aed97cebfdaf9c9577f9e21ddc33da", "is_disabled": 0, "rental_uris": {"android": "https://dc.lft.to/lastmile_qr_scan", "ios": "https://dc.lft.to/lastmile_qr_scan"}, "fusion_lon": 0.0, "lat": 38.89863783333333, "bike_id": "98aed97cebfdaf9c9577f9e21ddc33da", "type": "electric_scooter", "is_reserved": 0, "lon": -77.028193}, {"fusion_lat": 0.0, "name": "37d1bb01b9b6f49eee2b787c1eaf0623", "is_disabled": 0, "rental_uris": {"android": "https://dc.lft.to/lastmile_qr_scan", "ios": "https://dc.lft.to/lastmile_qr_scan"}, "fusion_lon": 0.0, "lat": 38.893834166666664, "bike_id": "37d1bb01b9b6f49eee2b787c1eaf0623", "type": "electric_scooter", "is_reserved": 0, "lon": -76.92303933333334}, {"fusion_lat": 0.0, "name": "216029a6e279863e505f37a03b8c82ce", "is_disabled": 0, "rental_uris": {"android": "https://dc.lft.to/lastmile_qr_scan", "ios": "https://dc.lft.to/lastmile_qr_scan"}, "fusion_lon": 0.0, "lat": 38.898582833333336, "bike_id": "216029a6e279863e505f37a03b8c82ce", "type": "electric_scooter", "is_reserved": 0, "lon": -76.94639733333334}, {"fusion_lat": 0.0, "name": "7502e5f973549ded8ae43f36c70744fd", "is_disabled": 0, "rental_uris": {"android": "https://dc.lft.to/lastmile_qr_scan", "ios": "https://dc.lft.to/lastmile_qr_scan"}, "fusion_lon": 0.0, "lat": 38.8617745, "bike_id": "7502e5f973549ded8ae43f36c70744fd", "type": "electric_scooter", "is_reserved": 0, "lon": -76.96905033333333}, {"fusion_lat": 0.0, "name": "d75a67e286f0304a2684593e34c87a01", "is_disabled": 0, "rental_uris": {"android": "https://dc.lft.to/lastmile_qr_scan", "ios": "https://dc.lft.to/lastmile_qr_scan"}, "fusion_lon": 0.0, "lat": 38.907878833333335, "bike_id": "d75a67e286f0304a2684593e34c87a01", "type": "electric_scooter", "is_reserved": 0, "lon": -77.07256333333333}, {"fusion_lat": 0.0, "name": "1aad81e1e4d04ac443a47e0d43e0f864", "is_disabled": 0, "rental_uris": {"android": "https://dc.lft.to/lastmile_qr_scan", "ios": "https://dc.lft.to/lastmile_qr_scan"}, "fusion_lon": 0.0, "lat": 38.89965016666667, "bike_id": "1aad81e1e4d04ac443a47e0d43e0f864", "type": "electric_scooter", "is_reserved": 0, "lon": -77.015233}, {"fusion_lat": 0.0, "name": "40af437532b7384ae9d93c5655f33f44", "is_disabled": 0, "rental_uris": {"android": "https://dc.lft.to/lastmile_qr_scan", "ios": "https://dc.lft.to/lastmile_qr_scan"}, "fusion_lon": 0.0, "lat": 38.920953833333336, "bike_id": "40af437532b7384ae9d93c5655f33f44", "type": "electric_scooter", "is_reserved": 0, "lon": -77.02200133333334}, {"fusion_lat": 0.0, "name": "5a7f229caf5bb0d08794bc59ef6c37f4", "is_disabled": 0, "rental_uris": {"android": "https://dc.lft.to/lastmile_qr_scan", "ios": "https://dc.lft.to/lastmile_qr_scan"}, "fusion_lon": 0.0, "lat": 38.905338, "bike_id": "5a7f229caf5bb0d08794bc59ef6c37f4", "type": "electric_scooter", "is_reserved": 0, "lon": -77.05117666666666}, {"fusion_lat": 0.0, "name": "8cc1a2b2f781f3664935c93b7454a2ec", "is_disabled": 0, "rental_uris": {"android": "https://dc.lft.to/lastmile_qr_scan", "ios": "https://dc.lft.to/lastmile_qr_scan"}, "fusion_lon": 0.0, "lat": 38.949555833333335, "bike_id": "8cc1a2b2f781f3664935c93b7454a2ec", "type": "electric_scooter", "is_reserved": 0, "lon": -77.02314616666666}, {"fusion_lat": 0.0, "name": "fadaaaf6be827008d75008a023fec7df", "is_disabled": 0, "rental_uris": {"android": "https://dc.lft.to/lastmile_qr_scan", "ios": "https://dc.lft.to/lastmile_qr_scan"}, "fusion_lon": 0.0, "lat": 38.9338195, "bike_id": "fadaaaf6be827008d75008a023fec7df", "type": "electric_scooter", "is_reserved": 0, "lon": -77.026758}, {"fusion_lat": 0.0, "name": "b92e49fa1f47160b219ada32b515cf17", "is_disabled": 0, "rental_uris": {"android": "https://dc.lft.to/lastmile_qr_scan", "ios": "https://dc.lft.to/lastmile_qr_scan"}, "fusion_lon": 0.0, "lat": 39.05634633333333, "bike_id": "b92e49fa1f47160b219ada32b515cf17", "type": "electric_bike", "is_reserved": 0, "lon": -77.12526183333334}, {"fusion_lat": 0.0, "name": "30ea0658608674fa96402e930006c7c5", "is_disabled": 0, "rental_uris": {"android": "https://dc.lft.to/lastmile_qr_scan", "ios": "https://dc.lft.to/lastmile_qr_scan"}, "fusion_lon": 0.0, "lat": 38.90470466666667, "bike_id": "30ea0658608674fa96402e930006c7c5", "type": "electric_scooter", "is_reserved": 0, "lon": -77.05132516666667}, {"fusion_lat": 0.0, "name": "281b7e74ece44947da5d1b2e962eb0c8", "is_disabled": 0, "rental_uris": {"android": "https://dc.lft.to/lastmile_qr_scan", "ios": "https://dc.lft.to/lastmile_qr_scan"}, "fusion_lon": 0.0, "lat": 38.910470833333335, "bike_id": "281b7e74ece44947da5d1b2e962eb0c8", "type": "electric_scooter", "is_reserved": 0, "lon": -77.06391}, {"fusion_lat": 0.0, "name": "09fe47318c1fe07afbec024c424bc580", "is_disabled": 0, "rental_uris": {"android": "https://dc.lft.to/lastmile_qr_scan", "ios": "https://dc.lft.to/lastmile_qr_scan"}, "fusion_lon": 0.0, "lat": 38.922736666666665, "bike_id": "09fe47318c1fe07afbec024c424bc580", "type": "electric_scooter", "is_reserved": 0, "lon": -77.0423855}, {"fusion_lat": 0.0, "name": "bafc1c4e49907e1c8566b3c24422b09b", "is_disabled": 0, "rental_uris": {"android": "https://dc.lft.to/lastmile_qr_scan", "ios": "https://dc.lft.to/lastmile_qr_scan"}, "fusion_lon": 0.0, "lat": 38.919764, "bike_id": "bafc1c4e49907e1c8566b3c24422b09b", "type": "electric_scooter", "is_reserved": 0, "lon": -77.03283016666667}, {"fusion_lat": 0.0, "name": "e3a6d616c6d3bf828ef8645a3a518ef9", "is_disabled": 0, "rental_uris": {"android": "https://dc.lft.to/lastmile_qr_scan", "ios": "https://dc.lft.to/lastmile_qr_scan"}, "fusion_lon": 0.0, "lat": 38.910069666666665, "bike_id": "e3a6d616c6d3bf828ef8645a3a518ef9", "type": "electric_scooter", "is_reserved": 0, "lon": -76.99407366666667}, {"fusion_lat": 0.0, "name": "cbbfa41575c836b18d6e831b826e5557", "is_disabled": 0, "rental_uris": {"android": "https://dc.lft.to/lastmile_qr_scan", "ios": "https://dc.lft.to/lastmile_qr_scan"}, "fusion_lon": 0.0, "lat": 38.883724, "bike_id": "cbbfa41575c836b18d6e831b826e5557", "type": "electric_scooter", "is_reserved": 0, "lon": -76.99574583333333}, {"fusion_lat": 0.0, "name": "9a5e72649299684874e12461741933b4", "is_disabled": 0, "rental_uris": {"android": "https://dc.lft.to/lastmile_qr_scan", "ios": "https://dc.lft.to/lastmile_qr_scan"}, "fusion_lon": 0.0, "lat": 38.90599233333333, "bike_id": "9a5e72649299684874e12461741933b4", "type": "electric_scooter", "is_reserved": 0, "lon": -77.04191566666667}, {"fusion_lat": 0.0, "name": "df74ad751d8f4f79d5c39c4a6bddf9b7", "is_disabled": 0, "rental_uris": {"android": "https://dc.lft.to/lastmile_qr_scan", "ios": "https://dc.lft.to/lastmile_qr_scan"}, "fusion_lon": 0.0, "lat": 38.96140916666667, "bike_id": "df74ad751d8f4f79d5c39c4a6bddf9b7", "type": "electric_scooter", "is_reserved": 0, "lon": -77.02816283333334}, {"fusion_lat": 0.0, "name": "69fe68516bab494f1ba4af649c39a47c", "is_disabled": 0, "rental_uris": {"android": "https://dc.lft.to/lastmile_qr_scan", "ios": "https://dc.lft.to/lastmile_qr_scan"}, "fusion_lon": 0.0, "lat": 38.90572183333333, "bike_id": "69fe68516bab494f1ba4af649c39a47c", "type": "electric_scooter", "is_reserved": 0, "lon": -77.05126816666667}, {"fusion_lat": 0.0, "name": "02715c9f17d0cf1941ed94d221b2c75b", "is_disabled": 0, "rental_uris": {"android": "https://dc.lft.to/lastmile_qr_scan", "ios": "https://dc.lft.to/lastmile_qr_scan"}, "fusion_lon": 0.0, "lat": 38.885110833333336, "bike_id": "02715c9f17d0cf1941ed94d221b2c75b", "type": "electric_scooter", "is_reserved": 0, "lon": -77.0149655}, {"fusion_lat": 0.0, "name": "247f952799316c34e9bf9338b8d9c462", "is_disabled": 0, "rental_uris": {"android": "https://dc.lft.to/lastmile_qr_scan", "ios": "https://dc.lft.to/lastmile_qr_scan"}, "fusion_lon": 0.0, "lat": 38.902210833333335, "bike_id": "247f952799316c34e9bf9338b8d9c462", "type": "electric_scooter", "is_reserved": 0, "lon": -77.059445}, {"fusion_lat": 0.0, "name": "67cc7e69b6f7d5e3cdaef9084874843e", "is_disabled": 0, "rental_uris": {"android": "https://dc.lft.to/lastmile_qr_scan", "ios": "https://dc.lft.to/lastmile_qr_scan"}, "fusion_lon": 0.0, "lat": 38.920784833333336, "bike_id": "67cc7e69b6f7d5e3cdaef9084874843e", "type": "electric_bike", "is_reserved": 0, "lon": -76.98944}, {"fusion_lat": 0.0, "name": "48331ba274d1d412def19a950675cb26", "is_disabled": 0, "rental_uris": {"android": "https://dc.lft.to/lastmile_qr_scan", "ios": "https://dc.lft.to/lastmile_qr_scan"}, "fusion_lon": 0.0, "lat": 38.94161116666667, "bike_id": "48331ba274d1d412def19a950675cb26", "type": "electric_scooter", "is_reserved": 0, "lon": -77.0250105}, {"fusion_lat": 0.0, "name": "ec0d93834200ace28c337988ddea79ab", "is_disabled": 0, "rental_uris": {"android": "https://dc.lft.to/lastmile_qr_scan", "ios": "https://dc.lft.to/lastmile_qr_scan"}, "fusion_lon": 0.0, "lat": 38.92360333333333, "bike_id": "ec0d93834200ace28c337988ddea79ab", "type": "electric_scooter", "is_reserved": 0, "lon": -77.050524}, {"fusion_lat": 0.0, "name": "5127634c9d3f1747bf9bac4940cb59ff", "is_disabled": 0, "rental_uris": {"android": "https://dc.lft.to/lastmile_qr_scan", "ios": "https://dc.lft.to/lastmile_qr_scan"}, "fusion_lon": 0.0, "lat": 38.919008833333336, "bike_id": "5127634c9d3f1747bf9bac4940cb59ff", "type": "electric_scooter", "is_reserved": 0, "lon": -77.02753583333333}, {"fusion_lat": 0.0, "name": "c2d515ca62373a3289c4b652a7ffec50", "is_disabled": 0, "rental_uris": {"android": "https://dc.lft.to/lastmile_qr_scan", "ios": "https://dc.lft.to/lastmile_qr_scan"}, "fusion_lon": 0.0, "lat": 38.794726, "bike_id": "c2d515ca62373a3289c4b652a7ffec50", "type": "electric_bike", "is_reserved": 0, "lon": -76.9924795}, {"fusion_lat": 0.0, "name": "55a6729ffc779ad76f09886828272128", "is_disabled": 0, "rental_uris": {"android": "https://dc.lft.to/lastmile_qr_scan", "ios": "https://dc.lft.to/lastmile_qr_scan"}, "fusion_lon": 0.0, "lat": 38.9225115, "bike_id": "55a6729ffc779ad76f09886828272128", "type": "electric_scooter", "is_reserved": 0, "lon": -77.02976}, {"fusion_lat": 0.0, "name": "e7fbdd850c9cb2670989b585e4371a86", "is_disabled": 0, "rental_uris": {"android": "https://dc.lft.to/lastmile_qr_scan", "ios": "https://dc.lft.to/lastmile_qr_scan"}, "fusion_lon": 0.0, "lat": 38.903811, "bike_id": "e7fbdd850c9cb2670989b585e4371a86", "type": "electric_scooter", "is_reserved": 0, "lon": -77.044421}, {"fusion_lat": 0.0, "name": "bcaccd139b737dd8bf5b9324af96c136", "is_disabled": 0, "rental_uris": {"android": "https://dc.lft.to/lastmile_qr_scan", "ios": "https://dc.lft.to/lastmile_qr_scan"}, "fusion_lon": 0.0, "lat": 38.960472833333334, "bike_id": "bcaccd139b737dd8bf5b9324af96c136", "type": "electric_bike", "is_reserved": 0, "lon": -76.99588683333333}, {"fusion_lat": 0.0, "name": "723abfef50bba8ac3feb4f1fa47be821", "is_disabled": 0, "rental_uris": {"android": "https://dc.lft.to/lastmile_qr_scan", "ios": "https://dc.lft.to/lastmile_qr_scan"}, "fusion_lon": 0.0, "lat": 38.90777283333333, "bike_id": "723abfef50bba8ac3feb4f1fa47be821", "type": "electric_scooter", "is_reserved": 0, "lon": -77.07166183333334}, {"fusion_lat": 0.0, "name": "ef88b46563c7a36f4357c9f3146d14b6", "is_disabled": 0, "rental_uris": {"android": "https://dc.lft.to/lastmile_qr_scan", "ios": "https://dc.lft.to/lastmile_qr_scan"}, "fusion_lon": 0.0, "lat": 38.90027033333333, "bike_id": "ef88b46563c7a36f4357c9f3146d14b6", "type": "electric_scooter", "is_reserved": 0, "lon": -77.05826633333334}, {"fusion_lat": 0.0, "name": "38a1c25113fd99d393649fd7256a04d3", "is_disabled": 0, "rental_uris": {"android": "https://dc.lft.to/lastmile_qr_scan", "ios": "https://dc.lft.to/lastmile_qr_scan"}, "fusion_lon": 0.0, "lat": 38.9483225, "bike_id": "38a1c25113fd99d393649fd7256a04d3", "type": "electric_scooter", "is_reserved": 0, "lon": -77.025655}, {"fusion_lat": 0.0, "name": "4049c44f11411bcb00f32f166ff1401c", "is_disabled": 0, "rental_uris": {"android": "https://dc.lft.to/lastmile_qr_scan", "ios": "https://dc.lft.to/lastmile_qr_scan"}, "fusion_lon": 0.0, "lat": 38.93570616666667, "bike_id": "4049c44f11411bcb00f32f166ff1401c", "type": "electric_scooter", "is_reserved": 0, "lon": -77.03512716666667}, {"fusion_lat": 0.0, "name": "9d06e91e725e602a9d1ab7adb1b499c7", "is_disabled": 0, "rental_uris": {"android": "https://dc.lft.to/lastmile_qr_scan", "ios": "https://dc.lft.to/lastmile_qr_scan"}, "fusion_lon": 0.0, "lat": 38.90056366666666, "bike_id": "9d06e91e725e602a9d1ab7adb1b499c7", "type": "electric_scooter", "is_reserved": 0, "lon": -77.036618}, {"fusion_lat": 0.0, "name": "834329385010548c0e5db4ae2da68fbb", "is_disabled": 0, "rental_uris": {"android": "https://dc.lft.to/lastmile_qr_scan", "ios": "https://dc.lft.to/lastmile_qr_scan"}, "fusion_lon": 0.0, "lat": 38.892206333333334, "bike_id": "834329385010548c0e5db4ae2da68fbb", "type": "electric_scooter", "is_reserved": 0, "lon": -77.02427816666666}, {"fusion_lat": 0.0, "name": "5a715d31b4b03897077c874d7d992cb8", "is_disabled": 0, "rental_uris": {"android": "https://dc.lft.to/lastmile_qr_scan", "ios": "https://dc.lft.to/lastmile_qr_scan"}, "fusion_lon": 0.0, "lat": 38.905736, "bike_id": "5a715d31b4b03897077c874d7d992cb8", "type": "electric_scooter", "is_reserved": 0, "lon": -77.04358516666667}, {"fusion_lat": 0.0, "name": "fd80ea9fc979b361f8cc67a58daa2fbf", "is_disabled": 0, "rental_uris": {"android": "https://dc.lft.to/lastmile_qr_scan", "ios": "https://dc.lft.to/lastmile_qr_scan"}, "fusion_lon": 0.0, "lat": 38.9036775, "bike_id": "fd80ea9fc979b361f8cc67a58daa2fbf", "type": "electric_scooter", "is_reserved": 0, "lon": -77.0321035}, {"fusion_lat": 0.0, "name": "6ee542a5b70659f25dd05ddc2ae87fc3", "is_disabled": 0, "rental_uris": {"android": "https://dc.lft.to/lastmile_qr_scan", "ios": "https://dc.lft.to/lastmile_qr_scan"}, "fusion_lon": 0.0, "lat": 38.892277, "bike_id": "6ee542a5b70659f25dd05ddc2ae87fc3", "type": "electric_scooter", "is_reserved": 0, "lon": -77.01710783333333}, {"fusion_lat": 0.0, "name": "fc0958341fbe367cb31fcac5118a0f43", "is_disabled": 0, "rental_uris": {"android": "https://dc.lft.to/lastmile_qr_scan", "ios": "https://dc.lft.to/lastmile_qr_scan"}, "fusion_lon": 0.0, "lat": 38.88490616666667, "bike_id": "fc0958341fbe367cb31fcac5118a0f43", "type": "electric_scooter", "is_reserved": 0, "lon": -77.00710133333334}, {"fusion_lat": 0.0, "name": "f477c3a59dec765050d7059e44b32de7", "is_disabled": 0, "rental_uris": {"android": "https://dc.lft.to/lastmile_qr_scan", "ios": "https://dc.lft.to/lastmile_qr_scan"}, "fusion_lon": 0.0, "lat": 38.934050666666664, "bike_id": "f477c3a59dec765050d7059e44b32de7", "type": "electric_scooter", "is_reserved": 0, "lon": -77.032614}, {"fusion_lat": 0.0, "name": "16e13f32dd8448fffcfb39bd2194b154", "is_disabled": 0, "rental_uris": {"android": "https://dc.lft.to/lastmile_qr_scan", "ios": "https://dc.lft.to/lastmile_qr_scan"}, "fusion_lon": 0.0, "lat": 38.854531333333334, "bike_id": "16e13f32dd8448fffcfb39bd2194b154", "type": "electric_scooter", "is_reserved": 0, "lon": -76.9723125}, {"fusion_lat": 0.0, "name": "88c81bd4f954540e55c45e3333a0f22f", "is_disabled": 0, "rental_uris": {"android": "https://dc.lft.to/lastmile_qr_scan", "ios": "https://dc.lft.to/lastmile_qr_scan"}, "fusion_lon": 0.0, "lat": 38.90561366666667, "bike_id": "88c81bd4f954540e55c45e3333a0f22f", "type": "electric_scooter", "is_reserved": 0, "lon": -77.0055815}, {"fusion_lat": 0.0, "name": "11046ac02ce0ed6a075e0b3952f881b6", "is_disabled": 0, "rental_uris": {"android": "https://dc.lft.to/lastmile_qr_scan", "ios": "https://dc.lft.to/lastmile_qr_scan"}, "fusion_lon": 0.0, "lat": 38.901219166666664, "bike_id": "11046ac02ce0ed6a075e0b3952f881b6", "type": "electric_scooter", "is_reserved": 0, "lon": -77.04886633333334}, {"fusion_lat": 0.0, "name": "3bbcae70d6cc5e69b8aaf3bc5ca9892b", "is_disabled": 0, "rental_uris": {"android": "https://dc.lft.to/lastmile_qr_scan", "ios": "https://dc.lft.to/lastmile_qr_scan"}, "fusion_lon": 0.0, "lat": 38.915334666666666, "bike_id": "3bbcae70d6cc5e69b8aaf3bc5ca9892b", "type": "electric_scooter", "is_reserved": 0, "lon": -77.0121895}, {"fusion_lat": 0.0, "name": "950fa2db04a5ae19713c741eeec9d865", "is_disabled": 0, "rental_uris": {"android": "https://dc.lft.to/lastmile_qr_scan", "ios": "https://dc.lft.to/lastmile_qr_scan"}, "fusion_lon": 0.0, "lat": 38.917150166666666, "bike_id": "950fa2db04a5ae19713c741eeec9d865", "type": "electric_scooter", "is_reserved": 0, "lon": -77.03476616666667}, {"fusion_lat": 0.0, "name": "784d88253f3fb8e52825aa6794e98476", "is_disabled": 0, "rental_uris": {"android": "https://dc.lft.to/lastmile_qr_scan", "ios": "https://dc.lft.to/lastmile_qr_scan"}, "fusion_lon": 0.0, "lat": 38.9192795, "bike_id": "784d88253f3fb8e52825aa6794e98476", "type": "electric_scooter", "is_reserved": 0, "lon": -77.03170366666667}, {"fusion_lat": 0.0, "name": "f3e3c4dc7b4493621c0a667ca72e2c45", "is_disabled": 0, "rental_uris": {"android": "https://dc.lft.to/lastmile_qr_scan", "ios": "https://dc.lft.to/lastmile_qr_scan"}, "fusion_lon": 0.0, "lat": 38.905695333333334, "bike_id": "f3e3c4dc7b4493621c0a667ca72e2c45", "type": "electric_scooter", "is_reserved": 0, "lon": -77.04133283333333}, {"fusion_lat": 0.0, "name": "700d61618b073623d8b207ea3bde91dc", "is_disabled": 0, "rental_uris": {"android": "https://dc.lft.to/lastmile_qr_scan", "ios": "https://dc.lft.to/lastmile_qr_scan"}, "fusion_lon": 0.0, "lat": 38.886332833333334, "bike_id": "700d61618b073623d8b207ea3bde91dc", "type": "electric_scooter", "is_reserved": 0, "lon": -77.01539916666667}, {"fusion_lat": 0.0, "name": "674294e2d4d66eeb0a0d87a763f121f2", "is_disabled": 0, "rental_uris": {"android": "https://dc.lft.to/lastmile_qr_scan", "ios": "https://dc.lft.to/lastmile_qr_scan"}, "fusion_lon": 0.0, "lat": 39.032069666666665, "bike_id": "674294e2d4d66eeb0a0d87a763f121f2", "type": "electric_bike", "is_reserved": 0, "lon": -77.04728366666667}, {"fusion_lat": 0.0, "name": "b4237060c0347e124a8ca9b02ffc6b95", "is_disabled": 0, "rental_uris": {"android": "https://dc.lft.to/lastmile_qr_scan", "ios": "https://dc.lft.to/lastmile_qr_scan"}, "fusion_lon": 0.0, "lat": 38.920528, "bike_id": "b4237060c0347e124a8ca9b02ffc6b95", "type": "electric_scooter", "is_reserved": 0, "lon": -77.024292}, {"fusion_lat": 0.0, "name": "4e607085941b818984453f26fe504d2a", "is_disabled": 0, "rental_uris": {"android": "https://dc.lft.to/lastmile_qr_scan", "ios": "https://dc.lft.to/lastmile_qr_scan"}, "fusion_lon": 0.0, "lat": 38.88767416666666, "bike_id": "4e607085941b818984453f26fe504d2a", "type": "electric_scooter", "is_reserved": 0, "lon": -76.97749566666667}, {"fusion_lat": 0.0, "name": "0d82212bd527ef52ce8efdca84d48f70", "is_disabled": 0, "rental_uris": {"android": "https://dc.lft.to/lastmile_qr_scan", "ios": "https://dc.lft.to/lastmile_qr_scan"}, "fusion_lon": 0.0, "lat": 38.90685383333334, "bike_id": "0d82212bd527ef52ce8efdca84d48f70", "type": "electric_scooter", "is_reserved": 0, "lon": -76.98499533333333}, {"fusion_lat": 0.0, "name": "3f7914acf2f7279dca540e9b1164c2fd", "is_disabled": 0, "rental_uris": {"android": "https://dc.lft.to/lastmile_qr_scan", "ios": "https://dc.lft.to/lastmile_qr_scan"}, "fusion_lon": 0.0, "lat": 38.915618333333335, "bike_id": "3f7914acf2f7279dca540e9b1164c2fd", "type": "electric_scooter", "is_reserved": 0, "lon": -77.020496}, {"fusion_lat": 0.0, "name": "8d34f9121044115958ff1190dad2b574", "is_disabled": 0, "rental_uris": {"android": "https://dc.lft.to/lastmile_qr_scan", "ios": "https://dc.lft.to/lastmile_qr_scan"}, "fusion_lon": 0.0, "lat": 39.003753333333336, "bike_id": "8d34f9121044115958ff1190dad2b574", "type": "electric_bike", "is_reserved": 0, "lon": -77.01289166666666}, {"fusion_lat": 0.0, "name": "f357fffb854aa79091874f5c50306f72", "is_disabled": 0, "rental_uris": {"android": "https://dc.lft.to/lastmile_qr_scan", "ios": "https://dc.lft.to/lastmile_qr_scan"}, "fusion_lon": 0.0, "lat": 38.899545, "bike_id": "f357fffb854aa79091874f5c50306f72", "type": "electric_scooter", "is_reserved": 0, "lon": -77.019476}, {"fusion_lat": 0.0, "name": "cc611ee7ba1e6b7a76652daa7f11f45f", "is_disabled": 0, "rental_uris": {"android": "https://dc.lft.to/lastmile_qr_scan", "ios": "https://dc.lft.to/lastmile_qr_scan"}, "fusion_lon": 0.0, "lat": 38.908932666666665, "bike_id": "cc611ee7ba1e6b7a76652daa7f11f45f", "type": "electric_scooter", "is_reserved": 0, "lon": -77.03220933333333}, {"fusion_lat": 0.0, "name": "ba8dcfda26d9bdcf70ba23111fe2dabd", "is_disabled": 0, "rental_uris": {"android": "https://dc.lft.to/lastmile_qr_scan", "ios": "https://dc.lft.to/lastmile_qr_scan"}, "fusion_lon": 0.0, "lat": 38.884472333333335, "bike_id": "ba8dcfda26d9bdcf70ba23111fe2dabd", "type": "electric_scooter", "is_reserved": 0, "lon": -77.01501783333333}, {"fusion_lat": 0.0, "name": "7ad758f7ac5e1594676fae1b796fea8e", "is_disabled": 0, "rental_uris": {"android": "https://dc.lft.to/lastmile_qr_scan", "ios": "https://dc.lft.to/lastmile_qr_scan"}, "fusion_lon": 0.0, "lat": 38.883917333333336, "bike_id": "7ad758f7ac5e1594676fae1b796fea8e", "type": "electric_scooter", "is_reserved": 0, "lon": -77.01709283333334}, {"fusion_lat": 0.0, "name": "52fd9e187d58d1606f6d8a3c24dff832", "is_disabled": 0, "rental_uris": {"android": "https://dc.lft.to/lastmile_qr_scan", "ios": "https://dc.lft.to/lastmile_qr_scan"}, "fusion_lon": 0.0, "lat": 38.923822666666666, "bike_id": "52fd9e187d58d1606f6d8a3c24dff832", "type": "electric_scooter", "is_reserved": 0, "lon": -77.0190615}, {"fusion_lat": 0.0, "name": "11459e8695f5625ee2a5f7faa9e103b1", "is_disabled": 0, "rental_uris": {"android": "https://dc.lft.to/lastmile_qr_scan", "ios": "https://dc.lft.to/lastmile_qr_scan"}, "fusion_lon": 0.0, "lat": 38.928994333333335, "bike_id": "11459e8695f5625ee2a5f7faa9e103b1", "type": "electric_scooter", "is_reserved": 0, "lon": -77.032601}, {"fusion_lat": 0.0, "name": "03cde990f2fea263516dd6f6cc52787d", "is_disabled": 0, "rental_uris": {"android": "https://dc.lft.to/lastmile_qr_scan", "ios": "https://dc.lft.to/lastmile_qr_scan"}, "fusion_lon": 0.0, "lat": 38.931739, "bike_id": "03cde990f2fea263516dd6f6cc52787d", "type": "electric_scooter", "is_reserved": 0, "lon": -77.07315916666667}, {"fusion_lat": 0.0, "name": "992632f5f830d758693846f755672f57", "is_disabled": 0, "rental_uris": {"android": "https://dc.lft.to/lastmile_qr_scan", "ios": "https://dc.lft.to/lastmile_qr_scan"}, "fusion_lon": 0.0, "lat": 38.8849165, "bike_id": "992632f5f830d758693846f755672f57", "type": "electric_scooter", "is_reserved": 0, "lon": -77.01084333333333}, {"fusion_lat": 0.0, "name": "c72ed7a4468bd822faf59e0fd9fd692b", "is_disabled": 0, "rental_uris": {"android": "https://dc.lft.to/lastmile_qr_scan", "ios": "https://dc.lft.to/lastmile_qr_scan"}, "fusion_lon": 0.0, "lat": 38.9052465, "bike_id": "c72ed7a4468bd822faf59e0fd9fd692b", "type": "electric_scooter", "is_reserved": 0, "lon": -77.04351166666666}, {"fusion_lat": 0.0, "name": "0a3e4feec756c9b7e59afa2a6fe00458", "is_disabled": 0, "rental_uris": {"android": "https://dc.lft.to/lastmile_qr_scan", "ios": "https://dc.lft.to/lastmile_qr_scan"}, "fusion_lon": 0.0, "lat": 38.9236335, "bike_id": "0a3e4feec756c9b7e59afa2a6fe00458", "type": "electric_scooter", "is_reserved": 0, "lon": -77.05030333333333}, {"fusion_lat": 0.0, "name": "704598dee53b135d2be99b824b75f2ef", "is_disabled": 0, "rental_uris": {"android": "https://dc.lft.to/lastmile_qr_scan", "ios": "https://dc.lft.to/lastmile_qr_scan"}, "fusion_lon": 0.0, "lat": 38.93523866666666, "bike_id": "704598dee53b135d2be99b824b75f2ef", "type": "electric_scooter", "is_reserved": 0, "lon": -77.0241445}, {"fusion_lat": 0.0, "name": "f5bf62ebd7e650c9856e482711117721", "is_disabled": 0, "rental_uris": {"android": "https://dc.lft.to/lastmile_qr_scan", "ios": "https://dc.lft.to/lastmile_qr_scan"}, "fusion_lon": 0.0, "lat": 38.9002925, "bike_id": "f5bf62ebd7e650c9856e482711117721", "type": "electric_scooter", "is_reserved": 0, "lon": -77.03472683333334}, {"fusion_lat": 0.0, "name": "514b5f2d9a75ce5e95672f343bfb7166", "is_disabled": 0, "rental_uris": {"android": "https://dc.lft.to/lastmile_qr_scan", "ios": "https://dc.lft.to/lastmile_qr_scan"}, "fusion_lon": 0.0, "lat": 38.90351316666667, "bike_id": "514b5f2d9a75ce5e95672f343bfb7166", "type": "electric_scooter", "is_reserved": 0, "lon": -76.97475783333333}, {"fusion_lat": 0.0, "name": "8eb120f2064c19f744969de78406593c", "is_disabled": 0, "rental_uris": {"android": "https://dc.lft.to/lastmile_qr_scan", "ios": "https://dc.lft.to/lastmile_qr_scan"}, "fusion_lon": 0.0, "lat": 38.883366, "bike_id": "8eb120f2064c19f744969de78406593c", "type": "electric_scooter", "is_reserved": 0, "lon": -77.01387766666667}, {"fusion_lat": 0.0, "name": "6032f44678c7aa1932e62b64ef4aa516", "is_disabled": 0, "rental_uris": {"android": "https://dc.lft.to/lastmile_qr_scan", "ios": "https://dc.lft.to/lastmile_qr_scan"}, "fusion_lon": 0.0, "lat": 38.93015366666667, "bike_id": "6032f44678c7aa1932e62b64ef4aa516", "type": "electric_scooter", "is_reserved": 0, "lon": -77.03788766666666}, {"fusion_lat": 0.0, "name": "c611f0df131be2d54915d0274bbbc49f", "is_disabled": 0, "rental_uris": {"android": "https://dc.lft.to/lastmile_qr_scan", "ios": "https://dc.lft.to/lastmile_qr_scan"}, "fusion_lon": 0.0, "lat": 38.8962725, "bike_id": "c611f0df131be2d54915d0274bbbc49f", "type": "electric_scooter", "is_reserved": 0, "lon": -77.04075783333333}, {"fusion_lat": 0.0, "name": "aa2de238687e80b12fe9c29f7dab051b", "is_disabled": 0, "rental_uris": {"android": "https://dc.lft.to/lastmile_qr_scan", "ios": "https://dc.lft.to/lastmile_qr_scan"}, "fusion_lon": 0.0, "lat": 38.92126533333333, "bike_id": "aa2de238687e80b12fe9c29f7dab051b", "type": "electric_scooter", "is_reserved": 0, "lon": -77.0365905}, {"fusion_lat": 0.0, "name": "27439b026a7574fb66d81d960b2b1835", "is_disabled": 0, "rental_uris": {"android": "https://dc.lft.to/lastmile_qr_scan", "ios": "https://dc.lft.to/lastmile_qr_scan"}, "fusion_lon": 0.0, "lat": 38.917910166666665, "bike_id": "27439b026a7574fb66d81d960b2b1835", "type": "electric_scooter", "is_reserved": 0, "lon": -77.03438383333334}, {"fusion_lat": 0.0, "name": "d91dbcf0eb179f1cf83f2a54d1043581", "is_disabled": 0, "rental_uris": {"android": "https://dc.lft.to/lastmile_qr_scan", "ios": "https://dc.lft.to/lastmile_qr_scan"}, "fusion_lon": 0.0, "lat": 38.90140733333333, "bike_id": "d91dbcf0eb179f1cf83f2a54d1043581", "type": "electric_scooter", "is_reserved": 0, "lon": -77.0607375}, {"fusion_lat": 0.0, "name": "9f0714e8634438b4b2033729822a5bf7", "is_disabled": 0, "rental_uris": {"android": "https://dc.lft.to/lastmile_qr_scan", "ios": "https://dc.lft.to/lastmile_qr_scan"}, "fusion_lon": 0.0, "lat": 38.919704333333335, "bike_id": "9f0714e8634438b4b2033729822a5bf7", "type": "electric_scooter", "is_reserved": 0, "lon": -77.04167033333333}, {"fusion_lat": 0.0, "name": "fadf755620515dc5a80ab040603268f1", "is_disabled": 0, "rental_uris": {"android": "https://dc.lft.to/lastmile_qr_scan", "ios": "https://dc.lft.to/lastmile_qr_scan"}, "fusion_lon": 0.0, "lat": 38.903305333333336, "bike_id": "fadf755620515dc5a80ab040603268f1", "type": "electric_scooter", "is_reserved": 0, "lon": -77.02509833333333}, {"fusion_lat": 0.0, "name": "37eb7a8921797448a818fea06964b6a4", "is_disabled": 0, "rental_uris": {"android": "https://dc.lft.to/lastmile_qr_scan", "ios": "https://dc.lft.to/lastmile_qr_scan"}, "fusion_lon": 0.0, "lat": 38.928565166666665, "bike_id": "37eb7a8921797448a818fea06964b6a4", "type": "electric_scooter", "is_reserved": 0, "lon": -77.0349895}, {"fusion_lat": 0.0, "name": "a75bba0c388690905fcfa789c26c6281", "is_disabled": 0, "rental_uris": {"android": "https://dc.lft.to/lastmile_qr_scan", "ios": "https://dc.lft.to/lastmile_qr_scan"}, "fusion_lon": 0.0, "lat": 38.908282, "bike_id": "a75bba0c388690905fcfa789c26c6281", "type": "electric_scooter", "is_reserved": 0, "lon": -77.0637285}, {"fusion_lat": 0.0, "name": "30b49fef98a7be4955c77ba508dac5fb", "is_disabled": 0, "rental_uris": {"android": "https://dc.lft.to/lastmile_qr_scan", "ios": "https://dc.lft.to/lastmile_qr_scan"}, "fusion_lon": 0.0, "lat": 38.8572115, "bike_id": "30b49fef98a7be4955c77ba508dac5fb", "type": "electric_scooter", "is_reserved": 0, "lon": -76.98094816666666}, {"fusion_lat": 0.0, "name": "0865e8e5a608097d2fd3a6467c975cbb", "is_disabled": 0, "rental_uris": {"android": "https://dc.lft.to/lastmile_qr_scan", "ios": "https://dc.lft.to/lastmile_qr_scan"}, "fusion_lon": 0.0, "lat": 38.912624666666666, "bike_id": "0865e8e5a608097d2fd3a6467c975cbb", "type": "electric_scooter", "is_reserved": 0, "lon": -77.04738233333333}, {"fusion_lat": 0.0, "name": "68f75cf58cce846caf8514371159f53a", "is_disabled": 0, "rental_uris": {"android": "https://dc.lft.to/lastmile_qr_scan", "ios": "https://dc.lft.to/lastmile_qr_scan"}, "fusion_lon": 0.0, "lat": 38.91010133333333, "bike_id": "68f75cf58cce846caf8514371159f53a", "type": "electric_scooter", "is_reserved": 0, "lon": -76.98493316666666}, {"fusion_lat": 0.0, "name": "65d88912f534bf2aa324b6a2b9080eed", "is_disabled": 0, "rental_uris": {"android": "https://dc.lft.to/lastmile_qr_scan", "ios": "https://dc.lft.to/lastmile_qr_scan"}, "fusion_lon": 0.0, "lat": 38.89732883333333, "bike_id": "65d88912f534bf2aa324b6a2b9080eed", "type": "electric_scooter", "is_reserved": 0, "lon": -76.94703516666667}, {"fusion_lat": 0.0, "name": "32940c1bac24ad1f0a730c918ff688e8", "is_disabled": 0, "rental_uris": {"android": "https://dc.lft.to/lastmile_qr_scan", "ios": "https://dc.lft.to/lastmile_qr_scan"}, "fusion_lon": 0.0, "lat": 38.894958833333334, "bike_id": "32940c1bac24ad1f0a730c918ff688e8", "type": "electric_scooter", "is_reserved": 0, "lon": -77.00205716666666}, {"fusion_lat": 0.0, "name": "add324ff3a50f535305880971623fee0", "is_disabled": 0, "rental_uris": {"android": "https://dc.lft.to/lastmile_qr_scan", "ios": "https://dc.lft.to/lastmile_qr_scan"}, "fusion_lon": 0.0, "lat": 38.897292666666665, "bike_id": "add324ff3a50f535305880971623fee0", "type": "electric_scooter", "is_reserved": 0, "lon": -77.04527516666667}, {"fusion_lat": 0.0, "name": "20519dc32a64d638b1e7228f8409b6ba", "is_disabled": 0, "rental_uris": {"android": "https://dc.lft.to/lastmile_qr_scan", "ios": "https://dc.lft.to/lastmile_qr_scan"}, "fusion_lon": 0.0, "lat": 38.90885216666667, "bike_id": "20519dc32a64d638b1e7228f8409b6ba", "type": "electric_scooter", "is_reserved": 0, "lon": -77.06428866666667}, {"fusion_lat": 0.0, "name": "aa1f414b006e6d57546dda8b0360ded7", "is_disabled": 0, "rental_uris": {"android": "https://dc.lft.to/lastmile_qr_scan", "ios": "https://dc.lft.to/lastmile_qr_scan"}, "fusion_lon": 0.0, "lat": 38.935658, "bike_id": "aa1f414b006e6d57546dda8b0360ded7", "type": "electric_scooter", "is_reserved": 0, "lon": -77.07460933333333}, {"fusion_lat": 0.0, "name": "52e8550eeca7f7dfb0f3ff1f27b6102f", "is_disabled": 0, "rental_uris": {"android": "https://dc.lft.to/lastmile_qr_scan", "ios": "https://dc.lft.to/lastmile_qr_scan"}, "fusion_lon": 0.0, "lat": 38.892244, "bike_id": "52e8550eeca7f7dfb0f3ff1f27b6102f", "type": "electric_scooter", "is_reserved": 0, "lon": -77.04802433333333}, {"fusion_lat": 0.0, "name": "0d96020abc5c39f5807658a4bf8a14e9", "is_disabled": 0, "rental_uris": {"android": "https://dc.lft.to/lastmile_qr_scan", "ios": "https://dc.lft.to/lastmile_qr_scan"}, "fusion_lon": 0.0, "lat": 38.92605616666667, "bike_id": "0d96020abc5c39f5807658a4bf8a14e9", "type": "electric_scooter", "is_reserved": 0, "lon": -77.0571615}, {"fusion_lat": 0.0, "name": "6c74dbc65bc45568a571cf2bc825a59b", "is_disabled": 0, "rental_uris": {"android": "https://dc.lft.to/lastmile_qr_scan", "ios": "https://dc.lft.to/lastmile_qr_scan"}, "fusion_lon": 0.0, "lat": 38.87665616666666, "bike_id": "6c74dbc65bc45568a571cf2bc825a59b", "type": "electric_scooter", "is_reserved": 0, "lon": -77.00520033333333}, {"fusion_lat": 0.0, "name": "331c48f2bc6bef45f87a91158d92ca4a", "is_disabled": 0, "rental_uris": {"android": "https://dc.lft.to/lastmile_qr_scan", "ios": "https://dc.lft.to/lastmile_qr_scan"}, "fusion_lon": 0.0, "lat": 38.92368333333334, "bike_id": "331c48f2bc6bef45f87a91158d92ca4a", "type": "electric_scooter", "is_reserved": 0, "lon": -77.05031483333333}, {"fusion_lat": 0.0, "name": "05b736d5a06ceb87b8bcf912453364dc", "is_disabled": 0, "rental_uris": {"android": "https://dc.lft.to/lastmile_qr_scan", "ios": "https://dc.lft.to/lastmile_qr_scan"}, "fusion_lon": 0.0, "lat": 38.9357915, "bike_id": "05b736d5a06ceb87b8bcf912453364dc", "type": "electric_scooter", "is_reserved": 0, "lon": -77.033654}, {"fusion_lat": 0.0, "name": "b180af8081464ed7dcf8d1a90d0d0a9e", "is_disabled": 0, "rental_uris": {"android": "https://dc.lft.to/lastmile_qr_scan", "ios": "https://dc.lft.to/lastmile_qr_scan"}, "fusion_lon": 0.0, "lat": 38.886431333333334, "bike_id": "b180af8081464ed7dcf8d1a90d0d0a9e", "type": "electric_scooter", "is_reserved": 0, "lon": -77.0154675}, {"fusion_lat": 0.0, "name": "6d4be87512c227a4dd3c933df0680b37", "is_disabled": 0, "rental_uris": {"android": "https://dc.lft.to/lastmile_qr_scan", "ios": "https://dc.lft.to/lastmile_qr_scan"}, "fusion_lon": 0.0, "lat": 38.90585316666667, "bike_id": "6d4be87512c227a4dd3c933df0680b37", "type": "electric_scooter", "is_reserved": 0, "lon": -77.00618033333333}, {"fusion_lat": 0.0, "name": "3a38510421ddcd923858c6da9541f8bb", "is_disabled": 0, "rental_uris": {"android": "https://dc.lft.to/lastmile_qr_scan", "ios": "https://dc.lft.to/lastmile_qr_scan"}, "fusion_lon": 0.0, "lat": 38.923109, "bike_id": "3a38510421ddcd923858c6da9541f8bb", "type": "electric_scooter", "is_reserved": 0, "lon": -77.04396566666667}, {"fusion_lat": 0.0, "name": "bc30fc62d563c0a94453ab656773722c", "is_disabled": 0, "rental_uris": {"android": "https://dc.lft.to/lastmile_qr_scan", "ios": "https://dc.lft.to/lastmile_qr_scan"}, "fusion_lon": 0.0, "lat": 38.94896683333333, "bike_id": "bc30fc62d563c0a94453ab656773722c", "type": "electric_bike", "is_reserved": 0, "lon": -76.96373016666666}, {"fusion_lat": 0.0, "name": "734b5a952de509f9dfbd0fc44e6addfe", "is_disabled": 0, "rental_uris": {"android": "https://dc.lft.to/lastmile_qr_scan", "ios": "https://dc.lft.to/lastmile_qr_scan"}, "fusion_lon": 0.0, "lat": 38.93059133333333, "bike_id": "734b5a952de509f9dfbd0fc44e6addfe", "type": "electric_scooter", "is_reserved": 0, "lon": -77.0232065}, {"fusion_lat": 0.0, "name": "684dce8b9d11a279dd078d5bd3fa84a0", "is_disabled": 0, "rental_uris": {"android": "https://dc.lft.to/lastmile_qr_scan", "ios": "https://dc.lft.to/lastmile_qr_scan"}, "fusion_lon": 0.0, "lat": 38.899692333333334, "bike_id": "684dce8b9d11a279dd078d5bd3fa84a0", "type": "electric_scooter", "is_reserved": 0, "lon": -77.019066}, {"fusion_lat": 0.0, "name": "3284a0db49bc7817400c2ae3071fd725", "is_disabled": 0, "rental_uris": {"android": "https://dc.lft.to/lastmile_qr_scan", "ios": "https://dc.lft.to/lastmile_qr_scan"}, "fusion_lon": 0.0, "lat": 38.940924, "bike_id": "3284a0db49bc7817400c2ae3071fd725", "type": "electric_scooter", "is_reserved": 0, "lon": -77.06182416666667}, {"fusion_lat": 0.0, "name": "d71e34dfc43edb3529a35026b46ffac0", "is_disabled": 0, "rental_uris": {"android": "https://dc.lft.to/lastmile_qr_scan", "ios": "https://dc.lft.to/lastmile_qr_scan"}, "fusion_lon": 0.0, "lat": 38.91688416666667, "bike_id": "d71e34dfc43edb3529a35026b46ffac0", "type": "electric_scooter", "is_reserved": 0, "lon": -77.02826183333333}, {"fusion_lat": 0.0, "name": "dda37423fe8fd6dbe83385aeb0f12db2", "is_disabled": 0, "rental_uris": {"android": "https://dc.lft.to/lastmile_qr_scan", "ios": "https://dc.lft.to/lastmile_qr_scan"}, "fusion_lon": 0.0, "lat": 38.883968333333335, "bike_id": "dda37423fe8fd6dbe83385aeb0f12db2", "type": "electric_scooter", "is_reserved": 0, "lon": -76.93047266666667}, {"fusion_lat": 0.0, "name": "5c3c1382c629ebdeefd5e3f047bdaba2", "is_disabled": 0, "rental_uris": {"android": "https://dc.lft.to/lastmile_qr_scan", "ios": "https://dc.lft.to/lastmile_qr_scan"}, "fusion_lon": 0.0, "lat": 38.914064, "bike_id": "5c3c1382c629ebdeefd5e3f047bdaba2", "type": "electric_scooter", "is_reserved": 0, "lon": -77.03641216666666}, {"fusion_lat": 0.0, "name": "998e06d553be274030eb79a00b9ee1b3", "is_disabled": 0, "rental_uris": {"android": "https://dc.lft.to/lastmile_qr_scan", "ios": "https://dc.lft.to/lastmile_qr_scan"}, "fusion_lon": 0.0, "lat": 38.885344333333336, "bike_id": "998e06d553be274030eb79a00b9ee1b3", "type": "electric_bike", "is_reserved": 0, "lon": -77.12189116666667}, {"fusion_lat": 0.0, "name": "1f24d7e4c6012c64a939c9bf5acb3b80", "is_disabled": 0, "rental_uris": {"android": "https://dc.lft.to/lastmile_qr_scan", "ios": "https://dc.lft.to/lastmile_qr_scan"}, "fusion_lon": 0.0, "lat": 38.89990916666667, "bike_id": "1f24d7e4c6012c64a939c9bf5acb3b80", "type": "electric_scooter", "is_reserved": 0, "lon": -76.99945266666667}, {"fusion_lat": 0.0, "name": "7ebc3dfcd770de0dc523fa32b949ea4e", "is_disabled": 0, "rental_uris": {"android": "https://dc.lft.to/lastmile_qr_scan", "ios": "https://dc.lft.to/lastmile_qr_scan"}, "fusion_lon": 0.0, "lat": 38.89826016666667, "bike_id": "7ebc3dfcd770de0dc523fa32b949ea4e", "type": "electric_scooter", "is_reserved": 0, "lon": -77.03171416666666}, {"fusion_lat": 0.0, "name": "ebb9fd57948c30f5d5c3abfb9488df8e", "is_disabled": 0, "rental_uris": {"android": "https://dc.lft.to/lastmile_qr_scan", "ios": "https://dc.lft.to/lastmile_qr_scan"}, "fusion_lon": 0.0, "lat": 38.89273883333333, "bike_id": "ebb9fd57948c30f5d5c3abfb9488df8e", "type": "electric_scooter", "is_reserved": 0, "lon": -77.00344233333334}, {"fusion_lat": 0.0, "name": "ba634dcddff2b62f2babf517983d1bef", "is_disabled": 0, "rental_uris": {"android": "https://dc.lft.to/lastmile_qr_scan", "ios": "https://dc.lft.to/lastmile_qr_scan"}, "fusion_lon": 0.0, "lat": 38.90551966666666, "bike_id": "ba634dcddff2b62f2babf517983d1bef", "type": "electric_scooter", "is_reserved": 0, "lon": -77.00593766666667}, {"fusion_lat": 0.0, "name": "c5ce5cdb94ca96f5e93a3906275ec676", "is_disabled": 0, "rental_uris": {"android": "https://dc.lft.to/lastmile_qr_scan", "ios": "https://dc.lft.to/lastmile_qr_scan"}, "fusion_lon": 0.0, "lat": 38.91711383333333, "bike_id": "c5ce5cdb94ca96f5e93a3906275ec676", "type": "electric_scooter", "is_reserved": 0, "lon": -77.02388}, {"fusion_lat": 0.0, "name": "7bd8e1d2e6cd983f4c403ba85dbf8915", "is_disabled": 0, "rental_uris": {"android": "https://dc.lft.to/lastmile_qr_scan", "ios": "https://dc.lft.to/lastmile_qr_scan"}, "fusion_lon": 0.0, "lat": 38.899648666666664, "bike_id": "7bd8e1d2e6cd983f4c403ba85dbf8915", "type": "electric_scooter", "is_reserved": 0, "lon": -76.98163366666667}, {"fusion_lat": 0.0, "name": "c6dbd7399e3654b32726aa93d5a891f2", "is_disabled": 0, "rental_uris": {"android": "https://dc.lft.to/lastmile_qr_scan", "ios": "https://dc.lft.to/lastmile_qr_scan"}, "fusion_lon": 0.0, "lat": 38.90589583333333, "bike_id": "c6dbd7399e3654b32726aa93d5a891f2", "type": "electric_scooter", "is_reserved": 0, "lon": -77.04100616666666}, {"fusion_lat": 0.0, "name": "53f8fd4271f63e64c41a950f30f23a13", "is_disabled": 0, "rental_uris": {"android": "https://dc.lft.to/lastmile_qr_scan", "ios": "https://dc.lft.to/lastmile_qr_scan"}, "fusion_lon": 0.0, "lat": 38.9312265, "bike_id": "53f8fd4271f63e64c41a950f30f23a13", "type": "electric_scooter", "is_reserved": 0, "lon": -76.98438216666666}, {"fusion_lat": 0.0, "name": "c4452702c2a89565beb7b024f8ac76a4", "is_disabled": 0, "rental_uris": {"android": "https://dc.lft.to/lastmile_qr_scan", "ios": "https://dc.lft.to/lastmile_qr_scan"}, "fusion_lon": 0.0, "lat": 38.942873, "bike_id": "c4452702c2a89565beb7b024f8ac76a4", "type": "electric_scooter", "is_reserved": 0, "lon": -77.0217415}, {"fusion_lat": 0.0, "name": "88c36917f47f02a5f4d3572422e61209", "is_disabled": 0, "rental_uris": {"android": "https://dc.lft.to/lastmile_qr_scan", "ios": "https://dc.lft.to/lastmile_qr_scan"}, "fusion_lon": 0.0, "lat": 38.9559095, "bike_id": "88c36917f47f02a5f4d3572422e61209", "type": "electric_bike", "is_reserved": 0, "lon": -76.995346}, {"fusion_lat": 0.0, "name": "de94cc42e203c0664df146dfdf898827", "is_disabled": 0, "rental_uris": {"android": "https://dc.lft.to/lastmile_qr_scan", "ios": "https://dc.lft.to/lastmile_qr_scan"}, "fusion_lon": 0.0, "lat": 38.87307033333333, "bike_id": "de94cc42e203c0664df146dfdf898827", "type": "electric_scooter", "is_reserved": 0, "lon": -77.00987583333334}, {"fusion_lat": 0.0, "name": "e6d4a477c225f26ea0bbb9485cfcc183", "is_disabled": 0, "rental_uris": {"android": "https://dc.lft.to/lastmile_qr_scan", "ios": "https://dc.lft.to/lastmile_qr_scan"}, "fusion_lon": 0.0, "lat": 38.896047, "bike_id": "e6d4a477c225f26ea0bbb9485cfcc183", "type": "electric_scooter", "is_reserved": 0, "lon": -77.025963}, {"fusion_lat": 0.0, "name": "bb8ad2d86a0686979eaabca3c4c1830d", "is_disabled": 0, "rental_uris": {"android": "https://dc.lft.to/lastmile_qr_scan", "ios": "https://dc.lft.to/lastmile_qr_scan"}, "fusion_lon": 0.0, "lat": 38.9239425, "bike_id": "bb8ad2d86a0686979eaabca3c4c1830d", "type": "electric_scooter", "is_reserved": 0, "lon": -77.04304433333333}, {"fusion_lat": 0.0, "name": "8b8367f817f755b45d6d523444011452", "is_disabled": 0, "rental_uris": {"android": "https://dc.lft.to/lastmile_qr_scan", "ios": "https://dc.lft.to/lastmile_qr_scan"}, "fusion_lon": 0.0, "lat": 38.84127316666667, "bike_id": "8b8367f817f755b45d6d523444011452", "type": "electric_bike", "is_reserved": 0, "lon": -77.06305766666667}, {"fusion_lat": 0.0, "name": "189c93a69154e13c1440b8f8ba21f0bc", "is_disabled": 0, "rental_uris": {"android": "https://dc.lft.to/lastmile_qr_scan", "ios": "https://dc.lft.to/lastmile_qr_scan"}, "fusion_lon": 0.0, "lat": 38.91921033333333, "bike_id": "189c93a69154e13c1440b8f8ba21f0bc", "type": "electric_scooter", "is_reserved": 0, "lon": -77.02199183333333}, {"fusion_lat": 0.0, "name": "32aa2046f9891614938bcb4d63e30b5b", "is_disabled": 0, "rental_uris": {"android": "https://dc.lft.to/lastmile_qr_scan", "ios": "https://dc.lft.to/lastmile_qr_scan"}, "fusion_lon": 0.0, "lat": 38.923321, "bike_id": "32aa2046f9891614938bcb4d63e30b5b", "type": "electric_scooter", "is_reserved": 0, "lon": -77.020469}, {"fusion_lat": 0.0, "name": "f0ff16196538dda61848f01206174e10", "is_disabled": 0, "rental_uris": {"android": "https://dc.lft.to/lastmile_qr_scan", "ios": "https://dc.lft.to/lastmile_qr_scan"}, "fusion_lon": 0.0, "lat": 38.910321, "bike_id": "f0ff16196538dda61848f01206174e10", "type": "electric_scooter", "is_reserved": 0, "lon": -77.034412}, {"fusion_lat": 0.0, "name": "44e330368ea3d2da11c0268a354ac227", "is_disabled": 0, "rental_uris": {"android": "https://dc.lft.to/lastmile_qr_scan", "ios": "https://dc.lft.to/lastmile_qr_scan"}, "fusion_lon": 0.0, "lat": 38.90012466666667, "bike_id": "44e330368ea3d2da11c0268a354ac227", "type": "electric_scooter", "is_reserved": 0, "lon": -76.98790766666667}, {"fusion_lat": 0.0, "name": "a4fc38dfe22166fcbc8cb0a2a53ee770", "is_disabled": 0, "rental_uris": {"android": "https://dc.lft.to/lastmile_qr_scan", "ios": "https://dc.lft.to/lastmile_qr_scan"}, "fusion_lon": 0.0, "lat": 38.934804666666665, "bike_id": "a4fc38dfe22166fcbc8cb0a2a53ee770", "type": "electric_scooter", "is_reserved": 0, "lon": -77.045291}, {"fusion_lat": 0.0, "name": "a85d8b3ea9c6c29b7e143ce5ab26abe9", "is_disabled": 0, "rental_uris": {"android": "https://dc.lft.to/lastmile_qr_scan", "ios": "https://dc.lft.to/lastmile_qr_scan"}, "fusion_lon": 0.0, "lat": 38.831559, "bike_id": "a85d8b3ea9c6c29b7e143ce5ab26abe9", "type": "electric_scooter", "is_reserved": 0, "lon": -77.00841616666666}, {"fusion_lat": 0.0, "name": "56ae5aacc00f221549c22207e1ddde1d", "is_disabled": 0, "rental_uris": {"android": "https://dc.lft.to/lastmile_qr_scan", "ios": "https://dc.lft.to/lastmile_qr_scan"}, "fusion_lon": 0.0, "lat": 38.898755333333334, "bike_id": "56ae5aacc00f221549c22207e1ddde1d", "type": "electric_scooter", "is_reserved": 0, "lon": -76.93183283333333}, {"fusion_lat": 0.0, "name": "54e490f8b281f7cee17ff3dc5dbe32d5", "is_disabled": 0, "rental_uris": {"android": "https://dc.lft.to/lastmile_qr_scan", "ios": "https://dc.lft.to/lastmile_qr_scan"}, "fusion_lon": 0.0, "lat": 38.91858833333333, "bike_id": "54e490f8b281f7cee17ff3dc5dbe32d5", "type": "electric_scooter", "is_reserved": 0, "lon": -77.04178533333334}, {"fusion_lat": 0.0, "name": "60bd8f5b49b9a1e3fdda7125926beceb", "is_disabled": 0, "rental_uris": {"android": "https://dc.lft.to/lastmile_qr_scan", "ios": "https://dc.lft.to/lastmile_qr_scan"}, "fusion_lon": 0.0, "lat": 38.95541433333333, "bike_id": "60bd8f5b49b9a1e3fdda7125926beceb", "type": "electric_scooter", "is_reserved": 0, "lon": -77.0699185}, {"fusion_lat": 0.0, "name": "51589cd7deabb7738f6e92f3598036a2", "is_disabled": 0, "rental_uris": {"android": "https://dc.lft.to/lastmile_qr_scan", "ios": "https://dc.lft.to/lastmile_qr_scan"}, "fusion_lon": 0.0, "lat": 39.084537166666664, "bike_id": "51589cd7deabb7738f6e92f3598036a2", "type": "electric_bike", "is_reserved": 0, "lon": -76.95195733333334}, {"fusion_lat": 0.0, "name": "f138317f5a42e83b8ce208871cdc0f6e", "is_disabled": 0, "rental_uris": {"android": "https://dc.lft.to/lastmile_qr_scan", "ios": "https://dc.lft.to/lastmile_qr_scan"}, "fusion_lon": 0.0, "lat": 38.896029, "bike_id": "f138317f5a42e83b8ce208871cdc0f6e", "type": "electric_scooter", "is_reserved": 0, "lon": -77.02194583333333}, {"fusion_lat": 0.0, "name": "bf16135d7a0ca10a6f046fd1c5a86894", "is_disabled": 0, "rental_uris": {"android": "https://dc.lft.to/lastmile_qr_scan", "ios": "https://dc.lft.to/lastmile_qr_scan"}, "fusion_lon": 0.0, "lat": 38.89353666666667, "bike_id": "bf16135d7a0ca10a6f046fd1c5a86894", "type": "electric_bike", "is_reserved": 0, "lon": -77.187389}, {"fusion_lat": 0.0, "name": "489065e6cd66740aa988984d122ad494", "is_disabled": 0, "rental_uris": {"android": "https://dc.lft.to/lastmile_qr_scan", "ios": "https://dc.lft.to/lastmile_qr_scan"}, "fusion_lon": 0.0, "lat": 38.901406, "bike_id": "489065e6cd66740aa988984d122ad494", "type": "electric_scooter", "is_reserved": 0, "lon": -77.03474133333333}, {"fusion_lat": 0.0, "name": "01ca4c5cdf682a956429758129b0c1af", "is_disabled": 0, "rental_uris": {"android": "https://dc.lft.to/lastmile_qr_scan", "ios": "https://dc.lft.to/lastmile_qr_scan"}, "fusion_lon": 0.0, "lat": 38.8940435, "bike_id": "01ca4c5cdf682a956429758129b0c1af", "type": "electric_scooter", "is_reserved": 0, "lon": -76.9915585}, {"fusion_lat": 0.0, "name": "98ae9d2b2663b784f96ffa36913554a3", "is_disabled": 0, "rental_uris": {"android": "https://dc.lft.to/lastmile_qr_scan", "ios": "https://dc.lft.to/lastmile_qr_scan"}, "fusion_lon": 0.0, "lat": 38.873931166666665, "bike_id": "98ae9d2b2663b784f96ffa36913554a3", "type": "electric_scooter", "is_reserved": 0, "lon": -77.00014633333333}, {"fusion_lat": 0.0, "name": "e5e3b73b4b29945ffdf2b1699964b5ff", "is_disabled": 0, "rental_uris": {"android": "https://dc.lft.to/lastmile_qr_scan", "ios": "https://dc.lft.to/lastmile_qr_scan"}, "fusion_lon": 0.0, "lat": 38.958450666666664, "bike_id": "e5e3b73b4b29945ffdf2b1699964b5ff", "type": "electric_bike", "is_reserved": 0, "lon": -77.00103783333333}, {"fusion_lat": 0.0, "name": "92e4d383f9433a397c5c23e4bbb1a667", "is_disabled": 0, "rental_uris": {"android": "https://dc.lft.to/lastmile_qr_scan", "ios": "https://dc.lft.to/lastmile_qr_scan"}, "fusion_lon": 0.0, "lat": 38.90863183333333, "bike_id": "92e4d383f9433a397c5c23e4bbb1a667", "type": "electric_scooter", "is_reserved": 0, "lon": -76.99796433333333}, {"fusion_lat": 0.0, "name": "8ebd78e6cfdcf6e9711f598ab08d8e3b", "is_disabled": 0, "rental_uris": {"android": "https://dc.lft.to/lastmile_qr_scan", "ios": "https://dc.lft.to/lastmile_qr_scan"}, "fusion_lon": 0.0, "lat": 38.905735666666665, "bike_id": "8ebd78e6cfdcf6e9711f598ab08d8e3b", "type": "electric_scooter", "is_reserved": 0, "lon": -77.00605116666667}, {"fusion_lat": 0.0, "name": "981a857a3395b8dfca737482bb27f8aa", "is_disabled": 0, "rental_uris": {"android": "https://dc.lft.to/lastmile_qr_scan", "ios": "https://dc.lft.to/lastmile_qr_scan"}, "fusion_lon": 0.0, "lat": 38.9171415, "bike_id": "981a857a3395b8dfca737482bb27f8aa", "type": "electric_scooter", "is_reserved": 0, "lon": -77.03472983333333}, {"fusion_lat": 0.0, "name": "1a791d2d121ec69186e26fb3a988e8e4", "is_disabled": 0, "rental_uris": {"android": "https://dc.lft.to/lastmile_qr_scan", "ios": "https://dc.lft.to/lastmile_qr_scan"}, "fusion_lon": 0.0, "lat": 38.89250216666667, "bike_id": "1a791d2d121ec69186e26fb3a988e8e4", "type": "electric_scooter", "is_reserved": 0, "lon": -77.04651183333333}, {"fusion_lat": 0.0, "name": "9d57405eb481bf09a06eb5612461b24e", "is_disabled": 0, "rental_uris": {"android": "https://dc.lft.to/lastmile_qr_scan", "ios": "https://dc.lft.to/lastmile_qr_scan"}, "fusion_lon": 0.0, "lat": 38.93028366666667, "bike_id": "9d57405eb481bf09a06eb5612461b24e", "type": "electric_scooter", "is_reserved": 0, "lon": -77.0328205}, {"fusion_lat": 0.0, "name": "7e30fd9f37477fc5baa8124939f1f25d", "is_disabled": 0, "rental_uris": {"android": "https://dc.lft.to/lastmile_qr_scan", "ios": "https://dc.lft.to/lastmile_qr_scan"}, "fusion_lon": 0.0, "lat": 38.902534, "bike_id": "7e30fd9f37477fc5baa8124939f1f25d", "type": "electric_scooter", "is_reserved": 0, "lon": -76.974484}, {"fusion_lat": 0.0, "name": "9caffe3c343ab725e6a60f0cccd7f99a", "is_disabled": 0, "rental_uris": {"android": "https://dc.lft.to/lastmile_qr_scan", "ios": "https://dc.lft.to/lastmile_qr_scan"}, "fusion_lon": 0.0, "lat": 38.913200833333335, "bike_id": "9caffe3c343ab725e6a60f0cccd7f99a", "type": "electric_scooter", "is_reserved": 0, "lon": -77.01513083333333}, {"fusion_lat": 0.0, "name": "e203522ede79f3ffb71456602b042f16", "is_disabled": 0, "rental_uris": {"android": "https://dc.lft.to/lastmile_qr_scan", "ios": "https://dc.lft.to/lastmile_qr_scan"}, "fusion_lon": 0.0, "lat": 38.918586166666664, "bike_id": "e203522ede79f3ffb71456602b042f16", "type": "electric_scooter", "is_reserved": 0, "lon": -77.03545916666667}, {"fusion_lat": 0.0, "name": "5e9c5cf189dc81d8feabb9d322ba7121", "is_disabled": 0, "rental_uris": {"android": "https://dc.lft.to/lastmile_qr_scan", "ios": "https://dc.lft.to/lastmile_qr_scan"}, "fusion_lon": 0.0, "lat": 38.911160333333335, "bike_id": "5e9c5cf189dc81d8feabb9d322ba7121", "type": "electric_scooter", "is_reserved": 0, "lon": -77.0454815}, {"fusion_lat": 0.0, "name": "9868a39a9e843c39471749650b9cfd49", "is_disabled": 0, "rental_uris": {"android": "https://dc.lft.to/lastmile_qr_scan", "ios": "https://dc.lft.to/lastmile_qr_scan"}, "fusion_lon": 0.0, "lat": 38.90407916666667, "bike_id": "9868a39a9e843c39471749650b9cfd49", "type": "electric_scooter", "is_reserved": 0, "lon": -76.97330283333334}, {"fusion_lat": 0.0, "name": "88f3b542c4a8b27a205a29faa0a6d09b", "is_disabled": 0, "rental_uris": {"android": "https://dc.lft.to/lastmile_qr_scan", "ios": "https://dc.lft.to/lastmile_qr_scan"}, "fusion_lon": 0.0, "lat": 38.887695666666666, "bike_id": "88f3b542c4a8b27a205a29faa0a6d09b", "type": "electric_scooter", "is_reserved": 0, "lon": -76.97746833333333}, {"fusion_lat": 0.0, "name": "596f3389c7d7df63e029396ee310e749", "is_disabled": 0, "rental_uris": {"android": "https://dc.lft.to/lastmile_qr_scan", "ios": "https://dc.lft.to/lastmile_qr_scan"}, "fusion_lon": 0.0, "lat": 38.90154866666666, "bike_id": "596f3389c7d7df63e029396ee310e749", "type": "electric_scooter", "is_reserved": 0, "lon": -76.93065633333333}, {"fusion_lat": 0.0, "name": "036eea6881f31e30e5f2d6070c847b9e", "is_disabled": 0, "rental_uris": {"android": "https://dc.lft.to/lastmile_qr_scan", "ios": "https://dc.lft.to/lastmile_qr_scan"}, "fusion_lon": 0.0, "lat": 38.936888333333336, "bike_id": "036eea6881f31e30e5f2d6070c847b9e", "type": "electric_bike", "is_reserved": 0, "lon": -76.99058016666666}, {"fusion_lat": 0.0, "name": "70819dd3f5f1bc253847972f54ddf85b", "is_disabled": 0, "rental_uris": {"android": "https://dc.lft.to/lastmile_qr_scan", "ios": "https://dc.lft.to/lastmile_qr_scan"}, "fusion_lon": 0.0, "lat": 38.904269, "bike_id": "70819dd3f5f1bc253847972f54ddf85b", "type": "electric_scooter", "is_reserved": 0, "lon": -77.04339666666667}, {"fusion_lat": 0.0, "name": "f2419194acda42a35f1e196d5201cee0", "is_disabled": 0, "rental_uris": {"android": "https://dc.lft.to/lastmile_qr_scan", "ios": "https://dc.lft.to/lastmile_qr_scan"}, "fusion_lon": 0.0, "lat": 38.898223333333334, "bike_id": "f2419194acda42a35f1e196d5201cee0", "type": "electric_scooter", "is_reserved": 0, "lon": -77.00749966666666}, {"fusion_lat": 0.0, "name": "2ec01c979408e94f71df46bf3ca5adb4", "is_disabled": 0, "rental_uris": {"android": "https://dc.lft.to/lastmile_qr_scan", "ios": "https://dc.lft.to/lastmile_qr_scan"}, "fusion_lon": 0.0, "lat": 38.984625333333334, "bike_id": "2ec01c979408e94f71df46bf3ca5adb4", "type": "electric_bike", "is_reserved": 0, "lon": -76.97057233333334}, {"fusion_lat": 0.0, "name": "0e62f5337e7de969003de1e162461d25", "is_disabled": 0, "rental_uris": {"android": "https://dc.lft.to/lastmile_qr_scan", "ios": "https://dc.lft.to/lastmile_qr_scan"}, "fusion_lon": 0.0, "lat": 38.904062833333334, "bike_id": "0e62f5337e7de969003de1e162461d25", "type": "electric_scooter", "is_reserved": 0, "lon": -77.05329233333333}, {"fusion_lat": 0.0, "name": "0b0399fde6f038b104a397839539e21b", "is_disabled": 0, "rental_uris": {"android": "https://dc.lft.to/lastmile_qr_scan", "ios": "https://dc.lft.to/lastmile_qr_scan"}, "fusion_lon": 0.0, "lat": 38.910665333333334, "bike_id": "0b0399fde6f038b104a397839539e21b", "type": "electric_scooter", "is_reserved": 0, "lon": -76.985266}, {"fusion_lat": 0.0, "name": "3670f5a740e16e5a975c817aab50a9be", "is_disabled": 0, "rental_uris": {"android": "https://dc.lft.to/lastmile_qr_scan", "ios": "https://dc.lft.to/lastmile_qr_scan"}, "fusion_lon": 0.0, "lat": 38.90361, "bike_id": "3670f5a740e16e5a975c817aab50a9be", "type": "electric_scooter", "is_reserved": 0, "lon": -77.04447383333333}, {"fusion_lat": 0.0, "name": "7b9121b1157da40619fa7d4c9639ff85", "is_disabled": 0, "rental_uris": {"android": "https://dc.lft.to/lastmile_qr_scan", "ios": "https://dc.lft.to/lastmile_qr_scan"}, "fusion_lon": 0.0, "lat": 38.88488916666667, "bike_id": "7b9121b1157da40619fa7d4c9639ff85", "type": "electric_scooter", "is_reserved": 0, "lon": -77.0071045}, {"fusion_lat": 0.0, "name": "41df68926fc25d701421e65e5fe68c7e", "is_disabled": 0, "rental_uris": {"android": "https://dc.lft.to/lastmile_qr_scan", "ios": "https://dc.lft.to/lastmile_qr_scan"}, "fusion_lon": 0.0, "lat": 38.90176233333333, "bike_id": "41df68926fc25d701421e65e5fe68c7e", "type": "electric_scooter", "is_reserved": 0, "lon": -77.02738033333333}, {"fusion_lat": 0.0, "name": "fc82e7f5ca19f12dbb6f54a2fefa4fdb", "is_disabled": 0, "rental_uris": {"android": "https://dc.lft.to/lastmile_qr_scan", "ios": "https://dc.lft.to/lastmile_qr_scan"}, "fusion_lon": 0.0, "lat": 38.86762866666667, "bike_id": "fc82e7f5ca19f12dbb6f54a2fefa4fdb", "type": "electric_scooter", "is_reserved": 0, "lon": -76.98273383333333}, {"fusion_lat": 0.0, "name": "fd238e4e97eb247d410bf6a606b7842a", "is_disabled": 0, "rental_uris": {"android": "https://dc.lft.to/lastmile_qr_scan", "ios": "https://dc.lft.to/lastmile_qr_scan"}, "fusion_lon": 0.0, "lat": 38.888761833333334, "bike_id": "fd238e4e97eb247d410bf6a606b7842a", "type": "electric_scooter", "is_reserved": 0, "lon": -76.9773565}, {"fusion_lat": 0.0, "name": "a6f4d282bbaec6d00a4ff2144ad1fe40", "is_disabled": 0, "rental_uris": {"android": "https://dc.lft.to/lastmile_qr_scan", "ios": "https://dc.lft.to/lastmile_qr_scan"}, "fusion_lon": 0.0, "lat": 38.898728, "bike_id": "a6f4d282bbaec6d00a4ff2144ad1fe40", "type": "electric_scooter", "is_reserved": 0, "lon": -76.93184816666667}, {"fusion_lat": 0.0, "name": "a821d934d80902f9d35fe12f385c3af6", "is_disabled": 0, "rental_uris": {"android": "https://dc.lft.to/lastmile_qr_scan", "ios": "https://dc.lft.to/lastmile_qr_scan"}, "fusion_lon": 0.0, "lat": 38.909854833333334, "bike_id": "a821d934d80902f9d35fe12f385c3af6", "type": "electric_scooter", "is_reserved": 0, "lon": -77.06503433333333}, {"fusion_lat": 0.0, "name": "0333797767f22e620e4755fd7f6f0d0b", "is_disabled": 0, "rental_uris": {"android": "https://dc.lft.to/lastmile_qr_scan", "ios": "https://dc.lft.to/lastmile_qr_scan"}, "fusion_lon": 0.0, "lat": 38.9190605, "bike_id": "0333797767f22e620e4755fd7f6f0d0b", "type": "electric_scooter", "is_reserved": 0, "lon": -77.04103483333333}, {"fusion_lat": 0.0, "name": "07467bb6bf3305d161cf8889a4d20739", "is_disabled": 0, "rental_uris": {"android": "https://dc.lft.to/lastmile_qr_scan", "ios": "https://dc.lft.to/lastmile_qr_scan"}, "fusion_lon": 0.0, "lat": 38.911915666666665, "bike_id": "07467bb6bf3305d161cf8889a4d20739", "type": "electric_scooter", "is_reserved": 0, "lon": -77.038663}, {"fusion_lat": 0.0, "name": "36ffdcf211e021622dd529987f154a15", "is_disabled": 0, "rental_uris": {"android": "https://dc.lft.to/lastmile_qr_scan", "ios": "https://dc.lft.to/lastmile_qr_scan"}, "fusion_lon": 0.0, "lat": 38.9304785, "bike_id": "36ffdcf211e021622dd529987f154a15", "type": "electric_scooter", "is_reserved": 0, "lon": -77.03796433333333}, {"fusion_lat": 0.0, "name": "dd753364a7cd9178ded1053aff0077a4", "is_disabled": 0, "rental_uris": {"android": "https://dc.lft.to/lastmile_qr_scan", "ios": "https://dc.lft.to/lastmile_qr_scan"}, "fusion_lon": 0.0, "lat": 38.923133, "bike_id": "dd753364a7cd9178ded1053aff0077a4", "type": "electric_scooter", "is_reserved": 0, "lon": -77.01950133333334}, {"fusion_lat": 0.0, "name": "000adbfcfa9826cec31e6f63268d49a9", "is_disabled": 0, "rental_uris": {"android": "https://dc.lft.to/lastmile_qr_scan", "ios": "https://dc.lft.to/lastmile_qr_scan"}, "fusion_lon": 0.0, "lat": 38.887386, "bike_id": "000adbfcfa9826cec31e6f63268d49a9", "type": "electric_scooter", "is_reserved": 0, "lon": -77.01530133333333}, {"fusion_lat": 0.0, "name": "b41f1bc695e9e267a4ac68a7d88c3694", "is_disabled": 0, "rental_uris": {"android": "https://dc.lft.to/lastmile_qr_scan", "ios": "https://dc.lft.to/lastmile_qr_scan"}, "fusion_lon": 0.0, "lat": 38.89755666666667, "bike_id": "b41f1bc695e9e267a4ac68a7d88c3694", "type": "electric_scooter", "is_reserved": 0, "lon": -77.00902333333333}, {"fusion_lat": 0.0, "name": "9b35f1603dda92c979880fcbd8a60652", "is_disabled": 0, "rental_uris": {"android": "https://dc.lft.to/lastmile_qr_scan", "ios": "https://dc.lft.to/lastmile_qr_scan"}, "fusion_lon": 0.0, "lat": 38.883294, "bike_id": "9b35f1603dda92c979880fcbd8a60652", "type": "electric_scooter", "is_reserved": 0, "lon": -77.01736383333333}, {"fusion_lat": 0.0, "name": "3fbec853f5ff81019290fc25a0c15853", "is_disabled": 0, "rental_uris": {"android": "https://dc.lft.to/lastmile_qr_scan", "ios": "https://dc.lft.to/lastmile_qr_scan"}, "fusion_lon": 0.0, "lat": 38.904540833333336, "bike_id": "3fbec853f5ff81019290fc25a0c15853", "type": "electric_scooter", "is_reserved": 0, "lon": -77.03464783333334}, {"fusion_lat": 0.0, "name": "723703e60fb9aeaae0de06aa6507f7ff", "is_disabled": 0, "rental_uris": {"android": "https://dc.lft.to/lastmile_qr_scan", "ios": "https://dc.lft.to/lastmile_qr_scan"}, "fusion_lon": 0.0, "lat": 39.052533, "bike_id": "723703e60fb9aeaae0de06aa6507f7ff", "type": "electric_bike", "is_reserved": 0, "lon": -77.08067316666667}, {"fusion_lat": 0.0, "name": "5249631432b5d90decd062c9e6bf4149", "is_disabled": 0, "rental_uris": {"android": "https://dc.lft.to/lastmile_qr_scan", "ios": "https://dc.lft.to/lastmile_qr_scan"}, "fusion_lon": 0.0, "lat": 38.89620083333333, "bike_id": "5249631432b5d90decd062c9e6bf4149", "type": "electric_scooter", "is_reserved": 0, "lon": -77.00924066666667}, {"fusion_lat": 0.0, "name": "7d9bc36460d869d94ba3f217194cd2e1", "is_disabled": 0, "rental_uris": {"android": "https://dc.lft.to/lastmile_qr_scan", "ios": "https://dc.lft.to/lastmile_qr_scan"}, "fusion_lon": 0.0, "lat": 38.883090833333334, "bike_id": "7d9bc36460d869d94ba3f217194cd2e1", "type": "electric_scooter", "is_reserved": 0, "lon": -77.017835}, {"fusion_lat": 0.0, "name": "66e8e820b245e441c3020ded69d6c5ea", "is_disabled": 0, "rental_uris": {"android": "https://dc.lft.to/lastmile_qr_scan", "ios": "https://dc.lft.to/lastmile_qr_scan"}, "fusion_lon": 0.0, "lat": 38.8983245, "bike_id": "66e8e820b245e441c3020ded69d6c5ea", "type": "electric_scooter", "is_reserved": 0, "lon": -77.03272816666667}, {"fusion_lat": 0.0, "name": "ba261a6d62a6985b55527465bb9d1bc2", "is_disabled": 0, "rental_uris": {"android": "https://dc.lft.to/lastmile_qr_scan", "ios": "https://dc.lft.to/lastmile_qr_scan"}, "fusion_lon": 0.0, "lat": 38.95757183333333, "bike_id": "ba261a6d62a6985b55527465bb9d1bc2", "type": "electric_bike", "is_reserved": 0, "lon": -76.980916}, {"fusion_lat": 0.0, "name": "fd7f4f621017f8a0e54f30d538d47ab4", "is_disabled": 0, "rental_uris": {"android": "https://dc.lft.to/lastmile_qr_scan", "ios": "https://dc.lft.to/lastmile_qr_scan"}, "fusion_lon": 0.0, "lat": 38.920903333333335, "bike_id": "fd7f4f621017f8a0e54f30d538d47ab4", "type": "electric_scooter", "is_reserved": 0, "lon": -77.0272475}, {"fusion_lat": 0.0, "name": "df19eb216aa01e57fd84c9dc7a7cdf57", "is_disabled": 0, "rental_uris": {"android": "https://dc.lft.to/lastmile_qr_scan", "ios": "https://dc.lft.to/lastmile_qr_scan"}, "fusion_lon": 0.0, "lat": 38.9597365, "bike_id": "df19eb216aa01e57fd84c9dc7a7cdf57", "type": "electric_bike", "is_reserved": 0, "lon": -76.9815955}, {"fusion_lat": 0.0, "name": "cc1d460e251d05b07fd862e399078f16", "is_disabled": 0, "rental_uris": {"android": "https://dc.lft.to/lastmile_qr_scan", "ios": "https://dc.lft.to/lastmile_qr_scan"}, "fusion_lon": 0.0, "lat": 38.9320615, "bike_id": "cc1d460e251d05b07fd862e399078f16", "type": "electric_scooter", "is_reserved": 0, "lon": -76.9828255}, {"fusion_lat": 0.0, "name": "679f0cdafc4a5b258d7c759bf6e20ad7", "is_disabled": 0, "rental_uris": {"android": "https://dc.lft.to/lastmile_qr_scan", "ios": "https://dc.lft.to/lastmile_qr_scan"}, "fusion_lon": 0.0, "lat": 38.924151333333334, "bike_id": "679f0cdafc4a5b258d7c759bf6e20ad7", "type": "electric_scooter", "is_reserved": 0, "lon": -77.01944883333333}, {"fusion_lat": 0.0, "name": "593ff2bced221d040e66679dde8b92cc", "is_disabled": 0, "rental_uris": {"android": "https://dc.lft.to/lastmile_qr_scan", "ios": "https://dc.lft.to/lastmile_qr_scan"}, "fusion_lon": 0.0, "lat": 38.91952966666667, "bike_id": "593ff2bced221d040e66679dde8b92cc", "type": "electric_scooter", "is_reserved": 0, "lon": -77.04483683333333}, {"fusion_lat": 0.0, "name": "9011e7c613658e23a4256100c86ef196", "is_disabled": 0, "rental_uris": {"android": "https://dc.lft.to/lastmile_qr_scan", "ios": "https://dc.lft.to/lastmile_qr_scan"}, "fusion_lon": 0.0, "lat": 38.913345, "bike_id": "9011e7c613658e23a4256100c86ef196", "type": "electric_scooter", "is_reserved": 0, "lon": -77.04874166666667}, {"fusion_lat": 0.0, "name": "b0ba9599d2a76e550788834ff3c3cc39", "is_disabled": 0, "rental_uris": {"android": "https://dc.lft.to/lastmile_qr_scan", "ios": "https://dc.lft.to/lastmile_qr_scan"}, "fusion_lon": 0.0, "lat": 38.907258166666665, "bike_id": "b0ba9599d2a76e550788834ff3c3cc39", "type": "electric_scooter", "is_reserved": 0, "lon": -77.04801166666667}, {"fusion_lat": 0.0, "name": "0b15c7b0bc045847937bf22849c09a64", "is_disabled": 0, "rental_uris": {"android": "https://dc.lft.to/lastmile_qr_scan", "ios": "https://dc.lft.to/lastmile_qr_scan"}, "fusion_lon": 0.0, "lat": 38.89996133333333, "bike_id": "0b15c7b0bc045847937bf22849c09a64", "type": "electric_scooter", "is_reserved": 0, "lon": -77.04370933333334}, {"fusion_lat": 0.0, "name": "b32390583a07b9ac296f5e1cafe55c31", "is_disabled": 0, "rental_uris": {"android": "https://dc.lft.to/lastmile_qr_scan", "ios": "https://dc.lft.to/lastmile_qr_scan"}, "fusion_lon": 0.0, "lat": 38.89912433333333, "bike_id": "b32390583a07b9ac296f5e1cafe55c31", "type": "electric_scooter", "is_reserved": 0, "lon": -77.03276116666666}, {"fusion_lat": 0.0, "name": "6ec1479a18bf2dd2e7db17657ccd1c34", "is_disabled": 0, "rental_uris": {"android": "https://dc.lft.to/lastmile_qr_scan", "ios": "https://dc.lft.to/lastmile_qr_scan"}, "fusion_lon": 0.0, "lat": 38.93185866666666, "bike_id": "6ec1479a18bf2dd2e7db17657ccd1c34", "type": "electric_scooter", "is_reserved": 0, "lon": -77.04301666666667}, {"fusion_lat": 0.0, "name": "43826f7c624caeede06dd90135151189", "is_disabled": 0, "rental_uris": {"android": "https://dc.lft.to/lastmile_qr_scan", "ios": "https://dc.lft.to/lastmile_qr_scan"}, "fusion_lon": 0.0, "lat": 38.916813, "bike_id": "43826f7c624caeede06dd90135151189", "type": "electric_scooter", "is_reserved": 0, "lon": -77.02958933333333}, {"fusion_lat": 0.0, "name": "c6859b52620299da1e85a731b792f7fc", "is_disabled": 0, "rental_uris": {"android": "https://dc.lft.to/lastmile_qr_scan", "ios": "https://dc.lft.to/lastmile_qr_scan"}, "fusion_lon": 0.0, "lat": 38.9217055, "bike_id": "c6859b52620299da1e85a731b792f7fc", "type": "electric_scooter", "is_reserved": 0, "lon": -76.99776933333334}, {"fusion_lat": 0.0, "name": "b028b63c94719be53d29b8dc45b26554", "is_disabled": 0, "rental_uris": {"android": "https://dc.lft.to/lastmile_qr_scan", "ios": "https://dc.lft.to/lastmile_qr_scan"}, "fusion_lon": 0.0, "lat": 38.919825, "bike_id": "b028b63c94719be53d29b8dc45b26554", "type": "electric_scooter", "is_reserved": 0, "lon": -76.9730795}, {"fusion_lat": 0.0, "name": "6a6fe6c05a046216622fb20644abade7", "is_disabled": 0, "rental_uris": {"android": "https://dc.lft.to/lastmile_qr_scan", "ios": "https://dc.lft.to/lastmile_qr_scan"}, "fusion_lon": 0.0, "lat": 38.88181066666667, "bike_id": "6a6fe6c05a046216622fb20644abade7", "type": "electric_scooter", "is_reserved": 0, "lon": -76.9589955}, {"fusion_lat": 0.0, "name": "cb2a2c049dfd63415bd095297b6b0595", "is_disabled": 0, "rental_uris": {"android": "https://dc.lft.to/lastmile_qr_scan", "ios": "https://dc.lft.to/lastmile_qr_scan"}, "fusion_lon": 0.0, "lat": 38.884313, "bike_id": "cb2a2c049dfd63415bd095297b6b0595", "type": "electric_scooter", "is_reserved": 0, "lon": -77.03015116666667}, {"fusion_lat": 0.0, "name": "5b505918a1571565db2aa6dc775c6d53", "is_disabled": 0, "rental_uris": {"android": "https://dc.lft.to/lastmile_qr_scan", "ios": "https://dc.lft.to/lastmile_qr_scan"}, "fusion_lon": 0.0, "lat": 38.9309555, "bike_id": "5b505918a1571565db2aa6dc775c6d53", "type": "electric_scooter", "is_reserved": 0, "lon": -77.02659183333333}, {"fusion_lat": 0.0, "name": "8767fad234898ec1be7d9c139c18d037", "is_disabled": 0, "rental_uris": {"android": "https://dc.lft.to/lastmile_qr_scan", "ios": "https://dc.lft.to/lastmile_qr_scan"}, "fusion_lon": 0.0, "lat": 38.898000333333336, "bike_id": "8767fad234898ec1be7d9c139c18d037", "type": "electric_scooter", "is_reserved": 0, "lon": -76.990286}, {"fusion_lat": 0.0, "name": "d9fc1ec9d7a8905d0d5296c9737f69f8", "is_disabled": 0, "rental_uris": {"android": "https://dc.lft.to/lastmile_qr_scan", "ios": "https://dc.lft.to/lastmile_qr_scan"}, "fusion_lon": 0.0, "lat": 38.92042933333333, "bike_id": "d9fc1ec9d7a8905d0d5296c9737f69f8", "type": "electric_scooter", "is_reserved": 0, "lon": -77.0258525}, {"fusion_lat": 0.0, "name": "fd83ee01cef61470a3729767438eb6a3", "is_disabled": 0, "rental_uris": {"android": "https://dc.lft.to/lastmile_qr_scan", "ios": "https://dc.lft.to/lastmile_qr_scan"}, "fusion_lon": 0.0, "lat": 38.9166685, "bike_id": "fd83ee01cef61470a3729767438eb6a3", "type": "electric_scooter", "is_reserved": 0, "lon": -77.03188666666667}, {"fusion_lat": 0.0, "name": "a04d707638e0b60f27b3d815c055e1c2", "is_disabled": 0, "rental_uris": {"android": "https://dc.lft.to/lastmile_qr_scan", "ios": "https://dc.lft.to/lastmile_qr_scan"}, "fusion_lon": 0.0, "lat": 38.9163795, "bike_id": "a04d707638e0b60f27b3d815c055e1c2", "type": "electric_scooter", "is_reserved": 0, "lon": -77.02700333333334}, {"fusion_lat": 0.0, "name": "f1e4fbd9ac42ff0c519a4be5ac235d78", "is_disabled": 0, "rental_uris": {"android": "https://dc.lft.to/lastmile_qr_scan", "ios": "https://dc.lft.to/lastmile_qr_scan"}, "fusion_lon": 0.0, "lat": 38.9289105, "bike_id": "f1e4fbd9ac42ff0c519a4be5ac235d78", "type": "electric_scooter", "is_reserved": 0, "lon": -77.03264666666666}, {"fusion_lat": 0.0, "name": "9d8c62886b8dbcde125181a39ced279d", "is_disabled": 0, "rental_uris": {"android": "https://dc.lft.to/lastmile_qr_scan", "ios": "https://dc.lft.to/lastmile_qr_scan"}, "fusion_lon": 0.0, "lat": 38.93432, "bike_id": "9d8c62886b8dbcde125181a39ced279d", "type": "electric_scooter", "is_reserved": 0, "lon": -77.03451133333333}, {"fusion_lat": 0.0, "name": "cd4bb943e3704dee6329ef9ab19866b8", "is_disabled": 0, "rental_uris": {"android": "https://dc.lft.to/lastmile_qr_scan", "ios": "https://dc.lft.to/lastmile_qr_scan"}, "fusion_lon": 0.0, "lat": 38.941608333333335, "bike_id": "cd4bb943e3704dee6329ef9ab19866b8", "type": "electric_scooter", "is_reserved": 0, "lon": -77.02501766666667}, {"fusion_lat": 0.0, "name": "61d7339fd68d85bb4dba6b3f034661c6", "is_disabled": 0, "rental_uris": {"android": "https://dc.lft.to/lastmile_qr_scan", "ios": "https://dc.lft.to/lastmile_qr_scan"}, "fusion_lon": 0.0, "lat": 38.92487366666667, "bike_id": "61d7339fd68d85bb4dba6b3f034661c6", "type": "electric_scooter", "is_reserved": 0, "lon": -77.05199766666667}, {"fusion_lat": 0.0, "name": "f81197e8c0f7da1217681fddc74fef99", "is_disabled": 0, "rental_uris": {"android": "https://dc.lft.to/lastmile_qr_scan", "ios": "https://dc.lft.to/lastmile_qr_scan"}, "fusion_lon": 0.0, "lat": 38.89488383333333, "bike_id": "f81197e8c0f7da1217681fddc74fef99", "type": "electric_scooter", "is_reserved": 0, "lon": -77.00977466666667}, {"fusion_lat": 0.0, "name": "5629b135fe32535cc65cb1d9f408e748", "is_disabled": 0, "rental_uris": {"android": "https://dc.lft.to/lastmile_qr_scan", "ios": "https://dc.lft.to/lastmile_qr_scan"}, "fusion_lon": 0.0, "lat": 38.8943525, "bike_id": "5629b135fe32535cc65cb1d9f408e748", "type": "electric_scooter", "is_reserved": 0, "lon": -77.00100533333334}, {"fusion_lat": 0.0, "name": "ccbedd4a3c9e893074d446a01add6a76", "is_disabled": 0, "rental_uris": {"android": "https://dc.lft.to/lastmile_qr_scan", "ios": "https://dc.lft.to/lastmile_qr_scan"}, "fusion_lon": 0.0, "lat": 38.889045, "bike_id": "ccbedd4a3c9e893074d446a01add6a76", "type": "electric_scooter", "is_reserved": 0, "lon": -76.99206233333334}, {"fusion_lat": 0.0, "name": "59341a550ff0903dd74208104b35fea5", "is_disabled": 0, "rental_uris": {"android": "https://dc.lft.to/lastmile_qr_scan", "ios": "https://dc.lft.to/lastmile_qr_scan"}, "fusion_lon": 0.0, "lat": 38.892201166666666, "bike_id": "59341a550ff0903dd74208104b35fea5", "type": "electric_scooter", "is_reserved": 0, "lon": -77.022223}, {"fusion_lat": 0.0, "name": "10fd7965e9cc182da650633ab84d8c37", "is_disabled": 0, "rental_uris": {"android": "https://dc.lft.to/lastmile_qr_scan", "ios": "https://dc.lft.to/lastmile_qr_scan"}, "fusion_lon": 0.0, "lat": 38.88197133333333, "bike_id": "10fd7965e9cc182da650633ab84d8c37", "type": "electric_scooter", "is_reserved": 0, "lon": -76.994863}, {"fusion_lat": 0.0, "name": "a00236ff3788661a0e253e9510a6c628", "is_disabled": 0, "rental_uris": {"android": "https://dc.lft.to/lastmile_qr_scan", "ios": "https://dc.lft.to/lastmile_qr_scan"}, "fusion_lon": 0.0, "lat": 38.9612975, "bike_id": "a00236ff3788661a0e253e9510a6c628", "type": "electric_scooter", "is_reserved": 0, "lon": -77.0278345}, {"fusion_lat": 0.0, "name": "4adb2865d36a2996fa2fee6d462703b9", "is_disabled": 0, "rental_uris": {"android": "https://dc.lft.to/lastmile_qr_scan", "ios": "https://dc.lft.to/lastmile_qr_scan"}, "fusion_lon": 0.0, "lat": 38.876881, "bike_id": "4adb2865d36a2996fa2fee6d462703b9", "type": "electric_scooter", "is_reserved": 0, "lon": -76.9942525}, {"fusion_lat": 0.0, "name": "eda6bc4f5317457b02d6c9428df82f06", "is_disabled": 0, "rental_uris": {"android": "https://dc.lft.to/lastmile_qr_scan", "ios": "https://dc.lft.to/lastmile_qr_scan"}, "fusion_lon": 0.0, "lat": 38.922413, "bike_id": "eda6bc4f5317457b02d6c9428df82f06", "type": "electric_scooter", "is_reserved": 0, "lon": -77.0463465}, {"fusion_lat": 0.0, "name": "624b04efa375ff0f8a38e4c0377f06ea", "is_disabled": 0, "rental_uris": {"android": "https://dc.lft.to/lastmile_qr_scan", "ios": "https://dc.lft.to/lastmile_qr_scan"}, "fusion_lon": 0.0, "lat": 38.91293316666667, "bike_id": "624b04efa375ff0f8a38e4c0377f06ea", "type": "electric_scooter", "is_reserved": 0, "lon": -77.01217783333334}, {"fusion_lat": 0.0, "name": "1a46762499f9f9cdf6aa20ef9611bb66", "is_disabled": 0, "rental_uris": {"android": "https://dc.lft.to/lastmile_qr_scan", "ios": "https://dc.lft.to/lastmile_qr_scan"}, "fusion_lon": 0.0, "lat": 38.893554, "bike_id": "1a46762499f9f9cdf6aa20ef9611bb66", "type": "electric_bike", "is_reserved": 0, "lon": -77.1874075}, {"fusion_lat": 0.0, "name": "ffab192d7b2357951ddf50bb5c1897e3", "is_disabled": 0, "rental_uris": {"android": "https://dc.lft.to/lastmile_qr_scan", "ios": "https://dc.lft.to/lastmile_qr_scan"}, "fusion_lon": 0.0, "lat": 38.97520933333333, "bike_id": "ffab192d7b2357951ddf50bb5c1897e3", "type": "electric_scooter", "is_reserved": 0, "lon": -77.017321}, {"fusion_lat": 0.0, "name": "231de176de0ab92999293b7aabc122f1", "is_disabled": 0, "rental_uris": {"android": "https://dc.lft.to/lastmile_qr_scan", "ios": "https://dc.lft.to/lastmile_qr_scan"}, "fusion_lon": 0.0, "lat": 38.90499616666666, "bike_id": "231de176de0ab92999293b7aabc122f1", "type": "electric_bike", "is_reserved": 0, "lon": -76.97579966666666}, {"fusion_lat": 0.0, "name": "634034fcb042d62a03f8c11847366b30", "is_disabled": 0, "rental_uris": {"android": "https://dc.lft.to/lastmile_qr_scan", "ios": "https://dc.lft.to/lastmile_qr_scan"}, "fusion_lon": 0.0, "lat": 38.924221833333334, "bike_id": "634034fcb042d62a03f8c11847366b30", "type": "electric_scooter", "is_reserved": 0, "lon": -77.01948133333333}, {"fusion_lat": 0.0, "name": "a7ad36fc321d57d3ce419185a31ace5d", "is_disabled": 0, "rental_uris": {"android": "https://dc.lft.to/lastmile_qr_scan", "ios": "https://dc.lft.to/lastmile_qr_scan"}, "fusion_lon": 0.0, "lat": 38.90955783333333, "bike_id": "a7ad36fc321d57d3ce419185a31ace5d", "type": "electric_scooter", "is_reserved": 0, "lon": -77.02381866666667}, {"fusion_lat": 0.0, "name": "6ed9268efe7b5ff9b5af53ebb7fbec76", "is_disabled": 0, "rental_uris": {"android": "https://dc.lft.to/lastmile_qr_scan", "ios": "https://dc.lft.to/lastmile_qr_scan"}, "fusion_lon": 0.0, "lat": 38.9288475, "bike_id": "6ed9268efe7b5ff9b5af53ebb7fbec76", "type": "electric_scooter", "is_reserved": 0, "lon": -77.03280783333334}, {"fusion_lat": 0.0, "name": "f4c9359b327bafe194826c61b0987f0b", "is_disabled": 0, "rental_uris": {"android": "https://dc.lft.to/lastmile_qr_scan", "ios": "https://dc.lft.to/lastmile_qr_scan"}, "fusion_lon": 0.0, "lat": 38.919150333333334, "bike_id": "f4c9359b327bafe194826c61b0987f0b", "type": "electric_scooter", "is_reserved": 0, "lon": -77.02617583333334}, {"fusion_lat": 0.0, "name": "b914d25087fade88dfad1e3780e22927", "is_disabled": 0, "rental_uris": {"android": "https://dc.lft.to/lastmile_qr_scan", "ios": "https://dc.lft.to/lastmile_qr_scan"}, "fusion_lon": 0.0, "lat": 38.9159955, "bike_id": "b914d25087fade88dfad1e3780e22927", "type": "electric_scooter", "is_reserved": 0, "lon": -77.02395516666667}, {"fusion_lat": 0.0, "name": "8382780350a5723f732f413a0919118a", "is_disabled": 0, "rental_uris": {"android": "https://dc.lft.to/lastmile_qr_scan", "ios": "https://dc.lft.to/lastmile_qr_scan"}, "fusion_lon": 0.0, "lat": 38.896062666666666, "bike_id": "8382780350a5723f732f413a0919118a", "type": "electric_scooter", "is_reserved": 0, "lon": -77.02663116666666}, {"fusion_lat": 0.0, "name": "f920198efabb59b6b90a5f3339a07d5d", "is_disabled": 0, "rental_uris": {"android": "https://dc.lft.to/lastmile_qr_scan", "ios": "https://dc.lft.to/lastmile_qr_scan"}, "fusion_lon": 0.0, "lat": 38.896361, "bike_id": "f920198efabb59b6b90a5f3339a07d5d", "type": "electric_scooter", "is_reserved": 0, "lon": -77.02855233333334}, {"fusion_lat": 0.0, "name": "ec45ff301b57fafec1e38cfd831bf047", "is_disabled": 0, "rental_uris": {"android": "https://dc.lft.to/lastmile_qr_scan", "ios": "https://dc.lft.to/lastmile_qr_scan"}, "fusion_lon": 0.0, "lat": 38.922539666666665, "bike_id": "ec45ff301b57fafec1e38cfd831bf047", "type": "electric_scooter", "is_reserved": 0, "lon": -77.03523916666667}, {"fusion_lat": 0.0, "name": "a6ca414e958000bc285f9ee000210931", "is_disabled": 0, "rental_uris": {"android": "https://dc.lft.to/lastmile_qr_scan", "ios": "https://dc.lft.to/lastmile_qr_scan"}, "fusion_lon": 0.0, "lat": 38.89839966666667, "bike_id": "a6ca414e958000bc285f9ee000210931", "type": "electric_scooter", "is_reserved": 0, "lon": -77.00744166666667}, {"fusion_lat": 0.0, "name": "59af89b7aa8f21f38feda12e21a1e5c0", "is_disabled": 0, "rental_uris": {"android": "https://dc.lft.to/lastmile_qr_scan", "ios": "https://dc.lft.to/lastmile_qr_scan"}, "fusion_lon": 0.0, "lat": 38.89255466666667, "bike_id": "59af89b7aa8f21f38feda12e21a1e5c0", "type": "electric_bike", "is_reserved": 0, "lon": -76.9511955}, {"fusion_lat": 0.0, "name": "6f6bcd3c78017b97e2e557e017b167fd", "is_disabled": 0, "rental_uris": {"android": "https://dc.lft.to/lastmile_qr_scan", "ios": "https://dc.lft.to/lastmile_qr_scan"}, "fusion_lon": 0.0, "lat": 38.883273333333335, "bike_id": "6f6bcd3c78017b97e2e557e017b167fd", "type": "electric_scooter", "is_reserved": 0, "lon": -77.0173245}, {"fusion_lat": 0.0, "name": "9e52ab522436d4fe8feae19633850fe3", "is_disabled": 0, "rental_uris": {"android": "https://dc.lft.to/lastmile_qr_scan", "ios": "https://dc.lft.to/lastmile_qr_scan"}, "fusion_lon": 0.0, "lat": 38.8850995, "bike_id": "9e52ab522436d4fe8feae19633850fe3", "type": "electric_scooter", "is_reserved": 0, "lon": -77.0056755}, {"fusion_lat": 0.0, "name": "5de470d46b93839362892266c6a269ee", "is_disabled": 0, "rental_uris": {"android": "https://dc.lft.to/lastmile_qr_scan", "ios": "https://dc.lft.to/lastmile_qr_scan"}, "fusion_lon": 0.0, "lat": 38.90529316666667, "bike_id": "5de470d46b93839362892266c6a269ee", "type": "electric_scooter", "is_reserved": 0, "lon": -77.06379766666667}, {"fusion_lat": 0.0, "name": "0d88776c425f2dd4fa883bed1c904379", "is_disabled": 0, "rental_uris": {"android": "https://dc.lft.to/lastmile_qr_scan", "ios": "https://dc.lft.to/lastmile_qr_scan"}, "fusion_lon": 0.0, "lat": 38.96735016666667, "bike_id": "0d88776c425f2dd4fa883bed1c904379", "type": "electric_scooter", "is_reserved": 0, "lon": -77.00920766666667}, {"fusion_lat": 0.0, "name": "da97192a2b5017f388f534351810c28a", "is_disabled": 0, "rental_uris": {"android": "https://dc.lft.to/lastmile_qr_scan", "ios": "https://dc.lft.to/lastmile_qr_scan"}, "fusion_lon": 0.0, "lat": 38.92875083333333, "bike_id": "da97192a2b5017f388f534351810c28a", "type": "electric_scooter", "is_reserved": 0, "lon": -77.032251}, {"fusion_lat": 0.0, "name": "893be306db9852331f34f1e462e4e67a", "is_disabled": 0, "rental_uris": {"android": "https://dc.lft.to/lastmile_qr_scan", "ios": "https://dc.lft.to/lastmile_qr_scan"}, "fusion_lon": 0.0, "lat": 38.95249533333333, "bike_id": "893be306db9852331f34f1e462e4e67a", "type": "electric_scooter", "is_reserved": 0, "lon": -77.023782}, {"fusion_lat": 0.0, "name": "3507fa2deb41910241a5953b1b4076c3", "is_disabled": 0, "rental_uris": {"android": "https://dc.lft.to/lastmile_qr_scan", "ios": "https://dc.lft.to/lastmile_qr_scan"}, "fusion_lon": 0.0, "lat": 38.928900666666664, "bike_id": "3507fa2deb41910241a5953b1b4076c3", "type": "electric_scooter", "is_reserved": 0, "lon": -77.03300833333333}, {"fusion_lat": 0.0, "name": "b4f7cf81b7b1a6788a7314c7f3ef83b4", "is_disabled": 0, "rental_uris": {"android": "https://dc.lft.to/lastmile_qr_scan", "ios": "https://dc.lft.to/lastmile_qr_scan"}, "fusion_lon": 0.0, "lat": 38.84509666666667, "bike_id": "b4f7cf81b7b1a6788a7314c7f3ef83b4", "type": "electric_bike", "is_reserved": 0, "lon": -76.99352083333333}, {"fusion_lat": 0.0, "name": "54f3190d2d7000ec802af3995c21ea0a", "is_disabled": 0, "rental_uris": {"android": "https://dc.lft.to/lastmile_qr_scan", "ios": "https://dc.lft.to/lastmile_qr_scan"}, "fusion_lon": 0.0, "lat": 38.900274, "bike_id": "54f3190d2d7000ec802af3995c21ea0a", "type": "electric_scooter", "is_reserved": 0, "lon": -76.9883165}, {"fusion_lat": 0.0, "name": "f5cb01c649bac2fe596a95132ceaa8a3", "is_disabled": 0, "rental_uris": {"android": "https://dc.lft.to/lastmile_qr_scan", "ios": "https://dc.lft.to/lastmile_qr_scan"}, "fusion_lon": 0.0, "lat": 38.88675583333333, "bike_id": "f5cb01c649bac2fe596a95132ceaa8a3", "type": "electric_bike", "is_reserved": 0, "lon": -77.16240833333333}, {"fusion_lat": 0.0, "name": "b869cb4fcac912843c32a1871ed81e58", "is_disabled": 0, "rental_uris": {"android": "https://dc.lft.to/lastmile_qr_scan", "ios": "https://dc.lft.to/lastmile_qr_scan"}, "fusion_lon": 0.0, "lat": 38.857744, "bike_id": "b869cb4fcac912843c32a1871ed81e58", "type": "electric_scooter", "is_reserved": 0, "lon": -76.97303716666667}, {"fusion_lat": 0.0, "name": "eee969981824586be859c614e74990ae", "is_disabled": 0, "rental_uris": {"android": "https://dc.lft.to/lastmile_qr_scan", "ios": "https://dc.lft.to/lastmile_qr_scan"}, "fusion_lon": 0.0, "lat": 38.90413, "bike_id": "eee969981824586be859c614e74990ae", "type": "electric_scooter", "is_reserved": 0, "lon": -76.9733475}, {"fusion_lat": 0.0, "name": "f806f17fdefa3fc373a7ca27db16f48b", "is_disabled": 0, "rental_uris": {"android": "https://dc.lft.to/lastmile_qr_scan", "ios": "https://dc.lft.to/lastmile_qr_scan"}, "fusion_lon": 0.0, "lat": 38.903923666666664, "bike_id": "f806f17fdefa3fc373a7ca27db16f48b", "type": "electric_scooter", "is_reserved": 0, "lon": -77.06139766666666}, {"fusion_lat": 0.0, "name": "a38cb92371a7f3f8345779511518dd34", "is_disabled": 0, "rental_uris": {"android": "https://dc.lft.to/lastmile_qr_scan", "ios": "https://dc.lft.to/lastmile_qr_scan"}, "fusion_lon": 0.0, "lat": 38.911929666666666, "bike_id": "a38cb92371a7f3f8345779511518dd34", "type": "electric_scooter", "is_reserved": 0, "lon": -77.0395985}, {"fusion_lat": 0.0, "name": "e4c1d3b77391b16b6d2be84392e08f31", "is_disabled": 0, "rental_uris": {"android": "https://dc.lft.to/lastmile_qr_scan", "ios": "https://dc.lft.to/lastmile_qr_scan"}, "fusion_lon": 0.0, "lat": 38.896058833333335, "bike_id": "e4c1d3b77391b16b6d2be84392e08f31", "type": "electric_scooter", "is_reserved": 0, "lon": -77.04490383333334}, {"fusion_lat": 0.0, "name": "68526bc47cce993d6d294d52bdc23106", "is_disabled": 0, "rental_uris": {"android": "https://dc.lft.to/lastmile_qr_scan", "ios": "https://dc.lft.to/lastmile_qr_scan"}, "fusion_lon": 0.0, "lat": 38.912795333333335, "bike_id": "68526bc47cce993d6d294d52bdc23106", "type": "electric_scooter", "is_reserved": 0, "lon": -77.0472185}, {"fusion_lat": 0.0, "name": "b4b18f47d8c21cc838542145ed267948", "is_disabled": 0, "rental_uris": {"android": "https://dc.lft.to/lastmile_qr_scan", "ios": "https://dc.lft.to/lastmile_qr_scan"}, "fusion_lon": 0.0, "lat": 38.993991666666666, "bike_id": "b4b18f47d8c21cc838542145ed267948", "type": "electric_bike", "is_reserved": 0, "lon": -77.03105533333333}, {"fusion_lat": 0.0, "name": "29ad5d2ec7307f8e4a50faea4c8f807c", "is_disabled": 0, "rental_uris": {"android": "https://dc.lft.to/lastmile_qr_scan", "ios": "https://dc.lft.to/lastmile_qr_scan"}, "fusion_lon": 0.0, "lat": 38.92989683333333, "bike_id": "29ad5d2ec7307f8e4a50faea4c8f807c", "type": "electric_scooter", "is_reserved": 0, "lon": -77.03266083333334}, {"fusion_lat": 0.0, "name": "83925231566704d9dd9d679db2d8d9fb", "is_disabled": 0, "rental_uris": {"android": "https://dc.lft.to/lastmile_qr_scan", "ios": "https://dc.lft.to/lastmile_qr_scan"}, "fusion_lon": 0.0, "lat": 38.929795166666665, "bike_id": "83925231566704d9dd9d679db2d8d9fb", "type": "electric_scooter", "is_reserved": 0, "lon": -77.02819033333333}, {"fusion_lat": 0.0, "name": "8662ef53db91017c085c89932cec939c", "is_disabled": 0, "rental_uris": {"android": "https://dc.lft.to/lastmile_qr_scan", "ios": "https://dc.lft.to/lastmile_qr_scan"}, "fusion_lon": 0.0, "lat": 38.8900835, "bike_id": "8662ef53db91017c085c89932cec939c", "type": "electric_scooter", "is_reserved": 0, "lon": -76.93743833333333}, {"fusion_lat": 0.0, "name": "1413dfdac42dded4c5d5cb4fa4a5dc03", "is_disabled": 0, "rental_uris": {"android": "https://dc.lft.to/lastmile_qr_scan", "ios": "https://dc.lft.to/lastmile_qr_scan"}, "fusion_lon": 0.0, "lat": 38.897622, "bike_id": "1413dfdac42dded4c5d5cb4fa4a5dc03", "type": "electric_scooter", "is_reserved": 0, "lon": -77.03041933333333}, {"fusion_lat": 0.0, "name": "4f4be36c423d69f784b70f2ef071a826", "is_disabled": 0, "rental_uris": {"android": "https://dc.lft.to/lastmile_qr_scan", "ios": "https://dc.lft.to/lastmile_qr_scan"}, "fusion_lon": 0.0, "lat": 38.959379, "bike_id": "4f4be36c423d69f784b70f2ef071a826", "type": "electric_scooter", "is_reserved": 0, "lon": -77.031172}, {"fusion_lat": 0.0, "name": "98ffed865ad52fcaece440cf4532c26a", "is_disabled": 0, "rental_uris": {"android": "https://dc.lft.to/lastmile_qr_scan", "ios": "https://dc.lft.to/lastmile_qr_scan"}, "fusion_lon": 0.0, "lat": 38.911962833333334, "bike_id": "98ffed865ad52fcaece440cf4532c26a", "type": "electric_scooter", "is_reserved": 0, "lon": -77.0379635}, {"fusion_lat": 0.0, "name": "bb1f66f088c482baa83b1358acf7a56a", "is_disabled": 0, "rental_uris": {"android": "https://dc.lft.to/lastmile_qr_scan", "ios": "https://dc.lft.to/lastmile_qr_scan"}, "fusion_lon": 0.0, "lat": 38.918264666666666, "bike_id": "bb1f66f088c482baa83b1358acf7a56a", "type": "electric_scooter", "is_reserved": 0, "lon": -77.04179183333333}, {"fusion_lat": 0.0, "name": "7d5e16a57484b24b456fdc563a2dc351", "is_disabled": 0, "rental_uris": {"android": "https://dc.lft.to/lastmile_qr_scan", "ios": "https://dc.lft.to/lastmile_qr_scan"}, "fusion_lon": 0.0, "lat": 38.91702216666667, "bike_id": "7d5e16a57484b24b456fdc563a2dc351", "type": "electric_scooter", "is_reserved": 0, "lon": -77.01165383333333}, {"fusion_lat": 0.0, "name": "6c47ecb26bd8de6546b345a116a09290", "is_disabled": 0, "rental_uris": {"android": "https://dc.lft.to/lastmile_qr_scan", "ios": "https://dc.lft.to/lastmile_qr_scan"}, "fusion_lon": 0.0, "lat": 38.92500616666667, "bike_id": "6c47ecb26bd8de6546b345a116a09290", "type": "electric_scooter", "is_reserved": 0, "lon": -77.02761366666667}, {"fusion_lat": 0.0, "name": "cc86da8dd11770764a0dadbb3e2a63a8", "is_disabled": 0, "rental_uris": {"android": "https://dc.lft.to/lastmile_qr_scan", "ios": "https://dc.lft.to/lastmile_qr_scan"}, "fusion_lon": 0.0, "lat": 38.892572333333334, "bike_id": "cc86da8dd11770764a0dadbb3e2a63a8", "type": "electric_scooter", "is_reserved": 0, "lon": -77.04652816666666}, {"fusion_lat": 0.0, "name": "a92b86ef5597a19c46c3b0ec6b388dfb", "is_disabled": 0, "rental_uris": {"android": "https://dc.lft.to/lastmile_qr_scan", "ios": "https://dc.lft.to/lastmile_qr_scan"}, "fusion_lon": 0.0, "lat": 38.892419333333336, "bike_id": "a92b86ef5597a19c46c3b0ec6b388dfb", "type": "electric_scooter", "is_reserved": 0, "lon": -77.0487515}, {"fusion_lat": 0.0, "name": "79bf1c1956cdbce6c7740ed543cbddbd", "is_disabled": 0, "rental_uris": {"android": "https://dc.lft.to/lastmile_qr_scan", "ios": "https://dc.lft.to/lastmile_qr_scan"}, "fusion_lon": 0.0, "lat": 38.914794666666666, "bike_id": "79bf1c1956cdbce6c7740ed543cbddbd", "type": "electric_scooter", "is_reserved": 0, "lon": -77.02297983333334}, {"fusion_lat": 0.0, "name": "24a089d67d6c4a82f3e0d9c18042bddf", "is_disabled": 0, "rental_uris": {"android": "https://dc.lft.to/lastmile_qr_scan", "ios": "https://dc.lft.to/lastmile_qr_scan"}, "fusion_lon": 0.0, "lat": 38.90512433333333, "bike_id": "24a089d67d6c4a82f3e0d9c18042bddf", "type": "electric_scooter", "is_reserved": 0, "lon": -77.0513705}, {"fusion_lat": 0.0, "name": "2c274f0b1eebc584d194f0210cade1ec", "is_disabled": 0, "rental_uris": {"android": "https://dc.lft.to/lastmile_qr_scan", "ios": "https://dc.lft.to/lastmile_qr_scan"}, "fusion_lon": 0.0, "lat": 38.90193283333333, "bike_id": "2c274f0b1eebc584d194f0210cade1ec", "type": "electric_scooter", "is_reserved": 0, "lon": -77.0477165}, {"fusion_lat": 0.0, "name": "b77f1594903cb1c006c9c70d7ca67693", "is_disabled": 0, "rental_uris": {"android": "https://dc.lft.to/lastmile_qr_scan", "ios": "https://dc.lft.to/lastmile_qr_scan"}, "fusion_lon": 0.0, "lat": 38.901307833333334, "bike_id": "b77f1594903cb1c006c9c70d7ca67693", "type": "electric_scooter", "is_reserved": 0, "lon": -77.0348195}, {"fusion_lat": 0.0, "name": "afc2765d7aa86533f60ff9a616565a85", "is_disabled": 0, "rental_uris": {"android": "https://dc.lft.to/lastmile_qr_scan", "ios": "https://dc.lft.to/lastmile_qr_scan"}, "fusion_lon": 0.0, "lat": 38.90861616666667, "bike_id": "afc2765d7aa86533f60ff9a616565a85", "type": "electric_scooter", "is_reserved": 0, "lon": -77.03467716666667}, {"fusion_lat": 0.0, "name": "85114e12b2d6330536157eb5c3e63a42", "is_disabled": 0, "rental_uris": {"android": "https://dc.lft.to/lastmile_qr_scan", "ios": "https://dc.lft.to/lastmile_qr_scan"}, "fusion_lon": 0.0, "lat": 38.856128166666664, "bike_id": "85114e12b2d6330536157eb5c3e63a42", "type": "electric_scooter", "is_reserved": 0, "lon": -76.97275966666666}, {"fusion_lat": 0.0, "name": "461c3f5806c921ca3b2c3a2a9e520348", "is_disabled": 0, "rental_uris": {"android": "https://dc.lft.to/lastmile_qr_scan", "ios": "https://dc.lft.to/lastmile_qr_scan"}, "fusion_lon": 0.0, "lat": 38.91438, "bike_id": "461c3f5806c921ca3b2c3a2a9e520348", "type": "electric_scooter", "is_reserved": 0, "lon": -77.01213333333334}, {"fusion_lat": 0.0, "name": "bd41bbd67aa22e0ba08b59648d460c6c", "is_disabled": 0, "rental_uris": {"android": "https://dc.lft.to/lastmile_qr_scan", "ios": "https://dc.lft.to/lastmile_qr_scan"}, "fusion_lon": 0.0, "lat": 38.954035166666664, "bike_id": "bd41bbd67aa22e0ba08b59648d460c6c", "type": "electric_scooter", "is_reserved": 0, "lon": -77.027484}, {"fusion_lat": 0.0, "name": "c143fe7102aa29affde417f498b4cd0b", "is_disabled": 0, "rental_uris": {"android": "https://dc.lft.to/lastmile_qr_scan", "ios": "https://dc.lft.to/lastmile_qr_scan"}, "fusion_lon": 0.0, "lat": 38.895632166666665, "bike_id": "c143fe7102aa29affde417f498b4cd0b", "type": "electric_scooter", "is_reserved": 0, "lon": -77.02815983333333}, {"fusion_lat": 0.0, "name": "f59d4844bcedd41ea90b04d24a584846", "is_disabled": 0, "rental_uris": {"android": "https://dc.lft.to/lastmile_qr_scan", "ios": "https://dc.lft.to/lastmile_qr_scan"}, "fusion_lon": 0.0, "lat": 38.901127833333334, "bike_id": "f59d4844bcedd41ea90b04d24a584846", "type": "electric_scooter", "is_reserved": 0, "lon": -77.03265283333333}, {"fusion_lat": 0.0, "name": "b7896da97b0ad0c603d4f7c0cf3a43d6", "is_disabled": 0, "rental_uris": {"android": "https://dc.lft.to/lastmile_qr_scan", "ios": "https://dc.lft.to/lastmile_qr_scan"}, "fusion_lon": 0.0, "lat": 38.91037016666667, "bike_id": "b7896da97b0ad0c603d4f7c0cf3a43d6", "type": "electric_bike", "is_reserved": 0, "lon": -77.03795916666667}, {"fusion_lat": 0.0, "name": "925a5cecdc684e2d78529974ddb00842", "is_disabled": 0, "rental_uris": {"android": "https://dc.lft.to/lastmile_qr_scan", "ios": "https://dc.lft.to/lastmile_qr_scan"}, "fusion_lon": 0.0, "lat": 38.904988833333334, "bike_id": "925a5cecdc684e2d78529974ddb00842", "type": "electric_scooter", "is_reserved": 0, "lon": -77.06128483333333}, {"fusion_lat": 0.0, "name": "27d056fba36f732d7a13899c43bd92d3", "is_disabled": 0, "rental_uris": {"android": "https://dc.lft.to/lastmile_qr_scan", "ios": "https://dc.lft.to/lastmile_qr_scan"}, "fusion_lon": 0.0, "lat": 38.930546166666666, "bike_id": "27d056fba36f732d7a13899c43bd92d3", "type": "electric_scooter", "is_reserved": 0, "lon": -77.03216233333333}, {"fusion_lat": 0.0, "name": "aada915741901f03c65fcead2ec91159", "is_disabled": 0, "rental_uris": {"android": "https://dc.lft.to/lastmile_qr_scan", "ios": "https://dc.lft.to/lastmile_qr_scan"}, "fusion_lon": 0.0, "lat": 38.911735166666666, "bike_id": "aada915741901f03c65fcead2ec91159", "type": "electric_scooter", "is_reserved": 0, "lon": -77.02829}, {"fusion_lat": 0.0, "name": "543ed4863b8448b295131603bd7328a0", "is_disabled": 0, "rental_uris": {"android": "https://dc.lft.to/lastmile_qr_scan", "ios": "https://dc.lft.to/lastmile_qr_scan"}, "fusion_lon": 0.0, "lat": 38.924788666666664, "bike_id": "543ed4863b8448b295131603bd7328a0", "type": "electric_scooter", "is_reserved": 0, "lon": -77.03913666666666}, {"fusion_lat": 0.0, "name": "4214720700b76447f85b8703e8ef1008", "is_disabled": 0, "rental_uris": {"android": "https://dc.lft.to/lastmile_qr_scan", "ios": "https://dc.lft.to/lastmile_qr_scan"}, "fusion_lon": 0.0, "lat": 38.93460266666666, "bike_id": "4214720700b76447f85b8703e8ef1008", "type": "electric_scooter", "is_reserved": 0, "lon": -77.04122133333334},