{"data": {"bikes": [{"name": "53eb77885f583b7597414c90fb89ddf7", "fusion_lat": 0.0, "type": "electric_scooter", "lat": 38.8857635, "is_reserved": 0, "is_disabled": 0, "fusion_lon": 0.0, "bike_id": "53eb77885f583b7597414c90fb89ddf7", "lon": -76.99506516666666, "rental_uris": {"ios": "https://dc.lft.to/lastmile_qr_scan", "android": "https://dc.lft.to/lastmile_qr_scan"}}, {"name": "92b063691582069025ef2f2e6423422c", "fusion_lat": 0.0, "type": "electric_scooter", "lat": 38.923781166666664, "is_reserved": 0, "is_disabled": 0, "fusion_lon": 0.0, "bike_id": "92b063691582069025ef2f2e6423422c", "lon": -77.01914333333333, "rental_uris": {"ios": "https://dc.lft.to/lastmile_qr_scan", "android": "https://dc.lft.to/lastmile_qr_scan"}}, {"name": "123abdbdbed04c04b97a0d280870312b", "fusion_lat": 0.0, "type": "electric_bike", "lat": 39.033447, "is_reserved": 0, "is_disabled": 0, "fusion_lon": 0.0, "bike_id": "123abdbdbed04c04b97a0d280870312b", "lon": -77.04908566666667, "rental_uris": {"ios": "https://dc.lft.to/lastmile_qr_scan", "android": "https://dc.lft.to/lastmile_qr_scan"}}, {"name": "0b5bc8d23043a281769d4b96b8c13413", "fusion_lat": 0.0, "type": "electric_scooter", "lat": 38.9395025, "is_reserved": 0, "is_disabled": 0, "fusion_lon": 0.0, "bike_id": "0b5bc8d23043a281769d4b96b8c13413", "lon": -77.07237166666667, "rental_uris": {"ios": "https://dc.lft.to/lastmile_qr_scan", "android": "https://dc.lft.to/lastmile_qr_scan"}}, {"name": "e123328f87bb918305d02d4a13bbb035", "fusion_lat": 0.0, "type": "electric_scooter", "lat": 38.91133516666667, "is_reserved": 0, "is_disabled": 0, "fusion_lon": 0.0, "bike_id": "e123328f87bb918305d02d4a13bbb035", "lon": -77.04185533333333, "rental_uris": {"ios": "https://dc.lft.to/lastmile_qr_scan", "android": "https://dc.lft.to/lastmile_qr_scan"}}, {"name": "fbb43e44bdba2740a81232effe7f9330", "fusion_lat": 0.0, "type": "electric_scooter", "lat": 38.8871735, "is_reserved": 0, "is_disabled": 0, "fusion_lon": 0.0, "bike_id": "fbb43e44bdba2740a81232effe7f9330", "lon": -77.0177715, "rental_uris": {"ios": "https://dc.lft.to/lastmile_qr_scan", "android": "https://dc.lft.to/lastmile_qr_scan"}}, {"name": "d6eddcbd7133d84111d422ad357d3797", "fusion_lat": 0.0, "type": "electric_scooter", "lat": 38.926655833333335, "is_reserved": 0, "is_disabled": 0, "fusion_lon": 0.0, "bike_id": "d6eddcbd7133d84111d422ad357d3797", "lon": -76.9954805, "rental_uris": {"ios": "https://dc.lft.to/lastmile_qr_scan", "android": "https://dc.lft.to/lastmile_qr_scan"}}, {"name": "c4325569041b55a8b917f27f307cbf30", "fusion_lat": 0.0, "type": "electric_bike", "lat": 38.87880583333333, "is_reserved": 0, "is_disabled": 0, "fusion_lon": 0.0, "bike_id": "c4325569041b55a8b917f27f307cbf30", "lon": -77.108962, "rental_uris": {"ios": "https://dc.lft.to/lastmile_qr_scan", "android": "https://dc.lft.to/lastmile_qr_scan"}}, {"name": "1a74388dfd6ecc619d637d902a946563", "fusion_lat": 0.0, "type": "electric_scooter", "lat": 38.899532666666666, "is_reserved": 0, "is_disabled": 0, "fusion_lon": 0.0, "bike_id": "1a74388dfd6ecc619d637d902a946563", "lon": -77.03926916666667, "rental_uris": {"ios": "https://dc.lft.to/lastmile_qr_scan", "android": "https://dc.lft.to/lastmile_qr_scan"}}, {"name": "a7d6fc50a01bf6634dfe7a1d984023c2", "fusion_lat": 0.0, "type": "electric_scooter", "lat": 38.92266333333333, "is_reserved": 0, "is_disabled": 0, "fusion_lon": 0.0, "bike_id": "a7d6fc50a01bf6634dfe7a1d984023c2", "lon": -77.0352665, "rental_uris": {"ios": "https://dc.lft.to/lastmile_qr_scan", "android": "https://dc.lft.to/lastmile_qr_scan"}}, {"name": "0351194e602fdb88b70b9ae667a5eb8d", "fusion_lat": 0.0, "type": "electric_scooter", "lat": 38.924824, "is_reserved": 0, "is_disabled": 0, "fusion_lon": 0.0, "bike_id": "0351194e602fdb88b70b9ae667a5eb8d", "lon": -77.0299865, "rental_uris": {"ios": "https://dc.lft.to/lastmile_qr_scan", "android": "https://dc.lft.to/lastmile_qr_scan"}}, {"name": "8c9bda3c69b12c8a11d186fa71a1794f", "fusion_lat": 0.0, "type": "electric_scooter", "lat": 38.925935833333334, "is_reserved": 0, "is_disabled": 0, "fusion_lon": 0.0, "bike_id": "8c9bda3c69b12c8a11d186fa71a1794f", "lon": -77.00851733333333, "rental_uris": {"ios": "https://dc.lft.to/lastmile_qr_scan", "android": "https://dc.lft.to/lastmile_qr_scan"}}, {"name": "7440a646c217af8436af207b2c02f4ef", "fusion_lat": 0.0, "type": "electric_scooter", "lat": 38.930304666666665, "is_reserved": 0, "is_disabled": 0, "fusion_lon": 0.0, "bike_id": "7440a646c217af8436af207b2c02f4ef", "lon": -77.08363316666667, "rental_uris": {"ios": "https://dc.lft.to/lastmile_qr_scan", "android": "https://dc.lft.to/lastmile_qr_scan"}}, {"name": "a169a9b3f3026571a2707a89333526b4", "fusion_lat": 0.0, "type": "electric_scooter", "lat": 38.9389635, "is_reserved": 0, "is_disabled": 0, "fusion_lon": 0.0, "bike_id": "a169a9b3f3026571a2707a89333526b4", "lon": -77.01755033333333, "rental_uris": {"ios": "https://dc.lft.to/lastmile_qr_scan", "android": "https://dc.lft.to/lastmile_qr_scan"}}, {"name": "2f024356fa171d0bcb1d22d0a89cab59", "fusion_lat": 0.0, "type": "electric_scooter", "lat": 38.914135333333334, "is_reserved": 0, "is_disabled": 0, "fusion_lon": 0.0, "bike_id": "2f024356fa171d0bcb1d22d0a89cab59", "lon": -77.04499383333334, "rental_uris": {"ios": "https://dc.lft.to/lastmile_qr_scan", "android": "https://dc.lft.to/lastmile_qr_scan"}}, {"name": "47e2429ba647d736394af5de52f5ec30", "fusion_lat": 0.0, "type": "electric_scooter", "lat": 38.89845366666667, "is_reserved": 0, "is_disabled": 0, "fusion_lon": 0.0, "bike_id": "47e2429ba647d736394af5de52f5ec30", "lon": -77.0337755, "rental_uris": {"ios": "https://dc.lft.to/lastmile_qr_scan", "android": "https://dc.lft.to/lastmile_qr_scan"}}, {"name": "c2eefe6e76b5417f6d3ad527edb2856f", "fusion_lat": 0.0, "type": "electric_scooter", "lat": 38.915554666666665, "is_reserved": 0, "is_disabled": 0, "fusion_lon": 0.0, "bike_id": "c2eefe6e76b5417f6d3ad527edb2856f", "lon": -77.0324255, "rental_uris": {"ios": "https://dc.lft.to/lastmile_qr_scan", "android": "https://dc.lft.to/lastmile_qr_scan"}}, {"name": "d68b3f4302ec13645801036cffdc6468", "fusion_lat": 0.0, "type": "electric_scooter", "lat": 38.912856166666664, "is_reserved": 0, "is_disabled": 0, "fusion_lon": 0.0, "bike_id": "d68b3f4302ec13645801036cffdc6468", "lon": -76.93795433333334, "rental_uris": {"ios": "https://dc.lft.to/lastmile_qr_scan", "android": "https://dc.lft.to/lastmile_qr_scan"}}, {"name": "e2bb4bce098c69511f646c777f1cc0ea", "fusion_lat": 0.0, "type": "electric_scooter", "lat": 38.905188333333335, "is_reserved": 0, "is_disabled": 0, "fusion_lon": 0.0, "bike_id": "e2bb4bce098c69511f646c777f1cc0ea", "lon": -77.05134566666666, "rental_uris": {"ios": "https://dc.lft.to/lastmile_qr_scan", "android": "https://dc.lft.to/lastmile_qr_scan"}}, {"name": "be1d89dab9ad2a21b2aea312b58f7539", "fusion_lat": 0.0, "type": "electric_scooter", "lat": 38.905726, "is_reserved": 0, "is_disabled": 0, "fusion_lon": 0.0, "bike_id": "be1d89dab9ad2a21b2aea312b58f7539", "lon": -77.03446, "rental_uris": {"ios": "https://dc.lft.to/lastmile_qr_scan", "android": "https://dc.lft.to/lastmile_qr_scan"}}, {"name": "89536911ab1c965d5141dc41731ba7af", "fusion_lat": 0.0, "type": "electric_scooter", "lat": 38.92058566666667, "is_reserved": 0, "is_disabled": 0, "fusion_lon": 0.0, "bike_id": "89536911ab1c965d5141dc41731ba7af", "lon": -77.0271075, "rental_uris": {"ios": "https://dc.lft.to/lastmile_qr_scan", "android": "https://dc.lft.to/lastmile_qr_scan"}}, {"name": "38a3781a10fc98aeec01465a70e5c410", "fusion_lat": 0.0, "type": "electric_scooter", "lat": 38.9174835, "is_reserved": 0, "is_disabled": 0, "fusion_lon": 0.0, "bike_id": "38a3781a10fc98aeec01465a70e5c410", "lon": -77.01890533333334, "rental_uris": {"ios": "https://dc.lft.to/lastmile_qr_scan", "android": "https://dc.lft.to/lastmile_qr_scan"}}, {"name": "8cc388317bbc5a4ec406b41189454aee", "fusion_lat": 0.0, "type": "electric_scooter", "lat": 38.898742166666665, "is_reserved": 0, "is_disabled": 0, "fusion_lon": 0.0, "bike_id": "8cc388317bbc5a4ec406b41189454aee", "lon": -76.93159366666667, "rental_uris": {"ios": "https://dc.lft.to/lastmile_qr_scan", "android": "https://dc.lft.to/lastmile_qr_scan"}}, {"name": "8cc97d583f696e8d08ee5ef3b9e2820e", "fusion_lat": 0.0, "type": "electric_scooter", "lat": 38.883008333333336, "is_reserved": 0, "is_disabled": 0, "fusion_lon": 0.0, "bike_id": "8cc97d583f696e8d08ee5ef3b9e2820e", "lon": -77.023762, "rental_uris": {"ios": "https://dc.lft.to/lastmile_qr_scan", "android": "https://dc.lft.to/lastmile_qr_scan"}}, {"name": "5c614b8b1e55a54132eb84fee77fb288", "fusion_lat": 0.0, "type": "electric_scooter", "lat": 38.90881266666667, "is_reserved": 0, "is_disabled": 0, "fusion_lon": 0.0, "bike_id": "5c614b8b1e55a54132eb84fee77fb288", "lon": -77.00575116666667, "rental_uris": {"ios": "https://dc.lft.to/lastmile_qr_scan", "android": "https://dc.lft.to/lastmile_qr_scan"}}, {"name": "34a1485dcbf2ac80f9fe7ab372600191", "fusion_lat": 0.0, "type": "electric_scooter", "lat": 38.90956333333333, "is_reserved": 0, "is_disabled": 0, "fusion_lon": 0.0, "bike_id": "34a1485dcbf2ac80f9fe7ab372600191", "lon": -77.02379983333333, "rental_uris": {"ios": "https://dc.lft.to/lastmile_qr_scan", "android": "https://dc.lft.to/lastmile_qr_scan"}}, {"name": "d32bfcd41e6be2b14352c4693c5e0dd9", "fusion_lat": 0.0, "type": "electric_scooter", "lat": 38.93699683333333, "is_reserved": 0, "is_disabled": 0, "fusion_lon": 0.0, "bike_id": "d32bfcd41e6be2b14352c4693c5e0dd9", "lon": -77.05594616666667, "rental_uris": {"ios": "https://dc.lft.to/lastmile_qr_scan", "android": "https://dc.lft.to/lastmile_qr_scan"}}, {"name": "a21116203da4bd5334a573b6ab62c01a", "fusion_lat": 0.0, "type": "electric_scooter", "lat": 38.9332905, "is_reserved": 0, "is_disabled": 0, "fusion_lon": 0.0, "bike_id": "a21116203da4bd5334a573b6ab62c01a", "lon": -77.02756016666666, "rental_uris": {"ios": "https://dc.lft.to/lastmile_qr_scan", "android": "https://dc.lft.to/lastmile_qr_scan"}}, {"name": "4e8ddad4d186c48abb81978d3dbf61dc", "fusion_lat": 0.0, "type": "electric_scooter", "lat": 38.93098833333333, "is_reserved": 0, "is_disabled": 0, "fusion_lon": 0.0, "bike_id": "4e8ddad4d186c48abb81978d3dbf61dc", "lon": -77.02400933333334, "rental_uris": {"ios": "https://dc.lft.to/lastmile_qr_scan", "android": "https://dc.lft.to/lastmile_qr_scan"}}, {"name": "1e2c51793531ec06b0a668f64b8f29de", "fusion_lat": 0.0, "type": "electric_scooter", "lat": 38.89589, "is_reserved": 0, "is_disabled": 0, "fusion_lon": 0.0, "bike_id": "1e2c51793531ec06b0a668f64b8f29de", "lon": -76.98280216666667, "rental_uris": {"ios": "https://dc.lft.to/lastmile_qr_scan", "android": "https://dc.lft.to/lastmile_qr_scan"}}, {"name": "879515a238dfb7740bbdc284cfd51f5e", "fusion_lat": 0.0, "type": "electric_scooter", "lat": 38.93750583333333, "is_reserved": 0, "is_disabled": 0, "fusion_lon": 0.0, "bike_id": "879515a238dfb7740bbdc284cfd51f5e", "lon": -77.02494, "rental_uris": {"ios": "https://dc.lft.to/lastmile_qr_scan", "android": "https://dc.lft.to/lastmile_qr_scan"}}, {"name": "4a6c7269321741882d85f902f4682a25", "fusion_lat": 0.0, "type": "electric_scooter", "lat": 38.88365983333333, "is_reserved": 0, "is_disabled": 0, "fusion_lon": 0.0, "bike_id": "4a6c7269321741882d85f902f4682a25", "lon": -77.01939, "rental_uris": {"ios": "https://dc.lft.to/lastmile_qr_scan", "android": "https://dc.lft.to/lastmile_qr_scan"}}, {"name": "89303a5a91035cf933477bc3e566870d", "fusion_lat": 0.0, "type": "electric_scooter", "lat": 38.918166, "is_reserved": 0, "is_disabled": 0, "fusion_lon": 0.0, "bike_id": "89303a5a91035cf933477bc3e566870d", "lon": -77.040001, "rental_uris": {"ios": "https://dc.lft.to/lastmile_qr_scan", "android": "https://dc.lft.to/lastmile_qr_scan"}}, {"name": "7423769e1ab354437cad8250f0e2cdd0", "fusion_lat": 0.0, "type": "electric_scooter", "lat": 38.90403716666667, "is_reserved": 0, "is_disabled": 0, "fusion_lon": 0.0, "bike_id": "7423769e1ab354437cad8250f0e2cdd0", "lon": -77.0640575, "rental_uris": {"ios": "https://dc.lft.to/lastmile_qr_scan", "android": "https://dc.lft.to/lastmile_qr_scan"}}, {"name": "d98f0d01bffa6d3c5e5d9426bfb7eea2", "fusion_lat": 0.0, "type": "electric_scooter", "lat": 38.9019535, "is_reserved": 0, "is_disabled": 0, "fusion_lon": 0.0, "bike_id": "d98f0d01bffa6d3c5e5d9426bfb7eea2", "lon": -77.02201483333333, "rental_uris": {"ios": "https://dc.lft.to/lastmile_qr_scan", "android": "https://dc.lft.to/lastmile_qr_scan"}}, {"name": "b30a1e64c1c4f9856f5bf76c189e2e86", "fusion_lat": 0.0, "type": "electric_scooter", "lat": 38.861521833333335, "is_reserved": 0, "is_disabled": 0, "fusion_lon": 0.0, "bike_id": "b30a1e64c1c4f9856f5bf76c189e2e86", "lon": -76.98898933333334, "rental_uris": {"ios": "https://dc.lft.to/lastmile_qr_scan", "android": "https://dc.lft.to/lastmile_qr_scan"}}, {"name": "735fab9fb928d64bb5839cf577addc60", "fusion_lat": 0.0, "type": "electric_scooter", "lat": 38.89609333333333, "is_reserved": 0, "is_disabled": 0, "fusion_lon": 0.0, "bike_id": "735fab9fb928d64bb5839cf577addc60", "lon": -77.01767883333333, "rental_uris": {"ios": "https://dc.lft.to/lastmile_qr_scan", "android": "https://dc.lft.to/lastmile_qr_scan"}}, {"name": "34448f64671792b598ce06c4b80f86be", "fusion_lat": 0.0, "type": "electric_scooter", "lat": 38.881260833333336, "is_reserved": 0, "is_disabled": 0, "fusion_lon": 0.0, "bike_id": "34448f64671792b598ce06c4b80f86be", "lon": -77.01673216666667, "rental_uris": {"ios": "https://dc.lft.to/lastmile_qr_scan", "android": "https://dc.lft.to/lastmile_qr_scan"}}, {"name": "16dd42b70cfa866e0956d33fe12fb824", "fusion_lat": 0.0, "type": "electric_scooter", "lat": 38.89595033333333, "is_reserved": 0, "is_disabled": 0, "fusion_lon": 0.0, "bike_id": "16dd42b70cfa866e0956d33fe12fb824", "lon": -77.04133583333333, "rental_uris": {"ios": "https://dc.lft.to/lastmile_qr_scan", "android": "https://dc.lft.to/lastmile_qr_scan"}}, {"name": "2b87f917c7b1bb64fce1bcd0cb9cbbff", "fusion_lat": 0.0, "type": "electric_scooter", "lat": 38.91557983333333, "is_reserved": 0, "is_disabled": 0, "fusion_lon": 0.0, "bike_id": "2b87f917c7b1bb64fce1bcd0cb9cbbff", "lon": -77.0389675, "rental_uris": {"ios": "https://dc.lft.to/lastmile_qr_scan", "android": "https://dc.lft.to/lastmile_qr_scan"}}, {"name": "1956d70096e5f0c3240351e5db07e59c", "fusion_lat": 0.0, "type": "electric_scooter", "lat": 38.8837565, "is_reserved": 0, "is_disabled": 0, "fusion_lon": 0.0, "bike_id": "1956d70096e5f0c3240351e5db07e59c", "lon": -76.99523733333334, "rental_uris": {"ios": "https://dc.lft.to/lastmile_qr_scan", "android": "https://dc.lft.to/lastmile_qr_scan"}}, {"name": "4a8faf46db43ba6c50cde232fbd89eaf", "fusion_lat": 0.0, "type": "electric_scooter", "lat": 38.9180535, "is_reserved": 0, "is_disabled": 0, "fusion_lon": 0.0, "bike_id": "4a8faf46db43ba6c50cde232fbd89eaf", "lon": -77.02496533333333, "rental_uris": {"ios": "https://dc.lft.to/lastmile_qr_scan", "android": "https://dc.lft.to/lastmile_qr_scan"}}, {"name": "32acb9dc9565fab7a4a2e14d6877b8f1", "fusion_lat": 0.0, "type": "electric_bike", "lat": 39.024146333333334, "is_reserved": 0, "is_disabled": 0, "fusion_lon": 0.0, "bike_id": "32acb9dc9565fab7a4a2e14d6877b8f1", "lon": -77.1249935, "rental_uris": {"ios": "https://dc.lft.to/lastmile_qr_scan", "android": "https://dc.lft.to/lastmile_qr_scan"}}, {"name": "3bd4a8b937e8f9ba3ebd97b1ffc2c6d4", "fusion_lat": 0.0, "type": "electric_scooter", "lat": 38.92338083333333, "is_reserved": 0, "is_disabled": 0, "fusion_lon": 0.0, "bike_id": "3bd4a8b937e8f9ba3ebd97b1ffc2c6d4", "lon": -77.05015483333334, "rental_uris": {"ios": "https://dc.lft.to/lastmile_qr_scan", "android": "https://dc.lft.to/lastmile_qr_scan"}}, {"name": "134f797f5030ec724374a58102738527", "fusion_lat": 0.0, "type": "electric_scooter", "lat": 38.91918166666667, "is_reserved": 0, "is_disabled": 0, "fusion_lon": 0.0, "bike_id": "134f797f5030ec724374a58102738527", "lon": -77.03098116666666, "rental_uris": {"ios": "https://dc.lft.to/lastmile_qr_scan", "android": "https://dc.lft.to/lastmile_qr_scan"}}, {"name": "804134ab632a433434b5468c7b80b508", "fusion_lat": 0.0, "type": "electric_scooter", "lat": 38.930639166666666, "is_reserved": 0, "is_disabled": 0, "fusion_lon": 0.0, "bike_id": "804134ab632a433434b5468c7b80b508", "lon": -77.03957966666667, "rental_uris": {"ios": "https://dc.lft.to/lastmile_qr_scan", "android": "https://dc.lft.to/lastmile_qr_scan"}}, {"name": "17dcabbd2bc782d77e4c2e3a45f5aee5", "fusion_lat": 0.0, "type": "electric_scooter", "lat": 38.89966066666667, "is_reserved": 0, "is_disabled": 0, "fusion_lon": 0.0, "bike_id": "17dcabbd2bc782d77e4c2e3a45f5aee5", "lon": -77.031149, "rental_uris": {"ios": "https://dc.lft.to/lastmile_qr_scan", "android": "https://dc.lft.to/lastmile_qr_scan"}}, {"name": "a90b6b2df649cc998721b508f09aef69", "fusion_lat": 0.0, "type": "electric_scooter", "lat": 38.896927, "is_reserved": 0, "is_disabled": 0, "fusion_lon": 0.0, "bike_id": "a90b6b2df649cc998721b508f09aef69", "lon": -77.03254083333333, "rental_uris": {"ios": "https://dc.lft.to/lastmile_qr_scan", "android": "https://dc.lft.to/lastmile_qr_scan"}}, {"name": "b0b30ee48fa16f4430eb38e735a8345a", "fusion_lat": 0.0, "type": "electric_scooter", "lat": 38.896029666666664, "is_reserved": 0, "is_disabled": 0, "fusion_lon": 0.0, "bike_id": "b0b30ee48fa16f4430eb38e735a8345a", "lon": -77.04690866666667, "rental_uris": {"ios": "https://dc.lft.to/lastmile_qr_scan", "android": "https://dc.lft.to/lastmile_qr_scan"}}, {"name": "e49d1bff74d1fc7409b5dd83dac29c1b", "fusion_lat": 0.0, "type": "electric_bike", "lat": 38.968594833333334, "is_reserved": 0, "is_disabled": 0, "fusion_lon": 0.0, "bike_id": "e49d1bff74d1fc7409b5dd83dac29c1b", "lon": -77.03336133333333, "rental_uris": {"ios": "https://dc.lft.to/lastmile_qr_scan", "android": "https://dc.lft.to/lastmile_qr_scan"}}, {"name": "bde732dfda605932d06ef475c17482aa", "fusion_lat": 0.0, "type": "electric_scooter", "lat": 38.874893166666666, "is_reserved": 0, "is_disabled": 0, "fusion_lon": 0.0, "bike_id": "bde732dfda605932d06ef475c17482aa", "lon": -77.00174716666666, "rental_uris": {"ios": "https://dc.lft.to/lastmile_qr_scan", "android": "https://dc.lft.to/lastmile_qr_scan"}}, {"name": "d06ac6b732f25a9d68eb10da18304df6", "fusion_lat": 0.0, "type": "electric_scooter", "lat": 38.91485016666667, "is_reserved": 0, "is_disabled": 0, "fusion_lon": 0.0, "bike_id": "d06ac6b732f25a9d68eb10da18304df6", "lon": -77.03248933333333, "rental_uris": {"ios": "https://dc.lft.to/lastmile_qr_scan", "android": "https://dc.lft.to/lastmile_qr_scan"}}, {"name": "6108f38830fb045b1d092b87cec55cdf", "fusion_lat": 0.0, "type": "electric_scooter", "lat": 38.932074, "is_reserved": 0, "is_disabled": 0, "fusion_lon": 0.0, "bike_id": "6108f38830fb045b1d092b87cec55cdf", "lon": -77.02730483333333, "rental_uris": {"ios": "https://dc.lft.to/lastmile_qr_scan", "android": "https://dc.lft.to/lastmile_qr_scan"}}, {"name": "04047266fea058154f488d560194d653", "fusion_lat": 0.0, "type": "electric_scooter", "lat": 38.9030435, "is_reserved": 0, "is_disabled": 0, "fusion_lon": 0.0, "bike_id": "04047266fea058154f488d560194d653", "lon": -77.04184, "rental_uris": {"ios": "https://dc.lft.to/lastmile_qr_scan", "android": "https://dc.lft.to/lastmile_qr_scan"}}, {"name": "42ded66d588a377094448a6ee7f685fd", "fusion_lat": 0.0, "type": "electric_scooter", "lat": 38.91334483333333, "is_reserved": 0, "is_disabled": 0, "fusion_lon": 0.0, "bike_id": "42ded66d588a377094448a6ee7f685fd", "lon": -77.03124816666667, "rental_uris": {"ios": "https://dc.lft.to/lastmile_qr_scan", "android": "https://dc.lft.to/lastmile_qr_scan"}}, {"name": "3a6ea5930f105f5d1dfadfbc70735a92", "fusion_lat": 0.0, "type": "electric_scooter", "lat": 38.91870566666667, "is_reserved": 0, "is_disabled": 0, "fusion_lon": 0.0, "bike_id": "3a6ea5930f105f5d1dfadfbc70735a92", "lon": -77.0435605, "rental_uris": {"ios": "https://dc.lft.to/lastmile_qr_scan", "android": "https://dc.lft.to/lastmile_qr_scan"}}, {"name": "350064f9418b1ab1329617e446516f65", "fusion_lat": 0.0, "type": "electric_bike", "lat": 38.9627835, "is_reserved": 0, "is_disabled": 0, "fusion_lon": 0.0, "bike_id": "350064f9418b1ab1329617e446516f65", "lon": -77.032526, "rental_uris": {"ios": "https://dc.lft.to/lastmile_qr_scan", "android": "https://dc.lft.to/lastmile_qr_scan"}}, {"name": "d6883745d3df736dc2678f5c9c353a00", "fusion_lat": 0.0, "type": "electric_bike", "lat": 38.8417015, "is_reserved": 0, "is_disabled": 0, "fusion_lon": 0.0, "bike_id": "d6883745d3df736dc2678f5c9c353a00", "lon": -77.0888515, "rental_uris": {"ios": "https://dc.lft.to/lastmile_qr_scan", "android": "https://dc.lft.to/lastmile_qr_scan"}}, {"name": "e1bec3576ecdf28f2e3de7016a55fe18", "fusion_lat": 0.0, "type": "electric_scooter", "lat": 38.923793833333335, "is_reserved": 0, "is_disabled": 0, "fusion_lon": 0.0, "bike_id": "e1bec3576ecdf28f2e3de7016a55fe18", "lon": -77.01914583333334, "rental_uris": {"ios": "https://dc.lft.to/lastmile_qr_scan", "android": "https://dc.lft.to/lastmile_qr_scan"}}, {"name": "740935a46e0013f100e2b145d1565522", "fusion_lat": 0.0, "type": "electric_scooter", "lat": 38.89704916666667, "is_reserved": 0, "is_disabled": 0, "fusion_lon": 0.0, "bike_id": "740935a46e0013f100e2b145d1565522", "lon": -77.02044016666666, "rental_uris": {"ios": "https://dc.lft.to/lastmile_qr_scan", "android": "https://dc.lft.to/lastmile_qr_scan"}}, {"name": "f555bc4e639bb5a38ef071c8a52a811a", "fusion_lat": 0.0, "type": "electric_scooter", "lat": 38.9013715, "is_reserved": 0, "is_disabled": 0, "fusion_lon": 0.0, "bike_id": "f555bc4e639bb5a38ef071c8a52a811a", "lon": -76.99120766666667, "rental_uris": {"ios": "https://dc.lft.to/lastmile_qr_scan", "android": "https://dc.lft.to/lastmile_qr_scan"}}, {"name": "92076ee2bb7a7d64245078f73cb76843", "fusion_lat": 0.0, "type": "electric_scooter", "lat": 38.858038666666666, "is_reserved": 0, "is_disabled": 0, "fusion_lon": 0.0, "bike_id": "92076ee2bb7a7d64245078f73cb76843", "lon": -76.98653766666666, "rental_uris": {"ios": "https://dc.lft.to/lastmile_qr_scan", "android": "https://dc.lft.to/lastmile_qr_scan"}}, {"name": "49d82ea872d3b50bd429748ae7cf881a", "fusion_lat": 0.0, "type": "electric_scooter", "lat": 38.8794175, "is_reserved": 0, "is_disabled": 0, "fusion_lon": 0.0, "bike_id": "49d82ea872d3b50bd429748ae7cf881a", "lon": -77.00814466666667, "rental_uris": {"ios": "https://dc.lft.to/lastmile_qr_scan", "android": "https://dc.lft.to/lastmile_qr_scan"}}, {"name": "da5286d5718ae293b684b98c4826f1be", "fusion_lat": 0.0, "type": "electric_scooter", "lat": 38.900289666666666, "is_reserved": 0, "is_disabled": 0, "fusion_lon": 0.0, "bike_id": "da5286d5718ae293b684b98c4826f1be", "lon": -76.99964033333333, "rental_uris": {"ios": "https://dc.lft.to/lastmile_qr_scan", "android": "https://dc.lft.to/lastmile_qr_scan"}}, {"name": "6aa9545d9138fb059fdd684df33c1825", "fusion_lat": 0.0, "type": "electric_bike", "lat": 39.052000166666666, "is_reserved": 0, "is_disabled": 0, "fusion_lon": 0.0, "bike_id": "6aa9545d9138fb059fdd684df33c1825", "lon": -77.10911216666666, "rental_uris": {"ios": "https://dc.lft.to/lastmile_qr_scan", "android": "https://dc.lft.to/lastmile_qr_scan"}}, {"name": "dc87fbe731846052d159059172230b5d", "fusion_lat": 0.0, "type": "electric_scooter", "lat": 38.90569683333333, "is_reserved": 0, "is_disabled": 0, "fusion_lon": 0.0, "bike_id": "dc87fbe731846052d159059172230b5d", "lon": -77.00604883333334, "rental_uris": {"ios": "https://dc.lft.to/lastmile_qr_scan", "android": "https://dc.lft.to/lastmile_qr_scan"}}, {"name": "ad0b13e5b8a000cb4a9b48ceee6a90ac", "fusion_lat": 0.0, "type": "electric_scooter", "lat": 38.89842683333333, "is_reserved": 0, "is_disabled": 0, "fusion_lon": 0.0, "bike_id": "ad0b13e5b8a000cb4a9b48ceee6a90ac", "lon": -77.00738166666666, "rental_uris": {"ios": "https://dc.lft.to/lastmile_qr_scan", "android": "https://dc.lft.to/lastmile_qr_scan"}}, {"name": "c708d339db5cc2b55a327855cb009784", "fusion_lat": 0.0, "type": "electric_scooter", "lat": 38.93897716666667, "is_reserved": 0, "is_disabled": 0, "fusion_lon": 0.0, "bike_id": "c708d339db5cc2b55a327855cb009784", "lon": -77.03283933333333, "rental_uris": {"ios": "https://dc.lft.to/lastmile_qr_scan", "android": "https://dc.lft.to/lastmile_qr_scan"}}, {"name": "13441b12657b5290f1a23e0ebce17947", "fusion_lat": 0.0, "type": "electric_scooter", "lat": 38.908780666666665, "is_reserved": 0, "is_disabled": 0, "fusion_lon": 0.0, "bike_id": "13441b12657b5290f1a23e0ebce17947", "lon": -77.04675933333333, "rental_uris": {"ios": "https://dc.lft.to/lastmile_qr_scan", "android": "https://dc.lft.to/lastmile_qr_scan"}}, {"name": "f2d55bb60ab5ac7ab3a1bd864b8a823b", "fusion_lat": 0.0, "type": "electric_scooter", "lat": 38.930955833333336, "is_reserved": 0, "is_disabled": 0, "fusion_lon": 0.0, "bike_id": "f2d55bb60ab5ac7ab3a1bd864b8a823b", "lon": -77.02402316666667, "rental_uris": {"ios": "https://dc.lft.to/lastmile_qr_scan", "android": "https://dc.lft.to/lastmile_qr_scan"}}, {"name": "9f433f4461955012bae40279c507eafd", "fusion_lat": 0.0, "type": "electric_scooter", "lat": 38.9024175, "is_reserved": 0, "is_disabled": 0, "fusion_lon": 0.0, "bike_id": "9f433f4461955012bae40279c507eafd", "lon": -76.9993925, "rental_uris": {"ios": "https://dc.lft.to/lastmile_qr_scan", "android": "https://dc.lft.to/lastmile_qr_scan"}}, {"name": "54122615e729055fa66d952157fe54fb", "fusion_lat": 0.0, "type": "electric_scooter", "lat": 38.9356565, "is_reserved": 0, "is_disabled": 0, "fusion_lon": 0.0, "bike_id": "54122615e729055fa66d952157fe54fb", "lon": -77.02136666666667, "rental_uris": {"ios": "https://dc.lft.to/lastmile_qr_scan", "android": "https://dc.lft.to/lastmile_qr_scan"}}, {"name": "cb1ca6441f676bdc171ed378e3d949b3", "fusion_lat": 0.0, "type": "electric_scooter", "lat": 38.935721666666666, "is_reserved": 0, "is_disabled": 0, "fusion_lon": 0.0, "bike_id": "cb1ca6441f676bdc171ed378e3d949b3", "lon": -77.0212205, "rental_uris": {"ios": "https://dc.lft.to/lastmile_qr_scan", "android": "https://dc.lft.to/lastmile_qr_scan"}}, {"name": "fe38673be515d2c8efba7ba0ce51d793", "fusion_lat": 0.0, "type": "electric_scooter", "lat": 38.90365216666667, "is_reserved": 0, "is_disabled": 0, "fusion_lon": 0.0, "bike_id": "fe38673be515d2c8efba7ba0ce51d793", "lon": -77.03997633333333, "rental_uris": {"ios": "https://dc.lft.to/lastmile_qr_scan", "android": "https://dc.lft.to/lastmile_qr_scan"}}, {"name": "9348ff2eb26eada549505265738fea79", "fusion_lat": 0.0, "type": "electric_scooter", "lat": 38.8983815, "is_reserved": 0, "is_disabled": 0, "fusion_lon": 0.0, "bike_id": "9348ff2eb26eada549505265738fea79", "lon": -77.02966366666666, "rental_uris": {"ios": "https://dc.lft.to/lastmile_qr_scan", "android": "https://dc.lft.to/lastmile_qr_scan"}}, {"name": "ef8253303c143749a6ba3ef95166b992", "fusion_lat": 0.0, "type": "electric_bike", "lat": 38.89777333333333, "is_reserved": 0, "is_disabled": 0, "fusion_lon": 0.0, "bike_id": "ef8253303c143749a6ba3ef95166b992", "lon": -76.90445383333333, "rental_uris": {"ios": "https://dc.lft.to/lastmile_qr_scan", "android": "https://dc.lft.to/lastmile_qr_scan"}}, {"name": "d4b0a3d48534f900c48b8192f248d1bc", "fusion_lat": 0.0, "type": "electric_scooter", "lat": 38.9159455, "is_reserved": 0, "is_disabled": 0, "fusion_lon": 0.0, "bike_id": "d4b0a3d48534f900c48b8192f248d1bc", "lon": -77.021147, "rental_uris": {"ios": "https://dc.lft.to/lastmile_qr_scan", "android": "https://dc.lft.to/lastmile_qr_scan"}}, {"name": "cef308bd2431f3ac921c7269d129c985", "fusion_lat": 0.0, "type": "electric_scooter", "lat": 38.89509533333333, "is_reserved": 0, "is_disabled": 0, "fusion_lon": 0.0, "bike_id": "cef308bd2431f3ac921c7269d129c985", "lon": -77.024231, "rental_uris": {"ios": "https://dc.lft.to/lastmile_qr_scan", "android": "https://dc.lft.to/lastmile_qr_scan"}}, {"name": "8e400f03efaa28c66a8d3e83f507d032", "fusion_lat": 0.0, "type": "electric_scooter", "lat": 38.91232266666667, "is_reserved": 0, "is_disabled": 0, "fusion_lon": 0.0, "bike_id": "8e400f03efaa28c66a8d3e83f507d032", "lon": -77.038456, "rental_uris": {"ios": "https://dc.lft.to/lastmile_qr_scan", "android": "https://dc.lft.to/lastmile_qr_scan"}}, {"name": "bd3abc1010e23047d5925326bb4609ed", "fusion_lat": 0.0, "type": "electric_bike", "lat": 38.909512666666664, "is_reserved": 0, "is_disabled": 0, "fusion_lon": 0.0, "bike_id": "bd3abc1010e23047d5925326bb4609ed", "lon": -77.088094, "rental_uris": {"ios": "https://dc.lft.to/lastmile_qr_scan", "android": "https://dc.lft.to/lastmile_qr_scan"}}, {"name": "7dbb1e4b51b0be43c6fc923dc53bc2d8", "fusion_lat": 0.0, "type": "electric_scooter", "lat": 38.906705333333335, "is_reserved": 0, "is_disabled": 0, "fusion_lon": 0.0, "bike_id": "7dbb1e4b51b0be43c6fc923dc53bc2d8", "lon": -76.978178, "rental_uris": {"ios": "https://dc.lft.to/lastmile_qr_scan", "android": "https://dc.lft.to/lastmile_qr_scan"}}, {"name": "bbdd9db57230e0ae0b2ccec4828d50cd", "fusion_lat": 0.0, "type": "electric_bike", "lat": 38.89184816666667, "is_reserved": 0, "is_disabled": 0, "fusion_lon": 0.0, "bike_id": "bbdd9db57230e0ae0b2ccec4828d50cd", "lon": -77.12258683333333, "rental_uris": {"ios": "https://dc.lft.to/lastmile_qr_scan", "android": "https://dc.lft.to/lastmile_qr_scan"}}, {"name": "ad10fc5ae0aa44d9df3cc2be3196aff7", "fusion_lat": 0.0, "type": "electric_bike", "lat": 38.813007166666665, "is_reserved": 0, "is_disabled": 0, "fusion_lon": 0.0, "bike_id": "ad10fc5ae0aa44d9df3cc2be3196aff7", "lon": -77.11208316666666, "rental_uris": {"ios": "https://dc.lft.to/lastmile_qr_scan", "android": "https://dc.lft.to/lastmile_qr_scan"}}, {"name": "67b910609536506a084826832359c310", "fusion_lat": 0.0, "type": "electric_scooter", "lat": 38.896094, "is_reserved": 0, "is_disabled": 0, "fusion_lon": 0.0, "bike_id": "67b910609536506a084826832359c310", "lon": -77.04688466666667, "rental_uris": {"ios": "https://dc.lft.to/lastmile_qr_scan", "android": "https://dc.lft.to/lastmile_qr_scan"}}, {"name": "b5676961986ac63e73e4c032a87185d8", "fusion_lat": 0.0, "type": "electric_scooter", "lat": 38.910597333333335, "is_reserved": 0, "is_disabled": 0, "fusion_lon": 0.0, "bike_id": "b5676961986ac63e73e4c032a87185d8", "lon": -77.05325733333333, "rental_uris": {"ios": "https://dc.lft.to/lastmile_qr_scan", "android": "https://dc.lft.to/lastmile_qr_scan"}}, {"name": "a6ffbd77888471f0fd2fa278915fcd27", "fusion_lat": 0.0, "type": "electric_bike", "lat": 38.8319165, "is_reserved": 0, "is_disabled": 0, "fusion_lon": 0.0, "bike_id": "a6ffbd77888471f0fd2fa278915fcd27", "lon": -77.07683183333333, "rental_uris": {"ios": "https://dc.lft.to/lastmile_qr_scan", "android": "https://dc.lft.to/lastmile_qr_scan"}}, {"name": "c7868074217eb85e1cb91ada43a8ff4e", "fusion_lat": 0.0, "type": "electric_scooter", "lat": 38.921796, "is_reserved": 0, "is_disabled": 0, "fusion_lon": 0.0, "bike_id": "c7868074217eb85e1cb91ada43a8ff4e", "lon": -77.0425245, "rental_uris": {"ios": "https://dc.lft.to/lastmile_qr_scan", "android": "https://dc.lft.to/lastmile_qr_scan"}}, {"name": "9a5be7b0878be8095ded0b0664d02ed0", "fusion_lat": 0.0, "type": "electric_scooter", "lat": 38.90147016666667, "is_reserved": 0, "is_disabled": 0, "fusion_lon": 0.0, "bike_id": "9a5be7b0878be8095ded0b0664d02ed0", "lon": -77.05913783333334, "rental_uris": {"ios": "https://dc.lft.to/lastmile_qr_scan", "android": "https://dc.lft.to/lastmile_qr_scan"}}, {"name": "23c5c413ac7959b5e3df97f9dfc2ab68", "fusion_lat": 0.0, "type": "electric_scooter", "lat": 38.91692316666666, "is_reserved": 0, "is_disabled": 0, "fusion_lon": 0.0, "bike_id": "23c5c413ac7959b5e3df97f9dfc2ab68", "lon": -77.04084816666666, "rental_uris": {"ios": "https://dc.lft.to/lastmile_qr_scan", "android": "https://dc.lft.to/lastmile_qr_scan"}}, {"name": "8694323e549449a30e38d8198fb980e5", "fusion_lat": 0.0, "type": "electric_scooter", "lat": 38.89229316666667, "is_reserved": 0, "is_disabled": 0, "fusion_lon": 0.0, "bike_id": "8694323e549449a30e38d8198fb980e5", "lon": -77.05004433333333, "rental_uris": {"ios": "https://dc.lft.to/lastmile_qr_scan", "android": "https://dc.lft.to/lastmile_qr_scan"}}, {"name": "b099bf4abbc8d34609aa6e438bcb2198", "fusion_lat": 0.0, "type": "electric_scooter", "lat": 38.9335845, "is_reserved": 0, "is_disabled": 0, "fusion_lon": 0.0, "bike_id": "b099bf4abbc8d34609aa6e438bcb2198", "lon": -77.037239, "rental_uris": {"ios": "https://dc.lft.to/lastmile_qr_scan", "android": "https://dc.lft.to/lastmile_qr_scan"}}, {"name": "8f5109d167f448454ce4f7860379ed42", "fusion_lat": 0.0, "type": "electric_scooter", "lat": 38.90005566666667, "is_reserved": 0, "is_disabled": 0, "fusion_lon": 0.0, "bike_id": "8f5109d167f448454ce4f7860379ed42", "lon": -77.04506583333334, "rental_uris": {"ios": "https://dc.lft.to/lastmile_qr_scan", "android": "https://dc.lft.to/lastmile_qr_scan"}}, {"name": "1b7ae9cd57774c672a68cf6e73e39d86", "fusion_lat": 0.0, "type": "electric_scooter", "lat": 38.90472416666667, "is_reserved": 0, "is_disabled": 0, "fusion_lon": 0.0, "bike_id": "1b7ae9cd57774c672a68cf6e73e39d86", "lon": -77.03858116666666, "rental_uris": {"ios": "https://dc.lft.to/lastmile_qr_scan", "android": "https://dc.lft.to/lastmile_qr_scan"}}, {"name": "d17b22aeafb7b8db4c7fc905a170ae72", "fusion_lat": 0.0, "type": "electric_scooter", "lat": 38.9171345, "is_reserved": 0, "is_disabled": 0, "fusion_lon": 0.0, "bike_id": "d17b22aeafb7b8db4c7fc905a170ae72", "lon": -77.028867, "rental_uris": {"ios": "https://dc.lft.to/lastmile_qr_scan", "android": "https://dc.lft.to/lastmile_qr_scan"}}, {"name": "d28699c034b7e76b24eb975c51f79d41", "fusion_lat": 0.0, "type": "electric_bike", "lat": 38.95536283333333, "is_reserved": 0, "is_disabled": 0, "fusion_lon": 0.0, "bike_id": "d28699c034b7e76b24eb975c51f79d41", "lon": -76.93516733333334, "rental_uris": {"ios": "https://dc.lft.to/lastmile_qr_scan", "android": "https://dc.lft.to/lastmile_qr_scan"}}, {"name": "76686f70c1af0d8c94d0f284c57719c5", "fusion_lat": 0.0, "type": "electric_scooter", "lat": 38.908465, "is_reserved": 0, "is_disabled": 0, "fusion_lon": 0.0, "bike_id": "76686f70c1af0d8c94d0f284c57719c5", "lon": -77.0204575, "rental_uris": {"ios": "https://dc.lft.to/lastmile_qr_scan", "android": "https://dc.lft.to/lastmile_qr_scan"}}, {"name": "08add89018a510e9e9ede762c8aaf716", "fusion_lat": 0.0, "type": "electric_scooter", "lat": 38.91985833333333, "is_reserved": 0, "is_disabled": 0, "fusion_lon": 0.0, "bike_id": "08add89018a510e9e9ede762c8aaf716", "lon": -76.97301516666667, "rental_uris": {"ios": "https://dc.lft.to/lastmile_qr_scan", "android": "https://dc.lft.to/lastmile_qr_scan"}}, {"name": "9dce533c8689ffe126be5322fe27e065", "fusion_lat": 0.0, "type": "electric_scooter", "lat": 38.91251283333333, "is_reserved": 0, "is_disabled": 0, "fusion_lon": 0.0, "bike_id": "9dce533c8689ffe126be5322fe27e065", "lon": -77.02220283333334, "rental_uris": {"ios": "https://dc.lft.to/lastmile_qr_scan", "android": "https://dc.lft.to/lastmile_qr_scan"}}, {"name": "fb2d63ce62b6e79327ac99a63ebbe2fb", "fusion_lat": 0.0, "type": "electric_scooter", "lat": 38.94288616666667, "is_reserved": 0, "is_disabled": 0, "fusion_lon": 0.0, "bike_id": "fb2d63ce62b6e79327ac99a63ebbe2fb", "lon": -77.02174633333334, "rental_uris": {"ios": "https://dc.lft.to/lastmile_qr_scan", "android": "https://dc.lft.to/lastmile_qr_scan"}}, {"name": "6f7591af956166274e6a48dde4cf698b", "fusion_lat": 0.0, "type": "electric_scooter", "lat": 38.932339999999996, "is_reserved": 0, "is_disabled": 0, "fusion_lon": 0.0, "bike_id": "6f7591af956166274e6a48dde4cf698b", "lon": -77.03582083333333, "rental_uris": {"ios": "https://dc.lft.to/lastmile_qr_scan", "android": "https://dc.lft.to/lastmile_qr_scan"}}, {"name": "e10fc7115bb4ea5f2dd9ab4de1853754", "fusion_lat": 0.0, "type": "electric_scooter", "lat": 38.8973585, "is_reserved": 0, "is_disabled": 0, "fusion_lon": 0.0, "bike_id": "e10fc7115bb4ea5f2dd9ab4de1853754", "lon": -76.9425245, "rental_uris": {"ios": "https://dc.lft.to/lastmile_qr_scan", "android": "https://dc.lft.to/lastmile_qr_scan"}}, {"name": "59547dd832aff2ef1e4e872ae2bbcf5e", "fusion_lat": 0.0, "type": "electric_scooter", "lat": 38.90793566666667, "is_reserved": 0, "is_disabled": 0, "fusion_lon": 0.0, "bike_id": "59547dd832aff2ef1e4e872ae2bbcf5e", "lon": -77.04823216666666, "rental_uris": {"ios": "https://dc.lft.to/lastmile_qr_scan", "android": "https://dc.lft.to/lastmile_qr_scan"}}, {"name": "5de032b5ffcde791cbe2ddd45f0f649c", "fusion_lat": 0.0, "type": "electric_scooter", "lat": 38.9300295, "is_reserved": 0, "is_disabled": 0, "fusion_lon": 0.0, "bike_id": "5de032b5ffcde791cbe2ddd45f0f649c", "lon": -77.023098, "rental_uris": {"ios": "https://dc.lft.to/lastmile_qr_scan", "android": "https://dc.lft.to/lastmile_qr_scan"}}, {"name": "30c976121c1a32261e457c856fae4b1d", "fusion_lat": 0.0, "type": "electric_bike", "lat": 38.938527666666666, "is_reserved": 0, "is_disabled": 0, "fusion_lon": 0.0, "bike_id": "30c976121c1a32261e457c856fae4b1d", "lon": -77.02652616666667, "rental_uris": {"ios": "https://dc.lft.to/lastmile_qr_scan", "android": "https://dc.lft.to/lastmile_qr_scan"}}, {"name": "834e449d5e3a885f1d4c61893ed03f2f", "fusion_lat": 0.0, "type": "electric_scooter", "lat": 38.875778, "is_reserved": 0, "is_disabled": 0, "fusion_lon": 0.0, "bike_id": "834e449d5e3a885f1d4c61893ed03f2f", "lon": -77.0072665, "rental_uris": {"ios": "https://dc.lft.to/lastmile_qr_scan", "android": "https://dc.lft.to/lastmile_qr_scan"}}, {"name": "53aff38d4020b34accb71b94fa32504d", "fusion_lat": 0.0, "type": "electric_scooter", "lat": 38.905195666666664, "is_reserved": 0, "is_disabled": 0, "fusion_lon": 0.0, "bike_id": "53aff38d4020b34accb71b94fa32504d", "lon": -77.02944733333334, "rental_uris": {"ios": "https://dc.lft.to/lastmile_qr_scan", "android": "https://dc.lft.to/lastmile_qr_scan"}}, {"name": "f00a3f2a9f6354bdf21d96b34f7b9a4e", "fusion_lat": 0.0, "type": "electric_scooter", "lat": 38.91876366666666, "is_reserved": 0, "is_disabled": 0, "fusion_lon": 0.0, "bike_id": "f00a3f2a9f6354bdf21d96b34f7b9a4e", "lon": -77.03653716666666, "rental_uris": {"ios": "https://dc.lft.to/lastmile_qr_scan", "android": "https://dc.lft.to/lastmile_qr_scan"}}, {"name": "129eb9f3fd3d0f288c265259e037eef4", "fusion_lat": 0.0, "type": "electric_scooter", "lat": 38.909657333333335, "is_reserved": 0, "is_disabled": 0, "fusion_lon": 0.0, "bike_id": "129eb9f3fd3d0f288c265259e037eef4", "lon": -77.04481716666666, "rental_uris": {"ios": "https://dc.lft.to/lastmile_qr_scan", "android": "https://dc.lft.to/lastmile_qr_scan"}}, {"name": "36a08baf02caa15aeb75faa4ca005891", "fusion_lat": 0.0, "type": "electric_scooter", "lat": 38.9242025, "is_reserved": 0, "is_disabled": 0, "fusion_lon": 0.0, "bike_id": "36a08baf02caa15aeb75faa4ca005891", "lon": -77.019504, "rental_uris": {"ios": "https://dc.lft.to/lastmile_qr_scan", "android": "https://dc.lft.to/lastmile_qr_scan"}}, {"name": "e72ed3e91ce33ff91d9afbd152a0fef5", "fusion_lat": 0.0, "type": "electric_scooter", "lat": 38.90463, "is_reserved": 0, "is_disabled": 0, "fusion_lon": 0.0, "bike_id": "e72ed3e91ce33ff91d9afbd152a0fef5", "lon": -77.041691, "rental_uris": {"ios": "https://dc.lft.to/lastmile_qr_scan", "android": "https://dc.lft.to/lastmile_qr_scan"}}, {"name": "4e12e9a81cb5a7666997fbf11473b597", "fusion_lat": 0.0, "type": "electric_scooter", "lat": 38.896580666666665, "is_reserved": 0, "is_disabled": 0, "fusion_lon": 0.0, "bike_id": "4e12e9a81cb5a7666997fbf11473b597", "lon": -77.04892066666666, "rental_uris": {"ios": "https://dc.lft.to/lastmile_qr_scan", "android": "https://dc.lft.to/lastmile_qr_scan"}}, {"name": "46e4b2da359fe7a533f4f7f33689b040", "fusion_lat": 0.0, "type": "electric_scooter", "lat": 38.919325666666666, "is_reserved": 0, "is_disabled": 0, "fusion_lon": 0.0, "bike_id": "46e4b2da359fe7a533f4f7f33689b040", "lon": -77.0237655, "rental_uris": {"ios": "https://dc.lft.to/lastmile_qr_scan", "android": "https://dc.lft.to/lastmile_qr_scan"}}, {"name": "26834c1c0a6859539676e13a4a38e34d", "fusion_lat": 0.0, "type": "electric_scooter", "lat": 38.90542133333334, "is_reserved": 0, "is_disabled": 0, "fusion_lon": 0.0, "bike_id": "26834c1c0a6859539676e13a4a38e34d", "lon": -77.02208916666666, "rental_uris": {"ios": "https://dc.lft.to/lastmile_qr_scan", "android": "https://dc.lft.to/lastmile_qr_scan"}}, {"name": "7c54f3221c5b71afc53bf6fcf62b4cca", "fusion_lat": 0.0, "type": "electric_scooter", "lat": 38.9046025, "is_reserved": 0, "is_disabled": 0, "fusion_lon": 0.0, "bike_id": "7c54f3221c5b71afc53bf6fcf62b4cca", "lon": -77.0417615, "rental_uris": {"ios": "https://dc.lft.to/lastmile_qr_scan", "android": "https://dc.lft.to/lastmile_qr_scan"}}, {"name": "09d463d70a77bea95ed7b10a81e12b07", "fusion_lat": 0.0, "type": "electric_scooter", "lat": 38.895098833333336, "is_reserved": 0, "is_disabled": 0, "fusion_lon": 0.0, "bike_id": "09d463d70a77bea95ed7b10a81e12b07", "lon": -76.94889566666667, "rental_uris": {"ios": "https://dc.lft.to/lastmile_qr_scan", "android": "https://dc.lft.to/lastmile_qr_scan"}}, {"name": "6800a8dba20722b6163eba0b0ba49735", "fusion_lat": 0.0, "type": "electric_scooter", "lat": 38.91892333333333, "is_reserved": 0, "is_disabled": 0, "fusion_lon": 0.0, "bike_id": "6800a8dba20722b6163eba0b0ba49735", "lon": -77.05285933333333, "rental_uris": {"ios": "https://dc.lft.to/lastmile_qr_scan", "android": "https://dc.lft.to/lastmile_qr_scan"}}, {"name": "9dbcd519580cb15d760497a61b56eb4d", "fusion_lat": 0.0, "type": "electric_scooter", "lat": 38.892760333333335, "is_reserved": 0, "is_disabled": 0, "fusion_lon": 0.0, "bike_id": "9dbcd519580cb15d760497a61b56eb4d", "lon": -77.05027283333334, "rental_uris": {"ios": "https://dc.lft.to/lastmile_qr_scan", "android": "https://dc.lft.to/lastmile_qr_scan"}}, {"name": "51078c26c402c5196e864fbb6d8e6c60", "fusion_lat": 0.0, "type": "electric_scooter", "lat": 38.89824433333333, "is_reserved": 0, "is_disabled": 0, "fusion_lon": 0.0, "bike_id": "51078c26c402c5196e864fbb6d8e6c60", "lon": -77.0333685, "rental_uris": {"ios": "https://dc.lft.to/lastmile_qr_scan", "android": "https://dc.lft.to/lastmile_qr_scan"}}, {"name": "d54c52e7fbfd8867d75d43a895274640", "fusion_lat": 0.0, "type": "electric_scooter", "lat": 38.894760166666664, "is_reserved": 0, "is_disabled": 0, "fusion_lon": 0.0, "bike_id": "d54c52e7fbfd8867d75d43a895274640", "lon": -76.94870883333333, "rental_uris": {"ios": "https://dc.lft.to/lastmile_qr_scan", "android": "https://dc.lft.to/lastmile_qr_scan"}}, {"name": "137feb01fc057e457e3810a2f34cb0ca", "fusion_lat": 0.0, "type": "electric_scooter", "lat": 38.8983105, "is_reserved": 0, "is_disabled": 0, "fusion_lon": 0.0, "bike_id": "137feb01fc057e457e3810a2f34cb0ca", "lon": -76.94642083333333, "rental_uris": {"ios": "https://dc.lft.to/lastmile_qr_scan", "android": "https://dc.lft.to/lastmile_qr_scan"}}, {"name": "23d0b655afa92294a771f71f3f664fa8", "fusion_lat": 0.0, "type": "electric_scooter", "lat": 38.883767666666664, "is_reserved": 0, "is_disabled": 0, "fusion_lon": 0.0, "bike_id": "23d0b655afa92294a771f71f3f664fa8", "lon": -76.99520666666666, "rental_uris": {"ios": "https://dc.lft.to/lastmile_qr_scan", "android": "https://dc.lft.to/lastmile_qr_scan"}}, {"name": "61ef8a5ade6ce9856a410e3c1a3b22a3", "fusion_lat": 0.0, "type": "electric_scooter", "lat": 38.925872166666664, "is_reserved": 0, "is_disabled": 0, "fusion_lon": 0.0, "bike_id": "61ef8a5ade6ce9856a410e3c1a3b22a3", "lon": -77.05301683333333, "rental_uris": {"ios": "https://dc.lft.to/lastmile_qr_scan", "android": "https://dc.lft.to/lastmile_qr_scan"}}, {"name": "9db7b263f9c7c2b889578c2ef7cfeedd", "fusion_lat": 0.0, "type": "electric_scooter", "lat": 38.909193, "is_reserved": 0, "is_disabled": 0, "fusion_lon": 0.0, "bike_id": "9db7b263f9c7c2b889578c2ef7cfeedd", "lon": -77.01886033333334, "rental_uris": {"ios": "https://dc.lft.to/lastmile_qr_scan", "android": "https://dc.lft.to/lastmile_qr_scan"}}, {"name": "b5d830d339c2d9779d4352566db9bcca", "fusion_lat": 0.0, "type": "electric_bike", "lat": 38.866298666666665, "is_reserved": 0, "is_disabled": 0, "fusion_lon": 0.0, "bike_id": "b5d830d339c2d9779d4352566db9bcca", "lon": -77.01058816666666, "rental_uris": {"ios": "https://dc.lft.to/lastmile_qr_scan", "android": "https://dc.lft.to/lastmile_qr_scan"}}, {"name": "2c368d814724d7f0c5848564c454a0fe", "fusion_lat": 0.0, "type": "electric_scooter", "lat": 38.95217516666666, "is_reserved": 0, "is_disabled": 0, "fusion_lon": 0.0, "bike_id": "2c368d814724d7f0c5848564c454a0fe", "lon": -77.07067266666667, "rental_uris": {"ios": "https://dc.lft.to/lastmile_qr_scan", "android": "https://dc.lft.to/lastmile_qr_scan"}}, {"name": "bb86e03922912494e14d636729008b3c", "fusion_lat": 0.0, "type": "electric_scooter", "lat": 38.894777, "is_reserved": 0, "is_disabled": 0, "fusion_lon": 0.0, "bike_id": "bb86e03922912494e14d636729008b3c", "lon": -77.02394166666667, "rental_uris": {"ios": "https://dc.lft.to/lastmile_qr_scan", "android": "https://dc.lft.to/lastmile_qr_scan"}}, {"name": "8c5a01c5a2fc4e69dbb319f4bd115497", "fusion_lat": 0.0, "type": "electric_scooter", "lat": 38.899102, "is_reserved": 0, "is_disabled": 0, "fusion_lon": 0.0, "bike_id": "8c5a01c5a2fc4e69dbb319f4bd115497", "lon": -77.03283966666666, "rental_uris": {"ios": "https://dc.lft.to/lastmile_qr_scan", "android": "https://dc.lft.to/lastmile_qr_scan"}}, {"name": "ec4a62a168284aec2d1bd494edddeb6a", "fusion_lat": 0.0, "type": "electric_scooter", "lat": 38.91052416666667, "is_reserved": 0, "is_disabled": 0, "fusion_lon": 0.0, "bike_id": "ec4a62a168284aec2d1bd494edddeb6a", "lon": -77.04578566666666, "rental_uris": {"ios": "https://dc.lft.to/lastmile_qr_scan", "android": "https://dc.lft.to/lastmile_qr_scan"}}, {"name": "407cb852ed2aab5f6d15f09006a0eb4a", "fusion_lat": 0.0, "type": "electric_scooter", "lat": 38.8649995, "is_reserved": 0, "is_disabled": 0, "fusion_lon": 0.0, "bike_id": "407cb852ed2aab5f6d15f09006a0eb4a", "lon": -76.990098, "rental_uris": {"ios": "https://dc.lft.to/lastmile_qr_scan", "android": "https://dc.lft.to/lastmile_qr_scan"}}, {"name": "2bd4a1175fda59d278a319d85691f851", "fusion_lat": 0.0, "type": "electric_scooter", "lat": 38.932297166666665, "is_reserved": 0, "is_disabled": 0, "fusion_lon": 0.0, "bike_id": "2bd4a1175fda59d278a319d85691f851", "lon": -77.03094683333333, "rental_uris": {"ios": "https://dc.lft.to/lastmile_qr_scan", "android": "https://dc.lft.to/lastmile_qr_scan"}}, {"name": "f8e5ee5d730153623c930a8242c329c0", "fusion_lat": 0.0, "type": "electric_scooter", "lat": 38.96172333333333, "is_reserved": 0, "is_disabled": 0, "fusion_lon": 0.0, "bike_id": "f8e5ee5d730153623c930a8242c329c0", "lon": -77.03227316666667, "rental_uris": {"ios": "https://dc.lft.to/lastmile_qr_scan", "android": "https://dc.lft.to/lastmile_qr_scan"}}, {"name": "c723d03148fffb0c4b6b8d7bcddc9dc7", "fusion_lat": 0.0, "type": "electric_scooter", "lat": 38.9039005, "is_reserved": 0, "is_disabled": 0, "fusion_lon": 0.0, "bike_id": "c723d03148fffb0c4b6b8d7bcddc9dc7", "lon": -77.046129, "rental_uris": {"ios": "https://dc.lft.to/lastmile_qr_scan", "android": "https://dc.lft.to/lastmile_qr_scan"}}, {"name": "1b60d25342991518d5718975b34e51a5", "fusion_lat": 0.0, "type": "electric_scooter", "lat": 38.94555483333333, "is_reserved": 0, "is_disabled": 0, "fusion_lon": 0.0, "bike_id": "1b60d25342991518d5718975b34e51a5", "lon": -77.04246783333333, "rental_uris": {"ios": "https://dc.lft.to/lastmile_qr_scan", "android": "https://dc.lft.to/lastmile_qr_scan"}}, {"name": "9282a839effd0266e517d53bfab62b8e", "fusion_lat": 0.0, "type": "electric_scooter", "lat": 38.9318845, "is_reserved": 0, "is_disabled": 0, "fusion_lon": 0.0, "bike_id": "9282a839effd0266e517d53bfab62b8e", "lon": -77.0283335, "rental_uris": {"ios": "https://dc.lft.to/lastmile_qr_scan", "android": "https://dc.lft.to/lastmile_qr_scan"}}, {"name": "28bbad67cf12d6b1b2b6f122161816a9", "fusion_lat": 0.0, "type": "electric_scooter", "lat": 38.90582366666667, "is_reserved": 0, "is_disabled": 0, "fusion_lon": 0.0, "bike_id": "28bbad67cf12d6b1b2b6f122161816a9", "lon": -77.046901, "rental_uris": {"ios": "https://dc.lft.to/lastmile_qr_scan", "android": "https://dc.lft.to/lastmile_qr_scan"}}, {"name": "6f6f7886c3ab67401ec7729ed2cade88", "fusion_lat": 0.0, "type": "electric_scooter", "lat": 38.90554783333333, "is_reserved": 0, "is_disabled": 0, "fusion_lon": 0.0, "bike_id": "6f6f7886c3ab67401ec7729ed2cade88", "lon": -77.02191033333334, "rental_uris": {"ios": "https://dc.lft.to/lastmile_qr_scan", "android": "https://dc.lft.to/lastmile_qr_scan"}}, {"name": "d309bfe2a8e7deb8a91228cfc404c8ae", "fusion_lat": 0.0, "type": "electric_scooter", "lat": 38.92007783333333, "is_reserved": 0, "is_disabled": 0, "fusion_lon": 0.0, "bike_id": "d309bfe2a8e7deb8a91228cfc404c8ae", "lon": -76.9849395, "rental_uris": {"ios": "https://dc.lft.to/lastmile_qr_scan", "android": "https://dc.lft.to/lastmile_qr_scan"}}, {"name": "e51e4303548d92b4550407c1e4818e95", "fusion_lat": 0.0, "type": "electric_scooter", "lat": 38.920113666666666, "is_reserved": 0, "is_disabled": 0, "fusion_lon": 0.0, "bike_id": "e51e4303548d92b4550407c1e4818e95", "lon": -77.034887, "rental_uris": {"ios": "https://dc.lft.to/lastmile_qr_scan", "android": "https://dc.lft.to/lastmile_qr_scan"}}, {"name": "0b86784feae2d28a540026a0974b3032", "fusion_lat": 0.0, "type": "electric_bike", "lat": 38.85064166666667, "is_reserved": 0, "is_disabled": 0, "fusion_lon": 0.0, "bike_id": "0b86784feae2d28a540026a0974b3032", "lon": -76.973327, "rental_uris": {"ios": "https://dc.lft.to/lastmile_qr_scan", "android": "https://dc.lft.to/lastmile_qr_scan"}}, {"name": "e4d992f03cf84769d062720d262d21db", "fusion_lat": 0.0, "type": "electric_bike", "lat": 38.9734305, "is_reserved": 0, "is_disabled": 0, "fusion_lon": 0.0, "bike_id": "e4d992f03cf84769d062720d262d21db", "lon": -77.10041016666666, "rental_uris": {"ios": "https://dc.lft.to/lastmile_qr_scan", "android": "https://dc.lft.to/lastmile_qr_scan"}}, {"name": "6f813e5744ef13112676bb8b27dda8e8", "fusion_lat": 0.0, "type": "electric_scooter", "lat": 38.917378666666664, "is_reserved": 0, "is_disabled": 0, "fusion_lon": 0.0, "bike_id": "6f813e5744ef13112676bb8b27dda8e8", "lon": -77.04158316666667, "rental_uris": {"ios": "https://dc.lft.to/lastmile_qr_scan", "android": "https://dc.lft.to/lastmile_qr_scan"}}, {"name": "6c8154628658eebf2d2e1c20cda6c39e", "fusion_lat": 0.0, "type": "electric_scooter", "lat": 38.892300666666664, "is_reserved": 0, "is_disabled": 0, "fusion_lon": 0.0, "bike_id": "6c8154628658eebf2d2e1c20cda6c39e", "lon": -77.046406, "rental_uris": {"ios": "https://dc.lft.to/lastmile_qr_scan", "android": "https://dc.lft.to/lastmile_qr_scan"}}, {"name": "1cbc6912a7d8e3ed53bcf197a7554d45", "fusion_lat": 0.0, "type": "electric_scooter", "lat": 38.8960505, "is_reserved": 0, "is_disabled": 0, "fusion_lon": 0.0, "bike_id": "1cbc6912a7d8e3ed53bcf197a7554d45", "lon": -77.046884, "rental_uris": {"ios": "https://dc.lft.to/lastmile_qr_scan", "android": "https://dc.lft.to/lastmile_qr_scan"}}, {"name": "3025db80501fe4f58919c0aca439d40f", "fusion_lat": 0.0, "type": "electric_scooter", "lat": 38.90237583333333, "is_reserved": 0, "is_disabled": 0, "fusion_lon": 0.0, "bike_id": "3025db80501fe4f58919c0aca439d40f", "lon": -77.0019855, "rental_uris": {"ios": "https://dc.lft.to/lastmile_qr_scan", "android": "https://dc.lft.to/lastmile_qr_scan"}}, {"name": "aee01b7338a97f1922f3ce499e651906", "fusion_lat": 0.0, "type": "electric_bike", "lat": 38.869023166666665, "is_reserved": 0, "is_disabled": 0, "fusion_lon": 0.0, "bike_id": "aee01b7338a97f1922f3ce499e651906", "lon": -77.13180866666667, "rental_uris": {"ios": "https://dc.lft.to/lastmile_qr_scan", "android": "https://dc.lft.to/lastmile_qr_scan"}}, {"name": "aa69ccbef412f5e165ee4a0f67c27f1c", "fusion_lat": 0.0, "type": "electric_scooter", "lat": 38.90693516666666, "is_reserved": 0, "is_disabled": 0, "fusion_lon": 0.0, "bike_id": "aa69ccbef412f5e165ee4a0f67c27f1c", "lon": -77.024041, "rental_uris": {"ios": "https://dc.lft.to/lastmile_qr_scan", "android": "https://dc.lft.to/lastmile_qr_scan"}}, {"name": "8d9bcc621bba8817aa51c1b60bf47256", "fusion_lat": 0.0, "type": "electric_scooter", "lat": 38.90968516666667, "is_reserved": 0, "is_disabled": 0, "fusion_lon": 0.0, "bike_id": "8d9bcc621bba8817aa51c1b60bf47256", "lon": -77.02182533333334, "rental_uris": {"ios": "https://dc.lft.to/lastmile_qr_scan", "android": "https://dc.lft.to/lastmile_qr_scan"}}, {"name": "267809c659a0f44726f0dfd089828a87", "fusion_lat": 0.0, "type": "electric_scooter", "lat": 38.8442285, "is_reserved": 0, "is_disabled": 0, "fusion_lon": 0.0, "bike_id": "267809c659a0f44726f0dfd089828a87", "lon": -76.99781833333333, "rental_uris": {"ios": "https://dc.lft.to/lastmile_qr_scan", "android": "https://dc.lft.to/lastmile_qr_scan"}}, {"name": "65496946157834fd1f4ff6c9d37b2479", "fusion_lat": 0.0, "type": "electric_bike", "lat": 38.83433383333333, "is_reserved": 0, "is_disabled": 0, "fusion_lon": 0.0, "bike_id": "65496946157834fd1f4ff6c9d37b2479", "lon": -77.00821433333333, "rental_uris": {"ios": "https://dc.lft.to/lastmile_qr_scan", "android": "https://dc.lft.to/lastmile_qr_scan"}}, {"name": "26f1e3471031ce1b6e0a78b9e32dab85", "fusion_lat": 0.0, "type": "electric_scooter", "lat": 38.8936015, "is_reserved": 0, "is_disabled": 0, "fusion_lon": 0.0, "bike_id": "26f1e3471031ce1b6e0a78b9e32dab85", "lon": -76.9498515, "rental_uris": {"ios": "https://dc.lft.to/lastmile_qr_scan", "android": "https://dc.lft.to/lastmile_qr_scan"}}, {"name": "a2aa551499a08194e907b3876c34016a", "fusion_lat": 0.0, "type": "electric_scooter", "lat": 38.89222, "is_reserved": 0, "is_disabled": 0, "fusion_lon": 0.0, "bike_id": "a2aa551499a08194e907b3876c34016a", "lon": -77.01372616666667, "rental_uris": {"ios": "https://dc.lft.to/lastmile_qr_scan", "android": "https://dc.lft.to/lastmile_qr_scan"}}, {"name": "653cd4c1c0e9a9e016df14a0f2f787e8", "fusion_lat": 0.0, "type": "electric_scooter", "lat": 38.9004395, "is_reserved": 0, "is_disabled": 0, "fusion_lon": 0.0, "bike_id": "653cd4c1c0e9a9e016df14a0f2f787e8", "lon": -76.98833566666667, "rental_uris": {"ios": "https://dc.lft.to/lastmile_qr_scan", "android": "https://dc.lft.to/lastmile_qr_scan"}}, {"name": "13875402206cdc8ae24e3fcc6fb858f9", "fusion_lat": 0.0, "type": "electric_scooter", "lat": 38.910480166666666, "is_reserved": 0, "is_disabled": 0, "fusion_lon": 0.0, "bike_id": "13875402206cdc8ae24e3fcc6fb858f9", "lon": -77.04256266666667, "rental_uris": {"ios": "https://dc.lft.to/lastmile_qr_scan", "android": "https://dc.lft.to/lastmile_qr_scan"}}, {"name": "7f4de6e9c1d05d8fedaa1a80352c8ba2", "fusion_lat": 0.0, "type": "electric_scooter", "lat": 38.93146566666667, "is_reserved": 0, "is_disabled": 0, "fusion_lon": 0.0, "bike_id": "7f4de6e9c1d05d8fedaa1a80352c8ba2", "lon": -77.02979, "rental_uris": {"ios": "https://dc.lft.to/lastmile_qr_scan", "android": "https://dc.lft.to/lastmile_qr_scan"}}, {"name": "bf5d4b8fbaf61d9982d9ca0e3774654c", "fusion_lat": 0.0, "type": "electric_scooter", "lat": 38.91106216666667, "is_reserved": 0, "is_disabled": 0, "fusion_lon": 0.0, "bike_id": "bf5d4b8fbaf61d9982d9ca0e3774654c", "lon": -77.03920266666667, "rental_uris": {"ios": "https://dc.lft.to/lastmile_qr_scan", "android": "https://dc.lft.to/lastmile_qr_scan"}}, {"name": "b460d3389ecbacefde8f70e50faea051", "fusion_lat": 0.0, "type": "electric_scooter", "lat": 38.905719500000004, "is_reserved": 0, "is_disabled": 0, "fusion_lon": 0.0, "bike_id": "b460d3389ecbacefde8f70e50faea051", "lon": -77.0210225, "rental_uris": {"ios": "https://dc.lft.to/lastmile_qr_scan", "android": "https://dc.lft.to/lastmile_qr_scan"}}, {"name": "1118c48799f07cb557ba22286068f675", "fusion_lat": 0.0, "type": "electric_scooter", "lat": 38.896744166666664, "is_reserved": 0, "is_disabled": 0, "fusion_lon": 0.0, "bike_id": "1118c48799f07cb557ba22286068f675", "lon": -77.029676, "rental_uris": {"ios": "https://dc.lft.to/lastmile_qr_scan", "android": "https://dc.lft.to/lastmile_qr_scan"}}, {"name": "adfcaca90b0b91770f62cfcfe728c02e", "fusion_lat": 0.0, "type": "electric_scooter", "lat": 38.906408166666665, "is_reserved": 0, "is_disabled": 0, "fusion_lon": 0.0, "bike_id": "adfcaca90b0b91770f62cfcfe728c02e", "lon": -77.02604116666667, "rental_uris": {"ios": "https://dc.lft.to/lastmile_qr_scan", "android": "https://dc.lft.to/lastmile_qr_scan"}}, {"name": "5514607af1086d84c48676a8a32c77b9", "fusion_lat": 0.0, "type": "electric_scooter", "lat": 38.938591333333335, "is_reserved": 0, "is_disabled": 0, "fusion_lon": 0.0, "bike_id": "5514607af1086d84c48676a8a32c77b9", "lon": -77.02649333333333, "rental_uris": {"ios": "https://dc.lft.to/lastmile_qr_scan", "android": "https://dc.lft.to/lastmile_qr_scan"}}, {"name": "b042038c66cba1785df0df9246cb4e3b", "fusion_lat": 0.0, "type": "electric_scooter", "lat": 38.90363683333333, "is_reserved": 0, "is_disabled": 0, "fusion_lon": 0.0, "bike_id": "b042038c66cba1785df0df9246cb4e3b", "lon": -77.00345733333333, "rental_uris": {"ios": "https://dc.lft.to/lastmile_qr_scan", "android": "https://dc.lft.to/lastmile_qr_scan"}}, {"name": "bf4d4061be85ad12ef879ef98567d66c", "fusion_lat": 0.0, "type": "electric_scooter", "lat": 38.905611, "is_reserved": 0, "is_disabled": 0, "fusion_lon": 0.0, "bike_id": "bf4d4061be85ad12ef879ef98567d66c", "lon": -77.02798116666666, "rental_uris": {"ios": "https://dc.lft.to/lastmile_qr_scan", "android": "https://dc.lft.to/lastmile_qr_scan"}}, {"name": "c918d35c5a66ebed73039d11a2fc7b47", "fusion_lat": 0.0, "type": "electric_scooter", "lat": 38.9047515, "is_reserved": 0, "is_disabled": 0, "fusion_lon": 0.0, "bike_id": "c918d35c5a66ebed73039d11a2fc7b47", "lon": -77.02825916666667, "rental_uris": {"ios": "https://dc.lft.to/lastmile_qr_scan", "android": "https://dc.lft.to/lastmile_qr_scan"}}, {"name": "51a4ed9e5ce13f8a446ffc34482abbf0", "fusion_lat": 0.0, "type": "electric_bike", "lat": 38.92864433333333, "is_reserved": 0, "is_disabled": 0, "fusion_lon": 0.0, "bike_id": "51a4ed9e5ce13f8a446ffc34482abbf0", "lon": -76.96110483333334, "rental_uris": {"ios": "https://dc.lft.to/lastmile_qr_scan", "android": "https://dc.lft.to/lastmile_qr_scan"}}, {"name": "9ec5416c3e0415638897048b6b32a3c3", "fusion_lat": 0.0, "type": "electric_scooter", "lat": 38.887344666666664, "is_reserved": 0, "is_disabled": 0, "fusion_lon": 0.0, "bike_id": "9ec5416c3e0415638897048b6b32a3c3", "lon": -77.01544683333333, "rental_uris": {"ios": "https://dc.lft.to/lastmile_qr_scan", "android": "https://dc.lft.to/lastmile_qr_scan"}}, {"name": "29b9d47c1b751865152837193bb0c596", "fusion_lat": 0.0, "type": "electric_scooter", "lat": 38.862436833333334, "is_reserved": 0, "is_disabled": 0, "fusion_lon": 0.0, "bike_id": "29b9d47c1b751865152837193bb0c596", "lon": -76.99496183333333, "rental_uris": {"ios": "https://dc.lft.to/lastmile_qr_scan", "android": "https://dc.lft.to/lastmile_qr_scan"}}, {"name": "eb4e116858bf88a8d79ffdf14c6137c0", "fusion_lat": 0.0, "type": "electric_scooter", "lat": 38.941100666666664, "is_reserved": 0, "is_disabled": 0, "fusion_lon": 0.0, "bike_id": "eb4e116858bf88a8d79ffdf14c6137c0", "lon": -77.02667333333333, "rental_uris": {"ios": "https://dc.lft.to/lastmile_qr_scan", "android": "https://dc.lft.to/lastmile_qr_scan"}}, {"name": "9f470531765266a55a91002514706965", "fusion_lat": 0.0, "type": "electric_scooter", "lat": 38.965618666666664, "is_reserved": 0, "is_disabled": 0, "fusion_lon": 0.0, "bike_id": "9f470531765266a55a91002514706965", "lon": -77.01628966666667, "rental_uris": {"ios": "https://dc.lft.to/lastmile_qr_scan", "android": "https://dc.lft.to/lastmile_qr_scan"}}, {"name": "a760da687e20a2544209baa389bce0ba", "fusion_lat": 0.0, "type": "electric_scooter", "lat": 38.92433, "is_reserved": 0, "is_disabled": 0, "fusion_lon": 0.0, "bike_id": "a760da687e20a2544209baa389bce0ba", "lon": -77.04143066666667, "rental_uris": {"ios": "https://dc.lft.to/lastmile_qr_scan", "android": "https://dc.lft.to/lastmile_qr_scan"}}, {"name": "0513096d47a42f2b2341846e58e27a96", "fusion_lat": 0.0, "type": "electric_scooter", "lat": 38.9198415, "is_reserved": 0, "is_disabled": 0, "fusion_lon": 0.0, "bike_id": "0513096d47a42f2b2341846e58e27a96", "lon": -77.03309666666667, "rental_uris": {"ios": "https://dc.lft.to/lastmile_qr_scan", "android": "https://dc.lft.to/lastmile_qr_scan"}}, {"name": "665df1982ac762dd123eb50c17073b3e", "fusion_lat": 0.0, "type": "electric_scooter", "lat": 38.93179583333333, "is_reserved": 0, "is_disabled": 0, "fusion_lon": 0.0, "bike_id": "665df1982ac762dd123eb50c17073b3e", "lon": -77.0560855, "rental_uris": {"ios": "https://dc.lft.to/lastmile_qr_scan", "android": "https://dc.lft.to/lastmile_qr_scan"}}, {"name": "82a92d414abbacce3a1730651bf37cbe", "fusion_lat": 0.0, "type": "electric_scooter", "lat": 38.87708, "is_reserved": 0, "is_disabled": 0, "fusion_lon": 0.0, "bike_id": "82a92d414abbacce3a1730651bf37cbe", "lon": -76.99383716666667, "rental_uris": {"ios": "https://dc.lft.to/lastmile_qr_scan", "android": "https://dc.lft.to/lastmile_qr_scan"}}, {"name": "db7e69a54d2591709a8fe8b3796c3a01", "fusion_lat": 0.0, "type": "electric_scooter", "lat": 38.919737, "is_reserved": 0, "is_disabled": 0, "fusion_lon": 0.0, "bike_id": "db7e69a54d2591709a8fe8b3796c3a01", "lon": -77.025155, "rental_uris": {"ios": "https://dc.lft.to/lastmile_qr_scan", "android": "https://dc.lft.to/lastmile_qr_scan"}}, {"name": "69f63fd3a55f91e8cf7e12be4a9955ed", "fusion_lat": 0.0, "type": "electric_scooter", "lat": 38.920624, "is_reserved": 0, "is_disabled": 0, "fusion_lon": 0.0, "bike_id": "69f63fd3a55f91e8cf7e12be4a9955ed", "lon": -77.0469555, "rental_uris": {"ios": "https://dc.lft.to/lastmile_qr_scan", "android": "https://dc.lft.to/lastmile_qr_scan"}}, {"name": "59d678c3ab583502bf0a1110cc8aa00c", "fusion_lat": 0.0, "type": "electric_scooter", "lat": 38.89083516666667, "is_reserved": 0, "is_disabled": 0, "fusion_lon": 0.0, "bike_id": "59d678c3ab583502bf0a1110cc8aa00c", "lon": -76.99789066666666, "rental_uris": {"ios": "https://dc.lft.to/lastmile_qr_scan", "android": "https://dc.lft.to/lastmile_qr_scan"}}, {"name": "5e48822bfd1b99ef90ab4ec3d0579a15", "fusion_lat": 0.0, "type": "electric_bike", "lat": 38.96546766666667, "is_reserved": 0, "is_disabled": 0, "fusion_lon": 0.0, "bike_id": "5e48822bfd1b99ef90ab4ec3d0579a15", "lon": -77.03519033333333, "rental_uris": {"ios": "https://dc.lft.to/lastmile_qr_scan", "android": "https://dc.lft.to/lastmile_qr_scan"}}, {"name": "7fa977f3c8f7bf836ae48759e7f5a8c3", "fusion_lat": 0.0, "type": "electric_bike", "lat": 38.87073916666667, "is_reserved": 0, "is_disabled": 0, "fusion_lon": 0.0, "bike_id": "7fa977f3c8f7bf836ae48759e7f5a8c3", "lon": -77.1105975, "rental_uris": {"ios": "https://dc.lft.to/lastmile_qr_scan", "android": "https://dc.lft.to/lastmile_qr_scan"}}, {"name": "67f957f02d7fbe8eafbc1bdddda81bc5", "fusion_lat": 0.0, "type": "electric_scooter", "lat": 38.8775095, "is_reserved": 0, "is_disabled": 0, "fusion_lon": 0.0, "bike_id": "67f957f02d7fbe8eafbc1bdddda81bc5", "lon": -76.9723785, "rental_uris": {"ios": "https://dc.lft.to/lastmile_qr_scan", "android": "https://dc.lft.to/lastmile_qr_scan"}}, {"name": "bd96fca06a1cc7b64315e7bfdd42fee4", "fusion_lat": 0.0, "type": "electric_scooter", "lat": 38.9164005, "is_reserved": 0, "is_disabled": 0, "fusion_lon": 0.0, "bike_id": "bd96fca06a1cc7b64315e7bfdd42fee4", "lon": -77.032135, "rental_uris": {"ios": "https://dc.lft.to/lastmile_qr_scan", "android": "https://dc.lft.to/lastmile_qr_scan"}}, {"name": "218702f26ffbc99c094913cda89c1a90", "fusion_lat": 0.0, "type": "electric_scooter", "lat": 38.948318, "is_reserved": 0, "is_disabled": 0, "fusion_lon": 0.0, "bike_id": "218702f26ffbc99c094913cda89c1a90", "lon": -77.02552733333333, "rental_uris": {"ios": "https://dc.lft.to/lastmile_qr_scan", "android": "https://dc.lft.to/lastmile_qr_scan"}}, {"name": "f5bdfac80ef89e9e7c7e6611c2857d71", "fusion_lat": 0.0, "type": "electric_scooter", "lat": 38.92313083333333, "is_reserved": 0, "is_disabled": 0, "fusion_lon": 0.0, "bike_id": "f5bdfac80ef89e9e7c7e6611c2857d71", "lon": -77.04112583333334, "rental_uris": {"ios": "https://dc.lft.to/lastmile_qr_scan", "android": "https://dc.lft.to/lastmile_qr_scan"}}, {"name": "b5cb2e4b02bcf571d068b28381698294", "fusion_lat": 0.0, "type": "electric_scooter", "lat": 38.923756833333336, "is_reserved": 0, "is_disabled": 0, "fusion_lon": 0.0, "bike_id": "b5cb2e4b02bcf571d068b28381698294", "lon": -77.01911583333333, "rental_uris": {"ios": "https://dc.lft.to/lastmile_qr_scan", "android": "https://dc.lft.to/lastmile_qr_scan"}}, {"name": "392675f4fdd68a3a6f827c513889f0eb", "fusion_lat": 0.0, "type": "electric_scooter", "lat": 38.88982166666667, "is_reserved": 0, "is_disabled": 0, "fusion_lon": 0.0, "bike_id": "392675f4fdd68a3a6f827c513889f0eb", "lon": -77.00116716666666, "rental_uris": {"ios": "https://dc.lft.to/lastmile_qr_scan", "android": "https://dc.lft.to/lastmile_qr_scan"}}, {"name": "2641694549d1412549eb61caac2eb060", "fusion_lat": 0.0, "type": "electric_scooter", "lat": 38.886983666666666, "is_reserved": 0, "is_disabled": 0, "fusion_lon": 0.0, "bike_id": "2641694549d1412549eb61caac2eb060", "lon": -77.03372583333334, "rental_uris": {"ios": "https://dc.lft.to/lastmile_qr_scan", "android": "https://dc.lft.to/lastmile_qr_scan"}}, {"name": "29676a94f2222dae56d7b89f7515abca", "fusion_lat": 0.0, "type": "electric_scooter", "lat": 38.914003666666666, "is_reserved": 0, "is_disabled": 0, "fusion_lon": 0.0, "bike_id": "29676a94f2222dae56d7b89f7515abca", "lon": -77.032123, "rental_uris": {"ios": "https://dc.lft.to/lastmile_qr_scan", "android": "https://dc.lft.to/lastmile_qr_scan"}}, {"name": "e84b94c9c55cb210a3df193e3c29db66", "fusion_lat": 0.0, "type": "electric_scooter", "lat": 38.9113075, "is_reserved": 0, "is_disabled": 0, "fusion_lon": 0.0, "bike_id": "e84b94c9c55cb210a3df193e3c29db66", "lon": -77.0418385, "rental_uris": {"ios": "https://dc.lft.to/lastmile_qr_scan", "android": "https://dc.lft.to/lastmile_qr_scan"}}, {"name": "0581237f708b898b234e31c840d9b760", "fusion_lat": 0.0, "type": "electric_scooter", "lat": 38.89189183333333, "is_reserved": 0, "is_disabled": 0, "fusion_lon": 0.0, "bike_id": "0581237f708b898b234e31c840d9b760", "lon": -77.01585283333333, "rental_uris": {"ios": "https://dc.lft.to/lastmile_qr_scan", "android": "https://dc.lft.to/lastmile_qr_scan"}}, {"name": "e690b07508020e083f7b06968d9677ef", "fusion_lat": 0.0, "type": "electric_scooter", "lat": 38.889942, "is_reserved": 0, "is_disabled": 0, "fusion_lon": 0.0, "bike_id": "e690b07508020e083f7b06968d9677ef", "lon": -76.99250283333333, "rental_uris": {"ios": "https://dc.lft.to/lastmile_qr_scan", "android": "https://dc.lft.to/lastmile_qr_scan"}}, {"name": "ff2428faf248875eccb2ed103c575b8f", "fusion_lat": 0.0, "type": "electric_scooter", "lat": 38.94289766666667, "is_reserved": 0, "is_disabled": 0, "fusion_lon": 0.0, "bike_id": "ff2428faf248875eccb2ed103c575b8f", "lon": -77.0217305, "rental_uris": {"ios": "https://dc.lft.to/lastmile_qr_scan", "android": "https://dc.lft.to/lastmile_qr_scan"}}, {"name": "2cab390fdd06d322c49fb9d12ecf315d", "fusion_lat": 0.0, "type": "electric_scooter", "lat": 38.91098183333333, "is_reserved": 0, "is_disabled": 0, "fusion_lon": 0.0, "bike_id": "2cab390fdd06d322c49fb9d12ecf315d", "lon": -77.07351116666666, "rental_uris": {"ios": "https://dc.lft.to/lastmile_qr_scan", "android": "https://dc.lft.to/lastmile_qr_scan"}}, {"name": "08b963c2352ab0e94cdb98c44e2260f2", "fusion_lat": 0.0, "type": "electric_bike", "lat": 38.892152333333335, "is_reserved": 0, "is_disabled": 0, "fusion_lon": 0.0, "bike_id": "08b963c2352ab0e94cdb98c44e2260f2", "lon": -77.10779833333333, "rental_uris": {"ios": "https://dc.lft.to/lastmile_qr_scan", "android": "https://dc.lft.to/lastmile_qr_scan"}}, {"name": "843793f985216e400815352b0d04dc2f", "fusion_lat": 0.0, "type": "electric_scooter", "lat": 38.9118225, "is_reserved": 0, "is_disabled": 0, "fusion_lon": 0.0, "bike_id": "843793f985216e400815352b0d04dc2f", "lon": -77.03864683333333, "rental_uris": {"ios": "https://dc.lft.to/lastmile_qr_scan", "android": "https://dc.lft.to/lastmile_qr_scan"}}, {"name": "13a4ff02263e3afef567138f7e6ce2e6", "fusion_lat": 0.0, "type": "electric_scooter", "lat": 38.85910916666667, "is_reserved": 0, "is_disabled": 0, "fusion_lon": 0.0, "bike_id": "13a4ff02263e3afef567138f7e6ce2e6", "lon": -76.9898195, "rental_uris": {"ios": "https://dc.lft.to/lastmile_qr_scan", "android": "https://dc.lft.to/lastmile_qr_scan"}}, {"name": "d82c72b81ab9d9a587a92f448a7faae6", "fusion_lat": 0.0, "type": "electric_scooter", "lat": 38.87286833333334, "is_reserved": 0, "is_disabled": 0, "fusion_lon": 0.0, "bike_id": "d82c72b81ab9d9a587a92f448a7faae6", "lon": -77.00988133333334, "rental_uris": {"ios": "https://dc.lft.to/lastmile_qr_scan", "android": "https://dc.lft.to/lastmile_qr_scan"}}, {"name": "e785a128a49d2277daa176beee9b27cb", "fusion_lat": 0.0, "type": "electric_scooter", "lat": 38.957296, "is_reserved": 0, "is_disabled": 0, "fusion_lon": 0.0, "bike_id": "e785a128a49d2277daa176beee9b27cb", "lon": -77.02405583333334, "rental_uris": {"ios": "https://dc.lft.to/lastmile_qr_scan", "android": "https://dc.lft.to/lastmile_qr_scan"}}, {"name": "fa4f6aa50be5e8e102b35304fbb97f5e", "fusion_lat": 0.0, "type": "electric_scooter", "lat": 38.912571, "is_reserved": 0, "is_disabled": 0, "fusion_lon": 0.0, "bike_id": "fa4f6aa50be5e8e102b35304fbb97f5e", "lon": -77.03156916666667, "rental_uris": {"ios": "https://dc.lft.to/lastmile_qr_scan", "android": "https://dc.lft.to/lastmile_qr_scan"}}, {"name": "4b1e7ace0e95d427ee747deee27ee8d0", "fusion_lat": 0.0, "type": "electric_scooter", "lat": 38.933899333333336, "is_reserved": 0, "is_disabled": 0, "fusion_lon": 0.0, "bike_id": "4b1e7ace0e95d427ee747deee27ee8d0", "lon": -77.0357765, "rental_uris": {"ios": "https://dc.lft.to/lastmile_qr_scan", "android": "https://dc.lft.to/lastmile_qr_scan"}}, {"name": "7891c49cf3625e6ac868b913cc179106", "fusion_lat": 0.0, "type": "electric_scooter", "lat": 38.88312333333333, "is_reserved": 0, "is_disabled": 0, "fusion_lon": 0.0, "bike_id": "7891c49cf3625e6ac868b913cc179106", "lon": -77.023845, "rental_uris": {"ios": "https://dc.lft.to/lastmile_qr_scan", "android": "https://dc.lft.to/lastmile_qr_scan"}}, {"name": "a301622402db7728e565c1ca33171c36", "fusion_lat": 0.0, "type": "electric_scooter", "lat": 38.9300475, "is_reserved": 0, "is_disabled": 0, "fusion_lon": 0.0, "bike_id": "a301622402db7728e565c1ca33171c36", "lon": -77.05517633333334, "rental_uris": {"ios": "https://dc.lft.to/lastmile_qr_scan", "android": "https://dc.lft.to/lastmile_qr_scan"}}, {"name": "36f0f76f0f7323aac1c2db32007448ed", "fusion_lat": 0.0, "type": "electric_scooter", "lat": 38.926431, "is_reserved": 0, "is_disabled": 0, "fusion_lon": 0.0, "bike_id": "36f0f76f0f7323aac1c2db32007448ed", "lon": -77.0372675, "rental_uris": {"ios": "https://dc.lft.to/lastmile_qr_scan", "android": "https://dc.lft.to/lastmile_qr_scan"}}, {"name": "22e672d3e3414c9a7866cba33034041e", "fusion_lat": 0.0, "type": "electric_scooter", "lat": 38.9096815, "is_reserved": 0, "is_disabled": 0, "fusion_lon": 0.0, "bike_id": "22e672d3e3414c9a7866cba33034041e", "lon": -77.03417966666666, "rental_uris": {"ios": "https://dc.lft.to/lastmile_qr_scan", "android": "https://dc.lft.to/lastmile_qr_scan"}}, {"name": "a0403aaeb33345f4e3dd68cecd03d959", "fusion_lat": 0.0, "type": "electric_scooter", "lat": 38.928243333333334, "is_reserved": 0, "is_disabled": 0, "fusion_lon": 0.0, "bike_id": "a0403aaeb33345f4e3dd68cecd03d959", "lon": -77.022565, "rental_uris": {"ios": "https://dc.lft.to/lastmile_qr_scan", "android": "https://dc.lft.to/lastmile_qr_scan"}}, {"name": "edb071bce8bb312c2f02b5cd603eb911", "fusion_lat": 0.0, "type": "electric_scooter", "lat": 38.89998583333333, "is_reserved": 0, "is_disabled": 0, "fusion_lon": 0.0, "bike_id": "edb071bce8bb312c2f02b5cd603eb911", "lon": -77.05335583333333, "rental_uris": {"ios": "https://dc.lft.to/lastmile_qr_scan", "android": "https://dc.lft.to/lastmile_qr_scan"}}, {"name": "2f62b48a71d37989e60b49ba509e98ff", "fusion_lat": 0.0, "type": "electric_scooter", "lat": 38.9078075, "is_reserved": 0, "is_disabled": 0, "fusion_lon": 0.0, "bike_id": "2f62b48a71d37989e60b49ba509e98ff", "lon": -77.07251566666666, "rental_uris": {"ios": "https://dc.lft.to/lastmile_qr_scan", "android": "https://dc.lft.to/lastmile_qr_scan"}}, {"name": "491a8da8850dd145a47652ee83377780", "fusion_lat": 0.0, "type": "electric_scooter", "lat": 38.92854633333334, "is_reserved": 0, "is_disabled": 0, "fusion_lon": 0.0, "bike_id": "491a8da8850dd145a47652ee83377780", "lon": -77.03440833333333, "rental_uris": {"ios": "https://dc.lft.to/lastmile_qr_scan", "android": "https://dc.lft.to/lastmile_qr_scan"}}, {"name": "1379d29a58a8f9d4c51fcff882c00b8d", "fusion_lat": 0.0, "type": "electric_scooter", "lat": 38.89549933333333, "is_reserved": 0, "is_disabled": 0, "fusion_lon": 0.0, "bike_id": "1379d29a58a8f9d4c51fcff882c00b8d", "lon": -76.94882266666667, "rental_uris": {"ios": "https://dc.lft.to/lastmile_qr_scan", "android": "https://dc.lft.to/lastmile_qr_scan"}}, {"name": "ad09d846484dd021a47e513d5562917e", "fusion_lat": 0.0, "type": "electric_scooter", "lat": 38.909690166666664, "is_reserved": 0, "is_disabled": 0, "fusion_lon": 0.0, "bike_id": "ad09d846484dd021a47e513d5562917e", "lon": -77.01123066666666, "rental_uris": {"ios": "https://dc.lft.to/lastmile_qr_scan", "android": "https://dc.lft.to/lastmile_qr_scan"}}, {"name": "20e584681cb9236cc0abbf9cf7da04d8", "fusion_lat": 0.0, "type": "electric_scooter", "lat": 38.903910833333335, "is_reserved": 0, "is_disabled": 0, "fusion_lon": 0.0, "bike_id": "20e584681cb9236cc0abbf9cf7da04d8", "lon": -77.00681366666667, "rental_uris": {"ios": "https://dc.lft.to/lastmile_qr_scan", "android": "https://dc.lft.to/lastmile_qr_scan"}}, {"name": "a9a064bddc22e84aab8a72388beb717c", "fusion_lat": 0.0, "type": "electric_bike", "lat": 38.95925033333333, "is_reserved": 0, "is_disabled": 0, "fusion_lon": 0.0, "bike_id": "a9a064bddc22e84aab8a72388beb717c", "lon": -76.9253485, "rental_uris": {"ios": "https://dc.lft.to/lastmile_qr_scan", "android": "https://dc.lft.to/lastmile_qr_scan"}}, {"name": "7f98b610cc3749176f1b6128a4a95151", "fusion_lat": 0.0, "type": "electric_scooter", "lat": 38.91229383333334, "is_reserved": 0, "is_disabled": 0, "fusion_lon": 0.0, "bike_id": "7f98b610cc3749176f1b6128a4a95151", "lon": -77.04883583333333, "rental_uris": {"ios": "https://dc.lft.to/lastmile_qr_scan", "android": "https://dc.lft.to/lastmile_qr_scan"}}, {"name": "e406bc16ce6a687e669fabdc583681c3", "fusion_lat": 0.0, "type": "electric_scooter", "lat": 38.903272333333334, "is_reserved": 0, "is_disabled": 0, "fusion_lon": 0.0, "bike_id": "e406bc16ce6a687e669fabdc583681c3", "lon": -77.050239, "rental_uris": {"ios": "https://dc.lft.to/lastmile_qr_scan", "android": "https://dc.lft.to/lastmile_qr_scan"}}, {"name": "338409139cec6ebda406f35768245d53", "fusion_lat": 0.0, "type": "electric_bike", "lat": 38.939493666666664, "is_reserved": 0, "is_disabled": 0, "fusion_lon": 0.0, "bike_id": "338409139cec6ebda406f35768245d53", "lon": -77.360942, "rental_uris": {"ios": "https://dc.lft.to/lastmile_qr_scan", "android": "https://dc.lft.to/lastmile_qr_scan"}}, {"name": "9907cf946eafdea641261631dba68470", "fusion_lat": 0.0, "type": "electric_scooter", "lat": 38.909941833333335, "is_reserved": 0, "is_disabled": 0, "fusion_lon": 0.0, "bike_id": "9907cf946eafdea641261631dba68470", "lon": -77.034788, "rental_uris": {"ios": "https://dc.lft.to/lastmile_qr_scan", "android": "https://dc.lft.to/lastmile_qr_scan"}}, {"name": "5b78a9f25e355fb18ae3083d478ecebe", "fusion_lat": 0.0, "type": "electric_bike", "lat": 38.92696, "is_reserved": 0, "is_disabled": 0, "fusion_lon": 0.0, "bike_id": "5b78a9f25e355fb18ae3083d478ecebe", "lon": -77.00793283333333, "rental_uris": {"ios": "https://dc.lft.to/lastmile_qr_scan", "android": "https://dc.lft.to/lastmile_qr_scan"}}, {"name": "a9947409e910f94f337d916ceb53bf1b", "fusion_lat": 0.0, "type": "electric_bike", "lat": 38.84588266666667, "is_reserved": 0, "is_disabled": 0, "fusion_lon": 0.0, "bike_id": "a9947409e910f94f337d916ceb53bf1b", "lon": -76.9687855, "rental_uris": {"ios": "https://dc.lft.to/lastmile_qr_scan", "android": "https://dc.lft.to/lastmile_qr_scan"}}, {"name": "220969c7abf56cc3de3ebd15123a5cbb", "fusion_lat": 0.0, "type": "electric_scooter", "lat": 38.90342866666667, "is_reserved": 0, "is_disabled": 0, "fusion_lon": 0.0, "bike_id": "220969c7abf56cc3de3ebd15123a5cbb", "lon": -77.01763566666666, "rental_uris": {"ios": "https://dc.lft.to/lastmile_qr_scan", "android": "https://dc.lft.to/lastmile_qr_scan"}}, {"name": "6a5afa2ebf7ad77b1e1a045e0be0e90e", "fusion_lat": 0.0, "type": "electric_scooter", "lat": 38.908133166666666, "is_reserved": 0, "is_disabled": 0, "fusion_lon": 0.0, "bike_id": "6a5afa2ebf7ad77b1e1a045e0be0e90e", "lon": -77.039515, "rental_uris": {"ios": "https://dc.lft.to/lastmile_qr_scan", "android": "https://dc.lft.to/lastmile_qr_scan"}}, {"name": "4d95ab9e80136f1d7c27e6efa01ae562", "fusion_lat": 0.0, "type": "electric_bike", "lat": 38.8774825, "is_reserved": 0, "is_disabled": 0, "fusion_lon": 0.0, "bike_id": "4d95ab9e80136f1d7c27e6efa01ae562", "lon": -76.97984083333333, "rental_uris": {"ios": "https://dc.lft.to/lastmile_qr_scan", "android": "https://dc.lft.to/lastmile_qr_scan"}}, {"name": "53bc1a66d1c2bcbbaf2e782638d4cab4", "fusion_lat": 0.0, "type": "electric_scooter", "lat": 38.9002365, "is_reserved": 0, "is_disabled": 0, "fusion_lon": 0.0, "bike_id": "53bc1a66d1c2bcbbaf2e782638d4cab4", "lon": -76.99867833333333, "rental_uris": {"ios": "https://dc.lft.to/lastmile_qr_scan", "android": "https://dc.lft.to/lastmile_qr_scan"}}, {"name": "3e3ca53338f85ea13e781b48f0426008", "fusion_lat": 0.0, "type": "electric_scooter", "lat": 38.9104065, "is_reserved": 0, "is_disabled": 0, "fusion_lon": 0.0, "bike_id": "3e3ca53338f85ea13e781b48f0426008", "lon": -77.0437585, "rental_uris": {"ios": "https://dc.lft.to/lastmile_qr_scan", "android": "https://dc.lft.to/lastmile_qr_scan"}}, {"name": "ccbc9d7132a40373e2499773a3e7e797", "fusion_lat": 0.0, "type": "electric_scooter", "lat": 38.934193666666665, "is_reserved": 0, "is_disabled": 0, "fusion_lon": 0.0, "bike_id": "ccbc9d7132a40373e2499773a3e7e797", "lon": -77.04187883333333, "rental_uris": {"ios": "https://dc.lft.to/lastmile_qr_scan", "android": "https://dc.lft.to/lastmile_qr_scan"}}, {"name": "fc12adf5ffc875044fd2c99e176498aa", "fusion_lat": 0.0, "type": "electric_scooter", "lat": 38.92722033333333, "is_reserved": 0, "is_disabled": 0, "fusion_lon": 0.0, "bike_id": "fc12adf5ffc875044fd2c99e176498aa", "lon": -77.07135933333333, "rental_uris": {"ios": "https://dc.lft.to/lastmile_qr_scan", "android": "https://dc.lft.to/lastmile_qr_scan"}}, {"name": "1241bda905d23ec2ccfd773cfe8afc18", "fusion_lat": 0.0, "type": "electric_scooter", "lat": 38.8859085, "is_reserved": 0, "is_disabled": 0, "fusion_lon": 0.0, "bike_id": "1241bda905d23ec2ccfd773cfe8afc18", "lon": -77.02208216666666, "rental_uris": {"ios": "https://dc.lft.to/lastmile_qr_scan", "android": "https://dc.lft.to/lastmile_qr_scan"}}, {"name": "c4a35739cbdc4b05fb3702853389bfb5", "fusion_lat": 0.0, "type": "electric_scooter", "lat": 38.898534, "is_reserved": 0, "is_disabled": 0, "fusion_lon": 0.0, "bike_id": "c4a35739cbdc4b05fb3702853389bfb5", "lon": -77.0161245, "rental_uris": {"ios": "https://dc.lft.to/lastmile_qr_scan", "android": "https://dc.lft.to/lastmile_qr_scan"}}, {"name": "3acbb99bc79c9144534538a38e367675", "fusion_lat": 0.0, "type": "electric_scooter", "lat": 38.920046666666664, "is_reserved": 0, "is_disabled": 0, "fusion_lon": 0.0, "bike_id": "3acbb99bc79c9144534538a38e367675", "lon": -77.081998, "rental_uris": {"ios": "https://dc.lft.to/lastmile_qr_scan", "android": "https://dc.lft.to/lastmile_qr_scan"}}, {"name": "5a9ff463ab17431299f81c988f0ca6b9", "fusion_lat": 0.0, "type": "electric_bike", "lat": 38.88340616666667, "is_reserved": 0, "is_disabled": 0, "fusion_lon": 0.0, "bike_id": "5a9ff463ab17431299f81c988f0ca6b9", "lon": -77.182904, "rental_uris": {"ios": "https://dc.lft.to/lastmile_qr_scan", "android": "https://dc.lft.to/lastmile_qr_scan"}}, {"name": "088c82d374d5c956a47881414c5cbfb8", "fusion_lat": 0.0, "type": "electric_scooter", "lat": 38.89368966666667, "is_reserved": 0, "is_disabled": 0, "fusion_lon": 0.0, "bike_id": "088c82d374d5c956a47881414c5cbfb8", "lon": -76.94997, "rental_uris": {"ios": "https://dc.lft.to/lastmile_qr_scan", "android": "https://dc.lft.to/lastmile_qr_scan"}}, {"name": "0f2e950960b5bf794e938b038bf019cd", "fusion_lat": 0.0, "type": "electric_scooter", "lat": 38.90843133333333, "is_reserved": 0, "is_disabled": 0, "fusion_lon": 0.0, "bike_id": "0f2e950960b5bf794e938b038bf019cd", "lon": -77.03479983333334, "rental_uris": {"ios": "https://dc.lft.to/lastmile_qr_scan", "android": "https://dc.lft.to/lastmile_qr_scan"}}, {"name": "a9b12b5fe329b561aba8d289c93b9838", "fusion_lat": 0.0, "type": "electric_scooter", "lat": 38.91719466666667, "is_reserved": 0, "is_disabled": 0, "fusion_lon": 0.0, "bike_id": "a9b12b5fe329b561aba8d289c93b9838", "lon": -77.0081765, "rental_uris": {"ios": "https://dc.lft.to/lastmile_qr_scan", "android": "https://dc.lft.to/lastmile_qr_scan"}}, {"name": "693b11b5078676465082990d6a05f04e", "fusion_lat": 0.0, "type": "electric_scooter", "lat": 38.91903666666666, "is_reserved": 0, "is_disabled": 0, "fusion_lon": 0.0, "bike_id": "693b11b5078676465082990d6a05f04e", "lon": -77.024048, "rental_uris": {"ios": "https://dc.lft.to/lastmile_qr_scan", "android": "https://dc.lft.to/lastmile_qr_scan"}}, {"name": "ed515ca0c0177984553d32610c5c1d57", "fusion_lat": 0.0, "type": "electric_bike", "lat": 38.96438933333334, "is_reserved": 0, "is_disabled": 0, "fusion_lon": 0.0, "bike_id": "ed515ca0c0177984553d32610c5c1d57", "lon": -77.03164266666667, "rental_uris": {"ios": "https://dc.lft.to/lastmile_qr_scan", "android": "https://dc.lft.to/lastmile_qr_scan"}}, {"name": "dfe52ab90871257708cf7c11c9d4bf80", "fusion_lat": 0.0, "type": "electric_scooter", "lat": 38.897215833333334, "is_reserved": 0, "is_disabled": 0, "fusion_lon": 0.0, "bike_id": "dfe52ab90871257708cf7c11c9d4bf80", "lon": -77.02330933333333, "rental_uris": {"ios": "https://dc.lft.to/lastmile_qr_scan", "android": "https://dc.lft.to/lastmile_qr_scan"}}, {"name": "82bafcaaad7f7bbf2a0629ce5dbff850", "fusion_lat": 0.0, "type": "electric_scooter", "lat": 38.920609166666665, "is_reserved": 0, "is_disabled": 0, "fusion_lon": 0.0, "bike_id": "82bafcaaad7f7bbf2a0629ce5dbff850", "lon": -76.97814933333333, "rental_uris": {"ios": "https://dc.lft.to/lastmile_qr_scan", "android": "https://dc.lft.to/lastmile_qr_scan"}}, {"name": "79f799005c60dbc393642a469e296eda", "fusion_lat": 0.0, "type": "electric_scooter", "lat": 38.91095633333333, "is_reserved": 0, "is_disabled": 0, "fusion_lon": 0.0, "bike_id": "79f799005c60dbc393642a469e296eda", "lon": -77.0296835, "rental_uris": {"ios": "https://dc.lft.to/lastmile_qr_scan", "android": "https://dc.lft.to/lastmile_qr_scan"}}, {"name": "51151a61782f9181d362e022c2960bc3", "fusion_lat": 0.0, "type": "electric_scooter", "lat": 38.91189266666667, "is_reserved": 0, "is_disabled": 0, "fusion_lon": 0.0, "bike_id": "51151a61782f9181d362e022c2960bc3", "lon": -77.0346675, "rental_uris": {"ios": "https://dc.lft.to/lastmile_qr_scan", "android": "https://dc.lft.to/lastmile_qr_scan"}}, {"name": "60a644f877b66f0e24c4103d1c6bc013", "fusion_lat": 0.0, "type": "electric_scooter", "lat": 38.86537033333333, "is_reserved": 0, "is_disabled": 0, "fusion_lon": 0.0, "bike_id": "60a644f877b66f0e24c4103d1c6bc013", "lon": -76.98707333333333, "rental_uris": {"ios": "https://dc.lft.to/lastmile_qr_scan", "android": "https://dc.lft.to/lastmile_qr_scan"}}, {"name": "90315fdc242f2d5190df0961ff48f10d", "fusion_lat": 0.0, "type": "electric_scooter", "lat": 38.918457833333335, "is_reserved": 0, "is_disabled": 0, "fusion_lon": 0.0, "bike_id": "90315fdc242f2d5190df0961ff48f10d", "lon": -77.0259125, "rental_uris": {"ios": "https://dc.lft.to/lastmile_qr_scan", "android": "https://dc.lft.to/lastmile_qr_scan"}}, {"name": "4b20e3d52653ec398fd5fc5884ce239e", "fusion_lat": 0.0, "type": "electric_scooter", "lat": 38.902355666666665, "is_reserved": 0, "is_disabled": 0, "fusion_lon": 0.0, "bike_id": "4b20e3d52653ec398fd5fc5884ce239e", "lon": -77.00195166666667, "rental_uris": {"ios": "https://dc.lft.to/lastmile_qr_scan", "android": "https://dc.lft.to/lastmile_qr_scan"}}, {"name": "a2dacff1dcd6d3ab347ad7381c60755c", "fusion_lat": 0.0, "type": "electric_scooter", "lat": 38.83230733333333, "is_reserved": 0, "is_disabled": 0, "fusion_lon": 0.0, "bike_id": "a2dacff1dcd6d3ab347ad7381c60755c", "lon": -76.98881683333333, "rental_uris": {"ios": "https://dc.lft.to/lastmile_qr_scan", "android": "https://dc.lft.to/lastmile_qr_scan"}}, {"name": "3dba6a5b36f0698efae1f2f39b3cd834", "fusion_lat": 0.0, "type": "electric_scooter", "lat": 38.903765666666665, "is_reserved": 0, "is_disabled": 0, "fusion_lon": 0.0, "bike_id": "3dba6a5b36f0698efae1f2f39b3cd834", "lon": -77.027233, "rental_uris": {"ios": "https://dc.lft.to/lastmile_qr_scan", "android": "https://dc.lft.to/lastmile_qr_scan"}}, {"name": "6ff27c2857a6209f4b18af6ffe638744", "fusion_lat": 0.0, "type": "electric_bike", "lat": 38.84347983333333, "is_reserved": 0, "is_disabled": 0, "fusion_lon": 0.0, "bike_id": "6ff27c2857a6209f4b18af6ffe638744", "lon": -77.06401633333333, "rental_uris": {"ios": "https://dc.lft.to/lastmile_qr_scan", "android": "https://dc.lft.to/lastmile_qr_scan"}}, {"name": "e8ab3699e3e8ed16d21db102d4dbafc8", "fusion_lat": 0.0, "type": "electric_scooter", "lat": 38.927485833333336, "is_reserved": 0, "is_disabled": 0, "fusion_lon": 0.0, "bike_id": "e8ab3699e3e8ed16d21db102d4dbafc8", "lon": -77.0242045, "rental_uris": {"ios": "https://dc.lft.to/lastmile_qr_scan", "android": "https://dc.lft.to/lastmile_qr_scan"}}, {"name": "639532eb1d7696a33f4e9e75b3e06e1e", "fusion_lat": 0.0, "type": "electric_scooter", "lat": 38.87708333333333, "is_reserved": 0, "is_disabled": 0, "fusion_lon": 0.0, "bike_id": "639532eb1d7696a33f4e9e75b3e06e1e", "lon": -77.01768566666667, "rental_uris": {"ios": "https://dc.lft.to/lastmile_qr_scan", "android": "https://dc.lft.to/lastmile_qr_scan"}}, {"name": "367e765dfcbf475c3692f1db099eac23", "fusion_lat": 0.0, "type": "electric_scooter", "lat": 38.90275583333333, "is_reserved": 0, "is_disabled": 0, "fusion_lon": 0.0, "bike_id": "367e765dfcbf475c3692f1db099eac23", "lon": -77.044588, "rental_uris": {"ios": "https://dc.lft.to/lastmile_qr_scan", "android": "https://dc.lft.to/lastmile_qr_scan"}}, {"name": "e71fabe6e6f06d1f5aca5aed3f973db6", "fusion_lat": 0.0, "type": "electric_scooter", "lat": 38.8972575, "is_reserved": 0, "is_disabled": 0, "fusion_lon": 0.0, "bike_id": "e71fabe6e6f06d1f5aca5aed3f973db6", "lon": -77.04338633333333, "rental_uris": {"ios": "https://dc.lft.to/lastmile_qr_scan", "android": "https://dc.lft.to/lastmile_qr_scan"}}, {"name": "ff3b7f263237cc7bd0904630620a5176", "fusion_lat": 0.0, "type": "electric_scooter", "lat": 38.91657433333334, "is_reserved": 0, "is_disabled": 0, "fusion_lon": 0.0, "bike_id": "ff3b7f263237cc7bd0904630620a5176", "lon": -77.0419915, "rental_uris": {"ios": "https://dc.lft.to/lastmile_qr_scan", "android": "https://dc.lft.to/lastmile_qr_scan"}}, {"name": "b5d0a872d51b4ba9e48c5ef18761169a", "fusion_lat": 0.0, "type": "electric_scooter", "lat": 38.892350666666665, "is_reserved": 0, "is_disabled": 0, "fusion_lon": 0.0, "bike_id": "b5d0a872d51b4ba9e48c5ef18761169a", "lon": -77.032193, "rental_uris": {"ios": "https://dc.lft.to/lastmile_qr_scan", "android": "https://dc.lft.to/lastmile_qr_scan"}}, {"name": "11dec9b00f61026e7933e2d90b19d762", "fusion_lat": 0.0, "type": "electric_scooter", "lat": 38.9220885, "is_reserved": 0, "is_disabled": 0, "fusion_lon": 0.0, "bike_id": "11dec9b00f61026e7933e2d90b19d762", "lon": -77.04314566666666, "rental_uris": {"ios": "https://dc.lft.to/lastmile_qr_scan", "android": "https://dc.lft.to/lastmile_qr_scan"}}, {"name": "e7a16f4fc90e78f02613764bd45d77e3", "fusion_lat": 0.0, "type": "electric_scooter", "lat": 38.916912333333336, "is_reserved": 0, "is_disabled": 0, "fusion_lon": 0.0, "bike_id": "e7a16f4fc90e78f02613764bd45d77e3", "lon": -77.04336566666667, "rental_uris": {"ios": "https://dc.lft.to/lastmile_qr_scan", "android": "https://dc.lft.to/lastmile_qr_scan"}}, {"name": "e96fc02052cce661266d54991279c7da", "fusion_lat": 0.0, "type": "electric_scooter", "lat": 38.885895833333336, "is_reserved": 0, "is_disabled": 0, "fusion_lon": 0.0, "bike_id": "e96fc02052cce661266d54991279c7da", "lon": -77.022054, "rental_uris": {"ios": "https://dc.lft.to/lastmile_qr_scan", "android": "https://dc.lft.to/lastmile_qr_scan"}}, {"name": "10107a538e5292641eb12d13c08d9991", "fusion_lat": 0.0, "type": "electric_bike", "lat": 38.94073483333333, "is_reserved": 0, "is_disabled": 0, "fusion_lon": 0.0, "bike_id": "10107a538e5292641eb12d13c08d9991", "lon": -77.038218, "rental_uris": {"ios": "https://dc.lft.to/lastmile_qr_scan", "android": "https://dc.lft.to/lastmile_qr_scan"}}, {"name": "2c15ed9345f6ed8b8f45615d077c7c00", "fusion_lat": 0.0, "type": "electric_scooter", "lat": 38.93480433333333, "is_reserved": 0, "is_disabled": 0, "fusion_lon": 0.0, "bike_id": "2c15ed9345f6ed8b8f45615d077c7c00", "lon": -77.07270316666667, "rental_uris": {"ios": "https://dc.lft.to/lastmile_qr_scan", "android": "https://dc.lft.to/lastmile_qr_scan"}}, {"name": "ee00bd7b20201202306d8493473a580b", "fusion_lat": 0.0, "type": "electric_scooter", "lat": 38.8996705, "is_reserved": 0, "is_disabled": 0, "fusion_lon": 0.0, "bike_id": "ee00bd7b20201202306d8493473a580b", "lon": -77.0297025, "rental_uris": {"ios": "https://dc.lft.to/lastmile_qr_scan", "android": "https://dc.lft.to/lastmile_qr_scan"}}, {"name": "31c237197a6e11d00ae83b0d36ffb49d", "fusion_lat": 0.0, "type": "electric_scooter", "lat": 38.90428583333333, "is_reserved": 0, "is_disabled": 0, "fusion_lon": 0.0, "bike_id": "31c237197a6e11d00ae83b0d36ffb49d", "lon": -77.05318983333333, "rental_uris": {"ios": "https://dc.lft.to/lastmile_qr_scan", "android": "https://dc.lft.to/lastmile_qr_scan"}}, {"name": "18bd4aa2497e9abc3d0f9bd88a51b960", "fusion_lat": 0.0, "type": "electric_scooter", "lat": 38.8606945, "is_reserved": 0, "is_disabled": 0, "fusion_lon": 0.0, "bike_id": "18bd4aa2497e9abc3d0f9bd88a51b960", "lon": -76.96733683333333, "rental_uris": {"ios": "https://dc.lft.to/lastmile_qr_scan", "android": "https://dc.lft.to/lastmile_qr_scan"}}, {"name": "05e8e918b6bc815f1233b85a18d9b5d5", "fusion_lat": 0.0, "type": "electric_scooter", "lat": 38.91938916666667, "is_reserved": 0, "is_disabled": 0, "fusion_lon": 0.0, "bike_id": "05e8e918b6bc815f1233b85a18d9b5d5", "lon": -77.0454785, "rental_uris": {"ios": "https://dc.lft.to/lastmile_qr_scan", "android": "https://dc.lft.to/lastmile_qr_scan"}}, {"name": "a7355003b1ad7dae89b0bbf21519733a", "fusion_lat": 0.0, "type": "electric_scooter", "lat": 38.911928, "is_reserved": 0, "is_disabled": 0, "fusion_lon": 0.0, "bike_id": "a7355003b1ad7dae89b0bbf21519733a", "lon": -77.0385845, "rental_uris": {"ios": "https://dc.lft.to/lastmile_qr_scan", "android": "https://dc.lft.to/lastmile_qr_scan"}}, {"name": "89a00f8abb44da102f32d0b5526d1a68", "fusion_lat": 0.0, "type": "electric_scooter", "lat": 38.901115833333336, "is_reserved": 0, "is_disabled": 0, "fusion_lon": 0.0, "bike_id": "89a00f8abb44da102f32d0b5526d1a68", "lon": -77.0498465, "rental_uris": {"ios": "https://dc.lft.to/lastmile_qr_scan", "android": "https://dc.lft.to/lastmile_qr_scan"}}, {"name": "8f5c242cf22810f365a79c31df77c1cc", "fusion_lat": 0.0, "type": "electric_scooter", "lat": 38.90661816666667, "is_reserved": 0, "is_disabled": 0, "fusion_lon": 0.0, "bike_id": "8f5c242cf22810f365a79c31df77c1cc", "lon": -77.02708083333333, "rental_uris": {"ios": "https://dc.lft.to/lastmile_qr_scan", "android": "https://dc.lft.to/lastmile_qr_scan"}}, {"name": "54845e4e6b5825aa8b050e7dd722e64e", "fusion_lat": 0.0, "type": "electric_scooter", "lat": 38.933531, "is_reserved": 0, "is_disabled": 0, "fusion_lon": 0.0, "bike_id": "54845e4e6b5825aa8b050e7dd722e64e", "lon": -77.03450666666667, "rental_uris": {"ios": "https://dc.lft.to/lastmile_qr_scan", "android": "https://dc.lft.to/lastmile_qr_scan"}}, {"name": "ac1181a3a8884a577891f42664eba68c", "fusion_lat": 0.0, "type": "electric_scooter", "lat": 38.914703333333335, "is_reserved": 0, "is_disabled": 0, "fusion_lon": 0.0, "bike_id": "ac1181a3a8884a577891f42664eba68c", "lon": -76.98112183333333, "rental_uris": {"ios": "https://dc.lft.to/lastmile_qr_scan", "android": "https://dc.lft.to/lastmile_qr_scan"}}, {"name": "613021469d324dab774c56615355674b", "fusion_lat": 0.0, "type": "electric_scooter", "lat": 38.91487216666667, "is_reserved": 0, "is_disabled": 0, "fusion_lon": 0.0, "bike_id": "613021469d324dab774c56615355674b", "lon": -77.03260916666666, "rental_uris": {"ios": "https://dc.lft.to/lastmile_qr_scan", "android": "https://dc.lft.to/lastmile_qr_scan"}}, {"name": "c54bfcf59995ef89ec2335dfe181e7cd", "fusion_lat": 0.0, "type": "electric_scooter", "lat": 38.89229133333333, "is_reserved": 0, "is_disabled": 0, "fusion_lon": 0.0, "bike_id": "c54bfcf59995ef89ec2335dfe181e7cd", "lon": -77.0464685, "rental_uris": {"ios": "https://dc.lft.to/lastmile_qr_scan", "android": "https://dc.lft.to/lastmile_qr_scan"}}, {"name": "ea13f783d94d589762ea51bdb4470891", "fusion_lat": 0.0, "type": "electric_bike", "lat": 38.94896, "is_reserved": 0, "is_disabled": 0, "fusion_lon": 0.0, "bike_id": "ea13f783d94d589762ea51bdb4470891", "lon": -76.96377333333334, "rental_uris": {"ios": "https://dc.lft.to/lastmile_qr_scan", "android": "https://dc.lft.to/lastmile_qr_scan"}}, {"name": "f474b8ca593a609b707ca26b4135f061", "fusion_lat": 0.0, "type": "electric_scooter", "lat": 38.90358633333334, "is_reserved": 0, "is_disabled": 0, "fusion_lon": 0.0, "bike_id": "f474b8ca593a609b707ca26b4135f061", "lon": -77.0110545, "rental_uris": {"ios": "https://dc.lft.to/lastmile_qr_scan", "android": "https://dc.lft.to/lastmile_qr_scan"}}, {"name": "2275b7d46eeb0b79a2e14747604f0593", "fusion_lat": 0.0, "type": "electric_scooter", "lat": 38.91840766666667, "is_reserved": 0, "is_disabled": 0, "fusion_lon": 0.0, "bike_id": "2275b7d46eeb0b79a2e14747604f0593", "lon": -77.02607816666666, "rental_uris": {"ios": "https://dc.lft.to/lastmile_qr_scan", "android": "https://dc.lft.to/lastmile_qr_scan"}}, {"name": "2460813792f82a927eeae8bc0370fe91", "fusion_lat": 0.0, "type": "electric_scooter", "lat": 38.88463866666667, "is_reserved": 0, "is_disabled": 0, "fusion_lon": 0.0, "bike_id": "2460813792f82a927eeae8bc0370fe91", "lon": -77.01501166666667, "rental_uris": {"ios": "https://dc.lft.to/lastmile_qr_scan", "android": "https://dc.lft.to/lastmile_qr_scan"}}, {"name": "2d517adbd8e2684e6946cae0b2c0bfb3", "fusion_lat": 0.0, "type": "electric_scooter", "lat": 38.89877366666666, "is_reserved": 0, "is_disabled": 0, "fusion_lon": 0.0, "bike_id": "2d517adbd8e2684e6946cae0b2c0bfb3", "lon": -76.93159416666667, "rental_uris": {"ios": "https://dc.lft.to/lastmile_qr_scan", "android": "https://dc.lft.to/lastmile_qr_scan"}}, {"name": "5efeec70180ae5c174acfb6dfe0987f0", "fusion_lat": 0.0, "type": "electric_scooter", "lat": 38.87418133333333, "is_reserved": 0, "is_disabled": 0, "fusion_lon": 0.0, "bike_id": "5efeec70180ae5c174acfb6dfe0987f0", "lon": -76.97181383333333, "rental_uris": {"ios": "https://dc.lft.to/lastmile_qr_scan", "android": "https://dc.lft.to/lastmile_qr_scan"}}, {"name": "4fe35730fa8e7a40f9909c1cec113aab", "fusion_lat": 0.0, "type": "electric_scooter", "lat": 38.941716, "is_reserved": 0, "is_disabled": 0, "fusion_lon": 0.0, "bike_id": "4fe35730fa8e7a40f9909c1cec113aab", "lon": -77.0413505, "rental_uris": {"ios": "https://dc.lft.to/lastmile_qr_scan", "android": "https://dc.lft.to/lastmile_qr_scan"}}, {"name": "4bf7073ed1825a8b2f8ba0f2edccff4d", "fusion_lat": 0.0, "type": "electric_scooter", "lat": 38.905157, "is_reserved": 0, "is_disabled": 0, "fusion_lon": 0.0, "bike_id": "4bf7073ed1825a8b2f8ba0f2edccff4d", "lon": -77.0546455, "rental_uris": {"ios": "https://dc.lft.to/lastmile_qr_scan", "android": "https://dc.lft.to/lastmile_qr_scan"}}, {"name": "98f896209892046aa145afbb67fefe6e", "fusion_lat": 0.0, "type": "electric_scooter", "lat": 38.91183216666667, "is_reserved": 0, "is_disabled": 0, "fusion_lon": 0.0, "bike_id": "98f896209892046aa145afbb67fefe6e", "lon": -77.039713, "rental_uris": {"ios": "https://dc.lft.to/lastmile_qr_scan", "android": "https://dc.lft.to/lastmile_qr_scan"}}, {"name": "0a36b0222d0816ab2248d903c4fa1ae9", "fusion_lat": 0.0, "type": "electric_scooter", "lat": 38.900605, "is_reserved": 0, "is_disabled": 0, "fusion_lon": 0.0, "bike_id": "0a36b0222d0816ab2248d903c4fa1ae9", "lon": -77.045376, "rental_uris": {"ios": "https://dc.lft.to/lastmile_qr_scan", "android": "https://dc.lft.to/lastmile_qr_scan"}}, {"name": "a213c774b6cb2b346d426039e16e3bdb", "fusion_lat": 0.0, "type": "electric_bike", "lat": 38.86387283333333, "is_reserved": 0, "is_disabled": 0, "fusion_lon": 0.0, "bike_id": "a213c774b6cb2b346d426039e16e3bdb", "lon": -76.98991833333334, "rental_uris": {"ios": "https://dc.lft.to/lastmile_qr_scan", "android": "https://dc.lft.to/lastmile_qr_scan"}}, {"name": "38d92864a16f4ad6341a3f6bb07f75c1", "fusion_lat": 0.0, "type": "electric_scooter", "lat": 38.91700066666667, "is_reserved": 0, "is_disabled": 0, "fusion_lon": 0.0, "bike_id": "38d92864a16f4ad6341a3f6bb07f75c1", "lon": -77.02847783333333, "rental_uris": {"ios": "https://dc.lft.to/lastmile_qr_scan", "android": "https://dc.lft.to/lastmile_qr_scan"}}, {"name": "5e642be2857d372aa0191e19fe7c4f79", "fusion_lat": 0.0, "type": "electric_scooter", "lat": 38.916802833333335, "is_reserved": 0, "is_disabled": 0, "fusion_lon": 0.0, "bike_id": "5e642be2857d372aa0191e19fe7c4f79", "lon": -77.015899, "rental_uris": {"ios": "https://dc.lft.to/lastmile_qr_scan", "android": "https://dc.lft.to/lastmile_qr_scan"}}, {"name": "f667518e233b9237059438ad1d7d71b1", "fusion_lat": 0.0, "type": "electric_scooter", "lat": 38.90860466666667, "is_reserved": 0, "is_disabled": 0, "fusion_lon": 0.0, "bike_id": "f667518e233b9237059438ad1d7d71b1", "lon": -77.04585183333333, "rental_uris": {"ios": "https://dc.lft.to/lastmile_qr_scan", "android": "https://dc.lft.to/lastmile_qr_scan"}}, {"name": "3264393a605a455dcf3cc5f804353d3f", "fusion_lat": 0.0, "type": "electric_scooter", "lat": 38.9168715, "is_reserved": 0, "is_disabled": 0, "fusion_lon": 0.0, "bike_id": "3264393a605a455dcf3cc5f804353d3f", "lon": -77.03767183333333, "rental_uris": {"ios": "https://dc.lft.to/lastmile_qr_scan", "android": "https://dc.lft.to/lastmile_qr_scan"}}, {"name": "984aa7eb2b69211dfda897a1bb7db2c2", "fusion_lat": 0.0, "type": "electric_scooter", "lat": 38.899433333333334, "is_reserved": 0, "is_disabled": 0, "fusion_lon": 0.0, "bike_id": "984aa7eb2b69211dfda897a1bb7db2c2", "lon": -76.99493066666666, "rental_uris": {"ios": "https://dc.lft.to/lastmile_qr_scan", "android": "https://dc.lft.to/lastmile_qr_scan"}}, {"name": "3fb0deba35082a02a9a1f05ec9241e79", "fusion_lat": 0.0, "type": "electric_scooter", "lat": 38.899589166666665, "is_reserved": 0, "is_disabled": 0, "fusion_lon": 0.0, "bike_id": "3fb0deba35082a02a9a1f05ec9241e79", "lon": -77.03190633333334, "rental_uris": {"ios": "https://dc.lft.to/lastmile_qr_scan", "android": "https://dc.lft.to/lastmile_qr_scan"}}, {"name": "1641c8301ee34f625e39dbad12c5c87f", "fusion_lat": 0.0, "type": "electric_scooter", "lat": 38.89832666666667, "is_reserved": 0, "is_disabled": 0, "fusion_lon": 0.0, "bike_id": "1641c8301ee34f625e39dbad12c5c87f", "lon": -76.94639916666667, "rental_uris": {"ios": "https://dc.lft.to/lastmile_qr_scan", "android": "https://dc.lft.to/lastmile_qr_scan"}}, {"name": "764ec113a1935ce2c9f942b98aea9de2", "fusion_lat": 0.0, "type": "electric_scooter", "lat": 38.91666433333333, "is_reserved": 0, "is_disabled": 0, "fusion_lon": 0.0, "bike_id": "764ec113a1935ce2c9f942b98aea9de2", "lon": -77.02712783333334, "rental_uris": {"ios": "https://dc.lft.to/lastmile_qr_scan", "android": "https://dc.lft.to/lastmile_qr_scan"}}, {"name": "48f24241a6cefbe048fe0b089586c306", "fusion_lat": 0.0, "type": "electric_scooter", "lat": 38.89827433333333, "is_reserved": 0, "is_disabled": 0, "fusion_lon": 0.0, "bike_id": "48f24241a6cefbe048fe0b089586c306", "lon": -77.00757033333333, "rental_uris": {"ios": "https://dc.lft.to/lastmile_qr_scan", "android": "https://dc.lft.to/lastmile_qr_scan"}},