{"data": {"bikes": [{"is_reserved": 0, "type": "electric_scooter", "fusion_lat": 0.0, "is_disabled": 0, "rental_uris": {"ios": "https://dc.lft.to/lastmile_qr_scan", "android": "https://dc.lft.to/lastmile_qr_scan"}, "bike_id": "0ea42921699a410d2603e199310ecc1c", "lat": 38.92456033333333, "name": "0ea42921699a410d2603e199310ecc1c", "lon": -77.037964, "fusion_lon": 0.0}, {"is_reserved": 0, "type": "electric_scooter", "fusion_lat": 0.0, "is_disabled": 0, "rental_uris": {"ios": "https://dc.lft.to/lastmile_qr_scan", "android": "https://dc.lft.to/lastmile_qr_scan"}, "bike_id": "5ecda35aeff4a9b99dd077a16cce9c3f", "lat": 38.89222383333333, "name": "5ecda35aeff4a9b99dd077a16cce9c3f", "lon": -77.04863916666666, "fusion_lon": 0.0}, {"is_reserved": 0, "type": "electric_scooter", "fusion_lat": 0.0, "is_disabled": 0, "rental_uris": {"ios": "https://dc.lft.to/lastmile_qr_scan", "android": "https://dc.lft.to/lastmile_qr_scan"}, "bike_id": "4662a101be0a905bc90e5feb291ec17e", "lat": 38.905994166666666, "name": "4662a101be0a905bc90e5feb291ec17e", "lon": -77.062759, "fusion_lon": 0.0}, {"is_reserved": 0, "type": "electric_bike", "fusion_lat": 0.0, "is_disabled": 0, "rental_uris": {"ios": "https://dc.lft.to/lastmile_qr_scan", "android": "https://dc.lft.to/lastmile_qr_scan"}, "bike_id": "e15aa149279900bae868ea58b57ebac5", "lat": 38.8485615, "name": "e15aa149279900bae868ea58b57ebac5", "lon": -77.068323, "fusion_lon": 0.0}, {"is_reserved": 0, "type": "electric_scooter", "fusion_lat": 0.0, "is_disabled": 0, "rental_uris": {"ios": "https://dc.lft.to/lastmile_qr_scan", "android": "https://dc.lft.to/lastmile_qr_scan"}, "bike_id": "a11dd3543744aa7091cc7ba7319605cb", "lat": 38.897446, "name": "a11dd3543744aa7091cc7ba7319605cb", "lon": -77.00868166666666, "fusion_lon": 0.0}, {"is_reserved": 0, "type": "electric_scooter", "fusion_lat": 0.0, "is_disabled": 0, "rental_uris": {"ios": "https://dc.lft.to/lastmile_qr_scan", "android": "https://dc.lft.to/lastmile_qr_scan"}, "bike_id": "5bcce8a2db020a14cbd62ea959c866f8", "lat": 38.871763666666666, "name": "5bcce8a2db020a14cbd62ea959c866f8", "lon": -77.00610466666667, "fusion_lon": 0.0}, {"is_reserved": 0, "type": "electric_scooter", "fusion_lat": 0.0, "is_disabled": 0, "rental_uris": {"ios": "https://dc.lft.to/lastmile_qr_scan", "android": "https://dc.lft.to/lastmile_qr_scan"}, "bike_id": "7803e02b831f8d2d1410a157d65744dd", "lat": 38.905491166666664, "name": "7803e02b831f8d2d1410a157d65744dd", "lon": -77.062721, "fusion_lon": 0.0}, {"is_reserved": 0, "type": "electric_scooter", "fusion_lat": 0.0, "is_disabled": 0, "rental_uris": {"ios": "https://dc.lft.to/lastmile_qr_scan", "android": "https://dc.lft.to/lastmile_qr_scan"}, "bike_id": "ba0f9a3d26c3fab456de3b5a235f6ce3", "lat": 38.891973166666666, "name": "ba0f9a3d26c3fab456de3b5a235f6ce3", "lon": -77.02363416666667, "fusion_lon": 0.0}, {"is_reserved": 0, "type": "electric_bike", "fusion_lat": 0.0, "is_disabled": 0, "rental_uris": {"ios": "https://dc.lft.to/lastmile_qr_scan", "android": "https://dc.lft.to/lastmile_qr_scan"}, "bike_id": "f1a5a608f1ea433d1b58e0af7af29563", "lat": 38.99094, "name": "f1a5a608f1ea433d1b58e0af7af29563", "lon": -76.99371583333334, "fusion_lon": 0.0}, {"is_reserved": 0, "type": "electric_scooter", "fusion_lat": 0.0, "is_disabled": 0, "rental_uris": {"ios": "https://dc.lft.to/lastmile_qr_scan", "android": "https://dc.lft.to/lastmile_qr_scan"}, "bike_id": "c588902c4a4a1bfa4befc53dc83255ef", "lat": 38.899453333333334, "name": "c588902c4a4a1bfa4befc53dc83255ef", "lon": -77.04716966666666, "fusion_lon": 0.0}, {"is_reserved": 0, "type": "electric_scooter", "fusion_lat": 0.0, "is_disabled": 0, "rental_uris": {"ios": "https://dc.lft.to/lastmile_qr_scan", "android": "https://dc.lft.to/lastmile_qr_scan"}, "bike_id": "880b746c6c07215090e1a00013f43775", "lat": 38.90190716666667, "name": "880b746c6c07215090e1a00013f43775", "lon": -76.99610783333333, "fusion_lon": 0.0}, {"is_reserved": 0, "type": "electric_scooter", "fusion_lat": 0.0, "is_disabled": 0, "rental_uris": {"ios": "https://dc.lft.to/lastmile_qr_scan", "android": "https://dc.lft.to/lastmile_qr_scan"}, "bike_id": "34bc77105a3a659de2e7175dde43aab6", "lat": 38.920399333333336, "name": "34bc77105a3a659de2e7175dde43aab6", "lon": -77.016799, "fusion_lon": 0.0}, {"is_reserved": 0, "type": "electric_scooter", "fusion_lat": 0.0, "is_disabled": 0, "rental_uris": {"ios": "https://dc.lft.to/lastmile_qr_scan", "android": "https://dc.lft.to/lastmile_qr_scan"}, "bike_id": "8561ee0ed125b4142c0dcb4e9d1083e7", "lat": 38.904165166666665, "name": "8561ee0ed125b4142c0dcb4e9d1083e7", "lon": -76.9853155, "fusion_lon": 0.0}, {"is_reserved": 0, "type": "electric_scooter", "fusion_lat": 0.0, "is_disabled": 0, "rental_uris": {"ios": "https://dc.lft.to/lastmile_qr_scan", "android": "https://dc.lft.to/lastmile_qr_scan"}, "bike_id": "fde6453e8bec1402f85e2a75295fb4a6", "lat": 38.8874615, "name": "fde6453e8bec1402f85e2a75295fb4a6", "lon": -77.01410733333333, "fusion_lon": 0.0}, {"is_reserved": 0, "type": "electric_scooter", "fusion_lat": 0.0, "is_disabled": 0, "rental_uris": {"ios": "https://dc.lft.to/lastmile_qr_scan", "android": "https://dc.lft.to/lastmile_qr_scan"}, "bike_id": "0ada0fe6c39517281d488caa0623c1e4", "lat": 38.897337, "name": "0ada0fe6c39517281d488caa0623c1e4", "lon": -77.02693733333334, "fusion_lon": 0.0}, {"is_reserved": 0, "type": "electric_scooter", "fusion_lat": 0.0, "is_disabled": 0, "rental_uris": {"ios": "https://dc.lft.to/lastmile_qr_scan", "android": "https://dc.lft.to/lastmile_qr_scan"}, "bike_id": "6419b3edc8433f7f0e6d86c8b6b60382", "lat": 38.91053466666666, "name": "6419b3edc8433f7f0e6d86c8b6b60382", "lon": -77.0417505, "fusion_lon": 0.0}, {"is_reserved": 0, "type": "electric_scooter", "fusion_lat": 0.0, "is_disabled": 0, "rental_uris": {"ios": "https://dc.lft.to/lastmile_qr_scan", "android": "https://dc.lft.to/lastmile_qr_scan"}, "bike_id": "2491a3a685e5579c24b63e6beceed052", "lat": 38.925353666666666, "name": "2491a3a685e5579c24b63e6beceed052", "lon": -77.0353925, "fusion_lon": 0.0}, {"is_reserved": 0, "type": "electric_scooter", "fusion_lat": 0.0, "is_disabled": 0, "rental_uris": {"ios": "https://dc.lft.to/lastmile_qr_scan", "android": "https://dc.lft.to/lastmile_qr_scan"}, "bike_id": "70054c3d6e93fd24970448f0c230ac47", "lat": 38.939531833333334, "name": "70054c3d6e93fd24970448f0c230ac47", "lon": -77.0724185, "fusion_lon": 0.0}, {"is_reserved": 0, "type": "electric_scooter", "fusion_lat": 0.0, "is_disabled": 0, "rental_uris": {"ios": "https://dc.lft.to/lastmile_qr_scan", "android": "https://dc.lft.to/lastmile_qr_scan"}, "bike_id": "d05752b00a107b11cd3744c39840b169", "lat": 38.91489466666667, "name": "d05752b00a107b11cd3744c39840b169", "lon": -77.04946266666667, "fusion_lon": 0.0}, {"is_reserved": 0, "type": "electric_scooter", "fusion_lat": 0.0, "is_disabled": 0, "rental_uris": {"ios": "https://dc.lft.to/lastmile_qr_scan", "android": "https://dc.lft.to/lastmile_qr_scan"}, "bike_id": "d244d0dfbf63e50e9a1f5a6de3a8924e", "lat": 38.89175133333333, "name": "d244d0dfbf63e50e9a1f5a6de3a8924e", "lon": -77.01550733333333, "fusion_lon": 0.0}, {"is_reserved": 0, "type": "electric_scooter", "fusion_lat": 0.0, "is_disabled": 0, "rental_uris": {"ios": "https://dc.lft.to/lastmile_qr_scan", "android": "https://dc.lft.to/lastmile_qr_scan"}, "bike_id": "7624e4653d6336c98f6c3afa33e6c238", "lat": 38.9193345, "name": "7624e4653d6336c98f6c3afa33e6c238", "lon": -77.04466133333334, "fusion_lon": 0.0}, {"is_reserved": 0, "type": "electric_scooter", "fusion_lat": 0.0, "is_disabled": 0, "rental_uris": {"ios": "https://dc.lft.to/lastmile_qr_scan", "android": "https://dc.lft.to/lastmile_qr_scan"}, "bike_id": "f757830effa9bbb8d086d5b19a7ac444", "lat": 38.89403166666666, "name": "f757830effa9bbb8d086d5b19a7ac444", "lon": -77.02131633333333, "fusion_lon": 0.0}, {"is_reserved": 0, "type": "electric_scooter", "fusion_lat": 0.0, "is_disabled": 0, "rental_uris": {"ios": "https://dc.lft.to/lastmile_qr_scan", "android": "https://dc.lft.to/lastmile_qr_scan"}, "bike_id": "37e8c3d5a8b8e1bf97e35596f50c3347", "lat": 38.89527066666667, "name": "37e8c3d5a8b8e1bf97e35596f50c3347", "lon": -76.94889533333334, "fusion_lon": 0.0}, {"is_reserved": 0, "type": "electric_scooter", "fusion_lat": 0.0, "is_disabled": 0, "rental_uris": {"ios": "https://dc.lft.to/lastmile_qr_scan", "android": "https://dc.lft.to/lastmile_qr_scan"}, "bike_id": "4901663a3363722d8295557390e11800", "lat": 38.913317666666664, "name": "4901663a3363722d8295557390e11800", "lon": -77.0400165, "fusion_lon": 0.0}, {"is_reserved": 0, "type": "electric_scooter", "fusion_lat": 0.0, "is_disabled": 0, "rental_uris": {"ios": "https://dc.lft.to/lastmile_qr_scan", "android": "https://dc.lft.to/lastmile_qr_scan"}, "bike_id": "76c9b437ee5d92df829e2bbf8e0508c8", "lat": 38.9210585, "name": "76c9b437ee5d92df829e2bbf8e0508c8", "lon": -77.017808, "fusion_lon": 0.0}, {"is_reserved": 0, "type": "electric_scooter", "fusion_lat": 0.0, "is_disabled": 0, "rental_uris": {"ios": "https://dc.lft.to/lastmile_qr_scan", "android": "https://dc.lft.to/lastmile_qr_scan"}, "bike_id": "009b84cb98ef334d92fbde0c2639f6ed", "lat": 38.946463333333334, "name": "009b84cb98ef334d92fbde0c2639f6ed", "lon": -77.01743616666667, "fusion_lon": 0.0}, {"is_reserved": 0, "type": "electric_bike", "fusion_lat": 0.0, "is_disabled": 0, "rental_uris": {"ios": "https://dc.lft.to/lastmile_qr_scan", "android": "https://dc.lft.to/lastmile_qr_scan"}, "bike_id": "a09a96e2b6280a8d951d7064f797292e", "lat": 38.87516266666667, "name": "a09a96e2b6280a8d951d7064f797292e", "lon": -77.00846316666667, "fusion_lon": 0.0}, {"is_reserved": 0, "type": "electric_scooter", "fusion_lat": 0.0, "is_disabled": 0, "rental_uris": {"ios": "https://dc.lft.to/lastmile_qr_scan", "android": "https://dc.lft.to/lastmile_qr_scan"}, "bike_id": "081db44622461eaa942faeba1a1eb3ba", "lat": 38.905516666666664, "name": "081db44622461eaa942faeba1a1eb3ba", "lon": -77.0242455, "fusion_lon": 0.0}, {"is_reserved": 0, "type": "electric_scooter", "fusion_lat": 0.0, "is_disabled": 0, "rental_uris": {"ios": "https://dc.lft.to/lastmile_qr_scan", "android": "https://dc.lft.to/lastmile_qr_scan"}, "bike_id": "ad06ddf692ba1250568329b7150c868a", "lat": 38.9427355, "name": "ad06ddf692ba1250568329b7150c868a", "lon": -77.02943366666666, "fusion_lon": 0.0}, {"is_reserved": 0, "type": "electric_scooter", "fusion_lat": 0.0, "is_disabled": 0, "rental_uris": {"ios": "https://dc.lft.to/lastmile_qr_scan", "android": "https://dc.lft.to/lastmile_qr_scan"}, "bike_id": "72698108507defd70bc3e0185b6972be", "lat": 38.9097315, "name": "72698108507defd70bc3e0185b6972be", "lon": -77.02398516666666, "fusion_lon": 0.0}, {"is_reserved": 0, "type": "electric_scooter", "fusion_lat": 0.0, "is_disabled": 0, "rental_uris": {"ios": "https://dc.lft.to/lastmile_qr_scan", "android": "https://dc.lft.to/lastmile_qr_scan"}, "bike_id": "6e029b823906668a1957e63ede298cdb", "lat": 38.91861133333333, "name": "6e029b823906668a1957e63ede298cdb", "lon": -77.02804483333334, "fusion_lon": 0.0}, {"is_reserved": 0, "type": "electric_scooter", "fusion_lat": 0.0, "is_disabled": 0, "rental_uris": {"ios": "https://dc.lft.to/lastmile_qr_scan", "android": "https://dc.lft.to/lastmile_qr_scan"}, "bike_id": "64bc72dfd3a0c82e62f54ba1a4418dae", "lat": 38.91682083333333, "name": "64bc72dfd3a0c82e62f54ba1a4418dae", "lon": -77.03775716666667, "fusion_lon": 0.0}, {"is_reserved": 0, "type": "electric_scooter", "fusion_lat": 0.0, "is_disabled": 0, "rental_uris": {"ios": "https://dc.lft.to/lastmile_qr_scan", "android": "https://dc.lft.to/lastmile_qr_scan"}, "bike_id": "ca8a143a6a8c575f418f4ebf7fcfd724", "lat": 38.90509016666667, "name": "ca8a143a6a8c575f418f4ebf7fcfd724", "lon": -77.05136266666666, "fusion_lon": 0.0}, {"is_reserved": 0, "type": "electric_scooter", "fusion_lat": 0.0, "is_disabled": 0, "rental_uris": {"ios": "https://dc.lft.to/lastmile_qr_scan", "android": "https://dc.lft.to/lastmile_qr_scan"}, "bike_id": "821dbf27331d45187477f9e147ec3068", "lat": 38.930325, "name": "821dbf27331d45187477f9e147ec3068", "lon": -77.0366995, "fusion_lon": 0.0}, {"is_reserved": 0, "type": "electric_scooter", "fusion_lat": 0.0, "is_disabled": 0, "rental_uris": {"ios": "https://dc.lft.to/lastmile_qr_scan", "android": "https://dc.lft.to/lastmile_qr_scan"}, "bike_id": "f965dc2a6b7edb822b6eb2b2b95c4dba", "lat": 38.905439666666666, "name": "f965dc2a6b7edb822b6eb2b2b95c4dba", "lon": -77.05335516666666, "fusion_lon": 0.0}, {"is_reserved": 0, "type": "electric_scooter", "fusion_lat": 0.0, "is_disabled": 0, "rental_uris": {"ios": "https://dc.lft.to/lastmile_qr_scan", "android": "https://dc.lft.to/lastmile_qr_scan"}, "bike_id": "a91ea4e1acc8a4fed6ea8460b0fdeee8", "lat": 38.902611, "name": "a91ea4e1acc8a4fed6ea8460b0fdeee8", "lon": -76.92850683333333, "fusion_lon": 0.0}, {"is_reserved": 0, "type": "electric_scooter", "fusion_lat": 0.0, "is_disabled": 0, "rental_uris": {"ios": "https://dc.lft.to/lastmile_qr_scan", "android": "https://dc.lft.to/lastmile_qr_scan"}, "bike_id": "f06903ab006e80704cc9c452705f4ce8", "lat": 38.88360866666667, "name": "f06903ab006e80704cc9c452705f4ce8", "lon": -76.92791433333333, "fusion_lon": 0.0}, {"is_reserved": 0, "type": "electric_scooter", "fusion_lat": 0.0, "is_disabled": 0, "rental_uris": {"ios": "https://dc.lft.to/lastmile_qr_scan", "android": "https://dc.lft.to/lastmile_qr_scan"}, "bike_id": "ca3118422f2aa459f322f81a9179cfdf", "lat": 38.912692166666666, "name": "ca3118422f2aa459f322f81a9179cfdf", "lon": -77.0313755, "fusion_lon": 0.0}, {"is_reserved": 0, "type": "electric_scooter", "fusion_lat": 0.0, "is_disabled": 0, "rental_uris": {"ios": "https://dc.lft.to/lastmile_qr_scan", "android": "https://dc.lft.to/lastmile_qr_scan"}, "bike_id": "4c448034af69267006f029054a82aa87", "lat": 38.91914116666667, "name": "4c448034af69267006f029054a82aa87", "lon": -77.04798216666667, "fusion_lon": 0.0}, {"is_reserved": 0, "type": "electric_scooter", "fusion_lat": 0.0, "is_disabled": 0, "rental_uris": {"ios": "https://dc.lft.to/lastmile_qr_scan", "android": "https://dc.lft.to/lastmile_qr_scan"}, "bike_id": "9c26ed31cb49712a5ecb4e563aace788", "lat": 38.876518833333336, "name": "9c26ed31cb49712a5ecb4e563aace788", "lon": -77.008168, "fusion_lon": 0.0}, {"is_reserved": 0, "type": "electric_scooter", "fusion_lat": 0.0, "is_disabled": 0, "rental_uris": {"ios": "https://dc.lft.to/lastmile_qr_scan", "android": "https://dc.lft.to/lastmile_qr_scan"}, "bike_id": "f49bc38372dfdffc764092bb25725f57", "lat": 38.892215, "name": "f49bc38372dfdffc764092bb25725f57", "lon": -77.04328483333333, "fusion_lon": 0.0}, {"is_reserved": 0, "type": "electric_scooter", "fusion_lat": 0.0, "is_disabled": 0, "rental_uris": {"ios": "https://dc.lft.to/lastmile_qr_scan", "android": "https://dc.lft.to/lastmile_qr_scan"}, "bike_id": "9313b190372aae9e85dd3a734f18bd43", "lat": 38.91768616666667, "name": "9313b190372aae9e85dd3a734f18bd43", "lon": -77.09666016666667, "fusion_lon": 0.0}, {"is_reserved": 0, "type": "electric_bike", "fusion_lat": 0.0, "is_disabled": 0, "rental_uris": {"ios": "https://dc.lft.to/lastmile_qr_scan", "android": "https://dc.lft.to/lastmile_qr_scan"}, "bike_id": "c681a2d83d0d9102e6ddc9885a53293a", "lat": 38.97338883333333, "name": "c681a2d83d0d9102e6ddc9885a53293a", "lon": -77.01806433333333, "fusion_lon": 0.0}, {"is_reserved": 0, "type": "electric_scooter", "fusion_lat": 0.0, "is_disabled": 0, "rental_uris": {"ios": "https://dc.lft.to/lastmile_qr_scan", "android": "https://dc.lft.to/lastmile_qr_scan"}, "bike_id": "d2c77e91d5702001c83c12c6b23a60f7", "lat": 38.89357433333333, "name": "d2c77e91d5702001c83c12c6b23a60f7", "lon": -77.01978666666666, "fusion_lon": 0.0}, {"is_reserved": 0, "type": "electric_scooter", "fusion_lat": 0.0, "is_disabled": 0, "rental_uris": {"ios": "https://dc.lft.to/lastmile_qr_scan", "android": "https://dc.lft.to/lastmile_qr_scan"}, "bike_id": "57bdc45e978c9d89e2f41b1e7ae1c248", "lat": 38.916903166666664, "name": "57bdc45e978c9d89e2f41b1e7ae1c248", "lon": -77.03764433333333, "fusion_lon": 0.0}, {"is_reserved": 0, "type": "electric_scooter", "fusion_lat": 0.0, "is_disabled": 0, "rental_uris": {"ios": "https://dc.lft.to/lastmile_qr_scan", "android": "https://dc.lft.to/lastmile_qr_scan"}, "bike_id": "faec537b33f8d98eab5f367249498a71", "lat": 38.88990866666666, "name": "faec537b33f8d98eab5f367249498a71", "lon": -76.98814816666666, "fusion_lon": 0.0}, {"is_reserved": 0, "type": "electric_bike", "fusion_lat": 0.0, "is_disabled": 0, "rental_uris": {"ios": "https://dc.lft.to/lastmile_qr_scan", "android": "https://dc.lft.to/lastmile_qr_scan"}, "bike_id": "f27ed9a032b0f1490192817f3ff61f6c", "lat": 38.89976733333334, "name": "f27ed9a032b0f1490192817f3ff61f6c", "lon": -76.99801266666667, "fusion_lon": 0.0}, {"is_reserved": 0, "type": "electric_bike", "fusion_lat": 0.0, "is_disabled": 0, "rental_uris": {"ios": "https://dc.lft.to/lastmile_qr_scan", "android": "https://dc.lft.to/lastmile_qr_scan"}, "bike_id": "03335aaae9aec112bf7b993ee9c00334", "lat": 38.936894333333335, "name": "03335aaae9aec112bf7b993ee9c00334", "lon": -77.021247, "fusion_lon": 0.0}, {"is_reserved": 0, "type": "electric_scooter", "fusion_lat": 0.0, "is_disabled": 0, "rental_uris": {"ios": "https://dc.lft.to/lastmile_qr_scan", "android": "https://dc.lft.to/lastmile_qr_scan"}, "bike_id": "d34f0591fd6f75af495900f0f08e4505", "lat": 38.9215145, "name": "d34f0591fd6f75af495900f0f08e4505", "lon": -77.03467383333333, "fusion_lon": 0.0}, {"is_reserved": 0, "type": "electric_bike", "fusion_lat": 0.0, "is_disabled": 0, "rental_uris": {"ios": "https://dc.lft.to/lastmile_qr_scan", "android": "https://dc.lft.to/lastmile_qr_scan"}, "bike_id": "a29e9e0bb8af285a9218976220b37ba8", "lat": 38.94837, "name": "a29e9e0bb8af285a9218976220b37ba8", "lon": -77.05426816666666, "fusion_lon": 0.0}, {"is_reserved": 0, "type": "electric_scooter", "fusion_lat": 0.0, "is_disabled": 0, "rental_uris": {"ios": "https://dc.lft.to/lastmile_qr_scan", "android": "https://dc.lft.to/lastmile_qr_scan"}, "bike_id": "d29c25f0d4943885febfa60f6cfedcc7", "lat": 38.88722383333333, "name": "d29c25f0d4943885febfa60f6cfedcc7", "lon": -77.03201066666666, "fusion_lon": 0.0}, {"is_reserved": 0, "type": "electric_scooter", "fusion_lat": 0.0, "is_disabled": 0, "rental_uris": {"ios": "https://dc.lft.to/lastmile_qr_scan", "android": "https://dc.lft.to/lastmile_qr_scan"}, "bike_id": "ece8973590a40f549b590257cb6598ff", "lat": 38.926133166666666, "name": "ece8973590a40f549b590257cb6598ff", "lon": -77.02159483333334, "fusion_lon": 0.0}, {"is_reserved": 0, "type": "electric_scooter", "fusion_lat": 0.0, "is_disabled": 0, "rental_uris": {"ios": "https://dc.lft.to/lastmile_qr_scan", "android": "https://dc.lft.to/lastmile_qr_scan"}, "bike_id": "200af88f9809257dc89b7f9944c0a5cf", "lat": 38.8920575, "name": "200af88f9809257dc89b7f9944c0a5cf", "lon": -76.92922716666666, "fusion_lon": 0.0}, {"is_reserved": 0, "type": "electric_scooter", "fusion_lat": 0.0, "is_disabled": 0, "rental_uris": {"ios": "https://dc.lft.to/lastmile_qr_scan", "android": "https://dc.lft.to/lastmile_qr_scan"}, "bike_id": "490f7cb1342e69233c79c3be2ae88718", "lat": 38.94085166666667, "name": "490f7cb1342e69233c79c3be2ae88718", "lon": -77.0272145, "fusion_lon": 0.0}, {"is_reserved": 0, "type": "electric_scooter", "fusion_lat": 0.0, "is_disabled": 0, "rental_uris": {"ios": "https://dc.lft.to/lastmile_qr_scan", "android": "https://dc.lft.to/lastmile_qr_scan"}, "bike_id": "4dca287bd95f6b9bf34192c3460f9868", "lat": 38.90140866666667, "name": "4dca287bd95f6b9bf34192c3460f9868", "lon": -77.03082983333333, "fusion_lon": 0.0}, {"is_reserved": 0, "type": "electric_scooter", "fusion_lat": 0.0, "is_disabled": 0, "rental_uris": {"ios": "https://dc.lft.to/lastmile_qr_scan", "android": "https://dc.lft.to/lastmile_qr_scan"}, "bike_id": "d58deff18d5d27dbf0772bddd5a8c543", "lat": 38.892362166666665, "name": "d58deff18d5d27dbf0772bddd5a8c543", "lon": -77.03183283333334, "fusion_lon": 0.0}, {"is_reserved": 0, "type": "electric_scooter", "fusion_lat": 0.0, "is_disabled": 0, "rental_uris": {"ios": "https://dc.lft.to/lastmile_qr_scan", "android": "https://dc.lft.to/lastmile_qr_scan"}, "bike_id": "e039ec6eb5721b879241cbc0d680a365", "lat": 38.92992183333333, "name": "e039ec6eb5721b879241cbc0d680a365", "lon": -77.03801183333333, "fusion_lon": 0.0}, {"is_reserved": 0, "type": "electric_scooter", "fusion_lat": 0.0, "is_disabled": 0, "rental_uris": {"ios": "https://dc.lft.to/lastmile_qr_scan", "android": "https://dc.lft.to/lastmile_qr_scan"}, "bike_id": "07724762b26255dc4dbf6ad8873c24c2", "lat": 38.929935666666665, "name": "07724762b26255dc4dbf6ad8873c24c2", "lon": -77.0323435, "fusion_lon": 0.0}, {"is_reserved": 0, "type": "electric_bike", "fusion_lat": 0.0, "is_disabled": 0, "rental_uris": {"ios": "https://dc.lft.to/lastmile_qr_scan", "android": "https://dc.lft.to/lastmile_qr_scan"}, "bike_id": "4d334ebd55615d7d5b8213c4fef05c74", "lat": 39.02515733333333, "name": "4d334ebd55615d7d5b8213c4fef05c74", "lon": -77.01966683333333, "fusion_lon": 0.0}, {"is_reserved": 0, "type": "electric_bike", "fusion_lat": 0.0, "is_disabled": 0, "rental_uris": {"ios": "https://dc.lft.to/lastmile_qr_scan", "android": "https://dc.lft.to/lastmile_qr_scan"}, "bike_id": "fd7c701c227a84fe3dd0e7ce5cebd88f", "lat": 39.084708, "name": "fd7c701c227a84fe3dd0e7ce5cebd88f", "lon": -76.9506935, "fusion_lon": 0.0}, {"is_reserved": 0, "type": "electric_scooter", "fusion_lat": 0.0, "is_disabled": 0, "rental_uris": {"ios": "https://dc.lft.to/lastmile_qr_scan", "android": "https://dc.lft.to/lastmile_qr_scan"}, "bike_id": "fa50c5180b0ff67646cb2067b17cda02", "lat": 38.89969383333333, "name": "fa50c5180b0ff67646cb2067b17cda02", "lon": -76.92627466666667, "fusion_lon": 0.0}, {"is_reserved": 0, "type": "electric_scooter", "fusion_lat": 0.0, "is_disabled": 0, "rental_uris": {"ios": "https://dc.lft.to/lastmile_qr_scan", "android": "https://dc.lft.to/lastmile_qr_scan"}, "bike_id": "e2e7100100ffd88340fec978c6c6377b", "lat": 38.942054666666664, "name": "e2e7100100ffd88340fec978c6c6377b", "lon": -77.024563, "fusion_lon": 0.0}, {"is_reserved": 0, "type": "electric_scooter", "fusion_lat": 0.0, "is_disabled": 0, "rental_uris": {"ios": "https://dc.lft.to/lastmile_qr_scan", "android": "https://dc.lft.to/lastmile_qr_scan"}, "bike_id": "1d40afc05ee23bd01c239a36d7f8bf59", "lat": 38.95276483333333, "name": "1d40afc05ee23bd01c239a36d7f8bf59", "lon": -77.0684615, "fusion_lon": 0.0}, {"is_reserved": 0, "type": "electric_scooter", "fusion_lat": 0.0, "is_disabled": 0, "rental_uris": {"ios": "https://dc.lft.to/lastmile_qr_scan", "android": "https://dc.lft.to/lastmile_qr_scan"}, "bike_id": "2668b30e26c13435988a18221d13ef23", "lat": 38.888800833333335, "name": "2668b30e26c13435988a18221d13ef23", "lon": -76.990375, "fusion_lon": 0.0}, {"is_reserved": 0, "type": "electric_scooter", "fusion_lat": 0.0, "is_disabled": 0, "rental_uris": {"ios": "https://dc.lft.to/lastmile_qr_scan", "android": "https://dc.lft.to/lastmile_qr_scan"}, "bike_id": "503bf16663d0eeefb6a30e1906bb50c1", "lat": 38.918522, "name": "503bf16663d0eeefb6a30e1906bb50c1", "lon": -77.03180566666667, "fusion_lon": 0.0}, {"is_reserved": 0, "type": "electric_scooter", "fusion_lat": 0.0, "is_disabled": 0, "rental_uris": {"ios": "https://dc.lft.to/lastmile_qr_scan", "android": "https://dc.lft.to/lastmile_qr_scan"}, "bike_id": "755a12b81db7b34a1db0e851d951bfce", "lat": 38.904967166666665, "name": "755a12b81db7b34a1db0e851d951bfce", "lon": -77.0282065, "fusion_lon": 0.0}, {"is_reserved": 0, "type": "electric_scooter", "fusion_lat": 0.0, "is_disabled": 0, "rental_uris": {"ios": "https://dc.lft.to/lastmile_qr_scan", "android": "https://dc.lft.to/lastmile_qr_scan"}, "bike_id": "5fd1aa12c28ca39bc66a0eab6ab383a4", "lat": 38.89230583333333, "name": "5fd1aa12c28ca39bc66a0eab6ab383a4", "lon": -77.02382733333333, "fusion_lon": 0.0}, {"is_reserved": 0, "type": "electric_scooter", "fusion_lat": 0.0, "is_disabled": 0, "rental_uris": {"ios": "https://dc.lft.to/lastmile_qr_scan", "android": "https://dc.lft.to/lastmile_qr_scan"}, "bike_id": "41aa617d1e0ef9a5e46d5f3795582608", "lat": 38.91688533333333, "name": "41aa617d1e0ef9a5e46d5f3795582608", "lon": -77.02952066666667, "fusion_lon": 0.0}, {"is_reserved": 0, "type": "electric_scooter", "fusion_lat": 0.0, "is_disabled": 0, "rental_uris": {"ios": "https://dc.lft.to/lastmile_qr_scan", "android": "https://dc.lft.to/lastmile_qr_scan"}, "bike_id": "c42bc902fbbbd20ae36146ffb98a4974", "lat": 38.907434333333335, "name": "c42bc902fbbbd20ae36146ffb98a4974", "lon": -77.03980733333333, "fusion_lon": 0.0}, {"is_reserved": 0, "type": "electric_scooter", "fusion_lat": 0.0, "is_disabled": 0, "rental_uris": {"ios": "https://dc.lft.to/lastmile_qr_scan", "android": "https://dc.lft.to/lastmile_qr_scan"}, "bike_id": "b5e92f1eabfc18d912478045a26b0625", "lat": 38.90050683333333, "name": "b5e92f1eabfc18d912478045a26b0625", "lon": -77.036612, "fusion_lon": 0.0}, {"is_reserved": 0, "type": "electric_scooter", "fusion_lat": 0.0, "is_disabled": 0, "rental_uris": {"ios": "https://dc.lft.to/lastmile_qr_scan", "android": "https://dc.lft.to/lastmile_qr_scan"}, "bike_id": "fd4f7702dfa98cb438a8c10c7f47c509", "lat": 38.920153, "name": "fd4f7702dfa98cb438a8c10c7f47c509", "lon": -77.031207, "fusion_lon": 0.0}, {"is_reserved": 0, "type": "electric_scooter", "fusion_lat": 0.0, "is_disabled": 0, "rental_uris": {"ios": "https://dc.lft.to/lastmile_qr_scan", "android": "https://dc.lft.to/lastmile_qr_scan"}, "bike_id": "cee9561755062dfaabc157a609ca16db", "lat": 38.9024105, "name": "cee9561755062dfaabc157a609ca16db", "lon": -77.04675533333334, "fusion_lon": 0.0}, {"is_reserved": 0, "type": "electric_scooter", "fusion_lat": 0.0, "is_disabled": 0, "rental_uris": {"ios": "https://dc.lft.to/lastmile_qr_scan", "android": "https://dc.lft.to/lastmile_qr_scan"}, "bike_id": "0cdc07b3cc5a17cfcc24a269ac49cd57", "lat": 38.9094475, "name": "0cdc07b3cc5a17cfcc24a269ac49cd57", "lon": -77.04661966666667, "fusion_lon": 0.0}, {"is_reserved": 0, "type": "electric_scooter", "fusion_lat": 0.0, "is_disabled": 0, "rental_uris": {"ios": "https://dc.lft.to/lastmile_qr_scan", "android": "https://dc.lft.to/lastmile_qr_scan"}, "bike_id": "f2fadfa1b4f39f6dc9cd058b9c9ae5f5", "lat": 38.92539766666667, "name": "f2fadfa1b4f39f6dc9cd058b9c9ae5f5", "lon": -77.0347565, "fusion_lon": 0.0}, {"is_reserved": 0, "type": "electric_scooter", "fusion_lat": 0.0, "is_disabled": 0, "rental_uris": {"ios": "https://dc.lft.to/lastmile_qr_scan", "android": "https://dc.lft.to/lastmile_qr_scan"}, "bike_id": "7bc7fa4b3a343cc4fbeacaccbab2fa93", "lat": 38.94194866666667, "name": "7bc7fa4b3a343cc4fbeacaccbab2fa93", "lon": -77.088293, "fusion_lon": 0.0}, {"is_reserved": 0, "type": "electric_scooter", "fusion_lat": 0.0, "is_disabled": 0, "rental_uris": {"ios": "https://dc.lft.to/lastmile_qr_scan", "android": "https://dc.lft.to/lastmile_qr_scan"}, "bike_id": "7dc255290f9aa1e6336a5301e95535ca", "lat": 38.9080175, "name": "7dc255290f9aa1e6336a5301e95535ca", "lon": -77.04341866666667, "fusion_lon": 0.0}, {"is_reserved": 0, "type": "electric_scooter", "fusion_lat": 0.0, "is_disabled": 0, "rental_uris": {"ios": "https://dc.lft.to/lastmile_qr_scan", "android": "https://dc.lft.to/lastmile_qr_scan"}, "bike_id": "ff4695c34972d547d434319fc6abee6d", "lat": 38.88621033333333, "name": "ff4695c34972d547d434319fc6abee6d", "lon": -76.98708483333333, "fusion_lon": 0.0}, {"is_reserved": 0, "type": "electric_bike", "fusion_lat": 0.0, "is_disabled": 0, "rental_uris": {"ios": "https://dc.lft.to/lastmile_qr_scan", "android": "https://dc.lft.to/lastmile_qr_scan"}, "bike_id": "d15da4ba4fe1a153243841ed0b2058c6", "lat": 38.903904833333335, "name": "d15da4ba4fe1a153243841ed0b2058c6", "lon": -77.06304866666666, "fusion_lon": 0.0}, {"is_reserved": 0, "type": "electric_scooter", "fusion_lat": 0.0, "is_disabled": 0, "rental_uris": {"ios": "https://dc.lft.to/lastmile_qr_scan", "android": "https://dc.lft.to/lastmile_qr_scan"}, "bike_id": "58d63b45ac6c386c74008feafa233c7b", "lat": 38.907357166666664, "name": "58d63b45ac6c386c74008feafa233c7b", "lon": -77.0050825, "fusion_lon": 0.0}, {"is_reserved": 0, "type": "electric_bike", "fusion_lat": 0.0, "is_disabled": 0, "rental_uris": {"ios": "https://dc.lft.to/lastmile_qr_scan", "android": "https://dc.lft.to/lastmile_qr_scan"}, "bike_id": "3288ef3004cb9aa8bb88c39c1380e710", "lat": 38.97847483333334, "name": "3288ef3004cb9aa8bb88c39c1380e710", "lon": -77.0909775, "fusion_lon": 0.0}, {"is_reserved": 0, "type": "electric_bike", "fusion_lat": 0.0, "is_disabled": 0, "rental_uris": {"ios": "https://dc.lft.to/lastmile_qr_scan", "android": "https://dc.lft.to/lastmile_qr_scan"}, "bike_id": "205c178dc5cbbdcfebf7e26d1c045685", "lat": 38.8580005, "name": "205c178dc5cbbdcfebf7e26d1c045685", "lon": -76.9875445, "fusion_lon": 0.0}, {"is_reserved": 0, "type": "electric_bike", "fusion_lat": 0.0, "is_disabled": 0, "rental_uris": {"ios": "https://dc.lft.to/lastmile_qr_scan", "android": "https://dc.lft.to/lastmile_qr_scan"}, "bike_id": "1cfb2e45e3f6c0bca04d6b128b66eb79", "lat": 39.02619683333333, "name": "1cfb2e45e3f6c0bca04d6b128b66eb79", "lon": -77.038814, "fusion_lon": 0.0}, {"is_reserved": 0, "type": "electric_scooter", "fusion_lat": 0.0, "is_disabled": 0, "rental_uris": {"ios": "https://dc.lft.to/lastmile_qr_scan", "android": "https://dc.lft.to/lastmile_qr_scan"}, "bike_id": "7a2eb37418532535f34a3556c900b09a", "lat": 38.90362733333333, "name": "7a2eb37418532535f34a3556c900b09a", "lon": -77.02586166666667, "fusion_lon": 0.0}, {"is_reserved": 0, "type": "electric_scooter", "fusion_lat": 0.0, "is_disabled": 0, "rental_uris": {"ios": "https://dc.lft.to/lastmile_qr_scan", "android": "https://dc.lft.to/lastmile_qr_scan"}, "bike_id": "7e362c184b3c78570526c6138f75fd9b", "lat": 38.938768833333334, "name": "7e362c184b3c78570526c6138f75fd9b", "lon": -77.02828266666667, "fusion_lon": 0.0}, {"is_reserved": 0, "type": "electric_scooter", "fusion_lat": 0.0, "is_disabled": 0, "rental_uris": {"ios": "https://dc.lft.to/lastmile_qr_scan", "android": "https://dc.lft.to/lastmile_qr_scan"}, "bike_id": "85b904f6e465107313dbaf252f832464", "lat": 38.89952266666667, "name": "85b904f6e465107313dbaf252f832464", "lon": -77.027162, "fusion_lon": 0.0}, {"is_reserved": 0, "type": "electric_scooter", "fusion_lat": 0.0, "is_disabled": 0, "rental_uris": {"ios": "https://dc.lft.to/lastmile_qr_scan", "android": "https://dc.lft.to/lastmile_qr_scan"}, "bike_id": "45a8f01e03d57e76bb77741241c54f21", "lat": 38.89891133333333, "name": "45a8f01e03d57e76bb77741241c54f21", "lon": -77.02176466666667, "fusion_lon": 0.0}, {"is_reserved": 0, "type": "electric_scooter", "fusion_lat": 0.0, "is_disabled": 0, "rental_uris": {"ios": "https://dc.lft.to/lastmile_qr_scan", "android": "https://dc.lft.to/lastmile_qr_scan"}, "bike_id": "0cf3c4b44e4b750b632d48e34e494618", "lat": 38.891654, "name": "0cf3c4b44e4b750b632d48e34e494618", "lon": -77.0154035, "fusion_lon": 0.0}, {"is_reserved": 0, "type": "electric_scooter", "fusion_lat": 0.0, "is_disabled": 0, "rental_uris": {"ios": "https://dc.lft.to/lastmile_qr_scan", "android": "https://dc.lft.to/lastmile_qr_scan"}, "bike_id": "e0e21b3c4b28be36c0ebd7e87cc4c7e3", "lat": 38.89039433333333, "name": "e0e21b3c4b28be36c0ebd7e87cc4c7e3", "lon": -76.98837683333333, "fusion_lon": 0.0}, {"is_reserved": 0, "type": "electric_scooter", "fusion_lat": 0.0, "is_disabled": 0, "rental_uris": {"ios": "https://dc.lft.to/lastmile_qr_scan", "android": "https://dc.lft.to/lastmile_qr_scan"}, "bike_id": "3a6557e1a26e06e0153d8698351dfe52", "lat": 38.92182866666667, "name": "3a6557e1a26e06e0153d8698351dfe52", "lon": -77.04229416666666, "fusion_lon": 0.0}, {"is_reserved": 0, "type": "electric_scooter", "fusion_lat": 0.0, "is_disabled": 0, "rental_uris": {"ios": "https://dc.lft.to/lastmile_qr_scan", "android": "https://dc.lft.to/lastmile_qr_scan"}, "bike_id": "38bd61842850b35c3674e4c8b60f74ec", "lat": 38.939826333333336, "name": "38bd61842850b35c3674e4c8b60f74ec", "lon": -77.02894416666666, "fusion_lon": 0.0}, {"is_reserved": 0, "type": "electric_scooter", "fusion_lat": 0.0, "is_disabled": 0, "rental_uris": {"ios": "https://dc.lft.to/lastmile_qr_scan", "android": "https://dc.lft.to/lastmile_qr_scan"}, "bike_id": "533ea7212fda4457974ff3a2cbe785b8", "lat": 38.919804666666664, "name": "533ea7212fda4457974ff3a2cbe785b8", "lon": -77.07099266666667, "fusion_lon": 0.0}, {"is_reserved": 0, "type": "electric_bike", "fusion_lat": 0.0, "is_disabled": 0, "rental_uris": {"ios": "https://dc.lft.to/lastmile_qr_scan", "android": "https://dc.lft.to/lastmile_qr_scan"}, "bike_id": "23f13064e64fd5beca8b3fa94cfe730e", "lat": 38.8827745, "name": "23f13064e64fd5beca8b3fa94cfe730e", "lon": -76.93240183333333, "fusion_lon": 0.0}, {"is_reserved": 0, "type": "electric_scooter", "fusion_lat": 0.0, "is_disabled": 0, "rental_uris": {"ios": "https://dc.lft.to/lastmile_qr_scan", "android": "https://dc.lft.to/lastmile_qr_scan"}, "bike_id": "5f14e7f542d164253116f3a7e5bd10c7", "lat": 38.92060516666667, "name": "5f14e7f542d164253116f3a7e5bd10c7", "lon": -77.04232516666667, "fusion_lon": 0.0}, {"is_reserved": 0, "type": "electric_scooter", "fusion_lat": 0.0, "is_disabled": 0, "rental_uris": {"ios": "https://dc.lft.to/lastmile_qr_scan", "android": "https://dc.lft.to/lastmile_qr_scan"}, "bike_id": "3260bd5ed6d82596d9b21877f4d2f6bb", "lat": 38.9307835, "name": "3260bd5ed6d82596d9b21877f4d2f6bb", "lon": -77.0320815, "fusion_lon": 0.0}, {"is_reserved": 0, "type": "electric_scooter", "fusion_lat": 0.0, "is_disabled": 0, "rental_uris": {"ios": "https://dc.lft.to/lastmile_qr_scan", "android": "https://dc.lft.to/lastmile_qr_scan"}, "bike_id": "5ca096f976557d283da0dcc25362a364", "lat": 38.909550833333334, "name": "5ca096f976557d283da0dcc25362a364", "lon": -77.02457183333334, "fusion_lon": 0.0}, {"is_reserved": 0, "type": "electric_scooter", "fusion_lat": 0.0, "is_disabled": 0, "rental_uris": {"ios": "https://dc.lft.to/lastmile_qr_scan", "android": "https://dc.lft.to/lastmile_qr_scan"}, "bike_id": "509694fd9e468bcdf87bc73515728b52", "lat": 38.900292666666665, "name": "509694fd9e468bcdf87bc73515728b52", "lon": -77.03679, "fusion_lon": 0.0}, {"is_reserved": 0, "type": "electric_scooter", "fusion_lat": 0.0, "is_disabled": 0, "rental_uris": {"ios": "https://dc.lft.to/lastmile_qr_scan", "android": "https://dc.lft.to/lastmile_qr_scan"}, "bike_id": "7fc61452fadd46969138b8f7272d85bb", "lat": 38.914131, "name": "7fc61452fadd46969138b8f7272d85bb", "lon": -77.03563316666667, "fusion_lon": 0.0}, {"is_reserved": 0, "type": "electric_scooter", "fusion_lat": 0.0, "is_disabled": 0, "rental_uris": {"ios": "https://dc.lft.to/lastmile_qr_scan", "android": "https://dc.lft.to/lastmile_qr_scan"}, "bike_id": "9192799712f0b72ad85d6005cf04d624", "lat": 38.9156025, "name": "9192799712f0b72ad85d6005cf04d624", "lon": -77.032331, "fusion_lon": 0.0}, {"is_reserved": 0, "type": "electric_scooter", "fusion_lat": 0.0, "is_disabled": 0, "rental_uris": {"ios": "https://dc.lft.to/lastmile_qr_scan", "android": "https://dc.lft.to/lastmile_qr_scan"}, "bike_id": "cdd32aa738f16b51446c6db981f3295e", "lat": 38.89458466666667, "name": "cdd32aa738f16b51446c6db981f3295e", "lon": -77.02188266666667, "fusion_lon": 0.0}, {"is_reserved": 0, "type": "electric_bike", "fusion_lat": 0.0, "is_disabled": 0, "rental_uris": {"ios": "https://dc.lft.to/lastmile_qr_scan", "android": "https://dc.lft.to/lastmile_qr_scan"}, "bike_id": "f50a861c149a64fd365709eb4280be87", "lat": 38.904335333333336, "name": "f50a861c149a64fd365709eb4280be87", "lon": -76.97229233333333, "fusion_lon": 0.0}, {"is_reserved": 0, "type": "electric_bike", "fusion_lat": 0.0, "is_disabled": 0, "rental_uris": {"ios": "https://dc.lft.to/lastmile_qr_scan", "android": "https://dc.lft.to/lastmile_qr_scan"}, "bike_id": "cb21ae130f96eafe819749cb0f68a270", "lat": 38.83295316666667, "name": "cb21ae130f96eafe819749cb0f68a270", "lon": -77.08410533333333, "fusion_lon": 0.0}, {"is_reserved": 0, "type": "electric_scooter", "fusion_lat": 0.0, "is_disabled": 0, "rental_uris": {"ios": "https://dc.lft.to/lastmile_qr_scan", "android": "https://dc.lft.to/lastmile_qr_scan"}, "bike_id": "7dd8fe9fc16946359b78990a5244bd96", "lat": 38.898467333333336, "name": "7dd8fe9fc16946359b78990a5244bd96", "lon": -76.92749433333333, "fusion_lon": 0.0}, {"is_reserved": 0, "type": "electric_scooter", "fusion_lat": 0.0, "is_disabled": 0, "rental_uris": {"ios": "https://dc.lft.to/lastmile_qr_scan", "android": "https://dc.lft.to/lastmile_qr_scan"}, "bike_id": "5b849917000b2c90c290b94c4d47c9fb", "lat": 38.93262566666667, "name": "5b849917000b2c90c290b94c4d47c9fb", "lon": -77.02864283333334, "fusion_lon": 0.0}, {"is_reserved": 0, "type": "electric_scooter", "fusion_lat": 0.0, "is_disabled": 0, "rental_uris": {"ios": "https://dc.lft.to/lastmile_qr_scan", "android": "https://dc.lft.to/lastmile_qr_scan"}, "bike_id": "366b858b5df08791c59e19abb7580a28", "lat": 38.921330166666664, "name": "366b858b5df08791c59e19abb7580a28", "lon": -77.04686033333333, "fusion_lon": 0.0}, {"is_reserved": 0, "type": "electric_scooter", "fusion_lat": 0.0, "is_disabled": 0, "rental_uris": {"ios": "https://dc.lft.to/lastmile_qr_scan", "android": "https://dc.lft.to/lastmile_qr_scan"}, "bike_id": "78f6543089629961c1aedd0512494301", "lat": 38.891701, "name": "78f6543089629961c1aedd0512494301", "lon": -77.01552216666667, "fusion_lon": 0.0}, {"is_reserved": 0, "type": "electric_scooter", "fusion_lat": 0.0, "is_disabled": 0, "rental_uris": {"ios": "https://dc.lft.to/lastmile_qr_scan", "android": "https://dc.lft.to/lastmile_qr_scan"}, "bike_id": "2a95ac4671258d23356ea348a376745d", "lat": 38.887381166666664, "name": "2a95ac4671258d23356ea348a376745d", "lon": -77.0152935, "fusion_lon": 0.0}, {"is_reserved": 0, "type": "electric_scooter", "fusion_lat": 0.0, "is_disabled": 0, "rental_uris": {"ios": "https://dc.lft.to/lastmile_qr_scan", "android": "https://dc.lft.to/lastmile_qr_scan"}, "bike_id": "1dc085253de7c4938606b4f2b3ecfbe3", "lat": 38.90457466666667, "name": "1dc085253de7c4938606b4f2b3ecfbe3", "lon": -77.01875483333333, "fusion_lon": 0.0}, {"is_reserved": 0, "type": "electric_scooter", "fusion_lat": 0.0, "is_disabled": 0, "rental_uris": {"ios": "https://dc.lft.to/lastmile_qr_scan", "android": "https://dc.lft.to/lastmile_qr_scan"}, "bike_id": "b40595124bb42ffd0f4011db6ecc83ed", "lat": 38.901256000000004, "name": "b40595124bb42ffd0f4011db6ecc83ed", "lon": -77.003533, "fusion_lon": 0.0}, {"is_reserved": 0, "type": "electric_scooter", "fusion_lat": 0.0, "is_disabled": 0, "rental_uris": {"ios": "https://dc.lft.to/lastmile_qr_scan", "android": "https://dc.lft.to/lastmile_qr_scan"}, "bike_id": "ae355e008dccada5f72d0e5fe6fa526f", "lat": 38.88036016666667, "name": "ae355e008dccada5f72d0e5fe6fa526f", "lon": -76.92724666666666, "fusion_lon": 0.0}, {"is_reserved": 0, "type": "electric_scooter", "fusion_lat": 0.0, "is_disabled": 0, "rental_uris": {"ios": "https://dc.lft.to/lastmile_qr_scan", "android": "https://dc.lft.to/lastmile_qr_scan"}, "bike_id": "9abbff8ba1d42a01cf583388734d1cb0", "lat": 38.89908916666667, "name": "9abbff8ba1d42a01cf583388734d1cb0", "lon": -76.93389316666666, "fusion_lon": 0.0}, {"is_reserved": 0, "type": "electric_scooter", "fusion_lat": 0.0, "is_disabled": 0, "rental_uris": {"ios": "https://dc.lft.to/lastmile_qr_scan", "android": "https://dc.lft.to/lastmile_qr_scan"}, "bike_id": "a61a3cfe2d536c597db8d005f0f74ff4", "lat": 38.90982783333333, "name": "a61a3cfe2d536c597db8d005f0f74ff4", "lon": -77.028765, "fusion_lon": 0.0}, {"is_reserved": 0, "type": "electric_scooter", "fusion_lat": 0.0, "is_disabled": 0, "rental_uris": {"ios": "https://dc.lft.to/lastmile_qr_scan", "android": "https://dc.lft.to/lastmile_qr_scan"}, "bike_id": "2a97d5ceab398677dfba4fe823b8c3a6", "lat": 38.92216366666667, "name": "2a97d5ceab398677dfba4fe823b8c3a6", "lon": -77.04258016666667, "fusion_lon": 0.0}, {"is_reserved": 0, "type": "electric_bike", "fusion_lat": 0.0, "is_disabled": 0, "rental_uris": {"ios": "https://dc.lft.to/lastmile_qr_scan", "android": "https://dc.lft.to/lastmile_qr_scan"}, "bike_id": "7595d82ad45579760659825454655edf", "lat": 38.82926633333334, "name": "7595d82ad45579760659825454655edf", "lon": -77.06878283333333, "fusion_lon": 0.0}, {"is_reserved": 0, "type": "electric_scooter", "fusion_lat": 0.0, "is_disabled": 0, "rental_uris": {"ios": "https://dc.lft.to/lastmile_qr_scan", "android": "https://dc.lft.to/lastmile_qr_scan"}, "bike_id": "6ea649edc98a1f77ec036691cedb9818", "lat": 38.92320133333333, "name": "6ea649edc98a1f77ec036691cedb9818", "lon": -77.03516, "fusion_lon": 0.0}, {"is_reserved": 0, "type": "electric_scooter", "fusion_lat": 0.0, "is_disabled": 0, "rental_uris": {"ios": "https://dc.lft.to/lastmile_qr_scan", "android": "https://dc.lft.to/lastmile_qr_scan"}, "bike_id": "1df4f787595e5479ea5a0f510326a4d7", "lat": 38.914187, "name": "1df4f787595e5479ea5a0f510326a4d7", "lon": -77.04594716666666, "fusion_lon": 0.0}, {"is_reserved": 0, "type": "electric_scooter", "fusion_lat": 0.0, "is_disabled": 0, "rental_uris": {"ios": "https://dc.lft.to/lastmile_qr_scan", "android": "https://dc.lft.to/lastmile_qr_scan"}, "bike_id": "3c67f6a8ded7eb5b487b3062fde3394a", "lat": 38.9223825, "name": "3c67f6a8ded7eb5b487b3062fde3394a", "lon": -77.03663766666666, "fusion_lon": 0.0}, {"is_reserved": 0, "type": "electric_scooter", "fusion_lat": 0.0, "is_disabled": 0, "rental_uris": {"ios": "https://dc.lft.to/lastmile_qr_scan", "android": "https://dc.lft.to/lastmile_qr_scan"}, "bike_id": "102e976277a594f7c15e91f1e81ba9f9", "lat": 38.92369566666667, "name": "102e976277a594f7c15e91f1e81ba9f9", "lon": -77.04097916666667, "fusion_lon": 0.0}, {"is_reserved": 0, "type": "electric_bike", "fusion_lat": 0.0, "is_disabled": 0, "rental_uris": {"ios": "https://dc.lft.to/lastmile_qr_scan", "android": "https://dc.lft.to/lastmile_qr_scan"}, "bike_id": "7a2d6b40b00a63c796575a08016a57a0", "lat": 39.0744065, "name": "7a2d6b40b00a63c796575a08016a57a0", "lon": -77.11526766666667, "fusion_lon": 0.0}, {"is_reserved": 0, "type": "electric_scooter", "fusion_lat": 0.0, "is_disabled": 0, "rental_uris": {"ios": "https://dc.lft.to/lastmile_qr_scan", "android": "https://dc.lft.to/lastmile_qr_scan"}, "bike_id": "9462b8f5a9593c83054ab1bf727867d9", "lat": 38.90280966666667, "name": "9462b8f5a9593c83054ab1bf727867d9", "lon": -77.0231255, "fusion_lon": 0.0}, {"is_reserved": 0, "type": "electric_bike", "fusion_lat": 0.0, "is_disabled": 0, "rental_uris": {"ios": "https://dc.lft.to/lastmile_qr_scan", "android": "https://dc.lft.to/lastmile_qr_scan"}, "bike_id": "b03e80275e444b1d7d6aae3a0651064c", "lat": 38.80403833333333, "name": "b03e80275e444b1d7d6aae3a0651064c", "lon": -77.11332633333333, "fusion_lon": 0.0}, {"is_reserved": 0, "type": "electric_scooter", "fusion_lat": 0.0, "is_disabled": 0, "rental_uris": {"ios": "https://dc.lft.to/lastmile_qr_scan", "android": "https://dc.lft.to/lastmile_qr_scan"}, "bike_id": "3f04bd7e16ef24d4a02d84a63c3bd5e2", "lat": 38.908978, "name": "3f04bd7e16ef24d4a02d84a63c3bd5e2", "lon": -76.9914355, "fusion_lon": 0.0}, {"is_reserved": 0, "type": "electric_scooter", "fusion_lat": 0.0, "is_disabled": 0, "rental_uris": {"ios": "https://dc.lft.to/lastmile_qr_scan", "android": "https://dc.lft.to/lastmile_qr_scan"}, "bike_id": "afc83838d657fa46fb37b3ebbca9869f", "lat": 38.93266633333333, "name": "afc83838d657fa46fb37b3ebbca9869f", "lon": -77.02095066666666, "fusion_lon": 0.0}, {"is_reserved": 0, "type": "electric_bike", "fusion_lat": 0.0, "is_disabled": 0, "rental_uris": {"ios": "https://dc.lft.to/lastmile_qr_scan", "android": "https://dc.lft.to/lastmile_qr_scan"}, "bike_id": "fafaaaa1c0ab19f08164d43c522c7355", "lat": 38.855911666666664, "name": "fafaaaa1c0ab19f08164d43c522c7355", "lon": -76.97277183333334, "fusion_lon": 0.0}, {"is_reserved": 0, "type": "electric_scooter", "fusion_lat": 0.0, "is_disabled": 0, "rental_uris": {"ios": "https://dc.lft.to/lastmile_qr_scan", "android": "https://dc.lft.to/lastmile_qr_scan"}, "bike_id": "b5835d78b5624d918ba5d5c916fafe3f", "lat": 38.899672, "name": "b5835d78b5624d918ba5d5c916fafe3f", "lon": -77.016147, "fusion_lon": 0.0}, {"is_reserved": 0, "type": "electric_scooter", "fusion_lat": 0.0, "is_disabled": 0, "rental_uris": {"ios": "https://dc.lft.to/lastmile_qr_scan", "android": "https://dc.lft.to/lastmile_qr_scan"}, "bike_id": "b9885f052691e25d8a56b12713bb36c4", "lat": 38.908004, "name": "b9885f052691e25d8a56b12713bb36c4", "lon": -77.0313205, "fusion_lon": 0.0}, {"is_reserved": 0, "type": "electric_scooter", "fusion_lat": 0.0, "is_disabled": 0, "rental_uris": {"ios": "https://dc.lft.to/lastmile_qr_scan", "android": "https://dc.lft.to/lastmile_qr_scan"}, "bike_id": "e5eb3f7fb6433ac54fa65ed29af9b2f0", "lat": 38.90042233333333, "name": "e5eb3f7fb6433ac54fa65ed29af9b2f0", "lon": -77.0025915, "fusion_lon": 0.0}, {"is_reserved": 0, "type": "electric_scooter", "fusion_lat": 0.0, "is_disabled": 0, "rental_uris": {"ios": "https://dc.lft.to/lastmile_qr_scan", "android": "https://dc.lft.to/lastmile_qr_scan"}, "bike_id": "94432d229eb7b32c262ffda2eee62dd5", "lat": 38.9385615, "name": "94432d229eb7b32c262ffda2eee62dd5", "lon": -77.02463, "fusion_lon": 0.0}, {"is_reserved": 0, "type": "electric_scooter", "fusion_lat": 0.0, "is_disabled": 0, "rental_uris": {"ios": "https://dc.lft.to/lastmile_qr_scan", "android": "https://dc.lft.to/lastmile_qr_scan"}, "bike_id": "e2d7f5a9eb7cd84737924fcb15fa5223", "lat": 38.93186383333333, "name": "e2d7f5a9eb7cd84737924fcb15fa5223", "lon": -77.03271916666667, "fusion_lon": 0.0}, {"is_reserved": 0, "type": "electric_scooter", "fusion_lat": 0.0, "is_disabled": 0, "rental_uris": {"ios": "https://dc.lft.to/lastmile_qr_scan", "android": "https://dc.lft.to/lastmile_qr_scan"}, "bike_id": "2ff39826929f568ac33b499e6ae92cfa", "lat": 38.94681966666667, "name": "2ff39826929f568ac33b499e6ae92cfa", "lon": -77.03284366666666, "fusion_lon": 0.0}, {"is_reserved": 0, "type": "electric_scooter", "fusion_lat": 0.0, "is_disabled": 0, "rental_uris": {"ios": "https://dc.lft.to/lastmile_qr_scan", "android": "https://dc.lft.to/lastmile_qr_scan"}, "bike_id": "2cd4caf2d9bd15759cd21a37d7cd3198", "lat": 38.89192166666667, "name": "2cd4caf2d9bd15759cd21a37d7cd3198", "lon": -77.0212215, "fusion_lon": 0.0}, {"is_reserved": 0, "type": "electric_bike", "fusion_lat": 0.0, "is_disabled": 0, "rental_uris": {"ios": "https://dc.lft.to/lastmile_qr_scan", "android": "https://dc.lft.to/lastmile_qr_scan"}, "bike_id": "69703347ab9b13219e7932cbb0e3725f", "lat": 38.82036766666667, "name": "69703347ab9b13219e7932cbb0e3725f", "lon": -77.054558, "fusion_lon": 0.0}, {"is_reserved": 0, "type": "electric_scooter", "fusion_lat": 0.0, "is_disabled": 0, "rental_uris": {"ios": "https://dc.lft.to/lastmile_qr_scan", "android": "https://dc.lft.to/lastmile_qr_scan"}, "bike_id": "b6e5fe052d92326b509e3455645f1f1f", "lat": 38.88132383333333, "name": "b6e5fe052d92326b509e3455645f1f1f", "lon": -77.02272816666667, "fusion_lon": 0.0}, {"is_reserved": 0, "type": "electric_bike", "fusion_lat": 0.0, "is_disabled": 0, "rental_uris": {"ios": "https://dc.lft.to/lastmile_qr_scan", "android": "https://dc.lft.to/lastmile_qr_scan"}, "bike_id": "7b344cec4e96ce166d8d1909652d5d55", "lat": 38.96126266666667, "name": "7b344cec4e96ce166d8d1909652d5d55", "lon": -77.03273016666667, "fusion_lon": 0.0}, {"is_reserved": 0, "type": "electric_scooter", "fusion_lat": 0.0, "is_disabled": 0, "rental_uris": {"ios": "https://dc.lft.to/lastmile_qr_scan", "android": "https://dc.lft.to/lastmile_qr_scan"}, "bike_id": "1c11a71089304db4971ec2e7cfa77b33", "lat": 38.884462, "name": "1c11a71089304db4971ec2e7cfa77b33", "lon": -76.95094716666667, "fusion_lon": 0.0}, {"is_reserved": 0, "type": "electric_scooter", "fusion_lat": 0.0, "is_disabled": 0, "rental_uris": {"ios": "https://dc.lft.to/lastmile_qr_scan", "android": "https://dc.lft.to/lastmile_qr_scan"}, "bike_id": "a538198c21c75efbc44bf24ad38bcb86", "lat": 38.921505, "name": "a538198c21c75efbc44bf24ad38bcb86", "lon": -77.0338565, "fusion_lon": 0.0}, {"is_reserved": 0, "type": "electric_bike", "fusion_lat": 0.0, "is_disabled": 0, "rental_uris": {"ios": "https://dc.lft.to/lastmile_qr_scan", "android": "https://dc.lft.to/lastmile_qr_scan"}, "bike_id": "4f8aa050d6752dc47d1604a765e184be", "lat": 38.90030316666667, "name": "4f8aa050d6752dc47d1604a765e184be", "lon": -76.99954366666667, "fusion_lon": 0.0}, {"is_reserved": 0, "type": "electric_scooter", "fusion_lat": 0.0, "is_disabled": 0, "rental_uris": {"ios": "https://dc.lft.to/lastmile_qr_scan", "android": "https://dc.lft.to/lastmile_qr_scan"}, "bike_id": "d3a2e7b6def85b32d0bd5919532772f5", "lat": 38.923425, "name": "d3a2e7b6def85b32d0bd5919532772f5", "lon": -77.04031466666666, "fusion_lon": 0.0}, {"is_reserved": 0, "type": "electric_scooter", "fusion_lat": 0.0, "is_disabled": 0, "rental_uris": {"ios": "https://dc.lft.to/lastmile_qr_scan", "android": "https://dc.lft.to/lastmile_qr_scan"}, "bike_id": "75c31438613a9c49b1cd960eac4ac115", "lat": 38.9333555, "name": "75c31438613a9c49b1cd960eac4ac115", "lon": -77.03883483333334, "fusion_lon": 0.0}, {"is_reserved": 0, "type": "electric_scooter", "fusion_lat": 0.0, "is_disabled": 0, "rental_uris": {"ios": "https://dc.lft.to/lastmile_qr_scan", "android": "https://dc.lft.to/lastmile_qr_scan"}, "bike_id": "dfc6d3de9651ea415cfa685375d2ac26", "lat": 38.89727416666667, "name": "dfc6d3de9651ea415cfa685375d2ac26", "lon": -76.991379, "fusion_lon": 0.0}, {"is_reserved": 0, "type": "electric_scooter", "fusion_lat": 0.0, "is_disabled": 0, "rental_uris": {"ios": "https://dc.lft.to/lastmile_qr_scan", "android": "https://dc.lft.to/lastmile_qr_scan"}, "bike_id": "432dfbc59b8fedf7176266945ec7b837", "lat": 38.92442833333333, "name": "432dfbc59b8fedf7176266945ec7b837", "lon": -77.02979033333334, "fusion_lon": 0.0}, {"is_reserved": 0, "type": "electric_scooter", "fusion_lat": 0.0, "is_disabled": 0, "rental_uris": {"ios": "https://dc.lft.to/lastmile_qr_scan", "android": "https://dc.lft.to/lastmile_qr_scan"}, "bike_id": "41e7c26f0f6d3b9aafbc38b1c0d351cb", "lat": 38.9514755, "name": "41e7c26f0f6d3b9aafbc38b1c0d351cb", "lon": -77.01867366666667, "fusion_lon": 0.0}, {"is_reserved": 0, "type": "electric_bike", "fusion_lat": 0.0, "is_disabled": 0, "rental_uris": {"ios": "https://dc.lft.to/lastmile_qr_scan", "android": "https://dc.lft.to/lastmile_qr_scan"}, "bike_id": "c964e13a842ed2d3cc40fde12aebe014", "lat": 38.95185, "name": "c964e13a842ed2d3cc40fde12aebe014", "lon": -76.9354655, "fusion_lon": 0.0}, {"is_reserved": 0, "type": "electric_bike", "fusion_lat": 0.0, "is_disabled": 0, "rental_uris": {"ios": "https://dc.lft.to/lastmile_qr_scan", "android": "https://dc.lft.to/lastmile_qr_scan"}, "bike_id": "e3bc6a2dfc16d4d99e345e8bf6309ec0", "lat": 38.88633466666667, "name": "e3bc6a2dfc16d4d99e345e8bf6309ec0", "lon": -77.05795416666666, "fusion_lon": 0.0}, {"is_reserved": 0, "type": "electric_scooter", "fusion_lat": 0.0, "is_disabled": 0, "rental_uris": {"ios": "https://dc.lft.to/lastmile_qr_scan", "android": "https://dc.lft.to/lastmile_qr_scan"}, "bike_id": "cfaedb7c3d1638caa1d4a055fb48ebd1", "lat": 38.929999, "name": "cfaedb7c3d1638caa1d4a055fb48ebd1", "lon": -77.055379, "fusion_lon": 0.0}, {"is_reserved": 0, "type": "electric_scooter", "fusion_lat": 0.0, "is_disabled": 0, "rental_uris": {"ios": "https://dc.lft.to/lastmile_qr_scan", "android": "https://dc.lft.to/lastmile_qr_scan"}, "bike_id": "4c2dde96aed993a7ffa4448ef3b59241", "lat": 38.91689083333333, "name": "4c2dde96aed993a7ffa4448ef3b59241", "lon": -77.026, "fusion_lon": 0.0}, {"is_reserved": 0, "type": "electric_bike", "fusion_lat": 0.0, "is_disabled": 0, "rental_uris": {"ios": "https://dc.lft.to/lastmile_qr_scan", "android": "https://dc.lft.to/lastmile_qr_scan"}, "bike_id": "16513fbb6c97217de5c619c9eed70ecc", "lat": 38.96379833333334, "name": "16513fbb6c97217de5c619c9eed70ecc", "lon": -77.0197975, "fusion_lon": 0.0}, {"is_reserved": 0, "type": "electric_scooter", "fusion_lat": 0.0, "is_disabled": 0, "rental_uris": {"ios": "https://dc.lft.to/lastmile_qr_scan", "android": "https://dc.lft.to/lastmile_qr_scan"}, "bike_id": "826a99e97674772886be535f246fe128", "lat": 38.920410333333336, "name": "826a99e97674772886be535f246fe128", "lon": -77.0243535, "fusion_lon": 0.0}, {"is_reserved": 0, "type": "electric_scooter", "fusion_lat": 0.0, "is_disabled": 0, "rental_uris": {"ios": "https://dc.lft.to/lastmile_qr_scan", "android": "https://dc.lft.to/lastmile_qr_scan"}, "bike_id": "ef6d83ed9107e52d04485130b001c5a6", "lat": 38.88356266666667, "name": "ef6d83ed9107e52d04485130b001c5a6", "lon": -76.9949565, "fusion_lon": 0.0}, {"is_reserved": 0, "type": "electric_scooter", "fusion_lat": 0.0, "is_disabled": 0, "rental_uris": {"ios": "https://dc.lft.to/lastmile_qr_scan", "android": "https://dc.lft.to/lastmile_qr_scan"}, "bike_id": "5c60c1c3b679d34de5df388ee5d131ea", "lat": 38.91037016666667, "name": "5c60c1c3b679d34de5df388ee5d131ea", "lon": -77.026951, "fusion_lon": 0.0}, {"is_reserved": 0, "type": "electric_scooter", "fusion_lat": 0.0, "is_disabled": 0, "rental_uris": {"ios": "https://dc.lft.to/lastmile_qr_scan", "android": "https://dc.lft.to/lastmile_qr_scan"}, "bike_id": "719e68bc304af30d6b457b1d5a990f7c", "lat": 38.90028483333333, "name": "719e68bc304af30d6b457b1d5a990f7c", "lon": -77.01219983333333, "fusion_lon": 0.0}, {"is_reserved": 0, "type": "electric_scooter", "fusion_lat": 0.0, "is_disabled": 0, "rental_uris": {"ios": "https://dc.lft.to/lastmile_qr_scan", "android": "https://dc.lft.to/lastmile_qr_scan"}, "bike_id": "1e7b4ce8c3a67e10b198a592cb890d84", "lat": 38.9036155, "name": "1e7b4ce8c3a67e10b198a592cb890d84", "lon": -77.0507175, "fusion_lon": 0.0}, {"is_reserved": 0, "type": "electric_scooter", "fusion_lat": 0.0, "is_disabled": 0, "rental_uris": {"ios": "https://dc.lft.to/lastmile_qr_scan", "android": "https://dc.lft.to/lastmile_qr_scan"}, "bike_id": "118399fc3d65b1fbfb5acb2e162c5b7b", "lat": 38.881086, "name": "118399fc3d65b1fbfb5acb2e162c5b7b", "lon": -77.02654, "fusion_lon": 0.0}, {"is_reserved": 0, "type": "electric_scooter", "fusion_lat": 0.0, "is_disabled": 0, "rental_uris": {"ios": "https://dc.lft.to/lastmile_qr_scan", "android": "https://dc.lft.to/lastmile_qr_scan"}, "bike_id": "560213148c88a67a05a49c729b7505e4", "lat": 38.919038, "name": "560213148c88a67a05a49c729b7505e4", "lon": -77.031811, "fusion_lon": 0.0}, {"is_reserved": 0, "type": "electric_scooter", "fusion_lat": 0.0, "is_disabled": 0, "rental_uris": {"ios": "https://dc.lft.to/lastmile_qr_scan", "android": "https://dc.lft.to/lastmile_qr_scan"}, "bike_id": "a99a8ae7f0e231789427a263ed5d61c2", "lat": 38.961399166666666, "name": "a99a8ae7f0e231789427a263ed5d61c2", "lon": -77.02807983333334, "fusion_lon": 0.0}, {"is_reserved": 0, "type": "electric_scooter", "fusion_lat": 0.0, "is_disabled": 0, "rental_uris": {"ios": "https://dc.lft.to/lastmile_qr_scan", "android": "https://dc.lft.to/lastmile_qr_scan"}, "bike_id": "c37a9e67bfe3abd84b4ec9e318b40879", "lat": 38.91884016666667, "name": "c37a9e67bfe3abd84b4ec9e318b40879", "lon": -77.0230805, "fusion_lon": 0.0}, {"is_reserved": 0, "type": "electric_scooter", "fusion_lat": 0.0, "is_disabled": 0, "rental_uris": {"ios": "https://dc.lft.to/lastmile_qr_scan", "android": "https://dc.lft.to/lastmile_qr_scan"}, "bike_id": "072ed6cb0d2010478550d720c7e78e43", "lat": 38.8784015, "name": "072ed6cb0d2010478550d720c7e78e43", "lon": -77.0087075, "fusion_lon": 0.0}, {"is_reserved": 0, "type": "electric_scooter", "fusion_lat": 0.0, "is_disabled": 0, "rental_uris": {"ios": "https://dc.lft.to/lastmile_qr_scan", "android": "https://dc.lft.to/lastmile_qr_scan"}, "bike_id": "17c14b44835598c8bfe0981e6b383502", "lat": 38.9083925, "name": "17c14b44835598c8bfe0981e6b383502", "lon": -77.0007795, "fusion_lon": 0.0}, {"is_reserved": 0, "type": "electric_scooter", "fusion_lat": 0.0, "is_disabled": 0, "rental_uris": {"ios": "https://dc.lft.to/lastmile_qr_scan", "android": "https://dc.lft.to/lastmile_qr_scan"}, "bike_id": "07c55f8f81d2958d259d660888af9f41", "lat": 38.92448816666667, "name": "07c55f8f81d2958d259d660888af9f41", "lon": -77.02038183333333, "fusion_lon": 0.0}, {"is_reserved": 0, "type": "electric_scooter", "fusion_lat": 0.0, "is_disabled": 0, "rental_uris": {"ios": "https://dc.lft.to/lastmile_qr_scan", "android": "https://dc.lft.to/lastmile_qr_scan"}, "bike_id": "24f257fdad3212812b2541e377ef34d2", "lat": 38.89483933333333, "name": "24f257fdad3212812b2541e377ef34d2", "lon": -76.996037, "fusion_lon": 0.0}, {"is_reserved": 0, "type": "electric_bike", "fusion_lat": 0.0, "is_disabled": 0, "rental_uris": {"ios": "https://dc.lft.to/lastmile_qr_scan", "android": "https://dc.lft.to/lastmile_qr_scan"}, "bike_id": "c62351064b07fbbe4266125441bffba3", "lat": 38.819385, "name": "c62351064b07fbbe4266125441bffba3", "lon": -77.00202883333333, "fusion_lon": 0.0}, {"is_reserved": 0, "type": "electric_scooter", "fusion_lat": 0.0, "is_disabled": 0, "rental_uris": {"ios": "https://dc.lft.to/lastmile_qr_scan", "android": "https://dc.lft.to/lastmile_qr_scan"}, "bike_id": "c48fbeae710573cf32b79bf2fd9b6403", "lat": 38.920605333333334, "name": "c48fbeae710573cf32b79bf2fd9b6403", "lon": -77.0005655, "fusion_lon": 0.0}, {"is_reserved": 0, "type": "electric_scooter", "fusion_lat": 0.0, "is_disabled": 0, "rental_uris": {"ios": "https://dc.lft.to/lastmile_qr_scan", "android": "https://dc.lft.to/lastmile_qr_scan"}, "bike_id": "347e7e99c31c87bcb47e590e51d308fb", "lat": 38.944591833333334, "name": "347e7e99c31c87bcb47e590e51d308fb", "lon": -77.00656916666667, "fusion_lon": 0.0}, {"is_reserved": 0, "type": "electric_scooter", "fusion_lat": 0.0, "is_disabled": 0, "rental_uris": {"ios": "https://dc.lft.to/lastmile_qr_scan", "android": "https://dc.lft.to/lastmile_qr_scan"}, "bike_id": "5f42b2724a30af03242983fd4e4cc6f9", "lat": 38.908942333333336, "name": "5f42b2724a30af03242983fd4e4cc6f9", "lon": -77.03206016666667, "fusion_lon": 0.0}, {"is_reserved": 0, "type": "electric_scooter", "fusion_lat": 0.0, "is_disabled": 0, "rental_uris": {"ios": "https://dc.lft.to/lastmile_qr_scan", "android": "https://dc.lft.to/lastmile_qr_scan"}, "bike_id": "497dca3858f478ab2324cfd0e62c16c4", "lat": 38.91348583333333, "name": "497dca3858f478ab2324cfd0e62c16c4", "lon": -77.04556066666666, "fusion_lon": 0.0}, {"is_reserved": 0, "type": "electric_scooter", "fusion_lat": 0.0, "is_disabled": 0, "rental_uris": {"ios": "https://dc.lft.to/lastmile_qr_scan", "android": "https://dc.lft.to/lastmile_qr_scan"}, "bike_id": "adef36decab9bcc56454bc94fc3def2a", "lat": 38.881369, "name": "adef36decab9bcc56454bc94fc3def2a", "lon": -76.99613083333334, "fusion_lon": 0.0}, {"is_reserved": 0, "type": "electric_scooter", "fusion_lat": 0.0, "is_disabled": 0, "rental_uris": {"ios": "https://dc.lft.to/lastmile_qr_scan", "android": "https://dc.lft.to/lastmile_qr_scan"}, "bike_id": "6619deb663c2794fddc358f82a804170", "lat": 38.91017433333333, "name": "6619deb663c2794fddc358f82a804170", "lon": -77.01981316666667, "fusion_lon": 0.0}, {"is_reserved": 0, "type": "electric_scooter", "fusion_lat": 0.0, "is_disabled": 0, "rental_uris": {"ios": "https://dc.lft.to/lastmile_qr_scan", "android": "https://dc.lft.to/lastmile_qr_scan"}, "bike_id": "4644590afaca63ab95d67245a7d7ed50", "lat": 38.905881, "name": "4644590afaca63ab95d67245a7d7ed50", "lon": -77.01614633333334, "fusion_lon": 0.0}, {"is_reserved": 0, "type": "electric_scooter", "fusion_lat": 0.0, "is_disabled": 0, "rental_uris": {"ios": "https://dc.lft.to/lastmile_qr_scan", "android": "https://dc.lft.to/lastmile_qr_scan"}, "bike_id": "6064410b65c4633ca38c88eec4566701", "lat": 38.93562, "name": "6064410b65c4633ca38c88eec4566701", "lon": -77.07369466666667, "fusion_lon": 0.0}, {"is_reserved": 0, "type": "electric_scooter", "fusion_lat": 0.0, "is_disabled": 0, "rental_uris": {"ios": "https://dc.lft.to/lastmile_qr_scan", "android": "https://dc.lft.to/lastmile_qr_scan"}, "bike_id": "dd1ea4f2f24264f788fe9d0440446b22", "lat": 38.89828116666666, "name": "dd1ea4f2f24264f788fe9d0440446b22", "lon": -77.046401, "fusion_lon": 0.0}, {"is_reserved": 0, "type": "electric_scooter", "fusion_lat": 0.0, "is_disabled": 0, "rental_uris": {"ios": "https://dc.lft.to/lastmile_qr_scan", "android": "https://dc.lft.to/lastmile_qr_scan"}, "bike_id": "89c964169d27f4b7b1beede0bed72bdc", "lat": 38.925707333333335, "name": "89c964169d27f4b7b1beede0bed72bdc", "lon": -77.03745383333333, "fusion_lon": 0.0}, {"is_reserved": 0, "type": "electric_scooter", "fusion_lat": 0.0, "is_disabled": 0, "rental_uris": {"ios": "https://dc.lft.to/lastmile_qr_scan", "android": "https://dc.lft.to/lastmile_qr_scan"}, "bike_id": "f0065c8e6a517338a2ef19feab2773c9", "lat": 38.914461833333334, "name": "f0065c8e6a517338a2ef19feab2773c9", "lon": -76.984436, "fusion_lon": 0.0}, {"is_reserved": 0, "type": "electric_scooter", "fusion_lat": 0.0, "is_disabled": 0, "rental_uris": {"ios": "https://dc.lft.to/lastmile_qr_scan", "android": "https://dc.lft.to/lastmile_qr_scan"}, "bike_id": "e1c8e91716543b9a60d41e4ebfc39d3b", "lat": 38.857158, "name": "e1c8e91716543b9a60d41e4ebfc39d3b", "lon": -76.980981, "fusion_lon": 0.0}, {"is_reserved": 0, "type": "electric_bike", "fusion_lat": 0.0, "is_disabled": 0, "rental_uris": {"ios": "https://dc.lft.to/lastmile_qr_scan", "android": "https://dc.lft.to/lastmile_qr_scan"}, "bike_id": "94ab811a7994fb92c37d56d771fbd2ec", "lat": 38.9279475, "name": "94ab811a7994fb92c37d56d771fbd2ec", "lon": -77.22938366666666, "fusion_lon": 0.0}, {"is_reserved": 0, "type": "electric_scooter", "fusion_lat": 0.0, "is_disabled": 0, "rental_uris": {"ios": "https://dc.lft.to/lastmile_qr_scan", "android": "https://dc.lft.to/lastmile_qr_scan"}, "bike_id": "59db97e2ec2e9136c8946c04ea32d630", "lat": 38.88541333333333, "name": "59db97e2ec2e9136c8946c04ea32d630", "lon": -76.985385, "fusion_lon": 0.0}, {"is_reserved": 0, "type": "electric_scooter", "fusion_lat": 0.0, "is_disabled": 0, "rental_uris": {"ios": "https://dc.lft.to/lastmile_qr_scan", "android": "https://dc.lft.to/lastmile_qr_scan"}, "bike_id": "6d2bbb4b79b08fdfab6dc553178a5099", "lat": 38.916916666666665, "name": "6d2bbb4b79b08fdfab6dc553178a5099", "lon": -77.052999, "fusion_lon": 0.0}, {"is_reserved": 0, "type": "electric_scooter", "fusion_lat": 0.0, "is_disabled": 0, "rental_uris": {"ios": "https://dc.lft.to/lastmile_qr_scan", "android": "https://dc.lft.to/lastmile_qr_scan"}, "bike_id": "cda1ca13a779065c490110fee06bcec4", "lat": 38.9236, "name": "cda1ca13a779065c490110fee06bcec4", "lon": -77.01916466666667, "fusion_lon": 0.0}, {"is_reserved": 0, "type": "electric_scooter", "fusion_lat": 0.0, "is_disabled": 0, "rental_uris": {"ios": "https://dc.lft.to/lastmile_qr_scan", "android": "https://dc.lft.to/lastmile_qr_scan"}, "bike_id": "44789a784cb5e12992dcfd50f7521862", "lat": 38.898823, "name": "44789a784cb5e12992dcfd50f7521862", "lon": -76.93173933333334, "fusion_lon": 0.0}, {"is_reserved": 0, "type": "electric_scooter", "fusion_lat": 0.0, "is_disabled": 0, "rental_uris": {"ios": "https://dc.lft.to/lastmile_qr_scan", "android": "https://dc.lft.to/lastmile_qr_scan"}, "bike_id": "db4e799b2f8e6eaed003c1f7a4c519ab", "lat": 38.909397, "name": "db4e799b2f8e6eaed003c1f7a4c519ab", "lon": -77.04656116666666, "fusion_lon": 0.0}, {"is_reserved": 0, "type": "electric_bike", "fusion_lat": 0.0, "is_disabled": 0, "rental_uris": {"ios": "https://dc.lft.to/lastmile_qr_scan", "android": "https://dc.lft.to/lastmile_qr_scan"}, "bike_id": "d877396ae7d1826169714c49b6eea1d2", "lat": 38.834091, "name": "d877396ae7d1826169714c49b6eea1d2", "lon": -77.0501395, "fusion_lon": 0.0}, {"is_reserved": 0, "type": "electric_scooter", "fusion_lat": 0.0, "is_disabled": 0, "rental_uris": {"ios": "https://dc.lft.to/lastmile_qr_scan", "android": "https://dc.lft.to/lastmile_qr_scan"}, "bike_id": "aa33e97f944a953010ef0561cc8d1295", "lat": 38.9642295, "name": "aa33e97f944a953010ef0561cc8d1295", "lon": -77.0742895, "fusion_lon": 0.0}, {"is_reserved": 0, "type": "electric_scooter", "fusion_lat": 0.0, "is_disabled": 0, "rental_uris": {"ios": "https://dc.lft.to/lastmile_qr_scan", "android": "https://dc.lft.to/lastmile_qr_scan"}, "bike_id": "81b97f908a946e36fc71d784d67f9824", "lat": 38.9013005, "name": "81b97f908a946e36fc71d784d67f9824", "lon": -77.02277866666667, "fusion_lon": 0.0}, {"is_reserved": 0, "type": "electric_scooter", "fusion_lat": 0.0, "is_disabled": 0, "rental_uris": {"ios": "https://dc.lft.to/lastmile_qr_scan", "android": "https://dc.lft.to/lastmile_qr_scan"}, "bike_id": "5f93a037422405bf955e2d4b437c5303", "lat": 38.91089216666667, "name": "5f93a037422405bf955e2d4b437c5303", "lon": -77.02198, "fusion_lon": 0.0}, {"is_reserved": 0, "type": "electric_scooter", "fusion_lat": 0.0, "is_disabled": 0, "rental_uris": {"ios": "https://dc.lft.to/lastmile_qr_scan", "android": "https://dc.lft.to/lastmile_qr_scan"}, "bike_id": "4f87512dd25621acf9da33e2d3ff95b2", "lat": 38.921757166666666, "name": "4f87512dd25621acf9da33e2d3ff95b2", "lon": -77.021145, "fusion_lon": 0.0}, {"is_reserved": 0, "type": "electric_bike", "fusion_lat": 0.0, "is_disabled": 0, "rental_uris": {"ios": "https://dc.lft.to/lastmile_qr_scan", "android": "https://dc.lft.to/lastmile_qr_scan"}, "bike_id": "e4e750415ff2a0e11aef42cbc4aa18fe", "lat": 38.907318333333336, "name": "e4e750415ff2a0e11aef42cbc4aa18fe", "lon": -77.062828, "fusion_lon": 0.0}, {"is_reserved": 0, "type": "electric_scooter", "fusion_lat": 0.0, "is_disabled": 0, "rental_uris": {"ios": "https://dc.lft.to/lastmile_qr_scan", "android": "https://dc.lft.to/lastmile_qr_scan"}, "bike_id": "c72605ce9aa0584f30f8b825658bc502", "lat": 38.921054833333336, "name": "c72605ce9aa0584f30f8b825658bc502", "lon": -77.0304625, "fusion_lon": 0.0}, {"is_reserved": 0, "type": "electric_scooter", "fusion_lat": 0.0, "is_disabled": 0, "rental_uris": {"ios": "https://dc.lft.to/lastmile_qr_scan", "android": "https://dc.lft.to/lastmile_qr_scan"}, "bike_id": "98f38a418eb53addf0b9a09bc930ab03", "lat": 38.9078535, "name": "98f38a418eb53addf0b9a09bc930ab03", "lon": -77.06909233333333, "fusion_lon": 0.0}, {"is_reserved": 0, "type": "electric_scooter", "fusion_lat": 0.0, "is_disabled": 0, "rental_uris": {"ios": "https://dc.lft.to/lastmile_qr_scan", "android": "https://dc.lft.to/lastmile_qr_scan"}, "bike_id": "50a5ea2da234c0904e80aabbdbd972d4", "lat": 38.950661, "name": "50a5ea2da234c0904e80aabbdbd972d4", "lon": -77.0653665, "fusion_lon": 0.0}, {"is_reserved": 0, "type": "electric_scooter", "fusion_lat": 0.0, "is_disabled": 0, "rental_uris": {"ios": "https://dc.lft.to/lastmile_qr_scan", "android": "https://dc.lft.to/lastmile_qr_scan"}, "bike_id": "5df0fff762e241e269723815086d56e7", "lat": 38.909657, "name": "5df0fff762e241e269723815086d56e7", "lon": -77.02197033333333, "fusion_lon": 0.0}, {"is_reserved": 0, "type": "electric_scooter", "fusion_lat": 0.0, "is_disabled": 0, "rental_uris": {"ios": "https://dc.lft.to/lastmile_qr_scan", "android": "https://dc.lft.to/lastmile_qr_scan"}, "bike_id": "c88586f049f94c0f5e3db55cdb185c29", "lat": 38.9234285, "name": "c88586f049f94c0f5e3db55cdb185c29", "lon": -77.0339005, "fusion_lon": 0.0}, {"is_reserved": 0, "type": "electric_scooter", "fusion_lat": 0.0, "is_disabled": 0, "rental_uris": {"ios": "https://dc.lft.to/lastmile_qr_scan", "android": "https://dc.lft.to/lastmile_qr_scan"}, "bike_id": "057e45e3d5abb80ff621e0dec0ef5eca", "lat": 38.9231315, "name": "057e45e3d5abb80ff621e0dec0ef5eca", "lon": -77.01958266666666, "fusion_lon": 0.0}, {"is_reserved": 0, "type": "electric_scooter", "fusion_lat": 0.0, "is_disabled": 0, "rental_uris": {"ios": "https://dc.lft.to/lastmile_qr_scan", "android": "https://dc.lft.to/lastmile_qr_scan"}, "bike_id": "d7104572b67d51df449f21751aaccf0f", "lat": 38.916964, "name": "d7104572b67d51df449f21751aaccf0f", "lon": -77.03939216666667, "fusion_lon": 0.0}, {"is_reserved": 0, "type": "electric_scooter", "fusion_lat": 0.0, "is_disabled": 0, "rental_uris": {"ios": "https://dc.lft.to/lastmile_qr_scan", "android": "https://dc.lft.to/lastmile_qr_scan"}, "bike_id": "65ce7e4b240441e1f56525c995437715", "lat": 38.9232065, "name": "65ce7e4b240441e1f56525c995437715", "lon": -77.04513383333334, "fusion_lon": 0.0}, {"is_reserved": 0, "type": "electric_scooter", "fusion_lat": 0.0, "is_disabled": 0, "rental_uris": {"ios": "https://dc.lft.to/lastmile_qr_scan", "android": "https://dc.lft.to/lastmile_qr_scan"}, "bike_id": "cb21b56e9e3a4b22c944913cd19424c5", "lat": 38.86407766666667, "name": "cb21b56e9e3a4b22c944913cd19424c5", "lon": -77.01210216666666, "fusion_lon": 0.0}, {"is_reserved": 0, "type": "electric_bike", "fusion_lat": 0.0, "is_disabled": 0, "rental_uris": {"ios": "https://dc.lft.to/lastmile_qr_scan", "android": "https://dc.lft.to/lastmile_qr_scan"}, "bike_id": "43356d9b48480fdd32f8914c8381e0c2", "lat": 39.01067166666667, "name": "43356d9b48480fdd32f8914c8381e0c2", "lon": -76.92245516666667, "fusion_lon": 0.0}, {"is_reserved": 0, "type": "electric_scooter", "fusion_lat": 0.0, "is_disabled": 0, "rental_uris": {"ios": "https://dc.lft.to/lastmile_qr_scan", "android": "https://dc.lft.to/lastmile_qr_scan"}, "bike_id": "bfcb10e055a8d6c20e8944c92948716a", "lat": 38.901942, "name": "bfcb10e055a8d6c20e8944c92948716a", "lon": -76.99382216666666, "fusion_lon": 0.0}, {"is_reserved": 0, "type": "electric_scooter", "fusion_lat": 0.0, "is_disabled": 0, "rental_uris": {"ios": "https://dc.lft.to/lastmile_qr_scan", "android": "https://dc.lft.to/lastmile_qr_scan"}, "bike_id": "c1b54a011a51e7dbba4d2bb440f47b5e", "lat": 38.90173866666667, "name": "c1b54a011a51e7dbba4d2bb440f47b5e", "lon": -76.98831716666666, "fusion_lon": 0.0}, {"is_reserved": 0, "type": "electric_scooter", "fusion_lat": 0.0, "is_disabled": 0, "rental_uris": {"ios": "https://dc.lft.to/lastmile_qr_scan", "android": "https://dc.lft.to/lastmile_qr_scan"}, "bike_id": "9737ac811caf5c7d5c67e35a96049b64", "lat": 38.916870333333335, "name": "9737ac811caf5c7d5c67e35a96049b64", "lon": -77.0417445, "fusion_lon": 0.0}, {"is_reserved": 0, "type": "electric_scooter", "fusion_lat": 0.0, "is_disabled": 0, "rental_uris": {"ios": "https://dc.lft.to/lastmile_qr_scan", "android": "https://dc.lft.to/lastmile_qr_scan"}, "bike_id": "406c578fc144003cccd30fac5acbee32", "lat": 38.9223915, "name": "406c578fc144003cccd30fac5acbee32", "lon": -77.0366375, "fusion_lon": 0.0}, {"is_reserved": 0, "type": "electric_scooter", "fusion_lat": 0.0, "is_disabled": 0, "rental_uris": {"ios": "https://dc.lft.to/lastmile_qr_scan", "android": "https://dc.lft.to/lastmile_qr_scan"}, "bike_id": "dbfbe773499a34e0dd5e3327f0049c5f", "lat": 38.87839316666667, "name": "dbfbe773499a34e0dd5e3327f0049c5f", "lon": -76.93136216666667, "fusion_lon": 0.0}, {"is_reserved": 0, "type": "electric_scooter", "fusion_lat": 0.0, "is_disabled": 0, "rental_uris": {"ios": "https://dc.lft.to/lastmile_qr_scan", "android": "https://dc.lft.to/lastmile_qr_scan"}, "bike_id": "598f9a874ea9bbd7fe55b33aec34013f", "lat": 38.894771666666664, "name": "598f9a874ea9bbd7fe55b33aec34013f", "lon": -77.021792, "fusion_lon": 0.0}, {"is_reserved": 0, "type": "electric_scooter", "fusion_lat": 0.0, "is_disabled": 0, "rental_uris": {"ios": "https://dc.lft.to/lastmile_qr_scan", "android": "https://dc.lft.to/lastmile_qr_scan"}, "bike_id": "178b5319bf7da000cf123aff2d278611", "lat": 38.898468666666666, "name": "178b5319bf7da000cf123aff2d278611", "lon": -77.00747616666666, "fusion_lon": 0.0}, {"is_reserved": 0, "type": "electric_scooter", "fusion_lat": 0.0, "is_disabled": 0, "rental_uris": {"ios": "https://dc.lft.to/lastmile_qr_scan", "android": "https://dc.lft.to/lastmile_qr_scan"}, "bike_id": "cf7c6f76f5b24e7cdb23e3a0ef067ff6", "lat": 38.8810185, "name": "cf7c6f76f5b24e7cdb23e3a0ef067ff6", "lon": -77.01238683333334, "fusion_lon": 0.0}, {"is_reserved": 0, "type": "electric_scooter", "fusion_lat": 0.0, "is_disabled": 0, "rental_uris": {"ios": "https://dc.lft.to/lastmile_qr_scan", "android": "https://dc.lft.to/lastmile_qr_scan"}, "bike_id": "3384ef77dd2b9a8ae39723b4c2f92a46", "lat": 38.89817266666667, "name": "3384ef77dd2b9a8ae39723b4c2f92a46", "lon": -77.03349166666666, "fusion_lon": 0.0}, {"is_reserved": 0, "type": "electric_bike", "fusion_lat": 0.0, "is_disabled": 0, "rental_uris": {"ios": "https://dc.lft.to/lastmile_qr_scan", "android": "https://dc.lft.to/lastmile_qr_scan"}, "bike_id": "de5ca7c3594246680ad4e6cd385c6ce3", "lat": 38.8661905, "name": "de5ca7c3594246680ad4e6cd385c6ce3", "lon": -76.981671, "fusion_lon": 0.0}, {"is_reserved": 0, "type": "electric_scooter", "fusion_lat": 0.0, "is_disabled": 0, "rental_uris": {"ios": "https://dc.lft.to/lastmile_qr_scan", "android": "https://dc.lft.to/lastmile_qr_scan"}, "bike_id": "79f8015ba7e993d9534d8af6fcad2118", "lat": 38.878409166666664, "name": "79f8015ba7e993d9534d8af6fcad2118", "lon": -77.00861983333333, "fusion_lon": 0.0}, {"is_reserved": 0, "type": "electric_scooter", "fusion_lat": 0.0, "is_disabled": 0, "rental_uris": {"ios": "https://dc.lft.to/lastmile_qr_scan", "android": "https://dc.lft.to/lastmile_qr_scan"}, "bike_id": "92f1805bb00db9826fa97c05eed8651b", "lat": 38.907801, "name": "92f1805bb00db9826fa97c05eed8651b", "lon": -77.044944, "fusion_lon": 0.0}, {"is_reserved": 0, "type": "electric_bike", "fusion_lat": 0.0, "is_disabled": 0, "rental_uris": {"ios": "https://dc.lft.to/lastmile_qr_scan", "android": "https://dc.lft.to/lastmile_qr_scan"}, "bike_id": "1f23c5285e1d3f6081e3e1a06ab55bc9", "lat": 39.00531633333333, "name": "1f23c5285e1d3f6081e3e1a06ab55bc9", "lon": -77.10402666666667, "fusion_lon": 0.0}, {"is_reserved": 0, "type": "electric_scooter", "fusion_lat": 0.0, "is_disabled": 0, "rental_uris": {"ios": "https://dc.lft.to/lastmile_qr_scan", "android": "https://dc.lft.to/lastmile_qr_scan"}, "bike_id": "e76bccb288c332c07c869f83bda33a42", "lat": 38.90913033333333, "name": "e76bccb288c332c07c869f83bda33a42", "lon": -76.98397983333334, "fusion_lon": 0.0}, {"is_reserved": 0, "type": "electric_scooter", "fusion_lat": 0.0, "is_disabled": 0, "rental_uris": {"ios": "https://dc.lft.to/lastmile_qr_scan", "android": "https://dc.lft.to/lastmile_qr_scan"}, "bike_id": "de290d500047ffb87bcbf00dcec791c9", "lat": 38.89255383333333, "name": "de290d500047ffb87bcbf00dcec791c9", "lon": -77.02614383333334, "fusion_lon": 0.0}, {"is_reserved": 0, "type": "electric_scooter", "fusion_lat": 0.0, "is_disabled": 0, "rental_uris": {"ios": "https://dc.lft.to/lastmile_qr_scan", "android": "https://dc.lft.to/lastmile_qr_scan"}, "bike_id": "ffaa4239ccd640ac83fd95dae322c49f", "lat": 38.92972183333333, "name": "ffaa4239ccd640ac83fd95dae322c49f", "lon": -77.02337816666666, "fusion_lon": 0.0}, {"is_reserved": 0, "type": "electric_bike", "fusion_lat": 0.0, "is_disabled": 0, "rental_uris": {"ios": "https://dc.lft.to/lastmile_qr_scan", "android": "https://dc.lft.to/lastmile_qr_scan"}, "bike_id": "453aabb663237bc05b614bb9448a343b", "lat": 38.911762333333336, "name": "453aabb663237bc05b614bb9448a343b", "lon": -77.00270866666666, "fusion_lon": 0.0}, {"is_reserved": 0, "type": "electric_scooter", "fusion_lat": 0.0, "is_disabled": 0, "rental_uris": {"ios": "https://dc.lft.to/lastmile_qr_scan", "android": "https://dc.lft.to/lastmile_qr_scan"}, "bike_id": "ea04d845de73e729bd42b2dd4b7eddd0", "lat": 38.885073, "name": "ea04d845de73e729bd42b2dd4b7eddd0", "lon": -76.9960175, "fusion_lon": 0.0}, {"is_reserved": 0, "type": "electric_bike", "fusion_lat": 0.0, "is_disabled": 0, "rental_uris": {"ios": "https://dc.lft.to/lastmile_qr_scan", "android": "https://dc.lft.to/lastmile_qr_scan"}, "bike_id": "f423f395976ca4afcbd5e6b1795e5419", "lat": 38.877404166666665, "name": "f423f395976ca4afcbd5e6b1795e5419", "lon": -77.14872516666667, "fusion_lon": 0.0}, {"is_reserved": 0, "type": "electric_scooter", "fusion_lat": 0.0, "is_disabled": 0, "rental_uris": {"ios": "https://dc.lft.to/lastmile_qr_scan", "android": "https://dc.lft.to/lastmile_qr_scan"}, "bike_id": "2bad8394e5895edba38f4aedf6da0f25", "lat": 38.919279, "name": "2bad8394e5895edba38f4aedf6da0f25", "lon": -77.04637483333333, "fusion_lon": 0.0}, {"is_reserved": 0, "type": "electric_scooter", "fusion_lat": 0.0, "is_disabled": 0, "rental_uris": {"ios": "https://dc.lft.to/lastmile_qr_scan", "android": "https://dc.lft.to/lastmile_qr_scan"}, "bike_id": "e586755b91d1ae5b8d891cb2dc4f6608", "lat": 38.91637516666667, "name": "e586755b91d1ae5b8d891cb2dc4f6608", "lon": -77.0223885, "fusion_lon": 0.0}, {"is_reserved": 0, "type": "electric_scooter", "fusion_lat": 0.0, "is_disabled": 0, "rental_uris": {"ios": "https://dc.lft.to/lastmile_qr_scan", "android": "https://dc.lft.to/lastmile_qr_scan"}, "bike_id": "b74f5f258411b6425cbf215844489668", "lat": 38.88023833333333, "name": "b74f5f258411b6425cbf215844489668", "lon": -76.99500866666666, "fusion_lon": 0.0}, {"is_reserved": 0, "type": "electric_scooter", "fusion_lat": 0.0, "is_disabled": 0, "rental_uris": {"ios": "https://dc.lft.to/lastmile_qr_scan", "android": "https://dc.lft.to/lastmile_qr_scan"}, "bike_id": "25e94dbe562be7c2f073ab91c293efd9", "lat": 38.89224466666667, "name": "25e94dbe562be7c2f073ab91c293efd9", "lon": -77.05004, "fusion_lon": 0.0}, {"is_reserved": 0, "type": "electric_scooter", "fusion_lat": 0.0, "is_disabled": 0, "rental_uris": {"ios": "https://dc.lft.to/lastmile_qr_scan", "android": "https://dc.lft.to/lastmile_qr_scan"}, "bike_id": "415ff9a89c044ba2ec58705ab4caeba0", "lat": 38.879408833333336, "name": "415ff9a89c044ba2ec58705ab4caeba0", "lon": -77.0100505, "fusion_lon": 0.0}, {"is_reserved": 0, "type": "electric_scooter", "fusion_lat": 0.0, "is_disabled": 0, "rental_uris": {"ios": "https://dc.lft.to/lastmile_qr_scan", "android": "https://dc.lft.to/lastmile_qr_scan"}, "bike_id": "a006c05e38b52da04ab73e2c4f8d94f7", "lat": 38.894807, "name": "a006c05e38b52da04ab73e2c4f8d94f7", "lon": -77.0217895, "fusion_lon": 0.0}, {"is_reserved": 0, "type": "electric_scooter", "fusion_lat": 0.0, "is_disabled": 0, "rental_uris": {"ios": "https://dc.lft.to/lastmile_qr_scan", "android": "https://dc.lft.to/lastmile_qr_scan"}, "bike_id": "5c6687415c720edf8f93e5c6152575e2", "lat": 38.91659583333333, "name": "5c6687415c720edf8f93e5c6152575e2", "lon": -77.0370515, "fusion_lon": 0.0}, {"is_reserved": 0, "type": "electric_scooter", "fusion_lat": 0.0, "is_disabled": 0, "rental_uris": {"ios": "https://dc.lft.to/lastmile_qr_scan", "android": "https://dc.lft.to/lastmile_qr_scan"}, "bike_id": "2bd104090aa649640b54cc9b1d29e0b8", "lat": 38.9304575, "name": "2bd104090aa649640b54cc9b1d29e0b8", "lon": -77.03222566666666, "fusion_lon": 0.0}, {"is_reserved": 0, "type": "electric_scooter", "fusion_lat": 0.0, "is_disabled": 0, "rental_uris": {"ios": "https://dc.lft.to/lastmile_qr_scan", "android": "https://dc.lft.to/lastmile_qr_scan"}, "bike_id": "8a02d46a6a8c4bc2252eb2b810403aef", "lat": 38.9046305, "name": "8a02d46a6a8c4bc2252eb2b810403aef", "lon": -77.01723283333334, "fusion_lon": 0.0}, {"is_reserved": 0, "type": "electric_scooter", "fusion_lat": 0.0, "is_disabled": 0, "rental_uris": {"ios": "https://dc.lft.to/lastmile_qr_scan", "android": "https://dc.lft.to/lastmile_qr_scan"}, "bike_id": "0aa1d8330278945f7171efd7fc1b8893", "lat": 38.93001783333333, "name": "0aa1d8330278945f7171efd7fc1b8893", "lon": -77.03784916666666, "fusion_lon": 0.0}, {"is_reserved": 0, "type": "electric_scooter", "fusion_lat": 0.0, "is_disabled": 0, "rental_uris": {"ios": "https://dc.lft.to/lastmile_qr_scan", "android": "https://dc.lft.to/lastmile_qr_scan"}, "bike_id": "62d5a41496b003f000f8258bcd399b59", "lat": 38.91036583333333, "name": "62d5a41496b003f000f8258bcd399b59", "lon": -77.043384, "fusion_lon": 0.0}, {"is_reserved": 0, "type": "electric_scooter", "fusion_lat": 0.0, "is_disabled": 0, "rental_uris": {"ios": "https://dc.lft.to/lastmile_qr_scan", "android": "https://dc.lft.to/lastmile_qr_scan"}, "bike_id": "19219c20759447b4fde701473ece4627", "lat": 38.93657, "name": "19219c20759447b4fde701473ece4627", "lon": -77.06609616666667, "fusion_lon": 0.0}, {"is_reserved": 0, "type": "electric_scooter", "fusion_lat": 0.0, "is_disabled": 0, "rental_uris": {"ios": "https://dc.lft.to/lastmile_qr_scan", "android": "https://dc.lft.to/lastmile_qr_scan"}, "bike_id": "71e7c462f1db40c67a7f32ea99dc1673", "lat": 38.925488333333334, "name": "71e7c462f1db40c67a7f32ea99dc1673", "lon": -77.003237, "fusion_lon": 0.0}, {"is_reserved": 0, "type": "electric_scooter", "fusion_lat": 0.0, "is_disabled": 0, "rental_uris": {"ios": "https://dc.lft.to/lastmile_qr_scan", "android": "https://dc.lft.to/lastmile_qr_scan"}, "bike_id": "8d8a7d97b417a4373fd765a3df00aa3c", "lat": 38.90253766666667, "name": "8d8a7d97b417a4373fd765a3df00aa3c", "lon": -77.03450666666667, "fusion_lon": 0.0}, {"is_reserved": 0, "type": "electric_scooter", "fusion_lat": 0.0, "is_disabled": 0, "rental_uris": {"ios": "https://dc.lft.to/lastmile_qr_scan", "android": "https://dc.lft.to/lastmile_qr_scan"}, "bike_id": "a1685539d7dc2fdd2351b58f8ebcb31e", "lat": 38.88261416666667, "name": "a1685539d7dc2fdd2351b58f8ebcb31e", "lon": -76.99012816666666, "fusion_lon": 0.0}, {"is_reserved": 0, "type": "electric_scooter", "fusion_lat": 0.0, "is_disabled": 0, "rental_uris": {"ios": "https://dc.lft.to/lastmile_qr_scan", "android": "https://dc.lft.to/lastmile_qr_scan"}, "bike_id": "cbcf1a832c336bb0fc066a0352719f62", "lat": 38.925432, "name": "cbcf1a832c336bb0fc066a0352719f62", "lon": -77.032669, "fusion_lon": 0.0}, {"is_reserved": 0, "type": "electric_scooter", "fusion_lat": 0.0, "is_disabled": 0, "rental_uris": {"ios": "https://dc.lft.to/lastmile_qr_scan", "android": "https://dc.lft.to/lastmile_qr_scan"}, "bike_id": "fe7e3f7e9e9e39f0a45bd6fbcaacd01a", "lat": 38.919203333333336, "name": "fe7e3f7e9e9e39f0a45bd6fbcaacd01a", "lon": -77.031074, "fusion_lon": 0.0}, {"is_reserved": 0, "type": "electric_scooter", "fusion_lat": 0.0, "is_disabled": 0, "rental_uris": {"ios": "https://dc.lft.to/lastmile_qr_scan", "android": "https://dc.lft.to/lastmile_qr_scan"}, "bike_id": "10dcece8003405b666b53f46ff36f3ac", "lat": 38.90232433333333, "name": "10dcece8003405b666b53f46ff36f3ac", "lon": -76.9936815, "fusion_lon": 0.0}, {"is_reserved": 0, "type": "electric_scooter", "fusion_lat": 0.0, "is_disabled": 0, "rental_uris": {"ios": "https://dc.lft.to/lastmile_qr_scan", "android": "https://dc.lft.to/lastmile_qr_scan"}, "bike_id": "550e43f7f4ee34105bec8b7f2ea7a5e7", "lat": 38.90829333333333, "name": "550e43f7f4ee34105bec8b7f2ea7a5e7", "lon": -77.043568, "fusion_lon": 0.0}, {"is_reserved": 0, "type": "electric_scooter", "fusion_lat": 0.0, "is_disabled": 0, "rental_uris": {"ios": "https://dc.lft.to/lastmile_qr_scan", "android": "https://dc.lft.to/lastmile_qr_scan"}, "bike_id": "19ad25027696e3f9825bab984ae1e48c", "lat": 38.932604166666664, "name": "19ad25027696e3f9825bab984ae1e48c", "lon": -77.03283083333334, "fusion_lon": 0.0}, {"is_reserved": 0, "type": "electric_scooter", "fusion_lat": 0.0, "is_disabled": 0, "rental_uris": {"ios": "https://dc.lft.to/lastmile_qr_scan", "android": "https://dc.lft.to/lastmile_qr_scan"}, "bike_id": "d6048dd757d6942d8c131fefb4488974", "lat": 38.918612333333336, "name": "d6048dd757d6942d8c131fefb4488974", "lon": -76.96555416666666, "fusion_lon": 0.0}, {"is_reserved": 0, "type": "electric_scooter", "fusion_lat": 0.0, "is_disabled": 0, "rental_uris": {"ios": "https://dc.lft.to/lastmile_qr_scan", "android": "https://dc.lft.to/lastmile_qr_scan"}, "bike_id": "8cf18b0e351b8ccd7379b3570daf2586", "lat": 38.885751166666665, "name": "8cf18b0e351b8ccd7379b3570daf2586", "lon": -77.01211233333333, "fusion_lon": 0.0}, {"is_reserved": 0, "type": "electric_scooter", "fusion_lat": 0.0, "is_disabled": 0, "rental_uris": {"ios": "https://dc.lft.to/lastmile_qr_scan", "android": "https://dc.lft.to/lastmile_qr_scan"}, "bike_id": "e7f29a7c403da2574a21ab619b47114f", "lat": 38.90875483333333, "name": "e7f29a7c403da2574a21ab619b47114f", "lon": -77.00061616666666, "fusion_lon": 0.0}, {"is_reserved": 0, "type": "electric_scooter", "fusion_lat": 0.0, "is_disabled": 0, "rental_uris": {"ios": "https://dc.lft.to/lastmile_qr_scan", "android": "https://dc.lft.to/lastmile_qr_scan"}, "bike_id": "fdcd3f00f78e451bf5bee26d0c8ea338", "lat": 38.909482833333335, "name": "fdcd3f00f78e451bf5bee26d0c8ea338", "lon": -76.99584516666667, "fusion_lon": 0.0}, {"is_reserved": 0, "type": "electric_scooter", "fusion_lat": 0.0, "is_disabled": 0, "rental_uris": {"ios": "https://dc.lft.to/lastmile_qr_scan", "android": "https://dc.lft.to/lastmile_qr_scan"}, "bike_id": "e8917af073e581817e7f7803f8167405", "lat": 38.9043665, "name": "e8917af073e581817e7f7803f8167405", "lon": -76.99733116666667, "fusion_lon": 0.0}, {"is_reserved": 0, "type": "electric_scooter", "fusion_lat": 0.0, "is_disabled": 0, "rental_uris": {"ios": "https://dc.lft.to/lastmile_qr_scan", "android": "https://dc.lft.to/lastmile_qr_scan"}, "bike_id": "bc380d27dbe2b1717e558c56e2092988", "lat": 38.91690533333333, "name": "bc380d27dbe2b1717e558c56e2092988", "lon": -77.02599666666667, "fusion_lon": 0.0}, {"is_reserved": 0, "type": "electric_bike", "fusion_lat": 0.0, "is_disabled": 0, "rental_uris": {"ios": "https://dc.lft.to/lastmile_qr_scan", "android": "https://dc.lft.to/lastmile_qr_scan"}, "bike_id": "6a9edac4fd403d553b3a45c8d2b41ff3", "lat": 38.91288333333333, "name": "6a9edac4fd403d553b3a45c8d2b41ff3", "lon": -77.04484566666666, "fusion_lon": 0.0}, {"is_reserved": 0, "type": "electric_scooter", "fusion_lat": 0.0, "is_disabled": 0, "rental_uris": {"ios": "https://dc.lft.to/lastmile_qr_scan", "android": "https://dc.lft.to/lastmile_qr_scan"}, "bike_id": "53002f79305a4f417d3634c2253d007f", "lat": 38.86079766666667, "name": "53002f79305a4f417d3634c2253d007f", "lon": -76.98375983333334, "fusion_lon": 0.0}, {"is_reserved": 0, "type": "electric_scooter", "fusion_lat": 0.0, "is_disabled": 0, "rental_uris": {"ios": "https://dc.lft.to/lastmile_qr_scan", "android": "https://dc.lft.to/lastmile_qr_scan"}, "bike_id": "137916bf440c46d0edfb143d9fbf1749", "lat": 38.916926, "name": "137916bf440c46d0edfb143d9fbf1749", "lon": -77.04108833333333, "fusion_lon": 0.0}, {"is_reserved": 0, "type": "electric_scooter", "fusion_lat": 0.0, "is_disabled": 0, "rental_uris": {"ios": "https://dc.lft.to/lastmile_qr_scan", "android": "https://dc.lft.to/lastmile_qr_scan"}, "bike_id": "b858ec5b9c74dc8a557b8d3a0ef3bb93", "lat": 38.91404383333333, "name": "b858ec5b9c74dc8a557b8d3a0ef3bb93", "lon": -77.02422816666666, "fusion_lon": 0.0}, {"is_reserved": 0, "type": "electric_bike", "fusion_lat": 0.0, "is_disabled": 0, "rental_uris": {"ios": "https://dc.lft.to/lastmile_qr_scan", "android": "https://dc.lft.to/lastmile_qr_scan"}, "bike_id": "334a8c376c5acb1891817b1f22f9a571", "lat": 38.85057, "name": "334a8c376c5acb1891817b1f22f9a571", "lon": -76.9582815, "fusion_lon": 0.0}, {"is_reserved": 0, "type": "electric_scooter", "fusion_lat": 0.0, "is_disabled": 0, "rental_uris": {"ios": "https://dc.lft.to/lastmile_qr_scan", "android": "https://dc.lft.to/lastmile_qr_scan"}, "bike_id": "1e0dcd0ff017bfcfca54ff94e7425ba9", "lat": 38.91545083333333, "name": "1e0dcd0ff017bfcfca54ff94e7425ba9", "lon": -77.0318325, "fusion_lon": 0.0}, {"is_reserved": 0, "type": "electric_scooter", "fusion_lat": 0.0, "is_disabled": 0, "rental_uris": {"ios": "https://dc.lft.to/lastmile_qr_scan", "android": "https://dc.lft.to/lastmile_qr_scan"}, "bike_id": "44703cc0f7a88e4e1e569b0c56fc33af", "lat": 38.9232725, "name": "44703cc0f7a88e4e1e569b0c56fc33af", "lon": -77.04301683333334, "fusion_lon": 0.0}, {"is_reserved": 0, "type": "electric_scooter", "fusion_lat": 0.0, "is_disabled": 0, "rental_uris": {"ios": "https://dc.lft.to/lastmile_qr_scan", "android": "https://dc.lft.to/lastmile_qr_scan"}, "bike_id": "132d1bfa8d5228a6ce061ab9ebec9ede", "lat": 38.88300666666667, "name": "132d1bfa8d5228a6ce061ab9ebec9ede", "lon": -76.993696, "fusion_lon": 0.0}, {"is_reserved": 0, "type": "electric_scooter", "fusion_lat": 0.0, "is_disabled": 0, "rental_uris": {"ios": "https://dc.lft.to/lastmile_qr_scan", "android": "https://dc.lft.to/lastmile_qr_scan"}, "bike_id": "c717ae502167b16dc754a5c18795e5ee", "lat": 38.93843066666667, "name": "c717ae502167b16dc754a5c18795e5ee", "lon": -77.01951216666667, "fusion_lon": 0.0}, {"is_reserved": 0, "type": "electric_scooter", "fusion_lat": 0.0, "is_disabled": 0, "rental_uris": {"ios": "https://dc.lft.to/lastmile_qr_scan", "android": "https://dc.lft.to/lastmile_qr_scan"}, "bike_id": "c1b42a1b5d0f91bca9e61cac2d7dbbc6", "lat": 38.905105, "name": "c1b42a1b5d0f91bca9e61cac2d7dbbc6", "lon": -76.951908, "fusion_lon": 0.0}, {"is_reserved": 0, "type": "electric_scooter", "fusion_lat": 0.0, "is_disabled": 0, "rental_uris": {"ios": "https://dc.lft.to/lastmile_qr_scan", "android": "https://dc.lft.to/lastmile_qr_scan"}, "bike_id": "e0858255f695efd4a73df46df054540e", "lat": 38.924791, "name": "e0858255f695efd4a73df46df054540e", "lon": -77.02716133333334, "fusion_lon": 0.0}, {"is_reserved": 0, "type": "electric_scooter", "fusion_lat": 0.0, "is_disabled": 0, "rental_uris": {"ios": "https://dc.lft.to/lastmile_qr_scan", "android": "https://dc.lft.to/lastmile_qr_scan"}, "bike_id": "c77ec5f2f5835b0aade5f81145a6337d", "lat": 38.89668966666667, "name": "c77ec5f2f5835b0aade5f81145a6337d", "lon": -76.93213, "fusion_lon": 0.0}, {"is_reserved": 0, "type": "electric_scooter", "fusion_lat": 0.0, "is_disabled": 0, "rental_uris": {"ios": "https://dc.lft.to/lastmile_qr_scan", "android": "https://dc.lft.to/lastmile_qr_scan"}, "bike_id": "7c9af193d97872acc20d998523eeba0e", "lat": 38.88078333333333, "name": "7c9af193d97872acc20d998523eeba0e", "lon": -76.985133, "fusion_lon": 0.0}, {"is_reserved": 0, "type": "electric_scooter", "fusion_lat": 0.0, "is_disabled": 0, "rental_uris": {"ios": "https://dc.lft.to/lastmile_qr_scan", "android": "https://dc.lft.to/lastmile_qr_scan"}, "bike_id": "1d81ed716c99dbc410e4326045e9846b", "lat": 38.88541466666667, "name": "1d81ed716c99dbc410e4326045e9846b", "lon": -76.95972833333333, "fusion_lon": 0.0}, {"is_reserved": 0, "type": "electric_bike", "fusion_lat": 0.0, "is_disabled": 0, "rental_uris": {"ios": "https://dc.lft.to/lastmile_qr_scan", "android": "https://dc.lft.to/lastmile_qr_scan"}, "bike_id": "4598a9241763686321f1a4b6d6809af8", "lat": 38.860102499999996, "name": "4598a9241763686321f1a4b6d6809af8", "lon": -77.065298, "fusion_lon": 0.0}, {"is_reserved": 0, "type": "electric_scooter", "fusion_lat": 0.0, "is_disabled": 0, "rental_uris": {"ios": "https://dc.lft.to/lastmile_qr_scan", "android": "https://dc.lft.to/lastmile_qr_scan"}, "bike_id": "d38cb9cdfb65d7605f5ea7a732e6e40e", "lat": 38.892355333333334, "name": "d38cb9cdfb65d7605f5ea7a732e6e40e", "lon": -77.02832133333334, "fusion_lon": 0.0}, {"is_reserved": 0, "type": "electric_scooter", "fusion_lat": 0.0, "is_disabled": 0, "rental_uris": {"ios": "https://dc.lft.to/lastmile_qr_scan", "android": "https://dc.lft.to/lastmile_qr_scan"}, "bike_id": "1910336e2c310c9bfc9f940c8a9abfce", "lat": 38.9226125, "name": "1910336e2c310c9bfc9f940c8a9abfce", "lon": -77.03665033333333, "fusion_lon": 0.0}, {"is_reserved": 0, "type": "electric_scooter", "fusion_lat": 0.0, "is_disabled": 0, "rental_uris": {"ios": "https://dc.lft.to/lastmile_qr_scan", "android": "https://dc.lft.to/lastmile_qr_scan"}, "bike_id": "266da32a9fc1afa1bc26436d7f345e41", "lat": 38.898936, "name": "266da32a9fc1afa1bc26436d7f345e41", "lon": -77.05012133333334, "fusion_lon": 0.0}, {"is_reserved": 0, "type": "electric_scooter", "fusion_lat": 0.0, "is_disabled": 0, "rental_uris": {"ios": "https://dc.lft.to/lastmile_qr_scan", "android": "https://dc.lft.to/lastmile_qr_scan"}, "bike_id": "dc379e8fe82443261a782b5a7213b21b", "lat": 38.93864633333333, "name": "dc379e8fe82443261a782b5a7213b21b", "lon": -77.07237333333333, "fusion_lon": 0.0}, {"is_reserved": 0, "type": "electric_scooter", "fusion_lat": 0.0, "is_disabled": 0, "rental_uris": {"ios": "https://dc.lft.to/lastmile_qr_scan", "android": "https://dc.lft.to/lastmile_qr_scan"}, "bike_id": "aaaf51ff88584636011821276ccc8a10", "lat": 38.920181, "name": "aaaf51ff88584636011821276ccc8a10", "lon": -77.01705933333334, "fusion_lon": 0.0}, {"is_reserved": 0, "type": "electric_scooter", "fusion_lat": 0.0, "is_disabled": 0, "rental_uris": {"ios": "https://dc.lft.to/lastmile_qr_scan", "android": "https://dc.lft.to/lastmile_qr_scan"}, "bike_id": "b459a34b228b17feaa0928283790ebe7", "lat": 38.902111, "name": "b459a34b228b17feaa0928283790ebe7", "lon": -77.06122416666666, "fusion_lon": 0.0}, {"is_reserved": 0, "type": "electric_scooter", "fusion_lat": 0.0, "is_disabled": 0, "rental_uris": {"ios": "https://dc.lft.to/lastmile_qr_scan", "android": "https://dc.lft.to/lastmile_qr_scan"}, "bike_id": "4509229db311e69c79a51aad1102ef61", "lat": 38.91706683333334, "name": "4509229db311e69c79a51aad1102ef61", "lon": -77.04172866666667, "fusion_lon": 0.0}, {"is_reserved": 0, "type": "electric_scooter", "fusion_lat": 0.0, "is_disabled": 0, "rental_uris": {"ios": "https://dc.lft.to/lastmile_qr_scan", "android": "https://dc.lft.to/lastmile_qr_scan"}, "bike_id": "5c652fed0fd2136a036bc3f4b06ab0e5", "lat": 38.93929816666667, "name": "5c652fed0fd2136a036bc3f4b06ab0e5", "lon": -77.07248633333333, "fusion_lon": 0.0}, {"is_reserved": 0, "type": "electric_scooter", "fusion_lat": 0.0, "is_disabled": 0, "rental_uris": {"ios": "https://dc.lft.to/lastmile_qr_scan", "android": "https://dc.lft.to/lastmile_qr_scan"}, "bike_id": "7c136144d97b8f82693d8c344e3b92dd", "lat": 38.92268266666667, "name": "7c136144d97b8f82693d8c344e3b92dd", "lon": -77.0423515, "fusion_lon": 0.0}, {"is_reserved": 0, "type": "electric_scooter", "fusion_lat": 0.0, "is_disabled": 0, "rental_uris": {"ios": "https://dc.lft.to/lastmile_qr_scan", "android": "https://dc.lft.to/lastmile_qr_scan"}, "bike_id": "d67341a72ca6aff0aab1f9adc19211f4", "lat": 38.89728133333333, "name": "d67341a72ca6aff0aab1f9adc19211f4", "lon": -77.0499035, "fusion_lon": 0.0}, {"is_reserved": 0, "type": "electric_scooter", "fusion_lat": 0.0, "is_disabled": 0, "rental_uris": {"ios": "https://dc.lft.to/lastmile_qr_scan", "android": "https://dc.lft.to/lastmile_qr_scan"}, "bike_id": "568ef4a904d0b62832ed4d93b4d0587f", "lat": 38.91705416666667, "name": "568ef4a904d0b62832ed4d93b4d0587f", "lon": -77.02478783333333, "fusion_lon": 0.0}, {"is_reserved": 0, "type": "electric_bike", "fusion_lat": 0.0, "is_disabled": 0, "rental_uris": {"ios": "https://dc.lft.to/lastmile_qr_scan", "android": "https://dc.lft.to/lastmile_qr_scan"}, "bike_id": "8ec4699a629c8bb1742a5421c7fffe91", "lat": 38.83269816666667, "name": "8ec4699a629c8bb1742a5421c7fffe91", "lon": -77.083696, "fusion_lon": 0.0}, {"is_reserved": 0, "type": "electric_scooter", "fusion_lat": 0.0, "is_disabled": 0, "rental_uris": {"ios": "https://dc.lft.to/lastmile_qr_scan", "android": "https://dc.lft.to/lastmile_qr_scan"}, "bike_id": "4aa77885e7ea921bbf09a82be5731972", "lat": 38.9204375, "name": "4aa77885e7ea921bbf09a82be5731972", "lon": -77.01671683333333, "fusion_lon": 0.0}, {"is_reserved": 0, "type": "electric_scooter", "fusion_lat": 0.0, "is_disabled": 0, "rental_uris": {"ios": "https://dc.lft.to/lastmile_qr_scan", "android": "https://dc.lft.to/lastmile_qr_scan"}, "bike_id": "4c5912ddb21ebf7a5f13d5bbf219f443", "lat": 38.956318333333336, "name": "4c5912ddb21ebf7a5f13d5bbf219f443", "lon": -77.02210283333334, "fusion_lon": 0.0}, {"is_reserved": 0, "type": "electric_scooter", "fusion_lat": 0.0, "is_disabled": 0, "rental_uris": {"ios": "https://dc.lft.to/lastmile_qr_scan", "android": "https://dc.lft.to/lastmile_qr_scan"}, "bike_id": "eb77f0f6c0b0dcf1a0289010e6f9e41a", "lat": 38.894973, "name": "eb77f0f6c0b0dcf1a0289010e6f9e41a", "lon": -77.023, "fusion_lon": 0.0}, {"is_reserved": 0, "type": "electric_scooter", "fusion_lat": 0.0, "is_disabled": 0, "rental_uris": {"ios": "https://dc.lft.to/lastmile_qr_scan", "android": "https://dc.lft.to/lastmile_qr_scan"}, "bike_id": "92e89b08da9df18a6eed20f9178d1583", "lat": 38.91120466666667, "name": "92e89b08da9df18a6eed20f9178d1583", "lon": -77.04366116666667, "fusion_lon": 0.0}, {"is_reserved": 0, "type": "electric_scooter", "fusion_lat": 0.0, "is_disabled": 0, "rental_uris": {"ios": "https://dc.lft.to/lastmile_qr_scan", "android": "https://dc.lft.to/lastmile_qr_scan"}, "bike_id": "b7f3f67aec611595ef57ec59eb8fb769", "lat": 38.92044766666667, "name": "b7f3f67aec611595ef57ec59eb8fb769", "lon": -77.02609433333333, "fusion_lon": 0.0}, {"is_reserved": 0, "type": "electric_scooter", "fusion_lat": 0.0, "is_disabled": 0, "rental_uris": {"ios": "https://dc.lft.to/lastmile_qr_scan", "android": "https://dc.lft.to/lastmile_qr_scan"}, "bike_id": "b94cffb628ab758ec74249494b080635", "lat": 38.92986483333333, "name": "b94cffb628ab758ec74249494b080635", "lon": -77.03474166666666, "fusion_lon": 0.0}, {"is_reserved": 0, "type": "electric_scooter", "fusion_lat": 0.0, "is_disabled": 0, "rental_uris": {"ios": "https://dc.lft.to/lastmile_qr_scan", "android": "https://dc.lft.to/lastmile_qr_scan"}, "bike_id": "8cfa21cb68b300c60b443eb6c8201aa9", "lat": 38.92217866666667, "name": "8cfa21cb68b300c60b443eb6c8201aa9", "lon": -77.0433865, "fusion_lon": 0.0}, {"is_reserved": 0, "type": "electric_scooter", "fusion_lat": 0.0, "is_disabled": 0, "rental_uris": {"ios": "https://dc.lft.to/lastmile_qr_scan", "android": "https://dc.lft.to/lastmile_qr_scan"}, "bike_id": "257463abbdb5fb9ee4eb4b43be3d9c2b", "lat": 38.8756935, "name": "257463abbdb5fb9ee4eb4b43be3d9c2b", "lon": -77.00596283333333, "fusion_lon": 0.0}, {"is_reserved": 0, "type": "electric_scooter", "fusion_lat": 0.0, "is_disabled": 0, "rental_uris": {"ios": "https://dc.lft.to/lastmile_qr_scan", "android": "https://dc.lft.to/lastmile_qr_scan"}, "bike_id": "2f8fdc237b609e1c202e13218e45b93c", "lat": 38.910459833333334, "name": "2f8fdc237b609e1c202e13218e45b93c", "lon": -77.02683583333334, "fusion_lon": 0.0}, {"is_reserved": 0, "type": "electric_scooter", "fusion_lat": 0.0, "is_disabled": 0, "rental_uris": {"ios": "https://dc.lft.to/lastmile_qr_scan", "android": "https://dc.lft.to/lastmile_qr_scan"}, "bike_id": "f791cbc26d27135cc0d4ef902c7ba05a", "lat": 38.8995155, "name": "f791cbc26d27135cc0d4ef902c7ba05a", "lon": -77.04762033333333, "fusion_lon": 0.0}, {"is_reserved": 0, "type": "electric_scooter", "fusion_lat": 0.0, "is_disabled": 0, "rental_uris": {"ios": "https://dc.lft.to/lastmile_qr_scan", "android": "https://dc.lft.to/lastmile_qr_scan"}, "bike_id": "1c8245df616d4b6503e7705799fb939f", "lat": 38.881054666666664, "name": "1c8245df616d4b6503e7705799fb939f", "lon": -76.98773283333334, "fusion_lon": 0.0}, {"is_reserved": 0, "type": "electric_scooter", "fusion_lat": 0.0, "is_disabled": 0, "rental_uris": {"ios": "https://dc.lft.to/lastmile_qr_scan", "android": "https://dc.lft.to/lastmile_qr_scan"}, "bike_id": "fc5e153fd8ccbdba3af7c1c68054b627", "lat": 38.91087016666667, "name": "fc5e153fd8ccbdba3af7c1c68054b627", "lon": -77.02184033333333, "fusion_lon": 0.0}, {"is_reserved": 0, "type": "electric_scooter", "fusion_lat": 0.0, "is_disabled": 0, "rental_uris": {"ios": "https://dc.lft.to/lastmile_qr_scan", "android": "https://dc.lft.to/lastmile_qr_scan"}, "bike_id": "c1c2b8c517d2a73742b96d1512962e9e", "lat": 38.895055, "name": "c1c2b8c517d2a73742b96d1512962e9e", "lon": -77.02291283333334, "fusion_lon": 0.0}, {"is_reserved": 0, "type": "electric_scooter", "fusion_lat": 0.0, "is_disabled": 0, "rental_uris": {"ios": "https://dc.lft.to/lastmile_qr_scan", "android": "https://dc.lft.to/lastmile_qr_scan"}, "bike_id": "66cada21b7fd8e5c6d3194bc9bdd9f24", "lat": 38.8785265, "name": "66cada21b7fd8e5c6d3194bc9bdd9f24", "lon": -77.007229, "fusion_lon": 0.0}, {"is_reserved": 0, "type": "electric_bike", "fusion_lat": 0.0, "is_disabled": 0, "rental_uris": {"ios": "https://dc.lft.to/lastmile_qr_scan", "android": "https://dc.lft.to/lastmile_qr_scan"}, "bike_id": "d63468d57391d993d7f9c004544fa19f", "lat": 38.86490916666666, "name": "d63468d57391d993d7f9c004544fa19f", "lon": -76.96983333333333, "fusion_lon": 0.0}, {"is_reserved": 0, "type": "electric_bike", "fusion_lat": 0.0, "is_disabled": 0, "rental_uris": {"ios": "https://dc.lft.to/lastmile_qr_scan", "android": "https://dc.lft.to/lastmile_qr_scan"}, "bike_id": "8b8d691ca811adcdac0d423271561422", "lat": 38.805191, "name": "8b8d691ca811adcdac0d423271561422", "lon": -77.04341516666666, "fusion_lon": 0.0}, {"is_reserved": 0, "type": "electric_scooter", "fusion_lat": 0.0, "is_disabled": 0, "rental_uris": {"ios": "https://dc.lft.to/lastmile_qr_scan", "android": "https://dc.lft.to/lastmile_qr_scan"},