{"data": {"bikes": [{"bike_id": "63801a45a35a6c86ed3f778053c05383", "is_reserved": 0, "fusion_lon": 0.0, "lat": 38.897371666666665, "is_disabled": 0, "name": "63801a45a35a6c86ed3f778053c05383", "fusion_lat": 0.0, "rental_uris": {"ios": "https://dc.lft.to/lastmile_qr_scan", "android": "https://dc.lft.to/lastmile_qr_scan"}, "lon": -76.94726566666667, "type": "electric_scooter"}, {"bike_id": "f4c0a29d0cf30e3455f52ad2cb1d1cb0", "is_reserved": 0, "fusion_lon": 0.0, "lat": 38.904022166666664, "is_disabled": 0, "name": "f4c0a29d0cf30e3455f52ad2cb1d1cb0", "fusion_lat": 0.0, "rental_uris": {"ios": "https://dc.lft.to/lastmile_qr_scan", "android": "https://dc.lft.to/lastmile_qr_scan"}, "lon": -77.040091, "type": "electric_scooter"}, {"bike_id": "c8a14ce9b26b4209405c0328d2988e38", "is_reserved": 0, "fusion_lon": 0.0, "lat": 38.895335833333334, "is_disabled": 0, "name": "c8a14ce9b26b4209405c0328d2988e38", "fusion_lat": 0.0, "rental_uris": {"ios": "https://dc.lft.to/lastmile_qr_scan", "android": "https://dc.lft.to/lastmile_qr_scan"}, "lon": -77.02945666666666, "type": "electric_scooter"}, {"bike_id": "ded1bd61740e80346375fafc3b1eb322", "is_reserved": 0, "fusion_lon": 0.0, "lat": 38.90533283333333, "is_disabled": 0, "name": "ded1bd61740e80346375fafc3b1eb322", "fusion_lat": 0.0, "rental_uris": {"ios": "https://dc.lft.to/lastmile_qr_scan", "android": "https://dc.lft.to/lastmile_qr_scan"}, "lon": -77.04995716666667, "type": "electric_scooter"}, {"bike_id": "a5bd77a8bf0e62448e174331aee4080f", "is_reserved": 0, "fusion_lon": 0.0, "lat": 38.91543683333333, "is_disabled": 0, "name": "a5bd77a8bf0e62448e174331aee4080f", "fusion_lat": 0.0, "rental_uris": {"ios": "https://dc.lft.to/lastmile_qr_scan", "android": "https://dc.lft.to/lastmile_qr_scan"}, "lon": -77.02347383333333, "type": "electric_scooter"}, {"bike_id": "c35476c77fa1b3ad66fd89c1bb09fe20", "is_reserved": 0, "fusion_lon": 0.0, "lat": 38.9100735, "is_disabled": 0, "name": "c35476c77fa1b3ad66fd89c1bb09fe20", "fusion_lat": 0.0, "rental_uris": {"ios": "https://dc.lft.to/lastmile_qr_scan", "android": "https://dc.lft.to/lastmile_qr_scan"}, "lon": -77.02098, "type": "electric_scooter"}, {"bike_id": "b47fdab77bef3cf04be576689c63f9fe", "is_reserved": 0, "fusion_lon": 0.0, "lat": 38.917002, "is_disabled": 0, "name": "b47fdab77bef3cf04be576689c63f9fe", "fusion_lat": 0.0, "rental_uris": {"ios": "https://dc.lft.to/lastmile_qr_scan", "android": "https://dc.lft.to/lastmile_qr_scan"}, "lon": -77.02899016666667, "type": "electric_scooter"}, {"bike_id": "eb41d0f94707f47206fa0c58ca1665bf", "is_reserved": 0, "fusion_lon": 0.0, "lat": 38.90417133333333, "is_disabled": 0, "name": "eb41d0f94707f47206fa0c58ca1665bf", "fusion_lat": 0.0, "rental_uris": {"ios": "https://dc.lft.to/lastmile_qr_scan", "android": "https://dc.lft.to/lastmile_qr_scan"}, "lon": -77.04663683333334, "type": "electric_scooter"}, {"bike_id": "5d8d866ed0254ef5cbadd0ec458e5685", "is_reserved": 0, "fusion_lon": 0.0, "lat": 38.87488783333333, "is_disabled": 0, "name": "5d8d866ed0254ef5cbadd0ec458e5685", "fusion_lat": 0.0, "rental_uris": {"ios": "https://dc.lft.to/lastmile_qr_scan", "android": "https://dc.lft.to/lastmile_qr_scan"}, "lon": -76.96531183333333, "type": "electric_bike"}, {"bike_id": "feb6f83d35de84c77abb8df485474db1", "is_reserved": 0, "fusion_lon": 0.0, "lat": 38.916180833333335, "is_disabled": 0, "name": "feb6f83d35de84c77abb8df485474db1", "fusion_lat": 0.0, "rental_uris": {"ios": "https://dc.lft.to/lastmile_qr_scan", "android": "https://dc.lft.to/lastmile_qr_scan"}, "lon": -77.036403, "type": "electric_scooter"}, {"bike_id": "7cf04b5fca9661ed5307f917dff06e73", "is_reserved": 0, "fusion_lon": 0.0, "lat": 38.9019815, "is_disabled": 0, "name": "7cf04b5fca9661ed5307f917dff06e73", "fusion_lat": 0.0, "rental_uris": {"ios": "https://dc.lft.to/lastmile_qr_scan", "android": "https://dc.lft.to/lastmile_qr_scan"}, "lon": -77.0197835, "type": "electric_scooter"}, {"bike_id": "9c68affcda79ec694c7f5844d888226a", "is_reserved": 0, "fusion_lon": 0.0, "lat": 38.924413333333334, "is_disabled": 0, "name": "9c68affcda79ec694c7f5844d888226a", "fusion_lat": 0.0, "rental_uris": {"ios": "https://dc.lft.to/lastmile_qr_scan", "android": "https://dc.lft.to/lastmile_qr_scan"}, "lon": -77.03374516666666, "type": "electric_scooter"}, {"bike_id": "aab7323a1052f0b3acd3d9c78fc2d662", "is_reserved": 0, "fusion_lon": 0.0, "lat": 38.9170125, "is_disabled": 0, "name": "aab7323a1052f0b3acd3d9c78fc2d662", "fusion_lat": 0.0, "rental_uris": {"ios": "https://dc.lft.to/lastmile_qr_scan", "android": "https://dc.lft.to/lastmile_qr_scan"}, "lon": -77.0321565, "type": "electric_scooter"}, {"bike_id": "5c13d28bcc52568d560db367b2bd4d96", "is_reserved": 0, "fusion_lon": 0.0, "lat": 38.8860135, "is_disabled": 0, "name": "5c13d28bcc52568d560db367b2bd4d96", "fusion_lat": 0.0, "rental_uris": {"ios": "https://dc.lft.to/lastmile_qr_scan", "android": "https://dc.lft.to/lastmile_qr_scan"}, "lon": -77.00564966666667, "type": "electric_scooter"}, {"bike_id": "ecb40c63dfe64063126bdef9f316a453", "is_reserved": 0, "fusion_lon": 0.0, "lat": 38.81050616666667, "is_disabled": 0, "name": "ecb40c63dfe64063126bdef9f316a453", "fusion_lat": 0.0, "rental_uris": {"ios": "https://dc.lft.to/lastmile_qr_scan", "android": "https://dc.lft.to/lastmile_qr_scan"}, "lon": -77.085081, "type": "electric_bike"}, {"bike_id": "6e41a5c7aa2b3b9b45fe885459872567", "is_reserved": 0, "fusion_lon": 0.0, "lat": 38.89938083333333, "is_disabled": 0, "name": "6e41a5c7aa2b3b9b45fe885459872567", "fusion_lat": 0.0, "rental_uris": {"ios": "https://dc.lft.to/lastmile_qr_scan", "android": "https://dc.lft.to/lastmile_qr_scan"}, "lon": -77.03180466666667, "type": "electric_scooter"}, {"bike_id": "27125539089c7283887a757566e661c5", "is_reserved": 0, "fusion_lon": 0.0, "lat": 38.903295166666666, "is_disabled": 0, "name": "27125539089c7283887a757566e661c5", "fusion_lat": 0.0, "rental_uris": {"ios": "https://dc.lft.to/lastmile_qr_scan", "android": "https://dc.lft.to/lastmile_qr_scan"}, "lon": -77.033198, "type": "electric_scooter"}, {"bike_id": "7a58bc0b69295f3adde276e2b316b5c5", "is_reserved": 0, "fusion_lon": 0.0, "lat": 38.93135483333333, "is_disabled": 0, "name": "7a58bc0b69295f3adde276e2b316b5c5", "fusion_lat": 0.0, "rental_uris": {"ios": "https://dc.lft.to/lastmile_qr_scan", "android": "https://dc.lft.to/lastmile_qr_scan"}, "lon": -77.032558, "type": "electric_scooter"}, {"bike_id": "e11edd5f7a8dff6b0c5266682a523a20", "is_reserved": 0, "fusion_lon": 0.0, "lat": 38.892204, "is_disabled": 0, "name": "e11edd5f7a8dff6b0c5266682a523a20", "fusion_lat": 0.0, "rental_uris": {"ios": "https://dc.lft.to/lastmile_qr_scan", "android": "https://dc.lft.to/lastmile_qr_scan"}, "lon": -77.04860733333334, "type": "electric_scooter"}, {"bike_id": "b419f61dc1a4f48da7def93f7f6963bf", "is_reserved": 0, "fusion_lon": 0.0, "lat": 38.892209666666666, "is_disabled": 0, "name": "b419f61dc1a4f48da7def93f7f6963bf", "fusion_lat": 0.0, "rental_uris": {"ios": "https://dc.lft.to/lastmile_qr_scan", "android": "https://dc.lft.to/lastmile_qr_scan"}, "lon": -77.03979266666667, "type": "electric_scooter"}, {"bike_id": "3337862bf0568f8a0cb5882616bbdaf4", "is_reserved": 0, "fusion_lon": 0.0, "lat": 38.8442855, "is_disabled": 0, "name": "3337862bf0568f8a0cb5882616bbdaf4", "fusion_lat": 0.0, "rental_uris": {"ios": "https://dc.lft.to/lastmile_qr_scan", "android": "https://dc.lft.to/lastmile_qr_scan"}, "lon": -76.99776383333334, "type": "electric_scooter"}, {"bike_id": "b74a9680dfaf7a6edcd75ca69be003a7", "is_reserved": 0, "fusion_lon": 0.0, "lat": 38.90378116666667, "is_disabled": 0, "name": "b74a9680dfaf7a6edcd75ca69be003a7", "fusion_lat": 0.0, "rental_uris": {"ios": "https://dc.lft.to/lastmile_qr_scan", "android": "https://dc.lft.to/lastmile_qr_scan"}, "lon": -77.05310283333333, "type": "electric_scooter"}, {"bike_id": "7bd9c02acf3104e56d8e2e74460d19ae", "is_reserved": 0, "fusion_lon": 0.0, "lat": 38.8543485, "is_disabled": 0, "name": "7bd9c02acf3104e56d8e2e74460d19ae", "fusion_lat": 0.0, "rental_uris": {"ios": "https://dc.lft.to/lastmile_qr_scan", "android": "https://dc.lft.to/lastmile_qr_scan"}, "lon": -76.90971216666667, "type": "electric_bike"}, {"bike_id": "9bd0578c1cd2a1caa8b12184831f48da", "is_reserved": 0, "fusion_lon": 0.0, "lat": 38.877438833333336, "is_disabled": 0, "name": "9bd0578c1cd2a1caa8b12184831f48da", "fusion_lat": 0.0, "rental_uris": {"ios": "https://dc.lft.to/lastmile_qr_scan", "android": "https://dc.lft.to/lastmile_qr_scan"}, "lon": -76.980578, "type": "electric_bike"}, {"bike_id": "e57ec26cc3e6760261620862cd8bf687", "is_reserved": 0, "fusion_lon": 0.0, "lat": 38.934941333333335, "is_disabled": 0, "name": "e57ec26cc3e6760261620862cd8bf687", "fusion_lat": 0.0, "rental_uris": {"ios": "https://dc.lft.to/lastmile_qr_scan", "android": "https://dc.lft.to/lastmile_qr_scan"}, "lon": -77.02844466666667, "type": "electric_scooter"}, {"bike_id": "c78de3a1aa4b5745b7d24ae2f52920ec", "is_reserved": 0, "fusion_lon": 0.0, "lat": 38.915699333333336, "is_disabled": 0, "name": "c78de3a1aa4b5745b7d24ae2f52920ec", "fusion_lat": 0.0, "rental_uris": {"ios": "https://dc.lft.to/lastmile_qr_scan", "android": "https://dc.lft.to/lastmile_qr_scan"}, "lon": -77.046722, "type": "electric_scooter"}, {"bike_id": "fbbc358c8da69aa0af107c840f03fd53", "is_reserved": 0, "fusion_lon": 0.0, "lat": 38.903372166666664, "is_disabled": 0, "name": "fbbc358c8da69aa0af107c840f03fd53", "fusion_lat": 0.0, "rental_uris": {"ios": "https://dc.lft.to/lastmile_qr_scan", "android": "https://dc.lft.to/lastmile_qr_scan"}, "lon": -77.03841333333334, "type": "electric_scooter"}, {"bike_id": "b9220e97abf71779f3d8b6fb2292f4ea", "is_reserved": 0, "fusion_lon": 0.0, "lat": 38.92973716666667, "is_disabled": 0, "name": "b9220e97abf71779f3d8b6fb2292f4ea", "fusion_lat": 0.0, "rental_uris": {"ios": "https://dc.lft.to/lastmile_qr_scan", "android": "https://dc.lft.to/lastmile_qr_scan"}, "lon": -77.22577016666666, "type": "electric_bike"}, {"bike_id": "fdc0d3318b89b1c368626bd44f24ae5c", "is_reserved": 0, "fusion_lon": 0.0, "lat": 38.919583, "is_disabled": 0, "name": "fdc0d3318b89b1c368626bd44f24ae5c", "fusion_lat": 0.0, "rental_uris": {"ios": "https://dc.lft.to/lastmile_qr_scan", "android": "https://dc.lft.to/lastmile_qr_scan"}, "lon": -76.97274816666666, "type": "electric_bike"}, {"bike_id": "c98540e9ace3df6dc4ff46174c7abb45", "is_reserved": 0, "fusion_lon": 0.0, "lat": 38.8963325, "is_disabled": 0, "name": "c98540e9ace3df6dc4ff46174c7abb45", "fusion_lat": 0.0, "rental_uris": {"ios": "https://dc.lft.to/lastmile_qr_scan", "android": "https://dc.lft.to/lastmile_qr_scan"}, "lon": -77.00921266666667, "type": "electric_scooter"}, {"bike_id": "59cade83d8af0212129f8bc3027e0dce", "is_reserved": 0, "fusion_lon": 0.0, "lat": 38.93168816666667, "is_disabled": 0, "name": "59cade83d8af0212129f8bc3027e0dce", "fusion_lat": 0.0, "rental_uris": {"ios": "https://dc.lft.to/lastmile_qr_scan", "android": "https://dc.lft.to/lastmile_qr_scan"}, "lon": -77.03629783333334, "type": "electric_scooter"}, {"bike_id": "097d0cdb5da40db9ea54366d73e06539", "is_reserved": 0, "fusion_lon": 0.0, "lat": 38.9022055, "is_disabled": 0, "name": "097d0cdb5da40db9ea54366d73e06539", "fusion_lat": 0.0, "rental_uris": {"ios": "https://dc.lft.to/lastmile_qr_scan", "android": "https://dc.lft.to/lastmile_qr_scan"}, "lon": -76.94587516666667, "type": "electric_scooter"}, {"bike_id": "976cad74a295559796f55fe0c5bf99f9", "is_reserved": 0, "fusion_lon": 0.0, "lat": 38.90595883333334, "is_disabled": 0, "name": "976cad74a295559796f55fe0c5bf99f9", "fusion_lat": 0.0, "rental_uris": {"ios": "https://dc.lft.to/lastmile_qr_scan", "android": "https://dc.lft.to/lastmile_qr_scan"}, "lon": -77.0467885, "type": "electric_scooter"}, {"bike_id": "b1b4540b7871caf5022884fb10d0aead", "is_reserved": 0, "fusion_lon": 0.0, "lat": 38.94941983333333, "is_disabled": 0, "name": "b1b4540b7871caf5022884fb10d0aead", "fusion_lat": 0.0, "rental_uris": {"ios": "https://dc.lft.to/lastmile_qr_scan", "android": "https://dc.lft.to/lastmile_qr_scan"}, "lon": -77.0161945, "type": "electric_scooter"}, {"bike_id": "68b4c5b7f2897e9d770175bec19b567c", "is_reserved": 0, "fusion_lon": 0.0, "lat": 38.955281, "is_disabled": 0, "name": "68b4c5b7f2897e9d770175bec19b567c", "fusion_lat": 0.0, "rental_uris": {"ios": "https://dc.lft.to/lastmile_qr_scan", "android": "https://dc.lft.to/lastmile_qr_scan"}, "lon": -77.0241715, "type": "electric_bike"}, {"bike_id": "20d54d50992a7d23538fffca23029273", "is_reserved": 0, "fusion_lon": 0.0, "lat": 38.862033833333335, "is_disabled": 0, "name": "20d54d50992a7d23538fffca23029273", "fusion_lat": 0.0, "rental_uris": {"ios": "https://dc.lft.to/lastmile_qr_scan", "android": "https://dc.lft.to/lastmile_qr_scan"}, "lon": -76.99462566666666, "type": "electric_scooter"}, {"bike_id": "7d3b53c1c6f5c1a68a202dcf6921fddb", "is_reserved": 0, "fusion_lon": 0.0, "lat": 38.892227166666665, "is_disabled": 0, "name": "7d3b53c1c6f5c1a68a202dcf6921fddb", "fusion_lat": 0.0, "rental_uris": {"ios": "https://dc.lft.to/lastmile_qr_scan", "android": "https://dc.lft.to/lastmile_qr_scan"}, "lon": -77.04363566666666, "type": "electric_scooter"}, {"bike_id": "31e0a6ccb927bb393cab0d8787e42397", "is_reserved": 0, "fusion_lon": 0.0, "lat": 38.998286666666665, "is_disabled": 0, "name": "31e0a6ccb927bb393cab0d8787e42397", "fusion_lat": 0.0, "rental_uris": {"ios": "https://dc.lft.to/lastmile_qr_scan", "android": "https://dc.lft.to/lastmile_qr_scan"}, "lon": -76.88366666666667, "type": "electric_bike"}, {"bike_id": "c8819d9612340996f8507874e86708f6", "is_reserved": 0, "fusion_lon": 0.0, "lat": 38.90389666666667, "is_disabled": 0, "name": "c8819d9612340996f8507874e86708f6", "fusion_lat": 0.0, "rental_uris": {"ios": "https://dc.lft.to/lastmile_qr_scan", "android": "https://dc.lft.to/lastmile_qr_scan"}, "lon": -77.0110005, "type": "electric_scooter"}, {"bike_id": "c614c379c79d56a26a0f265e5f4fcd07", "is_reserved": 0, "fusion_lon": 0.0, "lat": 38.8987905, "is_disabled": 0, "name": "c614c379c79d56a26a0f265e5f4fcd07", "fusion_lat": 0.0, "rental_uris": {"ios": "https://dc.lft.to/lastmile_qr_scan", "android": "https://dc.lft.to/lastmile_qr_scan"}, "lon": -76.93159066666666, "type": "electric_scooter"}, {"bike_id": "8d520aab6525f87a614924b862b6bd29", "is_reserved": 0, "fusion_lon": 0.0, "lat": 38.92898366666667, "is_disabled": 0, "name": "8d520aab6525f87a614924b862b6bd29", "fusion_lat": 0.0, "rental_uris": {"ios": "https://dc.lft.to/lastmile_qr_scan", "android": "https://dc.lft.to/lastmile_qr_scan"}, "lon": -77.05455616666667, "type": "electric_scooter"}, {"bike_id": "6fdcb47f69aa53d9f92a1f0532a73fe0", "is_reserved": 0, "fusion_lon": 0.0, "lat": 38.92154683333333, "is_disabled": 0, "name": "6fdcb47f69aa53d9f92a1f0532a73fe0", "fusion_lat": 0.0, "rental_uris": {"ios": "https://dc.lft.to/lastmile_qr_scan", "android": "https://dc.lft.to/lastmile_qr_scan"}, "lon": -77.0348815, "type": "electric_scooter"}, {"bike_id": "ccedeb9f1c5c394e8d5f4b6296f265ec", "is_reserved": 0, "fusion_lon": 0.0, "lat": 38.957352, "is_disabled": 0, "name": "ccedeb9f1c5c394e8d5f4b6296f265ec", "fusion_lat": 0.0, "rental_uris": {"ios": "https://dc.lft.to/lastmile_qr_scan", "android": "https://dc.lft.to/lastmile_qr_scan"}, "lon": -76.98016433333333, "type": "electric_bike"}, {"bike_id": "fd2bc9209d0b411ac434768e819dd114", "is_reserved": 0, "fusion_lon": 0.0, "lat": 38.863945, "is_disabled": 0, "name": "fd2bc9209d0b411ac434768e819dd114", "fusion_lat": 0.0, "rental_uris": {"ios": "https://dc.lft.to/lastmile_qr_scan", "android": "https://dc.lft.to/lastmile_qr_scan"}, "lon": -76.98990733333333, "type": "electric_bike"}, {"bike_id": "5bf1d4af0f607a03837883d57df3435d", "is_reserved": 0, "fusion_lon": 0.0, "lat": 38.90851716666667, "is_disabled": 0, "name": "5bf1d4af0f607a03837883d57df3435d", "fusion_lat": 0.0, "rental_uris": {"ios": "https://dc.lft.to/lastmile_qr_scan", "android": "https://dc.lft.to/lastmile_qr_scan"}, "lon": -77.04484333333333, "type": "electric_scooter"}, {"bike_id": "804b06127fa5d81a905b5908ad1e6e03", "is_reserved": 0, "fusion_lon": 0.0, "lat": 38.906767, "is_disabled": 0, "name": "804b06127fa5d81a905b5908ad1e6e03", "fusion_lat": 0.0, "rental_uris": {"ios": "https://dc.lft.to/lastmile_qr_scan", "android": "https://dc.lft.to/lastmile_qr_scan"}, "lon": -77.06267266666667, "type": "electric_bike"}, {"bike_id": "bc7ff11ed3bddee800c9900709f7cdbd", "is_reserved": 0, "fusion_lon": 0.0, "lat": 38.905563, "is_disabled": 0, "name": "bc7ff11ed3bddee800c9900709f7cdbd", "fusion_lat": 0.0, "rental_uris": {"ios": "https://dc.lft.to/lastmile_qr_scan", "android": "https://dc.lft.to/lastmile_qr_scan"}, "lon": -77.00581366666667, "type": "electric_scooter"}, {"bike_id": "18f0896984f944cd8a1f92cf732ad088", "is_reserved": 0, "fusion_lon": 0.0, "lat": 38.9033945, "is_disabled": 0, "name": "18f0896984f944cd8a1f92cf732ad088", "fusion_lat": 0.0, "rental_uris": {"ios": "https://dc.lft.to/lastmile_qr_scan", "android": "https://dc.lft.to/lastmile_qr_scan"}, "lon": -77.0665715, "type": "electric_scooter"}, {"bike_id": "8eab86b742f1088ad5bae77a72d9c01f", "is_reserved": 0, "fusion_lon": 0.0, "lat": 38.94173716666667, "is_disabled": 0, "name": "8eab86b742f1088ad5bae77a72d9c01f", "fusion_lat": 0.0, "rental_uris": {"ios": "https://dc.lft.to/lastmile_qr_scan", "android": "https://dc.lft.to/lastmile_qr_scan"}, "lon": -77.04133733333333, "type": "electric_scooter"}, {"bike_id": "08c0d6c631f5fa263f489403cd274e62", "is_reserved": 0, "fusion_lon": 0.0, "lat": 38.91688833333333, "is_disabled": 0, "name": "08c0d6c631f5fa263f489403cd274e62", "fusion_lat": 0.0, "rental_uris": {"ios": "https://dc.lft.to/lastmile_qr_scan", "android": "https://dc.lft.to/lastmile_qr_scan"}, "lon": -77.012133, "type": "electric_scooter"}, {"bike_id": "cda7a9156ba011301d17e964f95a79e0", "is_reserved": 0, "fusion_lon": 0.0, "lat": 38.8930365, "is_disabled": 0, "name": "cda7a9156ba011301d17e964f95a79e0", "fusion_lat": 0.0, "rental_uris": {"ios": "https://dc.lft.to/lastmile_qr_scan", "android": "https://dc.lft.to/lastmile_qr_scan"}, "lon": -77.01239266666667, "type": "electric_scooter"}, {"bike_id": "72f999dc6615121fd1a5736f548f6def", "is_reserved": 0, "fusion_lon": 0.0, "lat": 38.968241, "is_disabled": 0, "name": "72f999dc6615121fd1a5736f548f6def", "fusion_lat": 0.0, "rental_uris": {"ios": "https://dc.lft.to/lastmile_qr_scan", "android": "https://dc.lft.to/lastmile_qr_scan"}, "lon": -77.017857, "type": "electric_scooter"}, {"bike_id": "53ccda8db781e38f4cff7a83eb228c82", "is_reserved": 0, "fusion_lon": 0.0, "lat": 38.9170365, "is_disabled": 0, "name": "53ccda8db781e38f4cff7a83eb228c82", "fusion_lat": 0.0, "rental_uris": {"ios": "https://dc.lft.to/lastmile_qr_scan", "android": "https://dc.lft.to/lastmile_qr_scan"}, "lon": -77.0322505, "type": "electric_scooter"}, {"bike_id": "aae21d4d440640c9ed6b41c8d528b777", "is_reserved": 0, "fusion_lon": 0.0, "lat": 38.89632066666667, "is_disabled": 0, "name": "aae21d4d440640c9ed6b41c8d528b777", "fusion_lat": 0.0, "rental_uris": {"ios": "https://dc.lft.to/lastmile_qr_scan", "android": "https://dc.lft.to/lastmile_qr_scan"}, "lon": -77.032272, "type": "electric_scooter"}, {"bike_id": "0e486257c1f5b25458c7848891de996f", "is_reserved": 0, "fusion_lon": 0.0, "lat": 38.905220166666666, "is_disabled": 0, "name": "0e486257c1f5b25458c7848891de996f", "fusion_lat": 0.0, "rental_uris": {"ios": "https://dc.lft.to/lastmile_qr_scan", "android": "https://dc.lft.to/lastmile_qr_scan"}, "lon": -77.05043016666667, "type": "electric_scooter"}, {"bike_id": "e8dae155493ce7ef8d614115602808c0", "is_reserved": 0, "fusion_lon": 0.0, "lat": 38.904631, "is_disabled": 0, "name": "e8dae155493ce7ef8d614115602808c0", "fusion_lat": 0.0, "rental_uris": {"ios": "https://dc.lft.to/lastmile_qr_scan", "android": "https://dc.lft.to/lastmile_qr_scan"}, "lon": -76.99504816666666, "type": "electric_scooter"}, {"bike_id": "8a2f58032b4888bba711d8777b48bdcb", "is_reserved": 0, "fusion_lon": 0.0, "lat": 38.896129, "is_disabled": 0, "name": "8a2f58032b4888bba711d8777b48bdcb", "fusion_lat": 0.0, "rental_uris": {"ios": "https://dc.lft.to/lastmile_qr_scan", "android": "https://dc.lft.to/lastmile_qr_scan"}, "lon": -77.0450685, "type": "electric_scooter"}, {"bike_id": "71eb50a8f4c5d2518f5df90d22ea4d00", "is_reserved": 0, "fusion_lon": 0.0, "lat": 38.8696215, "is_disabled": 0, "name": "71eb50a8f4c5d2518f5df90d22ea4d00", "fusion_lat": 0.0, "rental_uris": {"ios": "https://dc.lft.to/lastmile_qr_scan", "android": "https://dc.lft.to/lastmile_qr_scan"}, "lon": -77.01374066666666, "type": "electric_scooter"}, {"bike_id": "c1429052ac63a4b244a51a2a9f696ac8", "is_reserved": 0, "fusion_lon": 0.0, "lat": 38.90561133333333, "is_disabled": 0, "name": "c1429052ac63a4b244a51a2a9f696ac8", "fusion_lat": 0.0, "rental_uris": {"ios": "https://dc.lft.to/lastmile_qr_scan", "android": "https://dc.lft.to/lastmile_qr_scan"}, "lon": -77.03829616666667, "type": "electric_scooter"}, {"bike_id": "048460c2be9ccfce22fd786250c12568", "is_reserved": 0, "fusion_lon": 0.0, "lat": 38.89200666666667, "is_disabled": 0, "name": "048460c2be9ccfce22fd786250c12568", "fusion_lat": 0.0, "rental_uris": {"ios": "https://dc.lft.to/lastmile_qr_scan", "android": "https://dc.lft.to/lastmile_qr_scan"}, "lon": -77.0237925, "type": "electric_scooter"}, {"bike_id": "b4b39da8a30ca93d9b8a1f2d6c12a1c8", "is_reserved": 0, "fusion_lon": 0.0, "lat": 38.9186935, "is_disabled": 0, "name": "b4b39da8a30ca93d9b8a1f2d6c12a1c8", "fusion_lat": 0.0, "rental_uris": {"ios": "https://dc.lft.to/lastmile_qr_scan", "android": "https://dc.lft.to/lastmile_qr_scan"}, "lon": -77.04372083333334, "type": "electric_scooter"}, {"bike_id": "999edff710920df44c735244b457df31", "is_reserved": 0, "fusion_lon": 0.0, "lat": 38.905796333333335, "is_disabled": 0, "name": "999edff710920df44c735244b457df31", "fusion_lat": 0.0, "rental_uris": {"ios": "https://dc.lft.to/lastmile_qr_scan", "android": "https://dc.lft.to/lastmile_qr_scan"}, "lon": -77.02209916666666, "type": "electric_scooter"}, {"bike_id": "b3f132777f9ff3f2f4727c919c617826", "is_reserved": 0, "fusion_lon": 0.0, "lat": 38.91415033333333, "is_disabled": 0, "name": "b3f132777f9ff3f2f4727c919c617826", "fusion_lat": 0.0, "rental_uris": {"ios": "https://dc.lft.to/lastmile_qr_scan", "android": "https://dc.lft.to/lastmile_qr_scan"}, "lon": -77.03908883333334, "type": "electric_scooter"}, {"bike_id": "739db82b2d7dfbf1ce95c15daf68b0d4", "is_reserved": 0, "fusion_lon": 0.0, "lat": 38.901537833333336, "is_disabled": 0, "name": "739db82b2d7dfbf1ce95c15daf68b0d4", "fusion_lat": 0.0, "rental_uris": {"ios": "https://dc.lft.to/lastmile_qr_scan", "android": "https://dc.lft.to/lastmile_qr_scan"}, "lon": -76.93063933333333, "type": "electric_scooter"}, {"bike_id": "7a46296123b815626f76c3c037e174c2", "is_reserved": 0, "fusion_lon": 0.0, "lat": 38.936054, "is_disabled": 0, "name": "7a46296123b815626f76c3c037e174c2", "fusion_lat": 0.0, "rental_uris": {"ios": "https://dc.lft.to/lastmile_qr_scan", "android": "https://dc.lft.to/lastmile_qr_scan"}, "lon": -77.056022, "type": "electric_scooter"}, {"bike_id": "5bd5ff5cdabc0389069d008b8620b462", "is_reserved": 0, "fusion_lon": 0.0, "lat": 38.89223066666667, "is_disabled": 0, "name": "5bd5ff5cdabc0389069d008b8620b462", "fusion_lat": 0.0, "rental_uris": {"ios": "https://dc.lft.to/lastmile_qr_scan", "android": "https://dc.lft.to/lastmile_qr_scan"}, "lon": -77.03979483333333, "type": "electric_scooter"}, {"bike_id": "fdb46fe7303d0fee91e5d86b499ff3d0", "is_reserved": 0, "fusion_lon": 0.0, "lat": 38.898539666666665, "is_disabled": 0, "name": "fdb46fe7303d0fee91e5d86b499ff3d0", "fusion_lat": 0.0, "rental_uris": {"ios": "https://dc.lft.to/lastmile_qr_scan", "android": "https://dc.lft.to/lastmile_qr_scan"}, "lon": -77.04351866666667, "type": "electric_scooter"}, {"bike_id": "3e186b1451d7728c3eeb22d7e5829dec", "is_reserved": 0, "fusion_lon": 0.0, "lat": 38.940698833333336, "is_disabled": 0, "name": "3e186b1451d7728c3eeb22d7e5829dec", "fusion_lat": 0.0, "rental_uris": {"ios": "https://dc.lft.to/lastmile_qr_scan", "android": "https://dc.lft.to/lastmile_qr_scan"}, "lon": -76.99460533333334, "type": "electric_scooter"}, {"bike_id": "7f7104f7a64052f0d8d90ec8710f9087", "is_reserved": 0, "fusion_lon": 0.0, "lat": 38.926844833333334, "is_disabled": 0, "name": "7f7104f7a64052f0d8d90ec8710f9087", "fusion_lat": 0.0, "rental_uris": {"ios": "https://dc.lft.to/lastmile_qr_scan", "android": "https://dc.lft.to/lastmile_qr_scan"}, "lon": -77.09568066666667, "type": "electric_scooter"}, {"bike_id": "8ce84c6bd79d9d59f697ccec7b2b8989", "is_reserved": 0, "fusion_lon": 0.0, "lat": 38.891969833333334, "is_disabled": 0, "name": "8ce84c6bd79d9d59f697ccec7b2b8989", "fusion_lat": 0.0, "rental_uris": {"ios": "https://dc.lft.to/lastmile_qr_scan", "android": "https://dc.lft.to/lastmile_qr_scan"}, "lon": -77.02217033333334, "type": "electric_scooter"}, {"bike_id": "161ab3b6f2c93a86a02f15b47772142c", "is_reserved": 0, "fusion_lon": 0.0, "lat": 38.922365166666665, "is_disabled": 0, "name": "161ab3b6f2c93a86a02f15b47772142c", "fusion_lat": 0.0, "rental_uris": {"ios": "https://dc.lft.to/lastmile_qr_scan", "android": "https://dc.lft.to/lastmile_qr_scan"}, "lon": -77.0334335, "type": "electric_scooter"}, {"bike_id": "9ba7be79d5685ef770daaf04ed7ed2dd", "is_reserved": 0, "fusion_lon": 0.0, "lat": 38.91150483333333, "is_disabled": 0, "name": "9ba7be79d5685ef770daaf04ed7ed2dd", "fusion_lat": 0.0, "rental_uris": {"ios": "https://dc.lft.to/lastmile_qr_scan", "android": "https://dc.lft.to/lastmile_qr_scan"}, "lon": -77.04187366666666, "type": "electric_scooter"}, {"bike_id": "cc3ea37d4e480dca8e9f43f8a8d5d6af", "is_reserved": 0, "fusion_lon": 0.0, "lat": 38.91577616666667, "is_disabled": 0, "name": "cc3ea37d4e480dca8e9f43f8a8d5d6af", "fusion_lat": 0.0, "rental_uris": {"ios": "https://dc.lft.to/lastmile_qr_scan", "android": "https://dc.lft.to/lastmile_qr_scan"}, "lon": -77.03844916666667, "type": "electric_scooter"}, {"bike_id": "97b5c67a41a459553d8fdf87c2d7a524", "is_reserved": 0, "fusion_lon": 0.0, "lat": 38.9158845, "is_disabled": 0, "name": "97b5c67a41a459553d8fdf87c2d7a524", "fusion_lat": 0.0, "rental_uris": {"ios": "https://dc.lft.to/lastmile_qr_scan", "android": "https://dc.lft.to/lastmile_qr_scan"}, "lon": -77.0446545, "type": "electric_scooter"}, {"bike_id": "8701108fed2d093d7dd2b3f4ad7afbf7", "is_reserved": 0, "fusion_lon": 0.0, "lat": 38.90960666666667, "is_disabled": 0, "name": "8701108fed2d093d7dd2b3f4ad7afbf7", "fusion_lat": 0.0, "rental_uris": {"ios": "https://dc.lft.to/lastmile_qr_scan", "android": "https://dc.lft.to/lastmile_qr_scan"}, "lon": -77.03169266666667, "type": "electric_scooter"}, {"bike_id": "b818696796919bc6b7767badeeadc321", "is_reserved": 0, "fusion_lon": 0.0, "lat": 38.90256566666667, "is_disabled": 0, "name": "b818696796919bc6b7767badeeadc321", "fusion_lat": 0.0, "rental_uris": {"ios": "https://dc.lft.to/lastmile_qr_scan", "android": "https://dc.lft.to/lastmile_qr_scan"}, "lon": -77.04352933333334, "type": "electric_scooter"}, {"bike_id": "1b8725a1b1dd2a98b305c14bec42cebd", "is_reserved": 0, "fusion_lon": 0.0, "lat": 38.9083265, "is_disabled": 0, "name": "1b8725a1b1dd2a98b305c14bec42cebd", "fusion_lat": 0.0, "rental_uris": {"ios": "https://dc.lft.to/lastmile_qr_scan", "android": "https://dc.lft.to/lastmile_qr_scan"}, "lon": -77.03947083333334, "type": "electric_scooter"}, {"bike_id": "6b6697062f59692dcdcdcd6d6092e174", "is_reserved": 0, "fusion_lon": 0.0, "lat": 38.9285925, "is_disabled": 0, "name": "6b6697062f59692dcdcdcd6d6092e174", "fusion_lat": 0.0, "rental_uris": {"ios": "https://dc.lft.to/lastmile_qr_scan", "android": "https://dc.lft.to/lastmile_qr_scan"}, "lon": -77.01379883333334, "type": "electric_scooter"}, {"bike_id": "543172163d1716fb97159abc9b014adb", "is_reserved": 0, "fusion_lon": 0.0, "lat": 38.91669683333333, "is_disabled": 0, "name": "543172163d1716fb97159abc9b014adb", "fusion_lat": 0.0, "rental_uris": {"ios": "https://dc.lft.to/lastmile_qr_scan", "android": "https://dc.lft.to/lastmile_qr_scan"}, "lon": -77.0297445, "type": "electric_scooter"}, {"bike_id": "59ffcbd34b0ce7916c781ce4f7799767", "is_reserved": 0, "fusion_lon": 0.0, "lat": 38.896846, "is_disabled": 0, "name": "59ffcbd34b0ce7916c781ce4f7799767", "fusion_lat": 0.0, "rental_uris": {"ios": "https://dc.lft.to/lastmile_qr_scan", "android": "https://dc.lft.to/lastmile_qr_scan"}, "lon": -76.99628833333334, "type": "electric_scooter"}, {"bike_id": "597ee78e5c937eea6a1d02645118c3d1", "is_reserved": 0, "fusion_lon": 0.0, "lat": 38.87918833333333, "is_disabled": 0, "name": "597ee78e5c937eea6a1d02645118c3d1", "fusion_lat": 0.0, "rental_uris": {"ios": "https://dc.lft.to/lastmile_qr_scan", "android": "https://dc.lft.to/lastmile_qr_scan"}, "lon": -77.02258966666666, "type": "electric_scooter"}, {"bike_id": "821f177c3b1c6ae51562fa3fdf9453cb", "is_reserved": 0, "fusion_lon": 0.0, "lat": 38.90530033333334, "is_disabled": 0, "name": "821f177c3b1c6ae51562fa3fdf9453cb", "fusion_lat": 0.0, "rental_uris": {"ios": "https://dc.lft.to/lastmile_qr_scan", "android": "https://dc.lft.to/lastmile_qr_scan"}, "lon": -77.0435925, "type": "electric_scooter"}, {"bike_id": "258c4cecb1e768940972dfb2bac44717", "is_reserved": 0, "fusion_lon": 0.0, "lat": 38.924943166666665, "is_disabled": 0, "name": "258c4cecb1e768940972dfb2bac44717", "fusion_lat": 0.0, "rental_uris": {"ios": "https://dc.lft.to/lastmile_qr_scan", "android": "https://dc.lft.to/lastmile_qr_scan"}, "lon": -77.02169216666667, "type": "electric_scooter"}, {"bike_id": "9c1f93815c75e2dfa5a58f921792ef7a", "is_reserved": 0, "fusion_lon": 0.0, "lat": 38.89222383333333, "is_disabled": 0, "name": "9c1f93815c75e2dfa5a58f921792ef7a", "fusion_lat": 0.0, "rental_uris": {"ios": "https://dc.lft.to/lastmile_qr_scan", "android": "https://dc.lft.to/lastmile_qr_scan"}, "lon": -77.04194966666667, "type": "electric_scooter"}, {"bike_id": "2cfbfb6db558f3ae47e9cfa462c90217", "is_reserved": 0, "fusion_lon": 0.0, "lat": 38.89564383333333, "is_disabled": 0, "name": "2cfbfb6db558f3ae47e9cfa462c90217", "fusion_lat": 0.0, "rental_uris": {"ios": "https://dc.lft.to/lastmile_qr_scan", "android": "https://dc.lft.to/lastmile_qr_scan"}, "lon": -77.0191005, "type": "electric_scooter"}, {"bike_id": "70aaeda176dcdb2ab44dee78d6b16735", "is_reserved": 0, "fusion_lon": 0.0, "lat": 38.8791995, "is_disabled": 0, "name": "70aaeda176dcdb2ab44dee78d6b16735", "fusion_lat": 0.0, "rental_uris": {"ios": "https://dc.lft.to/lastmile_qr_scan", "android": "https://dc.lft.to/lastmile_qr_scan"}, "lon": -76.995061, "type": "electric_scooter"}, {"bike_id": "f0f608f7edb0e59b1c47754ea128b9ea", "is_reserved": 0, "fusion_lon": 0.0, "lat": 38.89107716666667, "is_disabled": 0, "name": "f0f608f7edb0e59b1c47754ea128b9ea", "fusion_lat": 0.0, "rental_uris": {"ios": "https://dc.lft.to/lastmile_qr_scan", "android": "https://dc.lft.to/lastmile_qr_scan"}, "lon": -76.9870085, "type": "electric_scooter"}, {"bike_id": "b3071509d60526bc02994db856825625", "is_reserved": 0, "fusion_lon": 0.0, "lat": 38.909749166666664, "is_disabled": 0, "name": "b3071509d60526bc02994db856825625", "fusion_lat": 0.0, "rental_uris": {"ios": "https://dc.lft.to/lastmile_qr_scan", "android": "https://dc.lft.to/lastmile_qr_scan"}, "lon": -77.05266766666666, "type": "electric_scooter"}, {"bike_id": "f21aea96e4976e83d1206a73f98882ac", "is_reserved": 0, "fusion_lon": 0.0, "lat": 38.924796, "is_disabled": 0, "name": "f21aea96e4976e83d1206a73f98882ac", "fusion_lat": 0.0, "rental_uris": {"ios": "https://dc.lft.to/lastmile_qr_scan", "android": "https://dc.lft.to/lastmile_qr_scan"}, "lon": -77.052076, "type": "electric_scooter"}, {"bike_id": "e32d6d35affba9951825d8f276f272dc", "is_reserved": 0, "fusion_lon": 0.0, "lat": 38.88774733333333, "is_disabled": 0, "name": "e32d6d35affba9951825d8f276f272dc", "fusion_lat": 0.0, "rental_uris": {"ios": "https://dc.lft.to/lastmile_qr_scan", "android": "https://dc.lft.to/lastmile_qr_scan"}, "lon": -76.93263216666666, "type": "electric_scooter"}, {"bike_id": "2799dd624a0019990bcb233f30b8f974", "is_reserved": 0, "fusion_lon": 0.0, "lat": 38.931647, "is_disabled": 0, "name": "2799dd624a0019990bcb233f30b8f974", "fusion_lat": 0.0, "rental_uris": {"ios": "https://dc.lft.to/lastmile_qr_scan", "android": "https://dc.lft.to/lastmile_qr_scan"}, "lon": -77.05647333333333, "type": "electric_scooter"}, {"bike_id": "9afef48bc8e745bb1eea1e54545c3903", "is_reserved": 0, "fusion_lon": 0.0, "lat": 38.927663, "is_disabled": 0, "name": "9afef48bc8e745bb1eea1e54545c3903", "fusion_lat": 0.0, "rental_uris": {"ios": "https://dc.lft.to/lastmile_qr_scan", "android": "https://dc.lft.to/lastmile_qr_scan"}, "lon": -77.03243433333333, "type": "electric_scooter"}, {"bike_id": "3c8b6e957b4b83bdb404f04aed6b70c3", "is_reserved": 0, "fusion_lon": 0.0, "lat": 38.88781816666667, "is_disabled": 0, "name": "3c8b6e957b4b83bdb404f04aed6b70c3", "fusion_lat": 0.0, "rental_uris": {"ios": "https://dc.lft.to/lastmile_qr_scan", "android": "https://dc.lft.to/lastmile_qr_scan"}, "lon": -76.95531316666667, "type": "electric_scooter"}, {"bike_id": "b327535c0582e0b8c3d160c30ec22200", "is_reserved": 0, "fusion_lon": 0.0, "lat": 38.88734566666667, "is_disabled": 0, "name": "b327535c0582e0b8c3d160c30ec22200", "fusion_lat": 0.0, "rental_uris": {"ios": "https://dc.lft.to/lastmile_qr_scan", "android": "https://dc.lft.to/lastmile_qr_scan"}, "lon": -77.01386783333334, "type": "electric_scooter"}, {"bike_id": "7ebd149bc75e5fb20f1b73e6528c43eb", "is_reserved": 0, "fusion_lon": 0.0, "lat": 38.896843833333335, "is_disabled": 0, "name": "7ebd149bc75e5fb20f1b73e6528c43eb", "fusion_lat": 0.0, "rental_uris": {"ios": "https://dc.lft.to/lastmile_qr_scan", "android": "https://dc.lft.to/lastmile_qr_scan"}, "lon": -77.026188, "type": "electric_scooter"}, {"bike_id": "1043a672c02eff45828392c235e645c0", "is_reserved": 0, "fusion_lon": 0.0, "lat": 38.897951666666664, "is_disabled": 0, "name": "1043a672c02eff45828392c235e645c0", "fusion_lat": 0.0, "rental_uris": {"ios": "https://dc.lft.to/lastmile_qr_scan", "android": "https://dc.lft.to/lastmile_qr_scan"}, "lon": -76.94688866666667, "type": "electric_scooter"}, {"bike_id": "5e851c949688b9ef0c4edc826bed965c", "is_reserved": 0, "fusion_lon": 0.0, "lat": 38.90266366666667, "is_disabled": 0, "name": "5e851c949688b9ef0c4edc826bed965c", "fusion_lat": 0.0, "rental_uris": {"ios": "https://dc.lft.to/lastmile_qr_scan", "android": "https://dc.lft.to/lastmile_qr_scan"}, "lon": -77.038599, "type": "electric_scooter"}, {"bike_id": "ad413419abf1c0954a16a8189d3475ea", "is_reserved": 0, "fusion_lon": 0.0, "lat": 38.90181283333333, "is_disabled": 0, "name": "ad413419abf1c0954a16a8189d3475ea", "fusion_lat": 0.0, "rental_uris": {"ios": "https://dc.lft.to/lastmile_qr_scan", "android": "https://dc.lft.to/lastmile_qr_scan"}, "lon": -77.0510525, "type": "electric_scooter"}, {"bike_id": "ac3646e64dcee9e9c0af42e18db7fe63", "is_reserved": 0, "fusion_lon": 0.0, "lat": 38.898392666666666, "is_disabled": 0, "name": "ac3646e64dcee9e9c0af42e18db7fe63", "fusion_lat": 0.0, "rental_uris": {"ios": "https://dc.lft.to/lastmile_qr_scan", "android": "https://dc.lft.to/lastmile_qr_scan"}, "lon": -76.99504533333334, "type": "electric_scooter"}, {"bike_id": "02a90bff11b86aee7f80ad4fa15da0f4", "is_reserved": 0, "fusion_lon": 0.0, "lat": 38.9267515, "is_disabled": 0, "name": "02a90bff11b86aee7f80ad4fa15da0f4", "fusion_lat": 0.0, "rental_uris": {"ios": "https://dc.lft.to/lastmile_qr_scan", "android": "https://dc.lft.to/lastmile_qr_scan"}, "lon": -77.03637216666667, "type": "electric_scooter"}, {"bike_id": "6e6f52d1761cf3c4b0503663f39f2eb6", "is_reserved": 0, "fusion_lon": 0.0, "lat": 38.905939000000004, "is_disabled": 0, "name": "6e6f52d1761cf3c4b0503663f39f2eb6", "fusion_lat": 0.0, "rental_uris": {"ios": "https://dc.lft.to/lastmile_qr_scan", "android": "https://dc.lft.to/lastmile_qr_scan"}, "lon": -77.0345205, "type": "electric_scooter"}, {"bike_id": "d827ecc7e74813e47317f95156fbd604", "is_reserved": 0, "fusion_lon": 0.0, "lat": 38.89095483333333, "is_disabled": 0, "name": "d827ecc7e74813e47317f95156fbd604", "fusion_lat": 0.0, "rental_uris": {"ios": "https://dc.lft.to/lastmile_qr_scan", "android": "https://dc.lft.to/lastmile_qr_scan"}, "lon": -76.94387816666666, "type": "electric_scooter"}, {"bike_id": "ec84f432adde4584d60f2b7c094be1d3", "is_reserved": 0, "fusion_lon": 0.0, "lat": 38.92370433333333, "is_disabled": 0, "name": "ec84f432adde4584d60f2b7c094be1d3", "fusion_lat": 0.0, "rental_uris": {"ios": "https://dc.lft.to/lastmile_qr_scan", "android": "https://dc.lft.to/lastmile_qr_scan"}, "lon": -77.01910383333333, "type": "electric_scooter"}, {"bike_id": "ac3b62609e1ce8487e1d2b6c50c31073", "is_reserved": 0, "fusion_lon": 0.0, "lat": 38.8990055, "is_disabled": 0, "name": "ac3b62609e1ce8487e1d2b6c50c31073", "fusion_lat": 0.0, "rental_uris": {"ios": "https://dc.lft.to/lastmile_qr_scan", "android": "https://dc.lft.to/lastmile_qr_scan"}, "lon": -77.03975, "type": "electric_scooter"}, {"bike_id": "bd13af91fc009680564e823a24eec077", "is_reserved": 0, "fusion_lon": 0.0, "lat": 38.9079725, "is_disabled": 0, "name": "bd13af91fc009680564e823a24eec077", "fusion_lat": 0.0, "rental_uris": {"ios": "https://dc.lft.to/lastmile_qr_scan", "android": "https://dc.lft.to/lastmile_qr_scan"}, "lon": -77.03658866666666, "type": "electric_scooter"}, {"bike_id": "9c080189f85a58901ec9271013a2ec7b", "is_reserved": 0, "fusion_lon": 0.0, "lat": 38.93784466666666, "is_disabled": 0, "name": "9c080189f85a58901ec9271013a2ec7b", "fusion_lat": 0.0, "rental_uris": {"ios": "https://dc.lft.to/lastmile_qr_scan", "android": "https://dc.lft.to/lastmile_qr_scan"}, "lon": -77.02333166666666, "type": "electric_scooter"}, {"bike_id": "1f91eba276413f41eae917594af16023", "is_reserved": 0, "fusion_lon": 0.0, "lat": 38.900815333333334, "is_disabled": 0, "name": "1f91eba276413f41eae917594af16023", "fusion_lat": 0.0, "rental_uris": {"ios": "https://dc.lft.to/lastmile_qr_scan", "android": "https://dc.lft.to/lastmile_qr_scan"}, "lon": -77.02525816666666, "type": "electric_scooter"}, {"bike_id": "30b5850ea19e8e3e445238443e58003c", "is_reserved": 0, "fusion_lon": 0.0, "lat": 38.913336666666666, "is_disabled": 0, "name": "30b5850ea19e8e3e445238443e58003c", "fusion_lat": 0.0, "rental_uris": {"ios": "https://dc.lft.to/lastmile_qr_scan", "android": "https://dc.lft.to/lastmile_qr_scan"}, "lon": -77.048404, "type": "electric_scooter"}, {"bike_id": "a9d797127b2ad2e8a90c9f2db3705386", "is_reserved": 0, "fusion_lon": 0.0, "lat": 38.890918, "is_disabled": 0, "name": "a9d797127b2ad2e8a90c9f2db3705386", "fusion_lat": 0.0, "rental_uris": {"ios": "https://dc.lft.to/lastmile_qr_scan", "android": "https://dc.lft.to/lastmile_qr_scan"}, "lon": -76.987494, "type": "electric_scooter"}, {"bike_id": "7d18e778ff24932364dbeaa3be0f5551", "is_reserved": 0, "fusion_lon": 0.0, "lat": 38.90723, "is_disabled": 0, "name": "7d18e778ff24932364dbeaa3be0f5551", "fusion_lat": 0.0, "rental_uris": {"ios": "https://dc.lft.to/lastmile_qr_scan", "android": "https://dc.lft.to/lastmile_qr_scan"}, "lon": -77.02538833333334, "type": "electric_scooter"}, {"bike_id": "1a28be2b34b8a05585594d8fd1e4202d", "is_reserved": 0, "fusion_lon": 0.0, "lat": 38.866209833333336, "is_disabled": 0, "name": "1a28be2b34b8a05585594d8fd1e4202d", "fusion_lat": 0.0, "rental_uris": {"ios": "https://dc.lft.to/lastmile_qr_scan", "android": "https://dc.lft.to/lastmile_qr_scan"}, "lon": -76.98659766666667, "type": "electric_scooter"}, {"bike_id": "561d0abefd6a7b1440ad9064fd1ab51d", "is_reserved": 0, "fusion_lon": 0.0, "lat": 38.91816583333333, "is_disabled": 0, "name": "561d0abefd6a7b1440ad9064fd1ab51d", "fusion_lat": 0.0, "rental_uris": {"ios": "https://dc.lft.to/lastmile_qr_scan", "android": "https://dc.lft.to/lastmile_qr_scan"}, "lon": -77.0417115, "type": "electric_scooter"}, {"bike_id": "f6d2be9ede57a5f71dd299b14387b7fc", "is_reserved": 0, "fusion_lon": 0.0, "lat": 38.881344666666664, "is_disabled": 0, "name": "f6d2be9ede57a5f71dd299b14387b7fc", "fusion_lat": 0.0, "rental_uris": {"ios": "https://dc.lft.to/lastmile_qr_scan", "android": "https://dc.lft.to/lastmile_qr_scan"}, "lon": -77.02711683333334, "type": "electric_bike"}, {"bike_id": "f35e8f5322a0e0edd31d4da652d766e0", "is_reserved": 0, "fusion_lon": 0.0, "lat": 38.90191, "is_disabled": 0, "name": "f35e8f5322a0e0edd31d4da652d766e0", "fusion_lat": 0.0, "rental_uris": {"ios": "https://dc.lft.to/lastmile_qr_scan", "android": "https://dc.lft.to/lastmile_qr_scan"}, "lon": -76.929957, "type": "electric_scooter"}, {"bike_id": "18e48e92a56f0cd471691b0a1345600a", "is_reserved": 0, "fusion_lon": 0.0, "lat": 38.89966666666667, "is_disabled": 0, "name": "18e48e92a56f0cd471691b0a1345600a", "fusion_lat": 0.0, "rental_uris": {"ios": "https://dc.lft.to/lastmile_qr_scan", "android": "https://dc.lft.to/lastmile_qr_scan"}, "lon": -77.01628883333333, "type": "electric_scooter"}, {"bike_id": "a0b7450d0f5b44cd90157616099939aa", "is_reserved": 0, "fusion_lon": 0.0, "lat": 38.9157765, "is_disabled": 0, "name": "a0b7450d0f5b44cd90157616099939aa", "fusion_lat": 0.0, "rental_uris": {"ios": "https://dc.lft.to/lastmile_qr_scan", "android": "https://dc.lft.to/lastmile_qr_scan"}, "lon": -77.050286, "type": "electric_bike"}, {"bike_id": "ed72959cbf083f4c52d6eb08547970b8", "is_reserved": 0, "fusion_lon": 0.0, "lat": 38.9083845, "is_disabled": 0, "name": "ed72959cbf083f4c52d6eb08547970b8", "fusion_lat": 0.0, "rental_uris": {"ios": "https://dc.lft.to/lastmile_qr_scan", "android": "https://dc.lft.to/lastmile_qr_scan"}, "lon": -77.02589166666667, "type": "electric_scooter"}, {"bike_id": "968c76443adb369b9394317c61cd20d1", "is_reserved": 0, "fusion_lon": 0.0, "lat": 38.883727666666665, "is_disabled": 0, "name": "968c76443adb369b9394317c61cd20d1", "fusion_lat": 0.0, "rental_uris": {"ios": "https://dc.lft.to/lastmile_qr_scan", "android": "https://dc.lft.to/lastmile_qr_scan"}, "lon": -76.99562683333333, "type": "electric_scooter"}, {"bike_id": "ac8e4919d2cc3c8d1c490d3f84b94ec8", "is_reserved": 0, "fusion_lon": 0.0, "lat": 38.884080166666664, "is_disabled": 0, "name": "ac8e4919d2cc3c8d1c490d3f84b94ec8", "fusion_lat": 0.0, "rental_uris": {"ios": "https://dc.lft.to/lastmile_qr_scan", "android": "https://dc.lft.to/lastmile_qr_scan"}, "lon": -77.02615333333334, "type": "electric_scooter"}, {"bike_id": "e2a4ce9aa11c3bec79c822a200fa0820", "is_reserved": 0, "fusion_lon": 0.0, "lat": 38.905646833333336, "is_disabled": 0, "name": "e2a4ce9aa11c3bec79c822a200fa0820", "fusion_lat": 0.0, "rental_uris": {"ios": "https://dc.lft.to/lastmile_qr_scan", "android": "https://dc.lft.to/lastmile_qr_scan"}, "lon": -77.03828433333334, "type": "electric_scooter"}, {"bike_id": "fe60f6a2f74d90d2df13b31d6e1dfbff", "is_reserved": 0, "fusion_lon": 0.0, "lat": 38.924992333333336, "is_disabled": 0, "name": "fe60f6a2f74d90d2df13b31d6e1dfbff", "fusion_lat": 0.0, "rental_uris": {"ios": "https://dc.lft.to/lastmile_qr_scan", "android": "https://dc.lft.to/lastmile_qr_scan"}, "lon": -77.05758033333333, "type": "electric_scooter"}, {"bike_id": "4680f693cc186bfa42449c1936f0c397", "is_reserved": 0, "fusion_lon": 0.0, "lat": 38.9002215, "is_disabled": 0, "name": "4680f693cc186bfa42449c1936f0c397", "fusion_lat": 0.0, "rental_uris": {"ios": "https://dc.lft.to/lastmile_qr_scan", "android": "https://dc.lft.to/lastmile_qr_scan"}, "lon": -77.04647666666666, "type": "electric_scooter"}, {"bike_id": "3a950c3bbb12665dc012998be08ac1c0", "is_reserved": 0, "fusion_lon": 0.0, "lat": 38.860168, "is_disabled": 0, "name": "3a950c3bbb12665dc012998be08ac1c0", "fusion_lat": 0.0, "rental_uris": {"ios": "https://dc.lft.to/lastmile_qr_scan", "android": "https://dc.lft.to/lastmile_qr_scan"}, "lon": -77.05769383333333, "type": "electric_bike"}, {"bike_id": "544c72a2f44ab82f79d117335e4477cb", "is_reserved": 0, "fusion_lon": 0.0, "lat": 38.900788166666665, "is_disabled": 0, "name": "544c72a2f44ab82f79d117335e4477cb", "fusion_lat": 0.0, "rental_uris": {"ios": "https://dc.lft.to/lastmile_qr_scan", "android": "https://dc.lft.to/lastmile_qr_scan"}, "lon": -76.9386935, "type": "electric_scooter"}, {"bike_id": "7f91b22aa54b3a97e9155f46654692f3", "is_reserved": 0, "fusion_lon": 0.0, "lat": 38.8972765, "is_disabled": 0, "name": "7f91b22aa54b3a97e9155f46654692f3", "fusion_lat": 0.0, "rental_uris": {"ios": "https://dc.lft.to/lastmile_qr_scan", "android": "https://dc.lft.to/lastmile_qr_scan"}, "lon": -77.05566766666666, "type": "electric_scooter"}, {"bike_id": "ee16703d3bc688b26d5a2a0522e339e6", "is_reserved": 0, "fusion_lon": 0.0, "lat": 38.903736, "is_disabled": 0, "name": "ee16703d3bc688b26d5a2a0522e339e6", "fusion_lat": 0.0, "rental_uris": {"ios": "https://dc.lft.to/lastmile_qr_scan", "android": "https://dc.lft.to/lastmile_qr_scan"}, "lon": -77.04484866666667, "type": "electric_scooter"}, {"bike_id": "2b9529a0a623f0dc746ab1c2a6e98a55", "is_reserved": 0, "fusion_lon": 0.0, "lat": 38.9111655, "is_disabled": 0, "name": "2b9529a0a623f0dc746ab1c2a6e98a55", "fusion_lat": 0.0, "rental_uris": {"ios": "https://dc.lft.to/lastmile_qr_scan", "android": "https://dc.lft.to/lastmile_qr_scan"}, "lon": -77.00603483333333, "type": "electric_scooter"}, {"bike_id": "c9214bf3fc00282d64e38229ade84648", "is_reserved": 0, "fusion_lon": 0.0, "lat": 38.88848766666667, "is_disabled": 0, "name": "c9214bf3fc00282d64e38229ade84648", "fusion_lat": 0.0, "rental_uris": {"ios": "https://dc.lft.to/lastmile_qr_scan", "android": "https://dc.lft.to/lastmile_qr_scan"}, "lon": -76.92680233333333, "type": "electric_scooter"}, {"bike_id": "e375deb6b7e968821eef90c6b161a5a5", "is_reserved": 0, "fusion_lon": 0.0, "lat": 38.948058833333334, "is_disabled": 0, "name": "e375deb6b7e968821eef90c6b161a5a5", "fusion_lat": 0.0, "rental_uris": {"ios": "https://dc.lft.to/lastmile_qr_scan", "android": "https://dc.lft.to/lastmile_qr_scan"}, "lon": -77.07908933333333, "type": "electric_scooter"}, {"bike_id": "b8cd62db44e72ebf68acee0c4d8ea537", "is_reserved": 0, "fusion_lon": 0.0, "lat": 38.949707833333335, "is_disabled": 0, "name": "b8cd62db44e72ebf68acee0c4d8ea537", "fusion_lat": 0.0, "rental_uris": {"ios": "https://dc.lft.to/lastmile_qr_scan", "android": "https://dc.lft.to/lastmile_qr_scan"}, "lon": -76.972845, "type": "electric_bike"}, {"bike_id": "15ffcbadc9328e7a33d2f5cf6d711c04", "is_reserved": 0, "fusion_lon": 0.0, "lat": 38.93084016666667, "is_disabled": 0, "name": "15ffcbadc9328e7a33d2f5cf6d711c04", "fusion_lat": 0.0, "rental_uris": {"ios": "https://dc.lft.to/lastmile_qr_scan", "android": "https://dc.lft.to/lastmile_qr_scan"}, "lon": -77.03132516666666, "type": "electric_scooter"}, {"bike_id": "a002e42f3f5ec13accf0613fca3b591d", "is_reserved": 0, "fusion_lon": 0.0, "lat": 38.88745316666667, "is_disabled": 0, "name": "a002e42f3f5ec13accf0613fca3b591d", "fusion_lat": 0.0, "rental_uris": {"ios": "https://dc.lft.to/lastmile_qr_scan", "android": "https://dc.lft.to/lastmile_qr_scan"}, "lon": -77.031564, "type": "electric_scooter"}, {"bike_id": "bdbb24f65fd6f9241ea2055c90d189e8", "is_reserved": 0, "fusion_lon": 0.0, "lat": 38.90371016666667, "is_disabled": 0, "name": "bdbb24f65fd6f9241ea2055c90d189e8", "fusion_lat": 0.0, "rental_uris": {"ios": "https://dc.lft.to/lastmile_qr_scan", "android": "https://dc.lft.to/lastmile_qr_scan"}, "lon": -77.04505583333334, "type": "electric_scooter"}, {"bike_id": "ce7b29154c09f7439621f04e55e559c3", "is_reserved": 0, "fusion_lon": 0.0, "lat": 38.866233333333334, "is_disabled": 0, "name": "ce7b29154c09f7439621f04e55e559c3", "fusion_lat": 0.0, "rental_uris": {"ios": "https://dc.lft.to/lastmile_qr_scan", "android": "https://dc.lft.to/lastmile_qr_scan"}, "lon": -76.945712, "type": "electric_bike"}, {"bike_id": "b169e98db9a8cc2cc6155dbbbbd84a00", "is_reserved": 0, "fusion_lon": 0.0, "lat": 38.916081166666665, "is_disabled": 0, "name": "b169e98db9a8cc2cc6155dbbbbd84a00", "fusion_lat": 0.0, "rental_uris": {"ios": "https://dc.lft.to/lastmile_qr_scan", "android": "https://dc.lft.to/lastmile_qr_scan"}, "lon": -76.98383783333334, "type": "electric_scooter"}, {"bike_id": "350e3ab57538281853376275ed525fe4", "is_reserved": 0, "fusion_lon": 0.0, "lat": 38.904304333333336, "is_disabled": 0, "name": "350e3ab57538281853376275ed525fe4", "fusion_lat": 0.0, "rental_uris": {"ios": "https://dc.lft.to/lastmile_qr_scan", "android": "https://dc.lft.to/lastmile_qr_scan"}, "lon": -77.02895066666666, "type": "electric_scooter"}, {"bike_id": "1feed9e87b4feab3e7aa329ccf3a55c4", "is_reserved": 0, "fusion_lon": 0.0, "lat": 38.912827166666666, "is_disabled": 0, "name": "1feed9e87b4feab3e7aa329ccf3a55c4", "fusion_lat": 0.0, "rental_uris": {"ios": "https://dc.lft.to/lastmile_qr_scan", "android": "https://dc.lft.to/lastmile_qr_scan"}, "lon": -77.03856, "type": "electric_scooter"}, {"bike_id": "82393f999729cb239b64b2c0de10394c", "is_reserved": 0, "fusion_lon": 0.0, "lat": 38.925731, "is_disabled": 0, "name": "82393f999729cb239b64b2c0de10394c", "fusion_lat": 0.0, "rental_uris": {"ios": "https://dc.lft.to/lastmile_qr_scan", "android": "https://dc.lft.to/lastmile_qr_scan"}, "lon": -77.039304, "type": "electric_scooter"}, {"bike_id": "aefa455c114fc362c0fce3de1cd5457b", "is_reserved": 0, "fusion_lon": 0.0, "lat": 38.934503666666664, "is_disabled": 0, "name": "aefa455c114fc362c0fce3de1cd5457b", "fusion_lat": 0.0, "rental_uris": {"ios": "https://dc.lft.to/lastmile_qr_scan", "android": "https://dc.lft.to/lastmile_qr_scan"}, "lon": -77.07231166666666, "type": "electric_scooter"}, {"bike_id": "9bfa25c9732dd54ab1115b94699cf8a0", "is_reserved": 0, "fusion_lon": 0.0, "lat": 38.88576183333333, "is_disabled": 0, "name": "9bfa25c9732dd54ab1115b94699cf8a0", "fusion_lat": 0.0, "rental_uris": {"ios": "https://dc.lft.to/lastmile_qr_scan", "android": "https://dc.lft.to/lastmile_qr_scan"}, "lon": -77.01545216666666, "type": "electric_scooter"}, {"bike_id": "dc8e9589bba1fdad6297b7dd71b72eb8", "is_reserved": 0, "fusion_lon": 0.0, "lat": 38.8981035, "is_disabled": 0, "name": "dc8e9589bba1fdad6297b7dd71b72eb8", "fusion_lat": 0.0, "rental_uris": {"ios": "https://dc.lft.to/lastmile_qr_scan", "android": "https://dc.lft.to/lastmile_qr_scan"}, "lon": -77.02947716666667, "type": "electric_scooter"}, {"bike_id": "619bb35f44fbdc132b615311ee8fd57e", "is_reserved": 0, "fusion_lon": 0.0, "lat": 38.88318433333333, "is_disabled": 0, "name": "619bb35f44fbdc132b615311ee8fd57e", "fusion_lat": 0.0, "rental_uris": {"ios": "https://dc.lft.to/lastmile_qr_scan", "android": "https://dc.lft.to/lastmile_qr_scan"}, "lon": -77.01741733333333, "type": "electric_scooter"}, {"bike_id": "9d9f823cb394742189b77d578f5d23f1", "is_reserved": 0, "fusion_lon": 0.0, "lat": 38.925577, "is_disabled": 0, "name": "9d9f823cb394742189b77d578f5d23f1", "fusion_lat": 0.0, "rental_uris": {"ios": "https://dc.lft.to/lastmile_qr_scan", "android": "https://dc.lft.to/lastmile_qr_scan"}, "lon": -77.03910933333333, "type": "electric_scooter"}, {"bike_id": "94e436cf87f1070358dc3dd5f21b8610", "is_reserved": 0, "fusion_lon": 0.0, "lat": 38.89743883333333, "is_disabled": 0, "name": "94e436cf87f1070358dc3dd5f21b8610", "fusion_lat": 0.0, "rental_uris": {"ios": "https://dc.lft.to/lastmile_qr_scan", "android": "https://dc.lft.to/lastmile_qr_scan"}, "lon": -77.03027883333333, "type": "electric_scooter"}, {"bike_id": "8ff5bd01eafacfc65bd5d73cb17db6f7", "is_reserved": 0, "fusion_lon": 0.0, "lat": 38.90255, "is_disabled": 0, "name": "8ff5bd01eafacfc65bd5d73cb17db6f7", "fusion_lat": 0.0, "rental_uris": {"ios": "https://dc.lft.to/lastmile_qr_scan", "android": "https://dc.lft.to/lastmile_qr_scan"}, "lon": -77.03941116666667, "type": "electric_scooter"}, {"bike_id": "35c7dbf436bbf5425a83750d909b1827", "is_reserved": 0, "fusion_lon": 0.0, "lat": 38.917208, "is_disabled": 0, "name": "35c7dbf436bbf5425a83750d909b1827", "fusion_lat": 0.0, "rental_uris": {"ios": "https://dc.lft.to/lastmile_qr_scan", "android": "https://dc.lft.to/lastmile_qr_scan"}, "lon": -77.03105633333334, "type": "electric_scooter"}, {"bike_id": "72c397107f52552a405205d69a466d2c", "is_reserved": 0, "fusion_lon": 0.0, "lat": 38.9200675, "is_disabled": 0, "name": "72c397107f52552a405205d69a466d2c", "fusion_lat": 0.0, "rental_uris": {"ios": "https://dc.lft.to/lastmile_qr_scan", "android": "https://dc.lft.to/lastmile_qr_scan"}, "lon": -77.03777333333333, "type": "electric_scooter"}, {"bike_id": "ec55769c131f3cb8b7196b51ea3f2382", "is_reserved": 0, "fusion_lon": 0.0, "lat": 38.90289033333333, "is_disabled": 0, "name": "ec55769c131f3cb8b7196b51ea3f2382", "fusion_lat": 0.0, "rental_uris": {"ios": "https://dc.lft.to/lastmile_qr_scan", "android": "https://dc.lft.to/lastmile_qr_scan"}, "lon": -77.0344125, "type": "electric_scooter"}, {"bike_id": "be527efb150d9fed6cda87ddee3ed6f3", "is_reserved": 0, "fusion_lon": 0.0, "lat": 38.88496633333333, "is_disabled": 0, "name": "be527efb150d9fed6cda87ddee3ed6f3", "fusion_lat": 0.0, "rental_uris": {"ios": "https://dc.lft.to/lastmile_qr_scan", "android": "https://dc.lft.to/lastmile_qr_scan"}, "lon": -77.0347065, "type": "electric_scooter"}, {"bike_id": "83b925e98efa82cb94f0439cceb321bb", "is_reserved": 0, "fusion_lon": 0.0, "lat": 38.93148016666667, "is_disabled": 0, "name": "83b925e98efa82cb94f0439cceb321bb", "fusion_lat": 0.0, "rental_uris": {"ios": "https://dc.lft.to/lastmile_qr_scan", "android": "https://dc.lft.to/lastmile_qr_scan"}, "lon": -77.05711233333334, "type": "electric_scooter"}, {"bike_id": "41461ad43774482a7f86fcef10d2170d", "is_reserved": 0, "fusion_lon": 0.0, "lat": 38.898831333333334, "is_disabled": 0, "name": "41461ad43774482a7f86fcef10d2170d", "fusion_lat": 0.0, "rental_uris": {"ios": "https://dc.lft.to/lastmile_qr_scan", "android": "https://dc.lft.to/lastmile_qr_scan"}, "lon": -77.03933316666667, "type": "electric_scooter"}, {"bike_id": "999c8066e5aec6c1c7e1db39265d0c0a", "is_reserved": 0, "fusion_lon": 0.0, "lat": 38.866657333333336, "is_disabled": 0, "name": "999c8066e5aec6c1c7e1db39265d0c0a", "fusion_lat": 0.0, "rental_uris": {"ios": "https://dc.lft.to/lastmile_qr_scan", "android": "https://dc.lft.to/lastmile_qr_scan"}, "lon": -76.989062, "type": "electric_scooter"}, {"bike_id": "248fe6c0d336065f1eeaca069c0b314c", "is_reserved": 0, "fusion_lon": 0.0, "lat": 38.93690766666667, "is_disabled": 0, "name": "248fe6c0d336065f1eeaca069c0b314c", "fusion_lat": 0.0, "rental_uris": {"ios": "https://dc.lft.to/lastmile_qr_scan", "android": "https://dc.lft.to/lastmile_qr_scan"}, "lon": -77.0271025, "type": "electric_scooter"}, {"bike_id": "83540dc2bd1f54b16ae8bfbc39dfeb1d", "is_reserved": 0, "fusion_lon": 0.0, "lat": 38.91877016666667, "is_disabled": 0, "name": "83540dc2bd1f54b16ae8bfbc39dfeb1d", "fusion_lat": 0.0, "rental_uris": {"ios": "https://dc.lft.to/lastmile_qr_scan", "android": "https://dc.lft.to/lastmile_qr_scan"}, "lon": -77.04454683333333, "type": "electric_scooter"}, {"bike_id": "f4084c100fd4b5833c830dfc1ce33bec", "is_reserved": 0, "fusion_lon": 0.0, "lat": 38.93110883333333, "is_disabled": 0, "name": "f4084c100fd4b5833c830dfc1ce33bec", "fusion_lat": 0.0, "rental_uris": {"ios": "https://dc.lft.to/lastmile_qr_scan", "android": "https://dc.lft.to/lastmile_qr_scan"}, "lon": -77.02140683333333, "type": "electric_scooter"}, {"bike_id": "a94d4f1cd2ce23216003b98eb3d468c6", "is_reserved": 0, "fusion_lon": 0.0, "lat": 38.90490883333333, "is_disabled": 0, "name": "a94d4f1cd2ce23216003b98eb3d468c6", "fusion_lat": 0.0, "rental_uris": {"ios": "https://dc.lft.to/lastmile_qr_scan", "android": "https://dc.lft.to/lastmile_qr_scan"}, "lon": -77.04349183333333, "type": "electric_scooter"}, {"bike_id": "841dff89e5eb939f1a53977420d9a224", "is_reserved": 0, "fusion_lon": 0.0, "lat": 38.89063566666667, "is_disabled": 0, "name": "841dff89e5eb939f1a53977420d9a224", "fusion_lat": 0.0, "rental_uris": {"ios": "https://dc.lft.to/lastmile_qr_scan", "android": "https://dc.lft.to/lastmile_qr_scan"}, "lon": -77.02302783333333, "type": "electric_scooter"}, {"bike_id": "f73a47a79aca995b9575ed7af922e20a", "is_reserved": 0, "fusion_lon": 0.0, "lat": 38.898323500000004, "is_disabled": 0, "name": "f73a47a79aca995b9575ed7af922e20a", "fusion_lat": 0.0, "rental_uris": {"ios": "https://dc.lft.to/lastmile_qr_scan", "android": "https://dc.lft.to/lastmile_qr_scan"}, "lon": -76.946293, "type": "electric_scooter"}, {"bike_id": "05dc9d14b199f68491e63e606ae1abe7", "is_reserved": 0, "fusion_lon": 0.0, "lat": 38.90933483333333, "is_disabled": 0, "name": "05dc9d14b199f68491e63e606ae1abe7", "fusion_lat": 0.0, "rental_uris": {"ios": "https://dc.lft.to/lastmile_qr_scan", "android": "https://dc.lft.to/lastmile_qr_scan"}, "lon": -76.9989435, "type": "electric_scooter"}, {"bike_id": "91d0a5f78731bb672390f32bea8f98ea", "is_reserved": 0, "fusion_lon": 0.0, "lat": 38.964926166666665, "is_disabled": 0, "name": "91d0a5f78731bb672390f32bea8f98ea", "fusion_lat": 0.0, "rental_uris": {"ios": "https://dc.lft.to/lastmile_qr_scan", "android": "https://dc.lft.to/lastmile_qr_scan"}, "lon": -77.06491433333333, "type": "electric_bike"}, {"bike_id": "78fba6b6380e5627ba43daa3781e1fa6", "is_reserved": 0, "fusion_lon": 0.0, "lat": 38.91035866666667, "is_disabled": 0, "name": "78fba6b6380e5627ba43daa3781e1fa6", "fusion_lat": 0.0, "rental_uris": {"ios": "https://dc.lft.to/lastmile_qr_scan", "android": "https://dc.lft.to/lastmile_qr_scan"}, "lon": -77.043885, "type": "electric_scooter"}, {"bike_id": "4ca08854ad28bb2e5e9099bee718222b", "is_reserved": 0, "fusion_lon": 0.0, "lat": 38.88433233333333, "is_disabled": 0, "name": "4ca08854ad28bb2e5e9099bee718222b", "fusion_lat": 0.0, "rental_uris": {"ios": "https://dc.lft.to/lastmile_qr_scan", "android": "https://dc.lft.to/lastmile_qr_scan"}, "lon": -76.95754016666666, "type": "electric_scooter"}, {"bike_id": "652c2852a424ba504942a55d348c5942", "is_reserved": 0, "fusion_lon": 0.0, "lat": 38.89018933333333, "is_disabled": 0, "name": "652c2852a424ba504942a55d348c5942", "fusion_lat": 0.0, "rental_uris": {"ios": "https://dc.lft.to/lastmile_qr_scan", "android": "https://dc.lft.to/lastmile_qr_scan"}, "lon": -76.937348, "type": "electric_scooter"}, {"bike_id": "45b4c233596c9235d95ff839ea52e673", "is_reserved": 0, "fusion_lon": 0.0, "lat": 38.90980416666667, "is_disabled": 0, "name": "45b4c233596c9235d95ff839ea52e673", "fusion_lat": 0.0, "rental_uris": {"ios": "https://dc.lft.to/lastmile_qr_scan", "android": "https://dc.lft.to/lastmile_qr_scan"}, "lon": -77.04870916666667, "type": "electric_scooter"}, {"bike_id": "a86f13ff8087430f8430366f38c22546", "is_reserved": 0, "fusion_lon": 0.0, "lat": 38.90291666666667, "is_disabled": 0, "name": "a86f13ff8087430f8430366f38c22546", "fusion_lat": 0.0, "rental_uris": {"ios": "https://dc.lft.to/lastmile_qr_scan", "android": "https://dc.lft.to/lastmile_qr_scan"}, "lon": -77.038529, "type": "electric_scooter"}, {"bike_id": "c915fafea695d8fbc84e57eec1c25862", "is_reserved": 0, "fusion_lon": 0.0, "lat": 38.91730833333333, "is_disabled": 0, "name": "c915fafea695d8fbc84e57eec1c25862", "fusion_lat": 0.0, "rental_uris": {"ios": "https://dc.lft.to/lastmile_qr_scan", "android": "https://dc.lft.to/lastmile_qr_scan"}, "lon": -77.007906, "type": "electric_scooter"}, {"bike_id": "cec109fc5a21f975a3c77c3c2160af00", "is_reserved": 0, "fusion_lon": 0.0, "lat": 38.9121915, "is_disabled": 0, "name": "cec109fc5a21f975a3c77c3c2160af00", "fusion_lat": 0.0, "rental_uris": {"ios": "https://dc.lft.to/lastmile_qr_scan", "android": "https://dc.lft.to/lastmile_qr_scan"}, "lon": -77.03793233333333, "type": "electric_scooter"}, {"bike_id": "2908796627b96f64c3138451eba09709", "is_reserved": 0, "fusion_lon": 0.0, "lat": 38.900086, "is_disabled": 0, "name": "2908796627b96f64c3138451eba09709", "fusion_lat": 0.0, "rental_uris": {"ios": "https://dc.lft.to/lastmile_qr_scan", "android": "https://dc.lft.to/lastmile_qr_scan"}, "lon": -77.04392333333334, "type": "electric_scooter"}, {"bike_id": "c994dea19f6590f09c2962f3320ddaea", "is_reserved": 0, "fusion_lon": 0.0, "lat": 38.92375966666667, "is_disabled": 0, "name": "c994dea19f6590f09c2962f3320ddaea", "fusion_lat": 0.0, "rental_uris": {"ios": "https://dc.lft.to/lastmile_qr_scan", "android": "https://dc.lft.to/lastmile_qr_scan"}, "lon": -77.05176816666666, "type": "electric_scooter"}, {"bike_id": "9734b57d2048b8f1222330268ec9c566", "is_reserved": 0, "fusion_lon": 0.0, "lat": 38.89017, "is_disabled": 0, "name": "9734b57d2048b8f1222330268ec9c566", "fusion_lat": 0.0, "rental_uris": {"ios": "https://dc.lft.to/lastmile_qr_scan", "android": "https://dc.lft.to/lastmile_qr_scan"}, "lon": -76.9373865, "type": "electric_scooter"}, {"bike_id": "a5116f7d461da8437119fb46228cf757", "is_reserved": 0, "fusion_lon": 0.0, "lat": 38.928149, "is_disabled": 0, "name": "a5116f7d461da8437119fb46228cf757", "fusion_lat": 0.0, "rental_uris": {"ios": "https://dc.lft.to/lastmile_qr_scan", "android": "https://dc.lft.to/lastmile_qr_scan"}, "lon": -77.03701216666667, "type": "electric_scooter"}, {"bike_id": "13188406bbd74fbcf7b3e9458e2365cb", "is_reserved": 0, "fusion_lon": 0.0, "lat": 38.87866783333333, "is_disabled": 0, "name": "13188406bbd74fbcf7b3e9458e2365cb", "fusion_lat": 0.0, "rental_uris": {"ios": "https://dc.lft.to/lastmile_qr_scan", "android": "https://dc.lft.to/lastmile_qr_scan"}, "lon": -76.98985, "type": "electric_scooter"}, {"bike_id": "eefc73f98e8d8ae1ec46e4dc6d19454f", "is_reserved": 0, "fusion_lon": 0.0, "lat": 38.877332833333334, "is_disabled": 0, "name": "eefc73f98e8d8ae1ec46e4dc6d19454f", "fusion_lat": 0.0, "rental_uris": {"ios": "https://dc.lft.to/lastmile_qr_scan", "android": "https://dc.lft.to/lastmile_qr_scan"}, "lon": -77.11848683333334, "type": "electric_bike"}, {"bike_id": "abd709bf03f85c946d22e2d1ac816752", "is_reserved": 0, "fusion_lon": 0.0, "lat": 38.9061585, "is_disabled": 0, "name": "abd709bf03f85c946d22e2d1ac816752", "fusion_lat": 0.0, "rental_uris": {"ios": "https://dc.lft.to/lastmile_qr_scan", "android": "https://dc.lft.to/lastmile_qr_scan"}, "lon": -77.0412525, "type": "electric_scooter"}, {"bike_id": "af8ba496112101c45751ca0fb720efc4", "is_reserved": 0, "fusion_lon": 0.0, "lat": 38.90297783333333, "is_disabled": 0, "name": "af8ba496112101c45751ca0fb720efc4", "fusion_lat": 0.0, "rental_uris": {"ios": "https://dc.lft.to/lastmile_qr_scan", "android": "https://dc.lft.to/lastmile_qr_scan"}, "lon": -77.03443633333333, "type": "electric_scooter"}, {"bike_id": "5005631cc8305b534af9d41b19a4a6a4", "is_reserved": 0, "fusion_lon": 0.0, "lat": 38.93279183333333, "is_disabled": 0, "name": "5005631cc8305b534af9d41b19a4a6a4", "fusion_lat": 0.0, "rental_uris": {"ios": "https://dc.lft.to/lastmile_qr_scan", "android": "https://dc.lft.to/lastmile_qr_scan"}, "lon": -77.03642616666667, "type": "electric_scooter"}, {"bike_id": "84f5c200ae7ed15ca22290809a4456dc", "is_reserved": 0, "fusion_lon": 0.0, "lat": 38.912668, "is_disabled": 0, "name": "84f5c200ae7ed15ca22290809a4456dc", "fusion_lat": 0.0, "rental_uris": {"ios": "https://dc.lft.to/lastmile_qr_scan", "android": "https://dc.lft.to/lastmile_qr_scan"}, "lon": -77.036253, "type": "electric_scooter"}, {"bike_id": "556181f724e00428a273f624795c1126", "is_reserved": 0, "fusion_lon": 0.0, "lat": 38.9020125, "is_disabled": 0, "name": "556181f724e00428a273f624795c1126", "fusion_lat": 0.0, "rental_uris": {"ios": "https://dc.lft.to/lastmile_qr_scan", "android": "https://dc.lft.to/lastmile_qr_scan"}, "lon": -77.02174716666667, "type": "electric_scooter"}, {"bike_id": "01ed7c2f04ce496962eec7850476b5a7", "is_reserved": 0, "fusion_lon": 0.0, "lat": 38.88396483333333, "is_disabled": 0, "name": "01ed7c2f04ce496962eec7850476b5a7", "fusion_lat": 0.0, "rental_uris": {"ios": "https://dc.lft.to/lastmile_qr_scan", "android": "https://dc.lft.to/lastmile_qr_scan"}, "lon": -77.01782833333333, "type": "electric_scooter"}, {"bike_id": "a502bbc1ba4aedd454b754723675cd4e", "is_reserved": 0, "fusion_lon": 0.0, "lat": 38.92130616666667, "is_disabled": 0, "name": "a502bbc1ba4aedd454b754723675cd4e", "fusion_lat": 0.0, "rental_uris": {"ios": "https://dc.lft.to/lastmile_qr_scan", "android": "https://dc.lft.to/lastmile_qr_scan"}, "lon": -77.04133433333334, "type": "electric_scooter"}, {"bike_id": "8e6222af0c7d7dc34f43fecf91ab8fd3", "is_reserved": 0, "fusion_lon": 0.0, "lat": 38.8791835, "is_disabled": 0, "name": "8e6222af0c7d7dc34f43fecf91ab8fd3", "fusion_lat": 0.0, "rental_uris": {"ios": "https://dc.lft.to/lastmile_qr_scan", "android": "https://dc.lft.to/lastmile_qr_scan"}, "lon": -77.01342816666667, "type": "electric_scooter"}, {"bike_id": "2cdcee12eed554784844a7e34c4dbbde", "is_reserved": 0, "fusion_lon": 0.0, "lat": 38.88504233333333, "is_disabled": 0, "name": "2cdcee12eed554784844a7e34c4dbbde", "fusion_lat": 0.0, "rental_uris": {"ios": "https://dc.lft.to/lastmile_qr_scan", "android": "https://dc.lft.to/lastmile_qr_scan"}, "lon": -77.00567483333333, "type": "electric_scooter"}, {"bike_id": "d0f80349aedbd95360089878adf673cb", "is_reserved": 0, "fusion_lon": 0.0, "lat": 38.89228683333333, "is_disabled": 0, "name": "d0f80349aedbd95360089878adf673cb", "fusion_lat": 0.0, "rental_uris": {"ios": "https://dc.lft.to/lastmile_qr_scan", "android": "https://dc.lft.to/lastmile_qr_scan"}, "lon": -77.02582116666666, "type": "electric_scooter"}, {"bike_id": "2a126940fa0e1ee15971903a389266dc", "is_reserved": 0, "fusion_lon": 0.0, "lat": 38.920843833333336, "is_disabled": 0, "name": "2a126940fa0e1ee15971903a389266dc", "fusion_lat": 0.0, "rental_uris": {"ios": "https://dc.lft.to/lastmile_qr_scan", "android": "https://dc.lft.to/lastmile_qr_scan"}, "lon": -77.02553816666666, "type": "electric_scooter"}, {"bike_id": "2ba7c5b2475ca74baffa12647b556f07", "is_reserved": 0, "fusion_lon": 0.0, "lat": 38.916573666666665, "is_disabled": 0, "name": "2ba7c5b2475ca74baffa12647b556f07", "fusion_lat": 0.0, "rental_uris": {"ios": "https://dc.lft.to/lastmile_qr_scan", "android": "https://dc.lft.to/lastmile_qr_scan"}, "lon": -77.03664616666667, "type": "electric_scooter"}, {"bike_id": "731d3a3b4da61d8be7fe4c80e6850e09", "is_reserved": 0, "fusion_lon": 0.0, "lat": 38.806906166666664, "is_disabled": 0, "name": "731d3a3b4da61d8be7fe4c80e6850e09", "fusion_lat": 0.0, "rental_uris": {"ios": "https://dc.lft.to/lastmile_qr_scan", "android": "https://dc.lft.to/lastmile_qr_scan"}, "lon": -77.0597455, "type": "electric_bike"}, {"bike_id": "82bc9920091396037e1f4b6bd659412a", "is_reserved": 0, "fusion_lon": 0.0, "lat": 38.8968785, "is_disabled": 0, "name": "82bc9920091396037e1f4b6bd659412a", "fusion_lat": 0.0, "rental_uris": {"ios": "https://dc.lft.to/lastmile_qr_scan", "android": "https://dc.lft.to/lastmile_qr_scan"}, "lon": -77.02727516666667, "type": "electric_scooter"}, {"bike_id": "9772b199b4d6484aef0db7d664fa7564", "is_reserved": 0, "fusion_lon": 0.0, "lat": 38.902782333333334, "is_disabled": 0, "name": "9772b199b4d6484aef0db7d664fa7564", "fusion_lat": 0.0, "rental_uris": {"ios": "https://dc.lft.to/lastmile_qr_scan", "android": "https://dc.lft.to/lastmile_qr_scan"}, "lon": -77.0406045, "type": "electric_scooter"}, {"bike_id": "a87a8723d6b49a1d7311e4d8fb955615", "is_reserved": 0, "fusion_lon": 0.0, "lat": 38.93886466666667, "is_disabled": 0, "name": "a87a8723d6b49a1d7311e4d8fb955615", "fusion_lat": 0.0, "rental_uris": {"ios": "https://dc.lft.to/lastmile_qr_scan", "android": "https://dc.lft.to/lastmile_qr_scan"}, "lon": -77.02830483333334, "type": "electric_scooter"}, {"bike_id": "c5bb4dc2ad8ffd7a77534545c6a910fa", "is_reserved": 0, "fusion_lon": 0.0, "lat": 38.9275315, "is_disabled": 0, "name": "c5bb4dc2ad8ffd7a77534545c6a910fa", "fusion_lat": 0.0, "rental_uris": {"ios": "https://dc.lft.to/lastmile_qr_scan", "android": "https://dc.lft.to/lastmile_qr_scan"}, "lon": -77.0537215, "type": "electric_scooter"}, {"bike_id": "4b2d0656de7541047a38b77df45d43dd", "is_reserved": 0, "fusion_lon": 0.0, "lat": 38.93947033333333, "is_disabled": 0, "name": "4b2d0656de7541047a38b77df45d43dd", "fusion_lat": 0.0, "rental_uris": {"ios": "https://dc.lft.to/lastmile_qr_scan", "android": "https://dc.lft.to/lastmile_qr_scan"}, "lon": -77.03264183333333, "type": "electric_scooter"}, {"bike_id": "b9a4fed5fa2cef076571f4942a903680", "is_reserved": 0, "fusion_lon": 0.0, "lat": 38.923721, "is_disabled": 0, "name": "b9a4fed5fa2cef076571f4942a903680", "fusion_lat": 0.0, "rental_uris": {"ios": "https://dc.lft.to/lastmile_qr_scan", "android": "https://dc.lft.to/lastmile_qr_scan"}, "lon": -77.01911133333333, "type": "electric_scooter"}, {"bike_id": "17856de45d361326909c20fe304d4835", "is_reserved": 0, "fusion_lon": 0.0, "lat": 38.8659185, "is_disabled": 0, "name": "17856de45d361326909c20fe304d4835", "fusion_lat": 0.0, "rental_uris": {"ios": "https://dc.lft.to/lastmile_qr_scan", "android": "https://dc.lft.to/lastmile_qr_scan"}, "lon": -76.932306, "type": "electric_bike"}, {"bike_id": "0469d21906ecd3566d743ebd3fc86bdd", "is_reserved": 0, "fusion_lon": 0.0, "lat": 38.900734666666665, "is_disabled": 0, "name": "0469d21906ecd3566d743ebd3fc86bdd", "fusion_lat": 0.0, "rental_uris": {"ios": "https://dc.lft.to/lastmile_qr_scan", "android": "https://dc.lft.to/lastmile_qr_scan"}, "lon": -77.00740283333333, "type": "electric_scooter"}, {"bike_id": "7dd6c7a9d01bdf105e38d5672f9e8f8a", "is_reserved": 0, "fusion_lon": 0.0, "lat": 38.91800033333333, "is_disabled": 0, "name": "7dd6c7a9d01bdf105e38d5672f9e8f8a", "fusion_lat": 0.0, "rental_uris": {"ios": "https://dc.lft.to/lastmile_qr_scan", "android": "https://dc.lft.to/lastmile_qr_scan"}, "lon": -77.0319155, "type": "electric_scooter"}, {"bike_id": "f0d7befb40ce54867d95d1122fcd1a79", "is_reserved": 0, "fusion_lon": 0.0, "lat": 38.865668, "is_disabled": 0, "name": "f0d7befb40ce54867d95d1122fcd1a79", "fusion_lat": 0.0, "rental_uris": {"ios": "https://dc.lft.to/lastmile_qr_scan", "android": "https://dc.lft.to/lastmile_qr_scan"}, "lon": -76.98953733333333, "type": "electric_scooter"}, {"bike_id": "fbeafe57cf70804b23802ddec09cfe00", "is_reserved": 0, "fusion_lon": 0.0, "lat": 38.923427833333335, "is_disabled": 0, "name": "fbeafe57cf70804b23802ddec09cfe00", "fusion_lat": 0.0, "rental_uris": {"ios": "https://dc.lft.to/lastmile_qr_scan", "android": "https://dc.lft.to/lastmile_qr_scan"}, "lon": -77.01906716666667, "type": "electric_scooter"}, {"bike_id": "3f68b4219ee24255853b5f35663e598a", "is_reserved": 0, "fusion_lon": 0.0, "lat": 38.8522975, "is_disabled": 0, "name": "3f68b4219ee24255853b5f35663e598a", "fusion_lat": 0.0, "rental_uris": {"ios": "https://dc.lft.to/lastmile_qr_scan", "android": "https://dc.lft.to/lastmile_qr_scan"}, "lon": -77.12958883333333, "type": "electric_bike"}, {"bike_id": "4bac08fdb5c5331457d9b0b4a05d6403", "is_reserved": 0, "fusion_lon": 0.0, "lat": 38.939523666666666, "is_disabled": 0, "name": "4bac08fdb5c5331457d9b0b4a05d6403", "fusion_lat": 0.0, "rental_uris": {"ios": "https://dc.lft.to/lastmile_qr_scan", "android": "https://dc.lft.to/lastmile_qr_scan"}, "lon": -77.03252316666666, "type": "electric_scooter"}, {"bike_id": "d039e136330838106731cd0deb78d8fe", "is_reserved": 0, "fusion_lon": 0.0, "lat": 38.892234333333334, "is_disabled": 0, "name": "d039e136330838106731cd0deb78d8fe", "fusion_lat": 0.0, "rental_uris": {"ios": "https://dc.lft.to/lastmile_qr_scan", "android": "https://dc.lft.to/lastmile_qr_scan"}, "lon": -77.02838933333334, "type": "electric_scooter"}, {"bike_id": "b505fe04f068fdd732d9595e72ea9233", "is_reserved": 0, "fusion_lon": 0.0, "lat": 38.904217833333334, "is_disabled": 0, "name": "b505fe04f068fdd732d9595e72ea9233", "fusion_lat": 0.0, "rental_uris": {"ios": "https://dc.lft.to/lastmile_qr_scan", "android": "https://dc.lft.to/lastmile_qr_scan"}, "lon": -77.0344115, "type": "electric_scooter"}, {"bike_id": "fc3adb87bec119df0133583e6af7e0f6", "is_reserved": 0, "fusion_lon": 0.0, "lat": 38.98461116666667, "is_disabled": 0, "name": "fc3adb87bec119df0133583e6af7e0f6", "fusion_lat": 0.0, "rental_uris": {"ios": "https://dc.lft.to/lastmile_qr_scan", "android": "https://dc.lft.to/lastmile_qr_scan"}, "lon": -76.95524083333333, "type": "electric_bike"}, {"bike_id": "997925952ae205498ef7dbb42abf2dfe", "is_reserved": 0, "fusion_lon": 0.0, "lat": 38.92078166666667, "is_disabled": 0, "name": "997925952ae205498ef7dbb42abf2dfe", "fusion_lat": 0.0, "rental_uris": {"ios": "https://dc.lft.to/lastmile_qr_scan", "android": "https://dc.lft.to/lastmile_qr_scan"}, "lon": -77.03656266666667, "type": "electric_scooter"}, {"bike_id": "c40474767da9b919dd0e71bdab333494", "is_reserved": 0, "fusion_lon": 0.0, "lat": 38.90563066666667, "is_disabled": 0, "name": "c40474767da9b919dd0e71bdab333494", "fusion_lat": 0.0, "rental_uris": {"ios": "https://dc.lft.to/lastmile_qr_scan", "android": "https://dc.lft.to/lastmile_qr_scan"}, "lon": -77.03470916666667, "type": "electric_scooter"}, {"bike_id": "d6ecf2068a748d5029fffa22e6cf0d68", "is_reserved": 0, "fusion_lon": 0.0, "lat": 38.90897783333333, "is_disabled": 0, "name": "d6ecf2068a748d5029fffa22e6cf0d68", "fusion_lat": 0.0, "rental_uris": {"ios": "https://dc.lft.to/lastmile_qr_scan", "android": "https://dc.lft.to/lastmile_qr_scan"}, "lon": -77.08621083333334, "type": "electric_scooter"}, {"bike_id": "95a53c75c4ddf62a96ccdc4c086b422a", "is_reserved": 0, "fusion_lon": 0.0, "lat": 38.95552583333333, "is_disabled": 0, "name": "95a53c75c4ddf62a96ccdc4c086b422a", "fusion_lat": 0.0, "rental_uris": {"ios": "https://dc.lft.to/lastmile_qr_scan", "android": "https://dc.lft.to/lastmile_qr_scan"}, "lon": -76.940169, "type": "electric_bike"}, {"bike_id": "89e9bebcd21c909232b8cf8b79c514d5", "is_reserved": 0, "fusion_lon": 0.0, "lat": 38.90726816666667, "is_disabled": 0, "name": "89e9bebcd21c909232b8cf8b79c514d5", "fusion_lat": 0.0, "rental_uris": {"ios": "https://dc.lft.to/lastmile_qr_scan", "android": "https://dc.lft.to/lastmile_qr_scan"}, "lon": -77.04154683333333, "type": "electric_scooter"}, {"bike_id": "5fda058ee0457f7ac0174a8b1fb521ca", "is_reserved": 0, "fusion_lon": 0.0, "lat": 38.89231516666667, "is_disabled": 0, "name": "5fda058ee0457f7ac0174a8b1fb521ca", "fusion_lat": 0.0, "rental_uris": {"ios": "https://dc.lft.to/lastmile_qr_scan", "android": "https://dc.lft.to/lastmile_qr_scan"}, "lon": -77.03217166666667, "type": "electric_scooter"}, {"bike_id": "2ae12847de3464846ab66df7ee5fdc91", "is_reserved": 0, "fusion_lon": 0.0, "lat": 38.880044, "is_disabled": 0, "name": "2ae12847de3464846ab66df7ee5fdc91", "fusion_lat": 0.0, "rental_uris": {"ios": "https://dc.lft.to/lastmile_qr_scan", "android": "https://dc.lft.to/lastmile_qr_scan"}, "lon": -76.91596833333334, "type": "electric_bike"}, {"bike_id": "d4b01cd5fce1f97c29de00d90adbc220", "is_reserved": 0, "fusion_lon": 0.0, "lat": 38.9028585, "is_disabled": 0, "name": "d4b01cd5fce1f97c29de00d90adbc220", "fusion_lat": 0.0, "rental_uris": {"ios": "https://dc.lft.to/lastmile_qr_scan", "android": "https://dc.lft.to/lastmile_qr_scan"}, "lon": -77.03661516666666, "type": "electric_scooter"}, {"bike_id": "370f427ac4ff8777732d6a934478a5e0", "is_reserved": 0, "fusion_lon": 0.0, "lat": 38.9260135, "is_disabled": 0, "name": "370f427ac4ff8777732d6a934478a5e0", "fusion_lat": 0.0, "rental_uris": {"ios": "https://dc.lft.to/lastmile_qr_scan", "android": "https://dc.lft.to/lastmile_qr_scan"}, "lon": -77.02152166666667, "type": "electric_scooter"}, {"bike_id": "2f1bea3463c2f09367a983b163a3f77f", "is_reserved": 0, "fusion_lon": 0.0, "lat": 38.82444483333333, "is_disabled": 0, "name": "2f1bea3463c2f09367a983b163a3f77f", "fusion_lat": 0.0, "rental_uris": {"ios": "https://dc.lft.to/lastmile_qr_scan", "android": "https://dc.lft.to/lastmile_qr_scan"}, "lon": -77.07047, "type": "electric_bike"}, {"bike_id": "ec52e6e5e12ff15f8e6c3d5f406b3247", "is_reserved": 0, "fusion_lon": 0.0, "lat": 38.904343, "is_disabled": 0, "name": "ec52e6e5e12ff15f8e6c3d5f406b3247", "fusion_lat": 0.0, "rental_uris": {"ios": "https://dc.lft.to/lastmile_qr_scan", "android": "https://dc.lft.to/lastmile_qr_scan"}, "lon": -77.02941266666667, "type": "electric_scooter"}, {"bike_id": "4758368f971aa522e7a8d9ba43ebc01a", "is_reserved": 0, "fusion_lon": 0.0, "lat": 38.91270466666667, "is_disabled": 0, "name": "4758368f971aa522e7a8d9ba43ebc01a", "fusion_lat": 0.0, "rental_uris": {"ios": "https://dc.lft.to/lastmile_qr_scan", "android": "https://dc.lft.to/lastmile_qr_scan"}, "lon": -77.04549166666666, "type": "electric_scooter"}, {"bike_id": "3be1d88d74280278939ab1ef4720cbd8", "is_reserved": 0, "fusion_lon": 0.0, "lat": 38.9333615, "is_disabled": 0, "name": "3be1d88d74280278939ab1ef4720cbd8", "fusion_lat": 0.0, "rental_uris": {"ios": "https://dc.lft.to/lastmile_qr_scan", "android": "https://dc.lft.to/lastmile_qr_scan"}, "lon": -77.04203016666666, "type": "electric_bike"}, {"bike_id": "8360352ad0c1f85bb45e506edf70c526", "is_reserved": 0, "fusion_lon": 0.0, "lat": 38.923438833333336, "is_disabled": 0, "name": "8360352ad0c1f85bb45e506edf70c526", "fusion_lat": 0.0, "rental_uris": {"ios": "https://dc.lft.to/lastmile_qr_scan", "android": "https://dc.lft.to/lastmile_qr_scan"}, "lon": -77.04147066666667, "type": "electric_scooter"}, {"bike_id": "50d232a57205bc8e2fefdf6423a76f31", "is_reserved": 0, "fusion_lon": 0.0, "lat": 38.883828, "is_disabled": 0, "name": "50d232a57205bc8e2fefdf6423a76f31", "fusion_lat": 0.0, "rental_uris": {"ios": "https://dc.lft.to/lastmile_qr_scan", "android": "https://dc.lft.to/lastmile_qr_scan"}, "lon": -76.9492595, "type": "electric_scooter"}, {"bike_id": "25d9ca262de2173112d1bab05fbd678e", "is_reserved": 0, "fusion_lon": 0.0, "lat": 38.91856816666667, "is_disabled": 0, "name": "25d9ca262de2173112d1bab05fbd678e", "fusion_lat": 0.0, "rental_uris": {"ios": "https://dc.lft.to/lastmile_qr_scan", "android": "https://dc.lft.to/lastmile_qr_scan"}, "lon": -76.96090766666667, "type": "electric_bike"}, {"bike_id": "d6ba5c3badfb45075be09b70b1b5d54f", "is_reserved": 0, "fusion_lon": 0.0, "lat": 38.928752833333334, "is_disabled": 0, "name": "d6ba5c3badfb45075be09b70b1b5d54f", "fusion_lat": 0.0, "rental_uris": {"ios": "https://dc.lft.to/lastmile_qr_scan", "android": "https://dc.lft.to/lastmile_qr_scan"}, "lon": -77.0329635, "type": "electric_scooter"}, {"bike_id": "0e97bad54a3ec3d88430ee0026d7c6bb", "is_reserved": 0, "fusion_lon": 0.0, "lat": 38.927336333333336, "is_disabled": 0, "name": "0e97bad54a3ec3d88430ee0026d7c6bb", "fusion_lat": 0.0, "rental_uris": {"ios": "https://dc.lft.to/lastmile_qr_scan", "android": "https://dc.lft.to/lastmile_qr_scan"}, "lon": -77.034252, "type": "electric_scooter"}, {"bike_id": "1aa7ddca4c37acd0c1559d9625668359", "is_reserved": 0, "fusion_lon": 0.0, "lat": 38.8617655, "is_disabled": 0, "name": "1aa7ddca4c37acd0c1559d9625668359", "fusion_lat": 0.0, "rental_uris": {"ios": "https://dc.lft.to/lastmile_qr_scan", "android": "https://dc.lft.to/lastmile_qr_scan"}, "lon": -76.969084, "type": "electric_scooter"}, {"bike_id": "ee1dbab0a4c043fa13f57a12b24b0c9d", "is_reserved": 0, "fusion_lon": 0.0, "lat": 38.92262316666667, "is_disabled": 0, "name": "ee1dbab0a4c043fa13f57a12b24b0c9d", "fusion_lat": 0.0, "rental_uris": {"ios": "https://dc.lft.to/lastmile_qr_scan", "android": "https://dc.lft.to/lastmile_qr_scan"}, "lon": -77.029785, "type": "electric_scooter"}, {"bike_id": "9c1deb02836d2cd5dafb7547c19d5e36", "is_reserved": 0, "fusion_lon": 0.0, "lat": 38.9170415, "is_disabled": 0, "name": "9c1deb02836d2cd5dafb7547c19d5e36", "fusion_lat": 0.0, "rental_uris": {"ios": "https://dc.lft.to/lastmile_qr_scan", "android": "https://dc.lft.to/lastmile_qr_scan"}, "lon": -77.02249266666666, "type": "electric_scooter"}, {"bike_id": "64dd676bd6b5ffe039d50052be8738c0", "is_reserved": 0, "fusion_lon": 0.0, "lat": 38.89833566666667, "is_disabled": 0, "name": "64dd676bd6b5ffe039d50052be8738c0", "fusion_lat": 0.0, "rental_uris": {"ios": "https://dc.lft.to/lastmile_qr_scan", "android": "https://dc.lft.to/lastmile_qr_scan"}, "lon": -76.94634466666666, "type": "electric_scooter"}, {"bike_id": "ef7a31f5c84f1faac2737771b8c43741", "is_reserved": 0, "fusion_lon": 0.0, "lat": 38.89219933333333, "is_disabled": 0, "name": "ef7a31f5c84f1faac2737771b8c43741", "fusion_lat": 0.0, "rental_uris": {"ios": "https://dc.lft.to/lastmile_qr_scan", "android": "https://dc.lft.to/lastmile_qr_scan"}, "lon": -77.043613, "type": "electric_scooter"}, {"bike_id": "be4f701ba23c9381865ffa8cb4ba3be0", "is_reserved": 0, "fusion_lon": 0.0, "lat": 38.9333185, "is_disabled": 0, "name": "be4f701ba23c9381865ffa8cb4ba3be0", "fusion_lat": 0.0, "rental_uris": {"ios": "https://dc.lft.to/lastmile_qr_scan", "android": "https://dc.lft.to/lastmile_qr_scan"}, "lon": -77.03269516666667, "type": "electric_scooter"}, {"bike_id": "e9bf6b712e4a2554dc1c48c9b663446b", "is_reserved": 0, "fusion_lon": 0.0, "lat": 38.844279666666665, "is_disabled": 0, "name": "e9bf6b712e4a2554dc1c48c9b663446b", "fusion_lat": 0.0, "rental_uris": {"ios": "https://dc.lft.to/lastmile_qr_scan", "android": "https://dc.lft.to/lastmile_qr_scan"}, "lon": -76.99777950000001, "type": "electric_scooter"}, {"bike_id": "9742134bf5f7ccff542a5de0c8dffb11", "is_reserved": 0, "fusion_lon": 0.0, "lat": 38.88241716666667, "is_disabled": 0, "name": "9742134bf5f7ccff542a5de0c8dffb11", "fusion_lat": 0.0, "rental_uris": {"ios": "https://dc.lft.to/lastmile_qr_scan", "android": "https://dc.lft.to/lastmile_qr_scan"}, "lon": -76.99002, "type": "electric_scooter"}, {"bike_id": "ca17ecaef18e3b62f783f31258802994", "is_reserved": 0, "fusion_lon": 0.0, "lat": 38.865649166666664, "is_disabled": 0, "name": "ca17ecaef18e3b62f783f31258802994", "fusion_lat": 0.0, "rental_uris": {"ios": "https://dc.lft.to/lastmile_qr_scan", "android": "https://dc.lft.to/lastmile_qr_scan"}, "lon": -76.98949183333333, "type": "electric_scooter"}, {"bike_id": "b7a729219fe95be8302fabecb8623d41", "is_reserved": 0, "fusion_lon": 0.0, "lat": 38.907482333333334, "is_disabled": 0, "name": "b7a729219fe95be8302fabecb8623d41", "fusion_lat": 0.0, "rental_uris": {"ios": "https://dc.lft.to/lastmile_qr_scan", "android": "https://dc.lft.to/lastmile_qr_scan"}, "lon": -77.03472633333334, "type": "electric_scooter"}, {"bike_id": "4647fe08d65b3bd7859581be0a83c7ee", "is_reserved": 0, "fusion_lon": 0.0, "lat": 38.912534, "is_disabled": 0, "name": "4647fe08d65b3bd7859581be0a83c7ee", "fusion_lat": 0.0, "rental_uris": {"ios": "https://dc.lft.to/lastmile_qr_scan", "android": "https://dc.lft.to/lastmile_qr_scan"}, "lon": -77.01442916666667, "type": "electric_scooter"}, {"bike_id": "498346535555db060fd2450a65f101a7", "is_reserved": 0, "fusion_lon": 0.0, "lat": 38.9732805, "is_disabled": 0, "name": "498346535555db060fd2450a65f101a7", "fusion_lat": 0.0, "rental_uris": {"ios": "https://dc.lft.to/lastmile_qr_scan", "android": "https://dc.lft.to/lastmile_qr_scan"}, "lon": -77.02149683333333, "type": "electric_bike"}, {"bike_id": "65c06d8fa21c0726a51df033c3654d48", "is_reserved": 0, "fusion_lon": 0.0, "lat": 38.901264166666664, "is_disabled": 0, "name": "65c06d8fa21c0726a51df033c3654d48", "fusion_lat": 0.0, "rental_uris": {"ios": "https://dc.lft.to/lastmile_qr_scan", "android": "https://dc.lft.to/lastmile_qr_scan"}, "lon": -77.01972416666666, "type": "electric_scooter"}, {"bike_id": "65bd8ef0875dc6aea9eb25ba3d46c7c4", "is_reserved": 0, "fusion_lon": 0.0, "lat": 38.89821633333333, "is_disabled": 0, "name": "65bd8ef0875dc6aea9eb25ba3d46c7c4", "fusion_lat": 0.0, "rental_uris": {"ios": "https://dc.lft.to/lastmile_qr_scan", "android": "https://dc.lft.to/lastmile_qr_scan"}, "lon": -77.03346866666666, "type": "electric_scooter"}, {"bike_id": "d20d87e6291ac905b4c94eae8e755d5f", "is_reserved": 0, "fusion_lon": 0.0, "lat": 38.905963666666665, "is_disabled": 0, "name": "d20d87e6291ac905b4c94eae8e755d5f", "fusion_lat": 0.0, "rental_uris": {"ios": "https://dc.lft.to/lastmile_qr_scan", "android": "https://dc.lft.to/lastmile_qr_scan"}, "lon": -77.06298916666667, "type": "electric_scooter"}, {"bike_id": "578dd3e5c67bcec31386495414de21e8", "is_reserved": 0, "fusion_lon": 0.0, "lat": 38.91392033333333, "is_disabled": 0, "name": "578dd3e5c67bcec31386495414de21e8", "fusion_lat": 0.0, "rental_uris": {"ios": "https://dc.lft.to/lastmile_qr_scan", "android": "https://dc.lft.to/lastmile_qr_scan"}, "lon": -77.01701016666667, "type": "electric_scooter"}, {"bike_id": "6efca536691de81b6940f9725d34754c", "is_reserved": 0, "fusion_lon": 0.0, "lat": 38.883930666666664, "is_disabled": 0, "name": "6efca536691de81b6940f9725d34754c", "fusion_lat": 0.0, "rental_uris": {"ios": "https://dc.lft.to/lastmile_qr_scan", "android": "https://dc.lft.to/lastmile_qr_scan"}, "lon": -76.930442, "type": "electric_scooter"}, {"bike_id": "39ca4757037ea1e6b487f3cc4601b12f", "is_reserved": 0, "fusion_lon": 0.0, "lat": 38.892208, "is_disabled": 0, "name": "39ca4757037ea1e6b487f3cc4601b12f", "fusion_lat": 0.0, "rental_uris": {"ios": "https://dc.lft.to/lastmile_qr_scan", "android": "https://dc.lft.to/lastmile_qr_scan"}, "lon": -77.04505933333333, "type": "electric_scooter"}, {"bike_id": "086a7b55c8dbbd3071ab843d272ba456", "is_reserved": 0, "fusion_lon": 0.0, "lat": 38.90023983333333, "is_disabled": 0, "name": "086a7b55c8dbbd3071ab843d272ba456", "fusion_lat": 0.0, "rental_uris": {"ios": "https://dc.lft.to/lastmile_qr_scan", "android": "https://dc.lft.to/lastmile_qr_scan"}, "lon": -77.046517, "type": "electric_scooter"}, {"bike_id": "51733e18e97357927d6d6eb04149c1de", "is_reserved": 0, "fusion_lon": 0.0, "lat": 38.94551633333333, "is_disabled": 0, "name": "51733e18e97357927d6d6eb04149c1de", "fusion_lat": 0.0, "rental_uris": {"ios": "https://dc.lft.to/lastmile_qr_scan", "android": "https://dc.lft.to/lastmile_qr_scan"}, "lon": -76.895386, "type": "electric_bike"}, {"bike_id": "0f41ea0a0212a268c55427d4dd326086", "is_reserved": 0, "fusion_lon": 0.0, "lat": 38.892008, "is_disabled": 0, "name": "0f41ea0a0212a268c55427d4dd326086", "fusion_lat": 0.0, "rental_uris": {"ios": "https://dc.lft.to/lastmile_qr_scan", "android": "https://dc.lft.to/lastmile_qr_scan"}, "lon": -77.02833, "type": "electric_scooter"}, {"bike_id": "816f61a9fdbc5759a42580d9024889d1", "is_reserved": 0, "fusion_lon": 0.0, "lat": 38.956470833333334, "is_disabled": 0, "name": "816f61a9fdbc5759a42580d9024889d1", "fusion_lat": 0.0, "rental_uris": {"ios": "https://dc.lft.to/lastmile_qr_scan", "android": "https://dc.lft.to/lastmile_qr_scan"}, "lon": -77.03286616666666, "type": "electric_scooter"}, {"bike_id": "24b286413ebcdd23531e5f27e210cd7c", "is_reserved": 0, "fusion_lon": 0.0, "lat": 39.001425, "is_disabled": 0, "name": "24b286413ebcdd23531e5f27e210cd7c", "fusion_lat": 0.0, "rental_uris": {"ios": "https://dc.lft.to/lastmile_qr_scan", "android": "https://dc.lft.to/lastmile_qr_scan"}, "lon": -77.05693233333334, "type": "electric_bike"}, {"bike_id": "0bed111b51bfecbe5ea45d50c097156c", "is_reserved": 0, "fusion_lon": 0.0, "lat": 38.90054816666667, "is_disabled": 0, "name": "0bed111b51bfecbe5ea45d50c097156c", "fusion_lat": 0.0, "rental_uris": {"ios": "https://dc.lft.to/lastmile_qr_scan", "android": "https://dc.lft.to/lastmile_qr_scan"}, "lon": -77.00761833333334, "type": "electric_scooter"}, {"bike_id": "f129f68f45d5538f2472e45024884491", "is_reserved": 0, "fusion_lon": 0.0, "lat": 38.827849666666665, "is_disabled": 0, "name": "f129f68f45d5538f2472e45024884491", "fusion_lat": 0.0, "rental_uris": {"ios": "https://dc.lft.to/lastmile_qr_scan", "android": "https://dc.lft.to/lastmile_qr_scan"}, "lon": -77.009183, "type": "electric_bike"}, {"bike_id": "ebbf246d0576a5208789b0848015b6b2", "is_reserved": 0, "fusion_lon": 0.0, "lat": 38.892166, "is_disabled": 0, "name": "ebbf246d0576a5208789b0848015b6b2", "fusion_lat": 0.0, "rental_uris": {"ios": "https://dc.lft.to/lastmile_qr_scan", "android": "https://dc.lft.to/lastmile_qr_scan"}, "lon": -77.03164233333334, "type": "electric_scooter"}, {"bike_id": "9343e331f953a4fad60885837b111f0c", "is_reserved": 0, "fusion_lon": 0.0, "lat": 39.0038575, "is_disabled": 0, "name": "9343e331f953a4fad60885837b111f0c", "fusion_lat": 0.0, "rental_uris": {"ios": "https://dc.lft.to/lastmile_qr_scan", "android": "https://dc.lft.to/lastmile_qr_scan"}, "lon": -77.01289516666667, "type": "electric_bike"}, {"bike_id": "b185fa97ebefb808dc7fa714b180d955", "is_reserved": 0, "fusion_lon": 0.0, "lat": 38.984319166666666, "is_disabled": 0, "name": "b185fa97ebefb808dc7fa714b180d955", "fusion_lat": 0.0, "rental_uris": {"ios": "https://dc.lft.to/lastmile_qr_scan", "android": "https://dc.lft.to/lastmile_qr_scan"}, "lon": -77.02674866666666, "type": "electric_scooter"}, {"bike_id": "36aa29737ac021c63794d19613fbee81", "is_reserved": 0, "fusion_lon": 0.0, "lat": 38.89479133333333, "is_disabled": 0, "name": "36aa29737ac021c63794d19613fbee81", "fusion_lat": 0.0, "rental_uris": {"ios": "https://dc.lft.to/lastmile_qr_scan", "android": "https://dc.lft.to/lastmile_qr_scan"}, "lon": -77.022122, "type": "electric_scooter"}, {"bike_id": "4b9b1c5715bb2d2b71fc20bb24faff19", "is_reserved": 0, "fusion_lon": 0.0, "lat": 38.900917666666665, "is_disabled": 0, "name": "4b9b1c5715bb2d2b71fc20bb24faff19", "fusion_lat": 0.0, "rental_uris": {"ios": "https://dc.lft.to/lastmile_qr_scan", "android": "https://dc.lft.to/lastmile_qr_scan"}, "lon": -77.04786233333333, "type": "electric_scooter"}, {"bike_id": "1e5aaf0aefcde12748335c60d3525ef9", "is_reserved": 0, "fusion_lon": 0.0, "lat": 38.884917, "is_disabled": 0, "name": "1e5aaf0aefcde12748335c60d3525ef9", "fusion_lat": 0.0, "rental_uris": {"ios": "https://dc.lft.to/lastmile_qr_scan", "android": "https://dc.lft.to/lastmile_qr_scan"}, "lon": -77.00723533333333, "type": "electric_scooter"}, {"bike_id": "23e1e4eccdde8b741824802b40147bf3", "is_reserved": 0, "fusion_lon": 0.0, "lat": 38.88535616666667, "is_disabled": 0, "name": "23e1e4eccdde8b741824802b40147bf3", "fusion_lat": 0.0, "rental_uris": {"ios": "https://dc.lft.to/lastmile_qr_scan", "android": "https://dc.lft.to/lastmile_qr_scan"}, "lon": -77.0057765, "type": "electric_scooter"}, {"bike_id": "753b42c2874d23e5e53f53d3d398ce81", "is_reserved": 0, "fusion_lon": 0.0, "lat": 38.90953966666667, "is_disabled": 0, "name": "753b42c2874d23e5e53f53d3d398ce81", "fusion_lat": 0.0, "rental_uris": {"ios": "https://dc.lft.to/lastmile_qr_scan", "android": "https://dc.lft.to/lastmile_qr_scan"}, "lon": -77.04516333333333, "type": "electric_scooter"}, {"bike_id": "362d339310f94c45b5e7cd3acb45d4bf", "is_reserved": 0, "fusion_lon": 0.0, "lat": 38.90562516666667, "is_disabled": 0, "name": "362d339310f94c45b5e7cd3acb45d4bf", "fusion_lat": 0.0, "rental_uris": {"ios": "https://dc.lft.to/lastmile_qr_scan", "android": "https://dc.lft.to/lastmile_qr_scan"}, "lon": -77.03438683333333, "type": "electric_scooter"}, {"bike_id": "3e8fdc543a7c993adac84eccd2900da5", "is_reserved": 0, "fusion_lon": 0.0, "lat": 38.93354683333333, "is_disabled": 0, "name": "3e8fdc543a7c993adac84eccd2900da5", "fusion_lat": 0.0, "rental_uris": {"ios": "https://dc.lft.to/lastmile_qr_scan", "android": "https://dc.lft.to/lastmile_qr_scan"}, "lon": -77.069373, "type": "electric_scooter"}, {"bike_id": "0a5f59c3526cfc165499fddfb19a3f49", "is_reserved": 0, "fusion_lon": 0.0, "lat": 38.8976595, "is_disabled": 0, "name": "0a5f59c3526cfc165499fddfb19a3f49", "fusion_lat": 0.0, "rental_uris": {"ios": "https://dc.lft.to/lastmile_qr_scan", "android": "https://dc.lft.to/lastmile_qr_scan"}, "lon": -77.04334283333333, "type": "electric_scooter"}, {"bike_id": "f0d5501a43cc75610470ce5499a4f09e", "is_reserved": 0, "fusion_lon": 0.0, "lat": 38.898785, "is_disabled": 0, "name": "f0d5501a43cc75610470ce5499a4f09e", "fusion_lat": 0.0, "rental_uris": {"ios": "https://dc.lft.to/lastmile_qr_scan", "android": "https://dc.lft.to/lastmile_qr_scan"}, "lon": -77.0392765, "type": "electric_scooter"}, {"bike_id": "2d39b700feb9b3d69e7cae76ed4cefa8", "is_reserved": 0, "fusion_lon": 0.0, "lat": 38.9112075, "is_disabled": 0, "name": "2d39b700feb9b3d69e7cae76ed4cefa8", "fusion_lat": 0.0, "rental_uris": {"ios": "https://dc.lft.to/lastmile_qr_scan", "android": "https://dc.lft.to/lastmile_qr_scan"}, "lon": -77.02183183333334, "type": "electric_scooter"}, {"bike_id": "cc637e45c5c8f69b0e89ea8eb5d01793", "is_reserved": 0, "fusion_lon": 0.0, "lat": 38.92102666666667, "is_disabled": 0, "name": "cc637e45c5c8f69b0e89ea8eb5d01793", "fusion_lat": 0.0, "rental_uris": {"ios": "https://dc.lft.to/lastmile_qr_scan", "android": "https://dc.lft.to/lastmile_qr_scan"}, "lon": -77.063321, "type": "electric_scooter"}, {"bike_id": "de7571450de9c5993e0be7ecce8a9214", "is_reserved": 0, "fusion_lon": 0.0, "lat": 38.902776833333334, "is_disabled": 0, "name": "de7571450de9c5993e0be7ecce8a9214", "fusion_lat": 0.0, "rental_uris": {"ios": "https://dc.lft.to/lastmile_qr_scan", "android": "https://dc.lft.to/lastmile_qr_scan"}, "lon": -77.03847833333333, "type": "electric_scooter"}, {"bike_id": "cd52d44ea88319bbe76375e6b77f6fb7", "is_reserved": 0, "fusion_lon": 0.0, "lat": 38.89219116666666, "is_disabled": 0, "name": "cd52d44ea88319bbe76375e6b77f6fb7", "fusion_lat": 0.0, "rental_uris": {"ios": "https://dc.lft.to/lastmile_qr_scan", "android": "https://dc.lft.to/lastmile_qr_scan"}, "lon": -77.04507316666667, "type": "electric_scooter"}, {"bike_id": "6ff824d080dd9ec16ccda8a325bc7c79", "is_reserved": 0, "fusion_lon": 0.0, "lat": 38.90976533333333, "is_disabled": 0, "name": "6ff824d080dd9ec16ccda8a325bc7c79", "fusion_lat": 0.0, "rental_uris": {"ios": "https://dc.lft.to/lastmile_qr_scan", "android": "https://dc.lft.to/lastmile_qr_scan"}, "lon": -77.04872766666666, "type": "electric_scooter"}, {"bike_id": "907ce7c5f8dfabea20df1d8570570edd", "is_reserved": 0, "fusion_lon": 0.0, "lat": 38.866639, "is_disabled": 0, "name": "907ce7c5f8dfabea20df1d8570570edd", "fusion_lat": 0.0, "rental_uris": {"ios": "https://dc.lft.to/lastmile_qr_scan", "android": "https://dc.lft.to/lastmile_qr_scan"}, "lon": -76.989083, "type": "electric_scooter"}, {"bike_id": "2ec1ef6df850e0938efa25889dcb6700", "is_reserved": 0, "fusion_lon": 0.0, "lat": 38.878843833333335, "is_disabled": 0, "name": "2ec1ef6df850e0938efa25889dcb6700", "fusion_lat": 0.0, "rental_uris": {"ios": "https://dc.lft.to/lastmile_qr_scan", "android": "https://dc.lft.to/lastmile_qr_scan"}, "lon": -76.99156516666666, "type": "electric_scooter"}, {"bike_id": "5fda55abdb4f281c9f715cc94fb3fe7b", "is_reserved": 0, "fusion_lon": 0.0, "lat": 38.899462666666665, "is_disabled": 0, "name": "5fda55abdb4f281c9f715cc94fb3fe7b", "fusion_lat": 0.0, "rental_uris": {"ios": "https://dc.lft.to/lastmile_qr_scan", "android": "https://dc.lft.to/lastmile_qr_scan"}, "lon": -77.02361316666666, "type": "electric_scooter"}, {"bike_id": "c8cd383cf4acb949d6be2c286f4e48ca", "is_reserved": 0, "fusion_lon": 0.0, "lat": 38.90329883333333, "is_disabled": 0, "name": "c8cd383cf4acb949d6be2c286f4e48ca", "fusion_lat": 0.0, "rental_uris": {"ios": "https://dc.lft.to/lastmile_qr_scan", "android": "https://dc.lft.to/lastmile_qr_scan"}, "lon": -77.03449716666667, "type": "electric_scooter"}, {"bike_id": "a6a327952863de1312c6407a78f852e6", "is_reserved": 0, "fusion_lon": 0.0, "lat": 38.902624, "is_disabled": 0, "name": "a6a327952863de1312c6407a78f852e6", "fusion_lat": 0.0, "rental_uris": {"ios": "https://dc.lft.to/lastmile_qr_scan", "android": "https://dc.lft.to/lastmile_qr_scan"}, "lon": -77.03417616666667, "type": "electric_scooter"}, {"bike_id": "5a7ca082068d11b670289a500c883f35", "is_reserved": 0, "fusion_lon": 0.0, "lat": 38.907760333333336, "is_disabled": 0, "name": "5a7ca082068d11b670289a500c883f35", "fusion_lat": 0.0, "rental_uris": {"ios": "https://dc.lft.to/lastmile_qr_scan", "android": "https://dc.lft.to/lastmile_qr_scan"}, "lon": -77.002287, "type": "electric_scooter"}, {"bike_id": "3f177ab14cf136f28044112b8431456f", "is_reserved": 0, "fusion_lon": 0.0, "lat": 38.89200483333333, "is_disabled": 0, "name": "3f177ab14cf136f28044112b8431456f", "fusion_lat": 0.0, "rental_uris": {"ios": "https://dc.lft.to/lastmile_qr_scan", "android": "https://dc.lft.to/lastmile_qr_scan"}, "lon": -77.02216216666666, "type": "electric_scooter"}, {"bike_id": "e05a357a345b5e2191bb1ca9fc634e83", "is_reserved": 0, "fusion_lon": 0.0, "lat": 38.9203375, "is_disabled": 0, "name": "e05a357a345b5e2191bb1ca9fc634e83", "fusion_lat": 0.0, "rental_uris": {"ios": "https://dc.lft.to/lastmile_qr_scan", "android": "https://dc.lft.to/lastmile_qr_scan"}, "lon": -76.999419, "type": "electric_scooter"}, {"bike_id": "a17c22e0db9f8d5d1571209ace4b0646", "is_reserved": 0, "fusion_lon": 0.0, "lat": 38.882251, "is_disabled": 0, "name": "a17c22e0db9f8d5d1571209ace4b0646", "fusion_lat": 0.0, "rental_uris": {"ios": "https://dc.lft.to/lastmile_qr_scan", "android": "https://dc.lft.to/lastmile_qr_scan"}, "lon": -76.941772, "type": "electric_scooter"}, {"bike_id": "316dc5a59498e706d553368b545b2986", "is_reserved": 0, "fusion_lon": 0.0, "lat": 38.9027585, "is_disabled": 0, "name": "316dc5a59498e706d553368b545b2986", "fusion_lat": 0.0, "rental_uris": {"ios": "https://dc.lft.to/lastmile_qr_scan", "android": "https://dc.lft.to/lastmile_qr_scan"}, "lon": -77.03680016666667, "type": "electric_scooter"}, {"bike_id": "540ab8e9ccbe61950ebb0ba679862842", "is_reserved": 0, "fusion_lon": 0.0, "lat": 38.92766566666667, "is_disabled": 0, "name": "540ab8e9ccbe61950ebb0ba679862842", "fusion_lat": 0.0, "rental_uris": {"ios": "https://dc.lft.to/lastmile_qr_scan", "android": "https://dc.lft.to/lastmile_qr_scan"}, "lon": -77.03241916666667, "type": "electric_scooter"}, {"bike_id": "0ec5bba83013aa6639879644c5162a9a", "is_reserved": 0, "fusion_lon": 0.0, "lat": 38.92323183333333, "is_disabled": 0, "name": "0ec5bba83013aa6639879644c5162a9a", "fusion_lat": 0.0, "rental_uris": {"ios": "https://dc.lft.to/lastmile_qr_scan", "android": "https://dc.lft.to/lastmile_qr_scan"}, "lon": -77.03668016666667, "type": "electric_scooter"}, {"bike_id": "89dd38aff316e7c6f1a6280bf5fd9651", "is_reserved": 0, "fusion_lon": 0.0, "lat": 38.9037455, "is_disabled": 0, "name": "89dd38aff316e7c6f1a6280bf5fd9651", "fusion_lat": 0.0, "rental_uris": {"ios": "https://dc.lft.to/lastmile_qr_scan", "android": "https://dc.lft.to/lastmile_qr_scan"}, "lon": -77.04507083333333, "type": "electric_scooter"}, {"bike_id": "860700deb993b3ddeca84a9a0777eca7", "is_reserved": 0, "fusion_lon": 0.0, "lat": 38.872607333333335, "is_disabled": 0, "name": "860700deb993b3ddeca84a9a0777eca7", "fusion_lat": 0.0, "rental_uris": {"ios": "https://dc.lft.to/lastmile_qr_scan", "android": "https://dc.lft.to/lastmile_qr_scan"}, "lon": -76.979099, "type": "electric_bike"}, {"bike_id": "3ddf675c5c53e7899a5398d80019be39", "is_reserved": 0, "fusion_lon": 0.0, "lat": 38.8628625, "is_disabled": 0, "name": "3ddf675c5c53e7899a5398d80019be39", "fusion_lat": 0.0, "rental_uris": {"ios": "https://dc.lft.to/lastmile_qr_scan", "android": "https://dc.lft.to/lastmile_qr_scan"}, "lon": -76.99234733333333, "type": "electric_scooter"}, {"bike_id": "6fe361d68ed086c440619f52b8e0ae6e", "is_reserved": 0, "fusion_lon": 0.0, "lat": 38.891988833333336, "is_disabled": 0, "name": "6fe361d68ed086c440619f52b8e0ae6e", "fusion_lat": 0.0, "rental_uris": {"ios": "https://dc.lft.to/lastmile_qr_scan", "android": "https://dc.lft.to/lastmile_qr_scan"}, "lon": -77.02380933333333, "type": "electric_scooter"}, {"bike_id": "c356cdeac5e9743466cb37d04ce06de2", "is_reserved": 0, "fusion_lon": 0.0, "lat": 38.887705833333335, "is_disabled": 0, "name": "c356cdeac5e9743466cb37d04ce06de2", "fusion_lat": 0.0, "rental_uris": {"ios": "https://dc.lft.to/lastmile_qr_scan", "android": "https://dc.lft.to/lastmile_qr_scan"}, "lon": -77.022288, "type": "electric_scooter"}, {"bike_id": "f2747fe93a59b8ce06bfd3a5a54a6a63", "is_reserved": 0, "fusion_lon": 0.0, "lat": 38.921534666666666, "is_disabled": 0, "name": "f2747fe93a59b8ce06bfd3a5a54a6a63", "fusion_lat": 0.0, "rental_uris": {"ios": "https://dc.lft.to/lastmile_qr_scan", "android": "https://dc.lft.to/lastmile_qr_scan"}, "lon": -77.0353125, "type": "electric_scooter"}, {"bike_id": "867d8fde2ddfc12e6f58d007d1a68d89", "is_reserved": 0, "fusion_lon": 0.0, "lat": 39.09460033333333, "is_disabled": 0, "name": "867d8fde2ddfc12e6f58d007d1a68d89", "fusion_lat": 0.0, "rental_uris": {"ios": "https://dc.lft.to/lastmile_qr_scan", "android": "https://dc.lft.to/lastmile_qr_scan"}, "lon": -77.149934, "type": "electric_bike"}, {"bike_id": "1dabcb2fde9ee629b42ce8b91f9c6585", "is_reserved": 0, "fusion_lon": 0.0, "lat": 38.8999445, "is_disabled": 0, "name": "1dabcb2fde9ee629b42ce8b91f9c6585", "fusion_lat": 0.0, "rental_uris": {"ios": "https://dc.lft.to/lastmile_qr_scan", "android": "https://dc.lft.to/lastmile_qr_scan"}, "lon": -76.99785333333334, "type": "electric_scooter"},