{"data": {"bikes": [{"lat": 38.927944, "is_disabled": 0, "type": "electric_scooter", "lon": -76.98492416666667, "bike_id": "75a46816370776dbf2773a4694cba738", "fusion_lat": 0.0, "name": "75a46816370776dbf2773a4694cba738", "is_reserved": 0, "rental_uris": {"android": "https://dc.lft.to/lastmile_qr_scan", "ios": "https://dc.lft.to/lastmile_qr_scan"}, "fusion_lon": 0.0}, {"lat": 38.905741166666665, "is_disabled": 0, "type": "electric_scooter", "lon": -77.02210066666666, "bike_id": "4f95c09752f1d5e3479b08f22cdaf545", "fusion_lat": 0.0, "name": "4f95c09752f1d5e3479b08f22cdaf545", "is_reserved": 0, "rental_uris": {"android": "https://dc.lft.to/lastmile_qr_scan", "ios": "https://dc.lft.to/lastmile_qr_scan"}, "fusion_lon": 0.0}, {"lat": 38.89222383333333, "is_disabled": 0, "type": "electric_scooter", "lon": -77.03976783333333, "bike_id": "d36f9a616a197af61256d3c82f07f265", "fusion_lat": 0.0, "name": "d36f9a616a197af61256d3c82f07f265", "is_reserved": 0, "rental_uris": {"android": "https://dc.lft.to/lastmile_qr_scan", "ios": "https://dc.lft.to/lastmile_qr_scan"}, "fusion_lon": 0.0}, {"lat": 38.887427833333334, "is_disabled": 0, "type": "electric_scooter", "lon": -77.02068116666666, "bike_id": "2d8e57112748962e2f1127b87a702930", "fusion_lat": 0.0, "name": "2d8e57112748962e2f1127b87a702930", "is_reserved": 0, "rental_uris": {"android": "https://dc.lft.to/lastmile_qr_scan", "ios": "https://dc.lft.to/lastmile_qr_scan"}, "fusion_lon": 0.0}, {"lat": 38.90262633333333, "is_disabled": 0, "type": "electric_scooter", "lon": -77.0336765, "bike_id": "ba9a24541494ae79f00eb874922cf6bc", "fusion_lat": 0.0, "name": "ba9a24541494ae79f00eb874922cf6bc", "is_reserved": 0, "rental_uris": {"android": "https://dc.lft.to/lastmile_qr_scan", "ios": "https://dc.lft.to/lastmile_qr_scan"}, "fusion_lon": 0.0}, {"lat": 38.86711416666667, "is_disabled": 0, "type": "electric_scooter", "lon": -76.98727566666666, "bike_id": "c3fea977d36aeb54e69e28f1110131fd", "fusion_lat": 0.0, "name": "c3fea977d36aeb54e69e28f1110131fd", "is_reserved": 0, "rental_uris": {"android": "https://dc.lft.to/lastmile_qr_scan", "ios": "https://dc.lft.to/lastmile_qr_scan"}, "fusion_lon": 0.0}, {"lat": 38.920353666666664, "is_disabled": 0, "type": "electric_scooter", "lon": -76.978037, "bike_id": "4a23bec86208e1b064ff5cfb2d3ae653", "fusion_lat": 0.0, "name": "4a23bec86208e1b064ff5cfb2d3ae653", "is_reserved": 0, "rental_uris": {"android": "https://dc.lft.to/lastmile_qr_scan", "ios": "https://dc.lft.to/lastmile_qr_scan"}, "fusion_lon": 0.0}, {"lat": 38.9443845, "is_disabled": 0, "type": "electric_scooter", "lon": -77.06407866666666, "bike_id": "227249ff75c93308a207d610e7886b8a", "fusion_lat": 0.0, "name": "227249ff75c93308a207d610e7886b8a", "is_reserved": 0, "rental_uris": {"android": "https://dc.lft.to/lastmile_qr_scan", "ios": "https://dc.lft.to/lastmile_qr_scan"}, "fusion_lon": 0.0}, {"lat": 38.9056405, "is_disabled": 0, "type": "electric_scooter", "lon": -77.0249025, "bike_id": "801736ac06f3dc59906d9b8287661254", "fusion_lat": 0.0, "name": "801736ac06f3dc59906d9b8287661254", "is_reserved": 0, "rental_uris": {"android": "https://dc.lft.to/lastmile_qr_scan", "ios": "https://dc.lft.to/lastmile_qr_scan"}, "fusion_lon": 0.0}, {"lat": 38.9420215, "is_disabled": 0, "type": "electric_scooter", "lon": -77.01834516666666, "bike_id": "55e408b7206541c9d8173f0870e4748b", "fusion_lat": 0.0, "name": "55e408b7206541c9d8173f0870e4748b", "is_reserved": 0, "rental_uris": {"android": "https://dc.lft.to/lastmile_qr_scan", "ios": "https://dc.lft.to/lastmile_qr_scan"}, "fusion_lon": 0.0}, {"lat": 38.88732133333333, "is_disabled": 0, "type": "electric_scooter", "lon": -77.01386416666666, "bike_id": "c13ab9d4848213340af5077cf03b0e4c", "fusion_lat": 0.0, "name": "c13ab9d4848213340af5077cf03b0e4c", "is_reserved": 0, "rental_uris": {"android": "https://dc.lft.to/lastmile_qr_scan", "ios": "https://dc.lft.to/lastmile_qr_scan"}, "fusion_lon": 0.0}, {"lat": 38.920543333333335, "is_disabled": 0, "type": "electric_scooter", "lon": -77.0326905, "bike_id": "85a463565b974c872864396ba5ee54c4", "fusion_lat": 0.0, "name": "85a463565b974c872864396ba5ee54c4", "is_reserved": 0, "rental_uris": {"android": "https://dc.lft.to/lastmile_qr_scan", "ios": "https://dc.lft.to/lastmile_qr_scan"}, "fusion_lon": 0.0}, {"lat": 38.914780666666665, "is_disabled": 0, "type": "electric_scooter", "lon": -77.025798, "bike_id": "d03ba6dbd5058d61c2d40e5b66d098da", "fusion_lat": 0.0, "name": "d03ba6dbd5058d61c2d40e5b66d098da", "is_reserved": 0, "rental_uris": {"android": "https://dc.lft.to/lastmile_qr_scan", "ios": "https://dc.lft.to/lastmile_qr_scan"}, "fusion_lon": 0.0}, {"lat": 38.96703083333333, "is_disabled": 0, "type": "electric_bike", "lon": -77.10224233333334, "bike_id": "4badeefa61cbd028b53c46f5f390b351", "fusion_lat": 0.0, "name": "4badeefa61cbd028b53c46f5f390b351", "is_reserved": 0, "rental_uris": {"android": "https://dc.lft.to/lastmile_qr_scan", "ios": "https://dc.lft.to/lastmile_qr_scan"}, "fusion_lon": 0.0}, {"lat": 38.90976083333334, "is_disabled": 0, "type": "electric_scooter", "lon": -77.03441816666667, "bike_id": "8c284a284fd56daabb862b7c6192a746", "fusion_lat": 0.0, "name": "8c284a284fd56daabb862b7c6192a746", "is_reserved": 0, "rental_uris": {"android": "https://dc.lft.to/lastmile_qr_scan", "ios": "https://dc.lft.to/lastmile_qr_scan"}, "fusion_lon": 0.0}, {"lat": 38.8616215, "is_disabled": 0, "type": "electric_bike", "lon": -77.13095416666667, "bike_id": "9219bc7d2b22834bb9fd7bc0ed815aeb", "fusion_lat": 0.0, "name": "9219bc7d2b22834bb9fd7bc0ed815aeb", "is_reserved": 0, "rental_uris": {"android": "https://dc.lft.to/lastmile_qr_scan", "ios": "https://dc.lft.to/lastmile_qr_scan"}, "fusion_lon": 0.0}, {"lat": 38.88929183333333, "is_disabled": 0, "type": "electric_scooter", "lon": -76.97374766666667, "bike_id": "8cc13384068035dce8308c03bf0840b5", "fusion_lat": 0.0, "name": "8cc13384068035dce8308c03bf0840b5", "is_reserved": 0, "rental_uris": {"android": "https://dc.lft.to/lastmile_qr_scan", "ios": "https://dc.lft.to/lastmile_qr_scan"}, "fusion_lon": 0.0}, {"lat": 38.906345333333334, "is_disabled": 0, "type": "electric_scooter", "lon": -77.06282116666667, "bike_id": "b7bfc64ddf4c059f1b33ed6269b7bac4", "fusion_lat": 0.0, "name": "b7bfc64ddf4c059f1b33ed6269b7bac4", "is_reserved": 0, "rental_uris": {"android": "https://dc.lft.to/lastmile_qr_scan", "ios": "https://dc.lft.to/lastmile_qr_scan"}, "fusion_lon": 0.0}, {"lat": 38.91450866666667, "is_disabled": 0, "type": "electric_scooter", "lon": -77.04582133333334, "bike_id": "ea94e3a43efed55a91184361c34671df", "fusion_lat": 0.0, "name": "ea94e3a43efed55a91184361c34671df", "is_reserved": 0, "rental_uris": {"android": "https://dc.lft.to/lastmile_qr_scan", "ios": "https://dc.lft.to/lastmile_qr_scan"}, "fusion_lon": 0.0}, {"lat": 38.91063283333333, "is_disabled": 0, "type": "electric_scooter", "lon": -77.04239083333333, "bike_id": "d77003a27c8b473f1d5e436b639a8894", "fusion_lat": 0.0, "name": "d77003a27c8b473f1d5e436b639a8894", "is_reserved": 0, "rental_uris": {"android": "https://dc.lft.to/lastmile_qr_scan", "ios": "https://dc.lft.to/lastmile_qr_scan"}, "fusion_lon": 0.0}, {"lat": 38.914202833333334, "is_disabled": 0, "type": "electric_scooter", "lon": -77.022366, "bike_id": "86faf8a9479d61bba2b0911aef4a4de1", "fusion_lat": 0.0, "name": "86faf8a9479d61bba2b0911aef4a4de1", "is_reserved": 0, "rental_uris": {"android": "https://dc.lft.to/lastmile_qr_scan", "ios": "https://dc.lft.to/lastmile_qr_scan"}, "fusion_lon": 0.0}, {"lat": 38.839362333333334, "is_disabled": 0, "type": "electric_bike", "lon": -77.07908983333333, "bike_id": "e3b5348eb2ad92a68d1fe42a07e4fbb5", "fusion_lat": 0.0, "name": "e3b5348eb2ad92a68d1fe42a07e4fbb5", "is_reserved": 0, "rental_uris": {"android": "https://dc.lft.to/lastmile_qr_scan", "ios": "https://dc.lft.to/lastmile_qr_scan"}, "fusion_lon": 0.0}, {"lat": 38.893807833333334, "is_disabled": 0, "type": "electric_scooter", "lon": -76.94995916666667, "bike_id": "d62f41c305209db711923bb55b684579", "fusion_lat": 0.0, "name": "d62f41c305209db711923bb55b684579", "is_reserved": 0, "rental_uris": {"android": "https://dc.lft.to/lastmile_qr_scan", "ios": "https://dc.lft.to/lastmile_qr_scan"}, "fusion_lon": 0.0}, {"lat": 38.88095333333333, "is_disabled": 0, "type": "electric_scooter", "lon": -76.927226, "bike_id": "8c8ef5b8d43f47a7a57b9ab157e21525", "fusion_lat": 0.0, "name": "8c8ef5b8d43f47a7a57b9ab157e21525", "is_reserved": 0, "rental_uris": {"android": "https://dc.lft.to/lastmile_qr_scan", "ios": "https://dc.lft.to/lastmile_qr_scan"}, "fusion_lon": 0.0}, {"lat": 38.909698, "is_disabled": 0, "type": "electric_scooter", "lon": -77.03860883333333, "bike_id": "76ef5c6423d851ae4f9a7580110856a8", "fusion_lat": 0.0, "name": "76ef5c6423d851ae4f9a7580110856a8", "is_reserved": 0, "rental_uris": {"android": "https://dc.lft.to/lastmile_qr_scan", "ios": "https://dc.lft.to/lastmile_qr_scan"}, "fusion_lon": 0.0}, {"lat": 38.879595, "is_disabled": 0, "type": "electric_scooter", "lon": -76.983291, "bike_id": "eec867e3961f91c5f39d04ada6f50cff", "fusion_lat": 0.0, "name": "eec867e3961f91c5f39d04ada6f50cff", "is_reserved": 0, "rental_uris": {"android": "https://dc.lft.to/lastmile_qr_scan", "ios": "https://dc.lft.to/lastmile_qr_scan"}, "fusion_lon": 0.0}, {"lat": 38.8996335, "is_disabled": 0, "type": "electric_scooter", "lon": -77.01609016666667, "bike_id": "d036c654581e9ab3281b82f1890d70c5", "fusion_lat": 0.0, "name": "d036c654581e9ab3281b82f1890d70c5", "is_reserved": 0, "rental_uris": {"android": "https://dc.lft.to/lastmile_qr_scan", "ios": "https://dc.lft.to/lastmile_qr_scan"}, "fusion_lon": 0.0}, {"lat": 38.90240166666667, "is_disabled": 0, "type": "electric_scooter", "lon": -77.00197216666666, "bike_id": "d553c77c2a11b3a3083ccc7171c16792", "fusion_lat": 0.0, "name": "d553c77c2a11b3a3083ccc7171c16792", "is_reserved": 0, "rental_uris": {"android": "https://dc.lft.to/lastmile_qr_scan", "ios": "https://dc.lft.to/lastmile_qr_scan"}, "fusion_lon": 0.0}, {"lat": 38.89829683333333, "is_disabled": 0, "type": "electric_scooter", "lon": -77.02521133333333, "bike_id": "37e5c4faaff8bb382d7de24eb5225ae3", "fusion_lat": 0.0, "name": "37e5c4faaff8bb382d7de24eb5225ae3", "is_reserved": 0, "rental_uris": {"android": "https://dc.lft.to/lastmile_qr_scan", "ios": "https://dc.lft.to/lastmile_qr_scan"}, "fusion_lon": 0.0}, {"lat": 38.931004, "is_disabled": 0, "type": "electric_scooter", "lon": -77.024698, "bike_id": "4ef1c30024521ecbaf863c4c75be7dbe", "fusion_lat": 0.0, "name": "4ef1c30024521ecbaf863c4c75be7dbe", "is_reserved": 0, "rental_uris": {"android": "https://dc.lft.to/lastmile_qr_scan", "ios": "https://dc.lft.to/lastmile_qr_scan"}, "fusion_lon": 0.0}, {"lat": 38.9250195, "is_disabled": 0, "type": "electric_scooter", "lon": -77.0089565, "bike_id": "593e710e00ade66ac65cbc62f56ce00a", "fusion_lat": 0.0, "name": "593e710e00ade66ac65cbc62f56ce00a", "is_reserved": 0, "rental_uris": {"android": "https://dc.lft.to/lastmile_qr_scan", "ios": "https://dc.lft.to/lastmile_qr_scan"}, "fusion_lon": 0.0}, {"lat": 38.916794, "is_disabled": 0, "type": "electric_scooter", "lon": -77.0227865, "bike_id": "00fc448510970c973b85600015fe17ac", "fusion_lat": 0.0, "name": "00fc448510970c973b85600015fe17ac", "is_reserved": 0, "rental_uris": {"android": "https://dc.lft.to/lastmile_qr_scan", "ios": "https://dc.lft.to/lastmile_qr_scan"}, "fusion_lon": 0.0}, {"lat": 38.94269766666667, "is_disabled": 0, "type": "electric_scooter", "lon": -77.032597, "bike_id": "2c9fb95719eea64f33a4f91f4f0ee2c1", "fusion_lat": 0.0, "name": "2c9fb95719eea64f33a4f91f4f0ee2c1", "is_reserved": 0, "rental_uris": {"android": "https://dc.lft.to/lastmile_qr_scan", "ios": "https://dc.lft.to/lastmile_qr_scan"}, "fusion_lon": 0.0}, {"lat": 38.9241665, "is_disabled": 0, "type": "electric_scooter", "lon": -77.0354155, "bike_id": "ff508436437581cbbea3bfff837b7098", "fusion_lat": 0.0, "name": "ff508436437581cbbea3bfff837b7098", "is_reserved": 0, "rental_uris": {"android": "https://dc.lft.to/lastmile_qr_scan", "ios": "https://dc.lft.to/lastmile_qr_scan"}, "fusion_lon": 0.0}, {"lat": 38.926242, "is_disabled": 0, "type": "electric_scooter", "lon": -77.03623816666666, "bike_id": "ca56c1855636271d22c9be5f5468f54b", "fusion_lat": 0.0, "name": "ca56c1855636271d22c9be5f5468f54b", "is_reserved": 0, "rental_uris": {"android": "https://dc.lft.to/lastmile_qr_scan", "ios": "https://dc.lft.to/lastmile_qr_scan"}, "fusion_lon": 0.0}, {"lat": 38.93345883333333, "is_disabled": 0, "type": "electric_scooter", "lon": -77.05697616666667, "bike_id": "c678a1a586a30c0f2cc73b2d831ab85c", "fusion_lat": 0.0, "name": "c678a1a586a30c0f2cc73b2d831ab85c", "is_reserved": 0, "rental_uris": {"android": "https://dc.lft.to/lastmile_qr_scan", "ios": "https://dc.lft.to/lastmile_qr_scan"}, "fusion_lon": 0.0}, {"lat": 38.89615883333333, "is_disabled": 0, "type": "electric_scooter", "lon": -76.9559775, "bike_id": "855faf8d6a8bfe824b9b628ca44ba609", "fusion_lat": 0.0, "name": "855faf8d6a8bfe824b9b628ca44ba609", "is_reserved": 0, "rental_uris": {"android": "https://dc.lft.to/lastmile_qr_scan", "ios": "https://dc.lft.to/lastmile_qr_scan"}, "fusion_lon": 0.0}, {"lat": 38.918935833333336, "is_disabled": 0, "type": "electric_scooter", "lon": -77.03897683333334, "bike_id": "e71ed8242937bae0eb9f30876009f854", "fusion_lat": 0.0, "name": "e71ed8242937bae0eb9f30876009f854", "is_reserved": 0, "rental_uris": {"android": "https://dc.lft.to/lastmile_qr_scan", "ios": "https://dc.lft.to/lastmile_qr_scan"}, "fusion_lon": 0.0}, {"lat": 38.90840333333333, "is_disabled": 0, "type": "electric_scooter", "lon": -77.02815066666666, "bike_id": "ed47606642b5f39b39b2618e29ff0f15", "fusion_lat": 0.0, "name": "ed47606642b5f39b39b2618e29ff0f15", "is_reserved": 0, "rental_uris": {"android": "https://dc.lft.to/lastmile_qr_scan", "ios": "https://dc.lft.to/lastmile_qr_scan"}, "fusion_lon": 0.0}, {"lat": 38.92014416666667, "is_disabled": 0, "type": "electric_scooter", "lon": -77.03201116666666, "bike_id": "11aba1c096025d7214cf2ed3cd1feef2", "fusion_lat": 0.0, "name": "11aba1c096025d7214cf2ed3cd1feef2", "is_reserved": 0, "rental_uris": {"android": "https://dc.lft.to/lastmile_qr_scan", "ios": "https://dc.lft.to/lastmile_qr_scan"}, "fusion_lon": 0.0}, {"lat": 38.927647, "is_disabled": 0, "type": "electric_scooter", "lon": -77.0140655, "bike_id": "3d19fd22ed20a312451f3ae2ca149cdf", "fusion_lat": 0.0, "name": "3d19fd22ed20a312451f3ae2ca149cdf", "is_reserved": 0, "rental_uris": {"android": "https://dc.lft.to/lastmile_qr_scan", "ios": "https://dc.lft.to/lastmile_qr_scan"}, "fusion_lon": 0.0}, {"lat": 38.914052, "is_disabled": 0, "type": "electric_scooter", "lon": -77.03068983333333, "bike_id": "4fabda2a34290e5aa8230f622f1693d1", "fusion_lat": 0.0, "name": "4fabda2a34290e5aa8230f622f1693d1", "is_reserved": 0, "rental_uris": {"android": "https://dc.lft.to/lastmile_qr_scan", "ios": "https://dc.lft.to/lastmile_qr_scan"}, "fusion_lon": 0.0}, {"lat": 38.91716016666667, "is_disabled": 0, "type": "electric_scooter", "lon": -77.03858, "bike_id": "e15d6886649f216502ece327e0115ba4", "fusion_lat": 0.0, "name": "e15d6886649f216502ece327e0115ba4", "is_reserved": 0, "rental_uris": {"android": "https://dc.lft.to/lastmile_qr_scan", "ios": "https://dc.lft.to/lastmile_qr_scan"}, "fusion_lon": 0.0}, {"lat": 38.9019935, "is_disabled": 0, "type": "electric_scooter", "lon": -77.0471475, "bike_id": "347ae54e0af0990a10163e781e32cf31", "fusion_lat": 0.0, "name": "347ae54e0af0990a10163e781e32cf31", "is_reserved": 0, "rental_uris": {"android": "https://dc.lft.to/lastmile_qr_scan", "ios": "https://dc.lft.to/lastmile_qr_scan"}, "fusion_lon": 0.0}, {"lat": 38.90468966666667, "is_disabled": 0, "type": "electric_scooter", "lon": -77.00783933333334, "bike_id": "87925c333a945605d409f50bc56a4a79", "fusion_lat": 0.0, "name": "87925c333a945605d409f50bc56a4a79", "is_reserved": 0, "rental_uris": {"android": "https://dc.lft.to/lastmile_qr_scan", "ios": "https://dc.lft.to/lastmile_qr_scan"}, "fusion_lon": 0.0}, {"lat": 38.90155333333333, "is_disabled": 0, "type": "electric_scooter", "lon": -77.04160666666667, "bike_id": "3bb3aded2d6891a746ba88f6b3f8ac75", "fusion_lat": 0.0, "name": "3bb3aded2d6891a746ba88f6b3f8ac75", "is_reserved": 0, "rental_uris": {"android": "https://dc.lft.to/lastmile_qr_scan", "ios": "https://dc.lft.to/lastmile_qr_scan"}, "fusion_lon": 0.0}, {"lat": 38.91056916666667, "is_disabled": 0, "type": "electric_scooter", "lon": -77.045907, "bike_id": "8e3294861386d3b00f8675307828c75f", "fusion_lat": 0.0, "name": "8e3294861386d3b00f8675307828c75f", "is_reserved": 0, "rental_uris": {"android": "https://dc.lft.to/lastmile_qr_scan", "ios": "https://dc.lft.to/lastmile_qr_scan"}, "fusion_lon": 0.0}, {"lat": 38.88661233333333, "is_disabled": 0, "type": "electric_bike", "lon": -77.16237466666666, "bike_id": "020604b653cc979f1f4e90fba1ec5916", "fusion_lat": 0.0, "name": "020604b653cc979f1f4e90fba1ec5916", "is_reserved": 0, "rental_uris": {"android": "https://dc.lft.to/lastmile_qr_scan", "ios": "https://dc.lft.to/lastmile_qr_scan"}, "fusion_lon": 0.0}, {"lat": 38.91603416666667, "is_disabled": 0, "type": "electric_scooter", "lon": -77.03847766666667, "bike_id": "2dc45fe2c255fc0d6de5f07062bacd82", "fusion_lat": 0.0, "name": "2dc45fe2c255fc0d6de5f07062bacd82", "is_reserved": 0, "rental_uris": {"android": "https://dc.lft.to/lastmile_qr_scan", "ios": "https://dc.lft.to/lastmile_qr_scan"}, "fusion_lon": 0.0}, {"lat": 38.89562166666666, "is_disabled": 0, "type": "electric_scooter", "lon": -77.01138983333334, "bike_id": "28b5f42579d2ff4d25096e5a1af233c4", "fusion_lat": 0.0, "name": "28b5f42579d2ff4d25096e5a1af233c4", "is_reserved": 0, "rental_uris": {"android": "https://dc.lft.to/lastmile_qr_scan", "ios": "https://dc.lft.to/lastmile_qr_scan"}, "fusion_lon": 0.0}, {"lat": 38.97233583333333, "is_disabled": 0, "type": "electric_bike", "lon": -76.99338016666667, "bike_id": "d0e5e111dd73ac7cd4350a2f1961f35b", "fusion_lat": 0.0, "name": "d0e5e111dd73ac7cd4350a2f1961f35b", "is_reserved": 0, "rental_uris": {"android": "https://dc.lft.to/lastmile_qr_scan", "ios": "https://dc.lft.to/lastmile_qr_scan"}, "fusion_lon": 0.0}, {"lat": 38.905277, "is_disabled": 0, "type": "electric_scooter", "lon": -77.06056766666667, "bike_id": "7edac621b8cc1d1df8af3eac3a4592fa", "fusion_lat": 0.0, "name": "7edac621b8cc1d1df8af3eac3a4592fa", "is_reserved": 0, "rental_uris": {"android": "https://dc.lft.to/lastmile_qr_scan", "ios": "https://dc.lft.to/lastmile_qr_scan"}, "fusion_lon": 0.0}, {"lat": 38.918581333333336, "is_disabled": 0, "type": "electric_scooter", "lon": -77.045872, "bike_id": "31c28f9ef9e09f61b23888b921f883e8", "fusion_lat": 0.0, "name": "31c28f9ef9e09f61b23888b921f883e8", "is_reserved": 0, "rental_uris": {"android": "https://dc.lft.to/lastmile_qr_scan", "ios": "https://dc.lft.to/lastmile_qr_scan"}, "fusion_lon": 0.0}, {"lat": 38.912593, "is_disabled": 0, "type": "electric_scooter", "lon": -77.00633816666667, "bike_id": "3c9a113a33a08af16363bbbca1fbd71a", "fusion_lat": 0.0, "name": "3c9a113a33a08af16363bbbca1fbd71a", "is_reserved": 0, "rental_uris": {"android": "https://dc.lft.to/lastmile_qr_scan", "ios": "https://dc.lft.to/lastmile_qr_scan"}, "fusion_lon": 0.0}, {"lat": 38.90525216666666, "is_disabled": 0, "type": "electric_scooter", "lon": -77.04743333333333, "bike_id": "bc7cf69e734b6536848e453ddc5781e8", "fusion_lat": 0.0, "name": "bc7cf69e734b6536848e453ddc5781e8", "is_reserved": 0, "rental_uris": {"android": "https://dc.lft.to/lastmile_qr_scan", "ios": "https://dc.lft.to/lastmile_qr_scan"}, "fusion_lon": 0.0}, {"lat": 38.919532833333335, "is_disabled": 0, "type": "electric_scooter", "lon": -76.98083466666667, "bike_id": "3c706ef2ce22da8c41e6f2b0081e9a12", "fusion_lat": 0.0, "name": "3c706ef2ce22da8c41e6f2b0081e9a12", "is_reserved": 0, "rental_uris": {"android": "https://dc.lft.to/lastmile_qr_scan", "ios": "https://dc.lft.to/lastmile_qr_scan"}, "fusion_lon": 0.0}, {"lat": 38.916104833333335, "is_disabled": 0, "type": "electric_scooter", "lon": -77.04858966666667, "bike_id": "d0b216b0e825066a18f0fc6e4b8524fb", "fusion_lat": 0.0, "name": "d0b216b0e825066a18f0fc6e4b8524fb", "is_reserved": 0, "rental_uris": {"android": "https://dc.lft.to/lastmile_qr_scan", "ios": "https://dc.lft.to/lastmile_qr_scan"}, "fusion_lon": 0.0}, {"lat": 38.919184333333334, "is_disabled": 0, "type": "electric_scooter", "lon": -77.03176116666667, "bike_id": "0f730b3b222a495ed09b0f46019eff9b", "fusion_lat": 0.0, "name": "0f730b3b222a495ed09b0f46019eff9b", "is_reserved": 0, "rental_uris": {"android": "https://dc.lft.to/lastmile_qr_scan", "ios": "https://dc.lft.to/lastmile_qr_scan"}, "fusion_lon": 0.0}, {"lat": 38.86054566666667, "is_disabled": 0, "type": "electric_scooter", "lon": -77.0575685, "bike_id": "0c0405c9147134db8306bceb8be2d1ef", "fusion_lat": 0.0, "name": "0c0405c9147134db8306bceb8be2d1ef", "is_reserved": 0, "rental_uris": {"android": "https://dc.lft.to/lastmile_qr_scan", "ios": "https://dc.lft.to/lastmile_qr_scan"}, "fusion_lon": 0.0}, {"lat": 38.918744833333335, "is_disabled": 0, "type": "electric_scooter", "lon": -77.04252233333334, "bike_id": "a246c9d978e3b9cacc5a661a2ac2ef18", "fusion_lat": 0.0, "name": "a246c9d978e3b9cacc5a661a2ac2ef18", "is_reserved": 0, "rental_uris": {"android": "https://dc.lft.to/lastmile_qr_scan", "ios": "https://dc.lft.to/lastmile_qr_scan"}, "fusion_lon": 0.0}, {"lat": 38.900418333333334, "is_disabled": 0, "type": "electric_scooter", "lon": -77.03373816666667, "bike_id": "89b86298c20a328101cde18a544d0dd0", "fusion_lat": 0.0, "name": "89b86298c20a328101cde18a544d0dd0", "is_reserved": 0, "rental_uris": {"android": "https://dc.lft.to/lastmile_qr_scan", "ios": "https://dc.lft.to/lastmile_qr_scan"}, "fusion_lon": 0.0}, {"lat": 38.921521, "is_disabled": 0, "type": "electric_scooter", "lon": -77.0365995, "bike_id": "65a3ab4008ec3fc6909350d8caeeee34", "fusion_lat": 0.0, "name": "65a3ab4008ec3fc6909350d8caeeee34", "is_reserved": 0, "rental_uris": {"android": "https://dc.lft.to/lastmile_qr_scan", "ios": "https://dc.lft.to/lastmile_qr_scan"}, "fusion_lon": 0.0}, {"lat": 38.938634, "is_disabled": 0, "type": "electric_scooter", "lon": -77.02562733333333, "bike_id": "60f8802cf8716df85667ae0d41913c53", "fusion_lat": 0.0, "name": "60f8802cf8716df85667ae0d41913c53", "is_reserved": 0, "rental_uris": {"android": "https://dc.lft.to/lastmile_qr_scan", "ios": "https://dc.lft.to/lastmile_qr_scan"}, "fusion_lon": 0.0}, {"lat": 38.903211166666665, "is_disabled": 0, "type": "electric_scooter", "lon": -77.0379485, "bike_id": "8e8b6b8178fbbe23b59535bfbc069296", "fusion_lat": 0.0, "name": "8e8b6b8178fbbe23b59535bfbc069296", "is_reserved": 0, "rental_uris": {"android": "https://dc.lft.to/lastmile_qr_scan", "ios": "https://dc.lft.to/lastmile_qr_scan"}, "fusion_lon": 0.0}, {"lat": 38.9258445, "is_disabled": 0, "type": "electric_scooter", "lon": -77.057556, "bike_id": "52f0f7dbb93f6748ab762f589708b0fc", "fusion_lat": 0.0, "name": "52f0f7dbb93f6748ab762f589708b0fc", "is_reserved": 0, "rental_uris": {"android": "https://dc.lft.to/lastmile_qr_scan", "ios": "https://dc.lft.to/lastmile_qr_scan"}, "fusion_lon": 0.0}, {"lat": 38.92280733333333, "is_disabled": 0, "type": "electric_scooter", "lon": -77.02975383333333, "bike_id": "40132d41ebb142398ef6fe3e8169b792", "fusion_lat": 0.0, "name": "40132d41ebb142398ef6fe3e8169b792", "is_reserved": 0, "rental_uris": {"android": "https://dc.lft.to/lastmile_qr_scan", "ios": "https://dc.lft.to/lastmile_qr_scan"}, "fusion_lon": 0.0}, {"lat": 38.928833166666664, "is_disabled": 0, "type": "electric_scooter", "lon": -77.03339866666667, "bike_id": "de0ba40ef2cd59699b48842887937f8e", "fusion_lat": 0.0, "name": "de0ba40ef2cd59699b48842887937f8e", "is_reserved": 0, "rental_uris": {"android": "https://dc.lft.to/lastmile_qr_scan", "ios": "https://dc.lft.to/lastmile_qr_scan"}, "fusion_lon": 0.0}, {"lat": 38.884408, "is_disabled": 0, "type": "electric_scooter", "lon": -77.03042333333333, "bike_id": "97856e7e37910a2b4e63413e7d056b4d", "fusion_lat": 0.0, "name": "97856e7e37910a2b4e63413e7d056b4d", "is_reserved": 0, "rental_uris": {"android": "https://dc.lft.to/lastmile_qr_scan", "ios": "https://dc.lft.to/lastmile_qr_scan"}, "fusion_lon": 0.0}, {"lat": 38.903104166666665, "is_disabled": 0, "type": "electric_scooter", "lon": -77.02072333333334, "bike_id": "09100709c41f9a205ba4950b6ad7e6f1", "fusion_lat": 0.0, "name": "09100709c41f9a205ba4950b6ad7e6f1", "is_reserved": 0, "rental_uris": {"android": "https://dc.lft.to/lastmile_qr_scan", "ios": "https://dc.lft.to/lastmile_qr_scan"}, "fusion_lon": 0.0}, {"lat": 38.928966, "is_disabled": 0, "type": "electric_scooter", "lon": -77.07449366666667, "bike_id": "f27af7f27082bbb80a09b9b95f99ea79", "fusion_lat": 0.0, "name": "f27af7f27082bbb80a09b9b95f99ea79", "is_reserved": 0, "rental_uris": {"android": "https://dc.lft.to/lastmile_qr_scan", "ios": "https://dc.lft.to/lastmile_qr_scan"}, "fusion_lon": 0.0}, {"lat": 38.912101, "is_disabled": 0, "type": "electric_scooter", "lon": -77.0412505, "bike_id": "a455ab342c3e9d57b336bc243aadc088", "fusion_lat": 0.0, "name": "a455ab342c3e9d57b336bc243aadc088", "is_reserved": 0, "rental_uris": {"android": "https://dc.lft.to/lastmile_qr_scan", "ios": "https://dc.lft.to/lastmile_qr_scan"}, "fusion_lon": 0.0}, {"lat": 38.9069115, "is_disabled": 0, "type": "electric_scooter", "lon": -77.06262166666667, "bike_id": "beae3db563bb147d1fe37426f4a30800", "fusion_lat": 0.0, "name": "beae3db563bb147d1fe37426f4a30800", "is_reserved": 0, "rental_uris": {"android": "https://dc.lft.to/lastmile_qr_scan", "ios": "https://dc.lft.to/lastmile_qr_scan"}, "fusion_lon": 0.0}, {"lat": 38.9230125, "is_disabled": 0, "type": "electric_scooter", "lon": -77.04141366666667, "bike_id": "ec6c599c5414742da9c65662be86fd8f", "fusion_lat": 0.0, "name": "ec6c599c5414742da9c65662be86fd8f", "is_reserved": 0, "rental_uris": {"android": "https://dc.lft.to/lastmile_qr_scan", "ios": "https://dc.lft.to/lastmile_qr_scan"}, "fusion_lon": 0.0}, {"lat": 38.8665645, "is_disabled": 0, "type": "electric_scooter", "lon": -76.98880566666666, "bike_id": "1146a392e9b8fab78249f06744cae086", "fusion_lat": 0.0, "name": "1146a392e9b8fab78249f06744cae086", "is_reserved": 0, "rental_uris": {"android": "https://dc.lft.to/lastmile_qr_scan", "ios": "https://dc.lft.to/lastmile_qr_scan"}, "fusion_lon": 0.0}, {"lat": 38.921859, "is_disabled": 0, "type": "electric_scooter", "lon": -77.04710833333333, "bike_id": "fb33ceb87385b8f361150879e64d0e23", "fusion_lat": 0.0, "name": "fb33ceb87385b8f361150879e64d0e23", "is_reserved": 0, "rental_uris": {"android": "https://dc.lft.to/lastmile_qr_scan", "ios": "https://dc.lft.to/lastmile_qr_scan"}, "fusion_lon": 0.0}, {"lat": 38.964969833333335, "is_disabled": 0, "type": "electric_scooter", "lon": -77.02783883333333, "bike_id": "ff765db9830ecf459857a547f782ce5d", "fusion_lat": 0.0, "name": "ff765db9830ecf459857a547f782ce5d", "is_reserved": 0, "rental_uris": {"android": "https://dc.lft.to/lastmile_qr_scan", "ios": "https://dc.lft.to/lastmile_qr_scan"}, "fusion_lon": 0.0}, {"lat": 38.9324825, "is_disabled": 0, "type": "electric_scooter", "lon": -77.03271033333333, "bike_id": "48a8f21d760bd7046d9ab2e6e3ab4ee2", "fusion_lat": 0.0, "name": "48a8f21d760bd7046d9ab2e6e3ab4ee2", "is_reserved": 0, "rental_uris": {"android": "https://dc.lft.to/lastmile_qr_scan", "ios": "https://dc.lft.to/lastmile_qr_scan"}, "fusion_lon": 0.0}, {"lat": 38.920257666666664, "is_disabled": 0, "type": "electric_scooter", "lon": -77.038505, "bike_id": "dbf233fb4bd377c95ded857ce4d27e96", "fusion_lat": 0.0, "name": "dbf233fb4bd377c95ded857ce4d27e96", "is_reserved": 0, "rental_uris": {"android": "https://dc.lft.to/lastmile_qr_scan", "ios": "https://dc.lft.to/lastmile_qr_scan"}, "fusion_lon": 0.0}, {"lat": 38.91913866666667, "is_disabled": 0, "type": "electric_scooter", "lon": -77.0339575, "bike_id": "0a6a65c31d6359e06edc39ff29f48be6", "fusion_lat": 0.0, "name": "0a6a65c31d6359e06edc39ff29f48be6", "is_reserved": 0, "rental_uris": {"android": "https://dc.lft.to/lastmile_qr_scan", "ios": "https://dc.lft.to/lastmile_qr_scan"}, "fusion_lon": 0.0}, {"lat": 38.867945166666665, "is_disabled": 0, "type": "electric_scooter", "lon": -76.96571983333334, "bike_id": "c328e6d2e3ed9ec92e2000533d16718a", "fusion_lat": 0.0, "name": "c328e6d2e3ed9ec92e2000533d16718a", "is_reserved": 0, "rental_uris": {"android": "https://dc.lft.to/lastmile_qr_scan", "ios": "https://dc.lft.to/lastmile_qr_scan"}, "fusion_lon": 0.0}, {"lat": 38.9037385, "is_disabled": 0, "type": "electric_scooter", "lon": -77.00264716666666, "bike_id": "b93c767cbe0e1c62874bc47501fc3bcd", "fusion_lat": 0.0, "name": "b93c767cbe0e1c62874bc47501fc3bcd", "is_reserved": 0, "rental_uris": {"android": "https://dc.lft.to/lastmile_qr_scan", "ios": "https://dc.lft.to/lastmile_qr_scan"}, "fusion_lon": 0.0}, {"lat": 38.905234, "is_disabled": 0, "type": "electric_scooter", "lon": -76.98622966666667, "bike_id": "6bbca6291c1d713cd48d13343c950928", "fusion_lat": 0.0, "name": "6bbca6291c1d713cd48d13343c950928", "is_reserved": 0, "rental_uris": {"android": "https://dc.lft.to/lastmile_qr_scan", "ios": "https://dc.lft.to/lastmile_qr_scan"}, "fusion_lon": 0.0}, {"lat": 38.90029916666667, "is_disabled": 0, "type": "electric_scooter", "lon": -77.00214083333333, "bike_id": "491d75f0c2b0f8ca39d48b1f7896a6b4", "fusion_lat": 0.0, "name": "491d75f0c2b0f8ca39d48b1f7896a6b4", "is_reserved": 0, "rental_uris": {"android": "https://dc.lft.to/lastmile_qr_scan", "ios": "https://dc.lft.to/lastmile_qr_scan"}, "fusion_lon": 0.0}, {"lat": 38.897448833333335, "is_disabled": 0, "type": "electric_scooter", "lon": -77.01869583333334, "bike_id": "e980bc29850b344a4ce5ac505218bd3c", "fusion_lat": 0.0, "name": "e980bc29850b344a4ce5ac505218bd3c", "is_reserved": 0, "rental_uris": {"android": "https://dc.lft.to/lastmile_qr_scan", "ios": "https://dc.lft.to/lastmile_qr_scan"}, "fusion_lon": 0.0}, {"lat": 38.93264816666667, "is_disabled": 0, "type": "electric_scooter", "lon": -77.03268833333334, "bike_id": "3aae07e791d91ba20e2300172dd1fde3", "fusion_lat": 0.0, "name": "3aae07e791d91ba20e2300172dd1fde3", "is_reserved": 0, "rental_uris": {"android": "https://dc.lft.to/lastmile_qr_scan", "ios": "https://dc.lft.to/lastmile_qr_scan"}, "fusion_lon": 0.0}, {"lat": 38.92627266666667, "is_disabled": 0, "type": "electric_scooter", "lon": -77.03707866666667, "bike_id": "eba2df7dc4d86bef15cc4f6251cf06db", "fusion_lat": 0.0, "name": "eba2df7dc4d86bef15cc4f6251cf06db", "is_reserved": 0, "rental_uris": {"android": "https://dc.lft.to/lastmile_qr_scan", "ios": "https://dc.lft.to/lastmile_qr_scan"}, "fusion_lon": 0.0}, {"lat": 38.905022, "is_disabled": 0, "type": "electric_scooter", "lon": -77.06203616666667, "bike_id": "01b607b73d47f166700edf4d0374889d", "fusion_lat": 0.0, "name": "01b607b73d47f166700edf4d0374889d", "is_reserved": 0, "rental_uris": {"android": "https://dc.lft.to/lastmile_qr_scan", "ios": "https://dc.lft.to/lastmile_qr_scan"}, "fusion_lon": 0.0}, {"lat": 38.89967033333333, "is_disabled": 0, "type": "electric_scooter", "lon": -77.0570515, "bike_id": "f6a8fba4d7a75da9f0c0263d4ca4bb24", "fusion_lat": 0.0, "name": "f6a8fba4d7a75da9f0c0263d4ca4bb24", "is_reserved": 0, "rental_uris": {"android": "https://dc.lft.to/lastmile_qr_scan", "ios": "https://dc.lft.to/lastmile_qr_scan"}, "fusion_lon": 0.0}, {"lat": 38.897354, "is_disabled": 0, "type": "electric_scooter", "lon": -77.047661, "bike_id": "88c7acd12e00ee36cde30193b69a221b", "fusion_lat": 0.0, "name": "88c7acd12e00ee36cde30193b69a221b", "is_reserved": 0, "rental_uris": {"android": "https://dc.lft.to/lastmile_qr_scan", "ios": "https://dc.lft.to/lastmile_qr_scan"}, "fusion_lon": 0.0}, {"lat": 38.91824616666667, "is_disabled": 0, "type": "electric_scooter", "lon": -77.0344815, "bike_id": "69915b1b402f7fdf636603e2840e0e1e", "fusion_lat": 0.0, "name": "69915b1b402f7fdf636603e2840e0e1e", "is_reserved": 0, "rental_uris": {"android": "https://dc.lft.to/lastmile_qr_scan", "ios": "https://dc.lft.to/lastmile_qr_scan"}, "fusion_lon": 0.0}, {"lat": 38.900795, "is_disabled": 0, "type": "electric_scooter", "lon": -77.05068833333333, "bike_id": "47622c06468bcacf7819b3439049aa9e", "fusion_lat": 0.0, "name": "47622c06468bcacf7819b3439049aa9e", "is_reserved": 0, "rental_uris": {"android": "https://dc.lft.to/lastmile_qr_scan", "ios": "https://dc.lft.to/lastmile_qr_scan"}, "fusion_lon": 0.0}, {"lat": 38.9224095, "is_disabled": 0, "type": "electric_scooter", "lon": -77.04580783333333, "bike_id": "07531d5bf0d10496031f4f4ccc6bd34d", "fusion_lat": 0.0, "name": "07531d5bf0d10496031f4f4ccc6bd34d", "is_reserved": 0, "rental_uris": {"android": "https://dc.lft.to/lastmile_qr_scan", "ios": "https://dc.lft.to/lastmile_qr_scan"}, "fusion_lon": 0.0}, {"lat": 38.91422333333333, "is_disabled": 0, "type": "electric_scooter", "lon": -77.03184016666667, "bike_id": "1dc2cfd98b876ff27cc498c2fd3d8a45", "fusion_lat": 0.0, "name": "1dc2cfd98b876ff27cc498c2fd3d8a45", "is_reserved": 0, "rental_uris": {"android": "https://dc.lft.to/lastmile_qr_scan", "ios": "https://dc.lft.to/lastmile_qr_scan"}, "fusion_lon": 0.0}, {"lat": 38.93986, "is_disabled": 0, "type": "electric_scooter", "lon": -77.07172533333333, "bike_id": "790f84ad11c01480e1e00dd9b12d7570", "fusion_lat": 0.0, "name": "790f84ad11c01480e1e00dd9b12d7570", "is_reserved": 0, "rental_uris": {"android": "https://dc.lft.to/lastmile_qr_scan", "ios": "https://dc.lft.to/lastmile_qr_scan"}, "fusion_lon": 0.0}, {"lat": 38.8973365, "is_disabled": 0, "type": "electric_scooter", "lon": -77.02956466666667, "bike_id": "2fd50bf47275a9d08a2c5ab349a2dff9", "fusion_lat": 0.0, "name": "2fd50bf47275a9d08a2c5ab349a2dff9", "is_reserved": 0, "rental_uris": {"android": "https://dc.lft.to/lastmile_qr_scan", "ios": "https://dc.lft.to/lastmile_qr_scan"}, "fusion_lon": 0.0}, {"lat": 38.85053816666667, "is_disabled": 0, "type": "electric_bike", "lon": -76.97316483333333, "bike_id": "940483ffc5b27831078990675b914d8e", "fusion_lat": 0.0, "name": "940483ffc5b27831078990675b914d8e", "is_reserved": 0, "rental_uris": {"android": "https://dc.lft.to/lastmile_qr_scan", "ios": "https://dc.lft.to/lastmile_qr_scan"}, "fusion_lon": 0.0}, {"lat": 38.898826666666665, "is_disabled": 0, "type": "electric_scooter", "lon": -76.9317645, "bike_id": "4ed3cd867d148c7c78808be11bc718dc", "fusion_lat": 0.0, "name": "4ed3cd867d148c7c78808be11bc718dc", "is_reserved": 0, "rental_uris": {"android": "https://dc.lft.to/lastmile_qr_scan", "ios": "https://dc.lft.to/lastmile_qr_scan"}, "fusion_lon": 0.0}, {"lat": 38.92826683333333, "is_disabled": 0, "type": "electric_scooter", "lon": -77.02259083333334, "bike_id": "db12a11d150730734af17cfb1f87cf7d", "fusion_lat": 0.0, "name": "db12a11d150730734af17cfb1f87cf7d", "is_reserved": 0, "rental_uris": {"android": "https://dc.lft.to/lastmile_qr_scan", "ios": "https://dc.lft.to/lastmile_qr_scan"}, "fusion_lon": 0.0}, {"lat": 38.905273666666666, "is_disabled": 0, "type": "electric_scooter", "lon": -77.034546, "bike_id": "ac7e6ab0bac305fcb7e4676f277802cc", "fusion_lat": 0.0, "name": "ac7e6ab0bac305fcb7e4676f277802cc", "is_reserved": 0, "rental_uris": {"android": "https://dc.lft.to/lastmile_qr_scan", "ios": "https://dc.lft.to/lastmile_qr_scan"}, "fusion_lon": 0.0}, {"lat": 38.92253616666667, "is_disabled": 0, "type": "electric_scooter", "lon": -77.01930883333333, "bike_id": "a07d6e88881fce2aa484242506f736d2", "fusion_lat": 0.0, "name": "a07d6e88881fce2aa484242506f736d2", "is_reserved": 0, "rental_uris": {"android": "https://dc.lft.to/lastmile_qr_scan", "ios": "https://dc.lft.to/lastmile_qr_scan"}, "fusion_lon": 0.0}, {"lat": 38.9283825, "is_disabled": 0, "type": "electric_scooter", "lon": -77.05424466666666, "bike_id": "17aa1d88f93bdb2d0dfbd8a9864d7264", "fusion_lat": 0.0, "name": "17aa1d88f93bdb2d0dfbd8a9864d7264", "is_reserved": 0, "rental_uris": {"android": "https://dc.lft.to/lastmile_qr_scan", "ios": "https://dc.lft.to/lastmile_qr_scan"}, "fusion_lon": 0.0}, {"lat": 38.872484666666665, "is_disabled": 0, "type": "electric_scooter", "lon": -76.97732383333333, "bike_id": "d22ef888c43bdbce3267e54c64447d6f", "fusion_lat": 0.0, "name": "d22ef888c43bdbce3267e54c64447d6f", "is_reserved": 0, "rental_uris": {"android": "https://dc.lft.to/lastmile_qr_scan", "ios": "https://dc.lft.to/lastmile_qr_scan"}, "fusion_lon": 0.0}, {"lat": 38.90961583333333, "is_disabled": 0, "type": "electric_scooter", "lon": -77.02685866666667, "bike_id": "848bb1655933a344c61b49845385fa6d", "fusion_lat": 0.0, "name": "848bb1655933a344c61b49845385fa6d", "is_reserved": 0, "rental_uris": {"android": "https://dc.lft.to/lastmile_qr_scan", "ios": "https://dc.lft.to/lastmile_qr_scan"}, "fusion_lon": 0.0}, {"lat": 38.93235333333333, "is_disabled": 0, "type": "electric_scooter", "lon": -77.03382116666667, "bike_id": "272f70b45599e49871d4b47839e8b278", "fusion_lat": 0.0, "name": "272f70b45599e49871d4b47839e8b278", "is_reserved": 0, "rental_uris": {"android": "https://dc.lft.to/lastmile_qr_scan", "ios": "https://dc.lft.to/lastmile_qr_scan"}, "fusion_lon": 0.0}, {"lat": 38.88642933333333, "is_disabled": 0, "type": "electric_scooter", "lon": -76.95473783333334, "bike_id": "194f1976c13398b5f5a9f040f5454574", "fusion_lat": 0.0, "name": "194f1976c13398b5f5a9f040f5454574", "is_reserved": 0, "rental_uris": {"android": "https://dc.lft.to/lastmile_qr_scan", "ios": "https://dc.lft.to/lastmile_qr_scan"}, "fusion_lon": 0.0}, {"lat": 38.9430885, "is_disabled": 0, "type": "electric_scooter", "lon": -77.06127033333334, "bike_id": "3abb6539bc10c380746aac54e0bfea50", "fusion_lat": 0.0, "name": "3abb6539bc10c380746aac54e0bfea50", "is_reserved": 0, "rental_uris": {"android": "https://dc.lft.to/lastmile_qr_scan", "ios": "https://dc.lft.to/lastmile_qr_scan"}, "fusion_lon": 0.0}, {"lat": 38.9157875, "is_disabled": 0, "type": "electric_scooter", "lon": -77.05030016666667, "bike_id": "ba9da58112d434e7e157ef92ab617479", "fusion_lat": 0.0, "name": "ba9da58112d434e7e157ef92ab617479", "is_reserved": 0, "rental_uris": {"android": "https://dc.lft.to/lastmile_qr_scan", "ios": "https://dc.lft.to/lastmile_qr_scan"}, "fusion_lon": 0.0}, {"lat": 38.906530000000004, "is_disabled": 0, "type": "electric_scooter", "lon": -77.01422383333333, "bike_id": "f9383f1e3a69bac921e013210f2c3832", "fusion_lat": 0.0, "name": "f9383f1e3a69bac921e013210f2c3832", "is_reserved": 0, "rental_uris": {"android": "https://dc.lft.to/lastmile_qr_scan", "ios": "https://dc.lft.to/lastmile_qr_scan"}, "fusion_lon": 0.0}, {"lat": 38.90241833333333, "is_disabled": 0, "type": "electric_scooter", "lon": -77.03408933333333, "bike_id": "02c553a2b7b2c5ec9053c851e237ae0c", "fusion_lat": 0.0, "name": "02c553a2b7b2c5ec9053c851e237ae0c", "is_reserved": 0, "rental_uris": {"android": "https://dc.lft.to/lastmile_qr_scan", "ios": "https://dc.lft.to/lastmile_qr_scan"}, "fusion_lon": 0.0}, {"lat": 38.903333333333336, "is_disabled": 0, "type": "electric_scooter", "lon": -76.9759845, "bike_id": "5085244d55cb852b2c1ea36b2302517a", "fusion_lat": 0.0, "name": "5085244d55cb852b2c1ea36b2302517a", "is_reserved": 0, "rental_uris": {"android": "https://dc.lft.to/lastmile_qr_scan", "ios": "https://dc.lft.to/lastmile_qr_scan"}, "fusion_lon": 0.0}, {"lat": 38.92111633333333, "is_disabled": 0, "type": "electric_scooter", "lon": -77.04698816666667, "bike_id": "e72c537b6ae5b5cc071d23c52a6c3d95", "fusion_lat": 0.0, "name": "e72c537b6ae5b5cc071d23c52a6c3d95", "is_reserved": 0, "rental_uris": {"android": "https://dc.lft.to/lastmile_qr_scan", "ios": "https://dc.lft.to/lastmile_qr_scan"}, "fusion_lon": 0.0}, {"lat": 38.936204333333336, "is_disabled": 0, "type": "electric_scooter", "lon": -77.03223666666666, "bike_id": "485e8894f416ae8f867d69ac45495338", "fusion_lat": 0.0, "name": "485e8894f416ae8f867d69ac45495338", "is_reserved": 0, "rental_uris": {"android": "https://dc.lft.to/lastmile_qr_scan", "ios": "https://dc.lft.to/lastmile_qr_scan"}, "fusion_lon": 0.0}, {"lat": 38.920419333333335, "is_disabled": 0, "type": "electric_scooter", "lon": -77.02369733333333, "bike_id": "1353a3c16647734a0311df70187dafb4", "fusion_lat": 0.0, "name": "1353a3c16647734a0311df70187dafb4", "is_reserved": 0, "rental_uris": {"android": "https://dc.lft.to/lastmile_qr_scan", "ios": "https://dc.lft.to/lastmile_qr_scan"}, "fusion_lon": 0.0}, {"lat": 38.998215333333334, "is_disabled": 0, "type": "electric_bike", "lon": -76.8837795, "bike_id": "86fa888153563f3777f72f5d30d12336", "fusion_lat": 0.0, "name": "86fa888153563f3777f72f5d30d12336", "is_reserved": 0, "rental_uris": {"android": "https://dc.lft.to/lastmile_qr_scan", "ios": "https://dc.lft.to/lastmile_qr_scan"}, "fusion_lon": 0.0}, {"lat": 39.03047133333333, "is_disabled": 0, "type": "electric_bike", "lon": -77.094759, "bike_id": "87f1d5fb33c4c59322e2027548aebd13", "fusion_lat": 0.0, "name": "87f1d5fb33c4c59322e2027548aebd13", "is_reserved": 0, "rental_uris": {"android": "https://dc.lft.to/lastmile_qr_scan", "ios": "https://dc.lft.to/lastmile_qr_scan"}, "fusion_lon": 0.0}, {"lat": 38.87222333333333, "is_disabled": 0, "type": "electric_scooter", "lon": -77.01775383333333, "bike_id": "c80cff8bb0e9cdebebe7fe98d2316b8c", "fusion_lat": 0.0, "name": "c80cff8bb0e9cdebebe7fe98d2316b8c", "is_reserved": 0, "rental_uris": {"android": "https://dc.lft.to/lastmile_qr_scan", "ios": "https://dc.lft.to/lastmile_qr_scan"}, "fusion_lon": 0.0}, {"lat": 38.92842066666667, "is_disabled": 0, "type": "electric_scooter", "lon": -77.054186, "bike_id": "00c96af984c275bfc948919abcc5c6c0", "fusion_lat": 0.0, "name": "00c96af984c275bfc948919abcc5c6c0", "is_reserved": 0, "rental_uris": {"android": "https://dc.lft.to/lastmile_qr_scan", "ios": "https://dc.lft.to/lastmile_qr_scan"}, "fusion_lon": 0.0}, {"lat": 39.02435833333333, "is_disabled": 0, "type": "electric_bike", "lon": -77.131026, "bike_id": "5696af91bf5f4c36be2b96eac8357d7b", "fusion_lat": 0.0, "name": "5696af91bf5f4c36be2b96eac8357d7b", "is_reserved": 0, "rental_uris": {"android": "https://dc.lft.to/lastmile_qr_scan", "ios": "https://dc.lft.to/lastmile_qr_scan"}, "fusion_lon": 0.0}, {"lat": 38.916863666666664, "is_disabled": 0, "type": "electric_scooter", "lon": -77.0295265, "bike_id": "772ee33c484f3ed23f0cdcd1f9eb019e", "fusion_lat": 0.0, "name": "772ee33c484f3ed23f0cdcd1f9eb019e", "is_reserved": 0, "rental_uris": {"android": "https://dc.lft.to/lastmile_qr_scan", "ios": "https://dc.lft.to/lastmile_qr_scan"}, "fusion_lon": 0.0}, {"lat": 38.89970016666667, "is_disabled": 0, "type": "electric_scooter", "lon": -77.033456, "bike_id": "0e01c98cf5d70681edcffd6ca6d079ca", "fusion_lat": 0.0, "name": "0e01c98cf5d70681edcffd6ca6d079ca", "is_reserved": 0, "rental_uris": {"android": "https://dc.lft.to/lastmile_qr_scan", "ios": "https://dc.lft.to/lastmile_qr_scan"}, "fusion_lon": 0.0}, {"lat": 38.9308885, "is_disabled": 0, "type": "electric_scooter", "lon": -76.96726533333333, "bike_id": "b9b8c9870a94ace892e4d6bbc77955c8", "fusion_lat": 0.0, "name": "b9b8c9870a94ace892e4d6bbc77955c8", "is_reserved": 0, "rental_uris": {"android": "https://dc.lft.to/lastmile_qr_scan", "ios": "https://dc.lft.to/lastmile_qr_scan"}, "fusion_lon": 0.0}, {"lat": 38.910679333333334, "is_disabled": 0, "type": "electric_scooter", "lon": -77.04112816666667, "bike_id": "7de57e487ceee7e83813cb1bafb926bf", "fusion_lat": 0.0, "name": "7de57e487ceee7e83813cb1bafb926bf", "is_reserved": 0, "rental_uris": {"android": "https://dc.lft.to/lastmile_qr_scan", "ios": "https://dc.lft.to/lastmile_qr_scan"}, "fusion_lon": 0.0}, {"lat": 38.88583366666667, "is_disabled": 0, "type": "electric_scooter", "lon": -77.0122815, "bike_id": "f8001ec2d0c70b84837661028504e7bd", "fusion_lat": 0.0, "name": "f8001ec2d0c70b84837661028504e7bd", "is_reserved": 0, "rental_uris": {"android": "https://dc.lft.to/lastmile_qr_scan", "ios": "https://dc.lft.to/lastmile_qr_scan"}, "fusion_lon": 0.0}, {"lat": 38.880201666666665, "is_disabled": 0, "type": "electric_scooter", "lon": -76.931346, "bike_id": "7d0c9fa7abb2a7c60bd1f0f2b81f2ae3", "fusion_lat": 0.0, "name": "7d0c9fa7abb2a7c60bd1f0f2b81f2ae3", "is_reserved": 0, "rental_uris": {"android": "https://dc.lft.to/lastmile_qr_scan", "ios": "https://dc.lft.to/lastmile_qr_scan"}, "fusion_lon": 0.0}, {"lat": 38.94650816666667, "is_disabled": 0, "type": "electric_scooter", "lon": -77.06489683333334, "bike_id": "719a511e121049ec7c07acbc5ecb2bc3", "fusion_lat": 0.0, "name": "719a511e121049ec7c07acbc5ecb2bc3", "is_reserved": 0, "rental_uris": {"android": "https://dc.lft.to/lastmile_qr_scan", "ios": "https://dc.lft.to/lastmile_qr_scan"}, "fusion_lon": 0.0}, {"lat": 38.92664666666667, "is_disabled": 0, "type": "electric_scooter", "lon": -77.0560135, "bike_id": "fcf30d007318e9fcdee3b970c2967351", "fusion_lat": 0.0, "name": "fcf30d007318e9fcdee3b970c2967351", "is_reserved": 0, "rental_uris": {"android": "https://dc.lft.to/lastmile_qr_scan", "ios": "https://dc.lft.to/lastmile_qr_scan"}, "fusion_lon": 0.0}, {"lat": 38.895524, "is_disabled": 0, "type": "electric_scooter", "lon": -76.93363983333333, "bike_id": "d28254d33acfd6ca1ff850b20f371f45", "fusion_lat": 0.0, "name": "d28254d33acfd6ca1ff850b20f371f45", "is_reserved": 0, "rental_uris": {"android": "https://dc.lft.to/lastmile_qr_scan", "ios": "https://dc.lft.to/lastmile_qr_scan"}, "fusion_lon": 0.0}, {"lat": 38.92047983333333, "is_disabled": 0, "type": "electric_scooter", "lon": -77.03346333333333, "bike_id": "6637590029c8d3d7d5b7f4f27da64951", "fusion_lat": 0.0, "name": "6637590029c8d3d7d5b7f4f27da64951", "is_reserved": 0, "rental_uris": {"android": "https://dc.lft.to/lastmile_qr_scan", "ios": "https://dc.lft.to/lastmile_qr_scan"}, "fusion_lon": 0.0}, {"lat": 38.914171333333336, "is_disabled": 0, "type": "electric_scooter", "lon": -77.04081616666667, "bike_id": "7d1b93f9af1e2ebe3cdcacd4d580ea47", "fusion_lat": 0.0, "name": "7d1b93f9af1e2ebe3cdcacd4d580ea47", "is_reserved": 0, "rental_uris": {"android": "https://dc.lft.to/lastmile_qr_scan", "ios": "https://dc.lft.to/lastmile_qr_scan"}, "fusion_lon": 0.0}, {"lat": 38.7930605, "is_disabled": 0, "type": "electric_bike", "lon": -77.04925316666667, "bike_id": "c07bf22006c8febc92f8ef6afd23c175", "fusion_lat": 0.0, "name": "c07bf22006c8febc92f8ef6afd23c175", "is_reserved": 0, "rental_uris": {"android": "https://dc.lft.to/lastmile_qr_scan", "ios": "https://dc.lft.to/lastmile_qr_scan"}, "fusion_lon": 0.0}, {"lat": 38.919630166666664, "is_disabled": 0, "type": "electric_scooter", "lon": -77.039614, "bike_id": "6a5ca0acb147c379814aec91ba14f3d6", "fusion_lat": 0.0, "name": "6a5ca0acb147c379814aec91ba14f3d6", "is_reserved": 0, "rental_uris": {"android": "https://dc.lft.to/lastmile_qr_scan", "ios": "https://dc.lft.to/lastmile_qr_scan"}, "fusion_lon": 0.0}, {"lat": 38.9048445, "is_disabled": 0, "type": "electric_scooter", "lon": -77.00778733333334, "bike_id": "ed7da6caf075bf01449cc8822f5a390c", "fusion_lat": 0.0, "name": "ed7da6caf075bf01449cc8822f5a390c", "is_reserved": 0, "rental_uris": {"android": "https://dc.lft.to/lastmile_qr_scan", "ios": "https://dc.lft.to/lastmile_qr_scan"}, "fusion_lon": 0.0}, {"lat": 38.90214916666667, "is_disabled": 0, "type": "electric_scooter", "lon": -76.9884355, "bike_id": "bc18080b82436d6ffbf857a2ff4d5951", "fusion_lat": 0.0, "name": "bc18080b82436d6ffbf857a2ff4d5951", "is_reserved": 0, "rental_uris": {"android": "https://dc.lft.to/lastmile_qr_scan", "ios": "https://dc.lft.to/lastmile_qr_scan"}, "fusion_lon": 0.0}, {"lat": 38.904572333333334, "is_disabled": 0, "type": "electric_scooter", "lon": -77.017756, "bike_id": "305e4dc0648d96b00c04477b9b0aa7e2", "fusion_lat": 0.0, "name": "305e4dc0648d96b00c04477b9b0aa7e2", "is_reserved": 0, "rental_uris": {"android": "https://dc.lft.to/lastmile_qr_scan", "ios": "https://dc.lft.to/lastmile_qr_scan"}, "fusion_lon": 0.0}, {"lat": 38.904452666666664, "is_disabled": 0, "type": "electric_scooter", "lon": -77.04339716666667, "bike_id": "c198d17a97b9db713a90986da533ec95", "fusion_lat": 0.0, "name": "c198d17a97b9db713a90986da533ec95", "is_reserved": 0, "rental_uris": {"android": "https://dc.lft.to/lastmile_qr_scan", "ios": "https://dc.lft.to/lastmile_qr_scan"}, "fusion_lon": 0.0}, {"lat": 38.90788333333333, "is_disabled": 0, "type": "electric_scooter", "lon": -77.0385905, "bike_id": "217bd547f79c17a1b112a7a09c6e11e8", "fusion_lat": 0.0, "name": "217bd547f79c17a1b112a7a09c6e11e8", "is_reserved": 0, "rental_uris": {"android": "https://dc.lft.to/lastmile_qr_scan", "ios": "https://dc.lft.to/lastmile_qr_scan"}, "fusion_lon": 0.0}, {"lat": 38.92076316666667, "is_disabled": 0, "type": "electric_scooter", "lon": -77.01425883333333, "bike_id": "bced5d34e33cc61a354fa74117e057d0", "fusion_lat": 0.0, "name": "bced5d34e33cc61a354fa74117e057d0", "is_reserved": 0, "rental_uris": {"android": "https://dc.lft.to/lastmile_qr_scan", "ios": "https://dc.lft.to/lastmile_qr_scan"}, "fusion_lon": 0.0}, {"lat": 38.90361033333333, "is_disabled": 0, "type": "electric_scooter", "lon": -76.97651916666666, "bike_id": "6c086f10a6bb52742f159ac3caa32f2c", "fusion_lat": 0.0, "name": "6c086f10a6bb52742f159ac3caa32f2c", "is_reserved": 0, "rental_uris": {"android": "https://dc.lft.to/lastmile_qr_scan", "ios": "https://dc.lft.to/lastmile_qr_scan"}, "fusion_lon": 0.0}, {"lat": 38.921745, "is_disabled": 0, "type": "electric_scooter", "lon": -77.042393, "bike_id": "ffa562afd338fffa73a9859b91793181", "fusion_lat": 0.0, "name": "ffa562afd338fffa73a9859b91793181", "is_reserved": 0, "rental_uris": {"android": "https://dc.lft.to/lastmile_qr_scan", "ios": "https://dc.lft.to/lastmile_qr_scan"}, "fusion_lon": 0.0}, {"lat": 38.919622, "is_disabled": 0, "type": "electric_scooter", "lon": -77.03200466666667, "bike_id": "f011a12270f432d7acdfebe073826b8d", "fusion_lat": 0.0, "name": "f011a12270f432d7acdfebe073826b8d", "is_reserved": 0, "rental_uris": {"android": "https://dc.lft.to/lastmile_qr_scan", "ios": "https://dc.lft.to/lastmile_qr_scan"}, "fusion_lon": 0.0}, {"lat": 38.91706883333333, "is_disabled": 0, "type": "electric_scooter", "lon": -77.03217633333334, "bike_id": "0015251f2453a73a8bf7bae04cdc9981", "fusion_lat": 0.0, "name": "0015251f2453a73a8bf7bae04cdc9981", "is_reserved": 0, "rental_uris": {"android": "https://dc.lft.to/lastmile_qr_scan", "ios": "https://dc.lft.to/lastmile_qr_scan"}, "fusion_lon": 0.0}, {"lat": 38.896453666666666, "is_disabled": 0, "type": "electric_scooter", "lon": -77.00786266666667, "bike_id": "b94b3bd3bfbc057da39f73f18f405bd4", "fusion_lat": 0.0, "name": "b94b3bd3bfbc057da39f73f18f405bd4", "is_reserved": 0, "rental_uris": {"android": "https://dc.lft.to/lastmile_qr_scan", "ios": "https://dc.lft.to/lastmile_qr_scan"}, "fusion_lon": 0.0}, {"lat": 38.93573216666667, "is_disabled": 0, "type": "electric_scooter", "lon": -77.03261633333334, "bike_id": "2a16f52e31b053481910c04b6efe186c", "fusion_lat": 0.0, "name": "2a16f52e31b053481910c04b6efe186c", "is_reserved": 0, "rental_uris": {"android": "https://dc.lft.to/lastmile_qr_scan", "ios": "https://dc.lft.to/lastmile_qr_scan"}, "fusion_lon": 0.0}, {"lat": 38.9055935, "is_disabled": 0, "type": "electric_scooter", "lon": -77.00579466666667, "bike_id": "ef9e760fb65fba8e64469f24b94b03b3", "fusion_lat": 0.0, "name": "ef9e760fb65fba8e64469f24b94b03b3", "is_reserved": 0, "rental_uris": {"android": "https://dc.lft.to/lastmile_qr_scan", "ios": "https://dc.lft.to/lastmile_qr_scan"}, "fusion_lon": 0.0}, {"lat": 38.90489266666667, "is_disabled": 0, "type": "electric_scooter", "lon": -77.05734983333333, "bike_id": "65a16f32d57d417b2b161cb634f5be36", "fusion_lat": 0.0, "name": "65a16f32d57d417b2b161cb634f5be36", "is_reserved": 0, "rental_uris": {"android": "https://dc.lft.to/lastmile_qr_scan", "ios": "https://dc.lft.to/lastmile_qr_scan"}, "fusion_lon": 0.0}, {"lat": 38.9494515, "is_disabled": 0, "type": "electric_scooter", "lon": -77.0202155, "bike_id": "331d1a2c94c99ba264596ae637d49a60", "fusion_lat": 0.0, "name": "331d1a2c94c99ba264596ae637d49a60", "is_reserved": 0, "rental_uris": {"android": "https://dc.lft.to/lastmile_qr_scan", "ios": "https://dc.lft.to/lastmile_qr_scan"}, "fusion_lon": 0.0}, {"lat": 38.872134333333335, "is_disabled": 0, "type": "electric_bike", "lon": -77.01526366666667, "bike_id": "4151cdbb431a3a8955309d4c8404f20a", "fusion_lat": 0.0, "name": "4151cdbb431a3a8955309d4c8404f20a", "is_reserved": 0, "rental_uris": {"android": "https://dc.lft.to/lastmile_qr_scan", "ios": "https://dc.lft.to/lastmile_qr_scan"}, "fusion_lon": 0.0}, {"lat": 38.86278133333333, "is_disabled": 0, "type": "electric_scooter", "lon": -76.992451, "bike_id": "b52f11d87126acb692c4363602f32c40", "fusion_lat": 0.0, "name": "b52f11d87126acb692c4363602f32c40", "is_reserved": 0, "rental_uris": {"android": "https://dc.lft.to/lastmile_qr_scan", "ios": "https://dc.lft.to/lastmile_qr_scan"}, "fusion_lon": 0.0}, {"lat": 38.931417833333334, "is_disabled": 0, "type": "electric_scooter", "lon": -77.02826633333333, "bike_id": "f1b779a283022daed4921a7e6ea4ef7f", "fusion_lat": 0.0, "name": "f1b779a283022daed4921a7e6ea4ef7f", "is_reserved": 0, "rental_uris": {"android": "https://dc.lft.to/lastmile_qr_scan", "ios": "https://dc.lft.to/lastmile_qr_scan"}, "fusion_lon": 0.0}, {"lat": 38.922043, "is_disabled": 0, "type": "electric_scooter", "lon": -77.0424645, "bike_id": "fbd570962f09d0de3a8da9fac452154e", "fusion_lat": 0.0, "name": "fbd570962f09d0de3a8da9fac452154e", "is_reserved": 0, "rental_uris": {"android": "https://dc.lft.to/lastmile_qr_scan", "ios": "https://dc.lft.to/lastmile_qr_scan"}, "fusion_lon": 0.0}, {"lat": 39.03052233333333, "is_disabled": 0, "type": "electric_bike", "lon": -77.09478183333333, "bike_id": "3f4b60f2bb33a744b79195fe8131e0ca", "fusion_lat": 0.0, "name": "3f4b60f2bb33a744b79195fe8131e0ca", "is_reserved": 0, "rental_uris": {"android": "https://dc.lft.to/lastmile_qr_scan", "ios": "https://dc.lft.to/lastmile_qr_scan"}, "fusion_lon": 0.0}, {"lat": 38.8951465, "is_disabled": 0, "type": "electric_scooter", "lon": -77.04362283333333, "bike_id": "c97ebccc28cde41128ac1311cfd6d188", "fusion_lat": 0.0, "name": "c97ebccc28cde41128ac1311cfd6d188", "is_reserved": 0, "rental_uris": {"android": "https://dc.lft.to/lastmile_qr_scan", "ios": "https://dc.lft.to/lastmile_qr_scan"}, "fusion_lon": 0.0}, {"lat": 38.923291, "is_disabled": 0, "type": "electric_scooter", "lon": -77.03899066666666, "bike_id": "6f9b4770f65a9843da514f4b1ffa5d66", "fusion_lat": 0.0, "name": "6f9b4770f65a9843da514f4b1ffa5d66", "is_reserved": 0, "rental_uris": {"android": "https://dc.lft.to/lastmile_qr_scan", "ios": "https://dc.lft.to/lastmile_qr_scan"}, "fusion_lon": 0.0}, {"lat": 38.90971866666667, "is_disabled": 0, "type": "electric_scooter", "lon": -77.04521166666666, "bike_id": "e67e0770fdc2b6cc0009b879933e8ef4", "fusion_lat": 0.0, "name": "e67e0770fdc2b6cc0009b879933e8ef4", "is_reserved": 0, "rental_uris": {"android": "https://dc.lft.to/lastmile_qr_scan", "ios": "https://dc.lft.to/lastmile_qr_scan"}, "fusion_lon": 0.0}, {"lat": 38.90138616666667, "is_disabled": 0, "type": "electric_scooter", "lon": -77.0006945, "bike_id": "97c134745095972a11640bb18981c4e5", "fusion_lat": 0.0, "name": "97c134745095972a11640bb18981c4e5", "is_reserved": 0, "rental_uris": {"android": "https://dc.lft.to/lastmile_qr_scan", "ios": "https://dc.lft.to/lastmile_qr_scan"}, "fusion_lon": 0.0}, {"lat": 38.9218285, "is_disabled": 0, "type": "electric_scooter", "lon": -77.04238683333334, "bike_id": "3e8ae77ceb3dd00d0d1fd19cc14036eb", "fusion_lat": 0.0, "name": "3e8ae77ceb3dd00d0d1fd19cc14036eb", "is_reserved": 0, "rental_uris": {"android": "https://dc.lft.to/lastmile_qr_scan", "ios": "https://dc.lft.to/lastmile_qr_scan"}, "fusion_lon": 0.0}, {"lat": 38.907301, "is_disabled": 0, "type": "electric_scooter", "lon": -77.04828766666667, "bike_id": "f39522126fa4c202e39cf0d29a2cab25", "fusion_lat": 0.0, "name": "f39522126fa4c202e39cf0d29a2cab25", "is_reserved": 0, "rental_uris": {"android": "https://dc.lft.to/lastmile_qr_scan", "ios": "https://dc.lft.to/lastmile_qr_scan"}, "fusion_lon": 0.0}, {"lat": 38.900788166666665, "is_disabled": 0, "type": "electric_scooter", "lon": -77.05313433333333, "bike_id": "bf425a1a6792ee962ea503f778255a91", "fusion_lat": 0.0, "name": "bf425a1a6792ee962ea503f778255a91", "is_reserved": 0, "rental_uris": {"android": "https://dc.lft.to/lastmile_qr_scan", "ios": "https://dc.lft.to/lastmile_qr_scan"}, "fusion_lon": 0.0}, {"lat": 38.936780166666665, "is_disabled": 0, "type": "electric_scooter", "lon": -77.035727, "bike_id": "5c1841b3471f2f2d5f636eed60e90186", "fusion_lat": 0.0, "name": "5c1841b3471f2f2d5f636eed60e90186", "is_reserved": 0, "rental_uris": {"android": "https://dc.lft.to/lastmile_qr_scan", "ios": "https://dc.lft.to/lastmile_qr_scan"}, "fusion_lon": 0.0}, {"lat": 38.94632433333334, "is_disabled": 0, "type": "electric_scooter", "lon": -77.01851666666667, "bike_id": "b97198ca219b85ed99bd2ae45b36b245", "fusion_lat": 0.0, "name": "b97198ca219b85ed99bd2ae45b36b245", "is_reserved": 0, "rental_uris": {"android": "https://dc.lft.to/lastmile_qr_scan", "ios": "https://dc.lft.to/lastmile_qr_scan"}, "fusion_lon": 0.0}, {"lat": 38.927961, "is_disabled": 0, "type": "electric_scooter", "lon": -77.05522266666667, "bike_id": "a056c3c32b8b159f4337d6bb4485dd08", "fusion_lat": 0.0, "name": "a056c3c32b8b159f4337d6bb4485dd08", "is_reserved": 0, "rental_uris": {"android": "https://dc.lft.to/lastmile_qr_scan", "ios": "https://dc.lft.to/lastmile_qr_scan"}, "fusion_lon": 0.0}, {"lat": 38.917514833333335, "is_disabled": 0, "type": "electric_scooter", "lon": -77.03664816666667, "bike_id": "8829dbf5234472a74efe258dbee60012", "fusion_lat": 0.0, "name": "8829dbf5234472a74efe258dbee60012", "is_reserved": 0, "rental_uris": {"android": "https://dc.lft.to/lastmile_qr_scan", "ios": "https://dc.lft.to/lastmile_qr_scan"}, "fusion_lon": 0.0}, {"lat": 38.90662433333333, "is_disabled": 0, "type": "electric_scooter", "lon": -77.0386135, "bike_id": "90961f63960f99d2089f2202c9c002ed", "fusion_lat": 0.0, "name": "90961f63960f99d2089f2202c9c002ed", "is_reserved": 0, "rental_uris": {"android": "https://dc.lft.to/lastmile_qr_scan", "ios": "https://dc.lft.to/lastmile_qr_scan"}, "fusion_lon": 0.0}, {"lat": 38.85320083333333, "is_disabled": 0, "type": "electric_bike", "lon": -76.98002966666667, "bike_id": "13c845a13b2f8228dcc8504ccfd48d68", "fusion_lat": 0.0, "name": "13c845a13b2f8228dcc8504ccfd48d68", "is_reserved": 0, "rental_uris": {"android": "https://dc.lft.to/lastmile_qr_scan", "ios": "https://dc.lft.to/lastmile_qr_scan"}, "fusion_lon": 0.0}, {"lat": 38.95197733333333, "is_disabled": 0, "type": "electric_bike", "lon": -76.96728416666667, "bike_id": "3dad899235f1a84c3ed9f76c185c21ef", "fusion_lat": 0.0, "name": "3dad899235f1a84c3ed9f76c185c21ef", "is_reserved": 0, "rental_uris": {"android": "https://dc.lft.to/lastmile_qr_scan", "ios": "https://dc.lft.to/lastmile_qr_scan"}, "fusion_lon": 0.0}, {"lat": 39.00028066666667, "is_disabled": 0, "type": "electric_bike", "lon": -76.910833, "bike_id": "1ec917132bb86f49620d9636b45d9155", "fusion_lat": 0.0, "name": "1ec917132bb86f49620d9636b45d9155", "is_reserved": 0, "rental_uris": {"android": "https://dc.lft.to/lastmile_qr_scan", "ios": "https://dc.lft.to/lastmile_qr_scan"}, "fusion_lon": 0.0}, {"lat": 38.863860833333334, "is_disabled": 0, "type": "electric_bike", "lon": -76.98988066666666, "bike_id": "1d2259d4312c04bcb4100a2039a92d41", "fusion_lat": 0.0, "name": "1d2259d4312c04bcb4100a2039a92d41", "is_reserved": 0, "rental_uris": {"android": "https://dc.lft.to/lastmile_qr_scan", "ios": "https://dc.lft.to/lastmile_qr_scan"}, "fusion_lon": 0.0}, {"lat": 38.933181, "is_disabled": 0, "type": "electric_scooter", "lon": -77.03270083333334, "bike_id": "638700a84858780f4617fc7c3968d7d0", "fusion_lat": 0.0, "name": "638700a84858780f4617fc7c3968d7d0", "is_reserved": 0, "rental_uris": {"android": "https://dc.lft.to/lastmile_qr_scan", "ios": "https://dc.lft.to/lastmile_qr_scan"}, "fusion_lon": 0.0}, {"lat": 38.90102366666667, "is_disabled": 0, "type": "electric_scooter", "lon": -76.98484333333333, "bike_id": "af1ad5aa714e8c7f6763d7a7e5cf4947", "fusion_lat": 0.0, "name": "af1ad5aa714e8c7f6763d7a7e5cf4947", "is_reserved": 0, "rental_uris": {"android": "https://dc.lft.to/lastmile_qr_scan", "ios": "https://dc.lft.to/lastmile_qr_scan"}, "fusion_lon": 0.0}, {"lat": 38.90358966666667, "is_disabled": 0, "type": "electric_scooter", "lon": -77.01090083333334, "bike_id": "7d2db3f163527999e649dc0cfd22a03a", "fusion_lat": 0.0, "name": "7d2db3f163527999e649dc0cfd22a03a", "is_reserved": 0, "rental_uris": {"android": "https://dc.lft.to/lastmile_qr_scan", "ios": "https://dc.lft.to/lastmile_qr_scan"}, "fusion_lon": 0.0}, {"lat": 38.901487, "is_disabled": 0, "type": "electric_scooter", "lon": -77.04167416666667, "bike_id": "97a37a4ccc4ee69b9a8df75ec36ce7ab", "fusion_lat": 0.0, "name": "97a37a4ccc4ee69b9a8df75ec36ce7ab", "is_reserved": 0, "rental_uris": {"android": "https://dc.lft.to/lastmile_qr_scan", "ios": "https://dc.lft.to/lastmile_qr_scan"}, "fusion_lon": 0.0}, {"lat": 38.9068325, "is_disabled": 0, "type": "electric_scooter", "lon": -77.06352516666666, "bike_id": "6a6be7fdf7e4bdfeeb1224b1873beaa5", "fusion_lat": 0.0, "name": "6a6be7fdf7e4bdfeeb1224b1873beaa5", "is_reserved": 0, "rental_uris": {"android": "https://dc.lft.to/lastmile_qr_scan", "ios": "https://dc.lft.to/lastmile_qr_scan"}, "fusion_lon": 0.0}, {"lat": 38.89988983333333, "is_disabled": 0, "type": "electric_bike", "lon": -76.9811915, "bike_id": "df1b656c1cf6b2957262fa1669ed9cae", "fusion_lat": 0.0, "name": "df1b656c1cf6b2957262fa1669ed9cae", "is_reserved": 0, "rental_uris": {"android": "https://dc.lft.to/lastmile_qr_scan", "ios": "https://dc.lft.to/lastmile_qr_scan"}, "fusion_lon": 0.0}, {"lat": 38.9104475, "is_disabled": 0, "type": "electric_scooter", "lon": -77.02814466666666, "bike_id": "f1c3f1f1c89d11e32ce940a4044d17ed", "fusion_lat": 0.0, "name": "f1c3f1f1c89d11e32ce940a4044d17ed", "is_reserved": 0, "rental_uris": {"android": "https://dc.lft.to/lastmile_qr_scan", "ios": "https://dc.lft.to/lastmile_qr_scan"}, "fusion_lon": 0.0}, {"lat": 38.93963383333333, "is_disabled": 0, "type": "electric_scooter", "lon": -77.02751766666667, "bike_id": "a6410ccb723972a11e8e9c0e366c6fa7", "fusion_lat": 0.0, "name": "a6410ccb723972a11e8e9c0e366c6fa7", "is_reserved": 0, "rental_uris": {"android": "https://dc.lft.to/lastmile_qr_scan", "ios": "https://dc.lft.to/lastmile_qr_scan"}, "fusion_lon": 0.0}, {"lat": 38.93351633333333, "is_disabled": 0, "type": "electric_scooter", "lon": -77.07183233333333, "bike_id": "ac572c8d400edb0df97748b5ed07910e", "fusion_lat": 0.0, "name": "ac572c8d400edb0df97748b5ed07910e", "is_reserved": 0, "rental_uris": {"android": "https://dc.lft.to/lastmile_qr_scan", "ios": "https://dc.lft.to/lastmile_qr_scan"}, "fusion_lon": 0.0}, {"lat": 38.928500666666665, "is_disabled": 0, "type": "electric_scooter", "lon": -77.03611333333333, "bike_id": "e63c8a18f37a8f0894e50f3c03aa3c2b", "fusion_lat": 0.0, "name": "e63c8a18f37a8f0894e50f3c03aa3c2b", "is_reserved": 0, "rental_uris": {"android": "https://dc.lft.to/lastmile_qr_scan", "ios": "https://dc.lft.to/lastmile_qr_scan"}, "fusion_lon": 0.0}, {"lat": 38.927072, "is_disabled": 0, "type": "electric_scooter", "lon": -77.02411316666667, "bike_id": "b37c0db912980604ec42dd481aa034ba", "fusion_lat": 0.0, "name": "b37c0db912980604ec42dd481aa034ba", "is_reserved": 0, "rental_uris": {"android": "https://dc.lft.to/lastmile_qr_scan", "ios": "https://dc.lft.to/lastmile_qr_scan"}, "fusion_lon": 0.0}, {"lat": 38.88062883333333, "is_disabled": 0, "type": "electric_scooter", "lon": -77.00589166666667, "bike_id": "711f91b23ecd17324ae17aecc46ad293", "fusion_lat": 0.0, "name": "711f91b23ecd17324ae17aecc46ad293", "is_reserved": 0, "rental_uris": {"android": "https://dc.lft.to/lastmile_qr_scan", "ios": "https://dc.lft.to/lastmile_qr_scan"}, "fusion_lon": 0.0}, {"lat": 38.933243833333336, "is_disabled": 0, "type": "electric_scooter", "lon": -77.02937183333333, "bike_id": "80cf3635b5b0d728a2453163519d9e7e", "fusion_lat": 0.0, "name": "80cf3635b5b0d728a2453163519d9e7e", "is_reserved": 0, "rental_uris": {"android": "https://dc.lft.to/lastmile_qr_scan", "ios": "https://dc.lft.to/lastmile_qr_scan"}, "fusion_lon": 0.0}, {"lat": 38.92752016666667, "is_disabled": 0, "type": "electric_scooter", "lon": -77.005926, "bike_id": "109e48d4ca50ccb149768c98d8ab2749", "fusion_lat": 0.0, "name": "109e48d4ca50ccb149768c98d8ab2749", "is_reserved": 0, "rental_uris": {"android": "https://dc.lft.to/lastmile_qr_scan", "ios": "https://dc.lft.to/lastmile_qr_scan"}, "fusion_lon": 0.0}, {"lat": 38.90014333333333, "is_disabled": 0, "type": "electric_scooter", "lon": -76.92231716666667, "bike_id": "935725f5573eb7ad1a9c45df51d58d5e", "fusion_lat": 0.0, "name": "935725f5573eb7ad1a9c45df51d58d5e", "is_reserved": 0, "rental_uris": {"android": "https://dc.lft.to/lastmile_qr_scan", "ios": "https://dc.lft.to/lastmile_qr_scan"}, "fusion_lon": 0.0}, {"lat": 38.92049266666667, "is_disabled": 0, "type": "electric_scooter", "lon": -77.0327465, "bike_id": "3d596db2b052a817d8f5364f86942260", "fusion_lat": 0.0, "name": "3d596db2b052a817d8f5364f86942260", "is_reserved": 0, "rental_uris": {"android": "https://dc.lft.to/lastmile_qr_scan", "ios": "https://dc.lft.to/lastmile_qr_scan"}, "fusion_lon": 0.0}, {"lat": 38.96255983333333, "is_disabled": 0, "type": "electric_scooter", "lon": -77.03819166666666, "bike_id": "180d8c19c321dc7cb22746d62b58b93a", "fusion_lat": 0.0, "name": "180d8c19c321dc7cb22746d62b58b93a", "is_reserved": 0, "rental_uris": {"android": "https://dc.lft.to/lastmile_qr_scan", "ios": "https://dc.lft.to/lastmile_qr_scan"}, "fusion_lon": 0.0}, {"lat": 38.90639566666667, "is_disabled": 0, "type": "electric_scooter", "lon": -77.01362483333334, "bike_id": "23d4b89afc28b84e3995de8433ac8fee", "fusion_lat": 0.0, "name": "23d4b89afc28b84e3995de8433ac8fee", "is_reserved": 0, "rental_uris": {"android": "https://dc.lft.to/lastmile_qr_scan", "ios": "https://dc.lft.to/lastmile_qr_scan"}, "fusion_lon": 0.0}, {"lat": 38.84594283333333, "is_disabled": 0, "type": "electric_bike", "lon": -77.07679683333333, "bike_id": "bc5cf478909ba3518d1b6c9007bdc75c", "fusion_lat": 0.0, "name": "bc5cf478909ba3518d1b6c9007bdc75c", "is_reserved": 0, "rental_uris": {"android": "https://dc.lft.to/lastmile_qr_scan", "ios": "https://dc.lft.to/lastmile_qr_scan"}, "fusion_lon": 0.0}, {"lat": 38.907622833333335, "is_disabled": 0, "type": "electric_scooter", "lon": -77.00106283333334, "bike_id": "034fe812705299a2d72817bb79682989", "fusion_lat": 0.0, "name": "034fe812705299a2d72817bb79682989", "is_reserved": 0, "rental_uris": {"android": "https://dc.lft.to/lastmile_qr_scan", "ios": "https://dc.lft.to/lastmile_qr_scan"}, "fusion_lon": 0.0}, {"lat": 38.8143325, "is_disabled": 0, "type": "electric_bike", "lon": -77.11893416666666, "bike_id": "9dd3f436209cbe7953164529c6e53e93", "fusion_lat": 0.0, "name": "9dd3f436209cbe7953164529c6e53e93", "is_reserved": 0, "rental_uris": {"android": "https://dc.lft.to/lastmile_qr_scan", "ios": "https://dc.lft.to/lastmile_qr_scan"}, "fusion_lon": 0.0}, {"lat": 38.87664183333333, "is_disabled": 0, "type": "electric_scooter", "lon": -77.00437583333333, "bike_id": "d16be08d341fc2d50c464ceabea40532", "fusion_lat": 0.0, "name": "d16be08d341fc2d50c464ceabea40532", "is_reserved": 0, "rental_uris": {"android": "https://dc.lft.to/lastmile_qr_scan", "ios": "https://dc.lft.to/lastmile_qr_scan"}, "fusion_lon": 0.0}, {"lat": 38.88028, "is_disabled": 0, "type": "electric_scooter", "lon": -77.005715, "bike_id": "7dd908eb22b843b0345aadc9899c64aa", "fusion_lat": 0.0, "name": "7dd908eb22b843b0345aadc9899c64aa", "is_reserved": 0, "rental_uris": {"android": "https://dc.lft.to/lastmile_qr_scan", "ios": "https://dc.lft.to/lastmile_qr_scan"}, "fusion_lon": 0.0}, {"lat": 38.86618966666666, "is_disabled": 0, "type": "electric_scooter", "lon": -76.98663, "bike_id": "023de868fb07893c3b1fa7996c5a1b59", "fusion_lat": 0.0, "name": "023de868fb07893c3b1fa7996c5a1b59", "is_reserved": 0, "rental_uris": {"android": "https://dc.lft.to/lastmile_qr_scan", "ios": "https://dc.lft.to/lastmile_qr_scan"}, "fusion_lon": 0.0}, {"lat": 38.90844333333333, "is_disabled": 0, "type": "electric_scooter", "lon": -77.02966666666667, "bike_id": "7042865dd7a720a01f567828e216ded3", "fusion_lat": 0.0, "name": "7042865dd7a720a01f567828e216ded3", "is_reserved": 0, "rental_uris": {"android": "https://dc.lft.to/lastmile_qr_scan", "ios": "https://dc.lft.to/lastmile_qr_scan"}, "fusion_lon": 0.0}, {"lat": 38.940437333333335, "is_disabled": 0, "type": "electric_scooter", "lon": -77.02915416666667, "bike_id": "431c2ea740cb12f1e7e08a6233ac9bad", "fusion_lat": 0.0, "name": "431c2ea740cb12f1e7e08a6233ac9bad", "is_reserved": 0, "rental_uris": {"android": "https://dc.lft.to/lastmile_qr_scan", "ios": "https://dc.lft.to/lastmile_qr_scan"}, "fusion_lon": 0.0}, {"lat": 38.909452333333334, "is_disabled": 0, "type": "electric_scooter", "lon": -77.046842, "bike_id": "a609fb02b332d80a66760d613d62e3f8", "fusion_lat": 0.0, "name": "a609fb02b332d80a66760d613d62e3f8", "is_reserved": 0, "rental_uris": {"android": "https://dc.lft.to/lastmile_qr_scan", "ios": "https://dc.lft.to/lastmile_qr_scan"}, "fusion_lon": 0.0}, {"lat": 38.94129933333333, "is_disabled": 0, "type": "electric_bike", "lon": -76.996329, "bike_id": "df3a71601c2f409147c504ffa7d42125", "fusion_lat": 0.0, "name": "df3a71601c2f409147c504ffa7d42125", "is_reserved": 0, "rental_uris": {"android": "https://dc.lft.to/lastmile_qr_scan", "ios": "https://dc.lft.to/lastmile_qr_scan"}, "fusion_lon": 0.0}, {"lat": 38.90973983333333, "is_disabled": 0, "type": "electric_scooter", "lon": -77.03427683333334, "bike_id": "1207a08ce297857be5b33df3489307ab", "fusion_lat": 0.0, "name": "1207a08ce297857be5b33df3489307ab", "is_reserved": 0, "rental_uris": {"android": "https://dc.lft.to/lastmile_qr_scan", "ios": "https://dc.lft.to/lastmile_qr_scan"}, "fusion_lon": 0.0}, {"lat": 38.9394825, "is_disabled": 0, "type": "electric_scooter", "lon": -77.02189, "bike_id": "5638a15eca2ad5be67e773c5db780497", "fusion_lat": 0.0, "name": "5638a15eca2ad5be67e773c5db780497", "is_reserved": 0, "rental_uris": {"android": "https://dc.lft.to/lastmile_qr_scan", "ios": "https://dc.lft.to/lastmile_qr_scan"}, "fusion_lon": 0.0}, {"lat": 38.89845416666667, "is_disabled": 0, "type": "electric_scooter", "lon": -76.94474283333334, "bike_id": "64bd9f1b98b6b9891e5fce1f8897e546", "fusion_lat": 0.0, "name": "64bd9f1b98b6b9891e5fce1f8897e546", "is_reserved": 0, "rental_uris": {"android": "https://dc.lft.to/lastmile_qr_scan", "ios": "https://dc.lft.to/lastmile_qr_scan"}, "fusion_lon": 0.0}, {"lat": 38.8628355, "is_disabled": 0, "type": "electric_scooter", "lon": -76.99236616666667, "bike_id": "d116e9ddfccf50a039aa887ce57e5a8c", "fusion_lat": 0.0, "name": "d116e9ddfccf50a039aa887ce57e5a8c", "is_reserved": 0, "rental_uris": {"android": "https://dc.lft.to/lastmile_qr_scan", "ios": "https://dc.lft.to/lastmile_qr_scan"}, "fusion_lon": 0.0}, {"lat": 39.094378166666665, "is_disabled": 0, "type": "electric_bike", "lon": -77.13461866666667, "bike_id": "39e93f9c596d862c3dbf59681b6627f5", "fusion_lat": 0.0, "name": "39e93f9c596d862c3dbf59681b6627f5", "is_reserved": 0, "rental_uris": {"android": "https://dc.lft.to/lastmile_qr_scan", "ios": "https://dc.lft.to/lastmile_qr_scan"}, "fusion_lon": 0.0}, {"lat": 38.923320833333335, "is_disabled": 0, "type": "electric_scooter", "lon": -77.04452433333333, "bike_id": "e5af0f64d965162ee78320ffd0a056e3", "fusion_lat": 0.0, "name": "e5af0f64d965162ee78320ffd0a056e3", "is_reserved": 0, "rental_uris": {"android": "https://dc.lft.to/lastmile_qr_scan", "ios": "https://dc.lft.to/lastmile_qr_scan"}, "fusion_lon": 0.0}, {"lat": 38.9197585, "is_disabled": 0, "type": "electric_scooter", "lon": -77.04104166666667, "bike_id": "a323e64836403a9d000d8da95b9e8887", "fusion_lat": 0.0, "name": "a323e64836403a9d000d8da95b9e8887", "is_reserved": 0, "rental_uris": {"android": "https://dc.lft.to/lastmile_qr_scan", "ios": "https://dc.lft.to/lastmile_qr_scan"}, "fusion_lon": 0.0}, {"lat": 38.92437133333333, "is_disabled": 0, "type": "electric_scooter", "lon": -77.03378833333333, "bike_id": "0aeb34026c65df8a8e955a2e3ad745de", "fusion_lat": 0.0, "name": "0aeb34026c65df8a8e955a2e3ad745de", "is_reserved": 0, "rental_uris": {"android": "https://dc.lft.to/lastmile_qr_scan", "ios": "https://dc.lft.to/lastmile_qr_scan"}, "fusion_lon": 0.0}, {"lat": 38.895349333333336, "is_disabled": 0, "type": "electric_scooter", "lon": -77.0435395, "bike_id": "1e42017fbed587f1a3d2e28fd494ee0c", "fusion_lat": 0.0, "name": "1e42017fbed587f1a3d2e28fd494ee0c", "is_reserved": 0, "rental_uris": {"android": "https://dc.lft.to/lastmile_qr_scan", "ios": "https://dc.lft.to/lastmile_qr_scan"}, "fusion_lon": 0.0}, {"lat": 38.858099833333334, "is_disabled": 0, "type": "electric_scooter", "lon": -76.98659116666667, "bike_id": "fbf3a165e96a6e6a5ebc527f52ed0b4f", "fusion_lat": 0.0, "name": "fbf3a165e96a6e6a5ebc527f52ed0b4f", "is_reserved": 0, "rental_uris": {"android": "https://dc.lft.to/lastmile_qr_scan", "ios": "https://dc.lft.to/lastmile_qr_scan"}, "fusion_lon": 0.0}, {"lat": 38.8937045, "is_disabled": 0, "type": "electric_scooter", "lon": -77.04792366666666, "bike_id": "aa1799cd68fcf43fa19bc3492867bbc9", "fusion_lat": 0.0, "name": "aa1799cd68fcf43fa19bc3492867bbc9", "is_reserved": 0, "rental_uris": {"android": "https://dc.lft.to/lastmile_qr_scan", "ios": "https://dc.lft.to/lastmile_qr_scan"}, "fusion_lon": 0.0}, {"lat": 38.9445685, "is_disabled": 0, "type": "electric_scooter", "lon": -77.060291, "bike_id": "44f28e06e5454795b991e02c7c7c4e27", "fusion_lat": 0.0, "name": "44f28e06e5454795b991e02c7c7c4e27", "is_reserved": 0, "rental_uris": {"android": "https://dc.lft.to/lastmile_qr_scan", "ios": "https://dc.lft.to/lastmile_qr_scan"}, "fusion_lon": 0.0}, {"lat": 38.9170095, "is_disabled": 0, "type": "electric_scooter", "lon": -77.04338233333333, "bike_id": "88a45d06fbf04dfdff4e254e4c2ce93e", "fusion_lat": 0.0, "name": "88a45d06fbf04dfdff4e254e4c2ce93e", "is_reserved": 0, "rental_uris": {"android": "https://dc.lft.to/lastmile_qr_scan", "ios": "https://dc.lft.to/lastmile_qr_scan"}, "fusion_lon": 0.0}, {"lat": 38.92468066666667, "is_disabled": 0, "type": "electric_bike", "lon": -77.20846116666667, "bike_id": "8b455f91106ffbc458ca69cf10f2ad6a", "fusion_lat": 0.0, "name": "8b455f91106ffbc458ca69cf10f2ad6a", "is_reserved": 0, "rental_uris": {"android": "https://dc.lft.to/lastmile_qr_scan", "ios": "https://dc.lft.to/lastmile_qr_scan"}, "fusion_lon": 0.0}, {"lat": 38.915957166666665, "is_disabled": 0, "type": "electric_scooter", "lon": -77.07560416666666, "bike_id": "590df9ae4c6ae3c0f00ff615b9b5edd9", "fusion_lat": 0.0, "name": "590df9ae4c6ae3c0f00ff615b9b5edd9", "is_reserved": 0, "rental_uris": {"android": "https://dc.lft.to/lastmile_qr_scan", "ios": "https://dc.lft.to/lastmile_qr_scan"}, "fusion_lon": 0.0}, {"lat": 38.89096033333333, "is_disabled": 0, "type": "electric_scooter", "lon": -76.94297533333334, "bike_id": "cd2574d17d4c7d29f03cee3d9f5a3d71", "fusion_lat": 0.0, "name": "cd2574d17d4c7d29f03cee3d9f5a3d71", "is_reserved": 0, "rental_uris": {"android": "https://dc.lft.to/lastmile_qr_scan", "ios": "https://dc.lft.to/lastmile_qr_scan"}, "fusion_lon": 0.0}, {"lat": 38.87447516666667, "is_disabled": 0, "type": "electric_bike", "lon": -77.10820633333333, "bike_id": "b4c5300379756dd34b08fccbe127f345", "fusion_lat": 0.0, "name": "b4c5300379756dd34b08fccbe127f345", "is_reserved": 0, "rental_uris": {"android": "https://dc.lft.to/lastmile_qr_scan", "ios": "https://dc.lft.to/lastmile_qr_scan"}, "fusion_lon": 0.0}, {"lat": 38.963958166666664, "is_disabled": 0, "type": "electric_scooter", "lon": -77.02597216666666, "bike_id": "15e8992a3ed30979c8f0d6285066aa72", "fusion_lat": 0.0, "name": "15e8992a3ed30979c8f0d6285066aa72", "is_reserved": 0, "rental_uris": {"android": "https://dc.lft.to/lastmile_qr_scan", "ios": "https://dc.lft.to/lastmile_qr_scan"}, "fusion_lon": 0.0}, {"lat": 38.90793383333333, "is_disabled": 0, "type": "electric_scooter", "lon": -77.03476183333333, "bike_id": "b448dd70fcf6ce23e07a229e45f28bd1", "fusion_lat": 0.0, "name": "b448dd70fcf6ce23e07a229e45f28bd1", "is_reserved": 0, "rental_uris": {"android": "https://dc.lft.to/lastmile_qr_scan", "ios": "https://dc.lft.to/lastmile_qr_scan"}, "fusion_lon": 0.0}, {"lat": 38.902062, "is_disabled": 0, "type": "electric_scooter", "lon": -77.0053235, "bike_id": "3a318e85278adafdfab484989feb286b", "fusion_lat": 0.0, "name": "3a318e85278adafdfab484989feb286b", "is_reserved": 0, "rental_uris": {"android": "https://dc.lft.to/lastmile_qr_scan", "ios": "https://dc.lft.to/lastmile_qr_scan"}, "fusion_lon": 0.0}, {"lat": 38.927248, "is_disabled": 0, "type": "electric_scooter", "lon": -77.0208775, "bike_id": "b1aff8bcf1726906cf7339b7da9d8d5f", "fusion_lat": 0.0, "name": "b1aff8bcf1726906cf7339b7da9d8d5f", "is_reserved": 0, "rental_uris": {"android": "https://dc.lft.to/lastmile_qr_scan", "ios": "https://dc.lft.to/lastmile_qr_scan"}, "fusion_lon": 0.0}, {"lat": 38.936334, "is_disabled": 0, "type": "electric_scooter", "lon": -77.0365395, "bike_id": "e9085761ee1da8317110f96eea5c58e1", "fusion_lat": 0.0, "name": "e9085761ee1da8317110f96eea5c58e1", "is_reserved": 0, "rental_uris": {"android": "https://dc.lft.to/lastmile_qr_scan", "ios": "https://dc.lft.to/lastmile_qr_scan"}, "fusion_lon": 0.0}, {"lat": 38.900344833333335, "is_disabled": 0, "type": "electric_scooter", "lon": -77.00576733333334, "bike_id": "350d963fd1725c0ea76ab2db36773942", "fusion_lat": 0.0, "name": "350d963fd1725c0ea76ab2db36773942", "is_reserved": 0, "rental_uris": {"android": "https://dc.lft.to/lastmile_qr_scan", "ios": "https://dc.lft.to/lastmile_qr_scan"}, "fusion_lon": 0.0}, {"lat": 38.952837333333335, "is_disabled": 0, "type": "electric_scooter", "lon": -77.03657283333334, "bike_id": "ced8a5cbdcc25945cca79c7ecc6e5642", "fusion_lat": 0.0, "name": "ced8a5cbdcc25945cca79c7ecc6e5642", "is_reserved": 0, "rental_uris": {"android": "https://dc.lft.to/lastmile_qr_scan", "ios": "https://dc.lft.to/lastmile_qr_scan"}, "fusion_lon": 0.0}, {"lat": 38.918927333333336, "is_disabled": 0, "type": "electric_scooter", "lon": -77.03455233333334, "bike_id": "0c454df4bc2a33ed2c95cd0850a2a7aa", "fusion_lat": 0.0, "name": "0c454df4bc2a33ed2c95cd0850a2a7aa", "is_reserved": 0, "rental_uris": {"android": "https://dc.lft.to/lastmile_qr_scan", "ios": "https://dc.lft.to/lastmile_qr_scan"}, "fusion_lon": 0.0}, {"lat": 38.944522166666665, "is_disabled": 0, "type": "electric_scooter", "lon": -77.03278733333333, "bike_id": "1691a3856f001f682bd4e79d2bf958a9", "fusion_lat": 0.0, "name": "1691a3856f001f682bd4e79d2bf958a9", "is_reserved": 0, "rental_uris": {"android": "https://dc.lft.to/lastmile_qr_scan", "ios": "https://dc.lft.to/lastmile_qr_scan"}, "fusion_lon": 0.0}, {"lat": 38.90029366666667, "is_disabled": 0, "type": "electric_scooter", "lon": -77.00208633333334, "bike_id": "cde02b9619c10fc30f28064498877c2e", "fusion_lat": 0.0, "name": "cde02b9619c10fc30f28064498877c2e", "is_reserved": 0, "rental_uris": {"android": "https://dc.lft.to/lastmile_qr_scan", "ios": "https://dc.lft.to/lastmile_qr_scan"}, "fusion_lon": 0.0}, {"lat": 38.950859666666666, "is_disabled": 0, "type": "electric_scooter", "lon": -77.06653883333334, "bike_id": "2c190f8f7c7ed3c9d37e7e32cd34619e", "fusion_lat": 0.0, "name": "2c190f8f7c7ed3c9d37e7e32cd34619e", "is_reserved": 0, "rental_uris": {"android": "https://dc.lft.to/lastmile_qr_scan", "ios": "https://dc.lft.to/lastmile_qr_scan"}, "fusion_lon": 0.0}, {"lat": 38.90574616666667, "is_disabled": 0, "type": "electric_scooter", "lon": -77.02208416666667, "bike_id": "296badf3f7cef86e9d93cfb508ae792f", "fusion_lat": 0.0, "name": "296badf3f7cef86e9d93cfb508ae792f", "is_reserved": 0, "rental_uris": {"android": "https://dc.lft.to/lastmile_qr_scan", "ios": "https://dc.lft.to/lastmile_qr_scan"}, "fusion_lon": 0.0}, {"lat": 38.90134583333333, "is_disabled": 0, "type": "electric_scooter", "lon": -77.01815583333334, "bike_id": "a5252acac46ff5db1bd92c386988d069", "fusion_lat": 0.0, "name": "a5252acac46ff5db1bd92c386988d069", "is_reserved": 0, "rental_uris": {"android": "https://dc.lft.to/lastmile_qr_scan", "ios": "https://dc.lft.to/lastmile_qr_scan"}, "fusion_lon": 0.0}, {"lat": 38.8762825, "is_disabled": 0, "type": "electric_scooter", "lon": -76.96522883333333, "bike_id": "1c236a76661b667b786464fa22b82e78", "fusion_lat": 0.0, "name": "1c236a76661b667b786464fa22b82e78", "is_reserved": 0, "rental_uris": {"android": "https://dc.lft.to/lastmile_qr_scan", "ios": "https://dc.lft.to/lastmile_qr_scan"}, "fusion_lon": 0.0}, {"lat": 38.906847166666665, "is_disabled": 0, "type": "electric_scooter", "lon": -77.063422, "bike_id": "fbb5b1e60ba5191be69f6f5de9179d52", "fusion_lat": 0.0, "name": "fbb5b1e60ba5191be69f6f5de9179d52", "is_reserved": 0, "rental_uris": {"android": "https://dc.lft.to/lastmile_qr_scan", "ios": "https://dc.lft.to/lastmile_qr_scan"}, "fusion_lon": 0.0}, {"lat": 38.896368333333335, "is_disabled": 0, "type": "electric_scooter", "lon": -77.04494116666666, "bike_id": "88d53696f97912bc85e0871ceda5cc89", "fusion_lat": 0.0, "name": "88d53696f97912bc85e0871ceda5cc89", "is_reserved": 0, "rental_uris": {"android": "https://dc.lft.to/lastmile_qr_scan", "ios": "https://dc.lft.to/lastmile_qr_scan"}, "fusion_lon": 0.0}, {"lat": 38.937779, "is_disabled": 0, "type": "electric_scooter", "lon": -77.02374366666666, "bike_id": "be8b3e1ff732e13a4dc1d2c23adf7c96", "fusion_lat": 0.0, "name": "be8b3e1ff732e13a4dc1d2c23adf7c96", "is_reserved": 0, "rental_uris": {"android": "https://dc.lft.to/lastmile_qr_scan", "ios": "https://dc.lft.to/lastmile_qr_scan"}, "fusion_lon": 0.0}, {"lat": 38.9073365, "is_disabled": 0, "type": "electric_scooter", "lon": -77.04786816666666, "bike_id": "8bf4ee2f9ffccb7c952ed944250d14b5", "fusion_lat": 0.0, "name": "8bf4ee2f9ffccb7c952ed944250d14b5", "is_reserved": 0, "rental_uris": {"android": "https://dc.lft.to/lastmile_qr_scan", "ios": "https://dc.lft.to/lastmile_qr_scan"}, "fusion_lon": 0.0}, {"lat": 38.90792233333333, "is_disabled": 0, "type": "electric_scooter", "lon": -77.03477783333334, "bike_id": "2fe4a91a2395640383c4aaa93d961307", "fusion_lat": 0.0, "name": "2fe4a91a2395640383c4aaa93d961307", "is_reserved": 0, "rental_uris": {"android": "https://dc.lft.to/lastmile_qr_scan", "ios": "https://dc.lft.to/lastmile_qr_scan"}, "fusion_lon": 0.0}, {"lat": 38.842924833333335, "is_disabled": 0, "type": "electric_scooter", "lon": -76.9995055, "bike_id": "20a92f408e56ba655b478567f60c9b4a", "fusion_lat": 0.0, "name": "20a92f408e56ba655b478567f60c9b4a", "is_reserved": 0, "rental_uris": {"android": "https://dc.lft.to/lastmile_qr_scan", "ios": "https://dc.lft.to/lastmile_qr_scan"}, "fusion_lon": 0.0}, {"lat": 38.94096283333333, "is_disabled": 0, "type": "electric_scooter", "lon": -77.03280483333333, "bike_id": "47b6dec5775bbb77fdeecb749731ef19", "fusion_lat": 0.0, "name": "47b6dec5775bbb77fdeecb749731ef19", "is_reserved": 0, "rental_uris": {"android": "https://dc.lft.to/lastmile_qr_scan", "ios": "https://dc.lft.to/lastmile_qr_scan"}, "fusion_lon": 0.0}, {"lat": 38.8981585, "is_disabled": 0, "type": "electric_scooter", "lon": -77.02431566666667, "bike_id": "58eab1b889e057c94c5962496684126e", "fusion_lat": 0.0, "name": "58eab1b889e057c94c5962496684126e", "is_reserved": 0, "rental_uris": {"android": "https://dc.lft.to/lastmile_qr_scan", "ios": "https://dc.lft.to/lastmile_qr_scan"}, "fusion_lon": 0.0}, {"lat": 38.91226616666667, "is_disabled": 0, "type": "electric_scooter", "lon": -77.034357, "bike_id": "751a08c89ed6a296c34ba785087d2be4", "fusion_lat": 0.0, "name": "751a08c89ed6a296c34ba785087d2be4", "is_reserved": 0, "rental_uris": {"android": "https://dc.lft.to/lastmile_qr_scan", "ios": "https://dc.lft.to/lastmile_qr_scan"}, "fusion_lon": 0.0}, {"lat": 38.85999233333333, "is_disabled": 0, "type": "electric_scooter", "lon": -76.98550333333333, "bike_id": "eb7258c7cc3f20f85af72c3e1661bef3", "fusion_lat": 0.0, "name": "eb7258c7cc3f20f85af72c3e1661bef3", "is_reserved": 0, "rental_uris": {"android": "https://dc.lft.to/lastmile_qr_scan", "ios": "https://dc.lft.to/lastmile_qr_scan"}, "fusion_lon": 0.0}, {"lat": 38.88522316666667, "is_disabled": 0, "type": "electric_scooter", "lon": -77.033645, "bike_id": "47e6aab9d5fef5df05b5493f02763f63", "fusion_lat": 0.0, "name": "47e6aab9d5fef5df05b5493f02763f63", "is_reserved": 0, "rental_uris": {"android": "https://dc.lft.to/lastmile_qr_scan", "ios": "https://dc.lft.to/lastmile_qr_scan"}, "fusion_lon": 0.0}, {"lat": 38.8581315, "is_disabled": 0, "type": "electric_scooter", "lon": -76.989935, "bike_id": "d6340ef77151cdbe282b5d036a64d878", "fusion_lat": 0.0, "name": "d6340ef77151cdbe282b5d036a64d878", "is_reserved": 0, "rental_uris": {"android": "https://dc.lft.to/lastmile_qr_scan", "ios": "https://dc.lft.to/lastmile_qr_scan"}, "fusion_lon": 0.0}, {"lat": 38.916116, "is_disabled": 0, "type": "electric_scooter", "lon": -77.04874533333333, "bike_id": "798f3b1910aaec2d25648485ebebe396", "fusion_lat": 0.0, "name": "798f3b1910aaec2d25648485ebebe396", "is_reserved": 0, "rental_uris": {"android": "https://dc.lft.to/lastmile_qr_scan", "ios": "https://dc.lft.to/lastmile_qr_scan"}, "fusion_lon": 0.0}, {"lat": 38.93992766666667, "is_disabled": 0, "type": "electric_scooter", "lon": -77.07174783333333, "bike_id": "41ec04795e0e22e33056b2d0e2374acd", "fusion_lat": 0.0, "name": "41ec04795e0e22e33056b2d0e2374acd", "is_reserved": 0, "rental_uris": {"android": "https://dc.lft.to/lastmile_qr_scan", "ios": "https://dc.lft.to/lastmile_qr_scan"}, "fusion_lon": 0.0}, {"lat": 38.805614, "is_disabled": 0, "type": "electric_bike", "lon": -77.13238616666666, "bike_id": "0a6f30398c021bf223ad45940a7c0178", "fusion_lat": 0.0, "name": "0a6f30398c021bf223ad45940a7c0178", "is_reserved": 0, "rental_uris": {"android": "https://dc.lft.to/lastmile_qr_scan", "ios": "https://dc.lft.to/lastmile_qr_scan"}, "fusion_lon": 0.0}, {"lat": 38.9122465, "is_disabled": 0, "type": "electric_scooter", "lon": -77.02184883333334, "bike_id": "2d5bdd8d1071a8c5b5c275460d870634", "fusion_lat": 0.0, "name": "2d5bdd8d1071a8c5b5c275460d870634", "is_reserved": 0, "rental_uris": {"android": "https://dc.lft.to/lastmile_qr_scan", "ios": "https://dc.lft.to/lastmile_qr_scan"}, "fusion_lon": 0.0}, {"lat": 38.89760033333334, "is_disabled": 0, "type": "electric_scooter", "lon": -77.04537166666667, "bike_id": "f26677b82d4feb19cac88e2bba547358", "fusion_lat": 0.0, "name": "f26677b82d4feb19cac88e2bba547358", "is_reserved": 0, "rental_uris": {"android": "https://dc.lft.to/lastmile_qr_scan", "ios": "https://dc.lft.to/lastmile_qr_scan"}, "fusion_lon": 0.0}, {"lat": 38.90671583333334, "is_disabled": 0, "type": "electric_scooter", "lon": -77.02692216666667, "bike_id": "dd88615c14b32159abd3c432a158e6bb", "fusion_lat": 0.0, "name": "dd88615c14b32159abd3c432a158e6bb", "is_reserved": 0, "rental_uris": {"android": "https://dc.lft.to/lastmile_qr_scan", "ios": "https://dc.lft.to/lastmile_qr_scan"}, "fusion_lon": 0.0}, {"lat": 38.905359, "is_disabled": 0, "type": "electric_scooter", "lon": -76.9864595, "bike_id": "64dbb3a031b476bd34f54d7f90ba33f9", "fusion_lat": 0.0, "name": "64dbb3a031b476bd34f54d7f90ba33f9", "is_reserved": 0, "rental_uris": {"android": "https://dc.lft.to/lastmile_qr_scan", "ios": "https://dc.lft.to/lastmile_qr_scan"}, "fusion_lon": 0.0}, {"lat": 38.8734365, "is_disabled": 0, "type": "electric_scooter", "lon": -76.99166616666666, "bike_id": "2230aad3bb3f068d7da7405dcbe22adf", "fusion_lat": 0.0, "name": "2230aad3bb3f068d7da7405dcbe22adf", "is_reserved": 0, "rental_uris": {"android": "https://dc.lft.to/lastmile_qr_scan", "ios": "https://dc.lft.to/lastmile_qr_scan"}, "fusion_lon": 0.0}, {"lat": 38.89739766666667, "is_disabled": 0, "type": "electric_scooter", "lon": -77.00857783333333, "bike_id": "e835fd5ecba40728b2782c47f7db053f", "fusion_lat": 0.0, "name": "e835fd5ecba40728b2782c47f7db053f", "is_reserved": 0, "rental_uris": {"android": "https://dc.lft.to/lastmile_qr_scan", "ios": "https://dc.lft.to/lastmile_qr_scan"}, "fusion_lon": 0.0}, {"lat": 38.897677, "is_disabled": 0, "type": "electric_scooter", "lon": -77.032656, "bike_id": "8c9fea009a4dc20121994e210d756d8c", "fusion_lat": 0.0, "name": "8c9fea009a4dc20121994e210d756d8c", "is_reserved": 0, "rental_uris": {"android": "https://dc.lft.to/lastmile_qr_scan", "ios": "https://dc.lft.to/lastmile_qr_scan"}, "fusion_lon": 0.0}, {"lat": 38.90016166666667, "is_disabled": 0, "type": "electric_scooter", "lon": -76.98814166666666, "bike_id": "1062dffc405b895df9a0671f4c4fe346", "fusion_lat": 0.0, "name": "1062dffc405b895df9a0671f4c4fe346", "is_reserved": 0, "rental_uris": {"android": "https://dc.lft.to/lastmile_qr_scan", "ios": "https://dc.lft.to/lastmile_qr_scan"}, "fusion_lon": 0.0}, {"lat": 38.904137666666664, "is_disabled": 0, "type": "electric_scooter", "lon": -77.02073083333333, "bike_id": "f7a44c875926d8ab32564881b260736d", "fusion_lat": 0.0, "name": "f7a44c875926d8ab32564881b260736d", "is_reserved": 0, "rental_uris": {"android": "https://dc.lft.to/lastmile_qr_scan", "ios": "https://dc.lft.to/lastmile_qr_scan"}, "fusion_lon": 0.0}, {"lat": 38.89265866666667, "is_disabled": 0, "type": "electric_scooter", "lon": -76.9415495, "bike_id": "0f64f23e0e2a18527d8ac22814ef375e", "fusion_lat": 0.0, "name": "0f64f23e0e2a18527d8ac22814ef375e", "is_reserved": 0, "rental_uris": {"android": "https://dc.lft.to/lastmile_qr_scan", "ios": "https://dc.lft.to/lastmile_qr_scan"}, "fusion_lon": 0.0}, {"lat": 38.89914316666667, "is_disabled": 0, "type": "electric_scooter", "lon": -76.93351183333333, "bike_id": "9d48f9d2f9993cd00a98ec4a3d4b15f7", "fusion_lat": 0.0, "name": "9d48f9d2f9993cd00a98ec4a3d4b15f7", "is_reserved": 0, "rental_uris": {"android": "https://dc.lft.to/lastmile_qr_scan", "ios": "https://dc.lft.to/lastmile_qr_scan"}, "fusion_lon": 0.0}, {"lat": 38.897777166666664, "is_disabled": 0, "type": "electric_scooter", "lon": -77.03208, "bike_id": "e854ef6a44f9387477ebc93b354e55fa", "fusion_lat": 0.0, "name": "e854ef6a44f9387477ebc93b354e55fa", "is_reserved": 0, "rental_uris": {"android": "https://dc.lft.to/lastmile_qr_scan", "ios": "https://dc.lft.to/lastmile_qr_scan"}, "fusion_lon": 0.0}, {"lat": 38.91694366666667, "is_disabled": 0, "type": "electric_scooter", "lon": -77.04334783333333, "bike_id": "420b9eb94f6585471bb5262ef9ce924e", "fusion_lat": 0.0, "name": "420b9eb94f6585471bb5262ef9ce924e", "is_reserved": 0, "rental_uris": {"android": "https://dc.lft.to/lastmile_qr_scan", "ios": "https://dc.lft.to/lastmile_qr_scan"}, "fusion_lon": 0.0}, {"lat": 38.90135, "is_disabled": 0, "type": "electric_scooter", "lon": -77.01816066666666, "bike_id": "2897de06b88a18c8e95c00e3d2c20546", "fusion_lat": 0.0, "name": "2897de06b88a18c8e95c00e3d2c20546", "is_reserved": 0, "rental_uris": {"android": "https://dc.lft.to/lastmile_qr_scan", "ios": "https://dc.lft.to/lastmile_qr_scan"}, "fusion_lon": 0.0}, {"lat": 39.015953333333336, "is_disabled": 0, "type": "electric_bike", "lon": -77.04421866666667, "bike_id": "b50f6a52c80b5eda1110ded90bf850c1", "fusion_lat": 0.0, "name": "b50f6a52c80b5eda1110ded90bf850c1", "is_reserved": 0, "rental_uris": {"android": "https://dc.lft.to/lastmile_qr_scan", "ios": "https://dc.lft.to/lastmile_qr_scan"}, "fusion_lon": 0.0}, {"lat": 38.884267666666666, "is_disabled": 0, "type": "electric_scooter", "lon": -77.03046533333334, "bike_id": "15f85d03c1e5e5b94d8d23aaf6a1912b", "fusion_lat": 0.0, "name": "15f85d03c1e5e5b94d8d23aaf6a1912b", "is_reserved": 0, "rental_uris": {"android": "https://dc.lft.to/lastmile_qr_scan", "ios": "https://dc.lft.to/lastmile_qr_scan"}, "fusion_lon": 0.0}, {"lat": 38.910813, "is_disabled": 0, "type": "electric_scooter", "lon": -77.07644433333333, "bike_id": "eef40dfbf93c7ac9eb3660877e153359", "fusion_lat": 0.0, "name": "eef40dfbf93c7ac9eb3660877e153359", "is_reserved": 0, "rental_uris": {"android": "https://dc.lft.to/lastmile_qr_scan", "ios": "https://dc.lft.to/lastmile_qr_scan"}, "fusion_lon": 0.0}, {"lat": 38.94804466666667, "is_disabled": 0, "type": "electric_scooter", "lon": -77.07908066666667, "bike_id": "3b0760e0bb3d728ce0443746ef93a8a5", "fusion_lat": 0.0, "name": "3b0760e0bb3d728ce0443746ef93a8a5", "is_reserved": 0, "rental_uris": {"android": "https://dc.lft.to/lastmile_qr_scan", "ios": "https://dc.lft.to/lastmile_qr_scan"}, "fusion_lon": 0.0}, {"lat": 38.917532, "is_disabled": 0, "type": "electric_bike", "lon": -77.0476585, "bike_id": "9809cca891931be54c2444258ed0dfcb", "fusion_lat": 0.0, "name": "9809cca891931be54c2444258ed0dfcb", "is_reserved": 0, "rental_uris": {"android": "https://dc.lft.to/lastmile_qr_scan", "ios": "https://dc.lft.to/lastmile_qr_scan"}, "fusion_lon": 0.0}, {"lat": 38.89121466666667, "is_disabled": 0, "type": "electric_scooter", "lon": -76.94097083333334, "bike_id": "b9de69658ce71ebeb4e2f918823de4bf", "fusion_lat": 0.0, "name": "b9de69658ce71ebeb4e2f918823de4bf", "is_reserved": 0, "rental_uris": {"android": "https://dc.lft.to/lastmile_qr_scan", "ios": "https://dc.lft.to/lastmile_qr_scan"}, "fusion_lon": 0.0}, {"lat": 38.9000355, "is_disabled": 0, "type": "electric_scooter", "lon": -76.99846416666666, "bike_id": "c9fdd6b643cdcb1614a7924124ced219", "fusion_lat": 0.0, "name": "c9fdd6b643cdcb1614a7924124ced219", "is_reserved": 0, "rental_uris": {"android": "https://dc.lft.to/lastmile_qr_scan", "ios": "https://dc.lft.to/lastmile_qr_scan"}, "fusion_lon": 0.0}, {"lat": 38.905192, "is_disabled": 0, "type": "electric_scooter", "lon": -77.06880366666667, "bike_id": "5754841e244483586e4a2aa6b4145235", "fusion_lat": 0.0, "name": "5754841e244483586e4a2aa6b4145235", "is_reserved": 0, "rental_uris": {"android": "https://dc.lft.to/lastmile_qr_scan", "ios": "https://dc.lft.to/lastmile_qr_scan"}, "fusion_lon": 0.0}, {"lat": 38.933295333333334, "is_disabled": 0, "type": "electric_scooter", "lon": -77.0571715, "bike_id": "13a61217218bd72c41d140de2b33015b", "fusion_lat": 0.0, "name": "13a61217218bd72c41d140de2b33015b", "is_reserved": 0, "rental_uris": {"android": "https://dc.lft.to/lastmile_qr_scan", "ios": "https://dc.lft.to/lastmile_qr_scan"}, "fusion_lon": 0.0}, {"lat": 38.935455833333336, "is_disabled": 0, "type": "electric_scooter", "lon": -77.0342085, "bike_id": "fd69ca9dd054296b01eb1b0d4081a7c8", "fusion_lat": 0.0, "name": "fd69ca9dd054296b01eb1b0d4081a7c8", "is_reserved": 0, "rental_uris": {"android": "https://dc.lft.to/lastmile_qr_scan", "ios": "https://dc.lft.to/lastmile_qr_scan"}, "fusion_lon": 0.0}, {"lat": 38.904802, "is_disabled": 0, "type": "electric_scooter", "lon": -77.03231116666667, "bike_id": "b9c58aa4d0539c5092e2b13c9c880ef0", "fusion_lat": 0.0, "name": "b9c58aa4d0539c5092e2b13c9c880ef0", "is_reserved": 0, "rental_uris": {"android": "https://dc.lft.to/lastmile_qr_scan", "ios": "https://dc.lft.to/lastmile_qr_scan"}, "fusion_lon": 0.0}, {"lat": 38.916781666666665, "is_disabled": 0, "type": "electric_scooter", "lon": -77.02283166666666, "bike_id": "06709c75a9723e3971f2ecb428ce67ce", "fusion_lat": 0.0, "name": "06709c75a9723e3971f2ecb428ce67ce", "is_reserved": 0, "rental_uris": {"android": "https://dc.lft.to/lastmile_qr_scan", "ios": "https://dc.lft.to/lastmile_qr_scan"}, "fusion_lon": 0.0}, {"lat": 38.855035, "is_disabled": 0, "type": "electric_bike", "lon": -77.12040933333333, "bike_id": "0ea2026dd21c624f07136d57357597af", "fusion_lat": 0.0, "name": "0ea2026dd21c624f07136d57357597af", "is_reserved": 0, "rental_uris": {"android": "https://dc.lft.to/lastmile_qr_scan", "ios": "https://dc.lft.to/lastmile_qr_scan"}, "fusion_lon": 0.0}, {"lat": 38.832428666666665, "is_disabled": 0, "type": "electric_bike", "lon": -76.94628483333334, "bike_id": "bddd1e360b997dc8dd544b141a118d23", "fusion_lat": 0.0, "name": "bddd1e360b997dc8dd544b141a118d23", "is_reserved": 0, "rental_uris": {"android": "https://dc.lft.to/lastmile_qr_scan", "ios": "https://dc.lft.to/lastmile_qr_scan"}, "fusion_lon": 0.0}, {"lat": 38.91710883333333, "is_disabled": 0, "type": "electric_scooter", "lon": -77.03220433333334, "bike_id": "1dddef15f09ea0e865866fa79faf8022", "fusion_lat": 0.0, "name": "1dddef15f09ea0e865866fa79faf8022", "is_reserved": 0, "rental_uris": {"android": "https://dc.lft.to/lastmile_qr_scan", "ios": "https://dc.lft.to/lastmile_qr_scan"}, "fusion_lon": 0.0}, {"lat": 38.92447816666667, "is_disabled": 0, "type": "electric_scooter", "lon": -77.02029433333334, "bike_id": "ec4d9df9e048c63c5b3f78d8395f015e", "fusion_lat": 0.0, "name": "ec4d9df9e048c63c5b3f78d8395f015e", "is_reserved": 0, "rental_uris": {"android": "https://dc.lft.to/lastmile_qr_scan", "ios": "https://dc.lft.to/lastmile_qr_scan"}, "fusion_lon": 0.0}, {"lat": 38.860927333333336, "is_disabled": 0, "type": "electric_scooter", "lon": -76.98376816666666, "bike_id": "38622178da7e6206f662f2733545553d", "fusion_lat": 0.0, "name": "38622178da7e6206f662f2733545553d", "is_reserved": 0, "rental_uris": {"android": "https://dc.lft.to/lastmile_qr_scan", "ios": "https://dc.lft.to/lastmile_qr_scan"}, "fusion_lon": 0.0}, {"lat": 38.863861, "is_disabled": 0, "type": "electric_scooter", "lon": -76.99247016666666, "bike_id": "77bf8efba2a3288795d84ccdf714a9d9", "fusion_lat": 0.0, "name": "77bf8efba2a3288795d84ccdf714a9d9", "is_reserved": 0, "rental_uris": {"android": "https://dc.lft.to/lastmile_qr_scan", "ios": "https://dc.lft.to/lastmile_qr_scan"}, "fusion_lon": 0.0}, {"lat": 38.9430835, "is_disabled": 0, "type": "electric_scooter", "lon": -77.059258, "bike_id": "16307728ae067dd2cad9c3fa8ec70ab1", "fusion_lat": 0.0, "name": "16307728ae067dd2cad9c3fa8ec70ab1", "is_reserved": 0, "rental_uris": {"android": "https://dc.lft.to/lastmile_qr_scan", "ios": "https://dc.lft.to/lastmile_qr_scan"}, "fusion_lon": 0.0}, {"lat": 38.900125833333334, "is_disabled": 0, "type": "electric_scooter", "lon": -76.992165, "bike_id": "b941348dd25463530ddd44c626264aeb", "fusion_lat": 0.0, "name": "b941348dd25463530ddd44c626264aeb", "is_reserved": 0, "rental_uris": {"android": "https://dc.lft.to/lastmile_qr_scan", "ios": "https://dc.lft.to/lastmile_qr_scan"}, "fusion_lon": 0.0}, {"lat": 38.93457866666667, "is_disabled": 0, "type": "electric_scooter", "lon": -77.02731366666667, "bike_id": "54b80b665105bc086b7626f0cd9919a6", "fusion_lat": 0.0, "name": "54b80b665105bc086b7626f0cd9919a6", "is_reserved": 0, "rental_uris": {"android": "https://dc.lft.to/lastmile_qr_scan", "ios": "https://dc.lft.to/lastmile_qr_scan"}, "fusion_lon": 0.0}, {"lat": 38.97839183333333, "is_disabled": 0, "type": "electric_bike", "lon": -77.0265605, "bike_id": "34ce2923ce5a3cf6af6c531b5275bece", "fusion_lat": 0.0, "name": "34ce2923ce5a3cf6af6c531b5275bece", "is_reserved": 0, "rental_uris": {"android": "https://dc.lft.to/lastmile_qr_scan", "ios": "https://dc.lft.to/lastmile_qr_scan"}, "fusion_lon": 0.0}, {"lat": 38.906388, "is_disabled": 0, "type": "electric_scooter", "lon": -76.97952133333334, "bike_id": "081853ca71dcc000d2a0567af2e35ab7", "fusion_lat": 0.0, "name": "081853ca71dcc000d2a0567af2e35ab7", "is_reserved": 0, "rental_uris": {"android": "https://dc.lft.to/lastmile_qr_scan", "ios": "https://dc.lft.to/lastmile_qr_scan"}, "fusion_lon": 0.0}, {"lat": 38.9168635, "is_disabled": 0, "type": "electric_scooter", "lon": -77.023135, "bike_id": "c69b2ff8fac10ab93194961a94c086e0", "fusion_lat": 0.0, "name": "c69b2ff8fac10ab93194961a94c086e0", "is_reserved": 0, "rental_uris": {"android": "https://dc.lft.to/lastmile_qr_scan", "ios": "https://dc.lft.to/lastmile_qr_scan"}, "fusion_lon": 0.0}, {"lat": 38.913267833333336, "is_disabled": 0, "type": "electric_scooter", "lon": -77.01499583333333, "bike_id": "fb5df036d659fa233fe25f9dbe75c759", "fusion_lat": 0.0, "name": "fb5df036d659fa233fe25f9dbe75c759", "is_reserved": 0, "rental_uris": {"android": "https://dc.lft.to/lastmile_qr_scan", "ios": "https://dc.lft.to/lastmile_qr_scan"}, "fusion_lon": 0.0}, {"lat": 38.90558633333333, "is_disabled": 0, "type": "electric_scooter", "lon": -76.9838245, "bike_id": "70a1d01477e00f6a9a0c54a12607d983", "fusion_lat": 0.0, "name": "70a1d01477e00f6a9a0c54a12607d983", "is_reserved": 0, "rental_uris": {"android": "https://dc.lft.to/lastmile_qr_scan", "ios": "https://dc.lft.to/lastmile_qr_scan"}, "fusion_lon": 0.0}, {"lat": 38.923609, "is_disabled": 0, "type": "electric_scooter", "lon": -77.04153583333333, "bike_id": "cb82d429a66de0b591082bbccf3a25f0", "fusion_lat": 0.0, "name": "cb82d429a66de0b591082bbccf3a25f0", "is_reserved": 0, "rental_uris": {"android": "https://dc.lft.to/lastmile_qr_scan", "ios": "https://dc.lft.to/lastmile_qr_scan"}, "fusion_lon": 0.0},