{"data": {"bikes": [{"is_disabled": 0, "is_reserved": 0, "fusion_lat": 0.0, "lat": 38.9272655, "fusion_lon": 0.0, "rental_uris": {"ios": "https://dc.lft.to/lastmile_qr_scan", "android": "https://dc.lft.to/lastmile_qr_scan"}, "lon": -77.05140266666666, "bike_id": "34da862cdc168e86883f07ec036a9025", "type": "electric_scooter", "name": "34da862cdc168e86883f07ec036a9025"}, {"is_disabled": 0, "is_reserved": 0, "fusion_lat": 0.0, "lat": 38.85515766666666, "fusion_lon": 0.0, "rental_uris": {"ios": "https://dc.lft.to/lastmile_qr_scan", "android": "https://dc.lft.to/lastmile_qr_scan"}, "lon": -77.10158133333333, "bike_id": "9afbe72ddb5f67ec67c5ba2315a948fc", "type": "electric_bike", "name": "9afbe72ddb5f67ec67c5ba2315a948fc"}, {"is_disabled": 0, "is_reserved": 0, "fusion_lat": 0.0, "lat": 38.9209425, "fusion_lon": 0.0, "rental_uris": {"ios": "https://dc.lft.to/lastmile_qr_scan", "android": "https://dc.lft.to/lastmile_qr_scan"}, "lon": -77.02318816666667, "bike_id": "ebee5cb5a481afb24b0ad1e0c21075ad", "type": "electric_scooter", "name": "ebee5cb5a481afb24b0ad1e0c21075ad"}, {"is_disabled": 0, "is_reserved": 0, "fusion_lat": 0.0, "lat": 38.898823666666665, "fusion_lon": 0.0, "rental_uris": {"ios": "https://dc.lft.to/lastmile_qr_scan", "android": "https://dc.lft.to/lastmile_qr_scan"}, "lon": -76.93182116666667, "bike_id": "e14808ed81b3f6f25f3e5d13e707cf15", "type": "electric_scooter", "name": "e14808ed81b3f6f25f3e5d13e707cf15"}, {"is_disabled": 0, "is_reserved": 0, "fusion_lat": 0.0, "lat": 38.89279116666667, "fusion_lon": 0.0, "rental_uris": {"ios": "https://dc.lft.to/lastmile_qr_scan", "android": "https://dc.lft.to/lastmile_qr_scan"}, "lon": -77.046553, "bike_id": "1701ff236319673bc0ba3b465671038e", "type": "electric_scooter", "name": "1701ff236319673bc0ba3b465671038e"}, {"is_disabled": 0, "is_reserved": 0, "fusion_lat": 0.0, "lat": 38.885182666666665, "fusion_lon": 0.0, "rental_uris": {"ios": "https://dc.lft.to/lastmile_qr_scan", "android": "https://dc.lft.to/lastmile_qr_scan"}, "lon": -77.02814283333333, "bike_id": "0dd7e710833580118992bf76455d8a4c", "type": "electric_scooter", "name": "0dd7e710833580118992bf76455d8a4c"}, {"is_disabled": 0, "is_reserved": 0, "fusion_lat": 0.0, "lat": 38.8922265, "fusion_lon": 0.0, "rental_uris": {"ios": "https://dc.lft.to/lastmile_qr_scan", "android": "https://dc.lft.to/lastmile_qr_scan"}, "lon": -77.039812, "bike_id": "6be14e22a6678f30bceac7f0d34b42e4", "type": "electric_scooter", "name": "6be14e22a6678f30bceac7f0d34b42e4"}, {"is_disabled": 0, "is_reserved": 0, "fusion_lat": 0.0, "lat": 38.918225, "fusion_lon": 0.0, "rental_uris": {"ios": "https://dc.lft.to/lastmile_qr_scan", "android": "https://dc.lft.to/lastmile_qr_scan"}, "lon": -77.01217533333333, "bike_id": "327ef79602f26b9e2e26c63701a69003", "type": "electric_scooter", "name": "327ef79602f26b9e2e26c63701a69003"}, {"is_disabled": 0, "is_reserved": 0, "fusion_lat": 0.0, "lat": 38.863688833333335, "fusion_lon": 0.0, "rental_uris": {"ios": "https://dc.lft.to/lastmile_qr_scan", "android": "https://dc.lft.to/lastmile_qr_scan"}, "lon": -77.01362233333333, "bike_id": "3341c2180829148367ad3391f73c5dd1", "type": "electric_scooter", "name": "3341c2180829148367ad3391f73c5dd1"}, {"is_disabled": 0, "is_reserved": 0, "fusion_lat": 0.0, "lat": 38.8844515, "fusion_lon": 0.0, "rental_uris": {"ios": "https://dc.lft.to/lastmile_qr_scan", "android": "https://dc.lft.to/lastmile_qr_scan"}, "lon": -76.9811925, "bike_id": "bf9f024cb0aa2b8c5b5545674c9dfcee", "type": "electric_bike", "name": "bf9f024cb0aa2b8c5b5545674c9dfcee"}, {"is_disabled": 0, "is_reserved": 0, "fusion_lat": 0.0, "lat": 38.909977833333336, "fusion_lon": 0.0, "rental_uris": {"ios": "https://dc.lft.to/lastmile_qr_scan", "android": "https://dc.lft.to/lastmile_qr_scan"}, "lon": -77.04448783333333, "bike_id": "99f2833fe9e7ed213bab19bea66eda23", "type": "electric_scooter", "name": "99f2833fe9e7ed213bab19bea66eda23"}, {"is_disabled": 0, "is_reserved": 0, "fusion_lat": 0.0, "lat": 38.9397255, "fusion_lon": 0.0, "rental_uris": {"ios": "https://dc.lft.to/lastmile_qr_scan", "android": "https://dc.lft.to/lastmile_qr_scan"}, "lon": -77.0343055, "bike_id": "4128d9efcc3438f1e567aa76840dae64", "type": "electric_scooter", "name": "4128d9efcc3438f1e567aa76840dae64"}, {"is_disabled": 0, "is_reserved": 0, "fusion_lat": 0.0, "lat": 38.89181333333333, "fusion_lon": 0.0, "rental_uris": {"ios": "https://dc.lft.to/lastmile_qr_scan", "android": "https://dc.lft.to/lastmile_qr_scan"}, "lon": -77.0158435, "bike_id": "119057cb066385eb8a918bd1b7c405ed", "type": "electric_scooter", "name": "119057cb066385eb8a918bd1b7c405ed"}, {"is_disabled": 0, "is_reserved": 0, "fusion_lat": 0.0, "lat": 38.9181075, "fusion_lon": 0.0, "rental_uris": {"ios": "https://dc.lft.to/lastmile_qr_scan", "android": "https://dc.lft.to/lastmile_qr_scan"}, "lon": -77.03439083333333, "bike_id": "fd3e4dfa692e6500b9c3fc6552f5a203", "type": "electric_scooter", "name": "fd3e4dfa692e6500b9c3fc6552f5a203"}, {"is_disabled": 0, "is_reserved": 0, "fusion_lat": 0.0, "lat": 39.003799, "fusion_lon": 0.0, "rental_uris": {"ios": "https://dc.lft.to/lastmile_qr_scan", "android": "https://dc.lft.to/lastmile_qr_scan"}, "lon": -77.01293916666667, "bike_id": "1e1b379957b3be3d8fe0b9b7378ad4c8", "type": "electric_bike", "name": "1e1b379957b3be3d8fe0b9b7378ad4c8"}, {"is_disabled": 0, "is_reserved": 0, "fusion_lat": 0.0, "lat": 38.9155665, "fusion_lon": 0.0, "rental_uris": {"ios": "https://dc.lft.to/lastmile_qr_scan", "android": "https://dc.lft.to/lastmile_qr_scan"}, "lon": -77.0346905, "bike_id": "7a3ed380c110a844b0650cbed80caa2a", "type": "electric_scooter", "name": "7a3ed380c110a844b0650cbed80caa2a"}, {"is_disabled": 0, "is_reserved": 0, "fusion_lat": 0.0, "lat": 38.935598666666664, "fusion_lon": 0.0, "rental_uris": {"ios": "https://dc.lft.to/lastmile_qr_scan", "android": "https://dc.lft.to/lastmile_qr_scan"}, "lon": -76.99100116666666, "bike_id": "abc5ccccb39ff61ac5d8e5ca2f6617ce", "type": "electric_scooter", "name": "abc5ccccb39ff61ac5d8e5ca2f6617ce"}, {"is_disabled": 0, "is_reserved": 0, "fusion_lat": 0.0, "lat": 38.90066066666667, "fusion_lon": 0.0, "rental_uris": {"ios": "https://dc.lft.to/lastmile_qr_scan", "android": "https://dc.lft.to/lastmile_qr_scan"}, "lon": -77.05070366666666, "bike_id": "1d8d1b9d35eba2d6c47b1ccd23c985bf", "type": "electric_scooter", "name": "1d8d1b9d35eba2d6c47b1ccd23c985bf"}, {"is_disabled": 0, "is_reserved": 0, "fusion_lat": 0.0, "lat": 38.9154555, "fusion_lon": 0.0, "rental_uris": {"ios": "https://dc.lft.to/lastmile_qr_scan", "android": "https://dc.lft.to/lastmile_qr_scan"}, "lon": -77.02177483333334, "bike_id": "a01a2269b31bd9a1cb96f4c9b20b800d", "type": "electric_scooter", "name": "a01a2269b31bd9a1cb96f4c9b20b800d"}, {"is_disabled": 0, "is_reserved": 0, "fusion_lat": 0.0, "lat": 38.953628, "fusion_lon": 0.0, "rental_uris": {"ios": "https://dc.lft.to/lastmile_qr_scan", "android": "https://dc.lft.to/lastmile_qr_scan"}, "lon": -76.9429485, "bike_id": "ae3726e2745537fe20cd9987950a6b58", "type": "electric_bike", "name": "ae3726e2745537fe20cd9987950a6b58"}, {"is_disabled": 0, "is_reserved": 0, "fusion_lat": 0.0, "lat": 38.90032466666667, "fusion_lon": 0.0, "rental_uris": {"ios": "https://dc.lft.to/lastmile_qr_scan", "android": "https://dc.lft.to/lastmile_qr_scan"}, "lon": -76.988281, "bike_id": "c9ab08f1df60d201bd2149639a68015e", "type": "electric_scooter", "name": "c9ab08f1df60d201bd2149639a68015e"}, {"is_disabled": 0, "is_reserved": 0, "fusion_lat": 0.0, "lat": 38.930797, "fusion_lon": 0.0, "rental_uris": {"ios": "https://dc.lft.to/lastmile_qr_scan", "android": "https://dc.lft.to/lastmile_qr_scan"}, "lon": -77.077637, "bike_id": "de992e7f3d314f8c300f5f00f16981e9", "type": "electric_scooter", "name": "de992e7f3d314f8c300f5f00f16981e9"}, {"is_disabled": 0, "is_reserved": 0, "fusion_lat": 0.0, "lat": 38.912659833333336, "fusion_lon": 0.0, "rental_uris": {"ios": "https://dc.lft.to/lastmile_qr_scan", "android": "https://dc.lft.to/lastmile_qr_scan"}, "lon": -77.0225305, "bike_id": "2c85541afa32b66919210401d709df9a", "type": "electric_scooter", "name": "2c85541afa32b66919210401d709df9a"}, {"is_disabled": 0, "is_reserved": 0, "fusion_lat": 0.0, "lat": 38.93540766666667, "fusion_lon": 0.0, "rental_uris": {"ios": "https://dc.lft.to/lastmile_qr_scan", "android": "https://dc.lft.to/lastmile_qr_scan"}, "lon": -76.983577, "bike_id": "066437530e18389d416d1b9e307d25f7", "type": "electric_bike", "name": "066437530e18389d416d1b9e307d25f7"}, {"is_disabled": 0, "is_reserved": 0, "fusion_lat": 0.0, "lat": 38.93061016666667, "fusion_lon": 0.0, "rental_uris": {"ios": "https://dc.lft.to/lastmile_qr_scan", "android": "https://dc.lft.to/lastmile_qr_scan"}, "lon": -76.973256, "bike_id": "31bf6d91c802f0ed0dadc679b1625925", "type": "electric_scooter", "name": "31bf6d91c802f0ed0dadc679b1625925"}, {"is_disabled": 0, "is_reserved": 0, "fusion_lat": 0.0, "lat": 38.916482333333335, "fusion_lon": 0.0, "rental_uris": {"ios": "https://dc.lft.to/lastmile_qr_scan", "android": "https://dc.lft.to/lastmile_qr_scan"}, "lon": -77.02179316666667, "bike_id": "672ab4b792c5a37f5af0433220e4676a", "type": "electric_scooter", "name": "672ab4b792c5a37f5af0433220e4676a"}, {"is_disabled": 0, "is_reserved": 0, "fusion_lat": 0.0, "lat": 38.925512499999996, "fusion_lon": 0.0, "rental_uris": {"ios": "https://dc.lft.to/lastmile_qr_scan", "android": "https://dc.lft.to/lastmile_qr_scan"}, "lon": -77.02696483333334, "bike_id": "2261497032fd2560709e19fbcccee1a3", "type": "electric_scooter", "name": "2261497032fd2560709e19fbcccee1a3"}, {"is_disabled": 0, "is_reserved": 0, "fusion_lat": 0.0, "lat": 38.956397, "fusion_lon": 0.0, "rental_uris": {"ios": "https://dc.lft.to/lastmile_qr_scan", "android": "https://dc.lft.to/lastmile_qr_scan"}, "lon": -77.03630783333334, "bike_id": "1d772edaf0929e7846bd7b2eca95cc02", "type": "electric_scooter", "name": "1d772edaf0929e7846bd7b2eca95cc02"}, {"is_disabled": 0, "is_reserved": 0, "fusion_lat": 0.0, "lat": 38.890859166666665, "fusion_lon": 0.0, "rental_uris": {"ios": "https://dc.lft.to/lastmile_qr_scan", "android": "https://dc.lft.to/lastmile_qr_scan"}, "lon": -76.954671, "bike_id": "e9ac26b034ce6e82733c4e0465f000b1", "type": "electric_bike", "name": "e9ac26b034ce6e82733c4e0465f000b1"}, {"is_disabled": 0, "is_reserved": 0, "fusion_lat": 0.0, "lat": 38.931912, "fusion_lon": 0.0, "rental_uris": {"ios": "https://dc.lft.to/lastmile_qr_scan", "android": "https://dc.lft.to/lastmile_qr_scan"}, "lon": -77.018666, "bike_id": "568f3d2420b762e480ef0dec896454c2", "type": "electric_scooter", "name": "568f3d2420b762e480ef0dec896454c2"}, {"is_disabled": 0, "is_reserved": 0, "fusion_lat": 0.0, "lat": 38.92909366666667, "fusion_lon": 0.0, "rental_uris": {"ios": "https://dc.lft.to/lastmile_qr_scan", "android": "https://dc.lft.to/lastmile_qr_scan"}, "lon": -77.059798, "bike_id": "86729d55f4e0f60b292074ebcf179855", "type": "electric_scooter", "name": "86729d55f4e0f60b292074ebcf179855"}, {"is_disabled": 0, "is_reserved": 0, "fusion_lat": 0.0, "lat": 38.91986933333333, "fusion_lon": 0.0, "rental_uris": {"ios": "https://dc.lft.to/lastmile_qr_scan", "android": "https://dc.lft.to/lastmile_qr_scan"}, "lon": -77.03324133333334, "bike_id": "a2f8a45eb1a5b4284a45737b3b8623f0", "type": "electric_scooter", "name": "a2f8a45eb1a5b4284a45737b3b8623f0"}, {"is_disabled": 0, "is_reserved": 0, "fusion_lat": 0.0, "lat": 38.877352, "fusion_lon": 0.0, "rental_uris": {"ios": "https://dc.lft.to/lastmile_qr_scan", "android": "https://dc.lft.to/lastmile_qr_scan"}, "lon": -77.11842966666667, "bike_id": "fe4e118e9d6c0e9eb44b2cd639d661c2", "type": "electric_bike", "name": "fe4e118e9d6c0e9eb44b2cd639d661c2"}, {"is_disabled": 0, "is_reserved": 0, "fusion_lat": 0.0, "lat": 38.915651833333335, "fusion_lon": 0.0, "rental_uris": {"ios": "https://dc.lft.to/lastmile_qr_scan", "android": "https://dc.lft.to/lastmile_qr_scan"}, "lon": -77.02162766666666, "bike_id": "d1517090dbc31ebc2e62b20b6b88a897", "type": "electric_scooter", "name": "d1517090dbc31ebc2e62b20b6b88a897"}, {"is_disabled": 0, "is_reserved": 0, "fusion_lat": 0.0, "lat": 38.883925833333336, "fusion_lon": 0.0, "rental_uris": {"ios": "https://dc.lft.to/lastmile_qr_scan", "android": "https://dc.lft.to/lastmile_qr_scan"}, "lon": -77.03031733333333, "bike_id": "8e0ee5ad477e0cacc24933e6efa2ca92", "type": "electric_scooter", "name": "8e0ee5ad477e0cacc24933e6efa2ca92"}, {"is_disabled": 0, "is_reserved": 0, "fusion_lat": 0.0, "lat": 38.8948005, "fusion_lon": 0.0, "rental_uris": {"ios": "https://dc.lft.to/lastmile_qr_scan", "android": "https://dc.lft.to/lastmile_qr_scan"}, "lon": -77.03344383333334, "bike_id": "5790af9181535e9ea1cada9b0e31fb5a", "type": "electric_scooter", "name": "5790af9181535e9ea1cada9b0e31fb5a"}, {"is_disabled": 0, "is_reserved": 0, "fusion_lat": 0.0, "lat": 38.92340216666667, "fusion_lon": 0.0, "rental_uris": {"ios": "https://dc.lft.to/lastmile_qr_scan", "android": "https://dc.lft.to/lastmile_qr_scan"}, "lon": -77.03529616666667, "bike_id": "081c60a0998d7fcaf8a72c3a1de48229", "type": "electric_scooter", "name": "081c60a0998d7fcaf8a72c3a1de48229"}, {"is_disabled": 0, "is_reserved": 0, "fusion_lat": 0.0, "lat": 38.90950683333333, "fusion_lon": 0.0, "rental_uris": {"ios": "https://dc.lft.to/lastmile_qr_scan", "android": "https://dc.lft.to/lastmile_qr_scan"}, "lon": -77.03175766666666, "bike_id": "3709895695bfa8ec8044cb62f1ef4b15", "type": "electric_scooter", "name": "3709895695bfa8ec8044cb62f1ef4b15"}, {"is_disabled": 0, "is_reserved": 0, "fusion_lat": 0.0, "lat": 38.9097375, "fusion_lon": 0.0, "rental_uris": {"ios": "https://dc.lft.to/lastmile_qr_scan", "android": "https://dc.lft.to/lastmile_qr_scan"}, "lon": -77.03195233333334, "bike_id": "d210be25191abea392b4e002362b9740", "type": "electric_scooter", "name": "d210be25191abea392b4e002362b9740"}, {"is_disabled": 0, "is_reserved": 0, "fusion_lat": 0.0, "lat": 38.8925455, "fusion_lon": 0.0, "rental_uris": {"ios": "https://dc.lft.to/lastmile_qr_scan", "android": "https://dc.lft.to/lastmile_qr_scan"}, "lon": -77.04656016666667, "bike_id": "00a6e1a0d312ef8c2d59aa3d1d48425e", "type": "electric_scooter", "name": "00a6e1a0d312ef8c2d59aa3d1d48425e"}, {"is_disabled": 0, "is_reserved": 0, "fusion_lat": 0.0, "lat": 38.9155645, "fusion_lon": 0.0, "rental_uris": {"ios": "https://dc.lft.to/lastmile_qr_scan", "android": "https://dc.lft.to/lastmile_qr_scan"}, "lon": -77.03174383333334, "bike_id": "aa595f9ec2289c820aa4941faa48fef1", "type": "electric_scooter", "name": "aa595f9ec2289c820aa4941faa48fef1"}, {"is_disabled": 0, "is_reserved": 0, "fusion_lat": 0.0, "lat": 38.92989766666667, "fusion_lon": 0.0, "rental_uris": {"ios": "https://dc.lft.to/lastmile_qr_scan", "android": "https://dc.lft.to/lastmile_qr_scan"}, "lon": -77.03471716666667, "bike_id": "b04f45387ecc2c68a36d410a4547a4a4", "type": "electric_scooter", "name": "b04f45387ecc2c68a36d410a4547a4a4"}, {"is_disabled": 0, "is_reserved": 0, "fusion_lat": 0.0, "lat": 38.923022, "fusion_lon": 0.0, "rental_uris": {"ios": "https://dc.lft.to/lastmile_qr_scan", "android": "https://dc.lft.to/lastmile_qr_scan"}, "lon": -77.04144433333333, "bike_id": "9ec4f3043f64f51b8b15c55688d49180", "type": "electric_scooter", "name": "9ec4f3043f64f51b8b15c55688d49180"}, {"is_disabled": 0, "is_reserved": 0, "fusion_lat": 0.0, "lat": 38.91710166666667, "fusion_lon": 0.0, "rental_uris": {"ios": "https://dc.lft.to/lastmile_qr_scan", "android": "https://dc.lft.to/lastmile_qr_scan"}, "lon": -77.04123183333333, "bike_id": "f2c566bdf520c31887e4fd0831366c1c", "type": "electric_scooter", "name": "f2c566bdf520c31887e4fd0831366c1c"}, {"is_disabled": 0, "is_reserved": 0, "fusion_lat": 0.0, "lat": 38.933597666666664, "fusion_lon": 0.0, "rental_uris": {"ios": "https://dc.lft.to/lastmile_qr_scan", "android": "https://dc.lft.to/lastmile_qr_scan"}, "lon": -77.02406783333333, "bike_id": "bb021d72c8013ea8750d525aca0d1c9c", "type": "electric_scooter", "name": "bb021d72c8013ea8750d525aca0d1c9c"}, {"is_disabled": 0, "is_reserved": 0, "fusion_lat": 0.0, "lat": 38.91764283333333, "fusion_lon": 0.0, "rental_uris": {"ios": "https://dc.lft.to/lastmile_qr_scan", "android": "https://dc.lft.to/lastmile_qr_scan"}, "lon": -77.02402866666667, "bike_id": "2d569f3eb6466fb04d02a99fa61a4db6", "type": "electric_scooter", "name": "2d569f3eb6466fb04d02a99fa61a4db6"}, {"is_disabled": 0, "is_reserved": 0, "fusion_lat": 0.0, "lat": 38.91447083333333, "fusion_lon": 0.0, "rental_uris": {"ios": "https://dc.lft.to/lastmile_qr_scan", "android": "https://dc.lft.to/lastmile_qr_scan"}, "lon": -77.00890333333334, "bike_id": "54b96bdd9f8d820fd999f4c3f31df44f", "type": "electric_scooter", "name": "54b96bdd9f8d820fd999f4c3f31df44f"}, {"is_disabled": 0, "is_reserved": 0, "fusion_lat": 0.0, "lat": 38.88765716666666, "fusion_lon": 0.0, "rental_uris": {"ios": "https://dc.lft.to/lastmile_qr_scan", "android": "https://dc.lft.to/lastmile_qr_scan"}, "lon": -77.01463566666666, "bike_id": "e0bc78e49952ebc624cba317f4b0b0c0", "type": "electric_scooter", "name": "e0bc78e49952ebc624cba317f4b0b0c0"}, {"is_disabled": 0, "is_reserved": 0, "fusion_lat": 0.0, "lat": 38.862371833333334, "fusion_lon": 0.0, "rental_uris": {"ios": "https://dc.lft.to/lastmile_qr_scan", "android": "https://dc.lft.to/lastmile_qr_scan"}, "lon": -76.99517383333334, "bike_id": "26f1d93ba3f674d9ca82275669886454", "type": "electric_scooter", "name": "26f1d93ba3f674d9ca82275669886454"}, {"is_disabled": 0, "is_reserved": 0, "fusion_lat": 0.0, "lat": 38.9180165, "fusion_lon": 0.0, "rental_uris": {"ios": "https://dc.lft.to/lastmile_qr_scan", "android": "https://dc.lft.to/lastmile_qr_scan"}, "lon": -77.0343325, "bike_id": "eca19bbf92582a97396e6b4fccb92b51", "type": "electric_scooter", "name": "eca19bbf92582a97396e6b4fccb92b51"}, {"is_disabled": 0, "is_reserved": 0, "fusion_lat": 0.0, "lat": 38.919728166666665, "fusion_lon": 0.0, "rental_uris": {"ios": "https://dc.lft.to/lastmile_qr_scan", "android": "https://dc.lft.to/lastmile_qr_scan"}, "lon": -77.0414575, "bike_id": "29103d255abfbbb3c583dea7624c1f9e", "type": "electric_scooter", "name": "29103d255abfbbb3c583dea7624c1f9e"}, {"is_disabled": 0, "is_reserved": 0, "fusion_lat": 0.0, "lat": 38.9223865, "fusion_lon": 0.0, "rental_uris": {"ios": "https://dc.lft.to/lastmile_qr_scan", "android": "https://dc.lft.to/lastmile_qr_scan"}, "lon": -77.03899583333333, "bike_id": "bf033112049a08b1753910e9257d9b57", "type": "electric_scooter", "name": "bf033112049a08b1753910e9257d9b57"}, {"is_disabled": 0, "is_reserved": 0, "fusion_lat": 0.0, "lat": 38.953346, "fusion_lon": 0.0, "rental_uris": {"ios": "https://dc.lft.to/lastmile_qr_scan", "android": "https://dc.lft.to/lastmile_qr_scan"}, "lon": -76.982499, "bike_id": "e66d18b121e77c866400f05f62b0a503", "type": "electric_bike", "name": "e66d18b121e77c866400f05f62b0a503"}, {"is_disabled": 0, "is_reserved": 0, "fusion_lat": 0.0, "lat": 38.8975905, "fusion_lon": 0.0, "rental_uris": {"ios": "https://dc.lft.to/lastmile_qr_scan", "android": "https://dc.lft.to/lastmile_qr_scan"}, "lon": -77.05488416666667, "bike_id": "db71ceebcc048eb685a99b925ffc6cd8", "type": "electric_scooter", "name": "db71ceebcc048eb685a99b925ffc6cd8"}, {"is_disabled": 0, "is_reserved": 0, "fusion_lat": 0.0, "lat": 38.875027333333335, "fusion_lon": 0.0, "rental_uris": {"ios": "https://dc.lft.to/lastmile_qr_scan", "android": "https://dc.lft.to/lastmile_qr_scan"}, "lon": -77.00170466666667, "bike_id": "1cfd1a43a565d0ad90544f7c10f9724e", "type": "electric_scooter", "name": "1cfd1a43a565d0ad90544f7c10f9724e"}, {"is_disabled": 0, "is_reserved": 0, "fusion_lat": 0.0, "lat": 38.918269, "fusion_lon": 0.0, "rental_uris": {"ios": "https://dc.lft.to/lastmile_qr_scan", "android": "https://dc.lft.to/lastmile_qr_scan"}, "lon": -77.02714966666667, "bike_id": "b0928906ff6dbeffc683f068fc775e74", "type": "electric_scooter", "name": "b0928906ff6dbeffc683f068fc775e74"}, {"is_disabled": 0, "is_reserved": 0, "fusion_lat": 0.0, "lat": 38.91434516666666, "fusion_lon": 0.0, "rental_uris": {"ios": "https://dc.lft.to/lastmile_qr_scan", "android": "https://dc.lft.to/lastmile_qr_scan"}, "lon": -77.0281105, "bike_id": "ee32eb09eb432bde245d6bc8c83e018e", "type": "electric_scooter", "name": "ee32eb09eb432bde245d6bc8c83e018e"}, {"is_disabled": 0, "is_reserved": 0, "fusion_lat": 0.0, "lat": 38.8968575, "fusion_lon": 0.0, "rental_uris": {"ios": "https://dc.lft.to/lastmile_qr_scan", "android": "https://dc.lft.to/lastmile_qr_scan"}, "lon": -76.93905366666667, "bike_id": "004579fcd5b15c3248286afa81d4a6f3", "type": "electric_scooter", "name": "004579fcd5b15c3248286afa81d4a6f3"}, {"is_disabled": 0, "is_reserved": 0, "fusion_lat": 0.0, "lat": 38.93615716666667, "fusion_lon": 0.0, "rental_uris": {"ios": "https://dc.lft.to/lastmile_qr_scan", "android": "https://dc.lft.to/lastmile_qr_scan"}, "lon": -76.94994383333334, "bike_id": "4ba1392eb587aba0e59c65e948956927", "type": "electric_bike", "name": "4ba1392eb587aba0e59c65e948956927"}, {"is_disabled": 0, "is_reserved": 0, "fusion_lat": 0.0, "lat": 38.910883, "fusion_lon": 0.0, "rental_uris": {"ios": "https://dc.lft.to/lastmile_qr_scan", "android": "https://dc.lft.to/lastmile_qr_scan"}, "lon": -77.06542233333333, "bike_id": "e8cdaf4b227d66e4813bf2a6def40597", "type": "electric_scooter", "name": "e8cdaf4b227d66e4813bf2a6def40597"}, {"is_disabled": 0, "is_reserved": 0, "fusion_lat": 0.0, "lat": 38.876336333333334, "fusion_lon": 0.0, "rental_uris": {"ios": "https://dc.lft.to/lastmile_qr_scan", "android": "https://dc.lft.to/lastmile_qr_scan"}, "lon": -77.00838583333334, "bike_id": "a09f6b115caf07f6a670c8a9623d9a02", "type": "electric_scooter", "name": "a09f6b115caf07f6a670c8a9623d9a02"}, {"is_disabled": 0, "is_reserved": 0, "fusion_lat": 0.0, "lat": 38.89729783333333, "fusion_lon": 0.0, "rental_uris": {"ios": "https://dc.lft.to/lastmile_qr_scan", "android": "https://dc.lft.to/lastmile_qr_scan"}, "lon": -77.043656, "bike_id": "c55081aae263851fa3b436ebe43eaa6b", "type": "electric_scooter", "name": "c55081aae263851fa3b436ebe43eaa6b"}, {"is_disabled": 0, "is_reserved": 0, "fusion_lat": 0.0, "lat": 38.91684583333333, "fusion_lon": 0.0, "rental_uris": {"ios": "https://dc.lft.to/lastmile_qr_scan", "android": "https://dc.lft.to/lastmile_qr_scan"}, "lon": -77.02968033333333, "bike_id": "cef0b21379fe0105c8eae0201f14ed65", "type": "electric_scooter", "name": "cef0b21379fe0105c8eae0201f14ed65"}, {"is_disabled": 0, "is_reserved": 0, "fusion_lat": 0.0, "lat": 38.89828933333333, "fusion_lon": 0.0, "rental_uris": {"ios": "https://dc.lft.to/lastmile_qr_scan", "android": "https://dc.lft.to/lastmile_qr_scan"}, "lon": -77.02500516666667, "bike_id": "dd6744131bc867804e69c7185242097e", "type": "electric_scooter", "name": "dd6744131bc867804e69c7185242097e"}, {"is_disabled": 0, "is_reserved": 0, "fusion_lat": 0.0, "lat": 38.9246905, "fusion_lon": 0.0, "rental_uris": {"ios": "https://dc.lft.to/lastmile_qr_scan", "android": "https://dc.lft.to/lastmile_qr_scan"}, "lon": -77.02261333333334, "bike_id": "14f5e7519a30034288fd5e6aa2c714c9", "type": "electric_scooter", "name": "14f5e7519a30034288fd5e6aa2c714c9"}, {"is_disabled": 0, "is_reserved": 0, "fusion_lat": 0.0, "lat": 38.92970416666667, "fusion_lon": 0.0, "rental_uris": {"ios": "https://dc.lft.to/lastmile_qr_scan", "android": "https://dc.lft.to/lastmile_qr_scan"}, "lon": -77.03080733333333, "bike_id": "a5dc2a62871ae8f2cdf5d4fe04c680ff", "type": "electric_scooter", "name": "a5dc2a62871ae8f2cdf5d4fe04c680ff"}, {"is_disabled": 0, "is_reserved": 0, "fusion_lat": 0.0, "lat": 38.89960033333333, "fusion_lon": 0.0, "rental_uris": {"ios": "https://dc.lft.to/lastmile_qr_scan", "android": "https://dc.lft.to/lastmile_qr_scan"}, "lon": -77.05496866666667, "bike_id": "19a7ac49c70488d588c3959eb88de9d4", "type": "electric_scooter", "name": "19a7ac49c70488d588c3959eb88de9d4"}, {"is_disabled": 0, "is_reserved": 0, "fusion_lat": 0.0, "lat": 38.89210516666667, "fusion_lon": 0.0, "rental_uris": {"ios": "https://dc.lft.to/lastmile_qr_scan", "android": "https://dc.lft.to/lastmile_qr_scan"}, "lon": -77.03215366666667, "bike_id": "e2b68a5a91512da0e681b2317d2ca56f", "type": "electric_scooter", "name": "e2b68a5a91512da0e681b2317d2ca56f"}, {"is_disabled": 0, "is_reserved": 0, "fusion_lat": 0.0, "lat": 38.9370685, "fusion_lon": 0.0, "rental_uris": {"ios": "https://dc.lft.to/lastmile_qr_scan", "android": "https://dc.lft.to/lastmile_qr_scan"}, "lon": -77.055958, "bike_id": "b1b02dafaf57d3afd26b700d812ddd5f", "type": "electric_scooter", "name": "b1b02dafaf57d3afd26b700d812ddd5f"}, {"is_disabled": 0, "is_reserved": 0, "fusion_lat": 0.0, "lat": 38.923525, "fusion_lon": 0.0, "rental_uris": {"ios": "https://dc.lft.to/lastmile_qr_scan", "android": "https://dc.lft.to/lastmile_qr_scan"}, "lon": -77.0730905, "bike_id": "9a2524d5062b7c4d3d294bdc91d21e0f", "type": "electric_scooter", "name": "9a2524d5062b7c4d3d294bdc91d21e0f"}, {"is_disabled": 0, "is_reserved": 0, "fusion_lat": 0.0, "lat": 38.9265815, "fusion_lon": 0.0, "rental_uris": {"ios": "https://dc.lft.to/lastmile_qr_scan", "android": "https://dc.lft.to/lastmile_qr_scan"}, "lon": -77.02425516666666, "bike_id": "50595232cbf6d98af5f24f1e74a4cfb7", "type": "electric_scooter", "name": "50595232cbf6d98af5f24f1e74a4cfb7"}, {"is_disabled": 0, "is_reserved": 0, "fusion_lat": 0.0, "lat": 38.92655766666667, "fusion_lon": 0.0, "rental_uris": {"ios": "https://dc.lft.to/lastmile_qr_scan", "android": "https://dc.lft.to/lastmile_qr_scan"}, "lon": -77.02443983333333, "bike_id": "328a0c307f4401c1ada846ae17c45d8b", "type": "electric_scooter", "name": "328a0c307f4401c1ada846ae17c45d8b"}, {"is_disabled": 0, "is_reserved": 0, "fusion_lat": 0.0, "lat": 38.93120583333334, "fusion_lon": 0.0, "rental_uris": {"ios": "https://dc.lft.to/lastmile_qr_scan", "android": "https://dc.lft.to/lastmile_qr_scan"}, "lon": -77.0206765, "bike_id": "1e64add922959c1d6721472b58bd534d", "type": "electric_scooter", "name": "1e64add922959c1d6721472b58bd534d"}, {"is_disabled": 0, "is_reserved": 0, "fusion_lat": 0.0, "lat": 38.9185855, "fusion_lon": 0.0, "rental_uris": {"ios": "https://dc.lft.to/lastmile_qr_scan", "android": "https://dc.lft.to/lastmile_qr_scan"}, "lon": -77.04458583333333, "bike_id": "34df971f1e9c2c0fb497dffd530d9704", "type": "electric_scooter", "name": "34df971f1e9c2c0fb497dffd530d9704"}, {"is_disabled": 0, "is_reserved": 0, "fusion_lat": 0.0, "lat": 38.9306525, "fusion_lon": 0.0, "rental_uris": {"ios": "https://dc.lft.to/lastmile_qr_scan", "android": "https://dc.lft.to/lastmile_qr_scan"}, "lon": -77.03187316666667, "bike_id": "f6868295500403d2326112a87c5620f9", "type": "electric_scooter", "name": "f6868295500403d2326112a87c5620f9"}, {"is_disabled": 0, "is_reserved": 0, "fusion_lat": 0.0, "lat": 38.8929175, "fusion_lon": 0.0, "rental_uris": {"ios": "https://dc.lft.to/lastmile_qr_scan", "android": "https://dc.lft.to/lastmile_qr_scan"}, "lon": -76.97614733333333, "bike_id": "f94272f9f5c0fd7d40cd208b22bcd9a9", "type": "electric_bike", "name": "f94272f9f5c0fd7d40cd208b22bcd9a9"}, {"is_disabled": 0, "is_reserved": 0, "fusion_lat": 0.0, "lat": 38.908000333333334, "fusion_lon": 0.0, "rental_uris": {"ios": "https://dc.lft.to/lastmile_qr_scan", "android": "https://dc.lft.to/lastmile_qr_scan"}, "lon": -77.04983466666667, "bike_id": "808ef5da8997a56de02ac005f057a8a0", "type": "electric_scooter", "name": "808ef5da8997a56de02ac005f057a8a0"}, {"is_disabled": 0, "is_reserved": 0, "fusion_lat": 0.0, "lat": 38.932417666666666, "fusion_lon": 0.0, "rental_uris": {"ios": "https://dc.lft.to/lastmile_qr_scan", "android": "https://dc.lft.to/lastmile_qr_scan"}, "lon": -76.99092183333333, "bike_id": "9ab39d39f4b79f59de60c56c10511678", "type": "electric_scooter", "name": "9ab39d39f4b79f59de60c56c10511678"}, {"is_disabled": 0, "is_reserved": 0, "fusion_lat": 0.0, "lat": 38.924451, "fusion_lon": 0.0, "rental_uris": {"ios": "https://dc.lft.to/lastmile_qr_scan", "android": "https://dc.lft.to/lastmile_qr_scan"}, "lon": -77.00209583333333, "bike_id": "7c912208295a34a6d1a45bec365872cd", "type": "electric_bike", "name": "7c912208295a34a6d1a45bec365872cd"}, {"is_disabled": 0, "is_reserved": 0, "fusion_lat": 0.0, "lat": 38.89617416666667, "fusion_lon": 0.0, "rental_uris": {"ios": "https://dc.lft.to/lastmile_qr_scan", "android": "https://dc.lft.to/lastmile_qr_scan"}, "lon": -77.006041, "bike_id": "67e26a880bb8d64a2816a5b0f46a650f", "type": "electric_scooter", "name": "67e26a880bb8d64a2816a5b0f46a650f"}, {"is_disabled": 0, "is_reserved": 0, "fusion_lat": 0.0, "lat": 38.8967515, "fusion_lon": 0.0, "rental_uris": {"ios": "https://dc.lft.to/lastmile_qr_scan", "android": "https://dc.lft.to/lastmile_qr_scan"}, "lon": -77.05462233333333, "bike_id": "57b91db03c041c35956c061929408bf8", "type": "electric_scooter", "name": "57b91db03c041c35956c061929408bf8"}, {"is_disabled": 0, "is_reserved": 0, "fusion_lat": 0.0, "lat": 38.92810216666667, "fusion_lon": 0.0, "rental_uris": {"ios": "https://dc.lft.to/lastmile_qr_scan", "android": "https://dc.lft.to/lastmile_qr_scan"}, "lon": -77.022988, "bike_id": "c01359c1ccdac8672c0ad7d8f5732517", "type": "electric_scooter", "name": "c01359c1ccdac8672c0ad7d8f5732517"}, {"is_disabled": 0, "is_reserved": 0, "fusion_lat": 0.0, "lat": 38.83411433333333, "fusion_lon": 0.0, "rental_uris": {"ios": "https://dc.lft.to/lastmile_qr_scan", "android": "https://dc.lft.to/lastmile_qr_scan"}, "lon": -77.0501885, "bike_id": "f472f90019b6dfc8a19b8699dd9e64b5", "type": "electric_bike", "name": "f472f90019b6dfc8a19b8699dd9e64b5"}, {"is_disabled": 0, "is_reserved": 0, "fusion_lat": 0.0, "lat": 38.930682166666664, "fusion_lon": 0.0, "rental_uris": {"ios": "https://dc.lft.to/lastmile_qr_scan", "android": "https://dc.lft.to/lastmile_qr_scan"}, "lon": -77.02348566666667, "bike_id": "574236a740ddc72fd3034671a2b0f15e", "type": "electric_scooter", "name": "574236a740ddc72fd3034671a2b0f15e"}, {"is_disabled": 0, "is_reserved": 0, "fusion_lat": 0.0, "lat": 38.949267, "fusion_lon": 0.0, "rental_uris": {"ios": "https://dc.lft.to/lastmile_qr_scan", "android": "https://dc.lft.to/lastmile_qr_scan"}, "lon": -77.0231455, "bike_id": "7e5900cd7174e0fe8543cbb1e7ea8b58", "type": "electric_scooter", "name": "7e5900cd7174e0fe8543cbb1e7ea8b58"}, {"is_disabled": 0, "is_reserved": 0, "fusion_lat": 0.0, "lat": 38.88480783333333, "fusion_lon": 0.0, "rental_uris": {"ios": "https://dc.lft.to/lastmile_qr_scan", "android": "https://dc.lft.to/lastmile_qr_scan"}, "lon": -77.02655233333333, "bike_id": "e2112cd99ef13eda21b3f104d0c268e5", "type": "electric_scooter", "name": "e2112cd99ef13eda21b3f104d0c268e5"}, {"is_disabled": 0, "is_reserved": 0, "fusion_lat": 0.0, "lat": 38.883471, "fusion_lon": 0.0, "rental_uris": {"ios": "https://dc.lft.to/lastmile_qr_scan", "android": "https://dc.lft.to/lastmile_qr_scan"}, "lon": -76.99471266666667, "bike_id": "d965d9e9fbd1c5b08b3ae9e03b176e9d", "type": "electric_scooter", "name": "d965d9e9fbd1c5b08b3ae9e03b176e9d"}, {"is_disabled": 0, "is_reserved": 0, "fusion_lat": 0.0, "lat": 38.897342333333334, "fusion_lon": 0.0, "rental_uris": {"ios": "https://dc.lft.to/lastmile_qr_scan", "android": "https://dc.lft.to/lastmile_qr_scan"}, "lon": -77.04528966666666, "bike_id": "5392dad1dab5f135002ac30e0719a88c", "type": "electric_scooter", "name": "5392dad1dab5f135002ac30e0719a88c"}, {"is_disabled": 0, "is_reserved": 0, "fusion_lat": 0.0, "lat": 38.949783833333335, "fusion_lon": 0.0, "rental_uris": {"ios": "https://dc.lft.to/lastmile_qr_scan", "android": "https://dc.lft.to/lastmile_qr_scan"}, "lon": -77.0808665, "bike_id": "9e9636be277150fc545b761819c82f30", "type": "electric_scooter", "name": "9e9636be277150fc545b761819c82f30"}, {"is_disabled": 0, "is_reserved": 0, "fusion_lat": 0.0, "lat": 38.90563016666667, "fusion_lon": 0.0, "rental_uris": {"ios": "https://dc.lft.to/lastmile_qr_scan", "android": "https://dc.lft.to/lastmile_qr_scan"}, "lon": -77.0360255, "bike_id": "8e579495c0853ab9eb57dfe87d7e9fce", "type": "electric_scooter", "name": "8e579495c0853ab9eb57dfe87d7e9fce"}, {"is_disabled": 0, "is_reserved": 0, "fusion_lat": 0.0, "lat": 38.857245666666664, "fusion_lon": 0.0, "rental_uris": {"ios": "https://dc.lft.to/lastmile_qr_scan", "android": "https://dc.lft.to/lastmile_qr_scan"}, "lon": -76.98096233333334, "bike_id": "ae61b4fab6c271b8dd1fbdcb94b93e41", "type": "electric_scooter", "name": "ae61b4fab6c271b8dd1fbdcb94b93e41"}, {"is_disabled": 0, "is_reserved": 0, "fusion_lat": 0.0, "lat": 38.91836266666667, "fusion_lon": 0.0, "rental_uris": {"ios": "https://dc.lft.to/lastmile_qr_scan", "android": "https://dc.lft.to/lastmile_qr_scan"}, "lon": -77.041647, "bike_id": "47e13efc132827cad88be164a9dc7e33", "type": "electric_scooter", "name": "47e13efc132827cad88be164a9dc7e33"}, {"is_disabled": 0, "is_reserved": 0, "fusion_lat": 0.0, "lat": 38.8986865, "fusion_lon": 0.0, "rental_uris": {"ios": "https://dc.lft.to/lastmile_qr_scan", "android": "https://dc.lft.to/lastmile_qr_scan"}, "lon": -76.94661066666667, "bike_id": "b34a3dd5c28867eed53543de91680509", "type": "electric_scooter", "name": "b34a3dd5c28867eed53543de91680509"}, {"is_disabled": 0, "is_reserved": 0, "fusion_lat": 0.0, "lat": 38.93088866666667, "fusion_lon": 0.0, "rental_uris": {"ios": "https://dc.lft.to/lastmile_qr_scan", "android": "https://dc.lft.to/lastmile_qr_scan"}, "lon": -77.02793516666667, "bike_id": "39c3c29299b9aaa681c034216f6ff2d7", "type": "electric_scooter", "name": "39c3c29299b9aaa681c034216f6ff2d7"}, {"is_disabled": 0, "is_reserved": 0, "fusion_lat": 0.0, "lat": 38.90260266666667, "fusion_lon": 0.0, "rental_uris": {"ios": "https://dc.lft.to/lastmile_qr_scan", "android": "https://dc.lft.to/lastmile_qr_scan"}, "lon": -77.02167516666667, "bike_id": "785ebfadca92adbf9ff40ac45e0467c4", "type": "electric_scooter", "name": "785ebfadca92adbf9ff40ac45e0467c4"}, {"is_disabled": 0, "is_reserved": 0, "fusion_lat": 0.0, "lat": 38.922441166666665, "fusion_lon": 0.0, "rental_uris": {"ios": "https://dc.lft.to/lastmile_qr_scan", "android": "https://dc.lft.to/lastmile_qr_scan"}, "lon": -77.01950533333333, "bike_id": "00dd5ed09f63e42bab56ae341e9c78d4", "type": "electric_scooter", "name": "00dd5ed09f63e42bab56ae341e9c78d4"}, {"is_disabled": 0, "is_reserved": 0, "fusion_lat": 0.0, "lat": 38.95592033333333, "fusion_lon": 0.0, "rental_uris": {"ios": "https://dc.lft.to/lastmile_qr_scan", "android": "https://dc.lft.to/lastmile_qr_scan"}, "lon": -77.02803933333334, "bike_id": "67ab0bb1087757455eb9d37d07ef5b6e", "type": "electric_scooter", "name": "67ab0bb1087757455eb9d37d07ef5b6e"}, {"is_disabled": 0, "is_reserved": 0, "fusion_lat": 0.0, "lat": 38.905461333333335, "fusion_lon": 0.0, "rental_uris": {"ios": "https://dc.lft.to/lastmile_qr_scan", "android": "https://dc.lft.to/lastmile_qr_scan"}, "lon": -77.0627225, "bike_id": "d661defd836def21ee658ce0be6703c8", "type": "electric_scooter", "name": "d661defd836def21ee658ce0be6703c8"}, {"is_disabled": 0, "is_reserved": 0, "fusion_lat": 0.0, "lat": 38.90963716666667, "fusion_lon": 0.0, "rental_uris": {"ios": "https://dc.lft.to/lastmile_qr_scan", "android": "https://dc.lft.to/lastmile_qr_scan"}, "lon": -77.0144155, "bike_id": "41a3dd31dda3defb47e507e8b5b370d8", "type": "electric_scooter", "name": "41a3dd31dda3defb47e507e8b5b370d8"}, {"is_disabled": 0, "is_reserved": 0, "fusion_lat": 0.0, "lat": 38.91824616666667, "fusion_lon": 0.0, "rental_uris": {"ios": "https://dc.lft.to/lastmile_qr_scan", "android": "https://dc.lft.to/lastmile_qr_scan"}, "lon": -77.02420933333333, "bike_id": "73df90e507ee13cfe49fdbe7c747c7b9", "type": "electric_scooter", "name": "73df90e507ee13cfe49fdbe7c747c7b9"}, {"is_disabled": 0, "is_reserved": 0, "fusion_lat": 0.0, "lat": 38.902575, "fusion_lon": 0.0, "rental_uris": {"ios": "https://dc.lft.to/lastmile_qr_scan", "android": "https://dc.lft.to/lastmile_qr_scan"}, "lon": -77.05197083333333, "bike_id": "6640c2d50906869e0e4d48044b59c496", "type": "electric_scooter", "name": "6640c2d50906869e0e4d48044b59c496"}, {"is_disabled": 0, "is_reserved": 0, "fusion_lat": 0.0, "lat": 38.894152166666665, "fusion_lon": 0.0, "rental_uris": {"ios": "https://dc.lft.to/lastmile_qr_scan", "android": "https://dc.lft.to/lastmile_qr_scan"}, "lon": -77.033782, "bike_id": "eebffdcd488552868a9588f39e95c00a", "type": "electric_scooter", "name": "eebffdcd488552868a9588f39e95c00a"}, {"is_disabled": 0, "is_reserved": 0, "fusion_lat": 0.0, "lat": 38.94498266666667, "fusion_lon": 0.0, "rental_uris": {"ios": "https://dc.lft.to/lastmile_qr_scan", "android": "https://dc.lft.to/lastmile_qr_scan"}, "lon": -77.03431616666667, "bike_id": "a08cc8b606563fc84ddec3d48478f9b8", "type": "electric_scooter", "name": "a08cc8b606563fc84ddec3d48478f9b8"}, {"is_disabled": 0, "is_reserved": 0, "fusion_lat": 0.0, "lat": 38.90250366666667, "fusion_lon": 0.0, "rental_uris": {"ios": "https://dc.lft.to/lastmile_qr_scan", "android": "https://dc.lft.to/lastmile_qr_scan"}, "lon": -76.977016, "bike_id": "5ec3e614e41da2cea41899e654e39119", "type": "electric_scooter", "name": "5ec3e614e41da2cea41899e654e39119"}, {"is_disabled": 0, "is_reserved": 0, "fusion_lat": 0.0, "lat": 38.90947416666667, "fusion_lon": 0.0, "rental_uris": {"ios": "https://dc.lft.to/lastmile_qr_scan", "android": "https://dc.lft.to/lastmile_qr_scan"}, "lon": -77.03185166666667, "bike_id": "df5fb44f96b46fbcf0be1ebc0c9f74fa", "type": "electric_scooter", "name": "df5fb44f96b46fbcf0be1ebc0c9f74fa"}, {"is_disabled": 0, "is_reserved": 0, "fusion_lat": 0.0, "lat": 38.91852383333333, "fusion_lon": 0.0, "rental_uris": {"ios": "https://dc.lft.to/lastmile_qr_scan", "android": "https://dc.lft.to/lastmile_qr_scan"}, "lon": -76.96088666666667, "bike_id": "f21901f2452fbe42178603d68dd2fdc2", "type": "electric_scooter", "name": "f21901f2452fbe42178603d68dd2fdc2"}, {"is_disabled": 0, "is_reserved": 0, "fusion_lat": 0.0, "lat": 38.909598833333334, "fusion_lon": 0.0, "rental_uris": {"ios": "https://dc.lft.to/lastmile_qr_scan", "android": "https://dc.lft.to/lastmile_qr_scan"}, "lon": -77.048374, "bike_id": "b21b4b844ad066abfcb7b22591c1b006", "type": "electric_scooter", "name": "b21b4b844ad066abfcb7b22591c1b006"}, {"is_disabled": 0, "is_reserved": 0, "fusion_lat": 0.0, "lat": 38.8900645, "fusion_lon": 0.0, "rental_uris": {"ios": "https://dc.lft.to/lastmile_qr_scan", "android": "https://dc.lft.to/lastmile_qr_scan"}, "lon": -76.937424, "bike_id": "904c8563b6eef79520f0348e018af54d", "type": "electric_scooter", "name": "904c8563b6eef79520f0348e018af54d"}, {"is_disabled": 0, "is_reserved": 0, "fusion_lat": 0.0, "lat": 38.8841915, "fusion_lon": 0.0, "rental_uris": {"ios": "https://dc.lft.to/lastmile_qr_scan", "android": "https://dc.lft.to/lastmile_qr_scan"}, "lon": -76.9835585, "bike_id": "86b79b363f085519fc7bbb6d8c0591ad", "type": "electric_scooter", "name": "86b79b363f085519fc7bbb6d8c0591ad"}, {"is_disabled": 0, "is_reserved": 0, "fusion_lat": 0.0, "lat": 38.89235883333333, "fusion_lon": 0.0, "rental_uris": {"ios": "https://dc.lft.to/lastmile_qr_scan", "android": "https://dc.lft.to/lastmile_qr_scan"}, "lon": -77.043611, "bike_id": "e26dd9072fe71500f849ae8b93c11f97", "type": "electric_scooter", "name": "e26dd9072fe71500f849ae8b93c11f97"}, {"is_disabled": 0, "is_reserved": 0, "fusion_lat": 0.0, "lat": 38.9102505, "fusion_lon": 0.0, "rental_uris": {"ios": "https://dc.lft.to/lastmile_qr_scan", "android": "https://dc.lft.to/lastmile_qr_scan"}, "lon": -77.0487105, "bike_id": "a69beed31119b5dc03b4cfd403e89f99", "type": "electric_scooter", "name": "a69beed31119b5dc03b4cfd403e89f99"}, {"is_disabled": 0, "is_reserved": 0, "fusion_lat": 0.0, "lat": 38.89037233333333, "fusion_lon": 0.0, "rental_uris": {"ios": "https://dc.lft.to/lastmile_qr_scan", "android": "https://dc.lft.to/lastmile_qr_scan"}, "lon": -76.9375165, "bike_id": "a7b79f4af5396dcf66b7bccff60c63fb", "type": "electric_scooter", "name": "a7b79f4af5396dcf66b7bccff60c63fb"}, {"is_disabled": 0, "is_reserved": 0, "fusion_lat": 0.0, "lat": 38.92440583333333, "fusion_lon": 0.0, "rental_uris": {"ios": "https://dc.lft.to/lastmile_qr_scan", "android": "https://dc.lft.to/lastmile_qr_scan"}, "lon": -77.02019616666666, "bike_id": "c867ce68dc6818a20debd76fa5693d2b", "type": "electric_scooter", "name": "c867ce68dc6818a20debd76fa5693d2b"}, {"is_disabled": 0, "is_reserved": 0, "fusion_lat": 0.0, "lat": 38.896398, "fusion_lon": 0.0, "rental_uris": {"ios": "https://dc.lft.to/lastmile_qr_scan", "android": "https://dc.lft.to/lastmile_qr_scan"}, "lon": -77.00752033333333, "bike_id": "c72c4fb65a28b74f40fe03d763570d6f", "type": "electric_scooter", "name": "c72c4fb65a28b74f40fe03d763570d6f"}, {"is_disabled": 0, "is_reserved": 0, "fusion_lat": 0.0, "lat": 38.97831933333333, "fusion_lon": 0.0, "rental_uris": {"ios": "https://dc.lft.to/lastmile_qr_scan", "android": "https://dc.lft.to/lastmile_qr_scan"}, "lon": -76.9289105, "bike_id": "9867ee8d289b46a4b0f5077b6b7397c7", "type": "electric_bike", "name": "9867ee8d289b46a4b0f5077b6b7397c7"}, {"is_disabled": 0, "is_reserved": 0, "fusion_lat": 0.0, "lat": 38.87647666666667, "fusion_lon": 0.0, "rental_uris": {"ios": "https://dc.lft.to/lastmile_qr_scan", "android": "https://dc.lft.to/lastmile_qr_scan"}, "lon": -77.00748283333333, "bike_id": "665f3aeaa40f80c3ccb4f5dc90e51975", "type": "electric_scooter", "name": "665f3aeaa40f80c3ccb4f5dc90e51975"}, {"is_disabled": 0, "is_reserved": 0, "fusion_lat": 0.0, "lat": 38.9179345, "fusion_lon": 0.0, "rental_uris": {"ios": "https://dc.lft.to/lastmile_qr_scan", "android": "https://dc.lft.to/lastmile_qr_scan"}, "lon": -77.0235375, "bike_id": "9e352225d7f2c716be0903cd8f423c74", "type": "electric_scooter", "name": "9e352225d7f2c716be0903cd8f423c74"}, {"is_disabled": 0, "is_reserved": 0, "fusion_lat": 0.0, "lat": 38.902039, "fusion_lon": 0.0, "rental_uris": {"ios": "https://dc.lft.to/lastmile_qr_scan", "android": "https://dc.lft.to/lastmile_qr_scan"}, "lon": -77.020779, "bike_id": "9cbb2d4d565e4a8e07b557d9cf8b7b4b", "type": "electric_bike", "name": "9cbb2d4d565e4a8e07b557d9cf8b7b4b"}, {"is_disabled": 0, "is_reserved": 0, "fusion_lat": 0.0, "lat": 38.906912166666665, "fusion_lon": 0.0, "rental_uris": {"ios": "https://dc.lft.to/lastmile_qr_scan", "android": "https://dc.lft.to/lastmile_qr_scan"}, "lon": -77.06330616666666, "bike_id": "3acdfa1cec1839a64fff58fd6522a16b", "type": "electric_scooter", "name": "3acdfa1cec1839a64fff58fd6522a16b"}, {"is_disabled": 0, "is_reserved": 0, "fusion_lat": 0.0, "lat": 38.842266333333335, "fusion_lon": 0.0, "rental_uris": {"ios": "https://dc.lft.to/lastmile_qr_scan", "android": "https://dc.lft.to/lastmile_qr_scan"}, "lon": -76.94891033333333, "bike_id": "28a1e8eccc3c34bea5bd062993593eb0", "type": "electric_bike", "name": "28a1e8eccc3c34bea5bd062993593eb0"}, {"is_disabled": 0, "is_reserved": 0, "fusion_lat": 0.0, "lat": 38.87895016666667, "fusion_lon": 0.0, "rental_uris": {"ios": "https://dc.lft.to/lastmile_qr_scan", "android": "https://dc.lft.to/lastmile_qr_scan"}, "lon": -77.00558683333334, "bike_id": "61c7d675f0789e7be6ffdd53fc97a45e", "type": "electric_scooter", "name": "61c7d675f0789e7be6ffdd53fc97a45e"}, {"is_disabled": 0, "is_reserved": 0, "fusion_lat": 0.0, "lat": 38.8877415, "fusion_lon": 0.0, "rental_uris": {"ios": "https://dc.lft.to/lastmile_qr_scan", "android": "https://dc.lft.to/lastmile_qr_scan"}, "lon": -76.93261133333333, "bike_id": "d9f99d0cee162ac582fa2a983fafe611", "type": "electric_scooter", "name": "d9f99d0cee162ac582fa2a983fafe611"}, {"is_disabled": 0, "is_reserved": 0, "fusion_lat": 0.0, "lat": 38.89470983333333, "fusion_lon": 0.0, "rental_uris": {"ios": "https://dc.lft.to/lastmile_qr_scan", "android": "https://dc.lft.to/lastmile_qr_scan"}, "lon": -77.04188383333333, "bike_id": "21963cf5518b0e96cd4f6dcdb4c2b0cf", "type": "electric_scooter", "name": "21963cf5518b0e96cd4f6dcdb4c2b0cf"}, {"is_disabled": 0, "is_reserved": 0, "fusion_lat": 0.0, "lat": 38.983687, "fusion_lon": 0.0, "rental_uris": {"ios": "https://dc.lft.to/lastmile_qr_scan", "android": "https://dc.lft.to/lastmile_qr_scan"}, "lon": -76.98842233333333, "bike_id": "9c3953e851a1dad6896dffa1868972b7", "type": "electric_bike", "name": "9c3953e851a1dad6896dffa1868972b7"}, {"is_disabled": 0, "is_reserved": 0, "fusion_lat": 0.0, "lat": 38.923315333333335, "fusion_lon": 0.0, "rental_uris": {"ios": "https://dc.lft.to/lastmile_qr_scan", "android": "https://dc.lft.to/lastmile_qr_scan"}, "lon": -77.0568065, "bike_id": "2d26947d325d7a929208cb1614804ab5", "type": "electric_scooter", "name": "2d26947d325d7a929208cb1614804ab5"}, {"is_disabled": 0, "is_reserved": 0, "fusion_lat": 0.0, "lat": 38.897218, "fusion_lon": 0.0, "rental_uris": {"ios": "https://dc.lft.to/lastmile_qr_scan", "android": "https://dc.lft.to/lastmile_qr_scan"}, "lon": -77.03020483333333, "bike_id": "8a1515e078d3ee327efc8e602ffb77f6", "type": "electric_scooter", "name": "8a1515e078d3ee327efc8e602ffb77f6"}, {"is_disabled": 0, "is_reserved": 0, "fusion_lat": 0.0, "lat": 38.842381, "fusion_lon": 0.0, "rental_uris": {"ios": "https://dc.lft.to/lastmile_qr_scan", "android": "https://dc.lft.to/lastmile_qr_scan"}, "lon": -77.0016405, "bike_id": "cedd8ae03eef742810ad86bdda129d9a", "type": "electric_scooter", "name": "cedd8ae03eef742810ad86bdda129d9a"}, {"is_disabled": 0, "is_reserved": 0, "fusion_lat": 0.0, "lat": 38.855580833333335, "fusion_lon": 0.0, "rental_uris": {"ios": "https://dc.lft.to/lastmile_qr_scan", "android": "https://dc.lft.to/lastmile_qr_scan"}, "lon": -77.0640225, "bike_id": "b6c0d2308640250077f9ffa081509439", "type": "electric_bike", "name": "b6c0d2308640250077f9ffa081509439"}, {"is_disabled": 0, "is_reserved": 0, "fusion_lat": 0.0, "lat": 38.957556, "fusion_lon": 0.0, "rental_uris": {"ios": "https://dc.lft.to/lastmile_qr_scan", "android": "https://dc.lft.to/lastmile_qr_scan"}, "lon": -77.02059483333333, "bike_id": "b04aac367a1c1897b84d0ef93c52a3c3", "type": "electric_scooter", "name": "b04aac367a1c1897b84d0ef93c52a3c3"}, {"is_disabled": 0, "is_reserved": 0, "fusion_lat": 0.0, "lat": 38.913546333333336, "fusion_lon": 0.0, "rental_uris": {"ios": "https://dc.lft.to/lastmile_qr_scan", "android": "https://dc.lft.to/lastmile_qr_scan"}, "lon": -77.0205545, "bike_id": "b6da4dee76171d71418b27ac14bd984f", "type": "electric_scooter", "name": "b6da4dee76171d71418b27ac14bd984f"}, {"is_disabled": 0, "is_reserved": 0, "fusion_lat": 0.0, "lat": 38.92154766666667, "fusion_lon": 0.0, "rental_uris": {"ios": "https://dc.lft.to/lastmile_qr_scan", "android": "https://dc.lft.to/lastmile_qr_scan"}, "lon": -77.03671033333333, "bike_id": "ba5a8500769c233c4cd59620fd6c50cc", "type": "electric_scooter", "name": "ba5a8500769c233c4cd59620fd6c50cc"}, {"is_disabled": 0, "is_reserved": 0, "fusion_lat": 0.0, "lat": 38.887185833333334, "fusion_lon": 0.0, "rental_uris": {"ios": "https://dc.lft.to/lastmile_qr_scan", "android": "https://dc.lft.to/lastmile_qr_scan"}, "lon": -76.99626266666667, "bike_id": "62fb9c0da6a9e1a86a856891157f6602", "type": "electric_scooter", "name": "62fb9c0da6a9e1a86a856891157f6602"}, {"is_disabled": 0, "is_reserved": 0, "fusion_lat": 0.0, "lat": 38.915472, "fusion_lon": 0.0, "rental_uris": {"ios": "https://dc.lft.to/lastmile_qr_scan", "android": "https://dc.lft.to/lastmile_qr_scan"}, "lon": -77.026987, "bike_id": "8e0530f2f18a1e647886d43344621f14", "type": "electric_scooter", "name": "8e0530f2f18a1e647886d43344621f14"}, {"is_disabled": 0, "is_reserved": 0, "fusion_lat": 0.0, "lat": 38.8706575, "fusion_lon": 0.0, "rental_uris": {"ios": "https://dc.lft.to/lastmile_qr_scan", "android": "https://dc.lft.to/lastmile_qr_scan"}, "lon": -77.11042016666667, "bike_id": "f16fe4c94a80ae5715390d84edbbcb56", "type": "electric_bike", "name": "f16fe4c94a80ae5715390d84edbbcb56"}, {"is_disabled": 0, "is_reserved": 0, "fusion_lat": 0.0, "lat": 38.9238385, "fusion_lon": 0.0, "rental_uris": {"ios": "https://dc.lft.to/lastmile_qr_scan", "android": "https://dc.lft.to/lastmile_qr_scan"}, "lon": -77.04303383333334, "bike_id": "2e9853eca41f09758f7ed8d2aba98ca4", "type": "electric_scooter", "name": "2e9853eca41f09758f7ed8d2aba98ca4"}, {"is_disabled": 0, "is_reserved": 0, "fusion_lat": 0.0, "lat": 38.92336566666667, "fusion_lon": 0.0, "rental_uris": {"ios": "https://dc.lft.to/lastmile_qr_scan", "android": "https://dc.lft.to/lastmile_qr_scan"}, "lon": -77.05617833333334, "bike_id": "92bc9b2cd1a9a734a2665b4ff13bb871", "type": "electric_scooter", "name": "92bc9b2cd1a9a734a2665b4ff13bb871"}, {"is_disabled": 0, "is_reserved": 0, "fusion_lat": 0.0, "lat": 38.87915116666667, "fusion_lon": 0.0, "rental_uris": {"ios": "https://dc.lft.to/lastmile_qr_scan", "android": "https://dc.lft.to/lastmile_qr_scan"}, "lon": -77.00863316666667, "bike_id": "cb139ef2ab715141aaca10acf7fab9f8", "type": "electric_scooter", "name": "cb139ef2ab715141aaca10acf7fab9f8"}, {"is_disabled": 0, "is_reserved": 0, "fusion_lat": 0.0, "lat": 38.86816733333333, "fusion_lon": 0.0, "rental_uris": {"ios": "https://dc.lft.to/lastmile_qr_scan", "android": "https://dc.lft.to/lastmile_qr_scan"}, "lon": -76.98021366666667, "bike_id": "03fd66e1c26e5c829137728f68efe62e", "type": "electric_bike", "name": "03fd66e1c26e5c829137728f68efe62e"}, {"is_disabled": 0, "is_reserved": 0, "fusion_lat": 0.0, "lat": 38.9206255, "fusion_lon": 0.0, "rental_uris": {"ios": "https://dc.lft.to/lastmile_qr_scan", "android": "https://dc.lft.to/lastmile_qr_scan"}, "lon": -77.0330095, "bike_id": "39fc4ba9dab8092e79566e6fb852a85c", "type": "electric_scooter", "name": "39fc4ba9dab8092e79566e6fb852a85c"}, {"is_disabled": 0, "is_reserved": 0, "fusion_lat": 0.0, "lat": 38.939175, "fusion_lon": 0.0, "rental_uris": {"ios": "https://dc.lft.to/lastmile_qr_scan", "android": "https://dc.lft.to/lastmile_qr_scan"}, "lon": -77.03266333333333, "bike_id": "8d555706b3a9e13b01f07ed741c24c12", "type": "electric_scooter", "name": "8d555706b3a9e13b01f07ed741c24c12"}, {"is_disabled": 0, "is_reserved": 0, "fusion_lat": 0.0, "lat": 38.915549666666664, "fusion_lon": 0.0, "rental_uris": {"ios": "https://dc.lft.to/lastmile_qr_scan", "android": "https://dc.lft.to/lastmile_qr_scan"}, "lon": -77.00755016666666, "bike_id": "dd52d772f29919d28b025afd14885620", "type": "electric_scooter", "name": "dd52d772f29919d28b025afd14885620"}, {"is_disabled": 0, "is_reserved": 0, "fusion_lat": 0.0, "lat": 38.902465666666664, "fusion_lon": 0.0, "rental_uris": {"ios": "https://dc.lft.to/lastmile_qr_scan", "android": "https://dc.lft.to/lastmile_qr_scan"}, "lon": -77.03475216666666, "bike_id": "db2933db6d14c17d0b6858c94e8a20f7", "type": "electric_scooter", "name": "db2933db6d14c17d0b6858c94e8a20f7"}, {"is_disabled": 0, "is_reserved": 0, "fusion_lat": 0.0, "lat": 38.9524265, "fusion_lon": 0.0, "rental_uris": {"ios": "https://dc.lft.to/lastmile_qr_scan", "android": "https://dc.lft.to/lastmile_qr_scan"}, "lon": -76.98245283333333, "bike_id": "b79b6588acf80e582bbc9b962a0e97f7", "type": "electric_bike", "name": "b79b6588acf80e582bbc9b962a0e97f7"}, {"is_disabled": 0, "is_reserved": 0, "fusion_lat": 0.0, "lat": 38.885598, "fusion_lon": 0.0, "rental_uris": {"ios": "https://dc.lft.to/lastmile_qr_scan", "android": "https://dc.lft.to/lastmile_qr_scan"}, "lon": -77.0117935, "bike_id": "c84d8f6e08af79af353701e0b5409891", "type": "electric_scooter", "name": "c84d8f6e08af79af353701e0b5409891"}, {"is_disabled": 0, "is_reserved": 0, "fusion_lat": 0.0, "lat": 38.925018, "fusion_lon": 0.0, "rental_uris": {"ios": "https://dc.lft.to/lastmile_qr_scan", "android": "https://dc.lft.to/lastmile_qr_scan"}, "lon": -77.02439966666667, "bike_id": "4fbe609bdf14861a9fc929b3d3e1259a", "type": "electric_scooter", "name": "4fbe609bdf14861a9fc929b3d3e1259a"}, {"is_disabled": 0, "is_reserved": 0, "fusion_lat": 0.0, "lat": 38.87138216666666, "fusion_lon": 0.0, "rental_uris": {"ios": "https://dc.lft.to/lastmile_qr_scan", "android": "https://dc.lft.to/lastmile_qr_scan"}, "lon": -77.00772066666667, "bike_id": "6962cb73acb969f07b624ffdddeda230", "type": "electric_bike", "name": "6962cb73acb969f07b624ffdddeda230"}, {"is_disabled": 0, "is_reserved": 0, "fusion_lat": 0.0, "lat": 38.921361833333336, "fusion_lon": 0.0, "rental_uris": {"ios": "https://dc.lft.to/lastmile_qr_scan", "android": "https://dc.lft.to/lastmile_qr_scan"}, "lon": -76.99355616666666, "bike_id": "9a41ff242b345c2d78f2adff1b49d99e", "type": "electric_scooter", "name": "9a41ff242b345c2d78f2adff1b49d99e"}, {"is_disabled": 0, "is_reserved": 0, "fusion_lat": 0.0, "lat": 38.930598833333335, "fusion_lon": 0.0, "rental_uris": {"ios": "https://dc.lft.to/lastmile_qr_scan", "android": "https://dc.lft.to/lastmile_qr_scan"}, "lon": -77.03938233333334, "bike_id": "0f166b005226e26496ea352bad2a4052", "type": "electric_scooter", "name": "0f166b005226e26496ea352bad2a4052"}, {"is_disabled": 0, "is_reserved": 0, "fusion_lat": 0.0, "lat": 38.900666, "fusion_lon": 0.0, "rental_uris": {"ios": "https://dc.lft.to/lastmile_qr_scan", "android": "https://dc.lft.to/lastmile_qr_scan"}, "lon": -76.94982066666667, "bike_id": "47b8f26d6f428f8bd24372064b0badae", "type": "electric_scooter", "name": "47b8f26d6f428f8bd24372064b0badae"}, {"is_disabled": 0, "is_reserved": 0, "fusion_lat": 0.0, "lat": 38.92175366666667, "fusion_lon": 0.0, "rental_uris": {"ios": "https://dc.lft.to/lastmile_qr_scan", "android": "https://dc.lft.to/lastmile_qr_scan"}, "lon": -77.04339666666667, "bike_id": "7d711f8f15e3f3dba1bb397122065fe0", "type": "electric_scooter", "name": "7d711f8f15e3f3dba1bb397122065fe0"}, {"is_disabled": 0, "is_reserved": 0, "fusion_lat": 0.0, "lat": 38.926156166666665, "fusion_lon": 0.0, "rental_uris": {"ios": "https://dc.lft.to/lastmile_qr_scan", "android": "https://dc.lft.to/lastmile_qr_scan"}, "lon": -77.00654983333334, "bike_id": "d407a0e39bba7fe8d2ee420c429a2e34", "type": "electric_scooter", "name": "d407a0e39bba7fe8d2ee420c429a2e34"}, {"is_disabled": 0, "is_reserved": 0, "fusion_lat": 0.0, "lat": 38.9051645, "fusion_lon": 0.0, "rental_uris": {"ios": "https://dc.lft.to/lastmile_qr_scan", "android": "https://dc.lft.to/lastmile_qr_scan"}, "lon": -77.02689633333334, "bike_id": "f4afdec5131ac022138fb1f5538f3813", "type": "electric_scooter", "name": "f4afdec5131ac022138fb1f5538f3813"}, {"is_disabled": 0, "is_reserved": 0, "fusion_lat": 0.0, "lat": 38.936187, "fusion_lon": 0.0, "rental_uris": {"ios": "https://dc.lft.to/lastmile_qr_scan", "android": "https://dc.lft.to/lastmile_qr_scan"}, "lon": -77.0558735, "bike_id": "2fa575a732da067fe2d2779ef490dcf5", "type": "electric_scooter", "name": "2fa575a732da067fe2d2779ef490dcf5"}, {"is_disabled": 0, "is_reserved": 0, "fusion_lat": 0.0, "lat": 38.92782783333333, "fusion_lon": 0.0, "rental_uris": {"ios": "https://dc.lft.to/lastmile_qr_scan", "android": "https://dc.lft.to/lastmile_qr_scan"}, "lon": -77.05257566666667, "bike_id": "cca645f3dea52904fc85f0f2ac39280d", "type": "electric_scooter", "name": "cca645f3dea52904fc85f0f2ac39280d"}, {"is_disabled": 0, "is_reserved": 0, "fusion_lat": 0.0, "lat": 38.99543516666667, "fusion_lon": 0.0, "rental_uris": {"ios": "https://dc.lft.to/lastmile_qr_scan", "android": "https://dc.lft.to/lastmile_qr_scan"}, "lon": -77.07466116666667, "bike_id": "5fba9bc0656a04f1b1f4fc2cec232a1a", "type": "electric_bike", "name": "5fba9bc0656a04f1b1f4fc2cec232a1a"}, {"is_disabled": 0, "is_reserved": 0, "fusion_lat": 0.0, "lat": 38.98209116666666, "fusion_lon": 0.0, "rental_uris": {"ios": "https://dc.lft.to/lastmile_qr_scan", "android": "https://dc.lft.to/lastmile_qr_scan"}, "lon": -76.97813883333333, "bike_id": "9979f65a6219e6158b622c4358f2779f", "type": "electric_bike", "name": "9979f65a6219e6158b622c4358f2779f"}, {"is_disabled": 0, "is_reserved": 0, "fusion_lat": 0.0, "lat": 38.921434166666664, "fusion_lon": 0.0, "rental_uris": {"ios": "https://dc.lft.to/lastmile_qr_scan", "android": "https://dc.lft.to/lastmile_qr_scan"}, "lon": -77.03663, "bike_id": "19840b3045f459305ee1fa13e5626fdb", "type": "electric_scooter", "name": "19840b3045f459305ee1fa13e5626fdb"}, {"is_disabled": 0, "is_reserved": 0, "fusion_lat": 0.0, "lat": 38.893672333333335, "fusion_lon": 0.0, "rental_uris": {"ios": "https://dc.lft.to/lastmile_qr_scan", "android": "https://dc.lft.to/lastmile_qr_scan"}, "lon": -77.0429675, "bike_id": "4c76945ac5179f7b4185cacc62efc6b2", "type": "electric_scooter", "name": "4c76945ac5179f7b4185cacc62efc6b2"}, {"is_disabled": 0, "is_reserved": 0, "fusion_lat": 0.0, "lat": 38.95111466666667, "fusion_lon": 0.0, "rental_uris": {"ios": "https://dc.lft.to/lastmile_qr_scan", "android": "https://dc.lft.to/lastmile_qr_scan"}, "lon": -77.01889266666667, "bike_id": "a7e5186ff66c7d7d895f6372cb540e0b", "type": "electric_scooter", "name": "a7e5186ff66c7d7d895f6372cb540e0b"}, {"is_disabled": 0, "is_reserved": 0, "fusion_lat": 0.0, "lat": 38.892211333333336, "fusion_lon": 0.0, "rental_uris": {"ios": "https://dc.lft.to/lastmile_qr_scan", "android": "https://dc.lft.to/lastmile_qr_scan"}, "lon": -77.03192783333333, "bike_id": "e5f1ca0148371f27b8ba9c4f5ef269b0", "type": "electric_scooter", "name": "e5f1ca0148371f27b8ba9c4f5ef269b0"}, {"is_disabled": 0, "is_reserved": 0, "fusion_lat": 0.0, "lat": 38.9165515, "fusion_lon": 0.0, "rental_uris": {"ios": "https://dc.lft.to/lastmile_qr_scan", "android": "https://dc.lft.to/lastmile_qr_scan"}, "lon": -77.04655616666666, "bike_id": "fd419984797c87eaf7bf8223fa053ca1", "type": "electric_scooter", "name": "fd419984797c87eaf7bf8223fa053ca1"}, {"is_disabled": 0, "is_reserved": 0, "fusion_lat": 0.0, "lat": 38.911773333333336, "fusion_lon": 0.0, "rental_uris": {"ios": "https://dc.lft.to/lastmile_qr_scan", "android": "https://dc.lft.to/lastmile_qr_scan"}, "lon": -77.0120845, "bike_id": "43c9cdcf83acc2c85b80e2df6d242d4a", "type": "electric_scooter", "name": "43c9cdcf83acc2c85b80e2df6d242d4a"}, {"is_disabled": 0, "is_reserved": 0, "fusion_lat": 0.0, "lat": 38.91810783333333, "fusion_lon": 0.0, "rental_uris": {"ios": "https://dc.lft.to/lastmile_qr_scan", "android": "https://dc.lft.to/lastmile_qr_scan"}, "lon": -77.000029, "bike_id": "8d5ce3986cf249a3271cd4a54ecbf390", "type": "electric_scooter", "name": "8d5ce3986cf249a3271cd4a54ecbf390"}, {"is_disabled": 0, "is_reserved": 0, "fusion_lat": 0.0, "lat": 38.89934133333333, "fusion_lon": 0.0, "rental_uris": {"ios": "https://dc.lft.to/lastmile_qr_scan", "android": "https://dc.lft.to/lastmile_qr_scan"}, "lon": -76.9377085, "bike_id": "80e9745360a6f23844f11edb24d25f02", "type": "electric_scooter", "name": "80e9745360a6f23844f11edb24d25f02"}, {"is_disabled": 0, "is_reserved": 0, "fusion_lat": 0.0, "lat": 38.8766205, "fusion_lon": 0.0, "rental_uris": {"ios": "https://dc.lft.to/lastmile_qr_scan", "android": "https://dc.lft.to/lastmile_qr_scan"}, "lon": -77.00570083333334, "bike_id": "4209c8d6b12c1b30d810c33a8363ef34", "type": "electric_scooter", "name": "4209c8d6b12c1b30d810c33a8363ef34"}, {"is_disabled": 0, "is_reserved": 0, "fusion_lat": 0.0, "lat": 38.9020085, "fusion_lon": 0.0, "rental_uris": {"ios": "https://dc.lft.to/lastmile_qr_scan", "android": "https://dc.lft.to/lastmile_qr_scan"}, "lon": -77.05019383333334, "bike_id": "29f5169938791bd4bc1f590d581aad1c", "type": "electric_scooter", "name": "29f5169938791bd4bc1f590d581aad1c"}, {"is_disabled": 0, "is_reserved": 0, "fusion_lat": 0.0, "lat": 38.8897255, "fusion_lon": 0.0, "rental_uris": {"ios": "https://dc.lft.to/lastmile_qr_scan", "android": "https://dc.lft.to/lastmile_qr_scan"}, "lon": -76.98176166666667, "bike_id": "762e00c7273a1cc644e2a67351bb66e7", "type": "electric_scooter", "name": "762e00c7273a1cc644e2a67351bb66e7"}, {"is_disabled": 0, "is_reserved": 0, "fusion_lat": 0.0, "lat": 38.91679383333334, "fusion_lon": 0.0, "rental_uris": {"ios": "https://dc.lft.to/lastmile_qr_scan", "android": "https://dc.lft.to/lastmile_qr_scan"}, "lon": -77.01447783333333, "bike_id": "f78c6fe5affec0f0f0f29eaa0f2b3a14", "type": "electric_scooter", "name": "f78c6fe5affec0f0f0f29eaa0f2b3a14"}, {"is_disabled": 0, "is_reserved": 0, "fusion_lat": 0.0, "lat": 38.9049195, "fusion_lon": 0.0, "rental_uris": {"ios": "https://dc.lft.to/lastmile_qr_scan", "android": "https://dc.lft.to/lastmile_qr_scan"}, "lon": -77.0296235, "bike_id": "6c1d2e86527786d220473e5ce0e36bf5", "type": "electric_scooter", "name": "6c1d2e86527786d220473e5ce0e36bf5"}, {"is_disabled": 0, "is_reserved": 0, "fusion_lat": 0.0, "lat": 38.922165166666666, "fusion_lon": 0.0, "rental_uris": {"ios": "https://dc.lft.to/lastmile_qr_scan", "android": "https://dc.lft.to/lastmile_qr_scan"}, "lon": -77.04250416666666, "bike_id": "b48130a0106bc8d8023a75d50f414bcc", "type": "electric_scooter", "name": "b48130a0106bc8d8023a75d50f414bcc"}, {"is_disabled": 0, "is_reserved": 0, "fusion_lat": 0.0, "lat": 38.903796, "fusion_lon": 0.0, "rental_uris": {"ios": "https://dc.lft.to/lastmile_qr_scan", "android": "https://dc.lft.to/lastmile_qr_scan"}, "lon": -77.04825066666666, "bike_id": "df6818a9b6b1da2b36f03a1935b7a7a0", "type": "electric_scooter", "name": "df6818a9b6b1da2b36f03a1935b7a7a0"}, {"is_disabled": 0, "is_reserved": 0, "fusion_lat": 0.0, "lat": 38.91609716666667, "fusion_lon": 0.0, "rental_uris": {"ios": "https://dc.lft.to/lastmile_qr_scan", "android": "https://dc.lft.to/lastmile_qr_scan"}, "lon": -77.02126083333333, "bike_id": "ffd11ec071f9cf8a81a8d4999a5fc8eb", "type": "electric_scooter", "name": "ffd11ec071f9cf8a81a8d4999a5fc8eb"}, {"is_disabled": 0, "is_reserved": 0, "fusion_lat": 0.0, "lat": 38.92021533333333, "fusion_lon": 0.0, "rental_uris": {"ios": "https://dc.lft.to/lastmile_qr_scan", "android": "https://dc.lft.to/lastmile_qr_scan"}, "lon": -77.031132, "bike_id": "e5e644d08e756be8a118b9b8729c97b0", "type": "electric_scooter", "name": "e5e644d08e756be8a118b9b8729c97b0"}, {"is_disabled": 0, "is_reserved": 0, "fusion_lat": 0.0, "lat": 38.97445966666667, "fusion_lon": 0.0, "rental_uris": {"ios": "https://dc.lft.to/lastmile_qr_scan", "android": "https://dc.lft.to/lastmile_qr_scan"}, "lon": -77.09585083333333, "bike_id": "ef625b1aae3f8164535b9cccb9de5469", "type": "electric_bike", "name": "ef625b1aae3f8164535b9cccb9de5469"}, {"is_disabled": 0, "is_reserved": 0, "fusion_lat": 0.0, "lat": 38.89741183333334, "fusion_lon": 0.0, "rental_uris": {"ios": "https://dc.lft.to/lastmile_qr_scan", "android": "https://dc.lft.to/lastmile_qr_scan"}, "lon": -77.00773983333333, "bike_id": "bf63b4320d7d1a0dbb18e50d0a9a2cbc", "type": "electric_scooter", "name": "bf63b4320d7d1a0dbb18e50d0a9a2cbc"}, {"is_disabled": 0, "is_reserved": 0, "fusion_lat": 0.0, "lat": 38.898485666666666, "fusion_lon": 0.0, "rental_uris": {"ios": "https://dc.lft.to/lastmile_qr_scan", "android": "https://dc.lft.to/lastmile_qr_scan"}, "lon": -77.00204283333333, "bike_id": "90cf8dd70404c83f678cb643a274dc21", "type": "electric_scooter", "name": "90cf8dd70404c83f678cb643a274dc21"}, {"is_disabled": 0, "is_reserved": 0, "fusion_lat": 0.0, "lat": 38.922969, "fusion_lon": 0.0, "rental_uris": {"ios": "https://dc.lft.to/lastmile_qr_scan", "android": "https://dc.lft.to/lastmile_qr_scan"}, "lon": -77.03412633333333, "bike_id": "c0c2f03823f3d0f864f01c1798b90d04", "type": "electric_scooter", "name": "c0c2f03823f3d0f864f01c1798b90d04"}, {"is_disabled": 0, "is_reserved": 0, "fusion_lat": 0.0, "lat": 38.876597833333335, "fusion_lon": 0.0, "rental_uris": {"ios": "https://dc.lft.to/lastmile_qr_scan", "android": "https://dc.lft.to/lastmile_qr_scan"}, "lon": -77.00882583333333, "bike_id": "21a677f8dd85707737b06a78e477530f", "type": "electric_scooter", "name": "21a677f8dd85707737b06a78e477530f"}, {"is_disabled": 0, "is_reserved": 0, "fusion_lat": 0.0, "lat": 38.892241, "fusion_lon": 0.0, "rental_uris": {"ios": "https://dc.lft.to/lastmile_qr_scan", "android": "https://dc.lft.to/lastmile_qr_scan"}, "lon": -77.03169383333334, "bike_id": "ec69c28ac19e8863094054aaccbdd37a", "type": "electric_scooter", "name": "ec69c28ac19e8863094054aaccbdd37a"}, {"is_disabled": 0, "is_reserved": 0, "fusion_lat": 0.0, "lat": 38.923613833333334, "fusion_lon": 0.0, "rental_uris": {"ios": "https://dc.lft.to/lastmile_qr_scan", "android": "https://dc.lft.to/lastmile_qr_scan"}, "lon": -77.0431495, "bike_id": "687b045fdb0db3f5e5f8b7a0fb7a5838", "type": "electric_scooter", "name": "687b045fdb0db3f5e5f8b7a0fb7a5838"}, {"is_disabled": 0, "is_reserved": 0, "fusion_lat": 0.0, "lat": 38.90379166666666, "fusion_lon": 0.0, "rental_uris": {"ios": "https://dc.lft.to/lastmile_qr_scan", "android": "https://dc.lft.to/lastmile_qr_scan"}, "lon": -77.00582666666666, "bike_id": "f19e1cbc0c9bbc37d70532a45141ccdc", "type": "electric_scooter", "name": "f19e1cbc0c9bbc37d70532a45141ccdc"}, {"is_disabled": 0, "is_reserved": 0, "fusion_lat": 0.0, "lat": 38.915214, "fusion_lon": 0.0, "rental_uris": {"ios": "https://dc.lft.to/lastmile_qr_scan", "android": "https://dc.lft.to/lastmile_qr_scan"}, "lon": -77.0259075, "bike_id": "05835e46c3bbc4fe9a2c6a59a318ccbc", "type": "electric_scooter", "name": "05835e46c3bbc4fe9a2c6a59a318ccbc"}, {"is_disabled": 0, "is_reserved": 0, "fusion_lat": 0.0, "lat": 38.82924116666667, "fusion_lon": 0.0, "rental_uris": {"ios": "https://dc.lft.to/lastmile_qr_scan", "android": "https://dc.lft.to/lastmile_qr_scan"}, "lon": -77.06873416666667, "bike_id": "6c560dda171d1cc9a4ebe7b78a873a18", "type": "electric_bike", "name": "6c560dda171d1cc9a4ebe7b78a873a18"}, {"is_disabled": 0, "is_reserved": 0, "fusion_lat": 0.0, "lat": 38.92759483333333, "fusion_lon": 0.0, "rental_uris": {"ios": "https://dc.lft.to/lastmile_qr_scan", "android": "https://dc.lft.to/lastmile_qr_scan"}, "lon": -77.029524, "bike_id": "0fc38d38ef02ed5a3e3c544734179d98", "type": "electric_scooter", "name": "0fc38d38ef02ed5a3e3c544734179d98"}, {"is_disabled": 0, "is_reserved": 0, "fusion_lat": 0.0, "lat": 38.92875083333333, "fusion_lon": 0.0, "rental_uris": {"ios": "https://dc.lft.to/lastmile_qr_scan", "android": "https://dc.lft.to/lastmile_qr_scan"}, "lon": -77.05649833333334, "bike_id": "117db511a0c50d84275af4fc389509a8", "type": "electric_scooter", "name": "117db511a0c50d84275af4fc389509a8"}, {"is_disabled": 0, "is_reserved": 0, "fusion_lat": 0.0, "lat": 38.880435166666665, "fusion_lon": 0.0, "rental_uris": {"ios": "https://dc.lft.to/lastmile_qr_scan", "android": "https://dc.lft.to/lastmile_qr_scan"}, "lon": -76.927195, "bike_id": "ee624fb0c10f8bb1a48a5f63c882787c", "type": "electric_scooter", "name": "ee624fb0c10f8bb1a48a5f63c882787c"}, {"is_disabled": 0, "is_reserved": 0, "fusion_lat": 0.0, "lat": 38.895217, "fusion_lon": 0.0, "rental_uris": {"ios": "https://dc.lft.to/lastmile_qr_scan", "android": "https://dc.lft.to/lastmile_qr_scan"}, "lon": -77.02201033333333, "bike_id": "3c3cc65bb0ed11ddba588781caf99d34", "type": "electric_scooter", "name": "3c3cc65bb0ed11ddba588781caf99d34"}, {"is_disabled": 0, "is_reserved": 0, "fusion_lat": 0.0, "lat": 38.899180333333334, "fusion_lon": 0.0, "rental_uris": {"ios": "https://dc.lft.to/lastmile_qr_scan", "android": "https://dc.lft.to/lastmile_qr_scan"}, "lon": -76.93376783333333, "bike_id": "c78d9d63e7f97967e2a5337856a0e490", "type": "electric_scooter", "name": "c78d9d63e7f97967e2a5337856a0e490"}, {"is_disabled": 0, "is_reserved": 0, "fusion_lat": 0.0, "lat": 38.90285566666667, "fusion_lon": 0.0, "rental_uris": {"ios": "https://dc.lft.to/lastmile_qr_scan", "android": "https://dc.lft.to/lastmile_qr_scan"}, "lon": -77.02380533333333, "bike_id": "1416a4ae4cf6f17b32cf181904049668", "type": "electric_scooter", "name": "1416a4ae4cf6f17b32cf181904049668"}, {"is_disabled": 0, "is_reserved": 0, "fusion_lat": 0.0, "lat": 38.922524333333335, "fusion_lon": 0.0, "rental_uris": {"ios": "https://dc.lft.to/lastmile_qr_scan", "android": "https://dc.lft.to/lastmile_qr_scan"}, "lon": -77.07282733333334, "bike_id": "33d17ba579f758bbac7c51ed6994f29b", "type": "electric_scooter", "name": "33d17ba579f758bbac7c51ed6994f29b"}, {"is_disabled": 0, "is_reserved": 0, "fusion_lat": 0.0, "lat": 38.94751, "fusion_lon": 0.0, "rental_uris": {"ios": "https://dc.lft.to/lastmile_qr_scan", "android": "https://dc.lft.to/lastmile_qr_scan"}, "lon": -77.02354783333334, "bike_id": "97172e0490744302251f1a054ceee26a", "type": "electric_scooter", "name": "97172e0490744302251f1a054ceee26a"}, {"is_disabled": 0, "is_reserved": 0, "fusion_lat": 0.0, "lat": 38.85594233333333, "fusion_lon": 0.0, "rental_uris": {"ios": "https://dc.lft.to/lastmile_qr_scan", "android": "https://dc.lft.to/lastmile_qr_scan"}, "lon": -76.97282583333333, "bike_id": "edba879558b3f054dab90729adf9bad7", "type": "electric_bike", "name": "edba879558b3f054dab90729adf9bad7"}, {"is_disabled": 0, "is_reserved": 0, "fusion_lat": 0.0, "lat": 38.898514666666664, "fusion_lon": 0.0, "rental_uris": {"ios": "https://dc.lft.to/lastmile_qr_scan", "android": "https://dc.lft.to/lastmile_qr_scan"}, "lon": -77.03956866666667, "bike_id": "40018a8d2b2fdbcecbda4c0491d3dd64", "type": "electric_scooter", "name": "40018a8d2b2fdbcecbda4c0491d3dd64"}, {"is_disabled": 0, "is_reserved": 0, "fusion_lat": 0.0, "lat": 38.91100466666666, "fusion_lon": 0.0, "rental_uris": {"ios": "https://dc.lft.to/lastmile_qr_scan", "android": "https://dc.lft.to/lastmile_qr_scan"}, "lon": -77.02803616666667, "bike_id": "6a6a6197891c50eb77c7596bb8cb67fc", "type": "electric_scooter", "name": "6a6a6197891c50eb77c7596bb8cb67fc"}, {"is_disabled": 0, "is_reserved": 0, "fusion_lat": 0.0, "lat": 38.91822716666667, "fusion_lon": 0.0, "rental_uris": {"ios": "https://dc.lft.to/lastmile_qr_scan", "android": "https://dc.lft.to/lastmile_qr_scan"}, "lon": -77.0252875, "bike_id": "25ac6908e7a853e99ff4e814eb62f09e", "type": "electric_scooter", "name": "25ac6908e7a853e99ff4e814eb62f09e"}, {"is_disabled": 0, "is_reserved": 0, "fusion_lat": 0.0, "lat": 38.923347166666666, "fusion_lon": 0.0, "rental_uris": {"ios": "https://dc.lft.to/lastmile_qr_scan", "android": "https://dc.lft.to/lastmile_qr_scan"}, "lon": -77.04190166666666, "bike_id": "368605a85acc3f777b7dc5776146c16d", "type": "electric_scooter", "name": "368605a85acc3f777b7dc5776146c16d"}, {"is_disabled": 0, "is_reserved": 0, "fusion_lat": 0.0, "lat": 38.8040595, "fusion_lon": 0.0, "rental_uris": {"ios": "https://dc.lft.to/lastmile_qr_scan", "android": "https://dc.lft.to/lastmile_qr_scan"}, "lon": -77.11329083333334, "bike_id": "d4374d0add37e9bfd9e6ea9c3bf94305", "type": "electric_bike", "name": "d4374d0add37e9bfd9e6ea9c3bf94305"}, {"is_disabled": 0, "is_reserved": 0, "fusion_lat": 0.0, "lat": 38.9098005, "fusion_lon": 0.0, "rental_uris": {"ios": "https://dc.lft.to/lastmile_qr_scan", "android": "https://dc.lft.to/lastmile_qr_scan"}, "lon": -77.0648285, "bike_id": "973cc410ea0bdac7978ba368051d6928", "type": "electric_bike", "name": "973cc410ea0bdac7978ba368051d6928"}, {"is_disabled": 0, "is_reserved": 0, "fusion_lat": 0.0, "lat": 39.0744315, "fusion_lon": 0.0, "rental_uris": {"ios": "https://dc.lft.to/lastmile_qr_scan", "android": "https://dc.lft.to/lastmile_qr_scan"}, "lon": -77.1153405, "bike_id": "8df07abbab4ccc20c06b6bd6586fd7c5", "type": "electric_bike", "name": "8df07abbab4ccc20c06b6bd6586fd7c5"}, {"is_disabled": 0, "is_reserved": 0, "fusion_lat": 0.0, "lat": 38.916315, "fusion_lon": 0.0, "rental_uris": {"ios": "https://dc.lft.to/lastmile_qr_scan", "android": "https://dc.lft.to/lastmile_qr_scan"}, "lon": -77.03215483333334, "bike_id": "bb5689f92d0198b35bb07649a4134592", "type": "electric_scooter", "name": "bb5689f92d0198b35bb07649a4134592"}, {"is_disabled": 0, "is_reserved": 0, "fusion_lat": 0.0, "lat": 38.938619833333334, "fusion_lon": 0.0, "rental_uris": {"ios": "https://dc.lft.to/lastmile_qr_scan", "android": "https://dc.lft.to/lastmile_qr_scan"}, "lon": -77.02471833333334, "bike_id": "7b095ce2fa0de09c5d9599b2eceaa33c", "type": "electric_scooter", "name": "7b095ce2fa0de09c5d9599b2eceaa33c"}, {"is_disabled": 0, "is_reserved": 0, "fusion_lat": 0.0, "lat": 38.917071, "fusion_lon": 0.0, "rental_uris": {"ios": "https://dc.lft.to/lastmile_qr_scan", "android": "https://dc.lft.to/lastmile_qr_scan"}, "lon": -77.01185433333333, "bike_id": "66460393678662e780fd0fc2fd4edf03", "type": "electric_scooter", "name": "66460393678662e780fd0fc2fd4edf03"}, {"is_disabled": 0, "is_reserved": 0, "fusion_lat": 0.0, "lat": 38.8276285, "fusion_lon": 0.0, "rental_uris": {"ios": "https://dc.lft.to/lastmile_qr_scan", "android": "https://dc.lft.to/lastmile_qr_scan"}, "lon": -77.05031316666667, "bike_id": "f78c2cd3dec0955f511c08d5edb97c2b", "type": "electric_bike", "name": "f78c2cd3dec0955f511c08d5edb97c2b"}, {"is_disabled": 0, "is_reserved": 0, "fusion_lat": 0.0, "lat": 38.862613, "fusion_lon": 0.0, "rental_uris": {"ios": "https://dc.lft.to/lastmile_qr_scan", "android": "https://dc.lft.to/lastmile_qr_scan"}, "lon": -76.9835335, "bike_id": "1eee71ad50ed139061c75b3b40d3d8fd", "type": "electric_bike", "name": "1eee71ad50ed139061c75b3b40d3d8fd"}, {"is_disabled": 0, "is_reserved": 0, "fusion_lat": 0.0, "lat": 38.920981833333336, "fusion_lon": 0.0, "rental_uris": {"ios": "https://dc.lft.to/lastmile_qr_scan", "android": "https://dc.lft.to/lastmile_qr_scan"}, "lon": -77.0231815, "bike_id": "79ff21f1ad7bdbe85d7f87569aa0c410", "type": "electric_scooter", "name": "79ff21f1ad7bdbe85d7f87569aa0c410"}, {"is_disabled": 0, "is_reserved": 0, "fusion_lat": 0.0, "lat": 38.91635733333333, "fusion_lon": 0.0, "rental_uris": {"ios": "https://dc.lft.to/lastmile_qr_scan", "android": "https://dc.lft.to/lastmile_qr_scan"}, "lon": -77.04121216666667, "bike_id": "3d4bc5a2c506bbe9bb460578b24e3277", "type": "electric_scooter", "name": "3d4bc5a2c506bbe9bb460578b24e3277"}, {"is_disabled": 0, "is_reserved": 0, "fusion_lat": 0.0, "lat": 38.9154995, "fusion_lon": 0.0, "rental_uris": {"ios": "https://dc.lft.to/lastmile_qr_scan", "android": "https://dc.lft.to/lastmile_qr_scan"}, "lon": -77.04635583333334, "bike_id": "4a19781664f063257aca7c41188dbb8c", "type": "electric_scooter", "name": "4a19781664f063257aca7c41188dbb8c"}, {"is_disabled": 0, "is_reserved": 0, "fusion_lat": 0.0, "lat": 38.89220666666667, "fusion_lon": 0.0, "rental_uris": {"ios": "https://dc.lft.to/lastmile_qr_scan", "android": "https://dc.lft.to/lastmile_qr_scan"}, "lon": -77.04366333333333, "bike_id": "87867776bdacb1577051d59343419e19", "type": "electric_scooter", "name": "87867776bdacb1577051d59343419e19"}, {"is_disabled": 0, "is_reserved": 0, "fusion_lat": 0.0, "lat": 38.805625166666665, "fusion_lon": 0.0, "rental_uris": {"ios": "https://dc.lft.to/lastmile_qr_scan", "android": "https://dc.lft.to/lastmile_qr_scan"}, "lon": -77.13220883333334, "bike_id": "e1a94d77fd6222d32672cc585966f2f9", "type": "electric_bike", "name": "e1a94d77fd6222d32672cc585966f2f9"}, {"is_disabled": 0, "is_reserved": 0, "fusion_lat": 0.0, "lat": 38.900735833333336, "fusion_lon": 0.0, "rental_uris": {"ios": "https://dc.lft.to/lastmile_qr_scan", "android": "https://dc.lft.to/lastmile_qr_scan"}, "lon": -77.00738866666667, "bike_id": "c26dedaac9df952c24bbee5703dad374", "type": "electric_scooter", "name": "c26dedaac9df952c24bbee5703dad374"}, {"is_disabled": 0, "is_reserved": 0, "fusion_lat": 0.0, "lat": 38.882476833333335, "fusion_lon": 0.0, "rental_uris": {"ios": "https://dc.lft.to/lastmile_qr_scan", "android": "https://dc.lft.to/lastmile_qr_scan"}, "lon": -76.9625675, "bike_id": "37c4e6223af33c65aa47cc3a19ffc78a", "type": "electric_bike", "name": "37c4e6223af33c65aa47cc3a19ffc78a"}, {"is_disabled": 0, "is_reserved": 0, "fusion_lat": 0.0, "lat": 38.918655, "fusion_lon": 0.0, "rental_uris": {"ios": "https://dc.lft.to/lastmile_qr_scan", "android": "https://dc.lft.to/lastmile_qr_scan"}, "lon": -77.04458783333334, "bike_id": "b2304d2291cfdb571eb1a545e30ffac0", "type": "electric_scooter", "name": "b2304d2291cfdb571eb1a545e30ffac0"}, {"is_disabled": 0, "is_reserved": 0, "fusion_lat": 0.0, "lat": 38.90438866666667, "fusion_lon": 0.0, "rental_uris": {"ios": "https://dc.lft.to/lastmile_qr_scan", "android": "https://dc.lft.to/lastmile_qr_scan"}, "lon": -77.03073916666666, "bike_id": "2e3400c419d8f9b5044f5745526702cd", "type": "electric_scooter", "name": "2e3400c419d8f9b5044f5745526702cd"}, {"is_disabled": 0, "is_reserved": 0, "fusion_lat": 0.0, "lat": 38.934672, "fusion_lon": 0.0, "rental_uris": {"ios": "https://dc.lft.to/lastmile_qr_scan", "android": "https://dc.lft.to/lastmile_qr_scan"}, "lon": -77.02401533333334, "bike_id": "9903970a627ab9219442902b4cbdcb2e", "type": "electric_scooter", "name": "9903970a627ab9219442902b4cbdcb2e"}, {"is_disabled": 0, "is_reserved": 0, "fusion_lat": 0.0, "lat": 38.881969166666664, "fusion_lon": 0.0, "rental_uris": {"ios": "https://dc.lft.to/lastmile_qr_scan", "android": "https://dc.lft.to/lastmile_qr_scan"}, "lon": -77.02860866666667, "bike_id": "62ac467c7fd168c8bdc055d175c81b7e", "type": "electric_scooter", "name": "62ac467c7fd168c8bdc055d175c81b7e"}, {"is_disabled": 0, "is_reserved": 0, "fusion_lat": 0.0, "lat": 38.92132933333333, "fusion_lon": 0.0, "rental_uris": {"ios": "https://dc.lft.to/lastmile_qr_scan", "android": "https://dc.lft.to/lastmile_qr_scan"}, "lon": -77.04565933333333, "bike_id": "8f0e61c437b3b3fa9a595038b4099131", "type": "electric_scooter", "name": "8f0e61c437b3b3fa9a595038b4099131"}, {"is_disabled": 0, "is_reserved": 0, "fusion_lat": 0.0, "lat": 38.91770666666667, "fusion_lon": 0.0, "rental_uris": {"ios": "https://dc.lft.to/lastmile_qr_scan", "android": "https://dc.lft.to/lastmile_qr_scan"}, "lon": -77.02341833333334, "bike_id": "ce822e8e8750ebd31a84a92d170ce6b4", "type": "electric_scooter", "name": "ce822e8e8750ebd31a84a92d170ce6b4"}, {"is_disabled": 0, "is_reserved": 0, "fusion_lat": 0.0, "lat": 38.94955016666667, "fusion_lon": 0.0, "rental_uris": {"ios": "https://dc.lft.to/lastmile_qr_scan", "android": "https://dc.lft.to/lastmile_qr_scan"}, "lon": -77.06638116666667, "bike_id": "55f24c0e1be6b8ca24405f134a250f8b", "type": "electric_bike", "name": "55f24c0e1be6b8ca24405f134a250f8b"}, {"is_disabled": 0, "is_reserved": 0, "fusion_lat": 0.0, "lat": 38.88082, "fusion_lon": 0.0, "rental_uris": {"ios": "https://dc.lft.to/lastmile_qr_scan", "android": "https://dc.lft.to/lastmile_qr_scan"}, "lon": -77.03258783333334, "bike_id": "c200dee0fc352de5181a2e5a0c50cdb7", "type": "electric_bike", "name": "c200dee0fc352de5181a2e5a0c50cdb7"}, {"is_disabled": 0, "is_reserved": 0, "fusion_lat": 0.0, "lat": 38.91638183333333, "fusion_lon": 0.0, "rental_uris": {"ios": "https://dc.lft.to/lastmile_qr_scan", "android": "https://dc.lft.to/lastmile_qr_scan"}, "lon": -77.00510966666667, "bike_id": "d65156b46ac9937d2e43f67a4883148d", "type": "electric_scooter", "name": "d65156b46ac9937d2e43f67a4883148d"}, {"is_disabled": 0, "is_reserved": 0, "fusion_lat": 0.0, "lat": 38.92783433333334, "fusion_lon": 0.0, "rental_uris": {"ios": "https://dc.lft.to/lastmile_qr_scan", "android": "https://dc.lft.to/lastmile_qr_scan"}, "lon": -77.02741616666667, "bike_id": "58aae995667036d8d4d38105c2c2a74c", "type": "electric_scooter", "name": "58aae995667036d8d4d38105c2c2a74c"}, {"is_disabled": 0, "is_reserved": 0, "fusion_lat": 0.0, "lat": 38.876332166666664, "fusion_lon": 0.0, "rental_uris": {"ios": "https://dc.lft.to/lastmile_qr_scan", "android": "https://dc.lft.to/lastmile_qr_scan"}, "lon": -77.00461666666666, "bike_id": "e06e1bf58b715dba015b8e9e57e4a48c", "type": "electric_scooter", "name": "e06e1bf58b715dba015b8e9e57e4a48c"}, {"is_disabled": 0, "is_reserved": 0, "fusion_lat": 0.0, "lat": 38.92855983333333, "fusion_lon": 0.0, "rental_uris": {"ios": "https://dc.lft.to/lastmile_qr_scan", "android": "https://dc.lft.to/lastmile_qr_scan"}, "lon": -77.03730433333334, "bike_id": "c55b6bd93efe816d40b14b9c306ab4ae", "type": "electric_scooter", "name": "c55b6bd93efe816d40b14b9c306ab4ae"}, {"is_disabled": 0, "is_reserved": 0, "fusion_lat": 0.0, "lat": 38.895108, "fusion_lon": 0.0, "rental_uris": {"ios": "https://dc.lft.to/lastmile_qr_scan", "android": "https://dc.lft.to/lastmile_qr_scan"}, "lon": -77.02283066666666, "bike_id": "5701caeedab5c0b78a33703810cf45e6", "type": "electric_scooter", "name": "5701caeedab5c0b78a33703810cf45e6"}, {"is_disabled": 0, "is_reserved": 0, "fusion_lat": 0.0, "lat": 38.92034783333333, "fusion_lon": 0.0, "rental_uris": {"ios": "https://dc.lft.to/lastmile_qr_scan", "android": "https://dc.lft.to/lastmile_qr_scan"}, "lon": -77.0307745, "bike_id": "d26f2bac654476bbeb90385f7fe3c3a1", "type": "electric_scooter", "name": "d26f2bac654476bbeb90385f7fe3c3a1"}, {"is_disabled": 0, "is_reserved": 0, "fusion_lat": 0.0, "lat": 38.936661666666666, "fusion_lon": 0.0, "rental_uris": {"ios": "https://dc.lft.to/lastmile_qr_scan", "android": "https://dc.lft.to/lastmile_qr_scan"}, "lon": -77.0660435, "bike_id": "ac50339e0aa58a387100387a5c3432c7", "type": "electric_scooter", "name": "ac50339e0aa58a387100387a5c3432c7"}, {"is_disabled": 0, "is_reserved": 0, "fusion_lat": 0.0, "lat": 38.92895466666667, "fusion_lon": 0.0, "rental_uris": {"ios": "https://dc.lft.to/lastmile_qr_scan", "android": "https://dc.lft.to/lastmile_qr_scan"}, "lon": -77.01940216666667, "bike_id": "2c3fb9f5d6c8961597beee7585d66201", "type": "electric_scooter", "name": "2c3fb9f5d6c8961597beee7585d66201"}, {"is_disabled": 0, "is_reserved": 0, "fusion_lat": 0.0, "lat": 38.921627666666666, "fusion_lon": 0.0, "rental_uris": {"ios": "https://dc.lft.to/lastmile_qr_scan", "android": "https://dc.lft.to/lastmile_qr_scan"}, "lon": -77.04233766666667, "bike_id": "a6b74b2c3530fc30c6d49506eb096ce2", "type": "electric_scooter", "name": "a6b74b2c3530fc30c6d49506eb096ce2"}, {"is_disabled": 0, "is_reserved": 0, "fusion_lat": 0.0, "lat": 38.92173583333334, "fusion_lon": 0.0, "rental_uris": {"ios": "https://dc.lft.to/lastmile_qr_scan", "android": "https://dc.lft.to/lastmile_qr_scan"}, "lon": -76.99422166666666, "bike_id": "5d94f514908babdea08ead231c403d31", "type": "electric_scooter", "name": "5d94f514908babdea08ead231c403d31"}, {"is_disabled": 0, "is_reserved": 0, "fusion_lat": 0.0, "lat": 38.941773, "fusion_lon": 0.0, "rental_uris": {"ios": "https://dc.lft.to/lastmile_qr_scan", "android": "https://dc.lft.to/lastmile_qr_scan"}, "lon": -77.01534433333333, "bike_id": "cfbb769891433daa4725f7c17a76556e", "type": "electric_scooter", "name": "cfbb769891433daa4725f7c17a76556e"}, {"is_disabled": 0, "is_reserved": 0, "fusion_lat": 0.0, "lat": 38.898406333333334, "fusion_lon": 0.0, "rental_uris": {"ios": "https://dc.lft.to/lastmile_qr_scan", "android": "https://dc.lft.to/lastmile_qr_scan"}, "lon": -77.02852633333333, "bike_id": "6ca08af9ef90e6aa4bc9de89dcf4b6d3", "type": "electric_scooter", "name": "6ca08af9ef90e6aa4bc9de89dcf4b6d3"}, {"is_disabled": 0, "is_reserved": 0, "fusion_lat": 0.0, "lat": 38.92727516666667, "fusion_lon": 0.0, "rental_uris": {"ios": "https://dc.lft.to/lastmile_qr_scan", "android": "https://dc.lft.to/lastmile_qr_scan"}, "lon": -77.02083916666666, "bike_id": "7af6d73f7215cb0d8911524066190982", "type": "electric_scooter", "name": "7af6d73f7215cb0d8911524066190982"}, {"is_disabled": 0, "is_reserved": 0, "fusion_lat": 0.0, "lat": 38.895125666666665, "fusion_lon": 0.0, "rental_uris": {"ios": "https://dc.lft.to/lastmile_qr_scan", "android": "https://dc.lft.to/lastmile_qr_scan"}, "lon": -77.022872, "bike_id": "f72993f293fdaa8defc9a9690ea91d5e", "type": "electric_scooter", "name": "f72993f293fdaa8defc9a9690ea91d5e"}, {"is_disabled": 0, "is_reserved": 0, "fusion_lat": 0.0, "lat": 38.896728333333336, "fusion_lon": 0.0, "rental_uris": {"ios": "https://dc.lft.to/lastmile_qr_scan", "android": "https://dc.lft.to/lastmile_qr_scan"}, "lon": -76.94909833333334, "bike_id": "249e301b7e58d1d6ccfaae4d690333f7", "type": "electric_scooter", "name": "249e301b7e58d1d6ccfaae4d690333f7"}, {"is_disabled": 0, "is_reserved": 0, "fusion_lat": 0.0, "lat": 38.94293166666667, "fusion_lon": 0.0, "rental_uris": {"ios": "https://dc.lft.to/lastmile_qr_scan", "android": "https://dc.lft.to/lastmile_qr_scan"}, "lon": -77.02168066666667, "bike_id": "8249a460024c9c181a341381746e5f94", "type": "electric_scooter", "name": "8249a460024c9c181a341381746e5f94"}, {"is_disabled": 0, "is_reserved": 0, "fusion_lat": 0.0, "lat": 38.92492, "fusion_lon": 0.0, "rental_uris": {"ios": "https://dc.lft.to/lastmile_qr_scan", "android": "https://dc.lft.to/lastmile_qr_scan"}, "lon": -77.02703966666667, "bike_id": "511c5cc43a61b83588f3097bb61fc286", "type": "electric_scooter", "name": "511c5cc43a61b83588f3097bb61fc286"}, {"is_disabled": 0, "is_reserved": 0, "fusion_lat": 0.0, "lat": 38.840999, "fusion_lon": 0.0, "rental_uris": {"ios": "https://dc.lft.to/lastmile_qr_scan", "android": "https://dc.lft.to/lastmile_qr_scan"}, "lon": -76.9870335, "bike_id": "a20cb5dc9cd82fa3a39ab7bd2be600b0", "type": "electric_bike", "name": "a20cb5dc9cd82fa3a39ab7bd2be600b0"}, {"is_disabled": 0, "is_reserved": 0, "fusion_lat": 0.0, "lat": 38.90519883333333, "fusion_lon": 0.0, "rental_uris": {"ios": "https://dc.lft.to/lastmile_qr_scan", "android": "https://dc.lft.to/lastmile_qr_scan"}, "lon": -77.051377, "bike_id": "258a568acd76b332c656aab11cfa917c", "type": "electric_scooter", "name": "258a568acd76b332c656aab11cfa917c"}, {"is_disabled": 0, "is_reserved": 0, "fusion_lat": 0.0, "lat": 38.930407333333335, "fusion_lon": 0.0, "rental_uris": {"ios": "https://dc.lft.to/lastmile_qr_scan", "android": "https://dc.lft.to/lastmile_qr_scan"}, "lon": -77.0556155, "bike_id": "61d74a3abb09f9d2cbb1a87865d7aaa1", "type": "electric_scooter", "name": "61d74a3abb09f9d2cbb1a87865d7aaa1"}, {"is_disabled": 0, "is_reserved": 0, "fusion_lat": 0.0, "lat": 38.92825916666666, "fusion_lon": 0.0, "rental_uris": {"ios": "https://dc.lft.to/lastmile_qr_scan", "android": "https://dc.lft.to/lastmile_qr_scan"}, "lon": -77.02256033333333, "bike_id": "5b68eef46e5e736bb30a71d7667cf796", "type": "electric_scooter", "name": "5b68eef46e5e736bb30a71d7667cf796"}, {"is_disabled": 0, "is_reserved": 0, "fusion_lat": 0.0, "lat": 38.91827333333333, "fusion_lon": 0.0, "rental_uris": {"ios": "https://dc.lft.to/lastmile_qr_scan", "android": "https://dc.lft.to/lastmile_qr_scan"}, "lon": -77.05326316666667, "bike_id": "86ea266e40efcdbcee0878966f881a0a", "type": "electric_scooter", "name": "86ea266e40efcdbcee0878966f881a0a"}, {"is_disabled": 0, "is_reserved": 0, "fusion_lat": 0.0, "lat": 38.899156166666664, "fusion_lon": 0.0, "rental_uris": {"ios": "https://dc.lft.to/lastmile_qr_scan", "android": "https://dc.lft.to/lastmile_qr_scan"}, "lon": -77.0395745, "bike_id": "859d213a3dec3b413f7c341c8361ea32", "type": "electric_scooter", "name": "859d213a3dec3b413f7c341c8361ea32"}, {"is_disabled": 0, "is_reserved": 0, "fusion_lat": 0.0, "lat": 38.89234116666667, "fusion_lon": 0.0, "rental_uris": {"ios": "https://dc.lft.to/lastmile_qr_scan", "android": "https://dc.lft.to/lastmile_qr_scan"}, "lon": -77.03186333333333, "bike_id": "183de9e3f58ac70adfea281a617d5944", "type": "electric_scooter", "name": "183de9e3f58ac70adfea281a617d5944"}, {"is_disabled": 0, "is_reserved": 0, "fusion_lat": 0.0, "lat": 38.94146333333333, "fusion_lon": 0.0, "rental_uris": {"ios": "https://dc.lft.to/lastmile_qr_scan", "android": "https://dc.lft.to/lastmile_qr_scan"}, "lon": -77.02323766666666, "bike_id": "242689ab998ad320cbd1a613383ed0d3", "type": "electric_scooter", "name": "242689ab998ad320cbd1a613383ed0d3"}, {"is_disabled": 0, "is_reserved": 0, "fusion_lat": 0.0, "lat": 38.926555666666665, "fusion_lon": 0.0, "rental_uris": {"ios": "https://dc.lft.to/lastmile_qr_scan", "android": "https://dc.lft.to/lastmile_qr_scan"}, "lon": -77.0243255, "bike_id": "688f2276d4922f264cfe7ed3a442a062", "type": "electric_scooter", "name": "688f2276d4922f264cfe7ed3a442a062"}, {"is_disabled": 0, "is_reserved": 0, "fusion_lat": 0.0, "lat": 38.93794233333333, "fusion_lon": 0.0, "rental_uris": {"ios": "https://dc.lft.to/lastmile_qr_scan", "android": "https://dc.lft.to/lastmile_qr_scan"}, "lon": -77.02977316666667, "bike_id": "b5828a6585dfabcb3dbe85ee1af0cb6f", "type": "electric_scooter", "name": "b5828a6585dfabcb3dbe85ee1af0cb6f"}, {"is_disabled": 0, "is_reserved": 0, "fusion_lat": 0.0, "lat": 38.934074, "fusion_lon": 0.0, "rental_uris": {"ios": "https://dc.lft.to/lastmile_qr_scan", "android": "https://dc.lft.to/lastmile_qr_scan"}, "lon": -77.02050466666667, "bike_id": "14badac1939e7e4eb4edf3f07b4b2245", "type": "electric_scooter", "name": "14badac1939e7e4eb4edf3f07b4b2245"}, {"is_disabled": 0, "is_reserved": 0, "fusion_lat": 0.0, "lat": 38.899699, "fusion_lon": 0.0, "rental_uris": {"ios": "https://dc.lft.to/lastmile_qr_scan", "android": "https://dc.lft.to/lastmile_qr_scan"}, "lon": -77.05084383333333, "bike_id": "eb7541e5a8611cf427fc3416201947e1", "type": "electric_scooter", "name": "eb7541e5a8611cf427fc3416201947e1"}, {"is_disabled": 0, "is_reserved": 0, "fusion_lat": 0.0, "lat": 38.93635116666667, "fusion_lon": 0.0, "rental_uris": {"ios": "https://dc.lft.to/lastmile_qr_scan", "android": "https://dc.lft.to/lastmile_qr_scan"}, "lon": -77.0327005, "bike_id": "bf20850f83937f825f2cb6e5faed5307", "type": "electric_scooter", "name": "bf20850f83937f825f2cb6e5faed5307"}, {"is_disabled": 0, "is_reserved": 0, "fusion_lat": 0.0, "lat": 38.92878433333333, "fusion_lon": 0.0, "rental_uris": {"ios": "https://dc.lft.to/lastmile_qr_scan", "android": "https://dc.lft.to/lastmile_qr_scan"}, "lon": -77.0333195, "bike_id": "639889bf6fca56201b45a48cda34bda9", "type": "electric_scooter", "name": "639889bf6fca56201b45a48cda34bda9"}, {"is_disabled": 0, "is_reserved": 0, "fusion_lat": 0.0, "lat": 38.928427666666664, "fusion_lon": 0.0, "rental_uris": {"ios": "https://dc.lft.to/lastmile_qr_scan", "android": "https://dc.lft.to/lastmile_qr_scan"}, "lon": -77.0140305, "bike_id": "ad556eab490b1027dc447d86f8fd5693", "type": "electric_scooter", "name": "ad556eab490b1027dc447d86f8fd5693"}, {"is_disabled": 0, "is_reserved": 0, "fusion_lat": 0.0, "lat": 38.916189833333334, "fusion_lon": 0.0, "rental_uris": {"ios": "https://dc.lft.to/lastmile_qr_scan", "android": "https://dc.lft.to/lastmile_qr_scan"}, "lon": -77.00288233333333, "bike_id": "50337e3de7abd6e974144201f059644e", "type": "electric_bike", "name": "50337e3de7abd6e974144201f059644e"}, {"is_disabled": 0, "is_reserved": 0, "fusion_lat": 0.0, "lat": 38.90519283333333, "fusion_lon": 0.0, "rental_uris": {"ios": "https://dc.lft.to/lastmile_qr_scan", "android": "https://dc.lft.to/lastmile_qr_scan"}, "lon": -77.0661675, "bike_id": "432d660d4be02313db0d1408f5527646", "type": "electric_scooter", "name": "432d660d4be02313db0d1408f5527646"}, {"is_disabled": 0, "is_reserved": 0, "fusion_lat": 0.0, "lat": 38.90569333333333, "fusion_lon": 0.0, "rental_uris": {"ios": "https://dc.lft.to/lastmile_qr_scan", "android": "https://dc.lft.to/lastmile_qr_scan"}, "lon": -77.00556416666667, "bike_id": "98cc87b8f14615fe6fa2a99e4f1941ba", "type": "electric_scooter", "name": "98cc87b8f14615fe6fa2a99e4f1941ba"}, {"is_disabled": 0, "is_reserved": 0, "fusion_lat": 0.0, "lat": 38.90736416666667, "fusion_lon": 0.0, "rental_uris": {"ios": "https://dc.lft.to/lastmile_qr_scan", "android": "https://dc.lft.to/lastmile_qr_scan"}, "lon": -76.99835683333333, "bike_id": "647def16ea96c6ac84cde2aaac30b851", "type": "electric_scooter", "name": "647def16ea96c6ac84cde2aaac30b851"}, {"is_disabled": 0, "is_reserved": 0, "fusion_lat": 0.0, "lat": 38.8813635, "fusion_lon": 0.0, "rental_uris": {"ios": "https://dc.lft.to/lastmile_qr_scan", "android": "https://dc.lft.to/lastmile_qr_scan"}, "lon": -77.022704, "bike_id": "d5f38a6b2ea09a04b17c4bf8ca79e11f", "type": "electric_scooter", "name": "d5f38a6b2ea09a04b17c4bf8ca79e11f"}, {"is_disabled": 0, "is_reserved": 0, "fusion_lat": 0.0, "lat": 38.9153965, "fusion_lon": 0.0, "rental_uris": {"ios": "https://dc.lft.to/lastmile_qr_scan", "android": "https://dc.lft.to/lastmile_qr_scan"}, "lon": -77.01994266666667, "bike_id": "e4fb9465e5bb6d465b43eb5c05b98603", "type": "electric_scooter", "name": "e4fb9465e5bb6d465b43eb5c05b98603"}, {"is_disabled": 0, "is_reserved": 0, "fusion_lat": 0.0, "lat": 38.88302933333333, "fusion_lon": 0.0, "rental_uris": {"ios": "https://dc.lft.to/lastmile_qr_scan", "android": "https://dc.lft.to/lastmile_qr_scan"}, "lon": -76.94853316666666, "bike_id": "f8c4be4057d6ab17320850e4b7c62d7e", "type": "electric_scooter", "name": "f8c4be4057d6ab17320850e4b7c62d7e"}, {"is_disabled": 0, "is_reserved": 0, "fusion_lat": 0.0, "lat": 38.952139333333335, "fusion_lon": 0.0, "rental_uris": {"ios": "https://dc.lft.to/lastmile_qr_scan", "android": "https://dc.lft.to/lastmile_qr_scan"}, "lon": -77.002477, "bike_id": "89aed714957e87a6404c0f1ea6bcda9c", "type": "electric_bike", "name": "89aed714957e87a6404c0f1ea6bcda9c"}, {"is_disabled": 0, "is_reserved": 0, "fusion_lat": 0.0, "lat": 38.916374833333336, "fusion_lon": 0.0, "rental_uris": {"ios": "https://dc.lft.to/lastmile_qr_scan", "android": "https://dc.lft.to/lastmile_qr_scan"}, "lon": -77.02558583333334, "bike_id": "3882274e0db2526fbbbab91a915a6e1d", "type": "electric_scooter", "name": "3882274e0db2526fbbbab91a915a6e1d"}, {"is_disabled": 0, "is_reserved": 0, "fusion_lat": 0.0, "lat": 38.9040215, "fusion_lon": 0.0, "rental_uris": {"ios": "https://dc.lft.to/lastmile_qr_scan", "android": "https://dc.lft.to/lastmile_qr_scan"}, "lon": -77.00552866666666, "bike_id": "30a1f79c579d11093df11deacf8fc405", "type": "electric_scooter", "name": "30a1f79c579d11093df11deacf8fc405"}, {"is_disabled": 0, "is_reserved": 0, "fusion_lat": 0.0, "lat": 38.91909316666667, "fusion_lon": 0.0, "rental_uris": {"ios": "https://dc.lft.to/lastmile_qr_scan", "android": "https://dc.lft.to/lastmile_qr_scan"}, "lon": -77.05997016666667, "bike_id": "ffdf0f6fb084578fc0f95f0eb447c4ff", "type": "electric_bike", "name": "ffdf0f6fb084578fc0f95f0eb447c4ff"}, {"is_disabled": 0, "is_reserved": 0, "fusion_lat": 0.0, "lat": 38.88268516666667, "fusion_lon": 0.0, "rental_uris": {"ios": "https://dc.lft.to/lastmile_qr_scan", "android": "https://dc.lft.to/lastmile_qr_scan"}, "lon": -76.99017, "bike_id": "9b874c24df38c3d7713b9133b9f4f212", "type": "electric_scooter", "name": "9b874c24df38c3d7713b9133b9f4f212"}, {"is_disabled": 0, "is_reserved": 0, "fusion_lat": 0.0, "lat": 38.89941866666667, "fusion_lon": 0.0, "rental_uris": {"ios": "https://dc.lft.to/lastmile_qr_scan", "android": "https://dc.lft.to/lastmile_qr_scan"}, "lon": -77.02200316666666, "bike_id": "51e07e57fad44a1c412917ef6cafbc2e", "type": "electric_scooter", "name": "51e07e57fad44a1c412917ef6cafbc2e"}, {"is_disabled": 0, "is_reserved": 0, "fusion_lat": 0.0, "lat": 38.923373, "fusion_lon": 0.0, "rental_uris": {"ios": "https://dc.lft.to/lastmile_qr_scan", "android": "https://dc.lft.to/lastmile_qr_scan"}, "lon": -76.99883083333333, "bike_id": "1c2f747044492c819f18bc9fe56666e7", "type": "electric_scooter", "name": "1c2f747044492c819f18bc9fe56666e7"}, {"is_disabled": 0, "is_reserved": 0, "fusion_lat": 0.0, "lat": 38.8551865, "fusion_lon": 0.0, "rental_uris": {"ios": "https://dc.lft.to/lastmile_qr_scan", "android": "https://dc.lft.to/lastmile_qr_scan"}, "lon": -77.1205985, "bike_id": "d3e43b857cd19d2d4fe50bc19667d8f1", "type": "electric_bike", "name": "d3e43b857cd19d2d4fe50bc19667d8f1"}, {"is_disabled": 0, "is_reserved": 0, "fusion_lat": 0.0, "lat": 38.908334833333335, "fusion_lon": 0.0, "rental_uris": {"ios": "https://dc.lft.to/lastmile_qr_scan", "android": "https://dc.lft.to/lastmile_qr_scan"}, "lon": -76.99683233333333, "bike_id": "a44d41ad405f5e8a4dfd08e6bff88ad3", "type": "electric_scooter", "name": "a44d41ad405f5e8a4dfd08e6bff88ad3"}, {"is_disabled": 0, "is_reserved": 0, "fusion_lat": 0.0, "lat": 38.922248, "fusion_lon": 0.0, "rental_uris": {"ios": "https://dc.lft.to/lastmile_qr_scan", "android": "https://dc.lft.to/lastmile_qr_scan"}, "lon": -77.01873933333333, "bike_id": "0e9b2dac46df71a26d7fcfbcb279862e", "type": "electric_scooter", "name": "0e9b2dac46df71a26d7fcfbcb279862e"}, {"is_disabled": 0, "is_reserved": 0, "fusion_lat": 0.0, "lat": 38.90382233333333, "fusion_lon": 0.0, "rental_uris": {"ios": "https://dc.lft.to/lastmile_qr_scan", "android": "https://dc.lft.to/lastmile_qr_scan"}, "lon": -77.05063183333333, "bike_id": "2e1182a879ad868d56ceb6d948413f97", "type": "electric_bike", "name": "2e1182a879ad868d56ceb6d948413f97"}, {"is_disabled": 0, "is_reserved": 0, "fusion_lat": 0.0, "lat": 38.91577216666667, "fusion_lon": 0.0, "rental_uris": {"ios": "https://dc.lft.to/lastmile_qr_scan", "android": "https://dc.lft.to/lastmile_qr_scan"}, "lon": -77.021903, "bike_id": "e07b7f120bd744523f4c8d68ef290e47", "type": "electric_scooter", "name": "e07b7f120bd744523f4c8d68ef290e47"}, {"is_disabled": 0, "is_reserved": 0, "fusion_lat": 0.0, "lat": 38.9509965, "fusion_lon": 0.0, "rental_uris": {"ios": "https://dc.lft.to/lastmile_qr_scan", "android": "https://dc.lft.to/lastmile_qr_scan"}, "lon": -77.02196216666667, "bike_id": "ab4478d6f9bf01dce7c612768515b6e8", "type": "electric_scooter", "name": "ab4478d6f9bf01dce7c612768515b6e8"}, {"is_disabled": 0, "is_reserved": 0, "fusion_lat": 0.0, "lat": 38.94791683333333, "fusion_lon": 0.0, "rental_uris": {"ios": "https://dc.lft.to/lastmile_qr_scan", "android": "https://dc.lft.to/lastmile_qr_scan"}, "lon": -77.07895383333333, "bike_id": "4fd40bd95bd3fabdffd73801a925299c", "type": "electric_scooter", "name": "4fd40bd95bd3fabdffd73801a925299c"}, {"is_disabled": 0, "is_reserved": 0, "fusion_lat": 0.0, "lat": 38.9638325, "fusion_lon": 0.0, "rental_uris": {"ios": "https://dc.lft.to/lastmile_qr_scan", "android": "https://dc.lft.to/lastmile_qr_scan"}, "lon": -77.0197575, "bike_id": "3ef413dbd4f0a548f19d9b706f5412a1", "type": "electric_bike", "name": "3ef413dbd4f0a548f19d9b706f5412a1"}, {"is_disabled": 0, "is_reserved": 0, "fusion_lat": 0.0, "lat": 38.91569533333333, "fusion_lon": 0.0, "rental_uris": {"ios": "https://dc.lft.to/lastmile_qr_scan", "android": "https://dc.lft.to/lastmile_qr_scan"}, "lon": -77.04285566666667, "bike_id": "1035d4b2d74877102fb763e5072d582d", "type": "electric_scooter", "name": "1035d4b2d74877102fb763e5072d582d"}, {"is_disabled": 0, "is_reserved": 0, "fusion_lat": 0.0, "lat": 38.9268715, "fusion_lon": 0.0, "rental_uris": {"ios": "https://dc.lft.to/lastmile_qr_scan", "android": "https://dc.lft.to/lastmile_qr_scan"}, "lon": -77.0146815, "bike_id": "5c3a3090aaede01927b124ad4ad83954", "type": "electric_scooter", "name": "5c3a3090aaede01927b124ad4ad83954"}, {"is_disabled": 0, "is_reserved": 0, "fusion_lat": 0.0, "lat": 38.92769033333333, "fusion_lon": 0.0, "rental_uris": {"ios": "https://dc.lft.to/lastmile_qr_scan", "android": "https://dc.lft.to/lastmile_qr_scan"}, "lon": -77.05244566666667, "bike_id": "603cce1e536592317932fe0ec84412de", "type": "electric_scooter", "name": "603cce1e536592317932fe0ec84412de"}, {"is_disabled": 0, "is_reserved": 0, "fusion_lat": 0.0, "lat": 38.905128166666664, "fusion_lon": 0.0, "rental_uris": {"ios": "https://dc.lft.to/lastmile_qr_scan", "android": "https://dc.lft.to/lastmile_qr_scan"}, "lon": -76.951984, "bike_id": "73011a4b9bb228310e0c6d59068a0eef", "type": "electric_scooter", "name": "73011a4b9bb228310e0c6d59068a0eef"}, {"is_disabled": 0, "is_reserved": 0, "fusion_lat": 0.0, "lat": 38.92199766666667, "fusion_lon": 0.0, "rental_uris": {"ios": "https://dc.lft.to/lastmile_qr_scan", "android": "https://dc.lft.to/lastmile_qr_scan"}, "lon": -77.0203995, "bike_id": "2f599964b90867a30b0bdb050110362c", "type": "electric_scooter", "name": "2f599964b90867a30b0bdb050110362c"}, {"is_disabled": 0, "is_reserved": 0, "fusion_lat": 0.0, "lat": 38.9306705, "fusion_lon": 0.0, "rental_uris": {"ios": "https://dc.lft.to/lastmile_qr_scan", "android": "https://dc.lft.to/lastmile_qr_scan"}, "lon": -77.02322566666666, "bike_id": "39814d8cc23655aa239b4944a963f0f1", "type": "electric_scooter", "name": "39814d8cc23655aa239b4944a963f0f1"}, {"is_disabled": 0, "is_reserved": 0, "fusion_lat": 0.0, "lat": 38.916993166666664, "fusion_lon": 0.0, "rental_uris": {"ios": "https://dc.lft.to/lastmile_qr_scan", "android": "https://dc.lft.to/lastmile_qr_scan"}, "lon": -77.024826, "bike_id": "534e64a93aca630d93ebfe69cb3fc0b8", "type": "electric_scooter", "name": "534e64a93aca630d93ebfe69cb3fc0b8"}, {"is_disabled": 0, "is_reserved": 0, "fusion_lat": 0.0, "lat": 38.8952325, "fusion_lon": 0.0, "rental_uris": {"ios": "https://dc.lft.to/lastmile_qr_scan", "android": "https://dc.lft.to/lastmile_qr_scan"}, "lon": -76.98113933333333, "bike_id": "346b2795ecf0ff5835745cd8f481a558", "type": "electric_scooter", "name": "346b2795ecf0ff5835745cd8f481a558"}, {"is_disabled": 0, "is_reserved": 0, "fusion_lat": 0.0, "lat": 38.886273, "fusion_lon": 0.0, "rental_uris": {"ios": "https://dc.lft.to/lastmile_qr_scan", "android": "https://dc.lft.to/lastmile_qr_scan"}, "lon": -76.926348, "bike_id": "bdfecb06d1e770ccd4018e145990800e", "type": "electric_scooter", "name": "bdfecb06d1e770ccd4018e145990800e"}, {"is_disabled": 0, "is_reserved": 0, "fusion_lat": 0.0, "lat": 39.02649483333333, "fusion_lon": 0.0, "rental_uris": {"ios": "https://dc.lft.to/lastmile_qr_scan", "android": "https://dc.lft.to/lastmile_qr_scan"},