{"data": {"bikes": [{"lat": 38.89828466666667, "is_disabled": 0, "type": "electric_scooter", "lon": -77.04339983333334, "bike_id": "a547130d02f4fab3ed4af79981078943", "fusion_lat": 0.0, "name": "a547130d02f4fab3ed4af79981078943", "is_reserved": 0, "rental_uris": {"android": "https://dc.lft.to/lastmile_qr_scan", "ios": "https://dc.lft.to/lastmile_qr_scan"}, "fusion_lon": 0.0}, {"lat": 38.845673, "is_disabled": 0, "type": "electric_bike", "lon": -77.0962915, "bike_id": "d6d6d558bb0d2fef2b76e95b7b93575b", "fusion_lat": 0.0, "name": "d6d6d558bb0d2fef2b76e95b7b93575b", "is_reserved": 0, "rental_uris": {"android": "https://dc.lft.to/lastmile_qr_scan", "ios": "https://dc.lft.to/lastmile_qr_scan"}, "fusion_lon": 0.0}, {"lat": 38.91607833333333, "is_disabled": 0, "type": "electric_scooter", "lon": -77.03284116666667, "bike_id": "0b42cd8e5a2cd68a1beb03d38cb4efe2", "fusion_lat": 0.0, "name": "0b42cd8e5a2cd68a1beb03d38cb4efe2", "is_reserved": 0, "rental_uris": {"android": "https://dc.lft.to/lastmile_qr_scan", "ios": "https://dc.lft.to/lastmile_qr_scan"}, "fusion_lon": 0.0}, {"lat": 38.871432, "is_disabled": 0, "type": "electric_bike", "lon": -76.93707416666666, "bike_id": "1912a2202a992fafee8a73384c52fce2", "fusion_lat": 0.0, "name": "1912a2202a992fafee8a73384c52fce2", "is_reserved": 0, "rental_uris": {"android": "https://dc.lft.to/lastmile_qr_scan", "ios": "https://dc.lft.to/lastmile_qr_scan"}, "fusion_lon": 0.0}, {"lat": 38.884253666666666, "is_disabled": 0, "type": "electric_bike", "lon": -76.95755966666667, "bike_id": "16ca7e97e6b435f0ac10fa39b42fbc9a", "fusion_lat": 0.0, "name": "16ca7e97e6b435f0ac10fa39b42fbc9a", "is_reserved": 0, "rental_uris": {"android": "https://dc.lft.to/lastmile_qr_scan", "ios": "https://dc.lft.to/lastmile_qr_scan"}, "fusion_lon": 0.0}, {"lat": 38.909374666666665, "is_disabled": 0, "type": "electric_scooter", "lon": -77.02118666666667, "bike_id": "53974bebe46c750888cd80f92797e2e4", "fusion_lat": 0.0, "name": "53974bebe46c750888cd80f92797e2e4", "is_reserved": 0, "rental_uris": {"android": "https://dc.lft.to/lastmile_qr_scan", "ios": "https://dc.lft.to/lastmile_qr_scan"}, "fusion_lon": 0.0}, {"lat": 38.88364216666667, "is_disabled": 0, "type": "electric_scooter", "lon": -77.02632533333333, "bike_id": "6c3e99391d4ab36bbf68c7c069bde4fb", "fusion_lat": 0.0, "name": "6c3e99391d4ab36bbf68c7c069bde4fb", "is_reserved": 0, "rental_uris": {"android": "https://dc.lft.to/lastmile_qr_scan", "ios": "https://dc.lft.to/lastmile_qr_scan"}, "fusion_lon": 0.0}, {"lat": 38.912686666666666, "is_disabled": 0, "type": "electric_scooter", "lon": -77.0340055, "bike_id": "4da12d5177c153736ae24be6137c77b9", "fusion_lat": 0.0, "name": "4da12d5177c153736ae24be6137c77b9", "is_reserved": 0, "rental_uris": {"android": "https://dc.lft.to/lastmile_qr_scan", "ios": "https://dc.lft.to/lastmile_qr_scan"}, "fusion_lon": 0.0}, {"lat": 38.909101666666665, "is_disabled": 0, "type": "electric_scooter", "lon": -76.9925605, "bike_id": "3a88fe10b1750586e194791812cb6b8b", "fusion_lat": 0.0, "name": "3a88fe10b1750586e194791812cb6b8b", "is_reserved": 0, "rental_uris": {"android": "https://dc.lft.to/lastmile_qr_scan", "ios": "https://dc.lft.to/lastmile_qr_scan"}, "fusion_lon": 0.0}, {"lat": 38.871538666666666, "is_disabled": 0, "type": "electric_scooter", "lon": -77.01310733333334, "bike_id": "36bc224cc20a404bc9d1cef7d3a3e8f0", "fusion_lat": 0.0, "name": "36bc224cc20a404bc9d1cef7d3a3e8f0", "is_reserved": 0, "rental_uris": {"android": "https://dc.lft.to/lastmile_qr_scan", "ios": "https://dc.lft.to/lastmile_qr_scan"}, "fusion_lon": 0.0}, {"lat": 38.898676333333334, "is_disabled": 0, "type": "electric_scooter", "lon": -77.019987, "bike_id": "bd5d5700d7844c9e3963413f57560f59", "fusion_lat": 0.0, "name": "bd5d5700d7844c9e3963413f57560f59", "is_reserved": 0, "rental_uris": {"android": "https://dc.lft.to/lastmile_qr_scan", "ios": "https://dc.lft.to/lastmile_qr_scan"}, "fusion_lon": 0.0}, {"lat": 38.9386005, "is_disabled": 0, "type": "electric_scooter", "lon": -77.02491233333333, "bike_id": "d28ecb63d2602d5d4a60ac365f3c7f4f", "fusion_lat": 0.0, "name": "d28ecb63d2602d5d4a60ac365f3c7f4f", "is_reserved": 0, "rental_uris": {"android": "https://dc.lft.to/lastmile_qr_scan", "ios": "https://dc.lft.to/lastmile_qr_scan"}, "fusion_lon": 0.0}, {"lat": 38.923158666666666, "is_disabled": 0, "type": "electric_scooter", "lon": -77.03904616666667, "bike_id": "f091458b17e46f5c09ecbb6db1332cec", "fusion_lat": 0.0, "name": "f091458b17e46f5c09ecbb6db1332cec", "is_reserved": 0, "rental_uris": {"android": "https://dc.lft.to/lastmile_qr_scan", "ios": "https://dc.lft.to/lastmile_qr_scan"}, "fusion_lon": 0.0}, {"lat": 38.91940266666667, "is_disabled": 0, "type": "electric_scooter", "lon": -77.04776083333333, "bike_id": "2bb0c49dc076c55c4706ddc7ed9fceed", "fusion_lat": 0.0, "name": "2bb0c49dc076c55c4706ddc7ed9fceed", "is_reserved": 0, "rental_uris": {"android": "https://dc.lft.to/lastmile_qr_scan", "ios": "https://dc.lft.to/lastmile_qr_scan"}, "fusion_lon": 0.0}, {"lat": 39.03042966666667, "is_disabled": 0, "type": "electric_bike", "lon": -77.09483916666667, "bike_id": "1e916873b25c1f4d1cb61e639119d2b0", "fusion_lat": 0.0, "name": "1e916873b25c1f4d1cb61e639119d2b0", "is_reserved": 0, "rental_uris": {"android": "https://dc.lft.to/lastmile_qr_scan", "ios": "https://dc.lft.to/lastmile_qr_scan"}, "fusion_lon": 0.0}, {"lat": 38.913070166666664, "is_disabled": 0, "type": "electric_scooter", "lon": -77.0319095, "bike_id": "40cdc55a70024e5657df5caab68360e3", "fusion_lat": 0.0, "name": "40cdc55a70024e5657df5caab68360e3", "is_reserved": 0, "rental_uris": {"android": "https://dc.lft.to/lastmile_qr_scan", "ios": "https://dc.lft.to/lastmile_qr_scan"}, "fusion_lon": 0.0}, {"lat": 38.916925, "is_disabled": 0, "type": "electric_scooter", "lon": -77.02888533333333, "bike_id": "7b63ddad670388a76879a79fea913dd1", "fusion_lat": 0.0, "name": "7b63ddad670388a76879a79fea913dd1", "is_reserved": 0, "rental_uris": {"android": "https://dc.lft.to/lastmile_qr_scan", "ios": "https://dc.lft.to/lastmile_qr_scan"}, "fusion_lon": 0.0}, {"lat": 38.93668866666667, "is_disabled": 0, "type": "electric_scooter", "lon": -77.0359245, "bike_id": "68363dae688faaa4851acb690763794b", "fusion_lat": 0.0, "name": "68363dae688faaa4851acb690763794b", "is_reserved": 0, "rental_uris": {"android": "https://dc.lft.to/lastmile_qr_scan", "ios": "https://dc.lft.to/lastmile_qr_scan"}, "fusion_lon": 0.0}, {"lat": 38.91672283333333, "is_disabled": 0, "type": "electric_scooter", "lon": -77.02900383333333, "bike_id": "a175174847a8fcf9e64a01e69a5ca3b0", "fusion_lat": 0.0, "name": "a175174847a8fcf9e64a01e69a5ca3b0", "is_reserved": 0, "rental_uris": {"android": "https://dc.lft.to/lastmile_qr_scan", "ios": "https://dc.lft.to/lastmile_qr_scan"}, "fusion_lon": 0.0}, {"lat": 38.892216, "is_disabled": 0, "type": "electric_scooter", "lon": -77.0480225, "bike_id": "da5eaffece5e1228ca4a7e3af1e12701", "fusion_lat": 0.0, "name": "da5eaffece5e1228ca4a7e3af1e12701", "is_reserved": 0, "rental_uris": {"android": "https://dc.lft.to/lastmile_qr_scan", "ios": "https://dc.lft.to/lastmile_qr_scan"}, "fusion_lon": 0.0}, {"lat": 38.87383166666667, "is_disabled": 0, "type": "electric_scooter", "lon": -77.000564, "bike_id": "375a27c77c90f749847c0dd0b0f672d5", "fusion_lat": 0.0, "name": "375a27c77c90f749847c0dd0b0f672d5", "is_reserved": 0, "rental_uris": {"android": "https://dc.lft.to/lastmile_qr_scan", "ios": "https://dc.lft.to/lastmile_qr_scan"}, "fusion_lon": 0.0}, {"lat": 38.901370166666666, "is_disabled": 0, "type": "electric_scooter", "lon": -77.00071, "bike_id": "46fb66aba38f8d6db73de56a755b9601", "fusion_lat": 0.0, "name": "46fb66aba38f8d6db73de56a755b9601", "is_reserved": 0, "rental_uris": {"android": "https://dc.lft.to/lastmile_qr_scan", "ios": "https://dc.lft.to/lastmile_qr_scan"}, "fusion_lon": 0.0}, {"lat": 38.887023666666664, "is_disabled": 0, "type": "electric_scooter", "lon": -77.00152633333333, "bike_id": "71dc4a1af9497390c775072fbfe54af5", "fusion_lat": 0.0, "name": "71dc4a1af9497390c775072fbfe54af5", "is_reserved": 0, "rental_uris": {"android": "https://dc.lft.to/lastmile_qr_scan", "ios": "https://dc.lft.to/lastmile_qr_scan"}, "fusion_lon": 0.0}, {"lat": 38.915471833333335, "is_disabled": 0, "type": "electric_scooter", "lon": -77.03516716666667, "bike_id": "621ebe856a4cba65e0f11e880bca9a6b", "fusion_lat": 0.0, "name": "621ebe856a4cba65e0f11e880bca9a6b", "is_reserved": 0, "rental_uris": {"android": "https://dc.lft.to/lastmile_qr_scan", "ios": "https://dc.lft.to/lastmile_qr_scan"}, "fusion_lon": 0.0}, {"lat": 38.90618116666667, "is_disabled": 0, "type": "electric_scooter", "lon": -77.07030333333333, "bike_id": "94c95161218e4655ee3aa22f7eea62f8", "fusion_lat": 0.0, "name": "94c95161218e4655ee3aa22f7eea62f8", "is_reserved": 0, "rental_uris": {"android": "https://dc.lft.to/lastmile_qr_scan", "ios": "https://dc.lft.to/lastmile_qr_scan"}, "fusion_lon": 0.0}, {"lat": 38.92173616666667, "is_disabled": 0, "type": "electric_scooter", "lon": -77.042504, "bike_id": "6c138d2a836de4d5d01b8a499d4cfe84", "fusion_lat": 0.0, "name": "6c138d2a836de4d5d01b8a499d4cfe84", "is_reserved": 0, "rental_uris": {"android": "https://dc.lft.to/lastmile_qr_scan", "ios": "https://dc.lft.to/lastmile_qr_scan"}, "fusion_lon": 0.0}, {"lat": 38.90491266666667, "is_disabled": 0, "type": "electric_scooter", "lon": -77.0466305, "bike_id": "4a799ab9eda8da160b66debff2db059d", "fusion_lat": 0.0, "name": "4a799ab9eda8da160b66debff2db059d", "is_reserved": 0, "rental_uris": {"android": "https://dc.lft.to/lastmile_qr_scan", "ios": "https://dc.lft.to/lastmile_qr_scan"}, "fusion_lon": 0.0}, {"lat": 38.8429265, "is_disabled": 0, "type": "electric_scooter", "lon": -76.99954516666666, "bike_id": "0e51b57e3bedfcc4fd618dcdbb89d910", "fusion_lat": 0.0, "name": "0e51b57e3bedfcc4fd618dcdbb89d910", "is_reserved": 0, "rental_uris": {"android": "https://dc.lft.to/lastmile_qr_scan", "ios": "https://dc.lft.to/lastmile_qr_scan"}, "fusion_lon": 0.0}, {"lat": 38.923855333333336, "is_disabled": 0, "type": "electric_scooter", "lon": -77.04079, "bike_id": "e5929c4a4683c25abb5a19659ad62078", "fusion_lat": 0.0, "name": "e5929c4a4683c25abb5a19659ad62078", "is_reserved": 0, "rental_uris": {"android": "https://dc.lft.to/lastmile_qr_scan", "ios": "https://dc.lft.to/lastmile_qr_scan"}, "fusion_lon": 0.0}, {"lat": 38.893684666666665, "is_disabled": 0, "type": "electric_scooter", "lon": -76.9499995, "bike_id": "7a026a1e7614f0137275e4058d5ebc0b", "fusion_lat": 0.0, "name": "7a026a1e7614f0137275e4058d5ebc0b", "is_reserved": 0, "rental_uris": {"android": "https://dc.lft.to/lastmile_qr_scan", "ios": "https://dc.lft.to/lastmile_qr_scan"}, "fusion_lon": 0.0}, {"lat": 38.90106433333333, "is_disabled": 0, "type": "electric_scooter", "lon": -77.01819516666667, "bike_id": "f9417f8d9b80c53087774a4384d05518", "fusion_lat": 0.0, "name": "f9417f8d9b80c53087774a4384d05518", "is_reserved": 0, "rental_uris": {"android": "https://dc.lft.to/lastmile_qr_scan", "ios": "https://dc.lft.to/lastmile_qr_scan"}, "fusion_lon": 0.0}, {"lat": 38.842716333333335, "is_disabled": 0, "type": "electric_bike", "lon": -76.98848616666666, "bike_id": "f816276718651910ec9baa5650db36e3", "fusion_lat": 0.0, "name": "f816276718651910ec9baa5650db36e3", "is_reserved": 0, "rental_uris": {"android": "https://dc.lft.to/lastmile_qr_scan", "ios": "https://dc.lft.to/lastmile_qr_scan"}, "fusion_lon": 0.0}, {"lat": 38.84934833333333, "is_disabled": 0, "type": "electric_bike", "lon": -77.10019766666667, "bike_id": "8efe883a7f26c02c8dd57ecacb70735c", "fusion_lat": 0.0, "name": "8efe883a7f26c02c8dd57ecacb70735c", "is_reserved": 0, "rental_uris": {"android": "https://dc.lft.to/lastmile_qr_scan", "ios": "https://dc.lft.to/lastmile_qr_scan"}, "fusion_lon": 0.0}, {"lat": 38.88478, "is_disabled": 0, "type": "electric_scooter", "lon": -77.0153675, "bike_id": "4e919073d4d55bc7f18facbed4388321", "fusion_lat": 0.0, "name": "4e919073d4d55bc7f18facbed4388321", "is_reserved": 0, "rental_uris": {"android": "https://dc.lft.to/lastmile_qr_scan", "ios": "https://dc.lft.to/lastmile_qr_scan"}, "fusion_lon": 0.0}, {"lat": 38.92464316666667, "is_disabled": 0, "type": "electric_scooter", "lon": -77.02895433333333, "bike_id": "9cb22dfa6eaa403e9375ce0286e96ab6", "fusion_lat": 0.0, "name": "9cb22dfa6eaa403e9375ce0286e96ab6", "is_reserved": 0, "rental_uris": {"android": "https://dc.lft.to/lastmile_qr_scan", "ios": "https://dc.lft.to/lastmile_qr_scan"}, "fusion_lon": 0.0}, {"lat": 38.9095, "is_disabled": 0, "type": "electric_scooter", "lon": -77.04834216666667, "bike_id": "cf22cfee29eae581a64e83a01c8ccfdd", "fusion_lat": 0.0, "name": "cf22cfee29eae581a64e83a01c8ccfdd", "is_reserved": 0, "rental_uris": {"android": "https://dc.lft.to/lastmile_qr_scan", "ios": "https://dc.lft.to/lastmile_qr_scan"}, "fusion_lon": 0.0}, {"lat": 38.90961166666666, "is_disabled": 0, "type": "electric_scooter", "lon": -76.98443766666666, "bike_id": "38334bce61eaa6d7f15b93c4defe752f", "fusion_lat": 0.0, "name": "38334bce61eaa6d7f15b93c4defe752f", "is_reserved": 0, "rental_uris": {"android": "https://dc.lft.to/lastmile_qr_scan", "ios": "https://dc.lft.to/lastmile_qr_scan"}, "fusion_lon": 0.0}, {"lat": 38.92179933333333, "is_disabled": 0, "type": "electric_scooter", "lon": -77.02414883333333, "bike_id": "8ea15f0a5940b150943b4dd63d36d70c", "fusion_lat": 0.0, "name": "8ea15f0a5940b150943b4dd63d36d70c", "is_reserved": 0, "rental_uris": {"android": "https://dc.lft.to/lastmile_qr_scan", "ios": "https://dc.lft.to/lastmile_qr_scan"}, "fusion_lon": 0.0}, {"lat": 38.9213685, "is_disabled": 0, "type": "electric_scooter", "lon": -77.01809683333333, "bike_id": "97e8126c5795ee4a7870387243465fd7", "fusion_lat": 0.0, "name": "97e8126c5795ee4a7870387243465fd7", "is_reserved": 0, "rental_uris": {"android": "https://dc.lft.to/lastmile_qr_scan", "ios": "https://dc.lft.to/lastmile_qr_scan"}, "fusion_lon": 0.0}, {"lat": 38.86618816666667, "is_disabled": 0, "type": "electric_scooter", "lon": -76.98702233333333, "bike_id": "aaccd1e583b04d253d0e010218fba62c", "fusion_lat": 0.0, "name": "aaccd1e583b04d253d0e010218fba62c", "is_reserved": 0, "rental_uris": {"android": "https://dc.lft.to/lastmile_qr_scan", "ios": "https://dc.lft.to/lastmile_qr_scan"}, "fusion_lon": 0.0}, {"lat": 38.91118433333333, "is_disabled": 0, "type": "electric_scooter", "lon": -77.04462133333334, "bike_id": "3bfa003b630bbd99ab76b24d4fef57c3", "fusion_lat": 0.0, "name": "3bfa003b630bbd99ab76b24d4fef57c3", "is_reserved": 0, "rental_uris": {"android": "https://dc.lft.to/lastmile_qr_scan", "ios": "https://dc.lft.to/lastmile_qr_scan"}, "fusion_lon": 0.0}, {"lat": 38.918802, "is_disabled": 0, "type": "electric_scooter", "lon": -77.02972616666666, "bike_id": "92cec4a24a522da0c272cd9ef6b07fe5", "fusion_lat": 0.0, "name": "92cec4a24a522da0c272cd9ef6b07fe5", "is_reserved": 0, "rental_uris": {"android": "https://dc.lft.to/lastmile_qr_scan", "ios": "https://dc.lft.to/lastmile_qr_scan"}, "fusion_lon": 0.0}, {"lat": 38.91808783333333, "is_disabled": 0, "type": "electric_scooter", "lon": -77.034489, "bike_id": "8c55cf58e9aae6fd153fa8ad0a511691", "fusion_lat": 0.0, "name": "8c55cf58e9aae6fd153fa8ad0a511691", "is_reserved": 0, "rental_uris": {"android": "https://dc.lft.to/lastmile_qr_scan", "ios": "https://dc.lft.to/lastmile_qr_scan"}, "fusion_lon": 0.0}, {"lat": 38.89223916666667, "is_disabled": 0, "type": "electric_scooter", "lon": -77.02826983333334, "bike_id": "35671b5c6c33e4fb42987438dc51915d", "fusion_lat": 0.0, "name": "35671b5c6c33e4fb42987438dc51915d", "is_reserved": 0, "rental_uris": {"android": "https://dc.lft.to/lastmile_qr_scan", "ios": "https://dc.lft.to/lastmile_qr_scan"}, "fusion_lon": 0.0}, {"lat": 38.88128666666667, "is_disabled": 0, "type": "electric_bike", "lon": -76.98095716666667, "bike_id": "4413b7618b84a7d9bfa65c581123da68", "fusion_lat": 0.0, "name": "4413b7618b84a7d9bfa65c581123da68", "is_reserved": 0, "rental_uris": {"android": "https://dc.lft.to/lastmile_qr_scan", "ios": "https://dc.lft.to/lastmile_qr_scan"}, "fusion_lon": 0.0}, {"lat": 38.909689, "is_disabled": 0, "type": "electric_scooter", "lon": -77.03196133333333, "bike_id": "c77994f213b777c82250af78350407a5", "fusion_lat": 0.0, "name": "c77994f213b777c82250af78350407a5", "is_reserved": 0, "rental_uris": {"android": "https://dc.lft.to/lastmile_qr_scan", "ios": "https://dc.lft.to/lastmile_qr_scan"}, "fusion_lon": 0.0}, {"lat": 38.899873, "is_disabled": 0, "type": "electric_scooter", "lon": -77.0525395, "bike_id": "e79bb7790a0d1bdde7039ca57c323ce4", "fusion_lat": 0.0, "name": "e79bb7790a0d1bdde7039ca57c323ce4", "is_reserved": 0, "rental_uris": {"android": "https://dc.lft.to/lastmile_qr_scan", "ios": "https://dc.lft.to/lastmile_qr_scan"}, "fusion_lon": 0.0}, {"lat": 38.86654683333333, "is_disabled": 0, "type": "electric_scooter", "lon": -76.990146, "bike_id": "0801ea0a362583ff7dac41ca7d2e4ea6", "fusion_lat": 0.0, "name": "0801ea0a362583ff7dac41ca7d2e4ea6", "is_reserved": 0, "rental_uris": {"android": "https://dc.lft.to/lastmile_qr_scan", "ios": "https://dc.lft.to/lastmile_qr_scan"}, "fusion_lon": 0.0}, {"lat": 38.90815966666667, "is_disabled": 0, "type": "electric_scooter", "lon": -76.941493, "bike_id": "1fa2f4c631d4633731af16190186e765", "fusion_lat": 0.0, "name": "1fa2f4c631d4633731af16190186e765", "is_reserved": 0, "rental_uris": {"android": "https://dc.lft.to/lastmile_qr_scan", "ios": "https://dc.lft.to/lastmile_qr_scan"}, "fusion_lon": 0.0}, {"lat": 38.923679, "is_disabled": 0, "type": "electric_scooter", "lon": -77.01915833333334, "bike_id": "5b341b8acd1c52b6caf2e71ed1b46c39", "fusion_lat": 0.0, "name": "5b341b8acd1c52b6caf2e71ed1b46c39", "is_reserved": 0, "rental_uris": {"android": "https://dc.lft.to/lastmile_qr_scan", "ios": "https://dc.lft.to/lastmile_qr_scan"}, "fusion_lon": 0.0}, {"lat": 38.9206615, "is_disabled": 0, "type": "electric_scooter", "lon": -77.04509883333333, "bike_id": "acf57654cccf55ecd46d207d7d7a5ccb", "fusion_lat": 0.0, "name": "acf57654cccf55ecd46d207d7d7a5ccb", "is_reserved": 0, "rental_uris": {"android": "https://dc.lft.to/lastmile_qr_scan", "ios": "https://dc.lft.to/lastmile_qr_scan"}, "fusion_lon": 0.0}, {"lat": 38.894136333333336, "is_disabled": 0, "type": "electric_scooter", "lon": -77.02051183333333, "bike_id": "938035d3ccdac29f1a7ecf83e88f5dbf", "fusion_lat": 0.0, "name": "938035d3ccdac29f1a7ecf83e88f5dbf", "is_reserved": 0, "rental_uris": {"android": "https://dc.lft.to/lastmile_qr_scan", "ios": "https://dc.lft.to/lastmile_qr_scan"}, "fusion_lon": 0.0}, {"lat": 38.903116833333335, "is_disabled": 0, "type": "electric_scooter", "lon": -77.02890666666667, "bike_id": "cede9e0c8e1d1facfa7a2022a0472614", "fusion_lat": 0.0, "name": "cede9e0c8e1d1facfa7a2022a0472614", "is_reserved": 0, "rental_uris": {"android": "https://dc.lft.to/lastmile_qr_scan", "ios": "https://dc.lft.to/lastmile_qr_scan"}, "fusion_lon": 0.0}, {"lat": 38.839862, "is_disabled": 0, "type": "electric_bike", "lon": -77.00570783333333, "bike_id": "6146b9b058d01a3b090a03e0ba961dfd", "fusion_lat": 0.0, "name": "6146b9b058d01a3b090a03e0ba961dfd", "is_reserved": 0, "rental_uris": {"android": "https://dc.lft.to/lastmile_qr_scan", "ios": "https://dc.lft.to/lastmile_qr_scan"}, "fusion_lon": 0.0}, {"lat": 38.92147533333333, "is_disabled": 0, "type": "electric_scooter", "lon": -77.042407, "bike_id": "ebb884fab03ce2f17d4148b367f2fb02", "fusion_lat": 0.0, "name": "ebb884fab03ce2f17d4148b367f2fb02", "is_reserved": 0, "rental_uris": {"android": "https://dc.lft.to/lastmile_qr_scan", "ios": "https://dc.lft.to/lastmile_qr_scan"}, "fusion_lon": 0.0}, {"lat": 38.892731166666664, "is_disabled": 0, "type": "electric_scooter", "lon": -77.05034333333333, "bike_id": "34ff1c241e76d65638863fe3a828b345", "fusion_lat": 0.0, "name": "34ff1c241e76d65638863fe3a828b345", "is_reserved": 0, "rental_uris": {"android": "https://dc.lft.to/lastmile_qr_scan", "ios": "https://dc.lft.to/lastmile_qr_scan"}, "fusion_lon": 0.0}, {"lat": 38.910131166666666, "is_disabled": 0, "type": "electric_scooter", "lon": -77.02722683333333, "bike_id": "45d57f8d2d034e13d575814c86c6478a", "fusion_lat": 0.0, "name": "45d57f8d2d034e13d575814c86c6478a", "is_reserved": 0, "rental_uris": {"android": "https://dc.lft.to/lastmile_qr_scan", "ios": "https://dc.lft.to/lastmile_qr_scan"}, "fusion_lon": 0.0}, {"lat": 38.89037316666667, "is_disabled": 0, "type": "electric_scooter", "lon": -76.94085316666667, "bike_id": "d55da466fa3bd5fa79db5b3ac94e927f", "fusion_lat": 0.0, "name": "d55da466fa3bd5fa79db5b3ac94e927f", "is_reserved": 0, "rental_uris": {"android": "https://dc.lft.to/lastmile_qr_scan", "ios": "https://dc.lft.to/lastmile_qr_scan"}, "fusion_lon": 0.0}, {"lat": 38.9173225, "is_disabled": 0, "type": "electric_scooter", "lon": -77.03209516666666, "bike_id": "8024c9147f2a55773ee9da3a4d97ab63", "fusion_lat": 0.0, "name": "8024c9147f2a55773ee9da3a4d97ab63", "is_reserved": 0, "rental_uris": {"android": "https://dc.lft.to/lastmile_qr_scan", "ios": "https://dc.lft.to/lastmile_qr_scan"}, "fusion_lon": 0.0}, {"lat": 38.920919, "is_disabled": 0, "type": "electric_scooter", "lon": -77.0437555, "bike_id": "c4ef39399510db9cfeefea13061cfb28", "fusion_lat": 0.0, "name": "c4ef39399510db9cfeefea13061cfb28", "is_reserved": 0, "rental_uris": {"android": "https://dc.lft.to/lastmile_qr_scan", "ios": "https://dc.lft.to/lastmile_qr_scan"}, "fusion_lon": 0.0}, {"lat": 38.905572666666664, "is_disabled": 0, "type": "electric_scooter", "lon": -77.0435775, "bike_id": "a0c9d2c7997620d267ee6264396187fd", "fusion_lat": 0.0, "name": "a0c9d2c7997620d267ee6264396187fd", "is_reserved": 0, "rental_uris": {"android": "https://dc.lft.to/lastmile_qr_scan", "ios": "https://dc.lft.to/lastmile_qr_scan"}, "fusion_lon": 0.0}, {"lat": 38.87187566666667, "is_disabled": 0, "type": "electric_scooter", "lon": -76.97385383333334, "bike_id": "a65cf23c04ae3c467bf4e990c0a58268", "fusion_lat": 0.0, "name": "a65cf23c04ae3c467bf4e990c0a58268", "is_reserved": 0, "rental_uris": {"android": "https://dc.lft.to/lastmile_qr_scan", "ios": "https://dc.lft.to/lastmile_qr_scan"}, "fusion_lon": 0.0}, {"lat": 38.93040533333333, "is_disabled": 0, "type": "electric_scooter", "lon": -77.03222116666667, "bike_id": "5543ecfaeb31bb8fb92d182a5483c266", "fusion_lat": 0.0, "name": "5543ecfaeb31bb8fb92d182a5483c266", "is_reserved": 0, "rental_uris": {"android": "https://dc.lft.to/lastmile_qr_scan", "ios": "https://dc.lft.to/lastmile_qr_scan"}, "fusion_lon": 0.0}, {"lat": 38.958816666666664, "is_disabled": 0, "type": "electric_bike", "lon": -76.9250655, "bike_id": "d7525b44a648f659f0f46048afeb4948", "fusion_lat": 0.0, "name": "d7525b44a648f659f0f46048afeb4948", "is_reserved": 0, "rental_uris": {"android": "https://dc.lft.to/lastmile_qr_scan", "ios": "https://dc.lft.to/lastmile_qr_scan"}, "fusion_lon": 0.0}, {"lat": 38.90860883333333, "is_disabled": 0, "type": "electric_scooter", "lon": -77.00614316666666, "bike_id": "a79d5da0a20c75b26f09a752846fb8c0", "fusion_lat": 0.0, "name": "a79d5da0a20c75b26f09a752846fb8c0", "is_reserved": 0, "rental_uris": {"android": "https://dc.lft.to/lastmile_qr_scan", "ios": "https://dc.lft.to/lastmile_qr_scan"}, "fusion_lon": 0.0}, {"lat": 38.90669666666667, "is_disabled": 0, "type": "electric_scooter", "lon": -76.9878735, "bike_id": "0eebcd00fb1d6eea2635f465bb17edfe", "fusion_lat": 0.0, "name": "0eebcd00fb1d6eea2635f465bb17edfe", "is_reserved": 0, "rental_uris": {"android": "https://dc.lft.to/lastmile_qr_scan", "ios": "https://dc.lft.to/lastmile_qr_scan"}, "fusion_lon": 0.0}, {"lat": 38.899930499999996, "is_disabled": 0, "type": "electric_scooter", "lon": -77.05237683333333, "bike_id": "1f08a0391fee5c0b788fe6cca55de4c3", "fusion_lat": 0.0, "name": "1f08a0391fee5c0b788fe6cca55de4c3", "is_reserved": 0, "rental_uris": {"android": "https://dc.lft.to/lastmile_qr_scan", "ios": "https://dc.lft.to/lastmile_qr_scan"}, "fusion_lon": 0.0}, {"lat": 38.92545033333333, "is_disabled": 0, "type": "electric_scooter", "lon": -77.036622, "bike_id": "73e96c26970e574d5231b7f218bec69b", "fusion_lat": 0.0, "name": "73e96c26970e574d5231b7f218bec69b", "is_reserved": 0, "rental_uris": {"android": "https://dc.lft.to/lastmile_qr_scan", "ios": "https://dc.lft.to/lastmile_qr_scan"}, "fusion_lon": 0.0}, {"lat": 38.90641683333333, "is_disabled": 0, "type": "electric_scooter", "lon": -77.04242866666667, "bike_id": "7e39a7e039d40937cd87d3efe84c5dad", "fusion_lat": 0.0, "name": "7e39a7e039d40937cd87d3efe84c5dad", "is_reserved": 0, "rental_uris": {"android": "https://dc.lft.to/lastmile_qr_scan", "ios": "https://dc.lft.to/lastmile_qr_scan"}, "fusion_lon": 0.0}, {"lat": 38.895111, "is_disabled": 0, "type": "electric_scooter", "lon": -77.04844283333334, "bike_id": "b6b221daa5b7cb71111aa564b447d8f9", "fusion_lat": 0.0, "name": "b6b221daa5b7cb71111aa564b447d8f9", "is_reserved": 0, "rental_uris": {"android": "https://dc.lft.to/lastmile_qr_scan", "ios": "https://dc.lft.to/lastmile_qr_scan"}, "fusion_lon": 0.0}, {"lat": 38.91402466666667, "is_disabled": 0, "type": "electric_scooter", "lon": -77.02050616666666, "bike_id": "30261348c9fbcc59b2ab7a947a25da96", "fusion_lat": 0.0, "name": "30261348c9fbcc59b2ab7a947a25da96", "is_reserved": 0, "rental_uris": {"android": "https://dc.lft.to/lastmile_qr_scan", "ios": "https://dc.lft.to/lastmile_qr_scan"}, "fusion_lon": 0.0}, {"lat": 38.90881316666667, "is_disabled": 0, "type": "electric_scooter", "lon": -77.03466266666666, "bike_id": "873c2565b0f92b82e945d6bed9c82175", "fusion_lat": 0.0, "name": "873c2565b0f92b82e945d6bed9c82175", "is_reserved": 0, "rental_uris": {"android": "https://dc.lft.to/lastmile_qr_scan", "ios": "https://dc.lft.to/lastmile_qr_scan"}, "fusion_lon": 0.0}, {"lat": 38.903817833333335, "is_disabled": 0, "type": "electric_scooter", "lon": -77.04179416666666, "bike_id": "ffd8a0aef20d2fbcedfd5a961742f18a", "fusion_lat": 0.0, "name": "ffd8a0aef20d2fbcedfd5a961742f18a", "is_reserved": 0, "rental_uris": {"android": "https://dc.lft.to/lastmile_qr_scan", "ios": "https://dc.lft.to/lastmile_qr_scan"}, "fusion_lon": 0.0}, {"lat": 38.91622516666666, "is_disabled": 0, "type": "electric_scooter", "lon": -77.03176533333334, "bike_id": "6d8f3f2fdf4236a087262682610f2993", "fusion_lat": 0.0, "name": "6d8f3f2fdf4236a087262682610f2993", "is_reserved": 0, "rental_uris": {"android": "https://dc.lft.to/lastmile_qr_scan", "ios": "https://dc.lft.to/lastmile_qr_scan"}, "fusion_lon": 0.0}, {"lat": 38.889239, "is_disabled": 0, "type": "electric_scooter", "lon": -76.97375866666667, "bike_id": "06c055a59c21bfb14616776638515b7a", "fusion_lat": 0.0, "name": "06c055a59c21bfb14616776638515b7a", "is_reserved": 0, "rental_uris": {"android": "https://dc.lft.to/lastmile_qr_scan", "ios": "https://dc.lft.to/lastmile_qr_scan"}, "fusion_lon": 0.0}, {"lat": 38.93256233333334, "is_disabled": 0, "type": "electric_scooter", "lon": -77.0326445, "bike_id": "ef134e49a88df648d9697afbf595a92b", "fusion_lat": 0.0, "name": "ef134e49a88df648d9697afbf595a92b", "is_reserved": 0, "rental_uris": {"android": "https://dc.lft.to/lastmile_qr_scan", "ios": "https://dc.lft.to/lastmile_qr_scan"}, "fusion_lon": 0.0}, {"lat": 38.93077016666667, "is_disabled": 0, "type": "electric_scooter", "lon": -77.02809533333334, "bike_id": "0b1868e9a416bd46339a299afa3717a8", "fusion_lat": 0.0, "name": "0b1868e9a416bd46339a299afa3717a8", "is_reserved": 0, "rental_uris": {"android": "https://dc.lft.to/lastmile_qr_scan", "ios": "https://dc.lft.to/lastmile_qr_scan"}, "fusion_lon": 0.0}, {"lat": 38.928378333333335, "is_disabled": 0, "type": "electric_scooter", "lon": -77.03264316666667, "bike_id": "304d4361d01b0357b7f1609683e5c74c", "fusion_lat": 0.0, "name": "304d4361d01b0357b7f1609683e5c74c", "is_reserved": 0, "rental_uris": {"android": "https://dc.lft.to/lastmile_qr_scan", "ios": "https://dc.lft.to/lastmile_qr_scan"}, "fusion_lon": 0.0}, {"lat": 38.887187833333336, "is_disabled": 0, "type": "electric_scooter", "lon": -77.013852, "bike_id": "244c69e8cbc0a3ce4aeb174d605b6b5c", "fusion_lat": 0.0, "name": "244c69e8cbc0a3ce4aeb174d605b6b5c", "is_reserved": 0, "rental_uris": {"android": "https://dc.lft.to/lastmile_qr_scan", "ios": "https://dc.lft.to/lastmile_qr_scan"}, "fusion_lon": 0.0}, {"lat": 38.92105733333333, "is_disabled": 0, "type": "electric_scooter", "lon": -77.0422335, "bike_id": "c256497b8bfe0823152a5785ee7aa8e2", "fusion_lat": 0.0, "name": "c256497b8bfe0823152a5785ee7aa8e2", "is_reserved": 0, "rental_uris": {"android": "https://dc.lft.to/lastmile_qr_scan", "ios": "https://dc.lft.to/lastmile_qr_scan"}, "fusion_lon": 0.0}, {"lat": 38.90631716666667, "is_disabled": 0, "type": "electric_scooter", "lon": -77.062938, "bike_id": "de7606eb453cfceac31e870b7e64ee26", "fusion_lat": 0.0, "name": "de7606eb453cfceac31e870b7e64ee26", "is_reserved": 0, "rental_uris": {"android": "https://dc.lft.to/lastmile_qr_scan", "ios": "https://dc.lft.to/lastmile_qr_scan"}, "fusion_lon": 0.0}, {"lat": 38.966988, "is_disabled": 0, "type": "electric_bike", "lon": -77.1022715, "bike_id": "d6a3bd1f7f13ee633ff6439826ae924e", "fusion_lat": 0.0, "name": "d6a3bd1f7f13ee633ff6439826ae924e", "is_reserved": 0, "rental_uris": {"android": "https://dc.lft.to/lastmile_qr_scan", "ios": "https://dc.lft.to/lastmile_qr_scan"}, "fusion_lon": 0.0}, {"lat": 38.8616135, "is_disabled": 0, "type": "electric_bike", "lon": -77.13092683333333, "bike_id": "8cd9b0ed7f186b876808a8cb006c2517", "fusion_lat": 0.0, "name": "8cd9b0ed7f186b876808a8cb006c2517", "is_reserved": 0, "rental_uris": {"android": "https://dc.lft.to/lastmile_qr_scan", "ios": "https://dc.lft.to/lastmile_qr_scan"}, "fusion_lon": 0.0}, {"lat": 38.890958166666664, "is_disabled": 0, "type": "electric_scooter", "lon": -77.00193483333334, "bike_id": "80e84789b2055af1829cb487886c7e1f", "fusion_lat": 0.0, "name": "80e84789b2055af1829cb487886c7e1f", "is_reserved": 0, "rental_uris": {"android": "https://dc.lft.to/lastmile_qr_scan", "ios": "https://dc.lft.to/lastmile_qr_scan"}, "fusion_lon": 0.0}, {"lat": 38.917570166666664, "is_disabled": 0, "type": "electric_scooter", "lon": -77.03201816666666, "bike_id": "3d1812df68fedae330a8beac396f747d", "fusion_lat": 0.0, "name": "3d1812df68fedae330a8beac396f747d", "is_reserved": 0, "rental_uris": {"android": "https://dc.lft.to/lastmile_qr_scan", "ios": "https://dc.lft.to/lastmile_qr_scan"}, "fusion_lon": 0.0}, {"lat": 38.86562216666667, "is_disabled": 0, "type": "electric_scooter", "lon": -76.989592, "bike_id": "3fbb6fa78e89464f2abfdcb4c5873f23", "fusion_lat": 0.0, "name": "3fbb6fa78e89464f2abfdcb4c5873f23", "is_reserved": 0, "rental_uris": {"android": "https://dc.lft.to/lastmile_qr_scan", "ios": "https://dc.lft.to/lastmile_qr_scan"}, "fusion_lon": 0.0}, {"lat": 38.9483375, "is_disabled": 0, "type": "electric_scooter", "lon": -77.02560383333334, "bike_id": "9b5cf92fd8b45f91cc1b30d8dc84abc1", "fusion_lat": 0.0, "name": "9b5cf92fd8b45f91cc1b30d8dc84abc1", "is_reserved": 0, "rental_uris": {"android": "https://dc.lft.to/lastmile_qr_scan", "ios": "https://dc.lft.to/lastmile_qr_scan"}, "fusion_lon": 0.0}, {"lat": 38.892198, "is_disabled": 0, "type": "electric_scooter", "lon": -77.028226, "bike_id": "4255d4c5f02625148d6dc53b89b8a21e", "fusion_lat": 0.0, "name": "4255d4c5f02625148d6dc53b89b8a21e", "is_reserved": 0, "rental_uris": {"android": "https://dc.lft.to/lastmile_qr_scan", "ios": "https://dc.lft.to/lastmile_qr_scan"}, "fusion_lon": 0.0}, {"lat": 38.90028933333333, "is_disabled": 0, "type": "electric_scooter", "lon": -77.043225, "bike_id": "2b3d01989460b2dada56b20444900149", "fusion_lat": 0.0, "name": "2b3d01989460b2dada56b20444900149", "is_reserved": 0, "rental_uris": {"android": "https://dc.lft.to/lastmile_qr_scan", "ios": "https://dc.lft.to/lastmile_qr_scan"}, "fusion_lon": 0.0}, {"lat": 38.89961783333333, "is_disabled": 0, "type": "electric_scooter", "lon": -77.033514, "bike_id": "dfbc94693a4ec0bdd3eb7e63d4b96373", "fusion_lat": 0.0, "name": "dfbc94693a4ec0bdd3eb7e63d4b96373", "is_reserved": 0, "rental_uris": {"android": "https://dc.lft.to/lastmile_qr_scan", "ios": "https://dc.lft.to/lastmile_qr_scan"}, "fusion_lon": 0.0}, {"lat": 38.915441, "is_disabled": 0, "type": "electric_scooter", "lon": -77.03173733333334, "bike_id": "61e217d04bf7d104618f16f0a5ed52c0", "fusion_lat": 0.0, "name": "61e217d04bf7d104618f16f0a5ed52c0", "is_reserved": 0, "rental_uris": {"android": "https://dc.lft.to/lastmile_qr_scan", "ios": "https://dc.lft.to/lastmile_qr_scan"}, "fusion_lon": 0.0}, {"lat": 38.911087, "is_disabled": 0, "type": "electric_scooter", "lon": -77.048416, "bike_id": "f2db0a1c9cacd68d87ad1306b17ab53a", "fusion_lat": 0.0, "name": "f2db0a1c9cacd68d87ad1306b17ab53a", "is_reserved": 0, "rental_uris": {"android": "https://dc.lft.to/lastmile_qr_scan", "ios": "https://dc.lft.to/lastmile_qr_scan"}, "fusion_lon": 0.0}, {"lat": 38.8937145, "is_disabled": 0, "type": "electric_scooter", "lon": -76.94976033333333, "bike_id": "6b5d8698c2b2520793376d0575417c22", "fusion_lat": 0.0, "name": "6b5d8698c2b2520793376d0575417c22", "is_reserved": 0, "rental_uris": {"android": "https://dc.lft.to/lastmile_qr_scan", "ios": "https://dc.lft.to/lastmile_qr_scan"}, "fusion_lon": 0.0}, {"lat": 38.87181916666667, "is_disabled": 0, "type": "electric_bike", "lon": -77.08405833333333, "bike_id": "3925f910e44a2bb6f4049dbe4f2d7a74", "fusion_lat": 0.0, "name": "3925f910e44a2bb6f4049dbe4f2d7a74", "is_reserved": 0, "rental_uris": {"android": "https://dc.lft.to/lastmile_qr_scan", "ios": "https://dc.lft.to/lastmile_qr_scan"}, "fusion_lon": 0.0}, {"lat": 38.925064666666664, "is_disabled": 0, "type": "electric_scooter", "lon": -77.02163, "bike_id": "f4edb66d987412806dd2f6eadea0be52", "fusion_lat": 0.0, "name": "f4edb66d987412806dd2f6eadea0be52", "is_reserved": 0, "rental_uris": {"android": "https://dc.lft.to/lastmile_qr_scan", "ios": "https://dc.lft.to/lastmile_qr_scan"}, "fusion_lon": 0.0}, {"lat": 38.892212666666666, "is_disabled": 0, "type": "electric_scooter", "lon": -77.039786, "bike_id": "3c43386d31a002bd8cfe843755427c54", "fusion_lat": 0.0, "name": "3c43386d31a002bd8cfe843755427c54", "is_reserved": 0, "rental_uris": {"android": "https://dc.lft.to/lastmile_qr_scan", "ios": "https://dc.lft.to/lastmile_qr_scan"}, "fusion_lon": 0.0}, {"lat": 38.90562383333334, "is_disabled": 0, "type": "electric_scooter", "lon": -77.03084733333333, "bike_id": "7533a789a981bcc2f059657b8b86e958", "fusion_lat": 0.0, "name": "7533a789a981bcc2f059657b8b86e958", "is_reserved": 0, "rental_uris": {"android": "https://dc.lft.to/lastmile_qr_scan", "ios": "https://dc.lft.to/lastmile_qr_scan"}, "fusion_lon": 0.0}, {"lat": 38.8983135, "is_disabled": 0, "type": "electric_scooter", "lon": -77.03315533333334, "bike_id": "5aef4f7ec2b9f0f9f009ceb37a458600", "fusion_lat": 0.0, "name": "5aef4f7ec2b9f0f9f009ceb37a458600", "is_reserved": 0, "rental_uris": {"android": "https://dc.lft.to/lastmile_qr_scan", "ios": "https://dc.lft.to/lastmile_qr_scan"}, "fusion_lon": 0.0}, {"lat": 38.868991333333334, "is_disabled": 0, "type": "electric_bike", "lon": -77.13184166666667, "bike_id": "892a44d752c20f06e04a64e68edba182", "fusion_lat": 0.0, "name": "892a44d752c20f06e04a64e68edba182", "is_reserved": 0, "rental_uris": {"android": "https://dc.lft.to/lastmile_qr_scan", "ios": "https://dc.lft.to/lastmile_qr_scan"}, "fusion_lon": 0.0}, {"lat": 38.932840166666665, "is_disabled": 0, "type": "electric_scooter", "lon": -77.03982083333334, "bike_id": "de88b33ab54a17aa0d2ee8f9839c857a", "fusion_lat": 0.0, "name": "de88b33ab54a17aa0d2ee8f9839c857a", "is_reserved": 0, "rental_uris": {"android": "https://dc.lft.to/lastmile_qr_scan", "ios": "https://dc.lft.to/lastmile_qr_scan"}, "fusion_lon": 0.0}, {"lat": 38.93788766666667, "is_disabled": 0, "type": "electric_scooter", "lon": -77.02439283333334, "bike_id": "0ce5194793bae0693aad4fad68342c22", "fusion_lat": 0.0, "name": "0ce5194793bae0693aad4fad68342c22", "is_reserved": 0, "rental_uris": {"android": "https://dc.lft.to/lastmile_qr_scan", "ios": "https://dc.lft.to/lastmile_qr_scan"}, "fusion_lon": 0.0}, {"lat": 38.8961585, "is_disabled": 0, "type": "electric_scooter", "lon": -76.998461, "bike_id": "0e43adf20308bdf826664192fe7c9d7b", "fusion_lat": 0.0, "name": "0e43adf20308bdf826664192fe7c9d7b", "is_reserved": 0, "rental_uris": {"android": "https://dc.lft.to/lastmile_qr_scan", "ios": "https://dc.lft.to/lastmile_qr_scan"}, "fusion_lon": 0.0}, {"lat": 38.92577716666667, "is_disabled": 0, "type": "electric_scooter", "lon": -77.03234533333334, "bike_id": "8e07ed8b2ebb5a2bebee4322c136c533", "fusion_lat": 0.0, "name": "8e07ed8b2ebb5a2bebee4322c136c533", "is_reserved": 0, "rental_uris": {"android": "https://dc.lft.to/lastmile_qr_scan", "ios": "https://dc.lft.to/lastmile_qr_scan"}, "fusion_lon": 0.0}, {"lat": 38.89480566666667, "is_disabled": 0, "type": "electric_scooter", "lon": -77.022892, "bike_id": "ed77caaa0ce621041fa29a3f413ea455", "fusion_lat": 0.0, "name": "ed77caaa0ce621041fa29a3f413ea455", "is_reserved": 0, "rental_uris": {"android": "https://dc.lft.to/lastmile_qr_scan", "ios": "https://dc.lft.to/lastmile_qr_scan"}, "fusion_lon": 0.0}, {"lat": 38.899979, "is_disabled": 0, "type": "electric_scooter", "lon": -77.02356316666666, "bike_id": "e6690c3745b131f3bf1eaed679736746", "fusion_lat": 0.0, "name": "e6690c3745b131f3bf1eaed679736746", "is_reserved": 0, "rental_uris": {"android": "https://dc.lft.to/lastmile_qr_scan", "ios": "https://dc.lft.to/lastmile_qr_scan"}, "fusion_lon": 0.0}, {"lat": 38.84655516666667, "is_disabled": 0, "type": "electric_bike", "lon": -76.9793415, "bike_id": "7949430422dddd75299cede9bb33a1d0", "fusion_lat": 0.0, "name": "7949430422dddd75299cede9bb33a1d0", "is_reserved": 0, "rental_uris": {"android": "https://dc.lft.to/lastmile_qr_scan", "ios": "https://dc.lft.to/lastmile_qr_scan"}, "fusion_lon": 0.0}, {"lat": 38.920157, "is_disabled": 0, "type": "electric_scooter", "lon": -77.03135183333333, "bike_id": "7980cb1667539edb85f21b851992ade5", "fusion_lat": 0.0, "name": "7980cb1667539edb85f21b851992ade5", "is_reserved": 0, "rental_uris": {"android": "https://dc.lft.to/lastmile_qr_scan", "ios": "https://dc.lft.to/lastmile_qr_scan"}, "fusion_lon": 0.0}, {"lat": 38.916123, "is_disabled": 0, "type": "electric_scooter", "lon": -77.04885933333334, "bike_id": "7955e66a3db13bcc7af4c56bbcd4cad1", "fusion_lat": 0.0, "name": "7955e66a3db13bcc7af4c56bbcd4cad1", "is_reserved": 0, "rental_uris": {"android": "https://dc.lft.to/lastmile_qr_scan", "ios": "https://dc.lft.to/lastmile_qr_scan"}, "fusion_lon": 0.0}, {"lat": 38.897367833333334, "is_disabled": 0, "type": "electric_scooter", "lon": -77.04475966666666, "bike_id": "7f0b6eaafd970d8077096ea3db36fe33", "fusion_lat": 0.0, "name": "7f0b6eaafd970d8077096ea3db36fe33", "is_reserved": 0, "rental_uris": {"android": "https://dc.lft.to/lastmile_qr_scan", "ios": "https://dc.lft.to/lastmile_qr_scan"}, "fusion_lon": 0.0}, {"lat": 38.855171166666665, "is_disabled": 0, "type": "electric_bike", "lon": -77.12014566666667, "bike_id": "256dcddae8a9f1874e8ed18a099d1b40", "fusion_lat": 0.0, "name": "256dcddae8a9f1874e8ed18a099d1b40", "is_reserved": 0, "rental_uris": {"android": "https://dc.lft.to/lastmile_qr_scan", "ios": "https://dc.lft.to/lastmile_qr_scan"}, "fusion_lon": 0.0}, {"lat": 38.909204, "is_disabled": 0, "type": "electric_scooter", "lon": -77.03206333333333, "bike_id": "5250747e28efcb02b2d8e144648ef9f8", "fusion_lat": 0.0, "name": "5250747e28efcb02b2d8e144648ef9f8", "is_reserved": 0, "rental_uris": {"android": "https://dc.lft.to/lastmile_qr_scan", "ios": "https://dc.lft.to/lastmile_qr_scan"}, "fusion_lon": 0.0}, {"lat": 38.991724, "is_disabled": 0, "type": "electric_bike", "lon": -77.025775, "bike_id": "d37a9d7b9734791a7b734d50289583d3", "fusion_lat": 0.0, "name": "d37a9d7b9734791a7b734d50289583d3", "is_reserved": 0, "rental_uris": {"android": "https://dc.lft.to/lastmile_qr_scan", "ios": "https://dc.lft.to/lastmile_qr_scan"}, "fusion_lon": 0.0}, {"lat": 38.822611333333334, "is_disabled": 0, "type": "electric_bike", "lon": -77.058123, "bike_id": "00ba9ac8f1b1f564c32d91b7e1f7aab9", "fusion_lat": 0.0, "name": "00ba9ac8f1b1f564c32d91b7e1f7aab9", "is_reserved": 0, "rental_uris": {"android": "https://dc.lft.to/lastmile_qr_scan", "ios": "https://dc.lft.to/lastmile_qr_scan"}, "fusion_lon": 0.0}, {"lat": 38.929354833333335, "is_disabled": 0, "type": "electric_scooter", "lon": -77.032902, "bike_id": "9dc9adb504525bc3249e8d75b7b395e5", "fusion_lat": 0.0, "name": "9dc9adb504525bc3249e8d75b7b395e5", "is_reserved": 0, "rental_uris": {"android": "https://dc.lft.to/lastmile_qr_scan", "ios": "https://dc.lft.to/lastmile_qr_scan"}, "fusion_lon": 0.0}, {"lat": 38.89644933333334, "is_disabled": 0, "type": "electric_scooter", "lon": -77.009072, "bike_id": "774f40cb6cf6c9f8f1141d4927eced3b", "fusion_lat": 0.0, "name": "774f40cb6cf6c9f8f1141d4927eced3b", "is_reserved": 0, "rental_uris": {"android": "https://dc.lft.to/lastmile_qr_scan", "ios": "https://dc.lft.to/lastmile_qr_scan"}, "fusion_lon": 0.0}, {"lat": 38.93251983333333, "is_disabled": 0, "type": "electric_scooter", "lon": -77.032816, "bike_id": "c0ce645372d99b041f178fc3560d9d04", "fusion_lat": 0.0, "name": "c0ce645372d99b041f178fc3560d9d04", "is_reserved": 0, "rental_uris": {"android": "https://dc.lft.to/lastmile_qr_scan", "ios": "https://dc.lft.to/lastmile_qr_scan"}, "fusion_lon": 0.0}, {"lat": 38.857251, "is_disabled": 0, "type": "electric_scooter", "lon": -76.97895683333333, "bike_id": "ecf2b8fdce36916ba3c77859ebd0a8da", "fusion_lat": 0.0, "name": "ecf2b8fdce36916ba3c77859ebd0a8da", "is_reserved": 0, "rental_uris": {"android": "https://dc.lft.to/lastmile_qr_scan", "ios": "https://dc.lft.to/lastmile_qr_scan"}, "fusion_lon": 0.0}, {"lat": 38.938778, "is_disabled": 0, "type": "electric_scooter", "lon": -77.03287983333334, "bike_id": "d1dbc30ca99f82d9a3b4ecc5107a298a", "fusion_lat": 0.0, "name": "d1dbc30ca99f82d9a3b4ecc5107a298a", "is_reserved": 0, "rental_uris": {"android": "https://dc.lft.to/lastmile_qr_scan", "ios": "https://dc.lft.to/lastmile_qr_scan"}, "fusion_lon": 0.0}, {"lat": 38.86973583333334, "is_disabled": 0, "type": "electric_bike", "lon": -76.9599445, "bike_id": "1a4a603570af455330705a3e9568d7c8", "fusion_lat": 0.0, "name": "1a4a603570af455330705a3e9568d7c8", "is_reserved": 0, "rental_uris": {"android": "https://dc.lft.to/lastmile_qr_scan", "ios": "https://dc.lft.to/lastmile_qr_scan"}, "fusion_lon": 0.0}, {"lat": 38.8749185, "is_disabled": 0, "type": "electric_scooter", "lon": -77.0018215, "bike_id": "002b9e76d97f390689f48aa6eec83537", "fusion_lat": 0.0, "name": "002b9e76d97f390689f48aa6eec83537", "is_reserved": 0, "rental_uris": {"android": "https://dc.lft.to/lastmile_qr_scan", "ios": "https://dc.lft.to/lastmile_qr_scan"}, "fusion_lon": 0.0}, {"lat": 38.89828633333333, "is_disabled": 0, "type": "electric_scooter", "lon": -77.0316425, "bike_id": "79f5da2a3e85b07eb3a398c8c66aac65", "fusion_lat": 0.0, "name": "79f5da2a3e85b07eb3a398c8c66aac65", "is_reserved": 0, "rental_uris": {"android": "https://dc.lft.to/lastmile_qr_scan", "ios": "https://dc.lft.to/lastmile_qr_scan"}, "fusion_lon": 0.0}, {"lat": 38.87756516666666, "is_disabled": 0, "type": "electric_scooter", "lon": -77.003223, "bike_id": "5497ea47484581d652dbfb26753f9e2a", "fusion_lat": 0.0, "name": "5497ea47484581d652dbfb26753f9e2a", "is_reserved": 0, "rental_uris": {"android": "https://dc.lft.to/lastmile_qr_scan", "ios": "https://dc.lft.to/lastmile_qr_scan"}, "fusion_lon": 0.0}, {"lat": 38.897394166666665, "is_disabled": 0, "type": "electric_scooter", "lon": -77.0468605, "bike_id": "3a8d18866ac7de00c3241aaa4a066ce8", "fusion_lat": 0.0, "name": "3a8d18866ac7de00c3241aaa4a066ce8", "is_reserved": 0, "rental_uris": {"android": "https://dc.lft.to/lastmile_qr_scan", "ios": "https://dc.lft.to/lastmile_qr_scan"}, "fusion_lon": 0.0}, {"lat": 38.895422, "is_disabled": 0, "type": "electric_scooter", "lon": -77.0217435, "bike_id": "b00fdc8ef3a557d746044140caca9709", "fusion_lat": 0.0, "name": "b00fdc8ef3a557d746044140caca9709", "is_reserved": 0, "rental_uris": {"android": "https://dc.lft.to/lastmile_qr_scan", "ios": "https://dc.lft.to/lastmile_qr_scan"}, "fusion_lon": 0.0}, {"lat": 38.9082955, "is_disabled": 0, "type": "electric_scooter", "lon": -76.99693916666666, "bike_id": "e4c873e1f34249d5007a5055264a3afd", "fusion_lat": 0.0, "name": "e4c873e1f34249d5007a5055264a3afd", "is_reserved": 0, "rental_uris": {"android": "https://dc.lft.to/lastmile_qr_scan", "ios": "https://dc.lft.to/lastmile_qr_scan"}, "fusion_lon": 0.0}, {"lat": 38.92164133333333, "is_disabled": 0, "type": "electric_scooter", "lon": -77.03847, "bike_id": "a6b46bad0278b7d9a729c65c793bfe23", "fusion_lat": 0.0, "name": "a6b46bad0278b7d9a729c65c793bfe23", "is_reserved": 0, "rental_uris": {"android": "https://dc.lft.to/lastmile_qr_scan", "ios": "https://dc.lft.to/lastmile_qr_scan"}, "fusion_lon": 0.0}, {"lat": 38.892271666666666, "is_disabled": 0, "type": "electric_scooter", "lon": -77.02689033333333, "bike_id": "66d2b6808114956965d3c3f7b9037463", "fusion_lat": 0.0, "name": "66d2b6808114956965d3c3f7b9037463", "is_reserved": 0, "rental_uris": {"android": "https://dc.lft.to/lastmile_qr_scan", "ios": "https://dc.lft.to/lastmile_qr_scan"}, "fusion_lon": 0.0}, {"lat": 38.985005, "is_disabled": 0, "type": "electric_bike", "lon": -76.982078, "bike_id": "cbe978b4ef2e9a372fe4390368ab064d", "fusion_lat": 0.0, "name": "cbe978b4ef2e9a372fe4390368ab064d", "is_reserved": 0, "rental_uris": {"android": "https://dc.lft.to/lastmile_qr_scan", "ios": "https://dc.lft.to/lastmile_qr_scan"}, "fusion_lon": 0.0}, {"lat": 38.90781466666667, "is_disabled": 0, "type": "electric_scooter", "lon": -77.036694, "bike_id": "2f5378e4811281e37e1cb86ad005415d", "fusion_lat": 0.0, "name": "2f5378e4811281e37e1cb86ad005415d", "is_reserved": 0, "rental_uris": {"android": "https://dc.lft.to/lastmile_qr_scan", "ios": "https://dc.lft.to/lastmile_qr_scan"}, "fusion_lon": 0.0}, {"lat": 38.905195166666665, "is_disabled": 0, "type": "electric_scooter", "lon": -77.0644955, "bike_id": "02eabc7ed03d6e6a37db4b17db1a6697", "fusion_lat": 0.0, "name": "02eabc7ed03d6e6a37db4b17db1a6697", "is_reserved": 0, "rental_uris": {"android": "https://dc.lft.to/lastmile_qr_scan", "ios": "https://dc.lft.to/lastmile_qr_scan"}, "fusion_lon": 0.0}, {"lat": 38.903444666666665, "is_disabled": 0, "type": "electric_scooter", "lon": -77.03892083333334, "bike_id": "78098dc60eae4941d2e41a6087e5d865", "fusion_lat": 0.0, "name": "78098dc60eae4941d2e41a6087e5d865", "is_reserved": 0, "rental_uris": {"android": "https://dc.lft.to/lastmile_qr_scan", "ios": "https://dc.lft.to/lastmile_qr_scan"}, "fusion_lon": 0.0}, {"lat": 38.919756166666666, "is_disabled": 0, "type": "electric_scooter", "lon": -77.0122155, "bike_id": "0a5d3bcafaa4d31fe10055a62a466d1a", "fusion_lat": 0.0, "name": "0a5d3bcafaa4d31fe10055a62a466d1a", "is_reserved": 0, "rental_uris": {"android": "https://dc.lft.to/lastmile_qr_scan", "ios": "https://dc.lft.to/lastmile_qr_scan"}, "fusion_lon": 0.0}, {"lat": 38.9242775, "is_disabled": 0, "type": "electric_scooter", "lon": -77.04011416666667, "bike_id": "fb67a85ad0234c0b83faf8762cd24738", "fusion_lat": 0.0, "name": "fb67a85ad0234c0b83faf8762cd24738", "is_reserved": 0, "rental_uris": {"android": "https://dc.lft.to/lastmile_qr_scan", "ios": "https://dc.lft.to/lastmile_qr_scan"}, "fusion_lon": 0.0}, {"lat": 38.90719566666667, "is_disabled": 0, "type": "electric_scooter", "lon": -77.0268485, "bike_id": "a61b0c6ebe08e8d965dce91f6457401c", "fusion_lat": 0.0, "name": "a61b0c6ebe08e8d965dce91f6457401c", "is_reserved": 0, "rental_uris": {"android": "https://dc.lft.to/lastmile_qr_scan", "ios": "https://dc.lft.to/lastmile_qr_scan"}, "fusion_lon": 0.0}, {"lat": 38.897231, "is_disabled": 0, "type": "electric_scooter", "lon": -77.00714416666666, "bike_id": "82d502b762a0bbcb9ff6e85cd651e27a", "fusion_lat": 0.0, "name": "82d502b762a0bbcb9ff6e85cd651e27a", "is_reserved": 0, "rental_uris": {"android": "https://dc.lft.to/lastmile_qr_scan", "ios": "https://dc.lft.to/lastmile_qr_scan"}, "fusion_lon": 0.0}, {"lat": 38.89995416666667, "is_disabled": 0, "type": "electric_scooter", "lon": -77.00614366666667, "bike_id": "c9cc6615797e62598948eede9ffb598a", "fusion_lat": 0.0, "name": "c9cc6615797e62598948eede9ffb598a", "is_reserved": 0, "rental_uris": {"android": "https://dc.lft.to/lastmile_qr_scan", "ios": "https://dc.lft.to/lastmile_qr_scan"}, "fusion_lon": 0.0}, {"lat": 38.9048735, "is_disabled": 0, "type": "electric_scooter", "lon": -77.053575, "bike_id": "452988f3ba41b1613e62a4d90fd336a4", "fusion_lat": 0.0, "name": "452988f3ba41b1613e62a4d90fd336a4", "is_reserved": 0, "rental_uris": {"android": "https://dc.lft.to/lastmile_qr_scan", "ios": "https://dc.lft.to/lastmile_qr_scan"}, "fusion_lon": 0.0}, {"lat": 38.94426933333333, "is_disabled": 0, "type": "electric_scooter", "lon": -77.063131, "bike_id": "6bfebeb62481c4966ee7cf54150ea039", "fusion_lat": 0.0, "name": "6bfebeb62481c4966ee7cf54150ea039", "is_reserved": 0, "rental_uris": {"android": "https://dc.lft.to/lastmile_qr_scan", "ios": "https://dc.lft.to/lastmile_qr_scan"}, "fusion_lon": 0.0}, {"lat": 38.905078833333334, "is_disabled": 0, "type": "electric_scooter", "lon": -77.050863, "bike_id": "424b9fbadd0152acedd1cc4887e6801d", "fusion_lat": 0.0, "name": "424b9fbadd0152acedd1cc4887e6801d", "is_reserved": 0, "rental_uris": {"android": "https://dc.lft.to/lastmile_qr_scan", "ios": "https://dc.lft.to/lastmile_qr_scan"}, "fusion_lon": 0.0}, {"lat": 38.9111925, "is_disabled": 0, "type": "electric_scooter", "lon": -77.02225366666667, "bike_id": "a1c55e0b8b7364b2a1c89e8345f684e4", "fusion_lat": 0.0, "name": "a1c55e0b8b7364b2a1c89e8345f684e4", "is_reserved": 0, "rental_uris": {"android": "https://dc.lft.to/lastmile_qr_scan", "ios": "https://dc.lft.to/lastmile_qr_scan"}, "fusion_lon": 0.0}, {"lat": 38.874676, "is_disabled": 0, "type": "electric_scooter", "lon": -77.00552783333333, "bike_id": "9a298af31358f910f0a6e48f6703ae0d", "fusion_lat": 0.0, "name": "9a298af31358f910f0a6e48f6703ae0d", "is_reserved": 0, "rental_uris": {"android": "https://dc.lft.to/lastmile_qr_scan", "ios": "https://dc.lft.to/lastmile_qr_scan"}, "fusion_lon": 0.0}, {"lat": 38.908091666666664, "is_disabled": 0, "type": "electric_scooter", "lon": -76.997123, "bike_id": "708b728871292d8525f3a977b0ec29f5", "fusion_lat": 0.0, "name": "708b728871292d8525f3a977b0ec29f5", "is_reserved": 0, "rental_uris": {"android": "https://dc.lft.to/lastmile_qr_scan", "ios": "https://dc.lft.to/lastmile_qr_scan"}, "fusion_lon": 0.0}, {"lat": 38.921821, "is_disabled": 0, "type": "electric_scooter", "lon": -77.03197066666667, "bike_id": "efb3c60e8abe4510043921e102ab34bc", "fusion_lat": 0.0, "name": "efb3c60e8abe4510043921e102ab34bc", "is_reserved": 0, "rental_uris": {"android": "https://dc.lft.to/lastmile_qr_scan", "ios": "https://dc.lft.to/lastmile_qr_scan"}, "fusion_lon": 0.0}, {"lat": 38.8714745, "is_disabled": 0, "type": "electric_bike", "lon": -76.93671666666667, "bike_id": "549c252da2dfaf375f9b78b5a92384ec", "fusion_lat": 0.0, "name": "549c252da2dfaf375f9b78b5a92384ec", "is_reserved": 0, "rental_uris": {"android": "https://dc.lft.to/lastmile_qr_scan", "ios": "https://dc.lft.to/lastmile_qr_scan"}, "fusion_lon": 0.0}, {"lat": 38.94453083333333, "is_disabled": 0, "type": "electric_bike", "lon": -77.02331816666667, "bike_id": "91ae7f9a2f9c9ddc884a56957aa8884b", "fusion_lat": 0.0, "name": "91ae7f9a2f9c9ddc884a56957aa8884b", "is_reserved": 0, "rental_uris": {"android": "https://dc.lft.to/lastmile_qr_scan", "ios": "https://dc.lft.to/lastmile_qr_scan"}, "fusion_lon": 0.0}, {"lat": 38.883141, "is_disabled": 0, "type": "electric_scooter", "lon": -77.00937783333333, "bike_id": "36c39dc22f8006ed5fecd41a07be3279", "fusion_lat": 0.0, "name": "36c39dc22f8006ed5fecd41a07be3279", "is_reserved": 0, "rental_uris": {"android": "https://dc.lft.to/lastmile_qr_scan", "ios": "https://dc.lft.to/lastmile_qr_scan"}, "fusion_lon": 0.0}, {"lat": 38.89244033333333, "is_disabled": 0, "type": "electric_scooter", "lon": -76.94322866666667, "bike_id": "8dcb8d4fcd7d16826f7484125fb583aa", "fusion_lat": 0.0, "name": "8dcb8d4fcd7d16826f7484125fb583aa", "is_reserved": 0, "rental_uris": {"android": "https://dc.lft.to/lastmile_qr_scan", "ios": "https://dc.lft.to/lastmile_qr_scan"}, "fusion_lon": 0.0}, {"lat": 38.923428666666666, "is_disabled": 0, "type": "electric_scooter", "lon": -77.0413695, "bike_id": "f0451b7d7fa44e81a2cff6747de1ad35", "fusion_lat": 0.0, "name": "f0451b7d7fa44e81a2cff6747de1ad35", "is_reserved": 0, "rental_uris": {"android": "https://dc.lft.to/lastmile_qr_scan", "ios": "https://dc.lft.to/lastmile_qr_scan"}, "fusion_lon": 0.0}, {"lat": 38.92043983333333, "is_disabled": 0, "type": "electric_scooter", "lon": -77.02429, "bike_id": "254d24b4411656c6fac1f049aaacfd94", "fusion_lat": 0.0, "name": "254d24b4411656c6fac1f049aaacfd94", "is_reserved": 0, "rental_uris": {"android": "https://dc.lft.to/lastmile_qr_scan", "ios": "https://dc.lft.to/lastmile_qr_scan"}, "fusion_lon": 0.0}, {"lat": 38.906943166666665, "is_disabled": 0, "type": "electric_scooter", "lon": -77.043591, "bike_id": "93577d20ca862e018eb9bae070da582c", "fusion_lat": 0.0, "name": "93577d20ca862e018eb9bae070da582c", "is_reserved": 0, "rental_uris": {"android": "https://dc.lft.to/lastmile_qr_scan", "ios": "https://dc.lft.to/lastmile_qr_scan"}, "fusion_lon": 0.0}, {"lat": 38.9478345, "is_disabled": 0, "type": "electric_scooter", "lon": -77.07946516666667, "bike_id": "738bab064794b2a22e04115739c8e9e1", "fusion_lat": 0.0, "name": "738bab064794b2a22e04115739c8e9e1", "is_reserved": 0, "rental_uris": {"android": "https://dc.lft.to/lastmile_qr_scan", "ios": "https://dc.lft.to/lastmile_qr_scan"}, "fusion_lon": 0.0}, {"lat": 38.939268166666665, "is_disabled": 0, "type": "electric_scooter", "lon": -77.02221516666667, "bike_id": "3d9f7cb73f878bc8ef3a942ef0635793", "fusion_lat": 0.0, "name": "3d9f7cb73f878bc8ef3a942ef0635793", "is_reserved": 0, "rental_uris": {"android": "https://dc.lft.to/lastmile_qr_scan", "ios": "https://dc.lft.to/lastmile_qr_scan"}, "fusion_lon": 0.0}, {"lat": 38.87729683333333, "is_disabled": 0, "type": "electric_bike", "lon": -77.1185295, "bike_id": "d8d8153fb67eac808e0f4012f159fc2e", "fusion_lat": 0.0, "name": "d8d8153fb67eac808e0f4012f159fc2e", "is_reserved": 0, "rental_uris": {"android": "https://dc.lft.to/lastmile_qr_scan", "ios": "https://dc.lft.to/lastmile_qr_scan"}, "fusion_lon": 0.0}, {"lat": 38.86366566666667, "is_disabled": 0, "type": "electric_scooter", "lon": -76.990545, "bike_id": "3083472889ebdadae9ec199bb0dc8888", "fusion_lat": 0.0, "name": "3083472889ebdadae9ec199bb0dc8888", "is_reserved": 0, "rental_uris": {"android": "https://dc.lft.to/lastmile_qr_scan", "ios": "https://dc.lft.to/lastmile_qr_scan"}, "fusion_lon": 0.0}, {"lat": 38.9397975, "is_disabled": 0, "type": "electric_scooter", "lon": -77.0327705, "bike_id": "7620d8ce508dceb3b628982732114dd9", "fusion_lat": 0.0, "name": "7620d8ce508dceb3b628982732114dd9", "is_reserved": 0, "rental_uris": {"android": "https://dc.lft.to/lastmile_qr_scan", "ios": "https://dc.lft.to/lastmile_qr_scan"}, "fusion_lon": 0.0}, {"lat": 38.905240666666664, "is_disabled": 0, "type": "electric_scooter", "lon": -77.065433, "bike_id": "871defafcd51c38991257848896ec247", "fusion_lat": 0.0, "name": "871defafcd51c38991257848896ec247", "is_reserved": 0, "rental_uris": {"android": "https://dc.lft.to/lastmile_qr_scan", "ios": "https://dc.lft.to/lastmile_qr_scan"}, "fusion_lon": 0.0}, {"lat": 38.91253666666667, "is_disabled": 0, "type": "electric_scooter", "lon": -77.036343, "bike_id": "b6ced0b250a12755843e5e3d1f176e80", "fusion_lat": 0.0, "name": "b6ced0b250a12755843e5e3d1f176e80", "is_reserved": 0, "rental_uris": {"android": "https://dc.lft.to/lastmile_qr_scan", "ios": "https://dc.lft.to/lastmile_qr_scan"}, "fusion_lon": 0.0}, {"lat": 38.87112333333334, "is_disabled": 0, "type": "electric_scooter", "lon": -77.01076666666667, "bike_id": "e9ddcd4c9dd0b889f0d2f88b6fd36f7f", "fusion_lat": 0.0, "name": "e9ddcd4c9dd0b889f0d2f88b6fd36f7f", "is_reserved": 0, "rental_uris": {"android": "https://dc.lft.to/lastmile_qr_scan", "ios": "https://dc.lft.to/lastmile_qr_scan"}, "fusion_lon": 0.0}, {"lat": 38.951813, "is_disabled": 0, "type": "electric_bike", "lon": -76.93548, "bike_id": "9c93affabde52e01ae4066905dd2c4ee", "fusion_lat": 0.0, "name": "9c93affabde52e01ae4066905dd2c4ee", "is_reserved": 0, "rental_uris": {"android": "https://dc.lft.to/lastmile_qr_scan", "ios": "https://dc.lft.to/lastmile_qr_scan"}, "fusion_lon": 0.0}, {"lat": 38.887449, "is_disabled": 0, "type": "electric_scooter", "lon": -77.02178566666667, "bike_id": "0476fe20615e277f459d0ca241eb4899", "fusion_lat": 0.0, "name": "0476fe20615e277f459d0ca241eb4899", "is_reserved": 0, "rental_uris": {"android": "https://dc.lft.to/lastmile_qr_scan", "ios": "https://dc.lft.to/lastmile_qr_scan"}, "fusion_lon": 0.0}, {"lat": 38.86057366666667, "is_disabled": 0, "type": "electric_bike", "lon": -77.0564315, "bike_id": "df6e99059982529fd772016ea7cb2487", "fusion_lat": 0.0, "name": "df6e99059982529fd772016ea7cb2487", "is_reserved": 0, "rental_uris": {"android": "https://dc.lft.to/lastmile_qr_scan", "ios": "https://dc.lft.to/lastmile_qr_scan"}, "fusion_lon": 0.0}, {"lat": 38.8851085, "is_disabled": 0, "type": "electric_scooter", "lon": -77.00567983333333, "bike_id": "2db906528a162ba370aace98c09440c0", "fusion_lat": 0.0, "name": "2db906528a162ba370aace98c09440c0", "is_reserved": 0, "rental_uris": {"android": "https://dc.lft.to/lastmile_qr_scan", "ios": "https://dc.lft.to/lastmile_qr_scan"}, "fusion_lon": 0.0}, {"lat": 38.9051585, "is_disabled": 0, "type": "electric_scooter", "lon": -76.99644416666666, "bike_id": "c9983ee0663b945d3306414ed8ea0ab5", "fusion_lat": 0.0, "name": "c9983ee0663b945d3306414ed8ea0ab5", "is_reserved": 0, "rental_uris": {"android": "https://dc.lft.to/lastmile_qr_scan", "ios": "https://dc.lft.to/lastmile_qr_scan"}, "fusion_lon": 0.0}, {"lat": 38.88870516666667, "is_disabled": 0, "type": "electric_scooter", "lon": -76.9903715, "bike_id": "5dc844d5a67babb14c266ffc3a564f22", "fusion_lat": 0.0, "name": "5dc844d5a67babb14c266ffc3a564f22", "is_reserved": 0, "rental_uris": {"android": "https://dc.lft.to/lastmile_qr_scan", "ios": "https://dc.lft.to/lastmile_qr_scan"}, "fusion_lon": 0.0}, {"lat": 38.905466833333335, "is_disabled": 0, "type": "electric_scooter", "lon": -77.056931, "bike_id": "eb419faf1cb24e3b133478577ebc3937", "fusion_lat": 0.0, "name": "eb419faf1cb24e3b133478577ebc3937", "is_reserved": 0, "rental_uris": {"android": "https://dc.lft.to/lastmile_qr_scan", "ios": "https://dc.lft.to/lastmile_qr_scan"}, "fusion_lon": 0.0}, {"lat": 38.93571983333333, "is_disabled": 0, "type": "electric_scooter", "lon": -77.03268716666666, "bike_id": "2574ed4c4d2560a1eadfff358f21dac9", "fusion_lat": 0.0, "name": "2574ed4c4d2560a1eadfff358f21dac9", "is_reserved": 0, "rental_uris": {"android": "https://dc.lft.to/lastmile_qr_scan", "ios": "https://dc.lft.to/lastmile_qr_scan"}, "fusion_lon": 0.0}, {"lat": 38.88426483333333, "is_disabled": 0, "type": "electric_scooter", "lon": -77.03054033333333, "bike_id": "55e00919a125d576f716bac0510aa559", "fusion_lat": 0.0, "name": "55e00919a125d576f716bac0510aa559", "is_reserved": 0, "rental_uris": {"android": "https://dc.lft.to/lastmile_qr_scan", "ios": "https://dc.lft.to/lastmile_qr_scan"}, "fusion_lon": 0.0}, {"lat": 38.961505333333335, "is_disabled": 0, "type": "electric_scooter", "lon": -77.02791966666666, "bike_id": "aebf4575a30c518cb33991049173d03c", "fusion_lat": 0.0, "name": "aebf4575a30c518cb33991049173d03c", "is_reserved": 0, "rental_uris": {"android": "https://dc.lft.to/lastmile_qr_scan", "ios": "https://dc.lft.to/lastmile_qr_scan"}, "fusion_lon": 0.0}, {"lat": 38.91696983333333, "is_disabled": 0, "type": "electric_scooter", "lon": -77.03087166666667, "bike_id": "29b2529ce9503179d6028c16a79b0031", "fusion_lat": 0.0, "name": "29b2529ce9503179d6028c16a79b0031", "is_reserved": 0, "rental_uris": {"android": "https://dc.lft.to/lastmile_qr_scan", "ios": "https://dc.lft.to/lastmile_qr_scan"}, "fusion_lon": 0.0}, {"lat": 38.925056833333336, "is_disabled": 0, "type": "electric_scooter", "lon": -77.04097833333333, "bike_id": "b5cb5695c38d58512dd476170dc7c72f", "fusion_lat": 0.0, "name": "b5cb5695c38d58512dd476170dc7c72f", "is_reserved": 0, "rental_uris": {"android": "https://dc.lft.to/lastmile_qr_scan", "ios": "https://dc.lft.to/lastmile_qr_scan"}, "fusion_lon": 0.0}, {"lat": 38.90149533333334, "is_disabled": 0, "type": "electric_scooter", "lon": -77.02210216666667, "bike_id": "27a22213893b80329b5f9bb591fdd9d2", "fusion_lat": 0.0, "name": "27a22213893b80329b5f9bb591fdd9d2", "is_reserved": 0, "rental_uris": {"android": "https://dc.lft.to/lastmile_qr_scan", "ios": "https://dc.lft.to/lastmile_qr_scan"}, "fusion_lon": 0.0}, {"lat": 38.84459866666667, "is_disabled": 0, "type": "electric_scooter", "lon": -76.99861566666667, "bike_id": "15b882ca57014f5105ff00c62a88bbb9", "fusion_lat": 0.0, "name": "15b882ca57014f5105ff00c62a88bbb9", "is_reserved": 0, "rental_uris": {"android": "https://dc.lft.to/lastmile_qr_scan", "ios": "https://dc.lft.to/lastmile_qr_scan"}, "fusion_lon": 0.0}, {"lat": 38.905187166666664, "is_disabled": 0, "type": "electric_scooter", "lon": -77.0511835, "bike_id": "feddee421c31d84b8876784e3dab4a00", "fusion_lat": 0.0, "name": "feddee421c31d84b8876784e3dab4a00", "is_reserved": 0, "rental_uris": {"android": "https://dc.lft.to/lastmile_qr_scan", "ios": "https://dc.lft.to/lastmile_qr_scan"}, "fusion_lon": 0.0}, {"lat": 38.90555066666667, "is_disabled": 0, "type": "electric_scooter", "lon": -77.05693783333334, "bike_id": "945709aaf0d72ae7e6762e4cb7e007dc", "fusion_lat": 0.0, "name": "945709aaf0d72ae7e6762e4cb7e007dc", "is_reserved": 0, "rental_uris": {"android": "https://dc.lft.to/lastmile_qr_scan", "ios": "https://dc.lft.to/lastmile_qr_scan"}, "fusion_lon": 0.0}, {"lat": 38.95956866666667, "is_disabled": 0, "type": "electric_bike", "lon": -77.1009495, "bike_id": "80d3dfa77700f8568baeda2e739d4be8", "fusion_lat": 0.0, "name": "80d3dfa77700f8568baeda2e739d4be8", "is_reserved": 0, "rental_uris": {"android": "https://dc.lft.to/lastmile_qr_scan", "ios": "https://dc.lft.to/lastmile_qr_scan"}, "fusion_lon": 0.0}, {"lat": 38.90731433333333, "is_disabled": 0, "type": "electric_scooter", "lon": -77.02400633333333, "bike_id": "3a8a6a422eb5004b5212dead9fdd51b8", "fusion_lat": 0.0, "name": "3a8a6a422eb5004b5212dead9fdd51b8", "is_reserved": 0, "rental_uris": {"android": "https://dc.lft.to/lastmile_qr_scan", "ios": "https://dc.lft.to/lastmile_qr_scan"}, "fusion_lon": 0.0}, {"lat": 38.918204, "is_disabled": 0, "type": "electric_scooter", "lon": -77.03846616666667, "bike_id": "a8046ee6f7f8d5aefcd3d020ddf21a08", "fusion_lat": 0.0, "name": "a8046ee6f7f8d5aefcd3d020ddf21a08", "is_reserved": 0, "rental_uris": {"android": "https://dc.lft.to/lastmile_qr_scan", "ios": "https://dc.lft.to/lastmile_qr_scan"}, "fusion_lon": 0.0}, {"lat": 38.92344633333333, "is_disabled": 0, "type": "electric_scooter", "lon": -77.05078316666666, "bike_id": "6c739f1bc8d9f3f231b36cfef16ef2f7", "fusion_lat": 0.0, "name": "6c739f1bc8d9f3f231b36cfef16ef2f7", "is_reserved": 0, "rental_uris": {"android": "https://dc.lft.to/lastmile_qr_scan", "ios": "https://dc.lft.to/lastmile_qr_scan"}, "fusion_lon": 0.0}, {"lat": 38.8719655, "is_disabled": 0, "type": "electric_scooter", "lon": -77.00614183333333, "bike_id": "cf5abfdcca6bb612ff4ff22432b2b34a", "fusion_lat": 0.0, "name": "cf5abfdcca6bb612ff4ff22432b2b34a", "is_reserved": 0, "rental_uris": {"android": "https://dc.lft.to/lastmile_qr_scan", "ios": "https://dc.lft.to/lastmile_qr_scan"}, "fusion_lon": 0.0}, {"lat": 38.877714833333336, "is_disabled": 0, "type": "electric_scooter", "lon": -77.0073865, "bike_id": "e5f4955c52706eaacb1344398075e44e", "fusion_lat": 0.0, "name": "e5f4955c52706eaacb1344398075e44e", "is_reserved": 0, "rental_uris": {"android": "https://dc.lft.to/lastmile_qr_scan", "ios": "https://dc.lft.to/lastmile_qr_scan"}, "fusion_lon": 0.0}, {"lat": 38.907908166666665, "is_disabled": 0, "type": "electric_scooter", "lon": -77.034203, "bike_id": "f6ed2f3f7012e290c5c6f0ba5924f96b", "fusion_lat": 0.0, "name": "f6ed2f3f7012e290c5c6f0ba5924f96b", "is_reserved": 0, "rental_uris": {"android": "https://dc.lft.to/lastmile_qr_scan", "ios": "https://dc.lft.to/lastmile_qr_scan"}, "fusion_lon": 0.0}, {"lat": 38.90522816666667, "is_disabled": 0, "type": "electric_scooter", "lon": -77.05229666666666, "bike_id": "aacb8fa1ed804713d82ef36e2a0892a2", "fusion_lat": 0.0, "name": "aacb8fa1ed804713d82ef36e2a0892a2", "is_reserved": 0, "rental_uris": {"android": "https://dc.lft.to/lastmile_qr_scan", "ios": "https://dc.lft.to/lastmile_qr_scan"}, "fusion_lon": 0.0}, {"lat": 38.874882, "is_disabled": 0, "type": "electric_scooter", "lon": -77.00116916666667, "bike_id": "0c94af8569b809a61fabb7a096bc5488", "fusion_lat": 0.0, "name": "0c94af8569b809a61fabb7a096bc5488", "is_reserved": 0, "rental_uris": {"android": "https://dc.lft.to/lastmile_qr_scan", "ios": "https://dc.lft.to/lastmile_qr_scan"}, "fusion_lon": 0.0}, {"lat": 38.899072833333335, "is_disabled": 0, "type": "electric_scooter", "lon": -77.07061833333333, "bike_id": "0efa3207dd269a292c2bc7ed48902522", "fusion_lat": 0.0, "name": "0efa3207dd269a292c2bc7ed48902522", "is_reserved": 0, "rental_uris": {"android": "https://dc.lft.to/lastmile_qr_scan", "ios": "https://dc.lft.to/lastmile_qr_scan"}, "fusion_lon": 0.0}, {"lat": 38.931140166666665, "is_disabled": 0, "type": "electric_scooter", "lon": -77.038077, "bike_id": "ce34d17d5836f0b4b0f308823105f427", "fusion_lat": 0.0, "name": "ce34d17d5836f0b4b0f308823105f427", "is_reserved": 0, "rental_uris": {"android": "https://dc.lft.to/lastmile_qr_scan", "ios": "https://dc.lft.to/lastmile_qr_scan"}, "fusion_lon": 0.0}, {"lat": 38.90504033333333, "is_disabled": 0, "type": "electric_scooter", "lon": -77.066657, "bike_id": "686a7c50aff434d2b8a0dbba7c20e565", "fusion_lat": 0.0, "name": "686a7c50aff434d2b8a0dbba7c20e565", "is_reserved": 0, "rental_uris": {"android": "https://dc.lft.to/lastmile_qr_scan", "ios": "https://dc.lft.to/lastmile_qr_scan"}, "fusion_lon": 0.0}, {"lat": 38.90941983333333, "is_disabled": 0, "type": "electric_scooter", "lon": -77.04647983333334, "bike_id": "1d66e88b990ad89312cfcc0155abbfd2", "fusion_lat": 0.0, "name": "1d66e88b990ad89312cfcc0155abbfd2", "is_reserved": 0, "rental_uris": {"android": "https://dc.lft.to/lastmile_qr_scan", "ios": "https://dc.lft.to/lastmile_qr_scan"}, "fusion_lon": 0.0}, {"lat": 38.90687633333334, "is_disabled": 0, "type": "electric_scooter", "lon": -77.06362783333333, "bike_id": "918b612587d2e266a2bd775d30b46702", "fusion_lat": 0.0, "name": "918b612587d2e266a2bd775d30b46702", "is_reserved": 0, "rental_uris": {"android": "https://dc.lft.to/lastmile_qr_scan", "ios": "https://dc.lft.to/lastmile_qr_scan"}, "fusion_lon": 0.0}, {"lat": 38.86819216666667, "is_disabled": 0, "type": "electric_bike", "lon": -76.98028416666666, "bike_id": "70ea0595c9b692ad6975aa0294195c94", "fusion_lat": 0.0, "name": "70ea0595c9b692ad6975aa0294195c94", "is_reserved": 0, "rental_uris": {"android": "https://dc.lft.to/lastmile_qr_scan", "ios": "https://dc.lft.to/lastmile_qr_scan"}, "fusion_lon": 0.0}, {"lat": 38.91836983333334, "is_disabled": 0, "type": "electric_scooter", "lon": -77.0450185, "bike_id": "d1424f096837fe06bf85f426e68a2621", "fusion_lat": 0.0, "name": "d1424f096837fe06bf85f426e68a2621", "is_reserved": 0, "rental_uris": {"android": "https://dc.lft.to/lastmile_qr_scan", "ios": "https://dc.lft.to/lastmile_qr_scan"}, "fusion_lon": 0.0}, {"lat": 38.93310483333333, "is_disabled": 0, "type": "electric_scooter", "lon": -77.03290983333333, "bike_id": "af9d19478a039d7f8bb52e4dbd097fed", "fusion_lat": 0.0, "name": "af9d19478a039d7f8bb52e4dbd097fed", "is_reserved": 0, "rental_uris": {"android": "https://dc.lft.to/lastmile_qr_scan", "ios": "https://dc.lft.to/lastmile_qr_scan"}, "fusion_lon": 0.0}, {"lat": 38.90019683333333, "is_disabled": 0, "type": "electric_scooter", "lon": -76.99087883333334, "bike_id": "dfdbcea80db188ce34e2da055e38bc96", "fusion_lat": 0.0, "name": "dfdbcea80db188ce34e2da055e38bc96", "is_reserved": 0, "rental_uris": {"android": "https://dc.lft.to/lastmile_qr_scan", "ios": "https://dc.lft.to/lastmile_qr_scan"}, "fusion_lon": 0.0}, {"lat": 38.89528816666667, "is_disabled": 0, "type": "electric_scooter", "lon": -77.03215116666667, "bike_id": "bcc5252814f2e2541c69ab9a403b87d1", "fusion_lat": 0.0, "name": "bcc5252814f2e2541c69ab9a403b87d1", "is_reserved": 0, "rental_uris": {"android": "https://dc.lft.to/lastmile_qr_scan", "ios": "https://dc.lft.to/lastmile_qr_scan"}, "fusion_lon": 0.0}, {"lat": 38.923106, "is_disabled": 0, "type": "electric_scooter", "lon": -77.04622566666667, "bike_id": "66a14245ed804145c19a3a97f0003413", "fusion_lat": 0.0, "name": "66a14245ed804145c19a3a97f0003413", "is_reserved": 0, "rental_uris": {"android": "https://dc.lft.to/lastmile_qr_scan", "ios": "https://dc.lft.to/lastmile_qr_scan"}, "fusion_lon": 0.0}, {"lat": 38.92342416666666, "is_disabled": 0, "type": "electric_scooter", "lon": -77.05056033333334, "bike_id": "aaac62c99b0461805e5e46f71fedf151", "fusion_lat": 0.0, "name": "aaac62c99b0461805e5e46f71fedf151", "is_reserved": 0, "rental_uris": {"android": "https://dc.lft.to/lastmile_qr_scan", "ios": "https://dc.lft.to/lastmile_qr_scan"}, "fusion_lon": 0.0}, {"lat": 38.86383933333333, "is_disabled": 0, "type": "electric_bike", "lon": -76.98993233333333, "bike_id": "ffe5f24cad96ad4ada36f4a966b4eb5d", "fusion_lat": 0.0, "name": "ffe5f24cad96ad4ada36f4a966b4eb5d", "is_reserved": 0, "rental_uris": {"android": "https://dc.lft.to/lastmile_qr_scan", "ios": "https://dc.lft.to/lastmile_qr_scan"}, "fusion_lon": 0.0}, {"lat": 38.95189166666667, "is_disabled": 0, "type": "electric_bike", "lon": -76.9672975, "bike_id": "6f3bdba44f5b147eff32b3b7203fc421", "fusion_lat": 0.0, "name": "6f3bdba44f5b147eff32b3b7203fc421", "is_reserved": 0, "rental_uris": {"android": "https://dc.lft.to/lastmile_qr_scan", "ios": "https://dc.lft.to/lastmile_qr_scan"}, "fusion_lon": 0.0}, {"lat": 38.929488166666665, "is_disabled": 0, "type": "electric_scooter", "lon": -77.05500666666667, "bike_id": "5d5ebe3489aa8ee1cbff3f792b8f129b", "fusion_lat": 0.0, "name": "5d5ebe3489aa8ee1cbff3f792b8f129b", "is_reserved": 0, "rental_uris": {"android": "https://dc.lft.to/lastmile_qr_scan", "ios": "https://dc.lft.to/lastmile_qr_scan"}, "fusion_lon": 0.0}, {"lat": 39.00004, "is_disabled": 0, "type": "electric_bike", "lon": -76.91080166666667, "bike_id": "6ba70a09c8b51895b0a0ee91eb3afeb2", "fusion_lat": 0.0, "name": "6ba70a09c8b51895b0a0ee91eb3afeb2", "is_reserved": 0, "rental_uris": {"android": "https://dc.lft.to/lastmile_qr_scan", "ios": "https://dc.lft.to/lastmile_qr_scan"}, "fusion_lon": 0.0}, {"lat": 38.903730333333336, "is_disabled": 0, "type": "electric_scooter", "lon": -77.010886, "bike_id": "98754f7ac6598bdef5c14b979b2a0994", "fusion_lat": 0.0, "name": "98754f7ac6598bdef5c14b979b2a0994", "is_reserved": 0, "rental_uris": {"android": "https://dc.lft.to/lastmile_qr_scan", "ios": "https://dc.lft.to/lastmile_qr_scan"}, "fusion_lon": 0.0}, {"lat": 38.9155825, "is_disabled": 0, "type": "electric_scooter", "lon": -77.03864666666666, "bike_id": "e020aa1562db5bde3eee0d719d7e324f", "fusion_lat": 0.0, "name": "e020aa1562db5bde3eee0d719d7e324f", "is_reserved": 0, "rental_uris": {"android": "https://dc.lft.to/lastmile_qr_scan", "ios": "https://dc.lft.to/lastmile_qr_scan"}, "fusion_lon": 0.0}, {"lat": 38.907178, "is_disabled": 0, "type": "electric_scooter", "lon": -77.04019783333334, "bike_id": "e0542ba3570c20951daa184776fb49a4", "fusion_lat": 0.0, "name": "e0542ba3570c20951daa184776fb49a4", "is_reserved": 0, "rental_uris": {"android": "https://dc.lft.to/lastmile_qr_scan", "ios": "https://dc.lft.to/lastmile_qr_scan"}, "fusion_lon": 0.0}, {"lat": 38.92847483333333, "is_disabled": 0, "type": "electric_bike", "lon": -77.22196666666666, "bike_id": "c55c31d5202b5172296717b28045f0d3", "fusion_lat": 0.0, "name": "c55c31d5202b5172296717b28045f0d3", "is_reserved": 0, "rental_uris": {"android": "https://dc.lft.to/lastmile_qr_scan", "ios": "https://dc.lft.to/lastmile_qr_scan"}, "fusion_lon": 0.0}, {"lat": 38.91814566666667, "is_disabled": 0, "type": "electric_scooter", "lon": -77.02480783333333, "bike_id": "0a840df23f6dc7af3c720660ae15f2b1", "fusion_lat": 0.0, "name": "0a840df23f6dc7af3c720660ae15f2b1", "is_reserved": 0, "rental_uris": {"android": "https://dc.lft.to/lastmile_qr_scan", "ios": "https://dc.lft.to/lastmile_qr_scan"}, "fusion_lon": 0.0}, {"lat": 38.915444666666666, "is_disabled": 0, "type": "electric_scooter", "lon": -77.03850966666667, "bike_id": "5ae4afc9a997227202d0a3718388be3b", "fusion_lat": 0.0, "name": "5ae4afc9a997227202d0a3718388be3b", "is_reserved": 0, "rental_uris": {"android": "https://dc.lft.to/lastmile_qr_scan", "ios": "https://dc.lft.to/lastmile_qr_scan"}, "fusion_lon": 0.0}, {"lat": 38.922115166666664, "is_disabled": 0, "type": "electric_scooter", "lon": -77.0329895, "bike_id": "d9e718e05dd186f09887eb5a3185ead3", "fusion_lat": 0.0, "name": "d9e718e05dd186f09887eb5a3185ead3", "is_reserved": 0, "rental_uris": {"android": "https://dc.lft.to/lastmile_qr_scan", "ios": "https://dc.lft.to/lastmile_qr_scan"}, "fusion_lon": 0.0}, {"lat": 38.90498133333333, "is_disabled": 0, "type": "electric_scooter", "lon": -77.04332033333333, "bike_id": "39a7d3bdc5b4a5798eba9ddad787421f", "fusion_lat": 0.0, "name": "39a7d3bdc5b4a5798eba9ddad787421f", "is_reserved": 0, "rental_uris": {"android": "https://dc.lft.to/lastmile_qr_scan", "ios": "https://dc.lft.to/lastmile_qr_scan"}, "fusion_lon": 0.0}, {"lat": 38.90046183333333, "is_disabled": 0, "type": "electric_bike", "lon": -77.04185116666666, "bike_id": "7c3dc54c717a8b6a63cad4adc79d2126", "fusion_lat": 0.0, "name": "7c3dc54c717a8b6a63cad4adc79d2126", "is_reserved": 0, "rental_uris": {"android": "https://dc.lft.to/lastmile_qr_scan", "ios": "https://dc.lft.to/lastmile_qr_scan"}, "fusion_lon": 0.0}, {"lat": 38.879067166666665, "is_disabled": 0, "type": "electric_scooter", "lon": -77.0223425, "bike_id": "5a7203d426428292c1cdca94a3bd3234", "fusion_lat": 0.0, "name": "5a7203d426428292c1cdca94a3bd3234", "is_reserved": 0, "rental_uris": {"android": "https://dc.lft.to/lastmile_qr_scan", "ios": "https://dc.lft.to/lastmile_qr_scan"}, "fusion_lon": 0.0}, {"lat": 38.928794, "is_disabled": 0, "type": "electric_scooter", "lon": -77.027128, "bike_id": "6715efe4fc741fa29ce9be99e31885b4", "fusion_lat": 0.0, "name": "6715efe4fc741fa29ce9be99e31885b4", "is_reserved": 0, "rental_uris": {"android": "https://dc.lft.to/lastmile_qr_scan", "ios": "https://dc.lft.to/lastmile_qr_scan"}, "fusion_lon": 0.0}, {"lat": 39.08850183333333, "is_disabled": 0, "type": "electric_bike", "lon": -77.17844433333333, "bike_id": "50c90f968b1cd8a5a1f78a1289d5b99a", "fusion_lat": 0.0, "name": "50c90f968b1cd8a5a1f78a1289d5b99a", "is_reserved": 0, "rental_uris": {"android": "https://dc.lft.to/lastmile_qr_scan", "ios": "https://dc.lft.to/lastmile_qr_scan"}, "fusion_lon": 0.0}, {"lat": 38.983622833333335, "is_disabled": 0, "type": "electric_scooter", "lon": -77.02651983333334, "bike_id": "62e63c4ebbcd67b3dd96fa5949bf82a8", "fusion_lat": 0.0, "name": "62e63c4ebbcd67b3dd96fa5949bf82a8", "is_reserved": 0, "rental_uris": {"android": "https://dc.lft.to/lastmile_qr_scan", "ios": "https://dc.lft.to/lastmile_qr_scan"}, "fusion_lon": 0.0}, {"lat": 38.91270516666667, "is_disabled": 0, "type": "electric_scooter", "lon": -77.045159, "bike_id": "3f4af4a45b71ea338099a6b7ce0de85b", "fusion_lat": 0.0, "name": "3f4af4a45b71ea338099a6b7ce0de85b", "is_reserved": 0, "rental_uris": {"android": "https://dc.lft.to/lastmile_qr_scan", "ios": "https://dc.lft.to/lastmile_qr_scan"}, "fusion_lon": 0.0}, {"lat": 38.906183, "is_disabled": 0, "type": "electric_scooter", "lon": -77.03969116666667, "bike_id": "356c64af69f263323c9de1fae2aad105", "fusion_lat": 0.0, "name": "356c64af69f263323c9de1fae2aad105", "is_reserved": 0, "rental_uris": {"android": "https://dc.lft.to/lastmile_qr_scan", "ios": "https://dc.lft.to/lastmile_qr_scan"}, "fusion_lon": 0.0}, {"lat": 38.90331283333333, "is_disabled": 0, "type": "electric_scooter", "lon": -77.0376675, "bike_id": "418954c9cb74cc82db0345c4cf5ee8b5", "fusion_lat": 0.0, "name": "418954c9cb74cc82db0345c4cf5ee8b5", "is_reserved": 0, "rental_uris": {"android": "https://dc.lft.to/lastmile_qr_scan", "ios": "https://dc.lft.to/lastmile_qr_scan"}, "fusion_lon": 0.0}, {"lat": 38.9155235, "is_disabled": 0, "type": "electric_scooter", "lon": -77.03847683333333, "bike_id": "8aaa1488bd57858a0f7d9c02559f56da", "fusion_lat": 0.0, "name": "8aaa1488bd57858a0f7d9c02559f56da", "is_reserved": 0, "rental_uris": {"android": "https://dc.lft.to/lastmile_qr_scan", "ios": "https://dc.lft.to/lastmile_qr_scan"}, "fusion_lon": 0.0}, {"lat": 38.86046966666667, "is_disabled": 0, "type": "electric_scooter", "lon": -77.05762816666666, "bike_id": "117f6fb69eca5a3d674b0d1ddd3576b9", "fusion_lat": 0.0, "name": "117f6fb69eca5a3d674b0d1ddd3576b9", "is_reserved": 0, "rental_uris": {"android": "https://dc.lft.to/lastmile_qr_scan", "ios": "https://dc.lft.to/lastmile_qr_scan"}, "fusion_lon": 0.0}, {"lat": 38.92036016666667, "is_disabled": 0, "type": "electric_scooter", "lon": -76.97908233333334, "bike_id": "a4bca006af01bf39ed411ad591e21087", "fusion_lat": 0.0, "name": "a4bca006af01bf39ed411ad591e21087", "is_reserved": 0, "rental_uris": {"android": "https://dc.lft.to/lastmile_qr_scan", "ios": "https://dc.lft.to/lastmile_qr_scan"}, "fusion_lon": 0.0}, {"lat": 38.922805, "is_disabled": 0, "type": "electric_scooter", "lon": -77.03662916666667, "bike_id": "ced8b5e8a3a4b5cbdb57dfa183790253", "fusion_lat": 0.0, "name": "ced8b5e8a3a4b5cbdb57dfa183790253", "is_reserved": 0, "rental_uris": {"android": "https://dc.lft.to/lastmile_qr_scan", "ios": "https://dc.lft.to/lastmile_qr_scan"}, "fusion_lon": 0.0}, {"lat": 38.9051965, "is_disabled": 0, "type": "electric_scooter", "lon": -77.0477695, "bike_id": "a8f43689e395b240caba15cea841402e", "fusion_lat": 0.0, "name": "a8f43689e395b240caba15cea841402e", "is_reserved": 0, "rental_uris": {"android": "https://dc.lft.to/lastmile_qr_scan", "ios": "https://dc.lft.to/lastmile_qr_scan"}, "fusion_lon": 0.0}, {"lat": 38.9168985, "is_disabled": 0, "type": "electric_scooter", "lon": -77.02744583333333, "bike_id": "e15a51ec11f00e466aa2e3dd272b010d", "fusion_lat": 0.0, "name": "e15a51ec11f00e466aa2e3dd272b010d", "is_reserved": 0, "rental_uris": {"android": "https://dc.lft.to/lastmile_qr_scan", "ios": "https://dc.lft.to/lastmile_qr_scan"}, "fusion_lon": 0.0}, {"lat": 38.892231, "is_disabled": 0, "type": "electric_scooter", "lon": -77.03343733333334, "bike_id": "a72e553ce713067d19caf80878998c98", "fusion_lat": 0.0, "name": "a72e553ce713067d19caf80878998c98", "is_reserved": 0, "rental_uris": {"android": "https://dc.lft.to/lastmile_qr_scan", "ios": "https://dc.lft.to/lastmile_qr_scan"}, "fusion_lon": 0.0}, {"lat": 38.927095, "is_disabled": 0, "type": "electric_scooter", "lon": -77.03640216666666, "bike_id": "98c783968f781818c059e33a854ea572", "fusion_lat": 0.0, "name": "98c783968f781818c059e33a854ea572", "is_reserved": 0, "rental_uris": {"android": "https://dc.lft.to/lastmile_qr_scan", "ios": "https://dc.lft.to/lastmile_qr_scan"}, "fusion_lon": 0.0}, {"lat": 38.91877483333333, "is_disabled": 0, "type": "electric_scooter", "lon": -77.04256233333334, "bike_id": "e9e7b29bed7fdec6f5bd9d918c8d9470", "fusion_lat": 0.0, "name": "e9e7b29bed7fdec6f5bd9d918c8d9470", "is_reserved": 0, "rental_uris": {"android": "https://dc.lft.to/lastmile_qr_scan", "ios": "https://dc.lft.to/lastmile_qr_scan"}, "fusion_lon": 0.0}, {"lat": 38.866165, "is_disabled": 0, "type": "electric_scooter", "lon": -76.98662933333334, "bike_id": "0f97863c2c7fafd30b80fc85e437689b", "fusion_lat": 0.0, "name": "0f97863c2c7fafd30b80fc85e437689b", "is_reserved": 0, "rental_uris": {"android": "https://dc.lft.to/lastmile_qr_scan", "ios": "https://dc.lft.to/lastmile_qr_scan"}, "fusion_lon": 0.0}, {"lat": 38.966105166666665, "is_disabled": 0, "type": "electric_bike", "lon": -77.03655583333334, "bike_id": "f776c7a6f6673597c0c6222f8d72261e", "fusion_lat": 0.0, "name": "f776c7a6f6673597c0c6222f8d72261e", "is_reserved": 0, "rental_uris": {"android": "https://dc.lft.to/lastmile_qr_scan", "ios": "https://dc.lft.to/lastmile_qr_scan"}, "fusion_lon": 0.0}, {"lat": 38.90844283333333, "is_disabled": 0, "type": "electric_scooter", "lon": -77.0126855, "bike_id": "24ceb124d26ab0cb421e68245861d0b5", "fusion_lat": 0.0, "name": "24ceb124d26ab0cb421e68245861d0b5", "is_reserved": 0, "rental_uris": {"android": "https://dc.lft.to/lastmile_qr_scan", "ios": "https://dc.lft.to/lastmile_qr_scan"}, "fusion_lon": 0.0}, {"lat": 38.812191166666665, "is_disabled": 0, "type": "electric_bike", "lon": -77.10986633333333, "bike_id": "cbb98ec8588ce899dfcb329f2a4a5d6f", "fusion_lat": 0.0, "name": "cbb98ec8588ce899dfcb329f2a4a5d6f", "is_reserved": 0, "rental_uris": {"android": "https://dc.lft.to/lastmile_qr_scan", "ios": "https://dc.lft.to/lastmile_qr_scan"}, "fusion_lon": 0.0}, {"lat": 38.899607833333334, "is_disabled": 0, "type": "electric_scooter", "lon": -77.01632183333334, "bike_id": "f863b72459190007dc9ff62efe77af8e", "fusion_lat": 0.0, "name": "f863b72459190007dc9ff62efe77af8e", "is_reserved": 0, "rental_uris": {"android": "https://dc.lft.to/lastmile_qr_scan", "ios": "https://dc.lft.to/lastmile_qr_scan"}, "fusion_lon": 0.0}, {"lat": 38.923403666666665, "is_disabled": 0, "type": "electric_scooter", "lon": -77.05076716666666, "bike_id": "caaad19a064f01395c7c2657bfecb0d0", "fusion_lat": 0.0, "name": "caaad19a064f01395c7c2657bfecb0d0", "is_reserved": 0, "rental_uris": {"android": "https://dc.lft.to/lastmile_qr_scan", "ios": "https://dc.lft.to/lastmile_qr_scan"}, "fusion_lon": 0.0}, {"lat": 38.917092, "is_disabled": 0, "type": "electric_scooter", "lon": -77.038871, "bike_id": "8d2cc2d79876fc4c393f891a2b546265", "fusion_lat": 0.0, "name": "8d2cc2d79876fc4c393f891a2b546265", "is_reserved": 0, "rental_uris": {"android": "https://dc.lft.to/lastmile_qr_scan", "ios": "https://dc.lft.to/lastmile_qr_scan"}, "fusion_lon": 0.0}, {"lat": 38.845882333333336, "is_disabled": 0, "type": "electric_bike", "lon": -77.07683216666666, "bike_id": "7c3acec03ede0cb5bdb8fc457b6fc15a", "fusion_lat": 0.0, "name": "7c3acec03ede0cb5bdb8fc457b6fc15a", "is_reserved": 0, "rental_uris": {"android": "https://dc.lft.to/lastmile_qr_scan", "ios": "https://dc.lft.to/lastmile_qr_scan"}, "fusion_lon": 0.0}, {"lat": 38.8975675, "is_disabled": 0, "type": "electric_scooter", "lon": -76.94183783333334, "bike_id": "be7f4e2f046017ef56425e2be09b186d", "fusion_lat": 0.0, "name": "be7f4e2f046017ef56425e2be09b186d", "is_reserved": 0, "rental_uris": {"android": "https://dc.lft.to/lastmile_qr_scan", "ios": "https://dc.lft.to/lastmile_qr_scan"}, "fusion_lon": 0.0}, {"lat": 38.89041783333333, "is_disabled": 0, "type": "electric_scooter", "lon": -76.93734733333334, "bike_id": "3e4c2d05bd0a644886bc1f3142d66886", "fusion_lat": 0.0, "name": "3e4c2d05bd0a644886bc1f3142d66886", "is_reserved": 0, "rental_uris": {"android": "https://dc.lft.to/lastmile_qr_scan", "ios": "https://dc.lft.to/lastmile_qr_scan"}, "fusion_lon": 0.0}, {"lat": 38.90526233333333, "is_disabled": 0, "type": "electric_scooter", "lon": -77.05179016666666, "bike_id": "785ea0acd68cc537031474151e893cbf", "fusion_lat": 0.0, "name": "785ea0acd68cc537031474151e893cbf", "is_reserved": 0, "rental_uris": {"android": "https://dc.lft.to/lastmile_qr_scan", "ios": "https://dc.lft.to/lastmile_qr_scan"}, "fusion_lon": 0.0}, {"lat": 38.92471916666667, "is_disabled": 0, "type": "electric_scooter", "lon": -77.02726266666667, "bike_id": "338a198d230a65e142f3fff7c0444a6b", "fusion_lat": 0.0, "name": "338a198d230a65e142f3fff7c0444a6b", "is_reserved": 0, "rental_uris": {"android": "https://dc.lft.to/lastmile_qr_scan", "ios": "https://dc.lft.to/lastmile_qr_scan"}, "fusion_lon": 0.0}, {"lat": 38.92166516666666, "is_disabled": 0, "type": "electric_scooter", "lon": -77.03823466666667, "bike_id": "de4fa69cc04be486cd9f0001fd090b24", "fusion_lat": 0.0, "name": "de4fa69cc04be486cd9f0001fd090b24", "is_reserved": 0, "rental_uris": {"android": "https://dc.lft.to/lastmile_qr_scan", "ios": "https://dc.lft.to/lastmile_qr_scan"}, "fusion_lon": 0.0}, {"lat": 38.914793833333334, "is_disabled": 0, "type": "electric_scooter", "lon": -77.040939, "bike_id": "f05cd27fdb4c1c92650092faa2f68862", "fusion_lat": 0.0, "name": "f05cd27fdb4c1c92650092faa2f68862", "is_reserved": 0, "rental_uris": {"android": "https://dc.lft.to/lastmile_qr_scan", "ios": "https://dc.lft.to/lastmile_qr_scan"}, "fusion_lon": 0.0}, {"lat": 38.8551305, "is_disabled": 0, "type": "electric_bike", "lon": -76.98413133333334, "bike_id": "ee7c4117dc4eb4237bca1accda631ddd", "fusion_lat": 0.0, "name": "ee7c4117dc4eb4237bca1accda631ddd", "is_reserved": 0, "rental_uris": {"android": "https://dc.lft.to/lastmile_qr_scan", "ios": "https://dc.lft.to/lastmile_qr_scan"}, "fusion_lon": 0.0}, {"lat": 38.8945305, "is_disabled": 0, "type": "electric_scooter", "lon": -77.04681066666667, "bike_id": "b54bf2510d972a9d830bb717e1e6f598", "fusion_lat": 0.0, "name": "b54bf2510d972a9d830bb717e1e6f598", "is_reserved": 0, "rental_uris": {"android": "https://dc.lft.to/lastmile_qr_scan", "ios": "https://dc.lft.to/lastmile_qr_scan"}, "fusion_lon": 0.0}, {"lat": 38.892317, "is_disabled": 0, "type": "electric_scooter", "lon": -77.02804583333334, "bike_id": "9d7590c800edfa0cd889e8c8bac30264", "fusion_lat": 0.0, "name": "9d7590c800edfa0cd889e8c8bac30264", "is_reserved": 0, "rental_uris": {"android": "https://dc.lft.to/lastmile_qr_scan", "ios": "https://dc.lft.to/lastmile_qr_scan"}, "fusion_lon": 0.0}, {"lat": 38.903888, "is_disabled": 0, "type": "electric_scooter", "lon": -77.01847816666667, "bike_id": "be69ef9b6509778ee32befe938a278d3", "fusion_lat": 0.0, "name": "be69ef9b6509778ee32befe938a278d3", "is_reserved": 0, "rental_uris": {"android": "https://dc.lft.to/lastmile_qr_scan", "ios": "https://dc.lft.to/lastmile_qr_scan"}, "fusion_lon": 0.0}, {"lat": 38.89770333333333, "is_disabled": 0, "type": "electric_scooter", "lon": -77.03204666666667, "bike_id": "9c9140a69cc8957a93b38d7c4be3fae9", "fusion_lat": 0.0, "name": "9c9140a69cc8957a93b38d7c4be3fae9", "is_reserved": 0, "rental_uris": {"android": "https://dc.lft.to/lastmile_qr_scan", "ios": "https://dc.lft.to/lastmile_qr_scan"}, "fusion_lon": 0.0}, {"lat": 38.8842875, "is_disabled": 0, "type": "electric_scooter", "lon": -76.95761616666667, "bike_id": "d1c7471ccf5296371c655c764b83b599", "fusion_lat": 0.0, "name": "d1c7471ccf5296371c655c764b83b599", "is_reserved": 0, "rental_uris": {"android": "https://dc.lft.to/lastmile_qr_scan", "ios": "https://dc.lft.to/lastmile_qr_scan"}, "fusion_lon": 0.0}, {"lat": 38.89223116666667, "is_disabled": 0, "type": "electric_scooter", "lon": -77.04656816666666, "bike_id": "6e0cf51d780ac666bd44233e536f5f83", "fusion_lat": 0.0, "name": "6e0cf51d780ac666bd44233e536f5f83", "is_reserved": 0, "rental_uris": {"android": "https://dc.lft.to/lastmile_qr_scan", "ios": "https://dc.lft.to/lastmile_qr_scan"}, "fusion_lon": 0.0}, {"lat": 38.916984166666666, "is_disabled": 0, "type": "electric_scooter", "lon": -77.04608966666666, "bike_id": "90993cdb489439c63c21ee456a3cf1e7", "fusion_lat": 0.0, "name": "90993cdb489439c63c21ee456a3cf1e7", "is_reserved": 0, "rental_uris": {"android": "https://dc.lft.to/lastmile_qr_scan", "ios": "https://dc.lft.to/lastmile_qr_scan"}, "fusion_lon": 0.0}, {"lat": 38.93979183333333, "is_disabled": 0, "type": "electric_scooter", "lon": -77.0289485, "bike_id": "d2d9b45a3b3f16d36cbc0b76ebb14d72", "fusion_lat": 0.0, "name": "d2d9b45a3b3f16d36cbc0b76ebb14d72", "is_reserved": 0, "rental_uris": {"android": "https://dc.lft.to/lastmile_qr_scan", "ios": "https://dc.lft.to/lastmile_qr_scan"}, "fusion_lon": 0.0}, {"lat": 38.892306833333336, "is_disabled": 0, "type": "electric_scooter", "lon": -77.05001916666667, "bike_id": "037a4373e636a675a44f0b7a0d3030f3", "fusion_lat": 0.0, "name": "037a4373e636a675a44f0b7a0d3030f3", "is_reserved": 0, "rental_uris": {"android": "https://dc.lft.to/lastmile_qr_scan", "ios": "https://dc.lft.to/lastmile_qr_scan"}, "fusion_lon": 0.0}, {"lat": 38.85949766666667, "is_disabled": 0, "type": "electric_scooter", "lon": -76.99100316666667, "bike_id": "0ca718a0b8f4d6c08a4379e366880266", "fusion_lat": 0.0, "name": "0ca718a0b8f4d6c08a4379e366880266", "is_reserved": 0, "rental_uris": {"android": "https://dc.lft.to/lastmile_qr_scan", "ios": "https://dc.lft.to/lastmile_qr_scan"}, "fusion_lon": 0.0}, {"lat": 38.93981266666667, "is_disabled": 0, "type": "electric_scooter", "lon": -77.032701, "bike_id": "f328ab499fc7f5575ad490c6f1a5edcf", "fusion_lat": 0.0, "name": "f328ab499fc7f5575ad490c6f1a5edcf", "is_reserved": 0, "rental_uris": {"android": "https://dc.lft.to/lastmile_qr_scan", "ios": "https://dc.lft.to/lastmile_qr_scan"}, "fusion_lon": 0.0}, {"lat": 38.9112985, "is_disabled": 0, "type": "electric_scooter", "lon": -77.04659133333334, "bike_id": "4c567c98bd6f5cb6772723b5023523c1", "fusion_lat": 0.0, "name": "4c567c98bd6f5cb6772723b5023523c1", "is_reserved": 0, "rental_uris": {"android": "https://dc.lft.to/lastmile_qr_scan", "ios": "https://dc.lft.to/lastmile_qr_scan"}, "fusion_lon": 0.0}, {"lat": 38.91810266666667, "is_disabled": 0, "type": "electric_scooter", "lon": -77.03305383333333, "bike_id": "a2f71a48ff0e31fce37174e19d2e4468", "fusion_lat": 0.0, "name": "a2f71a48ff0e31fce37174e19d2e4468", "is_reserved": 0, "rental_uris": {"android": "https://dc.lft.to/lastmile_qr_scan", "ios": "https://dc.lft.to/lastmile_qr_scan"}, "fusion_lon": 0.0}, {"lat": 38.92471833333333, "is_disabled": 0, "type": "electric_scooter", "lon": -77.02629983333334, "bike_id": "e75b31b0949e583eb0725133072b0418", "fusion_lat": 0.0, "name": "e75b31b0949e583eb0725133072b0418", "is_reserved": 0, "rental_uris": {"android": "https://dc.lft.to/lastmile_qr_scan", "ios": "https://dc.lft.to/lastmile_qr_scan"}, "fusion_lon": 0.0}, {"lat": 38.898642833333334, "is_disabled": 0, "type": "electric_scooter", "lon": -77.027209, "bike_id": "27d6058cad6bb28bf8df43d1b68243fd", "fusion_lat": 0.0, "name": "27d6058cad6bb28bf8df43d1b68243fd", "is_reserved": 0, "rental_uris": {"android": "https://dc.lft.to/lastmile_qr_scan", "ios": "https://dc.lft.to/lastmile_qr_scan"}, "fusion_lon": 0.0}, {"lat": 38.916702666666666, "is_disabled": 0, "type": "electric_scooter", "lon": -77.03213866666667, "bike_id": "6bde00e8bd44a386cd59ec864d971e84", "fusion_lat": 0.0, "name": "6bde00e8bd44a386cd59ec864d971e84", "is_reserved": 0, "rental_uris": {"android": "https://dc.lft.to/lastmile_qr_scan", "ios": "https://dc.lft.to/lastmile_qr_scan"}, "fusion_lon": 0.0}, {"lat": 38.917965833333334, "is_disabled": 0, "type": "electric_scooter", "lon": -77.03445883333333, "bike_id": "019366ebf4bae22060a6d9c96199c78f", "fusion_lat": 0.0, "name": "019366ebf4bae22060a6d9c96199c78f", "is_reserved": 0, "rental_uris": {"android": "https://dc.lft.to/lastmile_qr_scan", "ios": "https://dc.lft.to/lastmile_qr_scan"}, "fusion_lon": 0.0}, {"lat": 38.906115166666666, "is_disabled": 0, "type": "electric_scooter", "lon": -77.0433535, "bike_id": "d67957bc5876594b02a91dac7b047dd1", "fusion_lat": 0.0, "name": "d67957bc5876594b02a91dac7b047dd1", "is_reserved": 0, "rental_uris": {"android": "https://dc.lft.to/lastmile_qr_scan", "ios": "https://dc.lft.to/lastmile_qr_scan"}, "fusion_lon": 0.0}, {"lat": 38.90544666666667, "is_disabled": 0, "type": "electric_scooter", "lon": -77.04673533333333, "bike_id": "09d30b814939098003c6146bd5887e4a", "fusion_lat": 0.0, "name": "09d30b814939098003c6146bd5887e4a", "is_reserved": 0, "rental_uris": {"android": "https://dc.lft.to/lastmile_qr_scan", "ios": "https://dc.lft.to/lastmile_qr_scan"}, "fusion_lon": 0.0}, {"lat": 38.911155, "is_disabled": 0, "type": "electric_scooter", "lon": -77.04369483333333, "bike_id": "ccb1f69b19cef74b1ca300d1e0cfdfc4", "fusion_lat": 0.0, "name": "ccb1f69b19cef74b1ca300d1e0cfdfc4", "is_reserved": 0, "rental_uris": {"android": "https://dc.lft.to/lastmile_qr_scan", "ios": "https://dc.lft.to/lastmile_qr_scan"}, "fusion_lon": 0.0}, {"lat": 38.9071265, "is_disabled": 0, "type": "electric_scooter", "lon": -77.0490695, "bike_id": "5d9c1e2267c39cadcdd131db9d841215", "fusion_lat": 0.0, "name": "5d9c1e2267c39cadcdd131db9d841215", "is_reserved": 0, "rental_uris": {"android": "https://dc.lft.to/lastmile_qr_scan", "ios": "https://dc.lft.to/lastmile_qr_scan"}, "fusion_lon": 0.0}, {"lat": 38.898818, "is_disabled": 0, "type": "electric_scooter", "lon": -76.93179916666666, "bike_id": "d5be53ccc21cb3e57af08a0c53613e3b", "fusion_lat": 0.0, "name": "d5be53ccc21cb3e57af08a0c53613e3b", "is_reserved": 0, "rental_uris": {"android": "https://dc.lft.to/lastmile_qr_scan", "ios": "https://dc.lft.to/lastmile_qr_scan"}, "fusion_lon": 0.0}, {"lat": 38.89600516666667, "is_disabled": 0, "type": "electric_scooter", "lon": -77.05440083333333, "bike_id": "589ec6401d4eaff341a383c1a3c4b44b", "fusion_lat": 0.0, "name": "589ec6401d4eaff341a383c1a3c4b44b", "is_reserved": 0, "rental_uris": {"android": "https://dc.lft.to/lastmile_qr_scan", "ios": "https://dc.lft.to/lastmile_qr_scan"}, "fusion_lon": 0.0}, {"lat": 38.911260166666665, "is_disabled": 0, "type": "electric_scooter", "lon": -77.03195216666667, "bike_id": "54af85aabf8f7283d2fb976bb5c98cd3", "fusion_lat": 0.0, "name": "54af85aabf8f7283d2fb976bb5c98cd3", "is_reserved": 0, "rental_uris": {"android": "https://dc.lft.to/lastmile_qr_scan", "ios": "https://dc.lft.to/lastmile_qr_scan"}, "fusion_lon": 0.0}, {"lat": 38.94020316666667, "is_disabled": 0, "type": "electric_scooter", "lon": -77.0717855, "bike_id": "84cd1c89c8a0766f89ecf9cdd9fb018d", "fusion_lat": 0.0, "name": "84cd1c89c8a0766f89ecf9cdd9fb018d", "is_reserved": 0, "rental_uris": {"android": "https://dc.lft.to/lastmile_qr_scan", "ios": "https://dc.lft.to/lastmile_qr_scan"}, "fusion_lon": 0.0}, {"lat": 38.85046166666667, "is_disabled": 0, "type": "electric_bike", "lon": -76.97321833333334, "bike_id": "506dcf1d70b8a6837c42bb88bd62f674", "fusion_lat": 0.0, "name": "506dcf1d70b8a6837c42bb88bd62f674", "is_reserved": 0, "rental_uris": {"android": "https://dc.lft.to/lastmile_qr_scan", "ios": "https://dc.lft.to/lastmile_qr_scan"}, "fusion_lon": 0.0}, {"lat": 38.92240066666667, "is_disabled": 0, "type": "electric_scooter", "lon": -77.04576316666666, "bike_id": "de65ef33dbe7a980a00e64a905440c1c", "fusion_lat": 0.0, "name": "de65ef33dbe7a980a00e64a905440c1c", "is_reserved": 0, "rental_uris": {"android": "https://dc.lft.to/lastmile_qr_scan", "ios": "https://dc.lft.to/lastmile_qr_scan"}, "fusion_lon": 0.0}, {"lat": 38.905101, "is_disabled": 0, "type": "electric_scooter", "lon": -77.0620815, "bike_id": "43ae57a18e373b73ab96969f4482626f", "fusion_lat": 0.0, "name": "43ae57a18e373b73ab96969f4482626f", "is_reserved": 0, "rental_uris": {"android": "https://dc.lft.to/lastmile_qr_scan", "ios": "https://dc.lft.to/lastmile_qr_scan"}, "fusion_lon": 0.0}, {"lat": 38.90043333333333, "is_disabled": 0, "type": "electric_scooter", "lon": -77.00180866666666, "bike_id": "05dba693790862e98b853766a729eaa7", "fusion_lat": 0.0, "name": "05dba693790862e98b853766a729eaa7", "is_reserved": 0, "rental_uris": {"android": "https://dc.lft.to/lastmile_qr_scan", "ios": "https://dc.lft.to/lastmile_qr_scan"}, "fusion_lon": 0.0}, {"lat": 38.87630383333333, "is_disabled": 0, "type": "electric_scooter", "lon": -76.96529433333333, "bike_id": "514db24e5350f1a473b8776a6e8a9440", "fusion_lat": 0.0, "name": "514db24e5350f1a473b8776a6e8a9440", "is_reserved": 0, "rental_uris": {"android": "https://dc.lft.to/lastmile_qr_scan", "ios": "https://dc.lft.to/lastmile_qr_scan"}, "fusion_lon": 0.0}, {"lat": 38.8933055, "is_disabled": 0, "type": "electric_scooter", "lon": -76.9299235, "bike_id": "ddefa3556e632301b7d448e6636c892c", "fusion_lat": 0.0, "name": "ddefa3556e632301b7d448e6636c892c", "is_reserved": 0, "rental_uris": {"android": "https://dc.lft.to/lastmile_qr_scan", "ios": "https://dc.lft.to/lastmile_qr_scan"}, "fusion_lon": 0.0}, {"lat": 38.90514783333333, "is_disabled": 0, "type": "electric_scooter", "lon": -77.04744883333333, "bike_id": "fd67c7c86bd61f0502c72f24d87aa07a", "fusion_lat": 0.0, "name": "fd67c7c86bd61f0502c72f24d87aa07a", "is_reserved": 0, "rental_uris": {"android": "https://dc.lft.to/lastmile_qr_scan", "ios": "https://dc.lft.to/lastmile_qr_scan"}, "fusion_lon": 0.0}, {"lat": 38.92169716666667, "is_disabled": 0, "type": "electric_scooter", "lon": -77.03217066666667, "bike_id": "a6103f67c2bab0761c972af2db27aa92", "fusion_lat": 0.0, "name": "a6103f67c2bab0761c972af2db27aa92", "is_reserved": 0, "rental_uris": {"android": "https://dc.lft.to/lastmile_qr_scan", "ios": "https://dc.lft.to/lastmile_qr_scan"}, "fusion_lon": 0.0}, {"lat": 38.91665833333333, "is_disabled": 0, "type": "electric_scooter", "lon": -77.0386125, "bike_id": "36d8792d7736bd00283465dee87ba938", "fusion_lat": 0.0, "name": "36d8792d7736bd00283465dee87ba938", "is_reserved": 0, "rental_uris": {"android": "https://dc.lft.to/lastmile_qr_scan", "ios": "https://dc.lft.to/lastmile_qr_scan"}, "fusion_lon": 0.0}, {"lat": 38.919174166666664, "is_disabled": 0, "type": "electric_scooter", "lon": -77.02522266666666, "bike_id": "f9164b286caac30213c5ee31af2dd209", "fusion_lat": 0.0, "name": "f9164b286caac30213c5ee31af2dd209", "is_reserved": 0, "rental_uris": {"android": "https://dc.lft.to/lastmile_qr_scan", "ios": "https://dc.lft.to/lastmile_qr_scan"}, "fusion_lon": 0.0}, {"lat": 38.90096533333333, "is_disabled": 0, "type": "electric_scooter", "lon": -77.0136725, "bike_id": "98424511a7ffde7c4ec51378044fb0fd", "fusion_lat": 0.0, "name": "98424511a7ffde7c4ec51378044fb0fd", "is_reserved": 0, "rental_uris": {"android": "https://dc.lft.to/lastmile_qr_scan", "ios": "https://dc.lft.to/lastmile_qr_scan"}, "fusion_lon": 0.0}, {"lat": 38.89620766666667, "is_disabled": 0, "type": "electric_scooter", "lon": -76.998487, "bike_id": "6b35abcb6113dc8adb565b7497661fa3", "fusion_lat": 0.0, "name": "6b35abcb6113dc8adb565b7497661fa3", "is_reserved": 0, "rental_uris": {"android": "https://dc.lft.to/lastmile_qr_scan", "ios": "https://dc.lft.to/lastmile_qr_scan"}, "fusion_lon": 0.0}, {"lat": 38.873689, "is_disabled": 0, "type": "electric_scooter", "lon": -77.000879, "bike_id": "a62a5954602db6150da563ad1480e2d6", "fusion_lat": 0.0, "name": "a62a5954602db6150da563ad1480e2d6", "is_reserved": 0, "rental_uris": {"android": "https://dc.lft.to/lastmile_qr_scan", "ios": "https://dc.lft.to/lastmile_qr_scan"}, "fusion_lon": 0.0}, {"lat": 39.03404966666667, "is_disabled": 0, "type": "electric_bike", "lon": -77.04213383333334, "bike_id": "26213cc6a87289e0ca037a845d53c7fd", "fusion_lat": 0.0, "name": "26213cc6a87289e0ca037a845d53c7fd", "is_reserved": 0, "rental_uris": {"android": "https://dc.lft.to/lastmile_qr_scan", "ios": "https://dc.lft.to/lastmile_qr_scan"}, "fusion_lon": 0.0}, {"lat": 38.9031485, "is_disabled": 0, "type": "electric_scooter", "lon": -77.02042866666666, "bike_id": "3c659d525955e41f60697459b16ea951", "fusion_lat": 0.0, "name": "3c659d525955e41f60697459b16ea951", "is_reserved": 0, "rental_uris": {"android": "https://dc.lft.to/lastmile_qr_scan", "ios": "https://dc.lft.to/lastmile_qr_scan"}, "fusion_lon": 0.0}, {"lat": 38.911064, "is_disabled": 0, "type": "electric_scooter", "lon": -77.04203866666667, "bike_id": "707289f17b10c0c276b58a51661782ea", "fusion_lat": 0.0, "name": "707289f17b10c0c276b58a51661782ea", "is_reserved": 0, "rental_uris": {"android": "https://dc.lft.to/lastmile_qr_scan", "ios": "https://dc.lft.to/lastmile_qr_scan"}, "fusion_lon": 0.0}, {"lat": 38.92895016666667, "is_disabled": 0, "type": "electric_scooter", "lon": -77.03249933333333, "bike_id": "edae7ccc0182790cde09a48854a474ab", "fusion_lat": 0.0, "name": "edae7ccc0182790cde09a48854a474ab", "is_reserved": 0, "rental_uris": {"android": "https://dc.lft.to/lastmile_qr_scan", "ios": "https://dc.lft.to/lastmile_qr_scan"}, "fusion_lon": 0.0}, {"lat": 38.892197833333334, "is_disabled": 0, "type": "electric_scooter", "lon": -77.02777333333333, "bike_id": "9322da56592d4790b99bcb568676ee45", "fusion_lat": 0.0, "name": "9322da56592d4790b99bcb568676ee45", "is_reserved": 0, "rental_uris": {"android": "https://dc.lft.to/lastmile_qr_scan", "ios": "https://dc.lft.to/lastmile_qr_scan"}, "fusion_lon": 0.0},