{"data": {"bikes": [{"lat": 38.918200166666665, "is_disabled": 0, "type": "electric_scooter", "lon": -77.01214383333334, "bike_id": "42e4abdad83a0735c742b0d9bd1db9fd", "fusion_lat": 0.0, "name": "42e4abdad83a0735c742b0d9bd1db9fd", "is_reserved": 0, "rental_uris": {"android": "https://dc.lft.to/lastmile_qr_scan", "ios": "https://dc.lft.to/lastmile_qr_scan"}, "fusion_lon": 0.0}, {"lat": 38.91832566666667, "is_disabled": 0, "type": "electric_scooter", "lon": -77.03178816666667, "bike_id": "6f7588e00aee1fa1c93d3ea5c2ac8d6b", "fusion_lat": 0.0, "name": "6f7588e00aee1fa1c93d3ea5c2ac8d6b", "is_reserved": 0, "rental_uris": {"android": "https://dc.lft.to/lastmile_qr_scan", "ios": "https://dc.lft.to/lastmile_qr_scan"}, "fusion_lon": 0.0}, {"lat": 38.85447766666667, "is_disabled": 0, "type": "electric_scooter", "lon": -76.985769, "bike_id": "f5acd41f5ec77ca2dc1c1e0e354aef8f", "fusion_lat": 0.0, "name": "f5acd41f5ec77ca2dc1c1e0e354aef8f", "is_reserved": 0, "rental_uris": {"android": "https://dc.lft.to/lastmile_qr_scan", "ios": "https://dc.lft.to/lastmile_qr_scan"}, "fusion_lon": 0.0}, {"lat": 38.91736266666667, "is_disabled": 0, "type": "electric_scooter", "lon": -77.021192, "bike_id": "684327dd715c9d08e42d91f55fefc0c3", "fusion_lat": 0.0, "name": "684327dd715c9d08e42d91f55fefc0c3", "is_reserved": 0, "rental_uris": {"android": "https://dc.lft.to/lastmile_qr_scan", "ios": "https://dc.lft.to/lastmile_qr_scan"}, "fusion_lon": 0.0}, {"lat": 38.895249, "is_disabled": 0, "type": "electric_scooter", "lon": -77.022122, "bike_id": "2bd8bfdbbd160f0e4396a5aeba1afab2", "fusion_lat": 0.0, "name": "2bd8bfdbbd160f0e4396a5aeba1afab2", "is_reserved": 0, "rental_uris": {"android": "https://dc.lft.to/lastmile_qr_scan", "ios": "https://dc.lft.to/lastmile_qr_scan"}, "fusion_lon": 0.0}, {"lat": 38.8896835, "is_disabled": 0, "type": "electric_scooter", "lon": -76.9793725, "bike_id": "8debd6bb40c7ac8728e197c1f8c2de75", "fusion_lat": 0.0, "name": "8debd6bb40c7ac8728e197c1f8c2de75", "is_reserved": 0, "rental_uris": {"android": "https://dc.lft.to/lastmile_qr_scan", "ios": "https://dc.lft.to/lastmile_qr_scan"}, "fusion_lon": 0.0}, {"lat": 38.914046166666665, "is_disabled": 0, "type": "electric_scooter", "lon": -77.029298, "bike_id": "d5988d88de93172ed23f0cf269545b7c", "fusion_lat": 0.0, "name": "d5988d88de93172ed23f0cf269545b7c", "is_reserved": 0, "rental_uris": {"android": "https://dc.lft.to/lastmile_qr_scan", "ios": "https://dc.lft.to/lastmile_qr_scan"}, "fusion_lon": 0.0}, {"lat": 38.91034, "is_disabled": 0, "type": "electric_scooter", "lon": -76.99812, "bike_id": "67d9ab214cf57df9ae2c772d6ceb06d9", "fusion_lat": 0.0, "name": "67d9ab214cf57df9ae2c772d6ceb06d9", "is_reserved": 0, "rental_uris": {"android": "https://dc.lft.to/lastmile_qr_scan", "ios": "https://dc.lft.to/lastmile_qr_scan"}, "fusion_lon": 0.0}, {"lat": 38.86448133333333, "is_disabled": 0, "type": "electric_bike", "lon": -76.94537183333334, "bike_id": "df7767b37796d241149e5eaac37695f2", "fusion_lat": 0.0, "name": "df7767b37796d241149e5eaac37695f2", "is_reserved": 0, "rental_uris": {"android": "https://dc.lft.to/lastmile_qr_scan", "ios": "https://dc.lft.to/lastmile_qr_scan"}, "fusion_lon": 0.0}, {"lat": 38.87149633333333, "is_disabled": 0, "type": "electric_bike", "lon": -76.937004, "bike_id": "b5412c3b6c26ec64254dd8b34e476460", "fusion_lat": 0.0, "name": "b5412c3b6c26ec64254dd8b34e476460", "is_reserved": 0, "rental_uris": {"android": "https://dc.lft.to/lastmile_qr_scan", "ios": "https://dc.lft.to/lastmile_qr_scan"}, "fusion_lon": 0.0}, {"lat": 38.9580625, "is_disabled": 0, "type": "electric_scooter", "lon": -77.03163966666666, "bike_id": "0ad8510af1c48be477e90fb02a6dd29d", "fusion_lat": 0.0, "name": "0ad8510af1c48be477e90fb02a6dd29d", "is_reserved": 0, "rental_uris": {"android": "https://dc.lft.to/lastmile_qr_scan", "ios": "https://dc.lft.to/lastmile_qr_scan"}, "fusion_lon": 0.0}, {"lat": 38.89841716666667, "is_disabled": 0, "type": "electric_scooter", "lon": -77.02399616666666, "bike_id": "127411e10743ea9aad96ac163734ee59", "fusion_lat": 0.0, "name": "127411e10743ea9aad96ac163734ee59", "is_reserved": 0, "rental_uris": {"android": "https://dc.lft.to/lastmile_qr_scan", "ios": "https://dc.lft.to/lastmile_qr_scan"}, "fusion_lon": 0.0}, {"lat": 38.917021, "is_disabled": 0, "type": "electric_scooter", "lon": -77.00117816666666, "bike_id": "df033e6f240df1bdb5e595640c62dbf5", "fusion_lat": 0.0, "name": "df033e6f240df1bdb5e595640c62dbf5", "is_reserved": 0, "rental_uris": {"android": "https://dc.lft.to/lastmile_qr_scan", "ios": "https://dc.lft.to/lastmile_qr_scan"}, "fusion_lon": 0.0}, {"lat": 38.901108, "is_disabled": 0, "type": "electric_scooter", "lon": -77.0252595, "bike_id": "bfb2e80baa8eb3f13d2ff7b3b5511cd8", "fusion_lat": 0.0, "name": "bfb2e80baa8eb3f13d2ff7b3b5511cd8", "is_reserved": 0, "rental_uris": {"android": "https://dc.lft.to/lastmile_qr_scan", "ios": "https://dc.lft.to/lastmile_qr_scan"}, "fusion_lon": 0.0}, {"lat": 38.9200385, "is_disabled": 0, "type": "electric_scooter", "lon": -77.03879383333333, "bike_id": "c4d5a5b8de2f25b194dd7e9708b23219", "fusion_lat": 0.0, "name": "c4d5a5b8de2f25b194dd7e9708b23219", "is_reserved": 0, "rental_uris": {"android": "https://dc.lft.to/lastmile_qr_scan", "ios": "https://dc.lft.to/lastmile_qr_scan"}, "fusion_lon": 0.0}, {"lat": 38.93938466666667, "is_disabled": 0, "type": "electric_scooter", "lon": -77.03673616666667, "bike_id": "554e49d94c37d9a7e1970fa289c7ef55", "fusion_lat": 0.0, "name": "554e49d94c37d9a7e1970fa289c7ef55", "is_reserved": 0, "rental_uris": {"android": "https://dc.lft.to/lastmile_qr_scan", "ios": "https://dc.lft.to/lastmile_qr_scan"}, "fusion_lon": 0.0}, {"lat": 38.895575666666666, "is_disabled": 0, "type": "electric_scooter", "lon": -76.9307825, "bike_id": "c0fdf5fb2c525e0d0a240cebc3f0b969", "fusion_lat": 0.0, "name": "c0fdf5fb2c525e0d0a240cebc3f0b969", "is_reserved": 0, "rental_uris": {"android": "https://dc.lft.to/lastmile_qr_scan", "ios": "https://dc.lft.to/lastmile_qr_scan"}, "fusion_lon": 0.0}, {"lat": 38.926539, "is_disabled": 0, "type": "electric_scooter", "lon": -77.02434666666667, "bike_id": "c77123880106d2f25839c373b57798d4", "fusion_lat": 0.0, "name": "c77123880106d2f25839c373b57798d4", "is_reserved": 0, "rental_uris": {"android": "https://dc.lft.to/lastmile_qr_scan", "ios": "https://dc.lft.to/lastmile_qr_scan"}, "fusion_lon": 0.0}, {"lat": 38.939601333333336, "is_disabled": 0, "type": "electric_bike", "lon": -77.36093983333333, "bike_id": "1a51739f92351c4936cce9c96725b201", "fusion_lat": 0.0, "name": "1a51739f92351c4936cce9c96725b201", "is_reserved": 0, "rental_uris": {"android": "https://dc.lft.to/lastmile_qr_scan", "ios": "https://dc.lft.to/lastmile_qr_scan"}, "fusion_lon": 0.0}, {"lat": 38.89970316666667, "is_disabled": 0, "type": "electric_scooter", "lon": -77.0570275, "bike_id": "73508a6f26b3945e35ed5ce9b2bb49b1", "fusion_lat": 0.0, "name": "73508a6f26b3945e35ed5ce9b2bb49b1", "is_reserved": 0, "rental_uris": {"android": "https://dc.lft.to/lastmile_qr_scan", "ios": "https://dc.lft.to/lastmile_qr_scan"}, "fusion_lon": 0.0}, {"lat": 38.9275745, "is_disabled": 0, "type": "electric_scooter", "lon": -77.03216666666667, "bike_id": "c62885b52e59e25b6d31df986432102e", "fusion_lat": 0.0, "name": "c62885b52e59e25b6d31df986432102e", "is_reserved": 0, "rental_uris": {"android": "https://dc.lft.to/lastmile_qr_scan", "ios": "https://dc.lft.to/lastmile_qr_scan"}, "fusion_lon": 0.0}, {"lat": 38.952901833333335, "is_disabled": 0, "type": "electric_bike", "lon": -76.94598633333334, "bike_id": "5b521f99d388628c20bd06dbc17e3ade", "fusion_lat": 0.0, "name": "5b521f99d388628c20bd06dbc17e3ade", "is_reserved": 0, "rental_uris": {"android": "https://dc.lft.to/lastmile_qr_scan", "ios": "https://dc.lft.to/lastmile_qr_scan"}, "fusion_lon": 0.0}, {"lat": 38.8973125, "is_disabled": 0, "type": "electric_scooter", "lon": -77.04690516666666, "bike_id": "1287f8bd0a9ee7c0b3325fce6592df9c", "fusion_lat": 0.0, "name": "1287f8bd0a9ee7c0b3325fce6592df9c", "is_reserved": 0, "rental_uris": {"android": "https://dc.lft.to/lastmile_qr_scan", "ios": "https://dc.lft.to/lastmile_qr_scan"}, "fusion_lon": 0.0}, {"lat": 38.92046533333333, "is_disabled": 0, "type": "electric_scooter", "lon": -77.0347035, "bike_id": "fa539f0f270e8da776934e611c72a88e", "fusion_lat": 0.0, "name": "fa539f0f270e8da776934e611c72a88e", "is_reserved": 0, "rental_uris": {"android": "https://dc.lft.to/lastmile_qr_scan", "ios": "https://dc.lft.to/lastmile_qr_scan"}, "fusion_lon": 0.0}, {"lat": 38.866596333333334, "is_disabled": 0, "type": "electric_scooter", "lon": -76.9888035, "bike_id": "39c73889a35c8010acfb3fc762d5ccfd", "fusion_lat": 0.0, "name": "39c73889a35c8010acfb3fc762d5ccfd", "is_reserved": 0, "rental_uris": {"android": "https://dc.lft.to/lastmile_qr_scan", "ios": "https://dc.lft.to/lastmile_qr_scan"}, "fusion_lon": 0.0}, {"lat": 38.89517016666667, "is_disabled": 0, "type": "electric_scooter", "lon": -76.9773145, "bike_id": "fbb32751a9e94e528314d09cf1623c3a", "fusion_lat": 0.0, "name": "fbb32751a9e94e528314d09cf1623c3a", "is_reserved": 0, "rental_uris": {"android": "https://dc.lft.to/lastmile_qr_scan", "ios": "https://dc.lft.to/lastmile_qr_scan"}, "fusion_lon": 0.0}, {"lat": 38.917689833333334, "is_disabled": 0, "type": "electric_scooter", "lon": -77.0150055, "bike_id": "7a64e9190dc812e59247dd1798a9a210", "fusion_lat": 0.0, "name": "7a64e9190dc812e59247dd1798a9a210", "is_reserved": 0, "rental_uris": {"android": "https://dc.lft.to/lastmile_qr_scan", "ios": "https://dc.lft.to/lastmile_qr_scan"}, "fusion_lon": 0.0}, {"lat": 38.92029616666667, "is_disabled": 0, "type": "electric_bike", "lon": -77.00341983333334, "bike_id": "223e37f1aa05545d16308da35d7fca25", "fusion_lat": 0.0, "name": "223e37f1aa05545d16308da35d7fca25", "is_reserved": 0, "rental_uris": {"android": "https://dc.lft.to/lastmile_qr_scan", "ios": "https://dc.lft.to/lastmile_qr_scan"}, "fusion_lon": 0.0}, {"lat": 38.9004135, "is_disabled": 0, "type": "electric_scooter", "lon": -77.028945, "bike_id": "6cc0a28f8ef7e62fc482136ece1b09ce", "fusion_lat": 0.0, "name": "6cc0a28f8ef7e62fc482136ece1b09ce", "is_reserved": 0, "rental_uris": {"android": "https://dc.lft.to/lastmile_qr_scan", "ios": "https://dc.lft.to/lastmile_qr_scan"}, "fusion_lon": 0.0}, {"lat": 38.92187166666667, "is_disabled": 0, "type": "electric_scooter", "lon": -77.041224, "bike_id": "4a76851f797190c0ce8ed4d7b4d45b75", "fusion_lat": 0.0, "name": "4a76851f797190c0ce8ed4d7b4d45b75", "is_reserved": 0, "rental_uris": {"android": "https://dc.lft.to/lastmile_qr_scan", "ios": "https://dc.lft.to/lastmile_qr_scan"}, "fusion_lon": 0.0}, {"lat": 38.9548985, "is_disabled": 0, "type": "electric_scooter", "lon": -77.06571383333333, "bike_id": "834336a5fc9b8fb8b4dac826e066bd71", "fusion_lat": 0.0, "name": "834336a5fc9b8fb8b4dac826e066bd71", "is_reserved": 0, "rental_uris": {"android": "https://dc.lft.to/lastmile_qr_scan", "ios": "https://dc.lft.to/lastmile_qr_scan"}, "fusion_lon": 0.0}, {"lat": 38.90235083333334, "is_disabled": 0, "type": "electric_scooter", "lon": -77.0019775, "bike_id": "52174c9992e60d657a0a255c4a2da80a", "fusion_lat": 0.0, "name": "52174c9992e60d657a0a255c4a2da80a", "is_reserved": 0, "rental_uris": {"android": "https://dc.lft.to/lastmile_qr_scan", "ios": "https://dc.lft.to/lastmile_qr_scan"}, "fusion_lon": 0.0}, {"lat": 38.880817666666665, "is_disabled": 0, "type": "electric_scooter", "lon": -76.92719583333333, "bike_id": "5d0f5144cc5916cc18e14d7a8f4999de", "fusion_lat": 0.0, "name": "5d0f5144cc5916cc18e14d7a8f4999de", "is_reserved": 0, "rental_uris": {"android": "https://dc.lft.to/lastmile_qr_scan", "ios": "https://dc.lft.to/lastmile_qr_scan"}, "fusion_lon": 0.0}, {"lat": 38.89827016666667, "is_disabled": 0, "type": "electric_scooter", "lon": -77.025253, "bike_id": "b20017241db4d3dd7ea5e8c546f11a14", "fusion_lat": 0.0, "name": "b20017241db4d3dd7ea5e8c546f11a14", "is_reserved": 0, "rental_uris": {"android": "https://dc.lft.to/lastmile_qr_scan", "ios": "https://dc.lft.to/lastmile_qr_scan"}, "fusion_lon": 0.0}, {"lat": 38.9249485, "is_disabled": 0, "type": "electric_scooter", "lon": -77.00892266666666, "bike_id": "e1548ceba16dae46b531cd89df2129fb", "fusion_lat": 0.0, "name": "e1548ceba16dae46b531cd89df2129fb", "is_reserved": 0, "rental_uris": {"android": "https://dc.lft.to/lastmile_qr_scan", "ios": "https://dc.lft.to/lastmile_qr_scan"}, "fusion_lon": 0.0}, {"lat": 38.83932133333333, "is_disabled": 0, "type": "electric_bike", "lon": -77.07901666666666, "bike_id": "c9a37d09f00157cf16a2f5b6ffd64066", "fusion_lat": 0.0, "name": "c9a37d09f00157cf16a2f5b6ffd64066", "is_reserved": 0, "rental_uris": {"android": "https://dc.lft.to/lastmile_qr_scan", "ios": "https://dc.lft.to/lastmile_qr_scan"}, "fusion_lon": 0.0}, {"lat": 38.931007, "is_disabled": 0, "type": "electric_scooter", "lon": -77.02471616666666, "bike_id": "30b3f85f082bfb35ef55349418cd1af8", "fusion_lat": 0.0, "name": "30b3f85f082bfb35ef55349418cd1af8", "is_reserved": 0, "rental_uris": {"android": "https://dc.lft.to/lastmile_qr_scan", "ios": "https://dc.lft.to/lastmile_qr_scan"}, "fusion_lon": 0.0}, {"lat": 38.8795835, "is_disabled": 0, "type": "electric_scooter", "lon": -76.98332083333334, "bike_id": "8ab8b9f799e24bf426907ceaddc72a6b", "fusion_lat": 0.0, "name": "8ab8b9f799e24bf426907ceaddc72a6b", "is_reserved": 0, "rental_uris": {"android": "https://dc.lft.to/lastmile_qr_scan", "ios": "https://dc.lft.to/lastmile_qr_scan"}, "fusion_lon": 0.0}, {"lat": 38.893656666666665, "is_disabled": 0, "type": "electric_scooter", "lon": -76.94986783333333, "bike_id": "df17bc21d4f734750a86b2d5131ea894", "fusion_lat": 0.0, "name": "df17bc21d4f734750a86b2d5131ea894", "is_reserved": 0, "rental_uris": {"android": "https://dc.lft.to/lastmile_qr_scan", "ios": "https://dc.lft.to/lastmile_qr_scan"}, "fusion_lon": 0.0}, {"lat": 38.89963433333333, "is_disabled": 0, "type": "electric_scooter", "lon": -77.016088, "bike_id": "2d6509c88a9c76a608fc72397984794f", "fusion_lat": 0.0, "name": "2d6509c88a9c76a608fc72397984794f", "is_reserved": 0, "rental_uris": {"android": "https://dc.lft.to/lastmile_qr_scan", "ios": "https://dc.lft.to/lastmile_qr_scan"}, "fusion_lon": 0.0}, {"lat": 38.91622866666667, "is_disabled": 0, "type": "electric_scooter", "lon": -77.04857883333334, "bike_id": "4f3373dc64aed5e18ba1160f843b77df", "fusion_lat": 0.0, "name": "4f3373dc64aed5e18ba1160f843b77df", "is_reserved": 0, "rental_uris": {"android": "https://dc.lft.to/lastmile_qr_scan", "ios": "https://dc.lft.to/lastmile_qr_scan"}, "fusion_lon": 0.0}, {"lat": 38.86055266666666, "is_disabled": 0, "type": "electric_scooter", "lon": -77.057456, "bike_id": "724d2cbfa70feddb00018608b5584bdf", "fusion_lat": 0.0, "name": "724d2cbfa70feddb00018608b5584bdf", "is_reserved": 0, "rental_uris": {"android": "https://dc.lft.to/lastmile_qr_scan", "ios": "https://dc.lft.to/lastmile_qr_scan"}, "fusion_lon": 0.0}, {"lat": 38.91874466666667, "is_disabled": 0, "type": "electric_scooter", "lon": -77.04256033333333, "bike_id": "1c2c44b31c3b96b070060b13f8093b5d", "fusion_lat": 0.0, "name": "1c2c44b31c3b96b070060b13f8093b5d", "is_reserved": 0, "rental_uris": {"android": "https://dc.lft.to/lastmile_qr_scan", "ios": "https://dc.lft.to/lastmile_qr_scan"}, "fusion_lon": 0.0}, {"lat": 38.9160435, "is_disabled": 0, "type": "electric_scooter", "lon": -77.03844716666667, "bike_id": "fb1f61aebc08294901d7d0306cb4ee1a", "fusion_lat": 0.0, "name": "fb1f61aebc08294901d7d0306cb4ee1a", "is_reserved": 0, "rental_uris": {"android": "https://dc.lft.to/lastmile_qr_scan", "ios": "https://dc.lft.to/lastmile_qr_scan"}, "fusion_lon": 0.0}, {"lat": 38.900319833333334, "is_disabled": 0, "type": "electric_scooter", "lon": -77.0338895, "bike_id": "b4e29910db05393a0621dab2bc6f8391", "fusion_lat": 0.0, "name": "b4e29910db05393a0621dab2bc6f8391", "is_reserved": 0, "rental_uris": {"android": "https://dc.lft.to/lastmile_qr_scan", "ios": "https://dc.lft.to/lastmile_qr_scan"}, "fusion_lon": 0.0}, {"lat": 38.92154133333333, "is_disabled": 0, "type": "electric_scooter", "lon": -77.03654916666666, "bike_id": "8d4357d9d72a7eca494332d9343cedaf", "fusion_lat": 0.0, "name": "8d4357d9d72a7eca494332d9343cedaf", "is_reserved": 0, "rental_uris": {"android": "https://dc.lft.to/lastmile_qr_scan", "ios": "https://dc.lft.to/lastmile_qr_scan"}, "fusion_lon": 0.0}, {"lat": 38.9722585, "is_disabled": 0, "type": "electric_bike", "lon": -76.99346383333334, "bike_id": "584c91587125ede0b5ff33e119a06409", "fusion_lat": 0.0, "name": "584c91587125ede0b5ff33e119a06409", "is_reserved": 0, "rental_uris": {"android": "https://dc.lft.to/lastmile_qr_scan", "ios": "https://dc.lft.to/lastmile_qr_scan"}, "fusion_lon": 0.0}, {"lat": 38.93861616666667, "is_disabled": 0, "type": "electric_scooter", "lon": -77.02564083333333, "bike_id": "f94e8858f803188748084353da09c250", "fusion_lat": 0.0, "name": "f94e8858f803188748084353da09c250", "is_reserved": 0, "rental_uris": {"android": "https://dc.lft.to/lastmile_qr_scan", "ios": "https://dc.lft.to/lastmile_qr_scan"}, "fusion_lon": 0.0}, {"lat": 38.895349833333334, "is_disabled": 0, "type": "electric_scooter", "lon": -77.01121733333333, "bike_id": "464e1043aae97197885c40f023795076", "fusion_lat": 0.0, "name": "464e1043aae97197885c40f023795076", "is_reserved": 0, "rental_uris": {"android": "https://dc.lft.to/lastmile_qr_scan", "ios": "https://dc.lft.to/lastmile_qr_scan"}, "fusion_lon": 0.0}, {"lat": 38.905208333333334, "is_disabled": 0, "type": "electric_scooter", "lon": -77.06055366666666, "bike_id": "99a338fd1d327ed6e14ad560d02256cf", "fusion_lat": 0.0, "name": "99a338fd1d327ed6e14ad560d02256cf", "is_reserved": 0, "rental_uris": {"android": "https://dc.lft.to/lastmile_qr_scan", "ios": "https://dc.lft.to/lastmile_qr_scan"}, "fusion_lon": 0.0}, {"lat": 38.91861, "is_disabled": 0, "type": "electric_scooter", "lon": -77.0459195, "bike_id": "7ec51d0ad6b11d11890d1194ea4b5e00", "fusion_lat": 0.0, "name": "7ec51d0ad6b11d11890d1194ea4b5e00", "is_reserved": 0, "rental_uris": {"android": "https://dc.lft.to/lastmile_qr_scan", "ios": "https://dc.lft.to/lastmile_qr_scan"}, "fusion_lon": 0.0}, {"lat": 38.912546166666665, "is_disabled": 0, "type": "electric_scooter", "lon": -77.00623133333333, "bike_id": "d14300a7e4e34b1dd1acbbb8f00ef20f", "fusion_lat": 0.0, "name": "d14300a7e4e34b1dd1acbbb8f00ef20f", "is_reserved": 0, "rental_uris": {"android": "https://dc.lft.to/lastmile_qr_scan", "ios": "https://dc.lft.to/lastmile_qr_scan"}, "fusion_lon": 0.0}, {"lat": 38.90522583333333, "is_disabled": 0, "type": "electric_scooter", "lon": -77.047365, "bike_id": "709dfd9d5fce43de1042edd1b2303198", "fusion_lat": 0.0, "name": "709dfd9d5fce43de1042edd1b2303198", "is_reserved": 0, "rental_uris": {"android": "https://dc.lft.to/lastmile_qr_scan", "ios": "https://dc.lft.to/lastmile_qr_scan"}, "fusion_lon": 0.0}, {"lat": 38.91949783333333, "is_disabled": 0, "type": "electric_scooter", "lon": -76.98082116666667, "bike_id": "c6885ccb6af732150e0c5bdb9750f5c5", "fusion_lat": 0.0, "name": "c6885ccb6af732150e0c5bdb9750f5c5", "is_reserved": 0, "rental_uris": {"android": "https://dc.lft.to/lastmile_qr_scan", "ios": "https://dc.lft.to/lastmile_qr_scan"}, "fusion_lon": 0.0}, {"lat": 38.906136000000004, "is_disabled": 0, "type": "electric_scooter", "lon": -77.039553, "bike_id": "20ffe543b94cbc69fdc6bea308275ad1", "fusion_lat": 0.0, "name": "20ffe543b94cbc69fdc6bea308275ad1", "is_reserved": 0, "rental_uris": {"android": "https://dc.lft.to/lastmile_qr_scan", "ios": "https://dc.lft.to/lastmile_qr_scan"}, "fusion_lon": 0.0}, {"lat": 38.90315783333333, "is_disabled": 0, "type": "electric_scooter", "lon": -77.0378535, "bike_id": "7d4fc4a22ed26cb153498ff449ccdfc2", "fusion_lat": 0.0, "name": "7d4fc4a22ed26cb153498ff449ccdfc2", "is_reserved": 0, "rental_uris": {"android": "https://dc.lft.to/lastmile_qr_scan", "ios": "https://dc.lft.to/lastmile_qr_scan"}, "fusion_lon": 0.0}, {"lat": 38.916827, "is_disabled": 0, "type": "electric_scooter", "lon": -77.02943466666666, "bike_id": "f91f4038d4cd0f0747eddb55c8b9bd47", "fusion_lat": 0.0, "name": "f91f4038d4cd0f0747eddb55c8b9bd47", "is_reserved": 0, "rental_uris": {"android": "https://dc.lft.to/lastmile_qr_scan", "ios": "https://dc.lft.to/lastmile_qr_scan"}, "fusion_lon": 0.0}, {"lat": 38.919182166666666, "is_disabled": 0, "type": "electric_scooter", "lon": -77.03391716666667, "bike_id": "6527723bd3e285afcf28d8d27ecd6a7b", "fusion_lat": 0.0, "name": "6527723bd3e285afcf28d8d27ecd6a7b", "is_reserved": 0, "rental_uris": {"android": "https://dc.lft.to/lastmile_qr_scan", "ios": "https://dc.lft.to/lastmile_qr_scan"}, "fusion_lon": 0.0}, {"lat": 38.891027333333334, "is_disabled": 0, "type": "electric_scooter", "lon": -76.95236883333334, "bike_id": "05c77656c8a3ee70f9966762d7b0f80b", "fusion_lat": 0.0, "name": "05c77656c8a3ee70f9966762d7b0f80b", "is_reserved": 0, "rental_uris": {"android": "https://dc.lft.to/lastmile_qr_scan", "ios": "https://dc.lft.to/lastmile_qr_scan"}, "fusion_lon": 0.0}, {"lat": 38.90082433333333, "is_disabled": 0, "type": "electric_scooter", "lon": -77.04980866666666, "bike_id": "cf7589cb7f1548e0d928e8ae7dfd1754", "fusion_lat": 0.0, "name": "cf7589cb7f1548e0d928e8ae7dfd1754", "is_reserved": 0, "rental_uris": {"android": "https://dc.lft.to/lastmile_qr_scan", "ios": "https://dc.lft.to/lastmile_qr_scan"}, "fusion_lon": 0.0}, {"lat": 38.919383333333336, "is_disabled": 0, "type": "electric_scooter", "lon": -77.081365, "bike_id": "623d3a50ad102b03830f820d67b64a46", "fusion_lat": 0.0, "name": "623d3a50ad102b03830f820d67b64a46", "is_reserved": 0, "rental_uris": {"android": "https://dc.lft.to/lastmile_qr_scan", "ios": "https://dc.lft.to/lastmile_qr_scan"}, "fusion_lon": 0.0}, {"lat": 38.9429505, "is_disabled": 0, "type": "electric_scooter", "lon": -77.07701533333334, "bike_id": "fd2ce01e7f2b86507aae9d8d0854512f", "fusion_lat": 0.0, "name": "fd2ce01e7f2b86507aae9d8d0854512f", "is_reserved": 0, "rental_uris": {"android": "https://dc.lft.to/lastmile_qr_scan", "ios": "https://dc.lft.to/lastmile_qr_scan"}, "fusion_lon": 0.0}, {"lat": 38.9318895, "is_disabled": 0, "type": "electric_scooter", "lon": -77.028367, "bike_id": "02231151922a1f3a467f3ec716de75f6", "fusion_lat": 0.0, "name": "02231151922a1f3a467f3ec716de75f6", "is_reserved": 0, "rental_uris": {"android": "https://dc.lft.to/lastmile_qr_scan", "ios": "https://dc.lft.to/lastmile_qr_scan"}, "fusion_lon": 0.0}, {"lat": 38.9999935, "is_disabled": 0, "type": "electric_bike", "lon": -76.92496583333333, "bike_id": "1cb8795566d809a008c463f2c96b2828", "fusion_lat": 0.0, "name": "1cb8795566d809a008c463f2c96b2828", "is_reserved": 0, "rental_uris": {"android": "https://dc.lft.to/lastmile_qr_scan", "ios": "https://dc.lft.to/lastmile_qr_scan"}, "fusion_lon": 0.0}, {"lat": 38.93652616666667, "is_disabled": 0, "type": "electric_scooter", "lon": -77.02395683333333, "bike_id": "d27f1583150ab41cf7668563362f3b8c", "fusion_lat": 0.0, "name": "d27f1583150ab41cf7668563362f3b8c", "is_reserved": 0, "rental_uris": {"android": "https://dc.lft.to/lastmile_qr_scan", "ios": "https://dc.lft.to/lastmile_qr_scan"}, "fusion_lon": 0.0}, {"lat": 38.90178816666667, "is_disabled": 0, "type": "electric_scooter", "lon": -77.02406633333334, "bike_id": "7171f25bfedbe26a73d23e6af5dac87c", "fusion_lat": 0.0, "name": "7171f25bfedbe26a73d23e6af5dac87c", "is_reserved": 0, "rental_uris": {"android": "https://dc.lft.to/lastmile_qr_scan", "ios": "https://dc.lft.to/lastmile_qr_scan"}, "fusion_lon": 0.0}, {"lat": 38.900623833333334, "is_disabled": 0, "type": "electric_scooter", "lon": -76.93387366666667, "bike_id": "4d0521958dd1f2f61a30a64d927d22b1", "fusion_lat": 0.0, "name": "4d0521958dd1f2f61a30a64d927d22b1", "is_reserved": 0, "rental_uris": {"android": "https://dc.lft.to/lastmile_qr_scan", "ios": "https://dc.lft.to/lastmile_qr_scan"}, "fusion_lon": 0.0}, {"lat": 38.9019815, "is_disabled": 0, "type": "electric_scooter", "lon": -77.02177233333333, "bike_id": "ebb1b6c4a3bd1c4e42773b94cfb96806", "fusion_lat": 0.0, "name": "ebb1b6c4a3bd1c4e42773b94cfb96806", "is_reserved": 0, "rental_uris": {"android": "https://dc.lft.to/lastmile_qr_scan", "ios": "https://dc.lft.to/lastmile_qr_scan"}, "fusion_lon": 0.0}, {"lat": 38.92241166666667, "is_disabled": 0, "type": "electric_scooter", "lon": -77.029841, "bike_id": "ab233636aceb7edfebebfdbc40670dc0", "fusion_lat": 0.0, "name": "ab233636aceb7edfebebfdbc40670dc0", "is_reserved": 0, "rental_uris": {"android": "https://dc.lft.to/lastmile_qr_scan", "ios": "https://dc.lft.to/lastmile_qr_scan"}, "fusion_lon": 0.0}, {"lat": 38.8850445, "is_disabled": 0, "type": "electric_scooter", "lon": -77.01555866666666, "bike_id": "483dc68af74aa54ba295589e38b6d891", "fusion_lat": 0.0, "name": "483dc68af74aa54ba295589e38b6d891", "is_reserved": 0, "rental_uris": {"android": "https://dc.lft.to/lastmile_qr_scan", "ios": "https://dc.lft.to/lastmile_qr_scan"}, "fusion_lon": 0.0}, {"lat": 38.913316333333334, "is_disabled": 0, "type": "electric_scooter", "lon": -77.03124716666666, "bike_id": "be64108122758a316535453f23ef6d56", "fusion_lat": 0.0, "name": "be64108122758a316535453f23ef6d56", "is_reserved": 0, "rental_uris": {"android": "https://dc.lft.to/lastmile_qr_scan", "ios": "https://dc.lft.to/lastmile_qr_scan"}, "fusion_lon": 0.0}, {"lat": 38.89875583333333, "is_disabled": 0, "type": "electric_scooter", "lon": -76.93184783333334, "bike_id": "222096c95e35c4503d371c403f9e4b67", "fusion_lat": 0.0, "name": "222096c95e35c4503d371c403f9e4b67", "is_reserved": 0, "rental_uris": {"android": "https://dc.lft.to/lastmile_qr_scan", "ios": "https://dc.lft.to/lastmile_qr_scan"}, "fusion_lon": 0.0}, {"lat": 38.89501966666667, "is_disabled": 0, "type": "electric_scooter", "lon": -77.02193933333334, "bike_id": "0ab6aee4099ccb07afd229c613ebb262", "fusion_lat": 0.0, "name": "0ab6aee4099ccb07afd229c613ebb262", "is_reserved": 0, "rental_uris": {"android": "https://dc.lft.to/lastmile_qr_scan", "ios": "https://dc.lft.to/lastmile_qr_scan"}, "fusion_lon": 0.0}, {"lat": 38.925371166666665, "is_disabled": 0, "type": "electric_scooter", "lon": -77.03298666666667, "bike_id": "bac5bc838deb93e8066fa10f0090c5a3", "fusion_lat": 0.0, "name": "bac5bc838deb93e8066fa10f0090c5a3", "is_reserved": 0, "rental_uris": {"android": "https://dc.lft.to/lastmile_qr_scan", "ios": "https://dc.lft.to/lastmile_qr_scan"}, "fusion_lon": 0.0}, {"lat": 38.951385, "is_disabled": 0, "type": "electric_scooter", "lon": -77.01336233333333, "bike_id": "404ca1819b8431fcfa238698bb9433d3", "fusion_lat": 0.0, "name": "404ca1819b8431fcfa238698bb9433d3", "is_reserved": 0, "rental_uris": {"android": "https://dc.lft.to/lastmile_qr_scan", "ios": "https://dc.lft.to/lastmile_qr_scan"}, "fusion_lon": 0.0}, {"lat": 38.9188735, "is_disabled": 0, "type": "electric_scooter", "lon": -77.04733483333334, "bike_id": "75c1f5e31d93314700b0db88c58ee860", "fusion_lat": 0.0, "name": "75c1f5e31d93314700b0db88c58ee860", "is_reserved": 0, "rental_uris": {"android": "https://dc.lft.to/lastmile_qr_scan", "ios": "https://dc.lft.to/lastmile_qr_scan"}, "fusion_lon": 0.0}, {"lat": 38.970907, "is_disabled": 0, "type": "electric_bike", "lon": -77.06963416666666, "bike_id": "6df160590ca801bee03a9b92350cb5a8", "fusion_lat": 0.0, "name": "6df160590ca801bee03a9b92350cb5a8", "is_reserved": 0, "rental_uris": {"android": "https://dc.lft.to/lastmile_qr_scan", "ios": "https://dc.lft.to/lastmile_qr_scan"}, "fusion_lon": 0.0}, {"lat": 38.90123166666667, "is_disabled": 0, "type": "electric_scooter", "lon": -76.99742516666667, "bike_id": "ca7c9d30c6d838f587b044d599a8dcf2", "fusion_lat": 0.0, "name": "ca7c9d30c6d838f587b044d599a8dcf2", "is_reserved": 0, "rental_uris": {"android": "https://dc.lft.to/lastmile_qr_scan", "ios": "https://dc.lft.to/lastmile_qr_scan"}, "fusion_lon": 0.0}, {"lat": 38.915552166666664, "is_disabled": 0, "type": "electric_scooter", "lon": -77.0488655, "bike_id": "c848cb479d332cf2e1fae99783df6b26", "fusion_lat": 0.0, "name": "c848cb479d332cf2e1fae99783df6b26", "is_reserved": 0, "rental_uris": {"android": "https://dc.lft.to/lastmile_qr_scan", "ios": "https://dc.lft.to/lastmile_qr_scan"}, "fusion_lon": 0.0}, {"lat": 38.90651966666667, "is_disabled": 0, "type": "electric_scooter", "lon": -77.02502533333333, "bike_id": "a4d57783eafae791a53eef68e39dd2d0", "fusion_lat": 0.0, "name": "a4d57783eafae791a53eef68e39dd2d0", "is_reserved": 0, "rental_uris": {"android": "https://dc.lft.to/lastmile_qr_scan", "ios": "https://dc.lft.to/lastmile_qr_scan"}, "fusion_lon": 0.0}, {"lat": 38.90309716666667, "is_disabled": 0, "type": "electric_scooter", "lon": -76.97800616666666, "bike_id": "665efa0cfb3eee8263707f61539c55cb", "fusion_lat": 0.0, "name": "665efa0cfb3eee8263707f61539c55cb", "is_reserved": 0, "rental_uris": {"android": "https://dc.lft.to/lastmile_qr_scan", "ios": "https://dc.lft.to/lastmile_qr_scan"}, "fusion_lon": 0.0}, {"lat": 38.907223333333334, "is_disabled": 0, "type": "electric_scooter", "lon": -77.04756316666666, "bike_id": "f701fad367400181a178c5a90ff32ec8", "fusion_lat": 0.0, "name": "f701fad367400181a178c5a90ff32ec8", "is_reserved": 0, "rental_uris": {"android": "https://dc.lft.to/lastmile_qr_scan", "ios": "https://dc.lft.to/lastmile_qr_scan"}, "fusion_lon": 0.0}, {"lat": 38.898233833333336, "is_disabled": 0, "type": "electric_scooter", "lon": -77.03302166666667, "bike_id": "1a7a003b1605d93ac00cd68dd4cd3ad4", "fusion_lat": 0.0, "name": "1a7a003b1605d93ac00cd68dd4cd3ad4", "is_reserved": 0, "rental_uris": {"android": "https://dc.lft.to/lastmile_qr_scan", "ios": "https://dc.lft.to/lastmile_qr_scan"}, "fusion_lon": 0.0}, {"lat": 38.89953966666667, "is_disabled": 0, "type": "electric_scooter", "lon": -77.05203216666666, "bike_id": "08a8bf3403143f2988748eb3b5d8097f", "fusion_lat": 0.0, "name": "08a8bf3403143f2988748eb3b5d8097f", "is_reserved": 0, "rental_uris": {"android": "https://dc.lft.to/lastmile_qr_scan", "ios": "https://dc.lft.to/lastmile_qr_scan"}, "fusion_lon": 0.0}, {"lat": 38.92810683333333, "is_disabled": 0, "type": "electric_bike", "lon": -77.02376666666666, "bike_id": "3db700aaf2bd1c0a48a8655e42f637d7", "fusion_lat": 0.0, "name": "3db700aaf2bd1c0a48a8655e42f637d7", "is_reserved": 0, "rental_uris": {"android": "https://dc.lft.to/lastmile_qr_scan", "ios": "https://dc.lft.to/lastmile_qr_scan"}, "fusion_lon": 0.0}, {"lat": 38.91221766666666, "is_disabled": 0, "type": "electric_scooter", "lon": -77.004551, "bike_id": "df032d227789fb8317a9618ac1613b46", "fusion_lat": 0.0, "name": "df032d227789fb8317a9618ac1613b46", "is_reserved": 0, "rental_uris": {"android": "https://dc.lft.to/lastmile_qr_scan", "ios": "https://dc.lft.to/lastmile_qr_scan"}, "fusion_lon": 0.0}, {"lat": 38.8848695, "is_disabled": 0, "type": "electric_scooter", "lon": -77.0208515, "bike_id": "859dc2a118973cf432e21bfdc974add6", "fusion_lat": 0.0, "name": "859dc2a118973cf432e21bfdc974add6", "is_reserved": 0, "rental_uris": {"android": "https://dc.lft.to/lastmile_qr_scan", "ios": "https://dc.lft.to/lastmile_qr_scan"}, "fusion_lon": 0.0}, {"lat": 38.89294433333333, "is_disabled": 0, "type": "electric_scooter", "lon": -77.00209516666666, "bike_id": "34c21169e0cf9e05dededfa8ea466752", "fusion_lat": 0.0, "name": "34c21169e0cf9e05dededfa8ea466752", "is_reserved": 0, "rental_uris": {"android": "https://dc.lft.to/lastmile_qr_scan", "ios": "https://dc.lft.to/lastmile_qr_scan"}, "fusion_lon": 0.0}, {"lat": 38.9311635, "is_disabled": 0, "type": "electric_scooter", "lon": -77.03817433333333, "bike_id": "0c0a2dab67b9d28b2886eb4146ee792f", "fusion_lat": 0.0, "name": "0c0a2dab67b9d28b2886eb4146ee792f", "is_reserved": 0, "rental_uris": {"android": "https://dc.lft.to/lastmile_qr_scan", "ios": "https://dc.lft.to/lastmile_qr_scan"}, "fusion_lon": 0.0}, {"lat": 38.91757066666667, "is_disabled": 0, "type": "electric_scooter", "lon": -77.0399515, "bike_id": "b2014d284aade2f55e94e20ea8767921", "fusion_lat": 0.0, "name": "b2014d284aade2f55e94e20ea8767921", "is_reserved": 0, "rental_uris": {"android": "https://dc.lft.to/lastmile_qr_scan", "ios": "https://dc.lft.to/lastmile_qr_scan"}, "fusion_lon": 0.0}, {"lat": 38.85791233333333, "is_disabled": 0, "type": "electric_bike", "lon": -76.98743483333334, "bike_id": "97ccdedaf2eacba575125c784afa7cef", "fusion_lat": 0.0, "name": "97ccdedaf2eacba575125c784afa7cef", "is_reserved": 0, "rental_uris": {"android": "https://dc.lft.to/lastmile_qr_scan", "ios": "https://dc.lft.to/lastmile_qr_scan"}, "fusion_lon": 0.0}, {"lat": 38.93324166666667, "is_disabled": 0, "type": "electric_scooter", "lon": -77.04398266666666, "bike_id": "870ae2c2c29bc6a1b9c53990b73b9dc9", "fusion_lat": 0.0, "name": "870ae2c2c29bc6a1b9c53990b73b9dc9", "is_reserved": 0, "rental_uris": {"android": "https://dc.lft.to/lastmile_qr_scan", "ios": "https://dc.lft.to/lastmile_qr_scan"}, "fusion_lon": 0.0}, {"lat": 38.80229166666667, "is_disabled": 0, "type": "electric_bike", "lon": -77.079124, "bike_id": "da929f02a90e0edcdff6c578119dcff0", "fusion_lat": 0.0, "name": "da929f02a90e0edcdff6c578119dcff0", "is_reserved": 0, "rental_uris": {"android": "https://dc.lft.to/lastmile_qr_scan", "ios": "https://dc.lft.to/lastmile_qr_scan"}, "fusion_lon": 0.0}, {"lat": 38.90561566666667, "is_disabled": 0, "type": "electric_scooter", "lon": -77.05702766666667, "bike_id": "2e666b452b88f71d127d303738cd6010", "fusion_lat": 0.0, "name": "2e666b452b88f71d127d303738cd6010", "is_reserved": 0, "rental_uris": {"android": "https://dc.lft.to/lastmile_qr_scan", "ios": "https://dc.lft.to/lastmile_qr_scan"}, "fusion_lon": 0.0}, {"lat": 38.96164666666667, "is_disabled": 0, "type": "electric_scooter", "lon": -77.0278905, "bike_id": "bcad23c4d7aaf964b3a0be7f178881e2", "fusion_lat": 0.0, "name": "bcad23c4d7aaf964b3a0be7f178881e2", "is_reserved": 0, "rental_uris": {"android": "https://dc.lft.to/lastmile_qr_scan", "ios": "https://dc.lft.to/lastmile_qr_scan"}, "fusion_lon": 0.0}, {"lat": 38.935713666666665, "is_disabled": 0, "type": "electric_scooter", "lon": -77.03732266666667, "bike_id": "9eb8ea8233818c28d4f4679d3b99fbcf", "fusion_lat": 0.0, "name": "9eb8ea8233818c28d4f4679d3b99fbcf", "is_reserved": 0, "rental_uris": {"android": "https://dc.lft.to/lastmile_qr_scan", "ios": "https://dc.lft.to/lastmile_qr_scan"}, "fusion_lon": 0.0}, {"lat": 38.86223966666667, "is_disabled": 0, "type": "electric_scooter", "lon": -76.98369083333333, "bike_id": "adeb6e81cd196573f65030077f0ab451", "fusion_lat": 0.0, "name": "adeb6e81cd196573f65030077f0ab451", "is_reserved": 0, "rental_uris": {"android": "https://dc.lft.to/lastmile_qr_scan", "ios": "https://dc.lft.to/lastmile_qr_scan"}, "fusion_lon": 0.0}, {"lat": 38.89482666666667, "is_disabled": 0, "type": "electric_scooter", "lon": -76.9495465, "bike_id": "800bd5919f3e23c1d088a4d4af5118da", "fusion_lat": 0.0, "name": "800bd5919f3e23c1d088a4d4af5118da", "is_reserved": 0, "rental_uris": {"android": "https://dc.lft.to/lastmile_qr_scan", "ios": "https://dc.lft.to/lastmile_qr_scan"}, "fusion_lon": 0.0}, {"lat": 38.88276066666667, "is_disabled": 0, "type": "electric_bike", "lon": -76.93238783333334, "bike_id": "2bd4953b379db43537ac662063af6e7c", "fusion_lat": 0.0, "name": "2bd4953b379db43537ac662063af6e7c", "is_reserved": 0, "rental_uris": {"android": "https://dc.lft.to/lastmile_qr_scan", "ios": "https://dc.lft.to/lastmile_qr_scan"}, "fusion_lon": 0.0}, {"lat": 38.91006733333333, "is_disabled": 0, "type": "electric_scooter", "lon": -76.993919, "bike_id": "76d431788d3284e783fa5b90bea7d368", "fusion_lat": 0.0, "name": "76d431788d3284e783fa5b90bea7d368", "is_reserved": 0, "rental_uris": {"android": "https://dc.lft.to/lastmile_qr_scan", "ios": "https://dc.lft.to/lastmile_qr_scan"}, "fusion_lon": 0.0}, {"lat": 38.86619266666666, "is_disabled": 0, "type": "electric_scooter", "lon": -76.98666683333333, "bike_id": "16bbbec42a79b9c79bd3e9eba60080c9", "fusion_lat": 0.0, "name": "16bbbec42a79b9c79bd3e9eba60080c9", "is_reserved": 0, "rental_uris": {"android": "https://dc.lft.to/lastmile_qr_scan", "ios": "https://dc.lft.to/lastmile_qr_scan"}, "fusion_lon": 0.0}, {"lat": 38.91692833333333, "is_disabled": 0, "type": "electric_scooter", "lon": -77.02976766666667, "bike_id": "201cb050fca29eea4388755488beb91d", "fusion_lat": 0.0, "name": "201cb050fca29eea4388755488beb91d", "is_reserved": 0, "rental_uris": {"android": "https://dc.lft.to/lastmile_qr_scan", "ios": "https://dc.lft.to/lastmile_qr_scan"}, "fusion_lon": 0.0}, {"lat": 38.90341333333333, "is_disabled": 0, "type": "electric_scooter", "lon": -76.97054366666667, "bike_id": "2d76f421e07cb7b1de93b7191ac976a4", "fusion_lat": 0.0, "name": "2d76f421e07cb7b1de93b7191ac976a4", "is_reserved": 0, "rental_uris": {"android": "https://dc.lft.to/lastmile_qr_scan", "ios": "https://dc.lft.to/lastmile_qr_scan"}, "fusion_lon": 0.0}, {"lat": 38.892216, "is_disabled": 0, "type": "electric_scooter", "lon": -77.04864216666667, "bike_id": "a3a5e5c35f0574fde8288ea8ba76b396", "fusion_lat": 0.0, "name": "a3a5e5c35f0574fde8288ea8ba76b396", "is_reserved": 0, "rental_uris": {"android": "https://dc.lft.to/lastmile_qr_scan", "ios": "https://dc.lft.to/lastmile_qr_scan"}, "fusion_lon": 0.0}, {"lat": 38.919791333333336, "is_disabled": 0, "type": "electric_scooter", "lon": -77.02377733333333, "bike_id": "ecfbc64a173e0e442b5f79989e74e75c", "fusion_lat": 0.0, "name": "ecfbc64a173e0e442b5f79989e74e75c", "is_reserved": 0, "rental_uris": {"android": "https://dc.lft.to/lastmile_qr_scan", "ios": "https://dc.lft.to/lastmile_qr_scan"}, "fusion_lon": 0.0}, {"lat": 38.879184333333335, "is_disabled": 0, "type": "electric_scooter", "lon": -77.00705933333333, "bike_id": "e653e38f5d4d961be84a5c81a6534914", "fusion_lat": 0.0, "name": "e653e38f5d4d961be84a5c81a6534914", "is_reserved": 0, "rental_uris": {"android": "https://dc.lft.to/lastmile_qr_scan", "ios": "https://dc.lft.to/lastmile_qr_scan"}, "fusion_lon": 0.0}, {"lat": 38.915632, "is_disabled": 0, "type": "electric_scooter", "lon": -77.00980983333334, "bike_id": "829709cca262881416bc037082d17858", "fusion_lat": 0.0, "name": "829709cca262881416bc037082d17858", "is_reserved": 0, "rental_uris": {"android": "https://dc.lft.to/lastmile_qr_scan", "ios": "https://dc.lft.to/lastmile_qr_scan"}, "fusion_lon": 0.0}, {"lat": 38.898773, "is_disabled": 0, "type": "electric_scooter", "lon": -77.029567, "bike_id": "bdfb2ce94b53ed31f68dc77e7917b011", "fusion_lat": 0.0, "name": "bdfb2ce94b53ed31f68dc77e7917b011", "is_reserved": 0, "rental_uris": {"android": "https://dc.lft.to/lastmile_qr_scan", "ios": "https://dc.lft.to/lastmile_qr_scan"}, "fusion_lon": 0.0}, {"lat": 38.961378833333335, "is_disabled": 0, "type": "electric_bike", "lon": -77.03235, "bike_id": "b60c9b9ce7b047e5db62f7b45dc59574", "fusion_lat": 0.0, "name": "b60c9b9ce7b047e5db62f7b45dc59574", "is_reserved": 0, "rental_uris": {"android": "https://dc.lft.to/lastmile_qr_scan", "ios": "https://dc.lft.to/lastmile_qr_scan"}, "fusion_lon": 0.0}, {"lat": 38.91259933333333, "is_disabled": 0, "type": "electric_scooter", "lon": -77.03502316666666, "bike_id": "549e99dbb015179a33007a0505371fcc", "fusion_lat": 0.0, "name": "549e99dbb015179a33007a0505371fcc", "is_reserved": 0, "rental_uris": {"android": "https://dc.lft.to/lastmile_qr_scan", "ios": "https://dc.lft.to/lastmile_qr_scan"}, "fusion_lon": 0.0}, {"lat": 38.90886233333333, "is_disabled": 0, "type": "electric_scooter", "lon": -77.03654166666666, "bike_id": "e3f0add2e99b6dcf41a90f785114a259", "fusion_lat": 0.0, "name": "e3f0add2e99b6dcf41a90f785114a259", "is_reserved": 0, "rental_uris": {"android": "https://dc.lft.to/lastmile_qr_scan", "ios": "https://dc.lft.to/lastmile_qr_scan"}, "fusion_lon": 0.0}, {"lat": 38.92239416666666, "is_disabled": 0, "type": "electric_scooter", "lon": -77.0291565, "bike_id": "cb70e14d0ea28931bff331351c9aee39", "fusion_lat": 0.0, "name": "cb70e14d0ea28931bff331351c9aee39", "is_reserved": 0, "rental_uris": {"android": "https://dc.lft.to/lastmile_qr_scan", "ios": "https://dc.lft.to/lastmile_qr_scan"}, "fusion_lon": 0.0}, {"lat": 38.902086, "is_disabled": 0, "type": "electric_scooter", "lon": -76.98844, "bike_id": "57926cb32e1bdd344817346f5517eed8", "fusion_lat": 0.0, "name": "57926cb32e1bdd344817346f5517eed8", "is_reserved": 0, "rental_uris": {"android": "https://dc.lft.to/lastmile_qr_scan", "ios": "https://dc.lft.to/lastmile_qr_scan"}, "fusion_lon": 0.0}, {"lat": 38.79305516666667, "is_disabled": 0, "type": "electric_bike", "lon": -77.04921833333333, "bike_id": "f2fe1e79e73da675a2e35669157d0801", "fusion_lat": 0.0, "name": "f2fe1e79e73da675a2e35669157d0801", "is_reserved": 0, "rental_uris": {"android": "https://dc.lft.to/lastmile_qr_scan", "ios": "https://dc.lft.to/lastmile_qr_scan"}, "fusion_lon": 0.0}, {"lat": 38.92464966666667, "is_disabled": 0, "type": "electric_scooter", "lon": -77.05235816666666, "bike_id": "01e0b5a9f87b0bb3ecec4d340b1b6434", "fusion_lat": 0.0, "name": "01e0b5a9f87b0bb3ecec4d340b1b6434", "is_reserved": 0, "rental_uris": {"android": "https://dc.lft.to/lastmile_qr_scan", "ios": "https://dc.lft.to/lastmile_qr_scan"}, "fusion_lon": 0.0}, {"lat": 38.904251, "is_disabled": 0, "type": "electric_scooter", "lon": -77.04367166666667, "bike_id": "dbf56b68466e0e4f7b642a25cfcd5a90", "fusion_lat": 0.0, "name": "dbf56b68466e0e4f7b642a25cfcd5a90", "is_reserved": 0, "rental_uris": {"android": "https://dc.lft.to/lastmile_qr_scan", "ios": "https://dc.lft.to/lastmile_qr_scan"}, "fusion_lon": 0.0}, {"lat": 38.904549833333334, "is_disabled": 0, "type": "electric_scooter", "lon": -77.017851, "bike_id": "f856bf77399bfe75b8661e5fe1cd98e5", "fusion_lat": 0.0, "name": "f856bf77399bfe75b8661e5fe1cd98e5", "is_reserved": 0, "rental_uris": {"android": "https://dc.lft.to/lastmile_qr_scan", "ios": "https://dc.lft.to/lastmile_qr_scan"}, "fusion_lon": 0.0}, {"lat": 38.88010333333333, "is_disabled": 0, "type": "electric_scooter", "lon": -76.93129383333333, "bike_id": "61abc20061e713fae1bccaa29b55f3fc", "fusion_lat": 0.0, "name": "61abc20061e713fae1bccaa29b55f3fc", "is_reserved": 0, "rental_uris": {"android": "https://dc.lft.to/lastmile_qr_scan", "ios": "https://dc.lft.to/lastmile_qr_scan"}, "fusion_lon": 0.0}, {"lat": 38.903625166666664, "is_disabled": 0, "type": "electric_scooter", "lon": -76.97651683333333, "bike_id": "6af769a3f0b4fca04a1f827d76f38fc9", "fusion_lat": 0.0, "name": "6af769a3f0b4fca04a1f827d76f38fc9", "is_reserved": 0, "rental_uris": {"android": "https://dc.lft.to/lastmile_qr_scan", "ios": "https://dc.lft.to/lastmile_qr_scan"}, "fusion_lon": 0.0}, {"lat": 38.9266525, "is_disabled": 0, "type": "electric_scooter", "lon": -77.055951, "bike_id": "8510fce0df365344db4c8537620f3da5", "fusion_lat": 0.0, "name": "8510fce0df365344db4c8537620f3da5", "is_reserved": 0, "rental_uris": {"android": "https://dc.lft.to/lastmile_qr_scan", "ios": "https://dc.lft.to/lastmile_qr_scan"}, "fusion_lon": 0.0}, {"lat": 38.9207235, "is_disabled": 0, "type": "electric_scooter", "lon": -77.01417483333333, "bike_id": "3132519d22f3c136e61b7bca79ed477a", "fusion_lat": 0.0, "name": "3132519d22f3c136e61b7bca79ed477a", "is_reserved": 0, "rental_uris": {"android": "https://dc.lft.to/lastmile_qr_scan", "ios": "https://dc.lft.to/lastmile_qr_scan"}, "fusion_lon": 0.0}, {"lat": 38.91416783333333, "is_disabled": 0, "type": "electric_scooter", "lon": -77.0407265, "bike_id": "dbedbe08403bf9305a970e2cfea623f4", "fusion_lat": 0.0, "name": "dbedbe08403bf9305a970e2cfea623f4", "is_reserved": 0, "rental_uris": {"android": "https://dc.lft.to/lastmile_qr_scan", "ios": "https://dc.lft.to/lastmile_qr_scan"}, "fusion_lon": 0.0}, {"lat": 38.895519, "is_disabled": 0, "type": "electric_scooter", "lon": -76.93369683333333, "bike_id": "bc071178479919b586604428ba1a65da", "fusion_lat": 0.0, "name": "bc071178479919b586604428ba1a65da", "is_reserved": 0, "rental_uris": {"android": "https://dc.lft.to/lastmile_qr_scan", "ios": "https://dc.lft.to/lastmile_qr_scan"}, "fusion_lon": 0.0}, {"lat": 38.92053166666667, "is_disabled": 0, "type": "electric_scooter", "lon": -77.03342366666666, "bike_id": "99f0b21d7ed51428f25515c1c3975e15", "fusion_lat": 0.0, "name": "99f0b21d7ed51428f25515c1c3975e15", "is_reserved": 0, "rental_uris": {"android": "https://dc.lft.to/lastmile_qr_scan", "ios": "https://dc.lft.to/lastmile_qr_scan"}, "fusion_lon": 0.0}, {"lat": 38.9195955, "is_disabled": 0, "type": "electric_scooter", "lon": -77.03965633333334, "bike_id": "81cdcfa5a2d460b061cf81bf8b199eb9", "fusion_lat": 0.0, "name": "81cdcfa5a2d460b061cf81bf8b199eb9", "is_reserved": 0, "rental_uris": {"android": "https://dc.lft.to/lastmile_qr_scan", "ios": "https://dc.lft.to/lastmile_qr_scan"}, "fusion_lon": 0.0}, {"lat": 38.90476, "is_disabled": 0, "type": "electric_scooter", "lon": -77.00776366666666, "bike_id": "9ded2d71a5347f4939190abdb1fe9850", "fusion_lat": 0.0, "name": "9ded2d71a5347f4939190abdb1fe9850", "is_reserved": 0, "rental_uris": {"android": "https://dc.lft.to/lastmile_qr_scan", "ios": "https://dc.lft.to/lastmile_qr_scan"}, "fusion_lon": 0.0}, {"lat": 38.90242766666667, "is_disabled": 0, "type": "electric_scooter", "lon": -77.01630183333333, "bike_id": "edc922d29cb1708d12a3914caf9b39cd", "fusion_lat": 0.0, "name": "edc922d29cb1708d12a3914caf9b39cd", "is_reserved": 0, "rental_uris": {"android": "https://dc.lft.to/lastmile_qr_scan", "ios": "https://dc.lft.to/lastmile_qr_scan"}, "fusion_lon": 0.0}, {"lat": 38.88052833333333, "is_disabled": 0, "type": "electric_scooter", "lon": -77.01772733333334, "bike_id": "4278b7cc709bad3fc1c41b7e7443854c", "fusion_lat": 0.0, "name": "4278b7cc709bad3fc1c41b7e7443854c", "is_reserved": 0, "rental_uris": {"android": "https://dc.lft.to/lastmile_qr_scan", "ios": "https://dc.lft.to/lastmile_qr_scan"}, "fusion_lon": 0.0}, {"lat": 38.86347116666666, "is_disabled": 0, "type": "electric_scooter", "lon": -76.9899925, "bike_id": "8b1e2ddb397c8c6247a999cc771b8f24", "fusion_lat": 0.0, "name": "8b1e2ddb397c8c6247a999cc771b8f24", "is_reserved": 0, "rental_uris": {"android": "https://dc.lft.to/lastmile_qr_scan", "ios": "https://dc.lft.to/lastmile_qr_scan"}, "fusion_lon": 0.0}, {"lat": 38.84291016666667, "is_disabled": 0, "type": "electric_scooter", "lon": -76.99953216666667, "bike_id": "ebee7ab0b14e004824c3d8227d552b5b", "fusion_lat": 0.0, "name": "ebee7ab0b14e004824c3d8227d552b5b", "is_reserved": 0, "rental_uris": {"android": "https://dc.lft.to/lastmile_qr_scan", "ios": "https://dc.lft.to/lastmile_qr_scan"}, "fusion_lon": 0.0}, {"lat": 38.91263433333334, "is_disabled": 0, "type": "electric_scooter", "lon": -77.013123, "bike_id": "fda8c076331df06d2cf0bc67dad5063c", "fusion_lat": 0.0, "name": "fda8c076331df06d2cf0bc67dad5063c", "is_reserved": 0, "rental_uris": {"android": "https://dc.lft.to/lastmile_qr_scan", "ios": "https://dc.lft.to/lastmile_qr_scan"}, "fusion_lon": 0.0}, {"lat": 38.899151333333336, "is_disabled": 0, "type": "electric_scooter", "lon": -76.93381833333333, "bike_id": "65a8e3abc3aaacbabd394175c8c72c5d", "fusion_lat": 0.0, "name": "65a8e3abc3aaacbabd394175c8c72c5d", "is_reserved": 0, "rental_uris": {"android": "https://dc.lft.to/lastmile_qr_scan", "ios": "https://dc.lft.to/lastmile_qr_scan"}, "fusion_lon": 0.0}, {"lat": 38.9319605, "is_disabled": 0, "type": "electric_bike", "lon": -77.07825983333333, "bike_id": "1ca45b43cb267899005c1504ee38de2f", "fusion_lat": 0.0, "name": "1ca45b43cb267899005c1504ee38de2f", "is_reserved": 0, "rental_uris": {"android": "https://dc.lft.to/lastmile_qr_scan", "ios": "https://dc.lft.to/lastmile_qr_scan"}, "fusion_lon": 0.0}, {"lat": 38.9555845, "is_disabled": 0, "type": "electric_bike", "lon": -76.93548183333333, "bike_id": "16b9f98687af91b6bbfe7194bb0fff10", "fusion_lat": 0.0, "name": "16b9f98687af91b6bbfe7194bb0fff10", "is_reserved": 0, "rental_uris": {"android": "https://dc.lft.to/lastmile_qr_scan", "ios": "https://dc.lft.to/lastmile_qr_scan"}, "fusion_lon": 0.0}, {"lat": 38.926710166666666, "is_disabled": 0, "type": "electric_scooter", "lon": -77.05100583333333, "bike_id": "bfc7a42bc9ae6aa30704d9c6eb563883", "fusion_lat": 0.0, "name": "bfc7a42bc9ae6aa30704d9c6eb563883", "is_reserved": 0, "rental_uris": {"android": "https://dc.lft.to/lastmile_qr_scan", "ios": "https://dc.lft.to/lastmile_qr_scan"}, "fusion_lon": 0.0}, {"lat": 38.95789333333333, "is_disabled": 0, "type": "electric_scooter", "lon": -77.02462216666666, "bike_id": "298c938d251953f31ee854ade68d3340", "fusion_lat": 0.0, "name": "298c938d251953f31ee854ade68d3340", "is_reserved": 0, "rental_uris": {"android": "https://dc.lft.to/lastmile_qr_scan", "ios": "https://dc.lft.to/lastmile_qr_scan"}, "fusion_lon": 0.0}, {"lat": 38.905635, "is_disabled": 0, "type": "electric_scooter", "lon": -77.0058765, "bike_id": "0f650dedaec71103e27db0c6ac829707", "fusion_lat": 0.0, "name": "0f650dedaec71103e27db0c6ac829707", "is_reserved": 0, "rental_uris": {"android": "https://dc.lft.to/lastmile_qr_scan", "ios": "https://dc.lft.to/lastmile_qr_scan"}, "fusion_lon": 0.0}, {"lat": 38.8665265, "is_disabled": 0, "type": "electric_scooter", "lon": -76.98883166666667, "bike_id": "d0930355cde7dcb0ae4b59feb395de5c", "fusion_lat": 0.0, "name": "d0930355cde7dcb0ae4b59feb395de5c", "is_reserved": 0, "rental_uris": {"android": "https://dc.lft.to/lastmile_qr_scan", "ios": "https://dc.lft.to/lastmile_qr_scan"}, "fusion_lon": 0.0}, {"lat": 38.903887166666664, "is_disabled": 0, "type": "electric_scooter", "lon": -77.02210066666666, "bike_id": "4c115e95a692d304197ad78e0f0e2fb9", "fusion_lat": 0.0, "name": "4c115e95a692d304197ad78e0f0e2fb9", "is_reserved": 0, "rental_uris": {"android": "https://dc.lft.to/lastmile_qr_scan", "ios": "https://dc.lft.to/lastmile_qr_scan"}, "fusion_lon": 0.0}, {"lat": 38.8713005, "is_disabled": 0, "type": "electric_scooter", "lon": -77.00783716666666, "bike_id": "9af27240ccb744e83c3bfc571019f9af", "fusion_lat": 0.0, "name": "9af27240ccb744e83c3bfc571019f9af", "is_reserved": 0, "rental_uris": {"android": "https://dc.lft.to/lastmile_qr_scan", "ios": "https://dc.lft.to/lastmile_qr_scan"}, "fusion_lon": 0.0}, {"lat": 39.000054666666664, "is_disabled": 0, "type": "electric_bike", "lon": -76.910737, "bike_id": "1109fc447b553002201847e8d469f71b", "fusion_lat": 0.0, "name": "1109fc447b553002201847e8d469f71b", "is_reserved": 0, "rental_uris": {"android": "https://dc.lft.to/lastmile_qr_scan", "ios": "https://dc.lft.to/lastmile_qr_scan"}, "fusion_lon": 0.0}, {"lat": 38.828714166666664, "is_disabled": 0, "type": "electric_bike", "lon": -77.11217866666667, "bike_id": "25abf256c4dcd6cf939781de90969319", "fusion_lat": 0.0, "name": "25abf256c4dcd6cf939781de90969319", "is_reserved": 0, "rental_uris": {"android": "https://dc.lft.to/lastmile_qr_scan", "ios": "https://dc.lft.to/lastmile_qr_scan"}, "fusion_lon": 0.0}, {"lat": 38.90972766666667, "is_disabled": 0, "type": "electric_scooter", "lon": -76.997272, "bike_id": "ae8ef1f2b6ddd58ef0fdc86da10ea6bf", "fusion_lat": 0.0, "name": "ae8ef1f2b6ddd58ef0fdc86da10ea6bf", "is_reserved": 0, "rental_uris": {"android": "https://dc.lft.to/lastmile_qr_scan", "ios": "https://dc.lft.to/lastmile_qr_scan"}, "fusion_lon": 0.0}, {"lat": 38.956124333333335, "is_disabled": 0, "type": "electric_scooter", "lon": -77.027868, "bike_id": "8196f9fbe2f050f2be7234d110c24e83", "fusion_lat": 0.0, "name": "8196f9fbe2f050f2be7234d110c24e83", "is_reserved": 0, "rental_uris": {"android": "https://dc.lft.to/lastmile_qr_scan", "ios": "https://dc.lft.to/lastmile_qr_scan"}, "fusion_lon": 0.0}, {"lat": 38.9018405, "is_disabled": 0, "type": "electric_scooter", "lon": -77.0244575, "bike_id": "790f024b40f1b033b4e7d5aaff7a81f3", "fusion_lat": 0.0, "name": "790f024b40f1b033b4e7d5aaff7a81f3", "is_reserved": 0, "rental_uris": {"android": "https://dc.lft.to/lastmile_qr_scan", "ios": "https://dc.lft.to/lastmile_qr_scan"}, "fusion_lon": 0.0}, {"lat": 38.915541166666664, "is_disabled": 0, "type": "electric_scooter", "lon": -77.03864116666666, "bike_id": "d1a03998e261231c443db755aeb05bc7", "fusion_lat": 0.0, "name": "d1a03998e261231c443db755aeb05bc7", "is_reserved": 0, "rental_uris": {"android": "https://dc.lft.to/lastmile_qr_scan", "ios": "https://dc.lft.to/lastmile_qr_scan"}, "fusion_lon": 0.0}, {"lat": 38.863740166666666, "is_disabled": 0, "type": "electric_scooter", "lon": -76.990619, "bike_id": "12820177a7db1399a137024b3d3f88ac", "fusion_lat": 0.0, "name": "12820177a7db1399a137024b3d3f88ac", "is_reserved": 0, "rental_uris": {"android": "https://dc.lft.to/lastmile_qr_scan", "ios": "https://dc.lft.to/lastmile_qr_scan"}, "fusion_lon": 0.0}, {"lat": 38.91908466666667, "is_disabled": 0, "type": "electric_scooter", "lon": -77.0462725, "bike_id": "cb0aa00368b5ff2db00bd58e7b4d8ce9", "fusion_lat": 0.0, "name": "cb0aa00368b5ff2db00bd58e7b4d8ce9", "is_reserved": 0, "rental_uris": {"android": "https://dc.lft.to/lastmile_qr_scan", "ios": "https://dc.lft.to/lastmile_qr_scan"}, "fusion_lon": 0.0}, {"lat": 38.912026833333336, "is_disabled": 0, "type": "electric_scooter", "lon": -77.03847816666666, "bike_id": "64f2f8656c9c5fe850a3f85dad58f3b6", "fusion_lat": 0.0, "name": "64f2f8656c9c5fe850a3f85dad58f3b6", "is_reserved": 0, "rental_uris": {"android": "https://dc.lft.to/lastmile_qr_scan", "ios": "https://dc.lft.to/lastmile_qr_scan"}, "fusion_lon": 0.0}, {"lat": 38.904094, "is_disabled": 0, "type": "electric_scooter", "lon": -77.0432835, "bike_id": "37e0f17f77b4a73e4d79891a430cda6a", "fusion_lat": 0.0, "name": "37e0f17f77b4a73e4d79891a430cda6a", "is_reserved": 0, "rental_uris": {"android": "https://dc.lft.to/lastmile_qr_scan", "ios": "https://dc.lft.to/lastmile_qr_scan"}, "fusion_lon": 0.0}, {"lat": 38.89945133333333, "is_disabled": 0, "type": "electric_scooter", "lon": -77.02140166666666, "bike_id": "75280503cde73ef754494cc0c59a1a67", "fusion_lat": 0.0, "name": "75280503cde73ef754494cc0c59a1a67", "is_reserved": 0, "rental_uris": {"android": "https://dc.lft.to/lastmile_qr_scan", "ios": "https://dc.lft.to/lastmile_qr_scan"}, "fusion_lon": 0.0}, {"lat": 38.86526083333333, "is_disabled": 0, "type": "electric_scooter", "lon": -76.99037216666666, "bike_id": "313cc93ce5673dfd5108329256689361", "fusion_lat": 0.0, "name": "313cc93ce5673dfd5108329256689361", "is_reserved": 0, "rental_uris": {"android": "https://dc.lft.to/lastmile_qr_scan", "ios": "https://dc.lft.to/lastmile_qr_scan"}, "fusion_lon": 0.0}, {"lat": 38.91403, "is_disabled": 0, "type": "electric_scooter", "lon": -77.01803316666667, "bike_id": "8a00f8168f443762b24474e4348a81f3", "fusion_lat": 0.0, "name": "8a00f8168f443762b24474e4348a81f3", "is_reserved": 0, "rental_uris": {"android": "https://dc.lft.to/lastmile_qr_scan", "ios": "https://dc.lft.to/lastmile_qr_scan"}, "fusion_lon": 0.0}, {"lat": 38.89817266666667, "is_disabled": 0, "type": "electric_scooter", "lon": -77.005792, "bike_id": "b37c5cd471a36fd4f1b23db70d8bf6e3", "fusion_lat": 0.0, "name": "b37c5cd471a36fd4f1b23db70d8bf6e3", "is_reserved": 0, "rental_uris": {"android": "https://dc.lft.to/lastmile_qr_scan", "ios": "https://dc.lft.to/lastmile_qr_scan"}, "fusion_lon": 0.0}, {"lat": 38.90960116666667, "is_disabled": 0, "type": "electric_scooter", "lon": -77.0479925, "bike_id": "58e78342a324d745809a249e292221d8", "fusion_lat": 0.0, "name": "58e78342a324d745809a249e292221d8", "is_reserved": 0, "rental_uris": {"android": "https://dc.lft.to/lastmile_qr_scan", "ios": "https://dc.lft.to/lastmile_qr_scan"}, "fusion_lon": 0.0}, {"lat": 38.876771, "is_disabled": 0, "type": "electric_scooter", "lon": -77.017931, "bike_id": "b3cf32c686c33c760c5a6f8585088adc", "fusion_lat": 0.0, "name": "b3cf32c686c33c760c5a6f8585088adc", "is_reserved": 0, "rental_uris": {"android": "https://dc.lft.to/lastmile_qr_scan", "ios": "https://dc.lft.to/lastmile_qr_scan"}, "fusion_lon": 0.0}, {"lat": 38.93477166666667, "is_disabled": 0, "type": "electric_scooter", "lon": -77.07268, "bike_id": "5348d37f16e2a3aee9f3104fe4c57b99", "fusion_lat": 0.0, "name": "5348d37f16e2a3aee9f3104fe4c57b99", "is_reserved": 0, "rental_uris": {"android": "https://dc.lft.to/lastmile_qr_scan", "ios": "https://dc.lft.to/lastmile_qr_scan"}, "fusion_lon": 0.0}, {"lat": 38.91518133333334, "is_disabled": 0, "type": "electric_scooter", "lon": -77.0384045, "bike_id": "d3c423e45ebf0e2d66c18c187b249d51", "fusion_lat": 0.0, "name": "d3c423e45ebf0e2d66c18c187b249d51", "is_reserved": 0, "rental_uris": {"android": "https://dc.lft.to/lastmile_qr_scan", "ios": "https://dc.lft.to/lastmile_qr_scan"}, "fusion_lon": 0.0}, {"lat": 38.908636333333334, "is_disabled": 0, "type": "electric_scooter", "lon": -77.08597233333333, "bike_id": "6b88b008c554d34f6623ab41e9bbb748", "fusion_lat": 0.0, "name": "6b88b008c554d34f6623ab41e9bbb748", "is_reserved": 0, "rental_uris": {"android": "https://dc.lft.to/lastmile_qr_scan", "ios": "https://dc.lft.to/lastmile_qr_scan"}, "fusion_lon": 0.0}, {"lat": 38.9363115, "is_disabled": 0, "type": "electric_scooter", "lon": -77.05880066666667, "bike_id": "375bab7198bafa86cc0cf009135200e5", "fusion_lat": 0.0, "name": "375bab7198bafa86cc0cf009135200e5", "is_reserved": 0, "rental_uris": {"android": "https://dc.lft.to/lastmile_qr_scan", "ios": "https://dc.lft.to/lastmile_qr_scan"}, "fusion_lon": 0.0}, {"lat": 38.90773183333334, "is_disabled": 0, "type": "electric_scooter", "lon": -77.06810516666667, "bike_id": "4c675ff5a4de6c76e8e4f841059a1653", "fusion_lat": 0.0, "name": "4c675ff5a4de6c76e8e4f841059a1653", "is_reserved": 0, "rental_uris": {"android": "https://dc.lft.to/lastmile_qr_scan", "ios": "https://dc.lft.to/lastmile_qr_scan"}, "fusion_lon": 0.0}, {"lat": 38.891179666666666, "is_disabled": 0, "type": "electric_scooter", "lon": -76.9438435, "bike_id": "68f901dee04713794cbf5d0666c673f4", "fusion_lat": 0.0, "name": "68f901dee04713794cbf5d0666c673f4", "is_reserved": 0, "rental_uris": {"android": "https://dc.lft.to/lastmile_qr_scan", "ios": "https://dc.lft.to/lastmile_qr_scan"}, "fusion_lon": 0.0}, {"lat": 38.916987166666665, "is_disabled": 0, "type": "electric_scooter", "lon": -77.008147, "bike_id": "44429528478f10c2b8e43f71121068b8", "fusion_lat": 0.0, "name": "44429528478f10c2b8e43f71121068b8", "is_reserved": 0, "rental_uris": {"android": "https://dc.lft.to/lastmile_qr_scan", "ios": "https://dc.lft.to/lastmile_qr_scan"}, "fusion_lon": 0.0}, {"lat": 38.93209316666667, "is_disabled": 0, "type": "electric_scooter", "lon": -77.03655366666666, "bike_id": "40e0fabdbb3b4dd24f1ca17ba3e6685e", "fusion_lat": 0.0, "name": "40e0fabdbb3b4dd24f1ca17ba3e6685e", "is_reserved": 0, "rental_uris": {"android": "https://dc.lft.to/lastmile_qr_scan", "ios": "https://dc.lft.to/lastmile_qr_scan"}, "fusion_lon": 0.0}, {"lat": 38.93061983333333, "is_disabled": 0, "type": "electric_scooter", "lon": -77.04179616666667, "bike_id": "bc43924d9fffc6adc40701550c3abaa6", "fusion_lat": 0.0, "name": "bc43924d9fffc6adc40701550c3abaa6", "is_reserved": 0, "rental_uris": {"android": "https://dc.lft.to/lastmile_qr_scan", "ios": "https://dc.lft.to/lastmile_qr_scan"}, "fusion_lon": 0.0}, {"lat": 38.90893366666667, "is_disabled": 0, "type": "electric_scooter", "lon": -76.99915833333333, "bike_id": "40c1a7e41e080ef61e0f083d0a9e632f", "fusion_lat": 0.0, "name": "40c1a7e41e080ef61e0f083d0a9e632f", "is_reserved": 0, "rental_uris": {"android": "https://dc.lft.to/lastmile_qr_scan", "ios": "https://dc.lft.to/lastmile_qr_scan"}, "fusion_lon": 0.0}, {"lat": 38.93059516666667, "is_disabled": 0, "type": "electric_scooter", "lon": -77.0315345, "bike_id": "ed6621a14583ba6db2007428e26b0395", "fusion_lat": 0.0, "name": "ed6621a14583ba6db2007428e26b0395", "is_reserved": 0, "rental_uris": {"android": "https://dc.lft.to/lastmile_qr_scan", "ios": "https://dc.lft.to/lastmile_qr_scan"}, "fusion_lon": 0.0}, {"lat": 38.90617683333333, "is_disabled": 0, "type": "electric_scooter", "lon": -76.9898795, "bike_id": "bb95972bac7a5099700bc18057858d85", "fusion_lat": 0.0, "name": "bb95972bac7a5099700bc18057858d85", "is_reserved": 0, "rental_uris": {"android": "https://dc.lft.to/lastmile_qr_scan", "ios": "https://dc.lft.to/lastmile_qr_scan"}, "fusion_lon": 0.0}, {"lat": 38.9340705, "is_disabled": 0, "type": "electric_scooter", "lon": -77.0325865, "bike_id": "e0377210ce3aad99e811d46e19e9b7dd", "fusion_lat": 0.0, "name": "e0377210ce3aad99e811d46e19e9b7dd", "is_reserved": 0, "rental_uris": {"android": "https://dc.lft.to/lastmile_qr_scan", "ios": "https://dc.lft.to/lastmile_qr_scan"}, "fusion_lon": 0.0}, {"lat": 38.8990445, "is_disabled": 0, "type": "electric_scooter", "lon": -76.933522, "bike_id": "f56319071f8d110272909e61cc49ce58", "fusion_lat": 0.0, "name": "f56319071f8d110272909e61cc49ce58", "is_reserved": 0, "rental_uris": {"android": "https://dc.lft.to/lastmile_qr_scan", "ios": "https://dc.lft.to/lastmile_qr_scan"}, "fusion_lon": 0.0}, {"lat": 38.859032166666665, "is_disabled": 0, "type": "electric_scooter", "lon": -76.99141283333333, "bike_id": "9f82012ae351789601e464cb7e2435ce", "fusion_lat": 0.0, "name": "9f82012ae351789601e464cb7e2435ce", "is_reserved": 0, "rental_uris": {"android": "https://dc.lft.to/lastmile_qr_scan", "ios": "https://dc.lft.to/lastmile_qr_scan"}, "fusion_lon": 0.0}, {"lat": 38.89845316666667, "is_disabled": 0, "type": "electric_scooter", "lon": -76.9446995, "bike_id": "9fdcd8a526c18a28caf672ace0e0aaec", "fusion_lat": 0.0, "name": "9fdcd8a526c18a28caf672ace0e0aaec", "is_reserved": 0, "rental_uris": {"android": "https://dc.lft.to/lastmile_qr_scan", "ios": "https://dc.lft.to/lastmile_qr_scan"}, "fusion_lon": 0.0}, {"lat": 38.92332116666667, "is_disabled": 0, "type": "electric_scooter", "lon": -77.0445195, "bike_id": "a369b7b21e218ec7a6232fb148c8cec3", "fusion_lat": 0.0, "name": "a369b7b21e218ec7a6232fb148c8cec3", "is_reserved": 0, "rental_uris": {"android": "https://dc.lft.to/lastmile_qr_scan", "ios": "https://dc.lft.to/lastmile_qr_scan"}, "fusion_lon": 0.0}, {"lat": 38.92442416666667, "is_disabled": 0, "type": "electric_scooter", "lon": -77.03370983333333, "bike_id": "f9c70618fbfbd0a65a0183cf20507926", "fusion_lat": 0.0, "name": "f9c70618fbfbd0a65a0183cf20507926", "is_reserved": 0, "rental_uris": {"android": "https://dc.lft.to/lastmile_qr_scan", "ios": "https://dc.lft.to/lastmile_qr_scan"}, "fusion_lon": 0.0}, {"lat": 38.919846, "is_disabled": 0, "type": "electric_scooter", "lon": -77.04105983333334, "bike_id": "cbd98787483e11d9399d697ed75164b7", "fusion_lat": 0.0, "name": "cbd98787483e11d9399d697ed75164b7", "is_reserved": 0, "rental_uris": {"android": "https://dc.lft.to/lastmile_qr_scan", "ios": "https://dc.lft.to/lastmile_qr_scan"}, "fusion_lon": 0.0}, {"lat": 38.94130066666666, "is_disabled": 0, "type": "electric_bike", "lon": -76.99627516666666, "bike_id": "12be2be21799d67e6efa8b84b4fadd7b", "fusion_lat": 0.0, "name": "12be2be21799d67e6efa8b84b4fadd7b", "is_reserved": 0, "rental_uris": {"android": "https://dc.lft.to/lastmile_qr_scan", "ios": "https://dc.lft.to/lastmile_qr_scan"}, "fusion_lon": 0.0}, {"lat": 38.89514833333333, "is_disabled": 0, "type": "electric_scooter", "lon": -77.043551, "bike_id": "cccc4c542c1d66bb7711296acbc2bd13", "fusion_lat": 0.0, "name": "cccc4c542c1d66bb7711296acbc2bd13", "is_reserved": 0, "rental_uris": {"android": "https://dc.lft.to/lastmile_qr_scan", "ios": "https://dc.lft.to/lastmile_qr_scan"}, "fusion_lon": 0.0}, {"lat": 38.90665883333333, "is_disabled": 0, "type": "electric_scooter", "lon": -77.0366535, "bike_id": "c6a9b980da1a480b1c3ce9d17177d574", "fusion_lat": 0.0, "name": "c6a9b980da1a480b1c3ce9d17177d574", "is_reserved": 0, "rental_uris": {"android": "https://dc.lft.to/lastmile_qr_scan", "ios": "https://dc.lft.to/lastmile_qr_scan"}, "fusion_lon": 0.0}, {"lat": 38.9094345, "is_disabled": 0, "type": "electric_scooter", "lon": -77.04685616666667, "bike_id": "b28880ad8e1ceb58dc2da05c028c2712", "fusion_lat": 0.0, "name": "b28880ad8e1ceb58dc2da05c028c2712", "is_reserved": 0, "rental_uris": {"android": "https://dc.lft.to/lastmile_qr_scan", "ios": "https://dc.lft.to/lastmile_qr_scan"}, "fusion_lon": 0.0}, {"lat": 39.09437, "is_disabled": 0, "type": "electric_bike", "lon": -77.1345855, "bike_id": "e79262c11a778cd53ac0f5f5f724335f", "fusion_lat": 0.0, "name": "e79262c11a778cd53ac0f5f5f724335f", "is_reserved": 0, "rental_uris": {"android": "https://dc.lft.to/lastmile_qr_scan", "ios": "https://dc.lft.to/lastmile_qr_scan"}, "fusion_lon": 0.0}, {"lat": 38.86287083333333, "is_disabled": 0, "type": "electric_scooter", "lon": -76.992351, "bike_id": "b0fda2d59169ad8a600f6952b8ada797", "fusion_lat": 0.0, "name": "b0fda2d59169ad8a600f6952b8ada797", "is_reserved": 0, "rental_uris": {"android": "https://dc.lft.to/lastmile_qr_scan", "ios": "https://dc.lft.to/lastmile_qr_scan"}, "fusion_lon": 0.0}, {"lat": 38.939494333333336, "is_disabled": 0, "type": "electric_scooter", "lon": -77.02183866666667, "bike_id": "39ba379b7a0f55964916019638c42134", "fusion_lat": 0.0, "name": "39ba379b7a0f55964916019638c42134", "is_reserved": 0, "rental_uris": {"android": "https://dc.lft.to/lastmile_qr_scan", "ios": "https://dc.lft.to/lastmile_qr_scan"}, "fusion_lon": 0.0}, {"lat": 38.87086, "is_disabled": 0, "type": "electric_scooter", "lon": -77.01188483333334, "bike_id": "62dbdaf43900318a1e8374fbb2b2d401", "fusion_lat": 0.0, "name": "62dbdaf43900318a1e8374fbb2b2d401", "is_reserved": 0, "rental_uris": {"android": "https://dc.lft.to/lastmile_qr_scan", "ios": "https://dc.lft.to/lastmile_qr_scan"}, "fusion_lon": 0.0}, {"lat": 38.88295983333333, "is_disabled": 0, "type": "electric_scooter", "lon": -76.98218, "bike_id": "40d48f22f5fd50d3dd5390008fe114a7", "fusion_lat": 0.0, "name": "40d48f22f5fd50d3dd5390008fe114a7", "is_reserved": 0, "rental_uris": {"android": "https://dc.lft.to/lastmile_qr_scan", "ios": "https://dc.lft.to/lastmile_qr_scan"}, "fusion_lon": 0.0}, {"lat": 38.939346666666665, "is_disabled": 0, "type": "electric_scooter", "lon": -77.02222483333334, "bike_id": "088643a600b82e11e0479e83e493bb11", "fusion_lat": 0.0, "name": "088643a600b82e11e0479e83e493bb11", "is_reserved": 0, "rental_uris": {"android": "https://dc.lft.to/lastmile_qr_scan", "ios": "https://dc.lft.to/lastmile_qr_scan"}, "fusion_lon": 0.0}, {"lat": 38.939794666666664, "is_disabled": 0, "type": "electric_scooter", "lon": -77.03266133333334, "bike_id": "590754fea3efbe7e9e76f2fef58cef7d", "fusion_lat": 0.0, "name": "590754fea3efbe7e9e76f2fef58cef7d", "is_reserved": 0, "rental_uris": {"android": "https://dc.lft.to/lastmile_qr_scan", "ios": "https://dc.lft.to/lastmile_qr_scan"}, "fusion_lon": 0.0}, {"lat": 38.907245333333336, "is_disabled": 0, "type": "electric_scooter", "lon": -77.03458816666667, "bike_id": "3fb518005292a0f90147d07d7760de7c", "fusion_lat": 0.0, "name": "3fb518005292a0f90147d07d7760de7c", "is_reserved": 0, "rental_uris": {"android": "https://dc.lft.to/lastmile_qr_scan", "ios": "https://dc.lft.to/lastmile_qr_scan"}, "fusion_lon": 0.0}, {"lat": 38.951838333333335, "is_disabled": 0, "type": "electric_bike", "lon": -76.93543416666667, "bike_id": "b3dbb4739658087619d05a01dc6b3f72", "fusion_lat": 0.0, "name": "b3dbb4739658087619d05a01dc6b3f72", "is_reserved": 0, "rental_uris": {"android": "https://dc.lft.to/lastmile_qr_scan", "ios": "https://dc.lft.to/lastmile_qr_scan"}, "fusion_lon": 0.0}, {"lat": 38.87731, "is_disabled": 0, "type": "electric_bike", "lon": -77.11845483333333, "bike_id": "2bf577f8b91af521a742a844e75d81b4", "fusion_lat": 0.0, "name": "2bf577f8b91af521a742a844e75d81b4", "is_reserved": 0, "rental_uris": {"android": "https://dc.lft.to/lastmile_qr_scan", "ios": "https://dc.lft.to/lastmile_qr_scan"}, "fusion_lon": 0.0}, {"lat": 38.928873, "is_disabled": 0, "type": "electric_scooter", "lon": -77.0257705, "bike_id": "d9e0533042607c1622e4beae32677757", "fusion_lat": 0.0, "name": "d9e0533042607c1622e4beae32677757", "is_reserved": 0, "rental_uris": {"android": "https://dc.lft.to/lastmile_qr_scan", "ios": "https://dc.lft.to/lastmile_qr_scan"}, "fusion_lon": 0.0}, {"lat": 38.863699, "is_disabled": 0, "type": "electric_scooter", "lon": -76.99047966666667, "bike_id": "18a8ae2787b6ce562b43c91acccb47e6", "fusion_lat": 0.0, "name": "18a8ae2787b6ce562b43c91acccb47e6", "is_reserved": 0, "rental_uris": {"android": "https://dc.lft.to/lastmile_qr_scan", "ios": "https://dc.lft.to/lastmile_qr_scan"}, "fusion_lon": 0.0}, {"lat": 38.9202075, "is_disabled": 0, "type": "electric_scooter", "lon": -77.03849616666666, "bike_id": "1fdeb4251eb7c3f63113cfe7fdd31396", "fusion_lat": 0.0, "name": "1fdeb4251eb7c3f63113cfe7fdd31396", "is_reserved": 0, "rental_uris": {"android": "https://dc.lft.to/lastmile_qr_scan", "ios": "https://dc.lft.to/lastmile_qr_scan"}, "fusion_lon": 0.0}, {"lat": 38.922910333333334, "is_disabled": 0, "type": "electric_scooter", "lon": -77.041429, "bike_id": "a595845461db47d317df5af06b837913", "fusion_lat": 0.0, "name": "a595845461db47d317df5af06b837913", "is_reserved": 0, "rental_uris": {"android": "https://dc.lft.to/lastmile_qr_scan", "ios": "https://dc.lft.to/lastmile_qr_scan"}, "fusion_lon": 0.0}, {"lat": 38.91915266666667, "is_disabled": 0, "type": "electric_scooter", "lon": -77.033881, "bike_id": "aa7e0c058d0d75c3b55bb88621952aa0", "fusion_lat": 0.0, "name": "aa7e0c058d0d75c3b55bb88621952aa0", "is_reserved": 0, "rental_uris": {"android": "https://dc.lft.to/lastmile_qr_scan", "ios": "https://dc.lft.to/lastmile_qr_scan"}, "fusion_lon": 0.0}, {"lat": 38.90526166666667, "is_disabled": 0, "type": "electric_scooter", "lon": -76.98623416666666, "bike_id": "6204208595e8be3977b1e78a79fa44d5", "fusion_lat": 0.0, "name": "6204208595e8be3977b1e78a79fa44d5", "is_reserved": 0, "rental_uris": {"android": "https://dc.lft.to/lastmile_qr_scan", "ios": "https://dc.lft.to/lastmile_qr_scan"}, "fusion_lon": 0.0}, {"lat": 38.932415166666665, "is_disabled": 0, "type": "electric_scooter", "lon": -77.03263083333333, "bike_id": "1258241cb0735502f9e032d94d1863b7", "fusion_lat": 0.0, "name": "1258241cb0735502f9e032d94d1863b7", "is_reserved": 0, "rental_uris": {"android": "https://dc.lft.to/lastmile_qr_scan", "ios": "https://dc.lft.to/lastmile_qr_scan"}, "fusion_lon": 0.0}, {"lat": 38.903788666666664, "is_disabled": 0, "type": "electric_scooter", "lon": -77.00273583333333, "bike_id": "344ba956c5f5166832196fc7b09f6e5b", "fusion_lat": 0.0, "name": "344ba956c5f5166832196fc7b09f6e5b", "is_reserved": 0, "rental_uris": {"android": "https://dc.lft.to/lastmile_qr_scan", "ios": "https://dc.lft.to/lastmile_qr_scan"}, "fusion_lon": 0.0}, {"lat": 38.8679065, "is_disabled": 0, "type": "electric_scooter", "lon": -76.96581416666666, "bike_id": "4dd49c12a932db0b189313af4cf79bfa", "fusion_lat": 0.0, "name": "4dd49c12a932db0b189313af4cf79bfa", "is_reserved": 0, "rental_uris": {"android": "https://dc.lft.to/lastmile_qr_scan", "ios": "https://dc.lft.to/lastmile_qr_scan"}, "fusion_lon": 0.0}, {"lat": 38.903031, "is_disabled": 0, "type": "electric_scooter", "lon": -77.03845016666666, "bike_id": "4cf5c521cada8e6f6014ea4e67493aee", "fusion_lat": 0.0, "name": "4cf5c521cada8e6f6014ea4e67493aee", "is_reserved": 0, "rental_uris": {"android": "https://dc.lft.to/lastmile_qr_scan", "ios": "https://dc.lft.to/lastmile_qr_scan"}, "fusion_lon": 0.0}, {"lat": 38.897491333333335, "is_disabled": 0, "type": "electric_scooter", "lon": -77.01855933333333, "bike_id": "1da6b3325a83dfda9b7abb314f69f6da", "fusion_lat": 0.0, "name": "1da6b3325a83dfda9b7abb314f69f6da", "is_reserved": 0, "rental_uris": {"android": "https://dc.lft.to/lastmile_qr_scan", "ios": "https://dc.lft.to/lastmile_qr_scan"}, "fusion_lon": 0.0}, {"lat": 38.900298666666664, "is_disabled": 0, "type": "electric_scooter", "lon": -77.00200633333333, "bike_id": "945d3fc8bd6b2cd76e15c295f7da29a7", "fusion_lat": 0.0, "name": "945d3fc8bd6b2cd76e15c295f7da29a7", "is_reserved": 0, "rental_uris": {"android": "https://dc.lft.to/lastmile_qr_scan", "ios": "https://dc.lft.to/lastmile_qr_scan"}, "fusion_lon": 0.0}, {"lat": 38.932704666666666, "is_disabled": 0, "type": "electric_scooter", "lon": -77.032857, "bike_id": "4ebdb8d762bec646a314557d9c51e701", "fusion_lat": 0.0, "name": "4ebdb8d762bec646a314557d9c51e701", "is_reserved": 0, "rental_uris": {"android": "https://dc.lft.to/lastmile_qr_scan", "ios": "https://dc.lft.to/lastmile_qr_scan"}, "fusion_lon": 0.0}, {"lat": 38.9068395, "is_disabled": 0, "type": "electric_scooter", "lon": -77.06264216666666, "bike_id": "3d9c911b89fcb0c6523a3326111f0651", "fusion_lat": 0.0, "name": "3d9c911b89fcb0c6523a3326111f0651", "is_reserved": 0, "rental_uris": {"android": "https://dc.lft.to/lastmile_qr_scan", "ios": "https://dc.lft.to/lastmile_qr_scan"}, "fusion_lon": 0.0}, {"lat": 38.921774, "is_disabled": 0, "type": "electric_scooter", "lon": -77.04702333333333, "bike_id": "c460b0d44b49d048fe18e7046d56ffe9", "fusion_lat": 0.0, "name": "c460b0d44b49d048fe18e7046d56ffe9", "is_reserved": 0, "rental_uris": {"android": "https://dc.lft.to/lastmile_qr_scan", "ios": "https://dc.lft.to/lastmile_qr_scan"}, "fusion_lon": 0.0}, {"lat": 38.964930333333335, "is_disabled": 0, "type": "electric_scooter", "lon": -77.02786733333333, "bike_id": "dac51ef3f0786c80504c1664b716583e", "fusion_lat": 0.0, "name": "dac51ef3f0786c80504c1664b716583e", "is_reserved": 0, "rental_uris": {"android": "https://dc.lft.to/lastmile_qr_scan", "ios": "https://dc.lft.to/lastmile_qr_scan"}, "fusion_lon": 0.0}, {"lat": 38.866559, "is_disabled": 0, "type": "electric_scooter", "lon": -76.98882383333333, "bike_id": "f9eda325b8fec217dcde41540e490dff", "fusion_lat": 0.0, "name": "f9eda325b8fec217dcde41540e490dff", "is_reserved": 0, "rental_uris": {"android": "https://dc.lft.to/lastmile_qr_scan", "ios": "https://dc.lft.to/lastmile_qr_scan"}, "fusion_lon": 0.0}, {"lat": 38.927505333333336, "is_disabled": 0, "type": "electric_scooter", "lon": -77.00585216666667, "bike_id": "add23c6408a416cd1412838f9181f52e", "fusion_lat": 0.0, "name": "add23c6408a416cd1412838f9181f52e", "is_reserved": 0, "rental_uris": {"android": "https://dc.lft.to/lastmile_qr_scan", "ios": "https://dc.lft.to/lastmile_qr_scan"}, "fusion_lon": 0.0}, {"lat": 38.88063733333333, "is_disabled": 0, "type": "electric_scooter", "lon": -77.00590866666667, "bike_id": "fa1b9d7e919e46c716a8782fc44e5067", "fusion_lat": 0.0, "name": "fa1b9d7e919e46c716a8782fc44e5067", "is_reserved": 0, "rental_uris": {"android": "https://dc.lft.to/lastmile_qr_scan", "ios": "https://dc.lft.to/lastmile_qr_scan"}, "fusion_lon": 0.0}, {"lat": 38.93323783333334, "is_disabled": 0, "type": "electric_scooter", "lon": -77.02924033333333, "bike_id": "9734c9aa656783c3de8f8b2b2c2671fe", "fusion_lat": 0.0, "name": "9734c9aa656783c3de8f8b2b2c2671fe", "is_reserved": 0, "rental_uris": {"android": "https://dc.lft.to/lastmile_qr_scan", "ios": "https://dc.lft.to/lastmile_qr_scan"}, "fusion_lon": 0.0}, {"lat": 38.900124166666664, "is_disabled": 0, "type": "electric_scooter", "lon": -76.92227616666666, "bike_id": "dc7073d4dda9ae4b2f487b01945873ae", "fusion_lat": 0.0, "name": "dc7073d4dda9ae4b2f487b01945873ae", "is_reserved": 0, "rental_uris": {"android": "https://dc.lft.to/lastmile_qr_scan", "ios": "https://dc.lft.to/lastmile_qr_scan"}, "fusion_lon": 0.0}, {"lat": 38.90022783333333, "is_disabled": 0, "type": "electric_scooter", "lon": -77.02580766666667, "bike_id": "fbc07ebfa3d5a210ade8947847c30b94", "fusion_lat": 0.0, "name": "fbc07ebfa3d5a210ade8947847c30b94", "is_reserved": 0, "rental_uris": {"android": "https://dc.lft.to/lastmile_qr_scan", "ios": "https://dc.lft.to/lastmile_qr_scan"}, "fusion_lon": 0.0}, {"lat": 38.9625395, "is_disabled": 0, "type": "electric_scooter", "lon": -77.03821016666667, "bike_id": "985ed11a758fe2482d8cb29a7f05d58c", "fusion_lat": 0.0, "name": "985ed11a758fe2482d8cb29a7f05d58c", "is_reserved": 0, "rental_uris": {"android": "https://dc.lft.to/lastmile_qr_scan", "ios": "https://dc.lft.to/lastmile_qr_scan"}, "fusion_lon": 0.0}, {"lat": 38.92055883333333, "is_disabled": 0, "type": "electric_scooter", "lon": -77.03284883333333, "bike_id": "11e77520b03b4e93c12da044fb008b1c", "fusion_lat": 0.0, "name": "11e77520b03b4e93c12da044fb008b1c", "is_reserved": 0, "rental_uris": {"android": "https://dc.lft.to/lastmile_qr_scan", "ios": "https://dc.lft.to/lastmile_qr_scan"}, "fusion_lon": 0.0}, {"lat": 38.9284695, "is_disabled": 0, "type": "electric_scooter", "lon": -77.03629866666667, "bike_id": "70025ade294e4e2b876ae311afc33408", "fusion_lat": 0.0, "name": "70025ade294e4e2b876ae311afc33408", "is_reserved": 0, "rental_uris": {"android": "https://dc.lft.to/lastmile_qr_scan", "ios": "https://dc.lft.to/lastmile_qr_scan"}, "fusion_lon": 0.0}, {"lat": 38.939601, "is_disabled": 0, "type": "electric_scooter", "lon": -77.0275245, "bike_id": "67f71b31bb9df4e7ddf57808053f014c", "fusion_lat": 0.0, "name": "67f71b31bb9df4e7ddf57808053f014c", "is_reserved": 0, "rental_uris": {"android": "https://dc.lft.to/lastmile_qr_scan", "ios": "https://dc.lft.to/lastmile_qr_scan"}, "fusion_lon": 0.0}, {"lat": 38.91045366666667, "is_disabled": 0, "type": "electric_scooter", "lon": -77.0280985, "bike_id": "cc85d1b889d6956a25549a56eb95d236", "fusion_lat": 0.0, "name": "cc85d1b889d6956a25549a56eb95d236", "is_reserved": 0, "rental_uris": {"android": "https://dc.lft.to/lastmile_qr_scan", "ios": "https://dc.lft.to/lastmile_qr_scan"}, "fusion_lon": 0.0}, {"lat": 38.899875, "is_disabled": 0, "type": "electric_bike", "lon": -76.98118733333334, "bike_id": "6d0802ca94f3f93d4605247753d96332", "fusion_lat": 0.0, "name": "6d0802ca94f3f93d4605247753d96332", "is_reserved": 0, "rental_uris": {"android": "https://dc.lft.to/lastmile_qr_scan", "ios": "https://dc.lft.to/lastmile_qr_scan"}, "fusion_lon": 0.0}, {"lat": 38.9334765, "is_disabled": 0, "type": "electric_scooter", "lon": -77.071769, "bike_id": "8c49750f34fdeea0cadbbd1715bdb3c8", "fusion_lat": 0.0, "name": "8c49750f34fdeea0cadbbd1715bdb3c8", "is_reserved": 0, "rental_uris": {"android": "https://dc.lft.to/lastmile_qr_scan", "ios": "https://dc.lft.to/lastmile_qr_scan"}, "fusion_lon": 0.0}, {"lat": 38.920734333333336, "is_disabled": 0, "type": "electric_scooter", "lon": -77.0456725, "bike_id": "0546d997976563c878508ffdf5f21c20", "fusion_lat": 0.0, "name": "0546d997976563c878508ffdf5f21c20", "is_reserved": 0, "rental_uris": {"android": "https://dc.lft.to/lastmile_qr_scan", "ios": "https://dc.lft.to/lastmile_qr_scan"}, "fusion_lon": 0.0}, {"lat": 38.885763, "is_disabled": 0, "type": "electric_scooter", "lon": -76.919125, "bike_id": "bfbcc5d15745c90e8e6760a8b2db2d67", "fusion_lat": 0.0, "name": "bfbcc5d15745c90e8e6760a8b2db2d67", "is_reserved": 0, "rental_uris": {"android": "https://dc.lft.to/lastmile_qr_scan", "ios": "https://dc.lft.to/lastmile_qr_scan"}, "fusion_lon": 0.0}, {"lat": 38.92481983333333, "is_disabled": 0, "type": "electric_scooter", "lon": -77.02841233333334, "bike_id": "921fa54dd5791a46617b7665f36faab6", "fusion_lat": 0.0, "name": "921fa54dd5791a46617b7665f36faab6", "is_reserved": 0, "rental_uris": {"android": "https://dc.lft.to/lastmile_qr_scan", "ios": "https://dc.lft.to/lastmile_qr_scan"}, "fusion_lon": 0.0}, {"lat": 38.9561265, "is_disabled": 0, "type": "electric_scooter", "lon": -77.02758533333333, "bike_id": "4b9fa2bd4007b6cbaf74a78aab2d5c75", "fusion_lat": 0.0, "name": "4b9fa2bd4007b6cbaf74a78aab2d5c75", "is_reserved": 0, "rental_uris": {"android": "https://dc.lft.to/lastmile_qr_scan", "ios": "https://dc.lft.to/lastmile_qr_scan"}, "fusion_lon": 0.0}, {"lat": 38.91174266666667, "is_disabled": 0, "type": "electric_scooter", "lon": -77.06098416666667, "bike_id": "e0de0b448745633919da18984e722a22", "fusion_lat": 0.0, "name": "e0de0b448745633919da18984e722a22", "is_reserved": 0, "rental_uris": {"android": "https://dc.lft.to/lastmile_qr_scan", "ios": "https://dc.lft.to/lastmile_qr_scan"}, "fusion_lon": 0.0}, {"lat": 38.886370666666664, "is_disabled": 0, "type": "electric_bike", "lon": -76.95471433333333, "bike_id": "463f74fa9addec54b015f11eec23eb01", "fusion_lat": 0.0, "name": "463f74fa9addec54b015f11eec23eb01", "is_reserved": 0, "rental_uris": {"android": "https://dc.lft.to/lastmile_qr_scan", "ios": "https://dc.lft.to/lastmile_qr_scan"}, "fusion_lon": 0.0}, {"lat": 38.92894033333334, "is_disabled": 0, "type": "electric_scooter", "lon": -77.02219266666667, "bike_id": "0bb847aea85b98481adb365ea7eddbea", "fusion_lat": 0.0, "name": "0bb847aea85b98481adb365ea7eddbea", "is_reserved": 0, "rental_uris": {"android": "https://dc.lft.to/lastmile_qr_scan", "ios": "https://dc.lft.to/lastmile_qr_scan"}, "fusion_lon": 0.0}, {"lat": 38.927356333333336, "is_disabled": 0, "type": "electric_scooter", "lon": -77.0345125, "bike_id": "89603df840d151b94f0d1526077bca1b", "fusion_lat": 0.0, "name": "89603df840d151b94f0d1526077bca1b", "is_reserved": 0, "rental_uris": {"android": "https://dc.lft.to/lastmile_qr_scan", "ios": "https://dc.lft.to/lastmile_qr_scan"}, "fusion_lon": 0.0}, {"lat": 39.0563365, "is_disabled": 0, "type": "electric_bike", "lon": -77.1252645, "bike_id": "ace89613bf221e26fe4a6f99cb800e67", "fusion_lat": 0.0, "name": "ace89613bf221e26fe4a6f99cb800e67", "is_reserved": 0, "rental_uris": {"android": "https://dc.lft.to/lastmile_qr_scan", "ios": "https://dc.lft.to/lastmile_qr_scan"}, "fusion_lon": 0.0}, {"lat": 38.8981895, "is_disabled": 0, "type": "electric_scooter", "lon": -76.99695433333333, "bike_id": "65b5cf2160d1b03c0bfd0b8e6b431acd", "fusion_lat": 0.0, "name": "65b5cf2160d1b03c0bfd0b8e6b431acd", "is_reserved": 0, "rental_uris": {"android": "https://dc.lft.to/lastmile_qr_scan", "ios": "https://dc.lft.to/lastmile_qr_scan"}, "fusion_lon": 0.0}, {"lat": 38.927563666666664, "is_disabled": 0, "type": "electric_scooter", "lon": -77.032129, "bike_id": "f72a2242f2725b95b3b2f61cd9c74381", "fusion_lat": 0.0, "name": "f72a2242f2725b95b3b2f61cd9c74381", "is_reserved": 0, "rental_uris": {"android": "https://dc.lft.to/lastmile_qr_scan", "ios": "https://dc.lft.to/lastmile_qr_scan"}, "fusion_lon": 0.0}, {"lat": 38.901916166666666, "is_disabled": 0, "type": "electric_scooter", "lon": -77.02400766666666, "bike_id": "800fe41b9f5f03d932a2b34ea892c301", "fusion_lat": 0.0, "name": "800fe41b9f5f03d932a2b34ea892c301", "is_reserved": 0, "rental_uris": {"android": "https://dc.lft.to/lastmile_qr_scan", "ios": "https://dc.lft.to/lastmile_qr_scan"}, "fusion_lon": 0.0}, {"lat": 38.911177, "is_disabled": 0, "type": "electric_scooter", "lon": -77.037711, "bike_id": "fea5d92ecd16b9fadf4d74358e7ccd7b", "fusion_lat": 0.0, "name": "fea5d92ecd16b9fadf4d74358e7ccd7b", "is_reserved": 0, "rental_uris": {"android": "https://dc.lft.to/lastmile_qr_scan", "ios": "https://dc.lft.to/lastmile_qr_scan"}, "fusion_lon": 0.0}, {"lat": 38.93221233333333, "is_disabled": 0, "type": "electric_scooter", "lon": -77.03866633333334, "bike_id": "5ac592a3fcb5cbe617b12da566534175", "fusion_lat": 0.0, "name": "5ac592a3fcb5cbe617b12da566534175", "is_reserved": 0, "rental_uris": {"android": "https://dc.lft.to/lastmile_qr_scan", "ios": "https://dc.lft.to/lastmile_qr_scan"}, "fusion_lon": 0.0}, {"lat": 38.92252666666667, "is_disabled": 0, "type": "electric_scooter", "lon": -77.0425415, "bike_id": "d44f96ac1eb35a9706cf5a63a6fdcc63", "fusion_lat": 0.0, "name": "d44f96ac1eb35a9706cf5a63a6fdcc63", "is_reserved": 0, "rental_uris": {"android": "https://dc.lft.to/lastmile_qr_scan", "ios": "https://dc.lft.to/lastmile_qr_scan"}, "fusion_lon": 0.0}, {"lat": 38.939812, "is_disabled": 0, "type": "electric_scooter", "lon": -77.02886683333334, "bike_id": "b2132e8af177ec4cf1466664c2ed96b7", "fusion_lat": 0.0, "name": "b2132e8af177ec4cf1466664c2ed96b7", "is_reserved": 0, "rental_uris": {"android": "https://dc.lft.to/lastmile_qr_scan", "ios": "https://dc.lft.to/lastmile_qr_scan"}, "fusion_lon": 0.0}, {"lat": 38.85789666666667, "is_disabled": 0, "type": "electric_bike", "lon": -77.09959733333334, "bike_id": "10a0afa27f08ff1b9f3a57efce90c374", "fusion_lat": 0.0, "name": "10a0afa27f08ff1b9f3a57efce90c374", "is_reserved": 0, "rental_uris": {"android": "https://dc.lft.to/lastmile_qr_scan", "ios": "https://dc.lft.to/lastmile_qr_scan"}, "fusion_lon": 0.0}, {"lat": 38.9398035, "is_disabled": 0, "type": "electric_scooter", "lon": -77.03263533333333, "bike_id": "5053e060caed02086800c25a43bc0329", "fusion_lat": 0.0, "name": "5053e060caed02086800c25a43bc0329", "is_reserved": 0, "rental_uris": {"android": "https://dc.lft.to/lastmile_qr_scan", "ios": "https://dc.lft.to/lastmile_qr_scan"}, "fusion_lon": 0.0}, {"lat": 38.924771166666666, "is_disabled": 0, "type": "electric_scooter", "lon": -77.02629633333333, "bike_id": "3ee5b3310985f7ad2053c152f6a242ed", "fusion_lat": 0.0, "name": "3ee5b3310985f7ad2053c152f6a242ed", "is_reserved": 0, "rental_uris": {"android": "https://dc.lft.to/lastmile_qr_scan", "ios": "https://dc.lft.to/lastmile_qr_scan"}, "fusion_lon": 0.0}, {"lat": 38.876805, "is_disabled": 0, "type": "electric_scooter", "lon": -77.01789683333334, "bike_id": "dbba89d484112560073f4cbe946af0f6", "fusion_lat": 0.0, "name": "dbba89d484112560073f4cbe946af0f6", "is_reserved": 0, "rental_uris": {"android": "https://dc.lft.to/lastmile_qr_scan", "ios": "https://dc.lft.to/lastmile_qr_scan"}, "fusion_lon": 0.0}, {"lat": 38.9169565, "is_disabled": 0, "type": "electric_scooter", "lon": -77.04588466666667, "bike_id": "ecd0e4613b3189603136163742c974c0", "fusion_lat": 0.0, "name": "ecd0e4613b3189603136163742c974c0", "is_reserved": 0, "rental_uris": {"android": "https://dc.lft.to/lastmile_qr_scan", "ios": "https://dc.lft.to/lastmile_qr_scan"}, "fusion_lon": 0.0}, {"lat": 38.923619, "is_disabled": 0, "type": "electric_scooter", "lon": -77.05094383333333, "bike_id": "e04f7a8ada27965e52965fabdabcd912", "fusion_lat": 0.0, "name": "e04f7a8ada27965e52965fabdabcd912", "is_reserved": 0, "rental_uris": {"android": "https://dc.lft.to/lastmile_qr_scan", "ios": "https://dc.lft.to/lastmile_qr_scan"}, "fusion_lon": 0.0}, {"lat": 38.93264766666667, "is_disabled": 0, "type": "electric_scooter", "lon": -77.03264316666667, "bike_id": "08f49462d735f2553a177333593d889b", "fusion_lat": 0.0, "name": "08f49462d735f2553a177333593d889b", "is_reserved": 0, "rental_uris": {"android": "https://dc.lft.to/lastmile_qr_scan", "ios": "https://dc.lft.to/lastmile_qr_scan"}, "fusion_lon": 0.0}, {"lat": 38.867405166666664, "is_disabled": 0, "type": "electric_scooter", "lon": -77.01022583333334, "bike_id": "7c6f42ae1b9521b6c23250af272ac5bf", "fusion_lat": 0.0, "name": "7c6f42ae1b9521b6c23250af272ac5bf", "is_reserved": 0, "rental_uris": {"android": "https://dc.lft.to/lastmile_qr_scan", "ios": "https://dc.lft.to/lastmile_qr_scan"}, "fusion_lon": 0.0}, {"lat": 38.857322333333336, "is_disabled": 0, "type": "electric_scooter", "lon": -76.9944495, "bike_id": "118f00248edc580eb299136191986b48", "fusion_lat": 0.0, "name": "118f00248edc580eb299136191986b48", "is_reserved": 0, "rental_uris": {"android": "https://dc.lft.to/lastmile_qr_scan", "ios": "https://dc.lft.to/lastmile_qr_scan"}, "fusion_lon": 0.0}, {"lat": 38.90144033333333, "is_disabled": 0, "type": "electric_scooter", "lon": -77.0413255, "bike_id": "c3a800fdd5409e0073ec433e55eed7a6", "fusion_lat": 0.0, "name": "c3a800fdd5409e0073ec433e55eed7a6", "is_reserved": 0, "rental_uris": {"android": "https://dc.lft.to/lastmile_qr_scan", "ios": "https://dc.lft.to/lastmile_qr_scan"}, "fusion_lon": 0.0}, {"lat": 38.90927333333333, "is_disabled": 0, "type": "electric_scooter", "lon": -77.03843933333333, "bike_id": "35a0a018a7c772f79b4908dcf70bc345", "fusion_lat": 0.0, "name": "35a0a018a7c772f79b4908dcf70bc345", "is_reserved": 0, "rental_uris": {"android": "https://dc.lft.to/lastmile_qr_scan", "ios": "https://dc.lft.to/lastmile_qr_scan"}, "fusion_lon": 0.0}, {"lat": 38.94449733333333, "is_disabled": 0, "type": "electric_scooter", "lon": -77.02341666666666, "bike_id": "d0b610ec1613a802329780191042d4e4", "fusion_lat": 0.0, "name": "d0b610ec1613a802329780191042d4e4", "is_reserved": 0, "rental_uris": {"android": "https://dc.lft.to/lastmile_qr_scan", "ios": "https://dc.lft.to/lastmile_qr_scan"}, "fusion_lon": 0.0}, {"lat": 38.909684166666665, "is_disabled": 0, "type": "electric_scooter", "lon": -77.04780333333333, "bike_id": "e42a74e85f65a58d70c7f7a0a20a630e", "fusion_lat": 0.0, "name": "e42a74e85f65a58d70c7f7a0a20a630e", "is_reserved": 0, "rental_uris": {"android": "https://dc.lft.to/lastmile_qr_scan", "ios": "https://dc.lft.to/lastmile_qr_scan"}, "fusion_lon": 0.0}, {"lat": 38.921287, "is_disabled": 0, "type": "electric_scooter", "lon": -77.04006, "bike_id": "c324489217902da8c65e9ba42fc8e146", "fusion_lat": 0.0, "name": "c324489217902da8c65e9ba42fc8e146", "is_reserved": 0, "rental_uris": {"android": "https://dc.lft.to/lastmile_qr_scan", "ios": "https://dc.lft.to/lastmile_qr_scan"}, "fusion_lon": 0.0}, {"lat": 38.95736516666667, "is_disabled": 0, "type": "electric_bike", "lon": -77.02322633333333, "bike_id": "8a3e0e8fa6fa889da10a1763e3965553", "fusion_lat": 0.0, "name": "8a3e0e8fa6fa889da10a1763e3965553", "is_reserved": 0, "rental_uris": {"android": "https://dc.lft.to/lastmile_qr_scan", "ios": "https://dc.lft.to/lastmile_qr_scan"}, "fusion_lon": 0.0}, {"lat": 38.961566166666664, "is_disabled": 0, "type": "electric_scooter", "lon": -77.02787233333333, "bike_id": "e4c8e3c22617edf1cbe6523dc4cd6f50", "fusion_lat": 0.0, "name": "e4c8e3c22617edf1cbe6523dc4cd6f50", "is_reserved": 0, "rental_uris": {"android": "https://dc.lft.to/lastmile_qr_scan", "ios": "https://dc.lft.to/lastmile_qr_scan"}, "fusion_lon": 0.0}, {"lat": 38.89678383333333, "is_disabled": 0, "type": "electric_scooter", "lon": -76.93537233333333, "bike_id": "b469e691b1af91a4fe534cf118ea86d3", "fusion_lat": 0.0, "name": "b469e691b1af91a4fe534cf118ea86d3", "is_reserved": 0, "rental_uris": {"android": "https://dc.lft.to/lastmile_qr_scan", "ios": "https://dc.lft.to/lastmile_qr_scan"}, "fusion_lon": 0.0}, {"lat": 38.931438666666665, "is_disabled": 0, "type": "electric_scooter", "lon": -77.03830566666667, "bike_id": "52d7970b61666334b0c750d65a62b40c", "fusion_lat": 0.0, "name": "52d7970b61666334b0c750d65a62b40c", "is_reserved": 0, "rental_uris": {"android": "https://dc.lft.to/lastmile_qr_scan", "ios": "https://dc.lft.to/lastmile_qr_scan"}, "fusion_lon": 0.0}, {"lat": 38.917125666666664, "is_disabled": 0, "type": "electric_scooter", "lon": -77.038579, "bike_id": "9b92204bce559cafb9419987b7d7a5a3", "fusion_lat": 0.0, "name": "9b92204bce559cafb9419987b7d7a5a3", "is_reserved": 0, "rental_uris": {"android": "https://dc.lft.to/lastmile_qr_scan", "ios": "https://dc.lft.to/lastmile_qr_scan"}, "fusion_lon": 0.0}, {"lat": 38.95957116666666, "is_disabled": 0, "type": "electric_bike", "lon": -77.10090883333334, "bike_id": "41660d5f0dc169bc5bbaa31ccbf4cb11", "fusion_lat": 0.0, "name": "41660d5f0dc169bc5bbaa31ccbf4cb11", "is_reserved": 0, "rental_uris": {"android": "https://dc.lft.to/lastmile_qr_scan", "ios": "https://dc.lft.to/lastmile_qr_scan"}, "fusion_lon": 0.0}, {"lat": 38.88046383333333, "is_disabled": 0, "type": "electric_scooter", "lon": -76.9862945, "bike_id": "b97b65b36e85205563ecbeceef1d5d84", "fusion_lat": 0.0, "name": "b97b65b36e85205563ecbeceef1d5d84", "is_reserved": 0, "rental_uris": {"android": "https://dc.lft.to/lastmile_qr_scan", "ios": "https://dc.lft.to/lastmile_qr_scan"}, "fusion_lon": 0.0}, {"lat": 38.842599166666666, "is_disabled": 0, "type": "electric_scooter", "lon": -77.00239733333333, "bike_id": "68b06217fe1cd143904b89d117dbce75", "fusion_lat": 0.0, "name": "68b06217fe1cd143904b89d117dbce75", "is_reserved": 0, "rental_uris": {"android": "https://dc.lft.to/lastmile_qr_scan", "ios": "https://dc.lft.to/lastmile_qr_scan"}, "fusion_lon": 0.0}, {"lat": 38.92062166666667, "is_disabled": 0, "type": "electric_scooter", "lon": -77.0433855, "bike_id": "daf831cc7d375f63588a5fe2bcc9da9c", "fusion_lat": 0.0, "name": "daf831cc7d375f63588a5fe2bcc9da9c", "is_reserved": 0, "rental_uris": {"android": "https://dc.lft.to/lastmile_qr_scan", "ios": "https://dc.lft.to/lastmile_qr_scan"}, "fusion_lon": 0.0}, {"lat": 38.88437616666667, "is_disabled": 0, "type": "electric_scooter", "lon": -77.03038616666667, "bike_id": "16f9eb2def3d830c091029ebe2719f77", "fusion_lat": 0.0, "name": "16f9eb2def3d830c091029ebe2719f77", "is_reserved": 0, "rental_uris": {"android": "https://dc.lft.to/lastmile_qr_scan", "ios": "https://dc.lft.to/lastmile_qr_scan"}, "fusion_lon": 0.0}, {"lat": 38.90376, "is_disabled": 0, "type": "electric_scooter", "lon": -77.06033433333333, "bike_id": "36649b602f8450c9b5eb64899ae30eaa", "fusion_lat": 0.0, "name": "36649b602f8450c9b5eb64899ae30eaa", "is_reserved": 0, "rental_uris": {"android": "https://dc.lft.to/lastmile_qr_scan", "ios": "https://dc.lft.to/lastmile_qr_scan"}, "fusion_lon": 0.0}, {"lat": 38.898475, "is_disabled": 0, "type": "electric_scooter", "lon": -77.01874866666667, "bike_id": "47c38fb8956e8d49cc8677a46105f8c5", "fusion_lat": 0.0, "name": "47c38fb8956e8d49cc8677a46105f8c5", "is_reserved": 0, "rental_uris": {"android": "https://dc.lft.to/lastmile_qr_scan", "ios": "https://dc.lft.to/lastmile_qr_scan"}, "fusion_lon": 0.0}, {"lat": 38.90556983333333, "is_disabled": 0, "type": "electric_scooter", "lon": -77.05694666666666, "bike_id": "6f63038e26ed34f3e16f1fc7cd0af691", "fusion_lat": 0.0, "name": "6f63038e26ed34f3e16f1fc7cd0af691", "is_reserved": 0, "rental_uris": {"android": "https://dc.lft.to/lastmile_qr_scan", "ios": "https://dc.lft.to/lastmile_qr_scan"}, "fusion_lon": 0.0}, {"lat": 38.920689333333335, "is_disabled": 0, "type": "electric_scooter", "lon": -76.976028, "bike_id": "c8868a3a90da9141f9461671310cce48", "fusion_lat": 0.0, "name": "c8868a3a90da9141f9461671310cce48", "is_reserved": 0, "rental_uris": {"android": "https://dc.lft.to/lastmile_qr_scan", "ios": "https://dc.lft.to/lastmile_qr_scan"}, "fusion_lon": 0.0}, {"lat": 38.903060833333335, "is_disabled": 0, "type": "electric_scooter", "lon": -77.065258, "bike_id": "dc424400751b56718e1b159d672ab541", "fusion_lat": 0.0, "name": "dc424400751b56718e1b159d672ab541", "is_reserved": 0, "rental_uris": {"android": "https://dc.lft.to/lastmile_qr_scan", "ios": "https://dc.lft.to/lastmile_qr_scan"}, "fusion_lon": 0.0}, {"lat": 38.879183833333336, "is_disabled": 0, "type": "electric_scooter", "lon": -76.99157083333333, "bike_id": "47f1c1cb80ebad280ee4763f72341899", "fusion_lat": 0.0, "name": "47f1c1cb80ebad280ee4763f72341899", "is_reserved": 0, "rental_uris": {"android": "https://dc.lft.to/lastmile_qr_scan", "ios": "https://dc.lft.to/lastmile_qr_scan"}, "fusion_lon": 0.0}, {"lat": 38.909690499999996, "is_disabled": 0, "type": "electric_scooter", "lon": -77.02272433333333, "bike_id": "387ee4091a0cd2e0208beb964d473cd5", "fusion_lat": 0.0, "name": "387ee4091a0cd2e0208beb964d473cd5", "is_reserved": 0, "rental_uris": {"android": "https://dc.lft.to/lastmile_qr_scan", "ios": "https://dc.lft.to/lastmile_qr_scan"}, "fusion_lon": 0.0}, {"lat": 38.87064633333333, "is_disabled": 0, "type": "electric_scooter", "lon": -77.00842416666667, "bike_id": "8491815cee59b96591a6ade035eb78b1", "fusion_lat": 0.0, "name": "8491815cee59b96591a6ade035eb78b1", "is_reserved": 0, "rental_uris": {"android": "https://dc.lft.to/lastmile_qr_scan", "ios": "https://dc.lft.to/lastmile_qr_scan"}, "fusion_lon": 0.0}, {"lat": 38.911765833333334, "is_disabled": 0, "type": "electric_scooter", "lon": -77.00649633333333, "bike_id": "c53e200d155c8c0d5f3925d2d38c1080", "fusion_lat": 0.0, "name": "c53e200d155c8c0d5f3925d2d38c1080", "is_reserved": 0, "rental_uris": {"android": "https://dc.lft.to/lastmile_qr_scan", "ios": "https://dc.lft.to/lastmile_qr_scan"}, "fusion_lon": 0.0}, {"lat": 38.91813666666667, "is_disabled": 0, "type": "electric_scooter", "lon": -77.012718, "bike_id": "61668312e76a5d14403411092ea58d91", "fusion_lat": 0.0, "name": "61668312e76a5d14403411092ea58d91", "is_reserved": 0, "rental_uris": {"android": "https://dc.lft.to/lastmile_qr_scan", "ios": "https://dc.lft.to/lastmile_qr_scan"}, "fusion_lon": 0.0}, {"lat": 38.903754166666666, "is_disabled": 0, "type": "electric_scooter", "lon": -77.03904066666666, "bike_id": "69d07388053c354431a4a117ba453204", "fusion_lat": 0.0, "name": "69d07388053c354431a4a117ba453204", "is_reserved": 0, "rental_uris": {"android": "https://dc.lft.to/lastmile_qr_scan", "ios": "https://dc.lft.to/lastmile_qr_scan"}, "fusion_lon": 0.0}, {"lat": 38.8747045, "is_disabled": 0, "type": "electric_scooter", "lon": -77.00936683333333, "bike_id": "054c3c4ed683da90bff400d0f4955417", "fusion_lat": 0.0, "name": "054c3c4ed683da90bff400d0f4955417", "is_reserved": 0, "rental_uris": {"android": "https://dc.lft.to/lastmile_qr_scan", "ios": "https://dc.lft.to/lastmile_qr_scan"}, "fusion_lon": 0.0}, {"lat": 38.9172095, "is_disabled": 0, "type": "electric_scooter", "lon": -77.03117383333333, "bike_id": "789770a30d614def5e0f9e5412f7b9dc", "fusion_lat": 0.0, "name": "789770a30d614def5e0f9e5412f7b9dc", "is_reserved": 0, "rental_uris": {"android": "https://dc.lft.to/lastmile_qr_scan", "ios": "https://dc.lft.to/lastmile_qr_scan"}, "fusion_lon": 0.0}, {"lat": 38.902838333333335, "is_disabled": 0, "type": "electric_scooter", "lon": -76.97395283333333, "bike_id": "513d7f436c2add03ab9b38c2b975cf74", "fusion_lat": 0.0, "name": "513d7f436c2add03ab9b38c2b975cf74", "is_reserved": 0, "rental_uris": {"android": "https://dc.lft.to/lastmile_qr_scan", "ios": "https://dc.lft.to/lastmile_qr_scan"}, "fusion_lon": 0.0}, {"lat": 38.86276066666667, "is_disabled": 0, "type": "electric_scooter", "lon": -76.99238833333334, "bike_id": "4a2d3108ffe9072896bf73565f819506", "fusion_lat": 0.0, "name": "4a2d3108ffe9072896bf73565f819506", "is_reserved": 0, "rental_uris": {"android": "https://dc.lft.to/lastmile_qr_scan", "ios": "https://dc.lft.to/lastmile_qr_scan"}, "fusion_lon": 0.0}, {"lat": 38.9493985, "is_disabled": 0, "type": "electric_scooter", "lon": -77.02022366666667, "bike_id": "4eb7763bd8b206fac321b72b3430f827", "fusion_lat": 0.0, "name": "4eb7763bd8b206fac321b72b3430f827", "is_reserved": 0, "rental_uris": {"android": "https://dc.lft.to/lastmile_qr_scan", "ios": "https://dc.lft.to/lastmile_qr_scan"}, "fusion_lon": 0.0}, {"lat": 38.93141883333333, "is_disabled": 0, "type": "electric_scooter", "lon": -77.02827366666666, "bike_id": "cd8d043dba7d8349c69cfb56555093db", "fusion_lat": 0.0, "name": "cd8d043dba7d8349c69cfb56555093db", "is_reserved": 0, "rental_uris": {"android": "https://dc.lft.to/lastmile_qr_scan", "ios": "https://dc.lft.to/lastmile_qr_scan"}, "fusion_lon": 0.0}, {"lat": 38.921706666666665, "is_disabled": 0, "type": "electric_scooter", "lon": -77.0424315, "bike_id": "05b0975dcad13eaada5cbb95860ca649", "fusion_lat": 0.0, "name": "05b0975dcad13eaada5cbb95860ca649", "is_reserved": 0, "rental_uris": {"android": "https://dc.lft.to/lastmile_qr_scan", "ios": "https://dc.lft.to/lastmile_qr_scan"}, "fusion_lon": 0.0}, {"lat": 38.91964566666667, "is_disabled": 0, "type": "electric_scooter", "lon": -77.03204683333334, "bike_id": "6b990c1588f4056c8b6f5d94f34e44c6", "fusion_lat": 0.0, "name": "6b990c1588f4056c8b6f5d94f34e44c6", "is_reserved": 0, "rental_uris": {"android": "https://dc.lft.to/lastmile_qr_scan", "ios": "https://dc.lft.to/lastmile_qr_scan"}, "fusion_lon": 0.0}, {"lat": 38.89645333333333, "is_disabled": 0, "type": "electric_scooter", "lon": -77.00786383333333, "bike_id": "fb4145b99a6dd7fd06aa1b070a3af65e", "fusion_lat": 0.0, "name": "fb4145b99a6dd7fd06aa1b070a3af65e", "is_reserved": 0, "rental_uris": {"android": "https://dc.lft.to/lastmile_qr_scan", "ios": "https://dc.lft.to/lastmile_qr_scan"}, "fusion_lon": 0.0}, {"lat": 38.935705666666664, "is_disabled": 0, "type": "electric_scooter", "lon": -77.03264416666667, "bike_id": "6431f8f1a545b11757a439a095a97479", "fusion_lat": 0.0, "name": "6431f8f1a545b11757a439a095a97479", "is_reserved": 0, "rental_uris": {"android": "https://dc.lft.to/lastmile_qr_scan", "ios": "https://dc.lft.to/lastmile_qr_scan"}, "fusion_lon": 0.0}, {"lat": 38.90482083333333, "is_disabled": 0, "type": "electric_scooter", "lon": -77.05739016666666, "bike_id": "3c7af8f12e4ba94ad1b49ee780d329f0", "fusion_lat": 0.0, "name": "3c7af8f12e4ba94ad1b49ee780d329f0", "is_reserved": 0, "rental_uris": {"android": "https://dc.lft.to/lastmile_qr_scan", "ios": "https://dc.lft.to/lastmile_qr_scan"}, "fusion_lon": 0.0}, {"lat": 38.872059666666665, "is_disabled": 0, "type": "electric_bike", "lon": -77.01529216666667, "bike_id": "d89f315f439592482a3e6634c29c8578", "fusion_lat": 0.0, "name": "d89f315f439592482a3e6634c29c8578", "is_reserved": 0, "rental_uris": {"android": "https://dc.lft.to/lastmile_qr_scan", "ios": "https://dc.lft.to/lastmile_qr_scan"}, "fusion_lon": 0.0}, {"lat": 38.9053685, "is_disabled": 0, "type": "electric_scooter", "lon": -77.0057765, "bike_id": "4a8537d2ee7d6aca5b5963e689a4a9dc", "fusion_lat": 0.0, "name": "4a8537d2ee7d6aca5b5963e689a4a9dc", "is_reserved": 0, "rental_uris": {"android": "https://dc.lft.to/lastmile_qr_scan", "ios": "https://dc.lft.to/lastmile_qr_scan"}, "fusion_lon": 0.0},