{"data": {"bikes": [{"fusion_lon": 0.0, "bike_id": "98b87b09c0d1d3d3252f963e22e30012", "lon": -77.051417, "type": "electric_scooter", "is_disabled": 0, "rental_uris": {"ios": "https://dc.lft.to/lastmile_qr_scan", "android": "https://dc.lft.to/lastmile_qr_scan"}, "is_reserved": 0, "fusion_lat": 0.0, "name": "98b87b09c0d1d3d3252f963e22e30012", "lat": 38.90535466666667}, {"fusion_lon": 0.0, "bike_id": "81ae205508b9d7a2fcd3d4ccda61d9a0", "lon": -77.00201666666666, "type": "electric_scooter", "is_disabled": 0, "rental_uris": {"ios": "https://dc.lft.to/lastmile_qr_scan", "android": "https://dc.lft.to/lastmile_qr_scan"}, "is_reserved": 0, "fusion_lat": 0.0, "name": "81ae205508b9d7a2fcd3d4ccda61d9a0", "lat": 38.90240133333333}, {"fusion_lon": 0.0, "bike_id": "692f4096942ea587370f19142e893def", "lon": -77.03316083333333, "type": "electric_bike", "is_disabled": 0, "rental_uris": {"ios": "https://dc.lft.to/lastmile_qr_scan", "android": "https://dc.lft.to/lastmile_qr_scan"}, "is_reserved": 0, "fusion_lat": 0.0, "name": "692f4096942ea587370f19142e893def", "lat": 38.920576833333335}, {"fusion_lon": 0.0, "bike_id": "adb579dc49f11175340287964e6e7c8d", "lon": -77.07462183333334, "type": "electric_scooter", "is_disabled": 0, "rental_uris": {"ios": "https://dc.lft.to/lastmile_qr_scan", "android": "https://dc.lft.to/lastmile_qr_scan"}, "is_reserved": 0, "fusion_lat": 0.0, "name": "adb579dc49f11175340287964e6e7c8d", "lat": 38.920779333333336}, {"fusion_lon": 0.0, "bike_id": "d78bcb02dbd91c21f22c8bc7b1858739", "lon": -76.98360766666667, "type": "electric_scooter", "is_disabled": 0, "rental_uris": {"ios": "https://dc.lft.to/lastmile_qr_scan", "android": "https://dc.lft.to/lastmile_qr_scan"}, "is_reserved": 0, "fusion_lat": 0.0, "name": "d78bcb02dbd91c21f22c8bc7b1858739", "lat": 38.887285166666665}, {"fusion_lon": 0.0, "bike_id": "ba4cb96a8bb940d0b2cd4edd713df42e", "lon": -77.06658616666667, "type": "electric_bike", "is_disabled": 0, "rental_uris": {"ios": "https://dc.lft.to/lastmile_qr_scan", "android": "https://dc.lft.to/lastmile_qr_scan"}, "is_reserved": 0, "fusion_lat": 0.0, "name": "ba4cb96a8bb940d0b2cd4edd713df42e", "lat": 38.950631666666666}, {"fusion_lon": 0.0, "bike_id": "f6100814194369f4eadd4e70a67e9512", "lon": -76.94204416666666, "type": "electric_scooter", "is_disabled": 0, "rental_uris": {"ios": "https://dc.lft.to/lastmile_qr_scan", "android": "https://dc.lft.to/lastmile_qr_scan"}, "is_reserved": 0, "fusion_lat": 0.0, "name": "f6100814194369f4eadd4e70a67e9512", "lat": 38.88427216666667}, {"fusion_lon": 0.0, "bike_id": "201bbd7ab3b025ce7f855450d69d0b6e", "lon": -77.05173983333333, "type": "electric_scooter", "is_disabled": 0, "rental_uris": {"ios": "https://dc.lft.to/lastmile_qr_scan", "android": "https://dc.lft.to/lastmile_qr_scan"}, "is_reserved": 0, "fusion_lat": 0.0, "name": "201bbd7ab3b025ce7f855450d69d0b6e", "lat": 38.923472}, {"fusion_lon": 0.0, "bike_id": "abbfaceceecf785aec8e9b9e772fcccd", "lon": -77.04284633333333, "type": "electric_scooter", "is_disabled": 0, "rental_uris": {"ios": "https://dc.lft.to/lastmile_qr_scan", "android": "https://dc.lft.to/lastmile_qr_scan"}, "is_reserved": 0, "fusion_lat": 0.0, "name": "abbfaceceecf785aec8e9b9e772fcccd", "lat": 38.908078333333336}, {"fusion_lon": 0.0, "bike_id": "d604193a7c024bc0f2b92ce2e2f65d4a", "lon": -77.03986633333334, "type": "electric_scooter", "is_disabled": 0, "rental_uris": {"ios": "https://dc.lft.to/lastmile_qr_scan", "android": "https://dc.lft.to/lastmile_qr_scan"}, "is_reserved": 0, "fusion_lat": 0.0, "name": "d604193a7c024bc0f2b92ce2e2f65d4a", "lat": 38.92596366666667}, {"fusion_lon": 0.0, "bike_id": "ceb5a7dc89120e26b87940ab4a790b38", "lon": -77.03506366666667, "type": "electric_scooter", "is_disabled": 0, "rental_uris": {"ios": "https://dc.lft.to/lastmile_qr_scan", "android": "https://dc.lft.to/lastmile_qr_scan"}, "is_reserved": 0, "fusion_lat": 0.0, "name": "ceb5a7dc89120e26b87940ab4a790b38", "lat": 38.918795333333335}, {"fusion_lon": 0.0, "bike_id": "01a4514048e04feea83cbed29b198bfd", "lon": -77.04858483333334, "type": "electric_scooter", "is_disabled": 0, "rental_uris": {"ios": "https://dc.lft.to/lastmile_qr_scan", "android": "https://dc.lft.to/lastmile_qr_scan"}, "is_reserved": 0, "fusion_lat": 0.0, "name": "01a4514048e04feea83cbed29b198bfd", "lat": 38.90060483333333}, {"fusion_lon": 0.0, "bike_id": "76a7ee618bd2f731c0e0fdf7780fd92f", "lon": -77.02837133333334, "type": "electric_scooter", "is_disabled": 0, "rental_uris": {"ios": "https://dc.lft.to/lastmile_qr_scan", "android": "https://dc.lft.to/lastmile_qr_scan"}, "is_reserved": 0, "fusion_lat": 0.0, "name": "76a7ee618bd2f731c0e0fdf7780fd92f", "lat": 38.95627016666667}, {"fusion_lon": 0.0, "bike_id": "de1622e728df2625a234dd4059a2093b", "lon": -77.0186995, "type": "electric_scooter", "is_disabled": 0, "rental_uris": {"ios": "https://dc.lft.to/lastmile_qr_scan", "android": "https://dc.lft.to/lastmile_qr_scan"}, "is_reserved": 0, "fusion_lat": 0.0, "name": "de1622e728df2625a234dd4059a2093b", "lat": 38.90860416666666}, {"fusion_lon": 0.0, "bike_id": "ff3915bb49c9962aa5eff1b49798468c", "lon": -76.99514233333333, "type": "electric_scooter", "is_disabled": 0, "rental_uris": {"ios": "https://dc.lft.to/lastmile_qr_scan", "android": "https://dc.lft.to/lastmile_qr_scan"}, "is_reserved": 0, "fusion_lat": 0.0, "name": "ff3915bb49c9962aa5eff1b49798468c", "lat": 38.8836525}, {"fusion_lon": 0.0, "bike_id": "01a496882068bc5699cb12954c46ea4e", "lon": -76.97442316666667, "type": "electric_bike", "is_disabled": 0, "rental_uris": {"ios": "https://dc.lft.to/lastmile_qr_scan", "android": "https://dc.lft.to/lastmile_qr_scan"}, "is_reserved": 0, "fusion_lat": 0.0, "name": "01a496882068bc5699cb12954c46ea4e", "lat": 38.90499283333333}, {"fusion_lon": 0.0, "bike_id": "398d7cdc803677f256281bb9720f8cb6", "lon": -77.044731, "type": "electric_scooter", "is_disabled": 0, "rental_uris": {"ios": "https://dc.lft.to/lastmile_qr_scan", "android": "https://dc.lft.to/lastmile_qr_scan"}, "is_reserved": 0, "fusion_lat": 0.0, "name": "398d7cdc803677f256281bb9720f8cb6", "lat": 38.91925166666667}, {"fusion_lon": 0.0, "bike_id": "313acc36e369ef809c512f158a95cd46", "lon": -77.01636, "type": "electric_bike", "is_disabled": 0, "rental_uris": {"ios": "https://dc.lft.to/lastmile_qr_scan", "android": "https://dc.lft.to/lastmile_qr_scan"}, "is_reserved": 0, "fusion_lat": 0.0, "name": "313acc36e369ef809c512f158a95cd46", "lat": 38.784540666666665}, {"fusion_lon": 0.0, "bike_id": "4e0b2b709b06b7585f8b53cf0e077577", "lon": -77.04343366666667, "type": "electric_scooter", "is_disabled": 0, "rental_uris": {"ios": "https://dc.lft.to/lastmile_qr_scan", "android": "https://dc.lft.to/lastmile_qr_scan"}, "is_reserved": 0, "fusion_lat": 0.0, "name": "4e0b2b709b06b7585f8b53cf0e077577", "lat": 38.90361683333333}, {"fusion_lon": 0.0, "bike_id": "1959c62bb5ab2de00c75ddc0197cdfe1", "lon": -77.042569, "type": "electric_scooter", "is_disabled": 0, "rental_uris": {"ios": "https://dc.lft.to/lastmile_qr_scan", "android": "https://dc.lft.to/lastmile_qr_scan"}, "is_reserved": 0, "fusion_lat": 0.0, "name": "1959c62bb5ab2de00c75ddc0197cdfe1", "lat": 38.91478033333333}, {"fusion_lon": 0.0, "bike_id": "5cdc00472806529ed6f3327faeca55dd", "lon": -76.976155, "type": "electric_bike", "is_disabled": 0, "rental_uris": {"ios": "https://dc.lft.to/lastmile_qr_scan", "android": "https://dc.lft.to/lastmile_qr_scan"}, "is_reserved": 0, "fusion_lat": 0.0, "name": "5cdc00472806529ed6f3327faeca55dd", "lat": 38.940203833333335}, {"fusion_lon": 0.0, "bike_id": "3c0ff4f53dda254ab55b285420f89636", "lon": -77.04743166666667, "type": "electric_scooter", "is_disabled": 0, "rental_uris": {"ios": "https://dc.lft.to/lastmile_qr_scan", "android": "https://dc.lft.to/lastmile_qr_scan"}, "is_reserved": 0, "fusion_lat": 0.0, "name": "3c0ff4f53dda254ab55b285420f89636", "lat": 38.923416833333334}, {"fusion_lon": 0.0, "bike_id": "593eba6e6cdc520c9d1f1ad6950974e9", "lon": -76.9956205, "type": "electric_scooter", "is_disabled": 0, "rental_uris": {"ios": "https://dc.lft.to/lastmile_qr_scan", "android": "https://dc.lft.to/lastmile_qr_scan"}, "is_reserved": 0, "fusion_lat": 0.0, "name": "593eba6e6cdc520c9d1f1ad6950974e9", "lat": 38.92741316666667}, {"fusion_lon": 0.0, "bike_id": "c70f03e2105beeb53d10873b5f2ab244", "lon": -77.059551, "type": "electric_scooter", "is_disabled": 0, "rental_uris": {"ios": "https://dc.lft.to/lastmile_qr_scan", "android": "https://dc.lft.to/lastmile_qr_scan"}, "is_reserved": 0, "fusion_lat": 0.0, "name": "c70f03e2105beeb53d10873b5f2ab244", "lat": 38.94314033333333}, {"fusion_lon": 0.0, "bike_id": "5630d0f15ecd33174a3845093429ce67", "lon": -77.00339216666667, "type": "electric_scooter", "is_disabled": 0, "rental_uris": {"ios": "https://dc.lft.to/lastmile_qr_scan", "android": "https://dc.lft.to/lastmile_qr_scan"}, "is_reserved": 0, "fusion_lat": 0.0, "name": "5630d0f15ecd33174a3845093429ce67", "lat": 38.89178833333333}, {"fusion_lon": 0.0, "bike_id": "01da95c44d3e649a68f2352305df29c4", "lon": -77.05883566666667, "type": "electric_scooter", "is_disabled": 0, "rental_uris": {"ios": "https://dc.lft.to/lastmile_qr_scan", "android": "https://dc.lft.to/lastmile_qr_scan"}, "is_reserved": 0, "fusion_lat": 0.0, "name": "01da95c44d3e649a68f2352305df29c4", "lat": 38.9183145}, {"fusion_lon": 0.0, "bike_id": "590d36793313730aef7746d947b69920", "lon": -76.98620783333334, "type": "electric_scooter", "is_disabled": 0, "rental_uris": {"ios": "https://dc.lft.to/lastmile_qr_scan", "android": "https://dc.lft.to/lastmile_qr_scan"}, "is_reserved": 0, "fusion_lat": 0.0, "name": "590d36793313730aef7746d947b69920", "lat": 38.909978}, {"fusion_lon": 0.0, "bike_id": "50ca1117d513814b28bd34fff3c53109", "lon": -77.011608, "type": "electric_scooter", "is_disabled": 0, "rental_uris": {"ios": "https://dc.lft.to/lastmile_qr_scan", "android": "https://dc.lft.to/lastmile_qr_scan"}, "is_reserved": 0, "fusion_lat": 0.0, "name": "50ca1117d513814b28bd34fff3c53109", "lat": 38.9111645}, {"fusion_lon": 0.0, "bike_id": "2b88c38a289c6a541e27665a7154c562", "lon": -77.06940016666667, "type": "electric_scooter", "is_disabled": 0, "rental_uris": {"ios": "https://dc.lft.to/lastmile_qr_scan", "android": "https://dc.lft.to/lastmile_qr_scan"}, "is_reserved": 0, "fusion_lat": 0.0, "name": "2b88c38a289c6a541e27665a7154c562", "lat": 38.9174485}, {"fusion_lon": 0.0, "bike_id": "4a04d5a35a4f5e76920469bb61c4de23", "lon": -77.02714233333333, "type": "electric_scooter", "is_disabled": 0, "rental_uris": {"ios": "https://dc.lft.to/lastmile_qr_scan", "android": "https://dc.lft.to/lastmile_qr_scan"}, "is_reserved": 0, "fusion_lat": 0.0, "name": "4a04d5a35a4f5e76920469bb61c4de23", "lat": 38.90663}, {"fusion_lon": 0.0, "bike_id": "46010ead09edc6a8737bea6c9989abaf", "lon": -77.03408483333334, "type": "electric_scooter", "is_disabled": 0, "rental_uris": {"ios": "https://dc.lft.to/lastmile_qr_scan", "android": "https://dc.lft.to/lastmile_qr_scan"}, "is_reserved": 0, "fusion_lat": 0.0, "name": "46010ead09edc6a8737bea6c9989abaf", "lat": 38.90261916666667}, {"fusion_lon": 0.0, "bike_id": "486fe181674b3d50614ed0269ca48cf4", "lon": -77.01497983333333, "type": "electric_scooter", "is_disabled": 0, "rental_uris": {"ios": "https://dc.lft.to/lastmile_qr_scan", "android": "https://dc.lft.to/lastmile_qr_scan"}, "is_reserved": 0, "fusion_lat": 0.0, "name": "486fe181674b3d50614ed0269ca48cf4", "lat": 38.95771583333333}, {"fusion_lon": 0.0, "bike_id": "cc1ce7536f702bdb9b266d3f04c2c1a4", "lon": -77.0244755, "type": "electric_scooter", "is_disabled": 0, "rental_uris": {"ios": "https://dc.lft.to/lastmile_qr_scan", "android": "https://dc.lft.to/lastmile_qr_scan"}, "is_reserved": 0, "fusion_lat": 0.0, "name": "cc1ce7536f702bdb9b266d3f04c2c1a4", "lat": 38.94977816666667}, {"fusion_lon": 0.0, "bike_id": "f4a242781232b3a8949b357a4599f5b4", "lon": -77.03229583333334, "type": "electric_scooter", "is_disabled": 0, "rental_uris": {"ios": "https://dc.lft.to/lastmile_qr_scan", "android": "https://dc.lft.to/lastmile_qr_scan"}, "is_reserved": 0, "fusion_lat": 0.0, "name": "f4a242781232b3a8949b357a4599f5b4", "lat": 38.9140415}, {"fusion_lon": 0.0, "bike_id": "f6f0063bb2a24649487d67a900bd4951", "lon": -77.03867616666666, "type": "electric_scooter", "is_disabled": 0, "rental_uris": {"ios": "https://dc.lft.to/lastmile_qr_scan", "android": "https://dc.lft.to/lastmile_qr_scan"}, "is_reserved": 0, "fusion_lat": 0.0, "name": "f6f0063bb2a24649487d67a900bd4951", "lat": 38.924435833333334}, {"fusion_lon": 0.0, "bike_id": "2f70898e46544dc608022f8731839425", "lon": -77.03442066666666, "type": "electric_scooter", "is_disabled": 0, "rental_uris": {"ios": "https://dc.lft.to/lastmile_qr_scan", "android": "https://dc.lft.to/lastmile_qr_scan"}, "is_reserved": 0, "fusion_lat": 0.0, "name": "2f70898e46544dc608022f8731839425", "lat": 38.909467666666664}, {"fusion_lon": 0.0, "bike_id": "a09270b33dac7d6c89773979354797bd", "lon": -77.048738, "type": "electric_scooter", "is_disabled": 0, "rental_uris": {"ios": "https://dc.lft.to/lastmile_qr_scan", "android": "https://dc.lft.to/lastmile_qr_scan"}, "is_reserved": 0, "fusion_lat": 0.0, "name": "a09270b33dac7d6c89773979354797bd", "lat": 38.916176}, {"fusion_lon": 0.0, "bike_id": "500fc4c50f7bc5c2c2ce1df86558f652", "lon": -77.033282, "type": "electric_scooter", "is_disabled": 0, "rental_uris": {"ios": "https://dc.lft.to/lastmile_qr_scan", "android": "https://dc.lft.to/lastmile_qr_scan"}, "is_reserved": 0, "fusion_lat": 0.0, "name": "500fc4c50f7bc5c2c2ce1df86558f652", "lat": 38.8978095}, {"fusion_lon": 0.0, "bike_id": "ee3003d76c2d449a885b4b60326b9edf", "lon": -77.03225183333333, "type": "electric_scooter", "is_disabled": 0, "rental_uris": {"ios": "https://dc.lft.to/lastmile_qr_scan", "android": "https://dc.lft.to/lastmile_qr_scan"}, "is_reserved": 0, "fusion_lat": 0.0, "name": "ee3003d76c2d449a885b4b60326b9edf", "lat": 38.9177235}, {"fusion_lon": 0.0, "bike_id": "b41816c5e4937e46c1394f86fd9e5be2", "lon": -76.9989005, "type": "electric_scooter", "is_disabled": 0, "rental_uris": {"ios": "https://dc.lft.to/lastmile_qr_scan", "android": "https://dc.lft.to/lastmile_qr_scan"}, "is_reserved": 0, "fusion_lat": 0.0, "name": "b41816c5e4937e46c1394f86fd9e5be2", "lat": 38.8792425}, {"fusion_lon": 0.0, "bike_id": "e1566b414f674dc6cebf94f92eafdb51", "lon": -77.06358916666667, "type": "electric_scooter", "is_disabled": 0, "rental_uris": {"ios": "https://dc.lft.to/lastmile_qr_scan", "android": "https://dc.lft.to/lastmile_qr_scan"}, "is_reserved": 0, "fusion_lat": 0.0, "name": "e1566b414f674dc6cebf94f92eafdb51", "lat": 38.94449383333333}, {"fusion_lon": 0.0, "bike_id": "08012d98b597c9d9f56d028d887170a2", "lon": -77.02449316666667, "type": "electric_scooter", "is_disabled": 0, "rental_uris": {"ios": "https://dc.lft.to/lastmile_qr_scan", "android": "https://dc.lft.to/lastmile_qr_scan"}, "is_reserved": 0, "fusion_lat": 0.0, "name": "08012d98b597c9d9f56d028d887170a2", "lat": 38.92498666666667}, {"fusion_lon": 0.0, "bike_id": "684cdbf5ed28d379d183cb189d47b5ce", "lon": -77.05004816666667, "type": "electric_scooter", "is_disabled": 0, "rental_uris": {"ios": "https://dc.lft.to/lastmile_qr_scan", "android": "https://dc.lft.to/lastmile_qr_scan"}, "is_reserved": 0, "fusion_lat": 0.0, "name": "684cdbf5ed28d379d183cb189d47b5ce", "lat": 38.899291166666664}, {"fusion_lon": 0.0, "bike_id": "db8a57400435b89057cd3033ee793ea4", "lon": -77.03380066666666, "type": "electric_scooter", "is_disabled": 0, "rental_uris": {"ios": "https://dc.lft.to/lastmile_qr_scan", "android": "https://dc.lft.to/lastmile_qr_scan"}, "is_reserved": 0, "fusion_lat": 0.0, "name": "db8a57400435b89057cd3033ee793ea4", "lat": 38.91971766666666}, {"fusion_lon": 0.0, "bike_id": "358e2e006644a5f9ecbb5ba6fe878c80", "lon": -77.044691, "type": "electric_scooter", "is_disabled": 0, "rental_uris": {"ios": "https://dc.lft.to/lastmile_qr_scan", "android": "https://dc.lft.to/lastmile_qr_scan"}, "is_reserved": 0, "fusion_lat": 0.0, "name": "358e2e006644a5f9ecbb5ba6fe878c80", "lat": 38.91912716666667}, {"fusion_lon": 0.0, "bike_id": "66b5ac927ace4fb14374669eca023096", "lon": -77.0389555, "type": "electric_scooter", "is_disabled": 0, "rental_uris": {"ios": "https://dc.lft.to/lastmile_qr_scan", "android": "https://dc.lft.to/lastmile_qr_scan"}, "is_reserved": 0, "fusion_lat": 0.0, "name": "66b5ac927ace4fb14374669eca023096", "lat": 38.90638283333333}, {"fusion_lon": 0.0, "bike_id": "678be17f5fc5b4146111c5c48e766d88", "lon": -77.03490116666667, "type": "electric_scooter", "is_disabled": 0, "rental_uris": {"ios": "https://dc.lft.to/lastmile_qr_scan", "android": "https://dc.lft.to/lastmile_qr_scan"}, "is_reserved": 0, "fusion_lat": 0.0, "name": "678be17f5fc5b4146111c5c48e766d88", "lat": 38.908216}, {"fusion_lon": 0.0, "bike_id": "fca0c40f0d35d0517d4298bfc4490992", "lon": -76.92593183333334, "type": "electric_scooter", "is_disabled": 0, "rental_uris": {"ios": "https://dc.lft.to/lastmile_qr_scan", "android": "https://dc.lft.to/lastmile_qr_scan"}, "is_reserved": 0, "fusion_lat": 0.0, "name": "fca0c40f0d35d0517d4298bfc4490992", "lat": 38.8863715}, {"fusion_lon": 0.0, "bike_id": "23c8b37d9060fd98e88d88830f0688c3", "lon": -76.9626185, "type": "electric_scooter", "is_disabled": 0, "rental_uris": {"ios": "https://dc.lft.to/lastmile_qr_scan", "android": "https://dc.lft.to/lastmile_qr_scan"}, "is_reserved": 0, "fusion_lat": 0.0, "name": "23c8b37d9060fd98e88d88830f0688c3", "lat": 38.878648166666665}, {"fusion_lon": 0.0, "bike_id": "88723c0e27daf362f1bb8259407e256d", "lon": -77.0341625, "type": "electric_scooter", "is_disabled": 0, "rental_uris": {"ios": "https://dc.lft.to/lastmile_qr_scan", "android": "https://dc.lft.to/lastmile_qr_scan"}, "is_reserved": 0, "fusion_lat": 0.0, "name": "88723c0e27daf362f1bb8259407e256d", "lat": 38.90251466666667}, {"fusion_lon": 0.0, "bike_id": "1ed97c6e7366d17c7a9a6a36b9a00d99", "lon": -77.024544, "type": "electric_scooter", "is_disabled": 0, "rental_uris": {"ios": "https://dc.lft.to/lastmile_qr_scan", "android": "https://dc.lft.to/lastmile_qr_scan"}, "is_reserved": 0, "fusion_lat": 0.0, "name": "1ed97c6e7366d17c7a9a6a36b9a00d99", "lat": 38.930963}, {"fusion_lon": 0.0, "bike_id": "a551dc8d0d0172f2b6cc77515f2b41ed", "lon": -77.00704433333334, "type": "electric_scooter", "is_disabled": 0, "rental_uris": {"ios": "https://dc.lft.to/lastmile_qr_scan", "android": "https://dc.lft.to/lastmile_qr_scan"}, "is_reserved": 0, "fusion_lat": 0.0, "name": "a551dc8d0d0172f2b6cc77515f2b41ed", "lat": 38.915501666666664}, {"fusion_lon": 0.0, "bike_id": "9070d2e612281d1c0582bab5731a83a4", "lon": -77.02971766666667, "type": "electric_scooter", "is_disabled": 0, "rental_uris": {"ios": "https://dc.lft.to/lastmile_qr_scan", "android": "https://dc.lft.to/lastmile_qr_scan"}, "is_reserved": 0, "fusion_lat": 0.0, "name": "9070d2e612281d1c0582bab5731a83a4", "lat": 38.900222666666664}, {"fusion_lon": 0.0, "bike_id": "6017d2d28ce853d959da46eae866196b", "lon": -77.00673883333333, "type": "electric_scooter", "is_disabled": 0, "rental_uris": {"ios": "https://dc.lft.to/lastmile_qr_scan", "android": "https://dc.lft.to/lastmile_qr_scan"}, "is_reserved": 0, "fusion_lat": 0.0, "name": "6017d2d28ce853d959da46eae866196b", "lat": 38.900795}, {"fusion_lon": 0.0, "bike_id": "1c776782fbba4a22e9fb56f5ebcab354", "lon": -77.04059616666666, "type": "electric_scooter", "is_disabled": 0, "rental_uris": {"ios": "https://dc.lft.to/lastmile_qr_scan", "android": "https://dc.lft.to/lastmile_qr_scan"}, "is_reserved": 0, "fusion_lat": 0.0, "name": "1c776782fbba4a22e9fb56f5ebcab354", "lat": 38.92794283333333}, {"fusion_lon": 0.0, "bike_id": "c7f7ac9fc5f2f9f26f3694ce105fdeb2", "lon": -77.01508416666667, "type": "electric_scooter", "is_disabled": 0, "rental_uris": {"ios": "https://dc.lft.to/lastmile_qr_scan", "android": "https://dc.lft.to/lastmile_qr_scan"}, "is_reserved": 0, "fusion_lat": 0.0, "name": "c7f7ac9fc5f2f9f26f3694ce105fdeb2", "lat": 38.91767516666667}, {"fusion_lon": 0.0, "bike_id": "5c4602d9427412a7cb57eff812478571", "lon": -77.04858583333333, "type": "electric_scooter", "is_disabled": 0, "rental_uris": {"ios": "https://dc.lft.to/lastmile_qr_scan", "android": "https://dc.lft.to/lastmile_qr_scan"}, "is_reserved": 0, "fusion_lat": 0.0, "name": "5c4602d9427412a7cb57eff812478571", "lat": 38.90055816666667}, {"fusion_lon": 0.0, "bike_id": "1edf624e2e21afe8b07d8cbee331a530", "lon": -77.04266583333333, "type": "electric_scooter", "is_disabled": 0, "rental_uris": {"ios": "https://dc.lft.to/lastmile_qr_scan", "android": "https://dc.lft.to/lastmile_qr_scan"}, "is_reserved": 0, "fusion_lat": 0.0, "name": "1edf624e2e21afe8b07d8cbee331a530", "lat": 38.91047666666667}, {"fusion_lon": 0.0, "bike_id": "26995c4c109753dddb0d3e1652c6b24b", "lon": -77.026315, "type": "electric_scooter", "is_disabled": 0, "rental_uris": {"ios": "https://dc.lft.to/lastmile_qr_scan", "android": "https://dc.lft.to/lastmile_qr_scan"}, "is_reserved": 0, "fusion_lat": 0.0, "name": "26995c4c109753dddb0d3e1652c6b24b", "lat": 38.89356266666667}, {"fusion_lon": 0.0, "bike_id": "676eab35e342666ef77dd8d09b24658d", "lon": -77.00755933333333, "type": "electric_scooter", "is_disabled": 0, "rental_uris": {"ios": "https://dc.lft.to/lastmile_qr_scan", "android": "https://dc.lft.to/lastmile_qr_scan"}, "is_reserved": 0, "fusion_lat": 0.0, "name": "676eab35e342666ef77dd8d09b24658d", "lat": 38.8711435}, {"fusion_lon": 0.0, "bike_id": "4a06bc210cf73f72c7c5af97cf2b9f7f", "lon": -77.04376066666667, "type": "electric_scooter", "is_disabled": 0, "rental_uris": {"ios": "https://dc.lft.to/lastmile_qr_scan", "android": "https://dc.lft.to/lastmile_qr_scan"}, "is_reserved": 0, "fusion_lat": 0.0, "name": "4a06bc210cf73f72c7c5af97cf2b9f7f", "lat": 38.91116666666667}, {"fusion_lon": 0.0, "bike_id": "0c6106a025cc5348ee7d88f36f742d2a", "lon": -76.97850983333333, "type": "electric_scooter", "is_disabled": 0, "rental_uris": {"ios": "https://dc.lft.to/lastmile_qr_scan", "android": "https://dc.lft.to/lastmile_qr_scan"}, "is_reserved": 0, "fusion_lat": 0.0, "name": "0c6106a025cc5348ee7d88f36f742d2a", "lat": 38.869611}, {"fusion_lon": 0.0, "bike_id": "535684551e0e72057e84341b74255f5d", "lon": -77.041852, "type": "electric_scooter", "is_disabled": 0, "rental_uris": {"ios": "https://dc.lft.to/lastmile_qr_scan", "android": "https://dc.lft.to/lastmile_qr_scan"}, "is_reserved": 0, "fusion_lat": 0.0, "name": "535684551e0e72057e84341b74255f5d", "lat": 38.92301966666667}, {"fusion_lon": 0.0, "bike_id": "0fd53d1c4c175c8da0c76ca6229262e2", "lon": -76.98094266666666, "type": "electric_bike", "is_disabled": 0, "rental_uris": {"ios": "https://dc.lft.to/lastmile_qr_scan", "android": "https://dc.lft.to/lastmile_qr_scan"}, "is_reserved": 0, "fusion_lat": 0.0, "name": "0fd53d1c4c175c8da0c76ca6229262e2", "lat": 38.9536045}, {"fusion_lon": 0.0, "bike_id": "0031b361b8cff3ccd15deb892e6e481c", "lon": -77.05005433333334, "type": "electric_scooter", "is_disabled": 0, "rental_uris": {"ios": "https://dc.lft.to/lastmile_qr_scan", "android": "https://dc.lft.to/lastmile_qr_scan"}, "is_reserved": 0, "fusion_lat": 0.0, "name": "0031b361b8cff3ccd15deb892e6e481c", "lat": 38.898851}, {"fusion_lon": 0.0, "bike_id": "c0064f072cb662aec970122c115d2733", "lon": -77.04156266666666, "type": "electric_scooter", "is_disabled": 0, "rental_uris": {"ios": "https://dc.lft.to/lastmile_qr_scan", "android": "https://dc.lft.to/lastmile_qr_scan"}, "is_reserved": 0, "fusion_lat": 0.0, "name": "c0064f072cb662aec970122c115d2733", "lat": 38.91492266666667}, {"fusion_lon": 0.0, "bike_id": "c862c5a54cb66e4e03ced8eba3712e79", "lon": -77.01360683333333, "type": "electric_scooter", "is_disabled": 0, "rental_uris": {"ios": "https://dc.lft.to/lastmile_qr_scan", "android": "https://dc.lft.to/lastmile_qr_scan"}, "is_reserved": 0, "fusion_lat": 0.0, "name": "c862c5a54cb66e4e03ced8eba3712e79", "lat": 38.872687666666664}, {"fusion_lon": 0.0, "bike_id": "b3197082a209e126a293fb2923a92fb6", "lon": -77.0278445, "type": "electric_scooter", "is_disabled": 0, "rental_uris": {"ios": "https://dc.lft.to/lastmile_qr_scan", "android": "https://dc.lft.to/lastmile_qr_scan"}, "is_reserved": 0, "fusion_lat": 0.0, "name": "b3197082a209e126a293fb2923a92fb6", "lat": 38.927747833333335}, {"fusion_lon": 0.0, "bike_id": "610fd481a1ab27f66861d13c9ffa3890", "lon": -77.03854766666667, "type": "electric_scooter", "is_disabled": 0, "rental_uris": {"ios": "https://dc.lft.to/lastmile_qr_scan", "android": "https://dc.lft.to/lastmile_qr_scan"}, "is_reserved": 0, "fusion_lat": 0.0, "name": "610fd481a1ab27f66861d13c9ffa3890", "lat": 38.91956583333333}, {"fusion_lon": 0.0, "bike_id": "bfba5816f228d010fa4c7d78ad78ed32", "lon": -76.97425183333333, "type": "electric_bike", "is_disabled": 0, "rental_uris": {"ios": "https://dc.lft.to/lastmile_qr_scan", "android": "https://dc.lft.to/lastmile_qr_scan"}, "is_reserved": 0, "fusion_lat": 0.0, "name": "bfba5816f228d010fa4c7d78ad78ed32", "lat": 38.932392166666666}, {"fusion_lon": 0.0, "bike_id": "1965e2b7122bee72f9874603e9383dab", "lon": -77.0197285, "type": "electric_scooter", "is_disabled": 0, "rental_uris": {"ios": "https://dc.lft.to/lastmile_qr_scan", "android": "https://dc.lft.to/lastmile_qr_scan"}, "is_reserved": 0, "fusion_lat": 0.0, "name": "1965e2b7122bee72f9874603e9383dab", "lat": 38.9084945}, {"fusion_lon": 0.0, "bike_id": "1286b1265bad68ee8c17439b1b7fa28f", "lon": -77.00225033333334, "type": "electric_scooter", "is_disabled": 0, "rental_uris": {"ios": "https://dc.lft.to/lastmile_qr_scan", "android": "https://dc.lft.to/lastmile_qr_scan"}, "is_reserved": 0, "fusion_lat": 0.0, "name": "1286b1265bad68ee8c17439b1b7fa28f", "lat": 38.900405666666664}, {"fusion_lon": 0.0, "bike_id": "a10342d08389cfe88cff9676cc2aa72f", "lon": -77.00327833333333, "type": "electric_scooter", "is_disabled": 0, "rental_uris": {"ios": "https://dc.lft.to/lastmile_qr_scan", "android": "https://dc.lft.to/lastmile_qr_scan"}, "is_reserved": 0, "fusion_lat": 0.0, "name": "a10342d08389cfe88cff9676cc2aa72f", "lat": 38.8766925}, {"fusion_lon": 0.0, "bike_id": "9081242027d5a8e20b3f0327218936a0", "lon": -77.01663466666666, "type": "electric_scooter", "is_disabled": 0, "rental_uris": {"ios": "https://dc.lft.to/lastmile_qr_scan", "android": "https://dc.lft.to/lastmile_qr_scan"}, "is_reserved": 0, "fusion_lat": 0.0, "name": "9081242027d5a8e20b3f0327218936a0", "lat": 38.91845683333333}, {"fusion_lon": 0.0, "bike_id": "ccb7edcff67646324936c87a8b8a2463", "lon": -77.0144725, "type": "electric_scooter", "is_disabled": 0, "rental_uris": {"ios": "https://dc.lft.to/lastmile_qr_scan", "android": "https://dc.lft.to/lastmile_qr_scan"}, "is_reserved": 0, "fusion_lat": 0.0, "name": "ccb7edcff67646324936c87a8b8a2463", "lat": 38.916002666666664}, {"fusion_lon": 0.0, "bike_id": "fc68470abbb2bf84bf7f48efccce900e", "lon": -77.0244145, "type": "electric_scooter", "is_disabled": 0, "rental_uris": {"ios": "https://dc.lft.to/lastmile_qr_scan", "android": "https://dc.lft.to/lastmile_qr_scan"}, "is_reserved": 0, "fusion_lat": 0.0, "name": "fc68470abbb2bf84bf7f48efccce900e", "lat": 38.9233725}, {"fusion_lon": 0.0, "bike_id": "8fd73043d690d9c1546f2c13390f1315", "lon": -77.03577783333333, "type": "electric_scooter", "is_disabled": 0, "rental_uris": {"ios": "https://dc.lft.to/lastmile_qr_scan", "android": "https://dc.lft.to/lastmile_qr_scan"}, "is_reserved": 0, "fusion_lat": 0.0, "name": "8fd73043d690d9c1546f2c13390f1315", "lat": 38.917646}, {"fusion_lon": 0.0, "bike_id": "3c288d6ed6fc685fc0e9dd3b1b98be12", "lon": -77.035513, "type": "electric_scooter", "is_disabled": 0, "rental_uris": {"ios": "https://dc.lft.to/lastmile_qr_scan", "android": "https://dc.lft.to/lastmile_qr_scan"}, "is_reserved": 0, "fusion_lat": 0.0, "name": "3c288d6ed6fc685fc0e9dd3b1b98be12", "lat": 38.91838933333333}, {"fusion_lon": 0.0, "bike_id": "0420b8facd68d63dead18a082b9ffa34", "lon": -77.03162683333333, "type": "electric_scooter", "is_disabled": 0, "rental_uris": {"ios": "https://dc.lft.to/lastmile_qr_scan", "android": "https://dc.lft.to/lastmile_qr_scan"}, "is_reserved": 0, "fusion_lat": 0.0, "name": "0420b8facd68d63dead18a082b9ffa34", "lat": 38.89963816666667}, {"fusion_lon": 0.0, "bike_id": "8324c2a96cc3f78f96f379e052b6e79e", "lon": -76.9575435, "type": "electric_bike", "is_disabled": 0, "rental_uris": {"ios": "https://dc.lft.to/lastmile_qr_scan", "android": "https://dc.lft.to/lastmile_qr_scan"}, "is_reserved": 0, "fusion_lat": 0.0, "name": "8324c2a96cc3f78f96f379e052b6e79e", "lat": 38.888392333333336}, {"fusion_lon": 0.0, "bike_id": "4d44cb0658f27076412ac3dfcc7cda41", "lon": -77.03093133333333, "type": "electric_scooter", "is_disabled": 0, "rental_uris": {"ios": "https://dc.lft.to/lastmile_qr_scan", "android": "https://dc.lft.to/lastmile_qr_scan"}, "is_reserved": 0, "fusion_lat": 0.0, "name": "4d44cb0658f27076412ac3dfcc7cda41", "lat": 38.910604666666664}, {"fusion_lon": 0.0, "bike_id": "cdbaa8e101d44636fcb7279140f58af2", "lon": -76.97983866666667, "type": "electric_scooter", "is_disabled": 0, "rental_uris": {"ios": "https://dc.lft.to/lastmile_qr_scan", "android": "https://dc.lft.to/lastmile_qr_scan"}, "is_reserved": 0, "fusion_lat": 0.0, "name": "cdbaa8e101d44636fcb7279140f58af2", "lat": 38.90731483333333}, {"fusion_lon": 0.0, "bike_id": "b33354c92df2881b532ef9bbee218444", "lon": -76.99320916666667, "type": "electric_bike", "is_disabled": 0, "rental_uris": {"ios": "https://dc.lft.to/lastmile_qr_scan", "android": "https://dc.lft.to/lastmile_qr_scan"}, "is_reserved": 0, "fusion_lat": 0.0, "name": "b33354c92df2881b532ef9bbee218444", "lat": 38.93849633333333}, {"fusion_lon": 0.0, "bike_id": "8803f41aa46bf4e2d122acb2f1b3a650", "lon": -77.05005083333333, "type": "electric_scooter", "is_disabled": 0, "rental_uris": {"ios": "https://dc.lft.to/lastmile_qr_scan", "android": "https://dc.lft.to/lastmile_qr_scan"}, "is_reserved": 0, "fusion_lat": 0.0, "name": "8803f41aa46bf4e2d122acb2f1b3a650", "lat": 38.89229366666667}, {"fusion_lon": 0.0, "bike_id": "179e68a23ea86e6dddbb8e8ab82a0628", "lon": -77.03564383333334, "type": "electric_scooter", "is_disabled": 0, "rental_uris": {"ios": "https://dc.lft.to/lastmile_qr_scan", "android": "https://dc.lft.to/lastmile_qr_scan"}, "is_reserved": 0, "fusion_lat": 0.0, "name": "179e68a23ea86e6dddbb8e8ab82a0628", "lat": 38.90273116666667}, {"fusion_lon": 0.0, "bike_id": "767d83efd4a190efc494f1c2388f3aa2", "lon": -77.03547216666666, "type": "electric_scooter", "is_disabled": 0, "rental_uris": {"ios": "https://dc.lft.to/lastmile_qr_scan", "android": "https://dc.lft.to/lastmile_qr_scan"}, "is_reserved": 0, "fusion_lat": 0.0, "name": "767d83efd4a190efc494f1c2388f3aa2", "lat": 38.93295233333333}, {"fusion_lon": 0.0, "bike_id": "10430c55daf2dd397613feab095c5520", "lon": -77.0121495, "type": "electric_bike", "is_disabled": 0, "rental_uris": {"ios": "https://dc.lft.to/lastmile_qr_scan", "android": "https://dc.lft.to/lastmile_qr_scan"}, "is_reserved": 0, "fusion_lat": 0.0, "name": "10430c55daf2dd397613feab095c5520", "lat": 38.92122766666667}, {"fusion_lon": 0.0, "bike_id": "fd04391ca064e09e5443554f581504ac", "lon": -77.02196116666667, "type": "electric_scooter", "is_disabled": 0, "rental_uris": {"ios": "https://dc.lft.to/lastmile_qr_scan", "android": "https://dc.lft.to/lastmile_qr_scan"}, "is_reserved": 0, "fusion_lat": 0.0, "name": "fd04391ca064e09e5443554f581504ac", "lat": 38.9210565}, {"fusion_lon": 0.0, "bike_id": "4a737a26d1ea359e653e23b91cf8271d", "lon": -77.02374766666667, "type": "electric_scooter", "is_disabled": 0, "rental_uris": {"ios": "https://dc.lft.to/lastmile_qr_scan", "android": "https://dc.lft.to/lastmile_qr_scan"}, "is_reserved": 0, "fusion_lat": 0.0, "name": "4a737a26d1ea359e653e23b91cf8271d", "lat": 38.902089}, {"fusion_lon": 0.0, "bike_id": "5390687db040b5d628d480a0215f8ddb", "lon": -77.06471783333333, "type": "electric_scooter", "is_disabled": 0, "rental_uris": {"ios": "https://dc.lft.to/lastmile_qr_scan", "android": "https://dc.lft.to/lastmile_qr_scan"}, "is_reserved": 0, "fusion_lat": 0.0, "name": "5390687db040b5d628d480a0215f8ddb", "lat": 38.90522}, {"fusion_lon": 0.0, "bike_id": "1ea30002a5866510163b10bf76c52faf", "lon": -76.93621383333333, "type": "electric_bike", "is_disabled": 0, "rental_uris": {"ios": "https://dc.lft.to/lastmile_qr_scan", "android": "https://dc.lft.to/lastmile_qr_scan"}, "is_reserved": 0, "fusion_lat": 0.0, "name": "1ea30002a5866510163b10bf76c52faf", "lat": 38.9704875}, {"fusion_lon": 0.0, "bike_id": "7d4ae91f811604a4fbc0108999b047c2", "lon": -77.02693983333333, "type": "electric_scooter", "is_disabled": 0, "rental_uris": {"ios": "https://dc.lft.to/lastmile_qr_scan", "android": "https://dc.lft.to/lastmile_qr_scan"}, "is_reserved": 0, "fusion_lat": 0.0, "name": "7d4ae91f811604a4fbc0108999b047c2", "lat": 38.90851283333333}, {"fusion_lon": 0.0, "bike_id": "b3dc1ba7f569b07a1167db487173f0d3", "lon": -77.04489316666667, "type": "electric_scooter", "is_disabled": 0, "rental_uris": {"ios": "https://dc.lft.to/lastmile_qr_scan", "android": "https://dc.lft.to/lastmile_qr_scan"}, "is_reserved": 0, "fusion_lat": 0.0, "name": "b3dc1ba7f569b07a1167db487173f0d3", "lat": 38.910954}, {"fusion_lon": 0.0, "bike_id": "bf38284f033a85bf1c90a9e3bca4a8ba", "lon": -77.00216883333333, "type": "electric_scooter", "is_disabled": 0, "rental_uris": {"ios": "https://dc.lft.to/lastmile_qr_scan", "android": "https://dc.lft.to/lastmile_qr_scan"}, "is_reserved": 0, "fusion_lat": 0.0, "name": "bf38284f033a85bf1c90a9e3bca4a8ba", "lat": 38.9087045}, {"fusion_lon": 0.0, "bike_id": "009684e92570b48fef61775235df0200", "lon": -77.04792716666667, "type": "electric_scooter", "is_disabled": 0, "rental_uris": {"ios": "https://dc.lft.to/lastmile_qr_scan", "android": "https://dc.lft.to/lastmile_qr_scan"}, "is_reserved": 0, "fusion_lat": 0.0, "name": "009684e92570b48fef61775235df0200", "lat": 38.89768383333333}, {"fusion_lon": 0.0, "bike_id": "3c2ea67f56b6ec4006ed80f2ae4f717f", "lon": -77.031749, "type": "electric_scooter", "is_disabled": 0, "rental_uris": {"ios": "https://dc.lft.to/lastmile_qr_scan", "android": "https://dc.lft.to/lastmile_qr_scan"}, "is_reserved": 0, "fusion_lat": 0.0, "name": "3c2ea67f56b6ec4006ed80f2ae4f717f", "lat": 38.919214833333335}, {"fusion_lon": 0.0, "bike_id": "e4c22049b4a67bbb83eb5f4632d2318f", "lon": -77.03862066666667, "type": "electric_scooter", "is_disabled": 0, "rental_uris": {"ios": "https://dc.lft.to/lastmile_qr_scan", "android": "https://dc.lft.to/lastmile_qr_scan"}, "is_reserved": 0, "fusion_lat": 0.0, "name": "e4c22049b4a67bbb83eb5f4632d2318f", "lat": 38.906467666666664}, {"fusion_lon": 0.0, "bike_id": "97d3348b1c9ae10fa5ee4b9cb037e681", "lon": -76.93382833333334, "type": "electric_scooter", "is_disabled": 0, "rental_uris": {"ios": "https://dc.lft.to/lastmile_qr_scan", "android": "https://dc.lft.to/lastmile_qr_scan"}, "is_reserved": 0, "fusion_lat": 0.0, "name": "97d3348b1c9ae10fa5ee4b9cb037e681", "lat": 38.89920733333334}, {"fusion_lon": 0.0, "bike_id": "887a47d149ab818aa1a8d1c8aa855fb0", "lon": -76.9892605, "type": "electric_scooter", "is_disabled": 0, "rental_uris": {"ios": "https://dc.lft.to/lastmile_qr_scan", "android": "https://dc.lft.to/lastmile_qr_scan"}, "is_reserved": 0, "fusion_lat": 0.0, "name": "887a47d149ab818aa1a8d1c8aa855fb0", "lat": 38.9382265}, {"fusion_lon": 0.0, "bike_id": "a3f87f9c042ff822577542f52966640e", "lon": -77.0165085, "type": "electric_scooter", "is_disabled": 0, "rental_uris": {"ios": "https://dc.lft.to/lastmile_qr_scan", "android": "https://dc.lft.to/lastmile_qr_scan"}, "is_reserved": 0, "fusion_lat": 0.0, "name": "a3f87f9c042ff822577542f52966640e", "lat": 38.913927666666666}, {"fusion_lon": 0.0, "bike_id": "ef29eeff23d7a73895fa5cfe9cdede7a", "lon": -77.02506783333334, "type": "electric_scooter", "is_disabled": 0, "rental_uris": {"ios": "https://dc.lft.to/lastmile_qr_scan", "android": "https://dc.lft.to/lastmile_qr_scan"}, "is_reserved": 0, "fusion_lat": 0.0, "name": "ef29eeff23d7a73895fa5cfe9cdede7a", "lat": 38.9192565}, {"fusion_lon": 0.0, "bike_id": "ff64fc9b609e3f73914a8e0ed937d2bf", "lon": -77.099498, "type": "electric_bike", "is_disabled": 0, "rental_uris": {"ios": "https://dc.lft.to/lastmile_qr_scan", "android": "https://dc.lft.to/lastmile_qr_scan"}, "is_reserved": 0, "fusion_lat": 0.0, "name": "ff64fc9b609e3f73914a8e0ed937d2bf", "lat": 39.014850333333335}, {"fusion_lon": 0.0, "bike_id": "ee0da35c60b435ae1cda278537e657ab", "lon": -77.02204366666666, "type": "electric_scooter", "is_disabled": 0, "rental_uris": {"ios": "https://dc.lft.to/lastmile_qr_scan", "android": "https://dc.lft.to/lastmile_qr_scan"}, "is_reserved": 0, "fusion_lat": 0.0, "name": "ee0da35c60b435ae1cda278537e657ab", "lat": 38.915358166666664}, {"fusion_lon": 0.0, "bike_id": "35f5358c8703fba3f92d8d83e5e6bd42", "lon": -77.04144333333333, "type": "electric_scooter", "is_disabled": 0, "rental_uris": {"ios": "https://dc.lft.to/lastmile_qr_scan", "android": "https://dc.lft.to/lastmile_qr_scan"}, "is_reserved": 0, "fusion_lat": 0.0, "name": "35f5358c8703fba3f92d8d83e5e6bd42", "lat": 38.921350833333335}, {"fusion_lon": 0.0, "bike_id": "15328fad538beab77664ab82490dda93", "lon": -76.99730083333333, "type": "electric_scooter", "is_disabled": 0, "rental_uris": {"ios": "https://dc.lft.to/lastmile_qr_scan", "android": "https://dc.lft.to/lastmile_qr_scan"}, "is_reserved": 0, "fusion_lat": 0.0, "name": "15328fad538beab77664ab82490dda93", "lat": 38.91019683333333}, {"fusion_lon": 0.0, "bike_id": "c6bdd033f0e4d8ea92b8bf9939d95bfe", "lon": -77.00548566666667, "type": "electric_scooter", "is_disabled": 0, "rental_uris": {"ios": "https://dc.lft.to/lastmile_qr_scan", "android": "https://dc.lft.to/lastmile_qr_scan"}, "is_reserved": 0, "fusion_lat": 0.0, "name": "c6bdd033f0e4d8ea92b8bf9939d95bfe", "lat": 38.879347}, {"fusion_lon": 0.0, "bike_id": "aa326aa77ca97060c3255dc0015582e0", "lon": -77.046916, "type": "electric_scooter", "is_disabled": 0, "rental_uris": {"ios": "https://dc.lft.to/lastmile_qr_scan", "android": "https://dc.lft.to/lastmile_qr_scan"}, "is_reserved": 0, "fusion_lat": 0.0, "name": "aa326aa77ca97060c3255dc0015582e0", "lat": 38.92107133333333}, {"fusion_lon": 0.0, "bike_id": "e4feaee17ef0c1fdc2957211fd865b06", "lon": -77.039933, "type": "electric_scooter", "is_disabled": 0, "rental_uris": {"ios": "https://dc.lft.to/lastmile_qr_scan", "android": "https://dc.lft.to/lastmile_qr_scan"}, "is_reserved": 0, "fusion_lat": 0.0, "name": "e4feaee17ef0c1fdc2957211fd865b06", "lat": 38.909675666666665}, {"fusion_lon": 0.0, "bike_id": "3293dbf2d4b3d3f882d3d9a872049657", "lon": -77.02386766666666, "type": "electric_scooter", "is_disabled": 0, "rental_uris": {"ios": "https://dc.lft.to/lastmile_qr_scan", "android": "https://dc.lft.to/lastmile_qr_scan"}, "is_reserved": 0, "fusion_lat": 0.0, "name": "3293dbf2d4b3d3f882d3d9a872049657", "lat": 38.9086735}, {"fusion_lon": 0.0, "bike_id": "88bc20dde08fb2566a789627bcd10281", "lon": -76.991302, "type": "electric_scooter", "is_disabled": 0, "rental_uris": {"ios": "https://dc.lft.to/lastmile_qr_scan", "android": "https://dc.lft.to/lastmile_qr_scan"}, "is_reserved": 0, "fusion_lat": 0.0, "name": "88bc20dde08fb2566a789627bcd10281", "lat": 38.90891366666666}, {"fusion_lon": 0.0, "bike_id": "1be9bfba71f448f7d3844605d6938e4f", "lon": -77.03863683333333, "type": "electric_scooter", "is_disabled": 0, "rental_uris": {"ios": "https://dc.lft.to/lastmile_qr_scan", "android": "https://dc.lft.to/lastmile_qr_scan"}, "is_reserved": 0, "fusion_lat": 0.0, "name": "1be9bfba71f448f7d3844605d6938e4f", "lat": 38.917063666666664}, {"fusion_lon": 0.0, "bike_id": "22873143314b2fa45cc11e8cfcf73ab2", "lon": -77.00803916666666, "type": "electric_scooter", "is_disabled": 0, "rental_uris": {"ios": "https://dc.lft.to/lastmile_qr_scan", "android": "https://dc.lft.to/lastmile_qr_scan"}, "is_reserved": 0, "fusion_lat": 0.0, "name": "22873143314b2fa45cc11e8cfcf73ab2", "lat": 38.87920033333333}, {"fusion_lon": 0.0, "bike_id": "dd1a393699d4c356958bb0184a9bcc74", "lon": -77.06360133333334, "type": "electric_scooter", "is_disabled": 0, "rental_uris": {"ios": "https://dc.lft.to/lastmile_qr_scan", "android": "https://dc.lft.to/lastmile_qr_scan"}, "is_reserved": 0, "fusion_lat": 0.0, "name": "dd1a393699d4c356958bb0184a9bcc74", "lat": 38.944503}, {"fusion_lon": 0.0, "bike_id": "07d1fa91d9a5a357f85d168b93bb26e5", "lon": -76.97801366666667, "type": "electric_scooter", "is_disabled": 0, "rental_uris": {"ios": "https://dc.lft.to/lastmile_qr_scan", "android": "https://dc.lft.to/lastmile_qr_scan"}, "is_reserved": 0, "fusion_lat": 0.0, "name": "07d1fa91d9a5a357f85d168b93bb26e5", "lat": 38.90310783333334}, {"fusion_lon": 0.0, "bike_id": "d869f099ce3cfe0756a7975f881f8d37", "lon": -77.022264, "type": "electric_scooter", "is_disabled": 0, "rental_uris": {"ios": "https://dc.lft.to/lastmile_qr_scan", "android": "https://dc.lft.to/lastmile_qr_scan"}, "is_reserved": 0, "fusion_lat": 0.0, "name": "d869f099ce3cfe0756a7975f881f8d37", "lat": 38.916747666666666}, {"fusion_lon": 0.0, "bike_id": "ce826df9b42f7ab155cb8f61ea7f66b4", "lon": -77.02511916666667, "type": "electric_scooter", "is_disabled": 0, "rental_uris": {"ios": "https://dc.lft.to/lastmile_qr_scan", "android": "https://dc.lft.to/lastmile_qr_scan"}, "is_reserved": 0, "fusion_lat": 0.0, "name": "ce826df9b42f7ab155cb8f61ea7f66b4", "lat": 38.904321833333334}, {"fusion_lon": 0.0, "bike_id": "77ccd59591aaa41e596f060b91abc18b", "lon": -77.011309, "type": "electric_scooter", "is_disabled": 0, "rental_uris": {"ios": "https://dc.lft.to/lastmile_qr_scan", "android": "https://dc.lft.to/lastmile_qr_scan"}, "is_reserved": 0, "fusion_lat": 0.0, "name": "77ccd59591aaa41e596f060b91abc18b", "lat": 38.89546133333333}, {"fusion_lon": 0.0, "bike_id": "397e6121b5dff24c6b31f2a5f6d4427e", "lon": -77.02239016666667, "type": "electric_scooter", "is_disabled": 0, "rental_uris": {"ios": "https://dc.lft.to/lastmile_qr_scan", "android": "https://dc.lft.to/lastmile_qr_scan"}, "is_reserved": 0, "fusion_lat": 0.0, "name": "397e6121b5dff24c6b31f2a5f6d4427e", "lat": 38.91418066666667}, {"fusion_lon": 0.0, "bike_id": "f245e6596dab55e79849af0b71bd7774", "lon": -77.03856116666667, "type": "electric_scooter", "is_disabled": 0, "rental_uris": {"ios": "https://dc.lft.to/lastmile_qr_scan", "android": "https://dc.lft.to/lastmile_qr_scan"}, "is_reserved": 0, "fusion_lat": 0.0, "name": "f245e6596dab55e79849af0b71bd7774", "lat": 38.9165925}, {"fusion_lon": 0.0, "bike_id": "a44391b7d7e6aaeb40debfe90bbe3d92", "lon": -77.0396975, "type": "electric_scooter", "is_disabled": 0, "rental_uris": {"ios": "https://dc.lft.to/lastmile_qr_scan", "android": "https://dc.lft.to/lastmile_qr_scan"}, "is_reserved": 0, "fusion_lat": 0.0, "name": "a44391b7d7e6aaeb40debfe90bbe3d92", "lat": 38.90623183333334}, {"fusion_lon": 0.0, "bike_id": "44cedcf4b3d8afd9c09c115dde6e78da", "lon": -77.0343395, "type": "electric_scooter", "is_disabled": 0, "rental_uris": {"ios": "https://dc.lft.to/lastmile_qr_scan", "android": "https://dc.lft.to/lastmile_qr_scan"}, "is_reserved": 0, "fusion_lat": 0.0, "name": "44cedcf4b3d8afd9c09c115dde6e78da", "lat": 38.909555}, {"fusion_lon": 0.0, "bike_id": "f1bc96b735b6180f96f14c3aaad1263d", "lon": -77.0243115, "type": "electric_scooter", "is_disabled": 0, "rental_uris": {"ios": "https://dc.lft.to/lastmile_qr_scan", "android": "https://dc.lft.to/lastmile_qr_scan"}, "is_reserved": 0, "fusion_lat": 0.0, "name": "f1bc96b735b6180f96f14c3aaad1263d", "lat": 38.92073766666667}, {"fusion_lon": 0.0, "bike_id": "704a442a9d2f3be599671a6e0376c33a", "lon": -77.04917966666666, "type": "electric_scooter", "is_disabled": 0, "rental_uris": {"ios": "https://dc.lft.to/lastmile_qr_scan", "android": "https://dc.lft.to/lastmile_qr_scan"}, "is_reserved": 0, "fusion_lat": 0.0, "name": "704a442a9d2f3be599671a6e0376c33a", "lat": 38.898385833333336}, {"fusion_lon": 0.0, "bike_id": "5ac775bad314ded9259aaa194b5c7230", "lon": -76.97345883333334, "type": "electric_bike", "is_disabled": 0, "rental_uris": {"ios": "https://dc.lft.to/lastmile_qr_scan", "android": "https://dc.lft.to/lastmile_qr_scan"}, "is_reserved": 0, "fusion_lat": 0.0, "name": "5ac775bad314ded9259aaa194b5c7230", "lat": 38.89722733333333}, {"fusion_lon": 0.0, "bike_id": "80fc0dbf228ace0bfbb4c338b9eab1a2", "lon": -77.00043366666667, "type": "electric_scooter", "is_disabled": 0, "rental_uris": {"ios": "https://dc.lft.to/lastmile_qr_scan", "android": "https://dc.lft.to/lastmile_qr_scan"}, "is_reserved": 0, "fusion_lat": 0.0, "name": "80fc0dbf228ace0bfbb4c338b9eab1a2", "lat": 38.88768666666667}, {"fusion_lon": 0.0, "bike_id": "c52e5d4c87f15a2bf22bfb6d8a304795", "lon": -77.03944033333333, "type": "electric_scooter", "is_disabled": 0, "rental_uris": {"ios": "https://dc.lft.to/lastmile_qr_scan", "android": "https://dc.lft.to/lastmile_qr_scan"}, "is_reserved": 0, "fusion_lat": 0.0, "name": "c52e5d4c87f15a2bf22bfb6d8a304795", "lat": 38.90082}, {"fusion_lon": 0.0, "bike_id": "b45c7c137c8bad42e947edad85ce1a31", "lon": -77.04300716666667, "type": "electric_scooter", "is_disabled": 0, "rental_uris": {"ios": "https://dc.lft.to/lastmile_qr_scan", "android": "https://dc.lft.to/lastmile_qr_scan"}, "is_reserved": 0, "fusion_lat": 0.0, "name": "b45c7c137c8bad42e947edad85ce1a31", "lat": 38.91262616666667}, {"fusion_lon": 0.0, "bike_id": "6130a95b6483cf18f6e139ac16c89331", "lon": -76.99797033333333, "type": "electric_bike", "is_disabled": 0, "rental_uris": {"ios": "https://dc.lft.to/lastmile_qr_scan", "android": "https://dc.lft.to/lastmile_qr_scan"}, "is_reserved": 0, "fusion_lat": 0.0, "name": "6130a95b6483cf18f6e139ac16c89331", "lat": 38.95087016666667}, {"fusion_lon": 0.0, "bike_id": "0a825d5388860c66a4c72bffd462943c", "lon": -77.02509333333333, "type": "electric_scooter", "is_disabled": 0, "rental_uris": {"ios": "https://dc.lft.to/lastmile_qr_scan", "android": "https://dc.lft.to/lastmile_qr_scan"}, "is_reserved": 0, "fusion_lat": 0.0, "name": "0a825d5388860c66a4c72bffd462943c", "lat": 38.91919766666667}, {"fusion_lon": 0.0, "bike_id": "002a9d51258ba413c54992c0256050a2", "lon": -77.05842533333333, "type": "electric_scooter", "is_disabled": 0, "rental_uris": {"ios": "https://dc.lft.to/lastmile_qr_scan", "android": "https://dc.lft.to/lastmile_qr_scan"}, "is_reserved": 0, "fusion_lat": 0.0, "name": "002a9d51258ba413c54992c0256050a2", "lat": 38.930569}, {"fusion_lon": 0.0, "bike_id": "7b3349e1149693a17311e040f0698a3e", "lon": -77.02233, "type": "electric_scooter", "is_disabled": 0, "rental_uris": {"ios": "https://dc.lft.to/lastmile_qr_scan", "android": "https://dc.lft.to/lastmile_qr_scan"}, "is_reserved": 0, "fusion_lat": 0.0, "name": "7b3349e1149693a17311e040f0698a3e", "lat": 38.92451616666666}, {"fusion_lon": 0.0, "bike_id": "efefd2ed2564236a6a06355321e4255f", "lon": -76.96305783333334, "type": "electric_bike", "is_disabled": 0, "rental_uris": {"ios": "https://dc.lft.to/lastmile_qr_scan", "android": "https://dc.lft.to/lastmile_qr_scan"}, "is_reserved": 0, "fusion_lat": 0.0, "name": "efefd2ed2564236a6a06355321e4255f", "lat": 38.93507183333333}, {"fusion_lon": 0.0, "bike_id": "0961a76ef9c7575f8a1e66f736510622", "lon": -77.0174415, "type": "electric_scooter", "is_disabled": 0, "rental_uris": {"ios": "https://dc.lft.to/lastmile_qr_scan", "android": "https://dc.lft.to/lastmile_qr_scan"}, "is_reserved": 0, "fusion_lat": 0.0, "name": "0961a76ef9c7575f8a1e66f736510622", "lat": 38.90112516666667}, {"fusion_lon": 0.0, "bike_id": "0ea669ee48b2b4a21267acca3494e51e", "lon": -77.0068445, "type": "electric_scooter", "is_disabled": 0, "rental_uris": {"ios": "https://dc.lft.to/lastmile_qr_scan", "android": "https://dc.lft.to/lastmile_qr_scan"}, "is_reserved": 0, "fusion_lat": 0.0, "name": "0ea669ee48b2b4a21267acca3494e51e", "lat": 38.87657766666667}, {"fusion_lon": 0.0, "bike_id": "86a86cfafb2d9952a5692b058bd4f967", "lon": -77.0296915, "type": "electric_scooter", "is_disabled": 0, "rental_uris": {"ios": "https://dc.lft.to/lastmile_qr_scan", "android": "https://dc.lft.to/lastmile_qr_scan"}, "is_reserved": 0, "fusion_lat": 0.0, "name": "86a86cfafb2d9952a5692b058bd4f967", "lat": 38.9228725}, {"fusion_lon": 0.0, "bike_id": "93a72834e959a605c8abf3a23075c52f", "lon": -77.04022183333333, "type": "electric_scooter", "is_disabled": 0, "rental_uris": {"ios": "https://dc.lft.to/lastmile_qr_scan", "android": "https://dc.lft.to/lastmile_qr_scan"}, "is_reserved": 0, "fusion_lat": 0.0, "name": "93a72834e959a605c8abf3a23075c52f", "lat": 38.91799366666667}, {"fusion_lon": 0.0, "bike_id": "36305e64a53658a425e5e7762f6ddd68", "lon": -77.02656766666666, "type": "electric_scooter", "is_disabled": 0, "rental_uris": {"ios": "https://dc.lft.to/lastmile_qr_scan", "android": "https://dc.lft.to/lastmile_qr_scan"}, "is_reserved": 0, "fusion_lat": 0.0, "name": "36305e64a53658a425e5e7762f6ddd68", "lat": 38.88105933333333}, {"fusion_lon": 0.0, "bike_id": "d2b2207e570c47af7caead8206de0b4d", "lon": -77.033356, "type": "electric_bike", "is_disabled": 0, "rental_uris": {"ios": "https://dc.lft.to/lastmile_qr_scan", "android": "https://dc.lft.to/lastmile_qr_scan"}, "is_reserved": 0, "fusion_lat": 0.0, "name": "d2b2207e570c47af7caead8206de0b4d", "lat": 38.96131866666666}, {"fusion_lon": 0.0, "bike_id": "eb5cb46e94cd7cdaf103dd900264e6fc", "lon": -77.05559833333334, "type": "electric_scooter", "is_disabled": 0, "rental_uris": {"ios": "https://dc.lft.to/lastmile_qr_scan", "android": "https://dc.lft.to/lastmile_qr_scan"}, "is_reserved": 0, "fusion_lat": 0.0, "name": "eb5cb46e94cd7cdaf103dd900264e6fc", "lat": 38.93034383333333}, {"fusion_lon": 0.0, "bike_id": "9441835303915a7c306b075217f46aa6", "lon": -76.98355866666667, "type": "electric_scooter", "is_disabled": 0, "rental_uris": {"ios": "https://dc.lft.to/lastmile_qr_scan", "android": "https://dc.lft.to/lastmile_qr_scan"}, "is_reserved": 0, "fusion_lat": 0.0, "name": "9441835303915a7c306b075217f46aa6", "lat": 38.914842166666666}, {"fusion_lon": 0.0, "bike_id": "5ffd6227f2694bf9def008bea36dd614", "lon": -77.02240916666666, "type": "electric_scooter", "is_disabled": 0, "rental_uris": {"ios": "https://dc.lft.to/lastmile_qr_scan", "android": "https://dc.lft.to/lastmile_qr_scan"}, "is_reserved": 0, "fusion_lat": 0.0, "name": "5ffd6227f2694bf9def008bea36dd614", "lat": 38.88765266666667}, {"fusion_lon": 0.0, "bike_id": "389693f105fe1eead95feb24de15b06b", "lon": -76.99380916666667, "type": "electric_scooter", "is_disabled": 0, "rental_uris": {"ios": "https://dc.lft.to/lastmile_qr_scan", "android": "https://dc.lft.to/lastmile_qr_scan"}, "is_reserved": 0, "fusion_lat": 0.0, "name": "389693f105fe1eead95feb24de15b06b", "lat": 38.893329}, {"fusion_lon": 0.0, "bike_id": "61fc2da97f64cdac0f64f2c7f1a2e8b6", "lon": -77.049085, "type": "electric_scooter", "is_disabled": 0, "rental_uris": {"ios": "https://dc.lft.to/lastmile_qr_scan", "android": "https://dc.lft.to/lastmile_qr_scan"}, "is_reserved": 0, "fusion_lat": 0.0, "name": "61fc2da97f64cdac0f64f2c7f1a2e8b6", "lat": 38.905800666666664}, {"fusion_lon": 0.0, "bike_id": "2fbff2baf810c30d62a993b2e3e0c23e", "lon": -77.01656866666667, "type": "electric_bike", "is_disabled": 0, "rental_uris": {"ios": "https://dc.lft.to/lastmile_qr_scan", "android": "https://dc.lft.to/lastmile_qr_scan"}, "is_reserved": 0, "fusion_lat": 0.0, "name": "2fbff2baf810c30d62a993b2e3e0c23e", "lat": 38.8811585}, {"fusion_lon": 0.0, "bike_id": "df0297fc26e2e7d6b93ded744d54fa22", "lon": -77.03830866666667, "type": "electric_scooter", "is_disabled": 0, "rental_uris": {"ios": "https://dc.lft.to/lastmile_qr_scan", "android": "https://dc.lft.to/lastmile_qr_scan"}, "is_reserved": 0, "fusion_lat": 0.0, "name": "df0297fc26e2e7d6b93ded744d54fa22", "lat": 38.9077925}, {"fusion_lon": 0.0, "bike_id": "823817ac9b2f08312de297e59d0f7211", "lon": -77.00586733333333, "type": "electric_scooter", "is_disabled": 0, "rental_uris": {"ios": "https://dc.lft.to/lastmile_qr_scan", "android": "https://dc.lft.to/lastmile_qr_scan"}, "is_reserved": 0, "fusion_lat": 0.0, "name": "823817ac9b2f08312de297e59d0f7211", "lat": 38.90564666666667}, {"fusion_lon": 0.0, "bike_id": "0d55dcadf8e0bf194b593fc681606a29", "lon": -77.10609866666667, "type": "electric_bike", "is_disabled": 0, "rental_uris": {"ios": "https://dc.lft.to/lastmile_qr_scan", "android": "https://dc.lft.to/lastmile_qr_scan"}, "is_reserved": 0, "fusion_lat": 0.0, "name": "0d55dcadf8e0bf194b593fc681606a29", "lat": 38.93565816666667}, {"fusion_lon": 0.0, "bike_id": "53068af6a7822ebc368a76cfa0ef5210", "lon": -76.99266916666667, "type": "electric_scooter", "is_disabled": 0, "rental_uris": {"ios": "https://dc.lft.to/lastmile_qr_scan", "android": "https://dc.lft.to/lastmile_qr_scan"}, "is_reserved": 0, "fusion_lat": 0.0, "name": "53068af6a7822ebc368a76cfa0ef5210", "lat": 38.902922833333335}, {"fusion_lon": 0.0, "bike_id": "db1830cceecf7941bbcc500d243d3a61", "lon": -76.9996695, "type": "electric_scooter", "is_disabled": 0, "rental_uris": {"ios": "https://dc.lft.to/lastmile_qr_scan", "android": "https://dc.lft.to/lastmile_qr_scan"}, "is_reserved": 0, "fusion_lat": 0.0, "name": "db1830cceecf7941bbcc500d243d3a61", "lat": 38.909346166666666}, {"fusion_lon": 0.0, "bike_id": "b6c026416a95bf0dd6c6457e402edaea", "lon": -77.059057, "type": "electric_bike", "is_disabled": 0, "rental_uris": {"ios": "https://dc.lft.to/lastmile_qr_scan", "android": "https://dc.lft.to/lastmile_qr_scan"}, "is_reserved": 0, "fusion_lat": 0.0, "name": "b6c026416a95bf0dd6c6457e402edaea", "lat": 38.9008}, {"fusion_lon": 0.0, "bike_id": "e402893b517d2e407c57a643ad393a64", "lon": -77.02199316666666, "type": "electric_scooter", "is_disabled": 0, "rental_uris": {"ios": "https://dc.lft.to/lastmile_qr_scan", "android": "https://dc.lft.to/lastmile_qr_scan"}, "is_reserved": 0, "fusion_lat": 0.0, "name": "e402893b517d2e407c57a643ad393a64", "lat": 38.911298333333335}, {"fusion_lon": 0.0, "bike_id": "8082d9d32c46c7df98bc8bacddd4f4a4", "lon": -77.00643166666667, "type": "electric_scooter", "is_disabled": 0, "rental_uris": {"ios": "https://dc.lft.to/lastmile_qr_scan", "android": "https://dc.lft.to/lastmile_qr_scan"}, "is_reserved": 0, "fusion_lat": 0.0, "name": "8082d9d32c46c7df98bc8bacddd4f4a4", "lat": 38.871817666666665}, {"fusion_lon": 0.0, "bike_id": "30951a3b9fd2f345399560ab4d428a9d", "lon": -77.05481083333333, "type": "electric_scooter", "is_disabled": 0, "rental_uris": {"ios": "https://dc.lft.to/lastmile_qr_scan", "android": "https://dc.lft.to/lastmile_qr_scan"}, "is_reserved": 0, "fusion_lat": 0.0, "name": "30951a3b9fd2f345399560ab4d428a9d", "lat": 38.902935}, {"fusion_lon": 0.0, "bike_id": "5725a693ba8f3ddf7ec162c9326c9645", "lon": -77.072856, "type": "electric_scooter", "is_disabled": 0, "rental_uris": {"ios": "https://dc.lft.to/lastmile_qr_scan", "android": "https://dc.lft.to/lastmile_qr_scan"}, "is_reserved": 0, "fusion_lat": 0.0, "name": "5725a693ba8f3ddf7ec162c9326c9645", "lat": 38.922277}, {"fusion_lon": 0.0, "bike_id": "350c29ac549dd4ed22e52b62d3f91420", "lon": -77.00334583333333, "type": "electric_scooter", "is_disabled": 0, "rental_uris": {"ios": "https://dc.lft.to/lastmile_qr_scan", "android": "https://dc.lft.to/lastmile_qr_scan"}, "is_reserved": 0, "fusion_lat": 0.0, "name": "350c29ac549dd4ed22e52b62d3f91420", "lat": 38.893547833333336}, {"fusion_lon": 0.0, "bike_id": "90cb29e62a911ac43b50d21d97280c59", "lon": -77.022902, "type": "electric_scooter", "is_disabled": 0, "rental_uris": {"ios": "https://dc.lft.to/lastmile_qr_scan", "android": "https://dc.lft.to/lastmile_qr_scan"}, "is_reserved": 0, "fusion_lat": 0.0, "name": "90cb29e62a911ac43b50d21d97280c59", "lat": 38.91452983333333}, {"fusion_lon": 0.0, "bike_id": "ce915aae5a52ebdcf4198cf6b60cff0a", "lon": -76.95228716666666, "type": "electric_scooter", "is_disabled": 0, "rental_uris": {"ios": "https://dc.lft.to/lastmile_qr_scan", "android": "https://dc.lft.to/lastmile_qr_scan"}, "is_reserved": 0, "fusion_lat": 0.0, "name": "ce915aae5a52ebdcf4198cf6b60cff0a", "lat": 38.89344633333333}, {"fusion_lon": 0.0, "bike_id": "ac24e0551878ba83dd7c0f2f58309f5d", "lon": -77.03336433333334, "type": "electric_scooter", "is_disabled": 0, "rental_uris": {"ios": "https://dc.lft.to/lastmile_qr_scan", "android": "https://dc.lft.to/lastmile_qr_scan"}, "is_reserved": 0, "fusion_lat": 0.0, "name": "ac24e0551878ba83dd7c0f2f58309f5d", "lat": 38.972125}, {"fusion_lon": 0.0, "bike_id": "87b69b298326edb2b3657bd00e13618a", "lon": -77.01945916666666, "type": "electric_scooter", "is_disabled": 0, "rental_uris": {"ios": "https://dc.lft.to/lastmile_qr_scan", "android": "https://dc.lft.to/lastmile_qr_scan"}, "is_reserved": 0, "fusion_lat": 0.0, "name": "87b69b298326edb2b3657bd00e13618a", "lat": 38.89903916666667}, {"fusion_lon": 0.0, "bike_id": "5bc8cee0f5c607af2119c03acb01790d", "lon": -77.037891, "type": "electric_scooter", "is_disabled": 0, "rental_uris": {"ios": "https://dc.lft.to/lastmile_qr_scan", "android": "https://dc.lft.to/lastmile_qr_scan"}, "is_reserved": 0, "fusion_lat": 0.0, "name": "5bc8cee0f5c607af2119c03acb01790d", "lat": 38.91817066666667}, {"fusion_lon": 0.0, "bike_id": "af5fc3fcc58d2712ff5a7d01d98a836b", "lon": -77.045019, "type": "electric_scooter", "is_disabled": 0, "rental_uris": {"ios": "https://dc.lft.to/lastmile_qr_scan", "android": "https://dc.lft.to/lastmile_qr_scan"}, "is_reserved": 0, "fusion_lat": 0.0, "name": "af5fc3fcc58d2712ff5a7d01d98a836b", "lat": 38.90860816666667}, {"fusion_lon": 0.0, "bike_id": "f65cd4fe8deaaaa1fbea84d490f80ade", "lon": -77.031719, "type": "electric_scooter", "is_disabled": 0, "rental_uris": {"ios": "https://dc.lft.to/lastmile_qr_scan", "android": "https://dc.lft.to/lastmile_qr_scan"}, "is_reserved": 0, "fusion_lat": 0.0, "name": "f65cd4fe8deaaaa1fbea84d490f80ade", "lat": 38.91269716666667}, {"fusion_lon": 0.0, "bike_id": "dcbcbfa7773f5bfcea079081b90c8ab6", "lon": -77.05880566666667, "type": "electric_scooter", "is_disabled": 0, "rental_uris": {"ios": "https://dc.lft.to/lastmile_qr_scan", "android": "https://dc.lft.to/lastmile_qr_scan"}, "is_reserved": 0, "fusion_lat": 0.0, "name": "dcbcbfa7773f5bfcea079081b90c8ab6", "lat": 38.9363065}, {"fusion_lon": 0.0, "bike_id": "dcb739a12a12e088dfa65d5e978c602b", "lon": -77.03535066666667, "type": "electric_scooter", "is_disabled": 0, "rental_uris": {"ios": "https://dc.lft.to/lastmile_qr_scan", "android": "https://dc.lft.to/lastmile_qr_scan"}, "is_reserved": 0, "fusion_lat": 0.0, "name": "dcb739a12a12e088dfa65d5e978c602b", "lat": 38.907356}, {"fusion_lon": 0.0, "bike_id": "e64f32b3ce3037aa987cab5de0b819b1", "lon": -76.98857066666666, "type": "electric_scooter", "is_disabled": 0, "rental_uris": {"ios": "https://dc.lft.to/lastmile_qr_scan", "android": "https://dc.lft.to/lastmile_qr_scan"}, "is_reserved": 0, "fusion_lat": 0.0, "name": "e64f32b3ce3037aa987cab5de0b819b1", "lat": 38.90698033333334}, {"fusion_lon": 0.0, "bike_id": "efb62760a8308392321eeaa6effeacea", "lon": -77.04134016666667, "type": "electric_scooter", "is_disabled": 0, "rental_uris": {"ios": "https://dc.lft.to/lastmile_qr_scan", "android": "https://dc.lft.to/lastmile_qr_scan"}, "is_reserved": 0, "fusion_lat": 0.0, "name": "efb62760a8308392321eeaa6effeacea", "lat": 38.899633}, {"fusion_lon": 0.0, "bike_id": "d132706f1772a165303a887fc074daca", "lon": -77.02525083333333, "type": "electric_scooter", "is_disabled": 0, "rental_uris": {"ios": "https://dc.lft.to/lastmile_qr_scan", "android": "https://dc.lft.to/lastmile_qr_scan"}, "is_reserved": 0, "fusion_lat": 0.0, "name": "d132706f1772a165303a887fc074daca", "lat": 38.915657}, {"fusion_lon": 0.0, "bike_id": "e8b7554e6fa4dd9d3b90a8a999cd9dcb", "lon": -76.98771166666667, "type": "electric_bike", "is_disabled": 0, "rental_uris": {"ios": "https://dc.lft.to/lastmile_qr_scan", "android": "https://dc.lft.to/lastmile_qr_scan"}, "is_reserved": 0, "fusion_lat": 0.0, "name": "e8b7554e6fa4dd9d3b90a8a999cd9dcb", "lat": 38.857722833333334}, {"fusion_lon": 0.0, "bike_id": "766e276a9404178b75e3d82ec7604a20", "lon": -77.152515, "type": "electric_bike", "is_disabled": 0, "rental_uris": {"ios": "https://dc.lft.to/lastmile_qr_scan", "android": "https://dc.lft.to/lastmile_qr_scan"}, "is_reserved": 0, "fusion_lat": 0.0, "name": "766e276a9404178b75e3d82ec7604a20", "lat": 39.086141}, {"fusion_lon": 0.0, "bike_id": "3f5835d1f157bcc46dfa3cdeb07d50f6", "lon": -77.03285933333333, "type": "electric_scooter", "is_disabled": 0, "rental_uris": {"ios": "https://dc.lft.to/lastmile_qr_scan", "android": "https://dc.lft.to/lastmile_qr_scan"}, "is_reserved": 0, "fusion_lat": 0.0, "name": "3f5835d1f157bcc46dfa3cdeb07d50f6", "lat": 38.937572}, {"fusion_lon": 0.0, "bike_id": "5d4fd27d1fba1c56c73e63cfec94c23a", "lon": -77.02902166666667, "type": "electric_scooter", "is_disabled": 0, "rental_uris": {"ios": "https://dc.lft.to/lastmile_qr_scan", "android": "https://dc.lft.to/lastmile_qr_scan"}, "is_reserved": 0, "fusion_lat": 0.0, "name": "5d4fd27d1fba1c56c73e63cfec94c23a", "lat": 38.916865333333334}, {"fusion_lon": 0.0, "bike_id": "17e68202e41040c9c991955e5b419494", "lon": -77.01818966666667, "type": "electric_scooter", "is_disabled": 0, "rental_uris": {"ios": "https://dc.lft.to/lastmile_qr_scan", "android": "https://dc.lft.to/lastmile_qr_scan"}, "is_reserved": 0, "fusion_lat": 0.0, "name": "17e68202e41040c9c991955e5b419494", "lat": 38.920447833333334}, {"fusion_lon": 0.0, "bike_id": "59bdf3699ea9c01b6fb6188a3cd6bdc8", "lon": -77.0231765, "type": "electric_scooter", "is_disabled": 0, "rental_uris": {"ios": "https://dc.lft.to/lastmile_qr_scan", "android": "https://dc.lft.to/lastmile_qr_scan"}, "is_reserved": 0, "fusion_lat": 0.0, "name": "59bdf3699ea9c01b6fb6188a3cd6bdc8", "lat": 38.87883583333333}, {"fusion_lon": 0.0, "bike_id": "53128323ff5c95808a5d97ea317ca570", "lon": -76.99503166666666, "type": "electric_scooter", "is_disabled": 0, "rental_uris": {"ios": "https://dc.lft.to/lastmile_qr_scan", "android": "https://dc.lft.to/lastmile_qr_scan"}, "is_reserved": 0, "fusion_lat": 0.0, "name": "53128323ff5c95808a5d97ea317ca570", "lat": 38.89971583333333}, {"fusion_lon": 0.0, "bike_id": "ec35387a39feb67c08ea88ac7904aa34", "lon": -77.04093616666667, "type": "electric_scooter", "is_disabled": 0, "rental_uris": {"ios": "https://dc.lft.to/lastmile_qr_scan", "android": "https://dc.lft.to/lastmile_qr_scan"}, "is_reserved": 0, "fusion_lat": 0.0, "name": "ec35387a39feb67c08ea88ac7904aa34", "lat": 38.917124333333334}, {"fusion_lon": 0.0, "bike_id": "93ed8e4b96efa8e9901f5c99db7a0060", "lon": -76.99227533333334, "type": "electric_scooter", "is_disabled": 0, "rental_uris": {"ios": "https://dc.lft.to/lastmile_qr_scan", "android": "https://dc.lft.to/lastmile_qr_scan"}, "is_reserved": 0, "fusion_lat": 0.0, "name": "93ed8e4b96efa8e9901f5c99db7a0060", "lat": 38.862885666666664}, {"fusion_lon": 0.0, "bike_id": "55924d8d968d0578fe1520ce60276622", "lon": -77.0200865, "type": "electric_scooter", "is_disabled": 0, "rental_uris": {"ios": "https://dc.lft.to/lastmile_qr_scan", "android": "https://dc.lft.to/lastmile_qr_scan"}, "is_reserved": 0, "fusion_lat": 0.0, "name": "55924d8d968d0578fe1520ce60276622", "lat": 38.92841033333333}, {"fusion_lon": 0.0, "bike_id": "3411f81af399db43cc0dc3e3a8825c3d", "lon": -77.02713766666666, "type": "electric_scooter", "is_disabled": 0, "rental_uris": {"ios": "https://dc.lft.to/lastmile_qr_scan", "android": "https://dc.lft.to/lastmile_qr_scan"}, "is_reserved": 0, "fusion_lat": 0.0, "name": "3411f81af399db43cc0dc3e3a8825c3d", "lat": 38.899743}, {"fusion_lon": 0.0, "bike_id": "74f8d2ee0e4144bf2ec88730e3924875", "lon": -77.07895166666667, "type": "electric_bike", "is_disabled": 0, "rental_uris": {"ios": "https://dc.lft.to/lastmile_qr_scan", "android": "https://dc.lft.to/lastmile_qr_scan"}, "is_reserved": 0, "fusion_lat": 0.0, "name": "74f8d2ee0e4144bf2ec88730e3924875", "lat": 38.848231}, {"fusion_lon": 0.0, "bike_id": "91e9924af1726ca1aaeaa8a957625645", "lon": -77.01856383333333, "type": "electric_scooter", "is_disabled": 0, "rental_uris": {"ios": "https://dc.lft.to/lastmile_qr_scan", "android": "https://dc.lft.to/lastmile_qr_scan"}, "is_reserved": 0, "fusion_lat": 0.0, "name": "91e9924af1726ca1aaeaa8a957625645", "lat": 38.94885633333333}, {"fusion_lon": 0.0, "bike_id": "a011b8a2686943a3a3974b236c072434", "lon": -76.996134, "type": "electric_scooter", "is_disabled": 0, "rental_uris": {"ios": "https://dc.lft.to/lastmile_qr_scan", "android": "https://dc.lft.to/lastmile_qr_scan"}, "is_reserved": 0, "fusion_lat": 0.0, "name": "a011b8a2686943a3a3974b236c072434", "lat": 38.88259083333333}, {"fusion_lon": 0.0, "bike_id": "be22d918855416cbc90de530cb179ad4", "lon": -77.02972666666666, "type": "electric_scooter", "is_disabled": 0, "rental_uris": {"ios": "https://dc.lft.to/lastmile_qr_scan", "android": "https://dc.lft.to/lastmile_qr_scan"}, "is_reserved": 0, "fusion_lat": 0.0, "name": "be22d918855416cbc90de530cb179ad4", "lat": 38.907876333333334}, {"fusion_lon": 0.0, "bike_id": "e7b730b283a83b47cc8a79dd342354ec", "lon": -77.05037866666666, "type": "electric_scooter", "is_disabled": 0, "rental_uris": {"ios": "https://dc.lft.to/lastmile_qr_scan", "android": "https://dc.lft.to/lastmile_qr_scan"}, "is_reserved": 0, "fusion_lat": 0.0, "name": "e7b730b283a83b47cc8a79dd342354ec", "lat": 38.89824266666667}, {"fusion_lon": 0.0, "bike_id": "6ec393cc3d850bcd6d779fbc898ec1dc", "lon": -77.0385635, "type": "electric_scooter", "is_disabled": 0, "rental_uris": {"ios": "https://dc.lft.to/lastmile_qr_scan", "android": "https://dc.lft.to/lastmile_qr_scan"}, "is_reserved": 0, "fusion_lat": 0.0, "name": "6ec393cc3d850bcd6d779fbc898ec1dc", "lat": 38.90287383333333}, {"fusion_lon": 0.0, "bike_id": "d4923ca62fec844272ab44720dd81240", "lon": -77.01379616666667, "type": "electric_scooter", "is_disabled": 0, "rental_uris": {"ios": "https://dc.lft.to/lastmile_qr_scan", "android": "https://dc.lft.to/lastmile_qr_scan"}, "is_reserved": 0, "fusion_lat": 0.0, "name": "d4923ca62fec844272ab44720dd81240", "lat": 38.899178}, {"fusion_lon": 0.0, "bike_id": "2c1beca96c8b32cdd3611eeb1e14c6b3", "lon": -77.02126066666666, "type": "electric_scooter", "is_disabled": 0, "rental_uris": {"ios": "https://dc.lft.to/lastmile_qr_scan", "android": "https://dc.lft.to/lastmile_qr_scan"}, "is_reserved": 0, "fusion_lat": 0.0, "name": "2c1beca96c8b32cdd3611eeb1e14c6b3", "lat": 38.91025783333333}, {"fusion_lon": 0.0, "bike_id": "bcb1b3adf287c543076fbeb5242e445f", "lon": -77.07797183333334, "type": "electric_bike", "is_disabled": 0, "rental_uris": {"ios": "https://dc.lft.to/lastmile_qr_scan", "android": "https://dc.lft.to/lastmile_qr_scan"}, "is_reserved": 0, "fusion_lat": 0.0, "name": "bcb1b3adf287c543076fbeb5242e445f", "lat": 38.99494516666667}, {"fusion_lon": 0.0, "bike_id": "c890b9a1db82c67dffdde206b8ae1972", "lon": -77.02513983333333, "type": "electric_scooter", "is_disabled": 0, "rental_uris": {"ios": "https://dc.lft.to/lastmile_qr_scan", "android": "https://dc.lft.to/lastmile_qr_scan"}, "is_reserved": 0, "fusion_lat": 0.0, "name": "c890b9a1db82c67dffdde206b8ae1972", "lat": 38.92057883333333}, {"fusion_lon": 0.0, "bike_id": "ffdb850544bc153ee17d69425a45973c", "lon": -77.0058545, "type": "electric_scooter", "is_disabled": 0, "rental_uris": {"ios": "https://dc.lft.to/lastmile_qr_scan", "android": "https://dc.lft.to/lastmile_qr_scan"}, "is_reserved": 0, "fusion_lat": 0.0, "name": "ffdb850544bc153ee17d69425a45973c", "lat": 38.872385666666666}, {"fusion_lon": 0.0, "bike_id": "05c415f4274ae70bbb1377612d344c3d", "lon": -77.03660566666667, "type": "electric_scooter", "is_disabled": 0, "rental_uris": {"ios": "https://dc.lft.to/lastmile_qr_scan", "android": "https://dc.lft.to/lastmile_qr_scan"}, "is_reserved": 0, "fusion_lat": 0.0, "name": "05c415f4274ae70bbb1377612d344c3d", "lat": 38.9228435}, {"fusion_lon": 0.0, "bike_id": "c3e77981f0b63d591fade59dce1c8909", "lon": -77.02555816666667, "type": "electric_scooter", "is_disabled": 0, "rental_uris": {"ios": "https://dc.lft.to/lastmile_qr_scan", "android": "https://dc.lft.to/lastmile_qr_scan"}, "is_reserved": 0, "fusion_lat": 0.0, "name": "c3e77981f0b63d591fade59dce1c8909", "lat": 38.9309505}, {"fusion_lon": 0.0, "bike_id": "9da39c7e3cdc1da3c48549a873dfada6", "lon": -77.03533716666666, "type": "electric_scooter", "is_disabled": 0, "rental_uris": {"ios": "https://dc.lft.to/lastmile_qr_scan", "android": "https://dc.lft.to/lastmile_qr_scan"}, "is_reserved": 0, "fusion_lat": 0.0, "name": "9da39c7e3cdc1da3c48549a873dfada6", "lat": 38.923353166666665}, {"fusion_lon": 0.0, "bike_id": "10e74bc5b66d7709be761ce792e1b9ea", "lon": -77.04351133333333, "type": "electric_scooter", "is_disabled": 0, "rental_uris": {"ios": "https://dc.lft.to/lastmile_qr_scan", "android": "https://dc.lft.to/lastmile_qr_scan"}, "is_reserved": 0, "fusion_lat": 0.0, "name": "10e74bc5b66d7709be761ce792e1b9ea", "lat": 38.921247666666666}, {"fusion_lon": 0.0, "bike_id": "83a85a9f1e8e43aa0c1be8d667dbde3b", "lon": -77.0185445, "type": "electric_scooter", "is_disabled": 0, "rental_uris": {"ios": "https://dc.lft.to/lastmile_qr_scan", "android": "https://dc.lft.to/lastmile_qr_scan"}, "is_reserved": 0, "fusion_lat": 0.0, "name": "83a85a9f1e8e43aa0c1be8d667dbde3b", "lat": 38.95432366666667}, {"fusion_lon": 0.0, "bike_id": "0fd75646563f7eb535112b6704aa230f", "lon": -76.96915233333333, "type": "electric_bike", "is_disabled": 0, "rental_uris": {"ios": "https://dc.lft.to/lastmile_qr_scan", "android": "https://dc.lft.to/lastmile_qr_scan"}, "is_reserved": 0, "fusion_lat": 0.0, "name": "0fd75646563f7eb535112b6704aa230f", "lat": 38.84609533333333}, {"fusion_lon": 0.0, "bike_id": "556822d5c32a4d504584969897f571db", "lon": -77.02653933333333, "type": "electric_scooter", "is_disabled": 0, "rental_uris": {"ios": "https://dc.lft.to/lastmile_qr_scan", "android": "https://dc.lft.to/lastmile_qr_scan"}, "is_reserved": 0, "fusion_lat": 0.0, "name": "556822d5c32a4d504584969897f571db", "lat": 38.941248333333334}, {"fusion_lon": 0.0, "bike_id": "2d225e2cdb90371caf1faf8413779e2d", "lon": -77.04103066666667, "type": "electric_scooter", "is_disabled": 0, "rental_uris": {"ios": "https://dc.lft.to/lastmile_qr_scan", "android": "https://dc.lft.to/lastmile_qr_scan"}, "is_reserved": 0, "fusion_lat": 0.0, "name": "2d225e2cdb90371caf1faf8413779e2d", "lat": 38.898557}, {"fusion_lon": 0.0, "bike_id": "66662cc1c6778f2ea7a8ec53be7039c9", "lon": -77.04252983333333, "type": "electric_scooter", "is_disabled": 0, "rental_uris": {"ios": "https://dc.lft.to/lastmile_qr_scan", "android": "https://dc.lft.to/lastmile_qr_scan"}, "is_reserved": 0, "fusion_lat": 0.0, "name": "66662cc1c6778f2ea7a8ec53be7039c9", "lat": 38.92364283333333}, {"fusion_lon": 0.0, "bike_id": "2a144e74d11a0aa5469809b4123ffa23", "lon": -77.02011433333334, "type": "electric_scooter", "is_disabled": 0, "rental_uris": {"ios": "https://dc.lft.to/lastmile_qr_scan", "android": "https://dc.lft.to/lastmile_qr_scan"}, "is_reserved": 0, "fusion_lat": 0.0, "name": "2a144e74d11a0aa5469809b4123ffa23", "lat": 38.9242015}, {"fusion_lon": 0.0, "bike_id": "920edf46c19d7ab96126e295c4851f07", "lon": -77.02306266666666, "type": "electric_scooter", "is_disabled": 0, "rental_uris": {"ios": "https://dc.lft.to/lastmile_qr_scan", "android": "https://dc.lft.to/lastmile_qr_scan"}, "is_reserved": 0, "fusion_lat": 0.0, "name": "920edf46c19d7ab96126e295c4851f07", "lat": 38.89988666666667}, {"fusion_lon": 0.0, "bike_id": "6378c87b063642a1fa4976eccd3b497a", "lon": -77.04327766666667, "type": "electric_scooter", "is_disabled": 0, "rental_uris": {"ios": "https://dc.lft.to/lastmile_qr_scan", "android": "https://dc.lft.to/lastmile_qr_scan"}, "is_reserved": 0, "fusion_lat": 0.0, "name": "6378c87b063642a1fa4976eccd3b497a", "lat": 38.89225366666667}, {"fusion_lon": 0.0, "bike_id": "89639fbfb6c7f2e94565b9dad37a9c1b", "lon": -77.02167183333333, "type": "electric_scooter", "is_disabled": 0, "rental_uris": {"ios": "https://dc.lft.to/lastmile_qr_scan", "android": "https://dc.lft.to/lastmile_qr_scan"}, "is_reserved": 0, "fusion_lat": 0.0, "name": "89639fbfb6c7f2e94565b9dad37a9c1b", "lat": 38.91998133333333}, {"fusion_lon": 0.0, "bike_id": "d1ecae0c9066d25ecbda976d20f7cfd4", "lon": -76.98596516666667, "type": "electric_scooter", "is_disabled": 0, "rental_uris": {"ios": "https://dc.lft.to/lastmile_qr_scan", "android": "https://dc.lft.to/lastmile_qr_scan"}, "is_reserved": 0, "fusion_lat": 0.0, "name": "d1ecae0c9066d25ecbda976d20f7cfd4", "lat": 38.894716833333334}, {"fusion_lon": 0.0, "bike_id": "1b0b0c58d0e6412234f9933e30c92e45", "lon": -77.03434483333334, "type": "electric_scooter", "is_disabled": 0, "rental_uris": {"ios": "https://dc.lft.to/lastmile_qr_scan", "android": "https://dc.lft.to/lastmile_qr_scan"}, "is_reserved": 0, "fusion_lat": 0.0, "name": "1b0b0c58d0e6412234f9933e30c92e45", "lat": 38.9095505}, {"fusion_lon": 0.0, "bike_id": "f7951ae750849401f82ddfd734ab8e7a", "lon": -77.04490283333334, "type": "electric_scooter", "is_disabled": 0, "rental_uris": {"ios": "https://dc.lft.to/lastmile_qr_scan", "android": "https://dc.lft.to/lastmile_qr_scan"}, "is_reserved": 0, "fusion_lat": 0.0, "name": "f7951ae750849401f82ddfd734ab8e7a", "lat": 38.89236616666667}, {"fusion_lon": 0.0, "bike_id": "827f1225ee57847e8cc256a1a57a1744", "lon": -76.99501633333334, "type": "electric_scooter", "is_disabled": 0, "rental_uris": {"ios": "https://dc.lft.to/lastmile_qr_scan", "android": "https://dc.lft.to/lastmile_qr_scan"}, "is_reserved": 0, "fusion_lat": 0.0, "name": "827f1225ee57847e8cc256a1a57a1744", "lat": 38.909819}, {"fusion_lon": 0.0, "bike_id": "acca0ab09a28ed5abf0ebe0ac671d92c", "lon": -77.027135, "type": "electric_scooter", "is_disabled": 0, "rental_uris": {"ios": "https://dc.lft.to/lastmile_qr_scan", "android": "https://dc.lft.to/lastmile_qr_scan"}, "is_reserved": 0, "fusion_lat": 0.0, "name": "acca0ab09a28ed5abf0ebe0ac671d92c", "lat": 38.91797666666667}, {"fusion_lon": 0.0, "bike_id": "68888e216cd25774af3200af7d6aa414", "lon": -76.9761505, "type": "electric_scooter", "is_disabled": 0, "rental_uris": {"ios": "https://dc.lft.to/lastmile_qr_scan", "android": "https://dc.lft.to/lastmile_qr_scan"}, "is_reserved": 0, "fusion_lat": 0.0, "name": "68888e216cd25774af3200af7d6aa414", "lat": 38.903826333333335}, {"fusion_lon": 0.0, "bike_id": "8ed8c67e59097aff6582e8ceea7b4c67", "lon": -77.01977466666666, "type": "electric_scooter", "is_disabled": 0, "rental_uris": {"ios": "https://dc.lft.to/lastmile_qr_scan", "android": "https://dc.lft.to/lastmile_qr_scan"}, "is_reserved": 0, "fusion_lat": 0.0, "name": "8ed8c67e59097aff6582e8ceea7b4c67", "lat": 38.90712033333333}, {"fusion_lon": 0.0, "bike_id": "8ba907cd617ec7fefa5b50d395f91044", "lon": -77.02420066666667, "type": "electric_scooter", "is_disabled": 0, "rental_uris": {"ios": "https://dc.lft.to/lastmile_qr_scan", "android": "https://dc.lft.to/lastmile_qr_scan"}, "is_reserved": 0, "fusion_lat": 0.0, "name": "8ba907cd617ec7fefa5b50d395f91044", "lat": 38.95732316666667}, {"fusion_lon": 0.0, "bike_id": "cefa1def020c65c6306a13ca9cd218f0", "lon": -77.02116133333334, "type": "electric_scooter", "is_disabled": 0, "rental_uris": {"ios": "https://dc.lft.to/lastmile_qr_scan", "android": "https://dc.lft.to/lastmile_qr_scan"}, "is_reserved": 0, "fusion_lat": 0.0, "name": "cefa1def020c65c6306a13ca9cd218f0", "lat": 38.9269465}, {"fusion_lon": 0.0, "bike_id": "273b5c22b8ae6b2825f11a859b9dd14c", "lon": -77.073026, "type": "electric_scooter", "is_disabled": 0, "rental_uris": {"ios": "https://dc.lft.to/lastmile_qr_scan", "android": "https://dc.lft.to/lastmile_qr_scan"}, "is_reserved": 0, "fusion_lat": 0.0, "name": "273b5c22b8ae6b2825f11a859b9dd14c", "lat": 38.929121333333335}, {"fusion_lon": 0.0, "bike_id": "bdf1ddf61ec41c82c8b5df42aeeb2ff0", "lon": -77.00577466666667, "type": "electric_scooter", "is_disabled": 0, "rental_uris": {"ios": "https://dc.lft.to/lastmile_qr_scan", "android": "https://dc.lft.to/lastmile_qr_scan"}, "is_reserved": 0, "fusion_lat": 0.0, "name": "bdf1ddf61ec41c82c8b5df42aeeb2ff0", "lat": 38.9293205}, {"fusion_lon": 0.0, "bike_id": "c41bfc9f5a61daa430adbc3cddaaf762", "lon": -77.00944166666666, "type": "electric_scooter", "is_disabled": 0, "rental_uris": {"ios": "https://dc.lft.to/lastmile_qr_scan", "android": "https://dc.lft.to/lastmile_qr_scan"}, "is_reserved": 0, "fusion_lat": 0.0, "name": "c41bfc9f5a61daa430adbc3cddaaf762", "lat": 38.921391166666666}, {"fusion_lon": 0.0, "bike_id": "064b39e1c151249ca0862b6b50bd9889", "lon": -77.05013733333334, "type": "electric_scooter", "is_disabled": 0, "rental_uris": {"ios": "https://dc.lft.to/lastmile_qr_scan", "android": "https://dc.lft.to/lastmile_qr_scan"}, "is_reserved": 0, "fusion_lat": 0.0, "name": "064b39e1c151249ca0862b6b50bd9889", "lat": 38.905238}, {"fusion_lon": 0.0, "bike_id": "32fd0edb461a4cec0fe871e82e20df52", "lon": -77.03267866666667, "type": "electric_scooter", "is_disabled": 0, "rental_uris": {"ios": "https://dc.lft.to/lastmile_qr_scan", "android": "https://dc.lft.to/lastmile_qr_scan"}, "is_reserved": 0, "fusion_lat": 0.0, "name": "32fd0edb461a4cec0fe871e82e20df52", "lat": 38.933122166666664}, {"fusion_lon": 0.0, "bike_id": "3f836767e6eae0ccf931a510f9bcd6d7", "lon": -77.0343385, "type": "electric_scooter", "is_disabled": 0, "rental_uris": {"ios": "https://dc.lft.to/lastmile_qr_scan", "android": "https://dc.lft.to/lastmile_qr_scan"}, "is_reserved": 0, "fusion_lat": 0.0, "name": "3f836767e6eae0ccf931a510f9bcd6d7", "lat": 38.9075795}, {"fusion_lon": 0.0, "bike_id": "df5e76ac08a4a11db9b5e098e573d0fc", "lon": -77.04677216666667, "type": "electric_scooter", "is_disabled": 0, "rental_uris": {"ios": "https://dc.lft.to/lastmile_qr_scan", "android": "https://dc.lft.to/lastmile_qr_scan"}, "is_reserved": 0, "fusion_lat": 0.0, "name": "df5e76ac08a4a11db9b5e098e573d0fc", "lat": 38.892721}, {"fusion_lon": 0.0, "bike_id": "15f01e0decc1f707d0f147d303b385c9", "lon": -77.02262366666666, "type": "electric_scooter", "is_disabled": 0, "rental_uris": {"ios": "https://dc.lft.to/lastmile_qr_scan", "android": "https://dc.lft.to/lastmile_qr_scan"}, "is_reserved": 0, "fusion_lat": 0.0, "name": "15f01e0decc1f707d0f147d303b385c9", "lat": 38.925281}, {"fusion_lon": 0.0, "bike_id": "e04fa037ee9c885dacaf2f4727f4d5ed", "lon": -77.037842, "type": "electric_scooter", "is_disabled": 0, "rental_uris": {"ios": "https://dc.lft.to/lastmile_qr_scan", "android": "https://dc.lft.to/lastmile_qr_scan"}, "is_reserved": 0, "fusion_lat": 0.0, "name": "e04fa037ee9c885dacaf2f4727f4d5ed", "lat": 38.906767333333335}, {"fusion_lon": 0.0, "bike_id": "970cd396d7b129f6109bb7d0e14e5b98", "lon": -77.00134133333333, "type": "electric_scooter", "is_disabled": 0, "rental_uris": {"ios": "https://dc.lft.to/lastmile_qr_scan", "android": "https://dc.lft.to/lastmile_qr_scan"}, "is_reserved": 0, "fusion_lat": 0.0, "name": "970cd396d7b129f6109bb7d0e14e5b98", "lat": 38.900027333333334}, {"fusion_lon": 0.0, "bike_id": "2e1cef0dbd88c7102de1904d596f5757", "lon": -77.02082216666666, "type": "electric_scooter", "is_disabled": 0, "rental_uris": {"ios": "https://dc.lft.to/lastmile_qr_scan", "android": "https://dc.lft.to/lastmile_qr_scan"}, "is_reserved": 0, "fusion_lat": 0.0, "name": "2e1cef0dbd88c7102de1904d596f5757", "lat": 38.93011033333333}, {"fusion_lon": 0.0, "bike_id": "2177e277d5cb305f607732739268a2e3", "lon": -77.01356616666666, "type": "electric_scooter", "is_disabled": 0, "rental_uris": {"ios": "https://dc.lft.to/lastmile_qr_scan", "android": "https://dc.lft.to/lastmile_qr_scan"}, "is_reserved": 0, "fusion_lat": 0.0, "name": "2177e277d5cb305f607732739268a2e3", "lat": 38.91485383333333}, {"fusion_lon": 0.0, "bike_id": "47fd9588e0f3d77cd2cfcb1d130bac33", "lon": -77.03403266666666, "type": "electric_scooter", "is_disabled": 0, "rental_uris": {"ios": "https://dc.lft.to/lastmile_qr_scan", "android": "https://dc.lft.to/lastmile_qr_scan"}, "is_reserved": 0, "fusion_lat": 0.0, "name": "47fd9588e0f3d77cd2cfcb1d130bac33", "lat": 38.90263183333333}, {"fusion_lon": 0.0, "bike_id": "27840dac26da7fe4a1e606a17b5a7990", "lon": -77.0319655, "type": "electric_scooter", "is_disabled": 0, "rental_uris": {"ios": "https://dc.lft.to/lastmile_qr_scan", "android": "https://dc.lft.to/lastmile_qr_scan"}, "is_reserved": 0, "fusion_lat": 0.0, "name": "27840dac26da7fe4a1e606a17b5a7990", "lat": 38.915426}, {"fusion_lon": 0.0, "bike_id": "b3507b07ee2efcf517bed2bf23e0f8e0", "lon": -76.9350345, "type": "electric_scooter", "is_disabled": 0, "rental_uris": {"ios": "https://dc.lft.to/lastmile_qr_scan", "android": "https://dc.lft.to/lastmile_qr_scan"}, "is_reserved": 0, "fusion_lat": 0.0, "name": "b3507b07ee2efcf517bed2bf23e0f8e0", "lat": 38.8833375}, {"fusion_lon": 0.0, "bike_id": "90d778fe7d04752526aa731e02a22c8e", "lon": -77.02587366666667, "type": "electric_scooter", "is_disabled": 0, "rental_uris": {"ios": "https://dc.lft.to/lastmile_qr_scan", "android": "https://dc.lft.to/lastmile_qr_scan"}, "is_reserved": 0, "fusion_lat": 0.0, "name": "90d778fe7d04752526aa731e02a22c8e", "lat": 38.9181535}, {"fusion_lon": 0.0, "bike_id": "27629b54c77d957d583ce6847a158dfe", "lon": -76.97330216666667, "type": "electric_scooter", "is_disabled": 0, "rental_uris": {"ios": "https://dc.lft.to/lastmile_qr_scan", "android": "https://dc.lft.to/lastmile_qr_scan"}, "is_reserved": 0, "fusion_lat": 0.0, "name": "27629b54c77d957d583ce6847a158dfe", "lat": 38.90413016666667}, {"fusion_lon": 0.0, "bike_id": "2a6bc0bd5a6ceb101b6996eadcc49cd7", "lon": -77.00552116666667, "type": "electric_scooter", "is_disabled": 0, "rental_uris": {"ios": "https://dc.lft.to/lastmile_qr_scan", "android": "https://dc.lft.to/lastmile_qr_scan"}, "is_reserved": 0, "fusion_lat": 0.0, "name": "2a6bc0bd5a6ceb101b6996eadcc49cd7", "lat": 38.90563933333333}, {"fusion_lon": 0.0, "bike_id": "3e89d00b978266eff1ffbb64fc3992ef", "lon": -77.03289216666667, "type": "electric_scooter", "is_disabled": 0, "rental_uris": {"ios": "https://dc.lft.to/lastmile_qr_scan", "android": "https://dc.lft.to/lastmile_qr_scan"}, "is_reserved": 0, "fusion_lat": 0.0, "name": "3e89d00b978266eff1ffbb64fc3992ef", "lat": 38.92937083333333}, {"fusion_lon": 0.0, "bike_id": "5057f8d8d587060da14f6dc9103ac5fa", "lon": -77.04739483333333, "type": "electric_scooter", "is_disabled": 0, "rental_uris": {"ios": "https://dc.lft.to/lastmile_qr_scan", "android": "https://dc.lft.to/lastmile_qr_scan"}, "is_reserved": 0, "fusion_lat": 0.0, "name": "5057f8d8d587060da14f6dc9103ac5fa", "lat": 38.91261733333333}, {"fusion_lon": 0.0, "bike_id": "ed031f180d40c62bbba3ce0e8fa66065", "lon": -77.0568215, "type": "electric_scooter", "is_disabled": 0, "rental_uris": {"ios": "https://dc.lft.to/lastmile_qr_scan", "android": "https://dc.lft.to/lastmile_qr_scan"}, "is_reserved": 0, "fusion_lat": 0.0, "name": "ed031f180d40c62bbba3ce0e8fa66065", "lat": 38.923325}, {"fusion_lon": 0.0, "bike_id": "a08deae09fa012d9f7b520664d0d36ea", "lon": -76.99913483333333, "type": "electric_scooter", "is_disabled": 0, "rental_uris": {"ios": "https://dc.lft.to/lastmile_qr_scan", "android": "https://dc.lft.to/lastmile_qr_scan"}, "is_reserved": 0, "fusion_lat": 0.0, "name": "a08deae09fa012d9f7b520664d0d36ea", "lat": 38.843453833333335}, {"fusion_lon": 0.0, "bike_id": "00a784a08d74a5654620ba1d9b3a39a6", "lon": -77.021242, "type": "electric_scooter", "is_disabled": 0, "rental_uris": {"ios": "https://dc.lft.to/lastmile_qr_scan", "android": "https://dc.lft.to/lastmile_qr_scan"}, "is_reserved": 0, "fusion_lat": 0.0, "name": "00a784a08d74a5654620ba1d9b3a39a6", "lat": 38.935827}, {"fusion_lon": 0.0, "bike_id": "e976d1760a264f7055fbc0eec88dc816", "lon": -77.043512, "type": "electric_scooter", "is_disabled": 0, "rental_uris": {"ios": "https://dc.lft.to/lastmile_qr_scan", "android": "https://dc.lft.to/lastmile_qr_scan"}, "is_reserved": 0, "fusion_lat": 0.0, "name": "e976d1760a264f7055fbc0eec88dc816", "lat": 38.90869633333333}, {"fusion_lon": 0.0, "bike_id": "92b64ab8edfb8f0959e92395c0da7cf6", "lon": -77.02843433333334, "type": "electric_scooter", "is_disabled": 0, "rental_uris": {"ios": "https://dc.lft.to/lastmile_qr_scan", "android": "https://dc.lft.to/lastmile_qr_scan"}, "is_reserved": 0, "fusion_lat": 0.0, "name": "92b64ab8edfb8f0959e92395c0da7cf6", "lat": 38.9358835}, {"fusion_lon": 0.0, "bike_id": "5552f6e3f4a3c52b6a3db65a6b2006b7", "lon": -76.9936075, "type": "electric_scooter", "is_disabled": 0, "rental_uris": {"ios": "https://dc.lft.to/lastmile_qr_scan", "android": "https://dc.lft.to/lastmile_qr_scan"}, "is_reserved": 0, "fusion_lat": 0.0, "name": "5552f6e3f4a3c52b6a3db65a6b2006b7", "lat": 38.9004205}, {"fusion_lon": 0.0, "bike_id": "e7e9e2a094945ed4072f8a79008c4303", "lon": -77.05014016666667, "type": "electric_scooter", "is_disabled": 0, "rental_uris": {"ios": "https://dc.lft.to/lastmile_qr_scan", "android": "https://dc.lft.to/lastmile_qr_scan"}, "is_reserved": 0, "fusion_lat": 0.0, "name": "e7e9e2a094945ed4072f8a79008c4303", "lat": 38.9010535}, {"fusion_lon": 0.0, "bike_id": "0b060c1b3f323ecf43375a75d7e399fd", "lon": -76.95099766666667, "type": "electric_scooter", "is_disabled": 0, "rental_uris": {"ios": "https://dc.lft.to/lastmile_qr_scan", "android": "https://dc.lft.to/lastmile_qr_scan"}, "is_reserved": 0, "fusion_lat": 0.0, "name": "0b060c1b3f323ecf43375a75d7e399fd", "lat": 38.884485166666664}, {"fusion_lon": 0.0, "bike_id": "93e3fbc9092e1a4d08ec74200f75176f", "lon": -77.02780333333334, "type": "electric_scooter", "is_disabled": 0, "rental_uris": {"ios": "https://dc.lft.to/lastmile_qr_scan", "android": "https://dc.lft.to/lastmile_qr_scan"}, "is_reserved": 0, "fusion_lat": 0.0, "name": "93e3fbc9092e1a4d08ec74200f75176f", "lat": 38.917105666666664}, {"fusion_lon": 0.0, "bike_id": "41626928607cfd6effa965485b7304d7", "lon": -77.03832116666666, "type": "electric_scooter", "is_disabled": 0, "rental_uris": {"ios": "https://dc.lft.to/lastmile_qr_scan", "android": "https://dc.lft.to/lastmile_qr_scan"}, "is_reserved": 0, "fusion_lat": 0.0, "name": "41626928607cfd6effa965485b7304d7", "lat": 38.907850333333336}, {"fusion_lon": 0.0, "bike_id": "879b06b73e03f292703b10831bc7956f", "lon": -77.02598083333334, "type": "electric_scooter", "is_disabled": 0, "rental_uris": {"ios": "https://dc.lft.to/lastmile_qr_scan", "android": "https://dc.lft.to/lastmile_qr_scan"}, "is_reserved": 0, "fusion_lat": 0.0, "name": "879b06b73e03f292703b10831bc7956f", "lat": 38.916964}, {"fusion_lon": 0.0, "bike_id": "d19b70b304071a3743418a176c066000", "lon": -77.03677633333334, "type": "electric_scooter", "is_disabled": 0, "rental_uris": {"ios": "https://dc.lft.to/lastmile_qr_scan", "android": "https://dc.lft.to/lastmile_qr_scan"}, "is_reserved": 0, "fusion_lat": 0.0, "name": "d19b70b304071a3743418a176c066000", "lat": 38.9002765}, {"fusion_lon": 0.0, "bike_id": "6e83a3b7586378d5462ef09ef3e02409", "lon": -77.02907466666667, "type": "electric_scooter", "is_disabled": 0, "rental_uris": {"ios": "https://dc.lft.to/lastmile_qr_scan", "android": "https://dc.lft.to/lastmile_qr_scan"}, "is_reserved": 0, "fusion_lat": 0.0, "name": "6e83a3b7586378d5462ef09ef3e02409", "lat": 38.917079}, {"fusion_lon": 0.0, "bike_id": "47cc9e85a9db6ae3b76f3ce7c434838d", "lon": -77.041425, "type": "electric_scooter", "is_disabled": 0, "rental_uris": {"ios": "https://dc.lft.to/lastmile_qr_scan", "android": "https://dc.lft.to/lastmile_qr_scan"}, "is_reserved": 0, "fusion_lat": 0.0, "name": "47cc9e85a9db6ae3b76f3ce7c434838d", "lat": 38.92338316666667}, {"fusion_lon": 0.0, "bike_id": "151afb2aae432e923784d334e2e5253e", "lon": -77.02478933333333, "type": "electric_scooter", "is_disabled": 0, "rental_uris": {"ios": "https://dc.lft.to/lastmile_qr_scan", "android": "https://dc.lft.to/lastmile_qr_scan"}, "is_reserved": 0, "fusion_lat": 0.0, "name": "151afb2aae432e923784d334e2e5253e", "lat": 38.88009816666667}, {"fusion_lon": 0.0, "bike_id": "6c6d383072850d80b45038498bf630b1", "lon": -77.0221365, "type": "electric_scooter", "is_disabled": 0, "rental_uris": {"ios": "https://dc.lft.to/lastmile_qr_scan", "android": "https://dc.lft.to/lastmile_qr_scan"}, "is_reserved": 0, "fusion_lat": 0.0, "name": "6c6d383072850d80b45038498bf630b1", "lat": 38.927918}, {"fusion_lon": 0.0, "bike_id": "4a29fa34829649c8afe6ce16969bc7a0", "lon": -76.9326505, "type": "electric_scooter", "is_disabled": 0, "rental_uris": {"ios": "https://dc.lft.to/lastmile_qr_scan", "android": "https://dc.lft.to/lastmile_qr_scan"}, "is_reserved": 0, "fusion_lat": 0.0, "name": "4a29fa34829649c8afe6ce16969bc7a0", "lat": 38.887441}, {"fusion_lon": 0.0, "bike_id": "98260e694ab82d86cc6a0d0f1c952b8f", "lon": -76.93763983333334, "type": "electric_scooter", "is_disabled": 0, "rental_uris": {"ios": "https://dc.lft.to/lastmile_qr_scan", "android": "https://dc.lft.to/lastmile_qr_scan"}, "is_reserved": 0, "fusion_lat": 0.0, "name": "98260e694ab82d86cc6a0d0f1c952b8f", "lat": 38.890447}, {"fusion_lon": 0.0, "bike_id": "cbff82bde3f5e73dae87b22a1f100f79", "lon": -77.03484416666667, "type": "electric_scooter", "is_disabled": 0, "rental_uris": {"ios": "https://dc.lft.to/lastmile_qr_scan", "android": "https://dc.lft.to/lastmile_qr_scan"}, "is_reserved": 0, "fusion_lat": 0.0, "name": "cbff82bde3f5e73dae87b22a1f100f79", "lat": 38.92866183333334}, {"fusion_lon": 0.0, "bike_id": "d95e8fa301d9f3caf62a752f81a0c7d6", "lon": -77.02968266666667, "type": "electric_scooter", "is_disabled": 0, "rental_uris": {"ios": "https://dc.lft.to/lastmile_qr_scan", "android": "https://dc.lft.to/lastmile_qr_scan"}, "is_reserved": 0, "fusion_lat": 0.0, "name": "d95e8fa301d9f3caf62a752f81a0c7d6", "lat": 38.92293133333333}, {"fusion_lon": 0.0, "bike_id": "ba1a97ead2b4d6cd5e96be8160f11b3b", "lon": -77.23358616666667, "type": "electric_bike", "is_disabled": 0, "rental_uris": {"ios": "https://dc.lft.to/lastmile_qr_scan", "android": "https://dc.lft.to/lastmile_qr_scan"}, "is_reserved": 0, "fusion_lat": 0.0, "name": "ba1a97ead2b4d6cd5e96be8160f11b3b", "lat": 38.9246875}, {"fusion_lon": 0.0, "bike_id": "4a57628d997adcf9ea9513d6db33aede", "lon": -77.02781283333333, "type": "electric_scooter", "is_disabled": 0, "rental_uris": {"ios": "https://dc.lft.to/lastmile_qr_scan", "android": "https://dc.lft.to/lastmile_qr_scan"}, "is_reserved": 0, "fusion_lat": 0.0, "name": "4a57628d997adcf9ea9513d6db33aede", "lat": 38.9272105}, {"fusion_lon": 0.0, "bike_id": "d0c8a8aed06810989e38a592dba6b390", "lon": -77.00599816666667, "type": "electric_bike", "is_disabled": 0, "rental_uris": {"ios": "https://dc.lft.to/lastmile_qr_scan", "android": "https://dc.lft.to/lastmile_qr_scan"}, "is_reserved": 0, "fusion_lat": 0.0, "name": "d0c8a8aed06810989e38a592dba6b390", "lat": 38.968399}, {"fusion_lon": 0.0, "bike_id": "373b8d27591d19ad20ede84e4b5f8be8", "lon": -77.039156, "type": "electric_scooter", "is_disabled": 0, "rental_uris": {"ios": "https://dc.lft.to/lastmile_qr_scan", "android": "https://dc.lft.to/lastmile_qr_scan"}, "is_reserved": 0, "fusion_lat": 0.0, "name": "373b8d27591d19ad20ede84e4b5f8be8", "lat": 38.9245605}, {"fusion_lon": 0.0, "bike_id": "e865a53794fbcaede1fb40248eaef836", "lon": -77.02395483333333, "type": "electric_scooter", "is_disabled": 0, "rental_uris": {"ios": "https://dc.lft.to/lastmile_qr_scan", "android": "https://dc.lft.to/lastmile_qr_scan"}, "is_reserved": 0, "fusion_lat": 0.0, "name": "e865a53794fbcaede1fb40248eaef836", "lat": 38.91693216666667}, {"fusion_lon": 0.0, "bike_id": "6f56a0323fd73ce0a2dfe0719d864c1a", "lon": -77.04336333333333, "type": "electric_scooter", "is_disabled": 0, "rental_uris": {"ios": "https://dc.lft.to/lastmile_qr_scan", "android": "https://dc.lft.to/lastmile_qr_scan"}, "is_reserved": 0, "fusion_lat": 0.0, "name": "6f56a0323fd73ce0a2dfe0719d864c1a", "lat": 38.89224033333333}, {"fusion_lon": 0.0, "bike_id": "218bcf220e6536a380c5da0e3630b48a", "lon": -77.03662533333333, "type": "electric_scooter", "is_disabled": 0, "rental_uris": {"ios": "https://dc.lft.to/lastmile_qr_scan", "android": "https://dc.lft.to/lastmile_qr_scan"}, "is_reserved": 0, "fusion_lat": 0.0, "name": "218bcf220e6536a380c5da0e3630b48a", "lat": 38.9170715}, {"fusion_lon": 0.0, "bike_id": "717f920c14270305f894876cc686a4fe", "lon": -77.043707, "type": "electric_scooter", "is_disabled": 0, "rental_uris": {"ios": "https://dc.lft.to/lastmile_qr_scan", "android": "https://dc.lft.to/lastmile_qr_scan"}, "is_reserved": 0, "fusion_lat": 0.0, "name": "717f920c14270305f894876cc686a4fe", "lat": 38.8922175}, {"fusion_lon": 0.0, "bike_id": "eb8ab9d1fa7d8375e82c45a7aca6f9b9", "lon": -76.97346033333334, "type": "electric_scooter", "is_disabled": 0, "rental_uris": {"ios": "https://dc.lft.to/lastmile_qr_scan", "android": "https://dc.lft.to/lastmile_qr_scan"}, "is_reserved": 0, "fusion_lat": 0.0, "name": "eb8ab9d1fa7d8375e82c45a7aca6f9b9", "lat": 38.927713}, {"fusion_lon": 0.0, "bike_id": "ded9d5daf0b8fba27b463ff74f5ee96e", "lon": -77.06655583333334, "type": "electric_scooter", "is_disabled": 0, "rental_uris": {"ios": "https://dc.lft.to/lastmile_qr_scan", "android": "https://dc.lft.to/lastmile_qr_scan"}, "is_reserved": 0, "fusion_lat": 0.0, "name": "ded9d5daf0b8fba27b463ff74f5ee96e", "lat": 38.94974033333333}, {"fusion_lon": 0.0, "bike_id": "948f1f3d7285595c005ec94bd3bd654a", "lon": -77.03335633333333, "type": "electric_scooter", "is_disabled": 0, "rental_uris": {"ios": "https://dc.lft.to/lastmile_qr_scan", "android": "https://dc.lft.to/lastmile_qr_scan"}, "is_reserved": 0, "fusion_lat": 0.0, "name": "948f1f3d7285595c005ec94bd3bd654a", "lat": 38.924503666666666}, {"fusion_lon": 0.0, "bike_id": "c490280dac80b99db4449a880830d0e7", "lon": -77.02721766666667, "type": "electric_scooter", "is_disabled": 0, "rental_uris": {"ios": "https://dc.lft.to/lastmile_qr_scan", "android": "https://dc.lft.to/lastmile_qr_scan"}, "is_reserved": 0, "fusion_lat": 0.0, "name": "c490280dac80b99db4449a880830d0e7", "lat": 38.906675166666666}, {"fusion_lon": 0.0, "bike_id": "a03c16e858989317548edd50f339caa7", "lon": -77.05147916666667, "type": "electric_scooter", "is_disabled": 0, "rental_uris": {"ios": "https://dc.lft.to/lastmile_qr_scan", "android": "https://dc.lft.to/lastmile_qr_scan"}, "is_reserved": 0, "fusion_lat": 0.0, "name": "a03c16e858989317548edd50f339caa7", "lat": 38.90214133333333}, {"fusion_lon": 0.0, "bike_id": "c119fad3c517350893e1487e9d098518", "lon": -77.03948716666666, "type": "electric_scooter", "is_disabled": 0, "rental_uris": {"ios": "https://dc.lft.to/lastmile_qr_scan", "android": "https://dc.lft.to/lastmile_qr_scan"}, "is_reserved": 0, "fusion_lat": 0.0, "name": "c119fad3c517350893e1487e9d098518", "lat": 38.946289166666666}, {"fusion_lon": 0.0, "bike_id": "b821352dadd7873ca3fcfff1c9f53270", "lon": -77.0220815, "type": "electric_scooter", "is_disabled": 0, "rental_uris": {"ios": "https://dc.lft.to/lastmile_qr_scan", "android": "https://dc.lft.to/lastmile_qr_scan"}, "is_reserved": 0, "fusion_lat": 0.0, "name": "b821352dadd7873ca3fcfff1c9f53270", "lat": 38.90576016666667}, {"fusion_lon": 0.0, "bike_id": "83a9b52f481aa19bc526718a752e138a", "lon": -77.01258116666666, "type": "electric_scooter", "is_disabled": 0, "rental_uris": {"ios": "https://dc.lft.to/lastmile_qr_scan", "android": "https://dc.lft.to/lastmile_qr_scan"}, "is_reserved": 0, "fusion_lat": 0.0, "name": "83a9b52f481aa19bc526718a752e138a", "lat": 38.908494166666664}, {"fusion_lon": 0.0, "bike_id": "6ab37b87eb4f8357f18e7941bd411d86", "lon": -77.04189266666667, "type": "electric_scooter", "is_disabled": 0, "rental_uris": {"ios": "https://dc.lft.to/lastmile_qr_scan", "android": "https://dc.lft.to/lastmile_qr_scan"}, "is_reserved": 0, "fusion_lat": 0.0, "name": "6ab37b87eb4f8357f18e7941bd411d86", "lat": 38.9011835}, {"fusion_lon": 0.0, "bike_id": "829d3ded368e869ac9245e383ce07715", "lon": -76.95759566666666, "type": "electric_scooter", "is_disabled": 0, "rental_uris": {"ios": "https://dc.lft.to/lastmile_qr_scan", "android": "https://dc.lft.to/lastmile_qr_scan"}, "is_reserved": 0, "fusion_lat": 0.0, "name": "829d3ded368e869ac9245e383ce07715", "lat": 38.88432666666667}, {"fusion_lon": 0.0, "bike_id": "86d420ec9dcbfb5207316c9af52ea04c", "lon": -76.98361216666666, "type": "electric_scooter", "is_disabled": 0, "rental_uris": {"ios": "https://dc.lft.to/lastmile_qr_scan", "android": "https://dc.lft.to/lastmile_qr_scan"}, "is_reserved": 0, "fusion_lat": 0.0, "name": "86d420ec9dcbfb5207316c9af52ea04c", "lat": 38.887283833333335}, {"fusion_lon": 0.0, "bike_id": "e5dd436cbfcb49c97452cfb0dfe5e3b7", "lon": -77.02206666666666, "type": "electric_scooter", "is_disabled": 0, "rental_uris": {"ios": "https://dc.lft.to/lastmile_qr_scan", "android": "https://dc.lft.to/lastmile_qr_scan"}, "is_reserved": 0, "fusion_lat": 0.0, "name": "e5dd436cbfcb49c97452cfb0dfe5e3b7", "lat": 38.905845}, {"fusion_lon": 0.0, "bike_id": "5f507d466c49ef2f14a67a6a8590cdf8", "lon": -77.03843733333333, "type": "electric_scooter", "is_disabled": 0, "rental_uris": {"ios": "https://dc.lft.to/lastmile_qr_scan", "android": "https://dc.lft.to/lastmile_qr_scan"}, "is_reserved": 0, "fusion_lat": 0.0, "name": "5f507d466c49ef2f14a67a6a8590cdf8", "lat": 38.941924666666665}, {"fusion_lon": 0.0, "bike_id": "dc0b00b9318c77ca33266adcf054aad3", "lon": -77.02170983333333, "type": "electric_scooter", "is_disabled": 0, "rental_uris": {"ios": "https://dc.lft.to/lastmile_qr_scan", "android": "https://dc.lft.to/lastmile_qr_scan"}, "is_reserved": 0, "fusion_lat": 0.0, "name": "dc0b00b9318c77ca33266adcf054aad3", "lat": 38.942895}, {"fusion_lon": 0.0, "bike_id": "2f6de173525ae89ca6d534c95d5a7a1a", "lon": -77.0205205, "type": "electric_scooter", "is_disabled": 0, "rental_uris": {"ios": "https://dc.lft.to/lastmile_qr_scan", "android": "https://dc.lft.to/lastmile_qr_scan"}, "is_reserved": 0, "fusion_lat": 0.0, "name": "2f6de173525ae89ca6d534c95d5a7a1a", "lat": 38.91908216666667}, {"fusion_lon": 0.0, "bike_id": "80e688aef62ed072db9f020d881dab7e", "lon": -77.02201216666667, "type": "electric_scooter", "is_disabled": 0, "rental_uris": {"ios": "https://dc.lft.to/lastmile_qr_scan", "android": "https://dc.lft.to/lastmile_qr_scan"}, "is_reserved": 0, "fusion_lat": 0.0, "name": "80e688aef62ed072db9f020d881dab7e", "lat": 38.915387333333335}, {"fusion_lon": 0.0, "bike_id": "28713af3cf1c075be6ee1a41ecc67483", "lon": -77.01064216666667, "type": "electric_scooter", "is_disabled": 0, "rental_uris": {"ios": "https://dc.lft.to/lastmile_qr_scan", "android": "https://dc.lft.to/lastmile_qr_scan"}, "is_reserved": 0, "fusion_lat": 0.0, "name": "28713af3cf1c075be6ee1a41ecc67483", "lat": 38.89814066666667}, {"fusion_lon": 0.0, "bike_id": "46b3684092476fa10240c6526b83e8cd", "lon": -77.028019, "type": "electric_scooter", "is_disabled": 0, "rental_uris": {"ios": "https://dc.lft.to/lastmile_qr_scan", "android": "https://dc.lft.to/lastmile_qr_scan"}, "is_reserved": 0, "fusion_lat": 0.0, "name": "46b3684092476fa10240c6526b83e8cd", "lat": 38.89229233333333}, {"fusion_lon": 0.0, "bike_id": "a9d2b98f1a7fbe1b4f036d7bd719d7f2", "lon": -77.035344, "type": "electric_scooter", "is_disabled": 0, "rental_uris": {"ios": "https://dc.lft.to/lastmile_qr_scan", "android": "https://dc.lft.to/lastmile_qr_scan"}, "is_reserved": 0, "fusion_lat": 0.0, "name": "a9d2b98f1a7fbe1b4f036d7bd719d7f2", "lat": 38.907382}, {"fusion_lon": 0.0, "bike_id": "72b79375efab6c3a6dae253adc99d24b", "lon": -77.02165366666667, "type": "electric_scooter", "is_disabled": 0, "rental_uris": {"ios": "https://dc.lft.to/lastmile_qr_scan", "android": "https://dc.lft.to/lastmile_qr_scan"}, "is_reserved": 0, "fusion_lat": 0.0, "name": "72b79375efab6c3a6dae253adc99d24b", "lat": 38.92614366666667}, {"fusion_lon": 0.0, "bike_id": "a83b8bf9e297d11b1c75a21006004d9a", "lon": -77.03791566666666, "type": "electric_scooter", "is_disabled": 0, "rental_uris": {"ios": "https://dc.lft.to/lastmile_qr_scan", "android": "https://dc.lft.to/lastmile_qr_scan"}, "is_reserved": 0, "fusion_lat": 0.0, "name": "a83b8bf9e297d11b1c75a21006004d9a", "lat": 38.91704883333333}, {"fusion_lon": 0.0, "bike_id": "f446a5c84508c703d90fce539902f745", "lon": -76.98657466666667, "type": "electric_scooter", "is_disabled": 0, "rental_uris": {"ios": "https://dc.lft.to/lastmile_qr_scan", "android": "https://dc.lft.to/lastmile_qr_scan"}, "is_reserved": 0, "fusion_lat": 0.0, "name": "f446a5c84508c703d90fce539902f745", "lat": 38.893515666666666}, {"fusion_lon": 0.0, "bike_id": "a7dce1df2fe4c6b6fc3e1f7bffbe9711", "lon": -77.08572, "type": "electric_scooter", "is_disabled": 0, "rental_uris": {"ios": "https://dc.lft.to/lastmile_qr_scan", "android": "https://dc.lft.to/lastmile_qr_scan"}, "is_reserved": 0, "fusion_lat": 0.0, "name": "a7dce1df2fe4c6b6fc3e1f7bffbe9711", "lat": 38.889565166666664},