{"data": {"bikes": [{"is_reserved": 0, "fusion_lon": 0.0, "fusion_lat": 0.0, "name": "81ee87d4edd68fc644cd88c51ef526e2", "type": "electric_scooter", "is_disabled": 0, "lat": 38.921262166666665, "rental_uris": {"android": "https://dc.lft.to/lastmile_qr_scan", "ios": "https://dc.lft.to/lastmile_qr_scan"}, "bike_id": "81ee87d4edd68fc644cd88c51ef526e2", "lon": -77.04356133333333}, {"is_reserved": 0, "fusion_lon": 0.0, "fusion_lat": 0.0, "name": "438dbad904b55b6e1e9f132ea27c7e78", "type": "electric_scooter", "is_disabled": 0, "lat": 38.892243, "rental_uris": {"android": "https://dc.lft.to/lastmile_qr_scan", "ios": "https://dc.lft.to/lastmile_qr_scan"}, "bike_id": "438dbad904b55b6e1e9f132ea27c7e78", "lon": -77.04372116666667}, {"is_reserved": 0, "fusion_lon": 0.0, "fusion_lat": 0.0, "name": "4460d920b49fe62508515b16bb5691c2", "type": "electric_bike", "is_disabled": 0, "lat": 38.95931183333333, "rental_uris": {"android": "https://dc.lft.to/lastmile_qr_scan", "ios": "https://dc.lft.to/lastmile_qr_scan"}, "bike_id": "4460d920b49fe62508515b16bb5691c2", "lon": -76.92544166666667}, {"is_reserved": 0, "fusion_lon": 0.0, "fusion_lat": 0.0, "name": "57a3517acb2ac5c76d5a48045b279d20", "type": "electric_scooter", "is_disabled": 0, "lat": 38.928527333333335, "rental_uris": {"android": "https://dc.lft.to/lastmile_qr_scan", "ios": "https://dc.lft.to/lastmile_qr_scan"}, "bike_id": "57a3517acb2ac5c76d5a48045b279d20", "lon": -77.014104}, {"is_reserved": 0, "fusion_lon": 0.0, "fusion_lat": 0.0, "name": "019add242306be4b63da0df1518c4b25", "type": "electric_scooter", "is_disabled": 0, "lat": 38.893468666666664, "rental_uris": {"android": "https://dc.lft.to/lastmile_qr_scan", "ios": "https://dc.lft.to/lastmile_qr_scan"}, "bike_id": "019add242306be4b63da0df1518c4b25", "lon": -77.0419265}, {"is_reserved": 0, "fusion_lon": 0.0, "fusion_lat": 0.0, "name": "5e5d0911b0a2b127f6b1ee151bb2fdcb", "type": "electric_scooter", "is_disabled": 0, "lat": 38.88011233333334, "rental_uris": {"android": "https://dc.lft.to/lastmile_qr_scan", "ios": "https://dc.lft.to/lastmile_qr_scan"}, "bike_id": "5e5d0911b0a2b127f6b1ee151bb2fdcb", "lon": -77.0217765}, {"is_reserved": 0, "fusion_lon": 0.0, "fusion_lat": 0.0, "name": "7ec3362382242d8c53ab46d3b3b715d8", "type": "electric_scooter", "is_disabled": 0, "lat": 38.8936855, "rental_uris": {"android": "https://dc.lft.to/lastmile_qr_scan", "ios": "https://dc.lft.to/lastmile_qr_scan"}, "bike_id": "7ec3362382242d8c53ab46d3b3b715d8", "lon": -76.94994983333333}, {"is_reserved": 0, "fusion_lon": 0.0, "fusion_lat": 0.0, "name": "45c574d1d79dedaadb09d86ef608eb6f", "type": "electric_scooter", "is_disabled": 0, "lat": 38.90965833333333, "rental_uris": {"android": "https://dc.lft.to/lastmile_qr_scan", "ios": "https://dc.lft.to/lastmile_qr_scan"}, "bike_id": "45c574d1d79dedaadb09d86ef608eb6f", "lon": -77.03162433333334}, {"is_reserved": 0, "fusion_lon": 0.0, "fusion_lat": 0.0, "name": "d426fc3de87d00fb08d7da7d5eb051ff", "type": "electric_scooter", "is_disabled": 0, "lat": 38.907323833333336, "rental_uris": {"android": "https://dc.lft.to/lastmile_qr_scan", "ios": "https://dc.lft.to/lastmile_qr_scan"}, "bike_id": "d426fc3de87d00fb08d7da7d5eb051ff", "lon": -76.98692433333333}, {"is_reserved": 0, "fusion_lon": 0.0, "fusion_lat": 0.0, "name": "b2326e4f4554d9be3a3ee73e046ffe4b", "type": "electric_scooter", "is_disabled": 0, "lat": 38.91692883333333, "rental_uris": {"android": "https://dc.lft.to/lastmile_qr_scan", "ios": "https://dc.lft.to/lastmile_qr_scan"}, "bike_id": "b2326e4f4554d9be3a3ee73e046ffe4b", "lon": -77.02685416666667}, {"is_reserved": 0, "fusion_lon": 0.0, "fusion_lat": 0.0, "name": "d48a746423a380e71e76b9aeb9bbcecf", "type": "electric_scooter", "is_disabled": 0, "lat": 38.879033, "rental_uris": {"android": "https://dc.lft.to/lastmile_qr_scan", "ios": "https://dc.lft.to/lastmile_qr_scan"}, "bike_id": "d48a746423a380e71e76b9aeb9bbcecf", "lon": -77.013633}, {"is_reserved": 0, "fusion_lon": 0.0, "fusion_lat": 0.0, "name": "26159d776a5c05b479518741c4c09d29", "type": "electric_scooter", "is_disabled": 0, "lat": 38.917024, "rental_uris": {"android": "https://dc.lft.to/lastmile_qr_scan", "ios": "https://dc.lft.to/lastmile_qr_scan"}, "bike_id": "26159d776a5c05b479518741c4c09d29", "lon": -77.03112283333333}, {"is_reserved": 0, "fusion_lon": 0.0, "fusion_lat": 0.0, "name": "2bc3e4003e9715d45f9696f25305af66", "type": "electric_scooter", "is_disabled": 0, "lat": 38.899550833333336, "rental_uris": {"android": "https://dc.lft.to/lastmile_qr_scan", "ios": "https://dc.lft.to/lastmile_qr_scan"}, "bike_id": "2bc3e4003e9715d45f9696f25305af66", "lon": -77.0425095}, {"is_reserved": 0, "fusion_lon": 0.0, "fusion_lat": 0.0, "name": "f1eef0a94bf818f21d183500c9f55908", "type": "electric_scooter", "is_disabled": 0, "lat": 38.89221083333333, "rental_uris": {"android": "https://dc.lft.to/lastmile_qr_scan", "ios": "https://dc.lft.to/lastmile_qr_scan"}, "bike_id": "f1eef0a94bf818f21d183500c9f55908", "lon": -77.04376733333334}, {"is_reserved": 0, "fusion_lon": 0.0, "fusion_lat": 0.0, "name": "50804777dfa51d3e730c6cbfd25c25f1", "type": "electric_scooter", "is_disabled": 0, "lat": 38.91418516666667, "rental_uris": {"android": "https://dc.lft.to/lastmile_qr_scan", "ios": "https://dc.lft.to/lastmile_qr_scan"}, "bike_id": "50804777dfa51d3e730c6cbfd25c25f1", "lon": -77.03813066666666}, {"is_reserved": 0, "fusion_lon": 0.0, "fusion_lat": 0.0, "name": "fabf1133529dce5bde79f9f32f1f4729", "type": "electric_bike", "is_disabled": 0, "lat": 39.05282783333333, "rental_uris": {"android": "https://dc.lft.to/lastmile_qr_scan", "ios": "https://dc.lft.to/lastmile_qr_scan"}, "bike_id": "fabf1133529dce5bde79f9f32f1f4729", "lon": -77.08068083333333}, {"is_reserved": 0, "fusion_lon": 0.0, "fusion_lat": 0.0, "name": "e28c03493fad0753353d2dcbf6f85c0b", "type": "electric_scooter", "is_disabled": 0, "lat": 38.869978833333334, "rental_uris": {"android": "https://dc.lft.to/lastmile_qr_scan", "ios": "https://dc.lft.to/lastmile_qr_scan"}, "bike_id": "e28c03493fad0753353d2dcbf6f85c0b", "lon": -76.9758525}, {"is_reserved": 0, "fusion_lon": 0.0, "fusion_lat": 0.0, "name": "d571731f9fe558eaf8630a682c0deb00", "type": "electric_scooter", "is_disabled": 0, "lat": 38.9055835, "rental_uris": {"android": "https://dc.lft.to/lastmile_qr_scan", "ios": "https://dc.lft.to/lastmile_qr_scan"}, "bike_id": "d571731f9fe558eaf8630a682c0deb00", "lon": -77.00607683333334}, {"is_reserved": 0, "fusion_lon": 0.0, "fusion_lat": 0.0, "name": "ee2f5004e292923acc877b9128aaee93", "type": "electric_scooter", "is_disabled": 0, "lat": 38.902695, "rental_uris": {"android": "https://dc.lft.to/lastmile_qr_scan", "ios": "https://dc.lft.to/lastmile_qr_scan"}, "bike_id": "ee2f5004e292923acc877b9128aaee93", "lon": -76.99561183333333}, {"is_reserved": 0, "fusion_lon": 0.0, "fusion_lat": 0.0, "name": "0c60e3c1b2f3a9f9f72e026f10f00732", "type": "electric_scooter", "is_disabled": 0, "lat": 38.984607, "rental_uris": {"android": "https://dc.lft.to/lastmile_qr_scan", "ios": "https://dc.lft.to/lastmile_qr_scan"}, "bike_id": "0c60e3c1b2f3a9f9f72e026f10f00732", "lon": -77.026421}, {"is_reserved": 0, "fusion_lon": 0.0, "fusion_lat": 0.0, "name": "22d32cf5184ffda9e18fda76ecd3797b", "type": "electric_scooter", "is_disabled": 0, "lat": 38.920947, "rental_uris": {"android": "https://dc.lft.to/lastmile_qr_scan", "ios": "https://dc.lft.to/lastmile_qr_scan"}, "bike_id": "22d32cf5184ffda9e18fda76ecd3797b", "lon": -77.021934}, {"is_reserved": 0, "fusion_lon": 0.0, "fusion_lat": 0.0, "name": "f44d15337ee9a6e3775fad993d52bfae", "type": "electric_scooter", "is_disabled": 0, "lat": 38.932377833333334, "rental_uris": {"android": "https://dc.lft.to/lastmile_qr_scan", "ios": "https://dc.lft.to/lastmile_qr_scan"}, "bike_id": "f44d15337ee9a6e3775fad993d52bfae", "lon": -77.03852433333333}, {"is_reserved": 0, "fusion_lon": 0.0, "fusion_lat": 0.0, "name": "a9a87f6f220e16330d4dfdde08a356c1", "type": "electric_scooter", "is_disabled": 0, "lat": 38.91554583333333, "rental_uris": {"android": "https://dc.lft.to/lastmile_qr_scan", "ios": "https://dc.lft.to/lastmile_qr_scan"}, "bike_id": "a9a87f6f220e16330d4dfdde08a356c1", "lon": -77.02048766666667}, {"is_reserved": 0, "fusion_lon": 0.0, "fusion_lat": 0.0, "name": "6ced9b92d84903607faa89e980b104cb", "type": "electric_scooter", "is_disabled": 0, "lat": 38.921239, "rental_uris": {"android": "https://dc.lft.to/lastmile_qr_scan", "ios": "https://dc.lft.to/lastmile_qr_scan"}, "bike_id": "6ced9b92d84903607faa89e980b104cb", "lon": -77.04108266666667}, {"is_reserved": 0, "fusion_lon": 0.0, "fusion_lat": 0.0, "name": "24d31328dd1ab8fee1bbaf6453634e78", "type": "electric_scooter", "is_disabled": 0, "lat": 38.8723535, "rental_uris": {"android": "https://dc.lft.to/lastmile_qr_scan", "ios": "https://dc.lft.to/lastmile_qr_scan"}, "bike_id": "24d31328dd1ab8fee1bbaf6453634e78", "lon": -77.011702}, {"is_reserved": 0, "fusion_lon": 0.0, "fusion_lat": 0.0, "name": "78e9176d3caa883e4fafa175928f1b76", "type": "electric_scooter", "is_disabled": 0, "lat": 38.8872325, "rental_uris": {"android": "https://dc.lft.to/lastmile_qr_scan", "ios": "https://dc.lft.to/lastmile_qr_scan"}, "bike_id": "78e9176d3caa883e4fafa175928f1b76", "lon": -77.0283535}, {"is_reserved": 0, "fusion_lon": 0.0, "fusion_lat": 0.0, "name": "764e7905285bc2aea0b691edfb22bbb0", "type": "electric_scooter", "is_disabled": 0, "lat": 38.8783515, "rental_uris": {"android": "https://dc.lft.to/lastmile_qr_scan", "ios": "https://dc.lft.to/lastmile_qr_scan"}, "bike_id": "764e7905285bc2aea0b691edfb22bbb0", "lon": -76.96303716666667}, {"is_reserved": 0, "fusion_lon": 0.0, "fusion_lat": 0.0, "name": "a375791c56badca2c992dab4f6793411", "type": "electric_scooter", "is_disabled": 0, "lat": 38.8666, "rental_uris": {"android": "https://dc.lft.to/lastmile_qr_scan", "ios": "https://dc.lft.to/lastmile_qr_scan"}, "bike_id": "a375791c56badca2c992dab4f6793411", "lon": -76.98886733333333}, {"is_reserved": 0, "fusion_lon": 0.0, "fusion_lat": 0.0, "name": "a19c53cd6e882514e68a9e8cde902ac8", "type": "electric_scooter", "is_disabled": 0, "lat": 38.911026666666665, "rental_uris": {"android": "https://dc.lft.to/lastmile_qr_scan", "ios": "https://dc.lft.to/lastmile_qr_scan"}, "bike_id": "a19c53cd6e882514e68a9e8cde902ac8", "lon": -77.01982466666666}, {"is_reserved": 0, "fusion_lon": 0.0, "fusion_lat": 0.0, "name": "aec3ab4b7db47f4ce5ccf8356d3fd7a0", "type": "electric_bike", "is_disabled": 0, "lat": 38.911790833333335, "rental_uris": {"android": "https://dc.lft.to/lastmile_qr_scan", "ios": "https://dc.lft.to/lastmile_qr_scan"}, "bike_id": "aec3ab4b7db47f4ce5ccf8356d3fd7a0", "lon": -77.222774}, {"is_reserved": 0, "fusion_lon": 0.0, "fusion_lat": 0.0, "name": "3271005f5b9f73c97fe76756c2bd9445", "type": "electric_scooter", "is_disabled": 0, "lat": 38.914260166666665, "rental_uris": {"android": "https://dc.lft.to/lastmile_qr_scan", "ios": "https://dc.lft.to/lastmile_qr_scan"}, "bike_id": "3271005f5b9f73c97fe76756c2bd9445", "lon": -77.02946916666667}, {"is_reserved": 0, "fusion_lon": 0.0, "fusion_lat": 0.0, "name": "f557212a08acd6fefd40bf8ca660d183", "type": "electric_scooter", "is_disabled": 0, "lat": 38.871659666666666, "rental_uris": {"android": "https://dc.lft.to/lastmile_qr_scan", "ios": "https://dc.lft.to/lastmile_qr_scan"}, "bike_id": "f557212a08acd6fefd40bf8ca660d183", "lon": -76.97751666666667}, {"is_reserved": 0, "fusion_lon": 0.0, "fusion_lat": 0.0, "name": "a83077557299792405cd125b3010cc2c", "type": "electric_scooter", "is_disabled": 0, "lat": 38.92190433333333, "rental_uris": {"android": "https://dc.lft.to/lastmile_qr_scan", "ios": "https://dc.lft.to/lastmile_qr_scan"}, "bike_id": "a83077557299792405cd125b3010cc2c", "lon": -77.04119783333333}, {"is_reserved": 0, "fusion_lon": 0.0, "fusion_lat": 0.0, "name": "f77587067683ad4ae6e419d2bbbf9dc2", "type": "electric_scooter", "is_disabled": 0, "lat": 38.942193, "rental_uris": {"android": "https://dc.lft.to/lastmile_qr_scan", "ios": "https://dc.lft.to/lastmile_qr_scan"}, "bike_id": "f77587067683ad4ae6e419d2bbbf9dc2", "lon": -77.02505983333333}, {"is_reserved": 0, "fusion_lon": 0.0, "fusion_lat": 0.0, "name": "59a1ddff1f9a48a474b85924fd437508", "type": "electric_scooter", "is_disabled": 0, "lat": 38.9367845, "rental_uris": {"android": "https://dc.lft.to/lastmile_qr_scan", "ios": "https://dc.lft.to/lastmile_qr_scan"}, "bike_id": "59a1ddff1f9a48a474b85924fd437508", "lon": -77.03415633333333}, {"is_reserved": 0, "fusion_lon": 0.0, "fusion_lat": 0.0, "name": "ad2753fdb1d51a1d4c7e09e5839a2d13", "type": "electric_scooter", "is_disabled": 0, "lat": 38.913440666666666, "rental_uris": {"android": "https://dc.lft.to/lastmile_qr_scan", "ios": "https://dc.lft.to/lastmile_qr_scan"}, "bike_id": "ad2753fdb1d51a1d4c7e09e5839a2d13", "lon": -77.02752616666666}, {"is_reserved": 0, "fusion_lon": 0.0, "fusion_lat": 0.0, "name": "2aff8e41cbcd49bfa5a63da9ee7b8d06", "type": "electric_bike", "is_disabled": 0, "lat": 38.912687166666664, "rental_uris": {"android": "https://dc.lft.to/lastmile_qr_scan", "ios": "https://dc.lft.to/lastmile_qr_scan"}, "bike_id": "2aff8e41cbcd49bfa5a63da9ee7b8d06", "lon": -77.0121465}, {"is_reserved": 0, "fusion_lon": 0.0, "fusion_lat": 0.0, "name": "386c497fb89737f50381deea61bf1294", "type": "electric_scooter", "is_disabled": 0, "lat": 38.895591333333336, "rental_uris": {"android": "https://dc.lft.to/lastmile_qr_scan", "ios": "https://dc.lft.to/lastmile_qr_scan"}, "bike_id": "386c497fb89737f50381deea61bf1294", "lon": -76.998384}, {"is_reserved": 0, "fusion_lon": 0.0, "fusion_lat": 0.0, "name": "25111f5284d34508d222c05a607edb8f", "type": "electric_scooter", "is_disabled": 0, "lat": 38.87373133333333, "rental_uris": {"android": "https://dc.lft.to/lastmile_qr_scan", "ios": "https://dc.lft.to/lastmile_qr_scan"}, "bike_id": "25111f5284d34508d222c05a607edb8f", "lon": -76.97017516666666}, {"is_reserved": 0, "fusion_lon": 0.0, "fusion_lat": 0.0, "name": "824d36abddadb36cef59f769506c3edc", "type": "electric_scooter", "is_disabled": 0, "lat": 38.927135666666665, "rental_uris": {"android": "https://dc.lft.to/lastmile_qr_scan", "ios": "https://dc.lft.to/lastmile_qr_scan"}, "bike_id": "824d36abddadb36cef59f769506c3edc", "lon": -77.02408883333334}, {"is_reserved": 0, "fusion_lon": 0.0, "fusion_lat": 0.0, "name": "d68ed83fea99283b6d6afa23d0bd82f5", "type": "electric_scooter", "is_disabled": 0, "lat": 38.942932166666665, "rental_uris": {"android": "https://dc.lft.to/lastmile_qr_scan", "ios": "https://dc.lft.to/lastmile_qr_scan"}, "bike_id": "d68ed83fea99283b6d6afa23d0bd82f5", "lon": -77.021706}, {"is_reserved": 0, "fusion_lon": 0.0, "fusion_lat": 0.0, "name": "48f2f241fa1132b680f6ffcc9d9df8aa", "type": "electric_scooter", "is_disabled": 0, "lat": 38.90556183333333, "rental_uris": {"android": "https://dc.lft.to/lastmile_qr_scan", "ios": "https://dc.lft.to/lastmile_qr_scan"}, "bike_id": "48f2f241fa1132b680f6ffcc9d9df8aa", "lon": -77.0392245}, {"is_reserved": 0, "fusion_lon": 0.0, "fusion_lat": 0.0, "name": "b5b3defcd97adb1db5eeb05ef6eb75bb", "type": "electric_scooter", "is_disabled": 0, "lat": 38.90400116666667, "rental_uris": {"android": "https://dc.lft.to/lastmile_qr_scan", "ios": "https://dc.lft.to/lastmile_qr_scan"}, "bike_id": "b5b3defcd97adb1db5eeb05ef6eb75bb", "lon": -77.01810616666667}, {"is_reserved": 0, "fusion_lon": 0.0, "fusion_lat": 0.0, "name": "c353d871a21d28559349065e17d9f6f4", "type": "electric_scooter", "is_disabled": 0, "lat": 38.89498583333334, "rental_uris": {"android": "https://dc.lft.to/lastmile_qr_scan", "ios": "https://dc.lft.to/lastmile_qr_scan"}, "bike_id": "c353d871a21d28559349065e17d9f6f4", "lon": -77.00212216666667}, {"is_reserved": 0, "fusion_lon": 0.0, "fusion_lat": 0.0, "name": "dbbeb36cd35be2ec72cc3c12b6346f84", "type": "electric_scooter", "is_disabled": 0, "lat": 38.9345835, "rental_uris": {"android": "https://dc.lft.to/lastmile_qr_scan", "ios": "https://dc.lft.to/lastmile_qr_scan"}, "bike_id": "dbbeb36cd35be2ec72cc3c12b6346f84", "lon": -77.03084}, {"is_reserved": 0, "fusion_lon": 0.0, "fusion_lat": 0.0, "name": "78c9de268796230605b027f4077734f8", "type": "electric_scooter", "is_disabled": 0, "lat": 38.89898783333334, "rental_uris": {"android": "https://dc.lft.to/lastmile_qr_scan", "ios": "https://dc.lft.to/lastmile_qr_scan"}, "bike_id": "78c9de268796230605b027f4077734f8", "lon": -77.0317225}, {"is_reserved": 0, "fusion_lon": 0.0, "fusion_lat": 0.0, "name": "af0fa65ef87eef47d964b53c45f695d4", "type": "electric_scooter", "is_disabled": 0, "lat": 38.9593385, "rental_uris": {"android": "https://dc.lft.to/lastmile_qr_scan", "ios": "https://dc.lft.to/lastmile_qr_scan"}, "bike_id": "af0fa65ef87eef47d964b53c45f695d4", "lon": -77.031287}, {"is_reserved": 0, "fusion_lon": 0.0, "fusion_lat": 0.0, "name": "8267e1c7bda8b0c53b5380e15d6cd3e2", "type": "electric_bike", "is_disabled": 0, "lat": 38.800147, "rental_uris": {"android": "https://dc.lft.to/lastmile_qr_scan", "ios": "https://dc.lft.to/lastmile_qr_scan"}, "bike_id": "8267e1c7bda8b0c53b5380e15d6cd3e2", "lon": -77.05485016666667}, {"is_reserved": 0, "fusion_lon": 0.0, "fusion_lat": 0.0, "name": "e5aa4531d049792f5fdc2904f3a20da3", "type": "electric_scooter", "is_disabled": 0, "lat": 38.920122666666664, "rental_uris": {"android": "https://dc.lft.to/lastmile_qr_scan", "ios": "https://dc.lft.to/lastmile_qr_scan"}, "bike_id": "e5aa4531d049792f5fdc2904f3a20da3", "lon": -77.03882083333333}, {"is_reserved": 0, "fusion_lon": 0.0, "fusion_lat": 0.0, "name": "f92a0d1ce03b536664cae21a292a449e", "type": "electric_scooter", "is_disabled": 0, "lat": 38.91686816666667, "rental_uris": {"android": "https://dc.lft.to/lastmile_qr_scan", "ios": "https://dc.lft.to/lastmile_qr_scan"}, "bike_id": "f92a0d1ce03b536664cae21a292a449e", "lon": -77.02947466666667}, {"is_reserved": 0, "fusion_lon": 0.0, "fusion_lat": 0.0, "name": "451a7e6489070e57734a8d88e5e58c6f", "type": "electric_scooter", "is_disabled": 0, "lat": 38.887289833333334, "rental_uris": {"android": "https://dc.lft.to/lastmile_qr_scan", "ios": "https://dc.lft.to/lastmile_qr_scan"}, "bike_id": "451a7e6489070e57734a8d88e5e58c6f", "lon": -77.02171216666666}, {"is_reserved": 0, "fusion_lon": 0.0, "fusion_lat": 0.0, "name": "cca96e6742495f671f62be45208f3515", "type": "electric_scooter", "is_disabled": 0, "lat": 38.929485666666665, "rental_uris": {"android": "https://dc.lft.to/lastmile_qr_scan", "ios": "https://dc.lft.to/lastmile_qr_scan"}, "bike_id": "cca96e6742495f671f62be45208f3515", "lon": -77.0163855}, {"is_reserved": 0, "fusion_lon": 0.0, "fusion_lat": 0.0, "name": "bf2a5750586a3b94e5c3f4e180e09a7f", "type": "electric_scooter", "is_disabled": 0, "lat": 38.95733033333333, "rental_uris": {"android": "https://dc.lft.to/lastmile_qr_scan", "ios": "https://dc.lft.to/lastmile_qr_scan"}, "bike_id": "bf2a5750586a3b94e5c3f4e180e09a7f", "lon": -77.024005}, {"is_reserved": 0, "fusion_lon": 0.0, "fusion_lat": 0.0, "name": "15c7827f549fa6098decbaefdc75e802", "type": "electric_bike", "is_disabled": 0, "lat": 38.8799335, "rental_uris": {"android": "https://dc.lft.to/lastmile_qr_scan", "ios": "https://dc.lft.to/lastmile_qr_scan"}, "bike_id": "15c7827f549fa6098decbaefdc75e802", "lon": -76.91598683333333}, {"is_reserved": 0, "fusion_lon": 0.0, "fusion_lat": 0.0, "name": "5d05624ed239fe9b31050757e67ef021", "type": "electric_scooter", "is_disabled": 0, "lat": 38.9287555, "rental_uris": {"android": "https://dc.lft.to/lastmile_qr_scan", "ios": "https://dc.lft.to/lastmile_qr_scan"}, "bike_id": "5d05624ed239fe9b31050757e67ef021", "lon": -77.0333705}, {"is_reserved": 0, "fusion_lon": 0.0, "fusion_lat": 0.0, "name": "95dc1e9c6c482d23ea7c794745db2235", "type": "electric_scooter", "is_disabled": 0, "lat": 38.9170675, "rental_uris": {"android": "https://dc.lft.to/lastmile_qr_scan", "ios": "https://dc.lft.to/lastmile_qr_scan"}, "bike_id": "95dc1e9c6c482d23ea7c794745db2235", "lon": -77.033235}, {"is_reserved": 0, "fusion_lon": 0.0, "fusion_lat": 0.0, "name": "e10bc49bd0fb78ac4d51a5cbbe3562a7", "type": "electric_scooter", "is_disabled": 0, "lat": 38.930959666666666, "rental_uris": {"android": "https://dc.lft.to/lastmile_qr_scan", "ios": "https://dc.lft.to/lastmile_qr_scan"}, "bike_id": "e10bc49bd0fb78ac4d51a5cbbe3562a7", "lon": -77.02797183333334}, {"is_reserved": 0, "fusion_lon": 0.0, "fusion_lat": 0.0, "name": "4b78bd0aef959a2e5593077e7a981eb9", "type": "electric_scooter", "is_disabled": 0, "lat": 38.9172365, "rental_uris": {"android": "https://dc.lft.to/lastmile_qr_scan", "ios": "https://dc.lft.to/lastmile_qr_scan"}, "bike_id": "4b78bd0aef959a2e5593077e7a981eb9", "lon": -77.03657216666667}, {"is_reserved": 0, "fusion_lon": 0.0, "fusion_lat": 0.0, "name": "78cfd48248f56b790a1a2009f1a29ff6", "type": "electric_scooter", "is_disabled": 0, "lat": 38.9550335, "rental_uris": {"android": "https://dc.lft.to/lastmile_qr_scan", "ios": "https://dc.lft.to/lastmile_qr_scan"}, "bike_id": "78cfd48248f56b790a1a2009f1a29ff6", "lon": -77.02958383333333}, {"is_reserved": 0, "fusion_lon": 0.0, "fusion_lat": 0.0, "name": "3a6646b92a68be913de5492d9795b208", "type": "electric_scooter", "is_disabled": 0, "lat": 38.904288333333334, "rental_uris": {"android": "https://dc.lft.to/lastmile_qr_scan", "ios": "https://dc.lft.to/lastmile_qr_scan"}, "bike_id": "3a6646b92a68be913de5492d9795b208", "lon": -77.043356}, {"is_reserved": 0, "fusion_lon": 0.0, "fusion_lat": 0.0, "name": "1e58aebf2f9bfbd4710cc9dd94149630", "type": "electric_scooter", "is_disabled": 0, "lat": 38.9063875, "rental_uris": {"android": "https://dc.lft.to/lastmile_qr_scan", "ios": "https://dc.lft.to/lastmile_qr_scan"}, "bike_id": "1e58aebf2f9bfbd4710cc9dd94149630", "lon": -77.069032}, {"is_reserved": 0, "fusion_lon": 0.0, "fusion_lat": 0.0, "name": "022d9cec998c167e762aca2aa62ee00e", "type": "electric_scooter", "is_disabled": 0, "lat": 38.9006685, "rental_uris": {"android": "https://dc.lft.to/lastmile_qr_scan", "ios": "https://dc.lft.to/lastmile_qr_scan"}, "bike_id": "022d9cec998c167e762aca2aa62ee00e", "lon": -77.0453335}, {"is_reserved": 0, "fusion_lon": 0.0, "fusion_lat": 0.0, "name": "8676fb2c4f5b2cfbe024d8c8d77d3e80", "type": "electric_scooter", "is_disabled": 0, "lat": 38.930239666666665, "rental_uris": {"android": "https://dc.lft.to/lastmile_qr_scan", "ios": "https://dc.lft.to/lastmile_qr_scan"}, "bike_id": "8676fb2c4f5b2cfbe024d8c8d77d3e80", "lon": -77.06317716666666}, {"is_reserved": 0, "fusion_lon": 0.0, "fusion_lat": 0.0, "name": "b2f9b7bb7fb81896872ede6d220e3863", "type": "electric_bike", "is_disabled": 0, "lat": 39.0505185, "rental_uris": {"android": "https://dc.lft.to/lastmile_qr_scan", "ios": "https://dc.lft.to/lastmile_qr_scan"}, "bike_id": "b2f9b7bb7fb81896872ede6d220e3863", "lon": -77.0514645}, {"is_reserved": 0, "fusion_lon": 0.0, "fusion_lat": 0.0, "name": "539156aaddd97dbffaec2d870d9b93d4", "type": "electric_bike", "is_disabled": 0, "lat": 38.9247225, "rental_uris": {"android": "https://dc.lft.to/lastmile_qr_scan", "ios": "https://dc.lft.to/lastmile_qr_scan"}, "bike_id": "539156aaddd97dbffaec2d870d9b93d4", "lon": -77.03765366666667}, {"is_reserved": 0, "fusion_lon": 0.0, "fusion_lat": 0.0, "name": "14284a856baec5b70664b34a420ec8fa", "type": "electric_scooter", "is_disabled": 0, "lat": 38.9217925, "rental_uris": {"android": "https://dc.lft.to/lastmile_qr_scan", "ios": "https://dc.lft.to/lastmile_qr_scan"}, "bike_id": "14284a856baec5b70664b34a420ec8fa", "lon": -77.04345483333333}, {"is_reserved": 0, "fusion_lon": 0.0, "fusion_lat": 0.0, "name": "ec997ebbbb1cdb74ec6d1c60ac5b0538", "type": "electric_bike", "is_disabled": 0, "lat": 38.83234216666666, "rental_uris": {"android": "https://dc.lft.to/lastmile_qr_scan", "ios": "https://dc.lft.to/lastmile_qr_scan"}, "bike_id": "ec997ebbbb1cdb74ec6d1c60ac5b0538", "lon": -76.9462205}, {"is_reserved": 0, "fusion_lon": 0.0, "fusion_lat": 0.0, "name": "f7f4ceb9a4c0316e955d9dede4f02025", "type": "electric_scooter", "is_disabled": 0, "lat": 38.921499833333336, "rental_uris": {"android": "https://dc.lft.to/lastmile_qr_scan", "ios": "https://dc.lft.to/lastmile_qr_scan"}, "bike_id": "f7f4ceb9a4c0316e955d9dede4f02025", "lon": -77.04528183333333}, {"is_reserved": 0, "fusion_lon": 0.0, "fusion_lat": 0.0, "name": "f6c9fb6e65611430ca3c3628a5ec04f7", "type": "electric_scooter", "is_disabled": 0, "lat": 38.902179333333336, "rental_uris": {"android": "https://dc.lft.to/lastmile_qr_scan", "ios": "https://dc.lft.to/lastmile_qr_scan"}, "bike_id": "f6c9fb6e65611430ca3c3628a5ec04f7", "lon": -77.04835683333333}, {"is_reserved": 0, "fusion_lon": 0.0, "fusion_lat": 0.0, "name": "5fcb0edad97439d712488c2777b6d497", "type": "electric_scooter", "is_disabled": 0, "lat": 38.87683966666667, "rental_uris": {"android": "https://dc.lft.to/lastmile_qr_scan", "ios": "https://dc.lft.to/lastmile_qr_scan"}, "bike_id": "5fcb0edad97439d712488c2777b6d497", "lon": -77.00422583333334}, {"is_reserved": 0, "fusion_lon": 0.0, "fusion_lat": 0.0, "name": "cb1ca4375927a23de265a8123670e160", "type": "electric_scooter", "is_disabled": 0, "lat": 38.911027833333335, "rental_uris": {"android": "https://dc.lft.to/lastmile_qr_scan", "ios": "https://dc.lft.to/lastmile_qr_scan"}, "bike_id": "cb1ca4375927a23de265a8123670e160", "lon": -77.0280275}, {"is_reserved": 0, "fusion_lon": 0.0, "fusion_lat": 0.0, "name": "132814373a5414668ffa26d239d69b1e", "type": "electric_scooter", "is_disabled": 0, "lat": 38.885665833333334, "rental_uris": {"android": "https://dc.lft.to/lastmile_qr_scan", "ios": "https://dc.lft.to/lastmile_qr_scan"}, "bike_id": "132814373a5414668ffa26d239d69b1e", "lon": -76.99789033333333}, {"is_reserved": 0, "fusion_lon": 0.0, "fusion_lat": 0.0, "name": "21d7c0402839ddb19e075f88a63afc1b", "type": "electric_bike", "is_disabled": 0, "lat": 38.922090833333336, "rental_uris": {"android": "https://dc.lft.to/lastmile_qr_scan", "ios": "https://dc.lft.to/lastmile_qr_scan"}, "bike_id": "21d7c0402839ddb19e075f88a63afc1b", "lon": -76.988005}, {"is_reserved": 0, "fusion_lon": 0.0, "fusion_lat": 0.0, "name": "ff42eb0a01e36277b466e418a6e1176a", "type": "electric_scooter", "is_disabled": 0, "lat": 38.95753583333333, "rental_uris": {"android": "https://dc.lft.to/lastmile_qr_scan", "ios": "https://dc.lft.to/lastmile_qr_scan"}, "bike_id": "ff42eb0a01e36277b466e418a6e1176a", "lon": -77.02058733333334}, {"is_reserved": 0, "fusion_lon": 0.0, "fusion_lat": 0.0, "name": "74454c586a0fc9c34d4fe64c4aff2d17", "type": "electric_scooter", "is_disabled": 0, "lat": 38.8919155, "rental_uris": {"android": "https://dc.lft.to/lastmile_qr_scan", "ios": "https://dc.lft.to/lastmile_qr_scan"}, "bike_id": "74454c586a0fc9c34d4fe64c4aff2d17", "lon": -76.98855383333333}, {"is_reserved": 0, "fusion_lon": 0.0, "fusion_lat": 0.0, "name": "b9e3bb6192e56f07662dc4fc8318c308", "type": "electric_scooter", "is_disabled": 0, "lat": 38.922081, "rental_uris": {"android": "https://dc.lft.to/lastmile_qr_scan", "ios": "https://dc.lft.to/lastmile_qr_scan"}, "bike_id": "b9e3bb6192e56f07662dc4fc8318c308", "lon": -77.02030433333333}, {"is_reserved": 0, "fusion_lon": 0.0, "fusion_lat": 0.0, "name": "c9f032b800b8880d58225e1ab66bfa37", "type": "electric_scooter", "is_disabled": 0, "lat": 38.884396, "rental_uris": {"android": "https://dc.lft.to/lastmile_qr_scan", "ios": "https://dc.lft.to/lastmile_qr_scan"}, "bike_id": "c9f032b800b8880d58225e1ab66bfa37", "lon": -77.02960516666667}, {"is_reserved": 0, "fusion_lon": 0.0, "fusion_lat": 0.0, "name": "135cd9c1ddee2be35de08f13f80d70bc", "type": "electric_scooter", "is_disabled": 0, "lat": 38.930573833333334, "rental_uris": {"android": "https://dc.lft.to/lastmile_qr_scan", "ios": "https://dc.lft.to/lastmile_qr_scan"}, "bike_id": "135cd9c1ddee2be35de08f13f80d70bc", "lon": -77.02330233333333}, {"is_reserved": 0, "fusion_lon": 0.0, "fusion_lat": 0.0, "name": "f7ecbb557c0b495380108a35d4bf4336", "type": "electric_scooter", "is_disabled": 0, "lat": 38.89720716666667, "rental_uris": {"android": "https://dc.lft.to/lastmile_qr_scan", "ios": "https://dc.lft.to/lastmile_qr_scan"}, "bike_id": "f7ecbb557c0b495380108a35d4bf4336", "lon": -76.97339383333333}, {"is_reserved": 0, "fusion_lon": 0.0, "fusion_lat": 0.0, "name": "730d35de9a44c5e827c8e80c84a6e8e8", "type": "electric_scooter", "is_disabled": 0, "lat": 38.925821666666664, "rental_uris": {"android": "https://dc.lft.to/lastmile_qr_scan", "ios": "https://dc.lft.to/lastmile_qr_scan"}, "bike_id": "730d35de9a44c5e827c8e80c84a6e8e8", "lon": -77.03919783333333}, {"is_reserved": 0, "fusion_lon": 0.0, "fusion_lat": 0.0, "name": "557de139af837f0a966a17164f36310d", "type": "electric_scooter", "is_disabled": 0, "lat": 38.86663933333333, "rental_uris": {"android": "https://dc.lft.to/lastmile_qr_scan", "ios": "https://dc.lft.to/lastmile_qr_scan"}, "bike_id": "557de139af837f0a966a17164f36310d", "lon": -76.98881383333334}, {"is_reserved": 0, "fusion_lon": 0.0, "fusion_lat": 0.0, "name": "d59b77de03ee4e7b841342e48e80cd79", "type": "electric_scooter", "is_disabled": 0, "lat": 38.88274233333333, "rental_uris": {"android": "https://dc.lft.to/lastmile_qr_scan", "ios": "https://dc.lft.to/lastmile_qr_scan"}, "bike_id": "d59b77de03ee4e7b841342e48e80cd79", "lon": -76.99015833333333}, {"is_reserved": 0, "fusion_lon": 0.0, "fusion_lat": 0.0, "name": "400d72cd9236a79b17eabcd6c2746836", "type": "electric_bike", "is_disabled": 0, "lat": 38.98368216666667, "rental_uris": {"android": "https://dc.lft.to/lastmile_qr_scan", "ios": "https://dc.lft.to/lastmile_qr_scan"}, "bike_id": "400d72cd9236a79b17eabcd6c2746836", "lon": -76.97212516666667}, {"is_reserved": 0, "fusion_lon": 0.0, "fusion_lat": 0.0, "name": "8f055b7eac3db948e546d93607f92e2f", "type": "electric_scooter", "is_disabled": 0, "lat": 38.9174325, "rental_uris": {"android": "https://dc.lft.to/lastmile_qr_scan", "ios": "https://dc.lft.to/lastmile_qr_scan"}, "bike_id": "8f055b7eac3db948e546d93607f92e2f", "lon": -77.007016}, {"is_reserved": 0, "fusion_lon": 0.0, "fusion_lat": 0.0, "name": "5ad36aedb49de10393af7b59c3e00590", "type": "electric_scooter", "is_disabled": 0, "lat": 38.9078875, "rental_uris": {"android": "https://dc.lft.to/lastmile_qr_scan", "ios": "https://dc.lft.to/lastmile_qr_scan"}, "bike_id": "5ad36aedb49de10393af7b59c3e00590", "lon": -77.03863233333334}, {"is_reserved": 0, "fusion_lon": 0.0, "fusion_lat": 0.0, "name": "c4f5568fcfe948a0c3e8230d210d3d1f", "type": "electric_scooter", "is_disabled": 0, "lat": 38.88614833333333, "rental_uris": {"android": "https://dc.lft.to/lastmile_qr_scan", "ios": "https://dc.lft.to/lastmile_qr_scan"}, "bike_id": "c4f5568fcfe948a0c3e8230d210d3d1f", "lon": -76.9965335}, {"is_reserved": 0, "fusion_lon": 0.0, "fusion_lat": 0.0, "name": "a96d9ded10709c9db8ca064d8395cc63", "type": "electric_scooter", "is_disabled": 0, "lat": 38.95155316666666, "rental_uris": {"android": "https://dc.lft.to/lastmile_qr_scan", "ios": "https://dc.lft.to/lastmile_qr_scan"}, "bike_id": "a96d9ded10709c9db8ca064d8395cc63", "lon": -77.018613}, {"is_reserved": 0, "fusion_lon": 0.0, "fusion_lat": 0.0, "name": "af94b267611158dbd18487344730937d", "type": "electric_scooter", "is_disabled": 0, "lat": 38.88283116666667, "rental_uris": {"android": "https://dc.lft.to/lastmile_qr_scan", "ios": "https://dc.lft.to/lastmile_qr_scan"}, "bike_id": "af94b267611158dbd18487344730937d", "lon": -76.98777366666667}, {"is_reserved": 0, "fusion_lon": 0.0, "fusion_lat": 0.0, "name": "d7a55487ad6ca5bc0450c8d702b141dd", "type": "electric_scooter", "is_disabled": 0, "lat": 38.89808433333334, "rental_uris": {"android": "https://dc.lft.to/lastmile_qr_scan", "ios": "https://dc.lft.to/lastmile_qr_scan"}, "bike_id": "d7a55487ad6ca5bc0450c8d702b141dd", "lon": -77.0392435}, {"is_reserved": 0, "fusion_lon": 0.0, "fusion_lat": 0.0, "name": "f59b85d7e23c03739a3234c06ae115ab", "type": "electric_scooter", "is_disabled": 0, "lat": 38.92238866666667, "rental_uris": {"android": "https://dc.lft.to/lastmile_qr_scan", "ios": "https://dc.lft.to/lastmile_qr_scan"}, "bike_id": "f59b85d7e23c03739a3234c06ae115ab", "lon": -77.03751533333333}, {"is_reserved": 0, "fusion_lon": 0.0, "fusion_lat": 0.0, "name": "b24aa2975fc4dbc2599e5a388aeb7c53", "type": "electric_scooter", "is_disabled": 0, "lat": 38.923216333333336, "rental_uris": {"android": "https://dc.lft.to/lastmile_qr_scan", "ios": "https://dc.lft.to/lastmile_qr_scan"}, "bike_id": "b24aa2975fc4dbc2599e5a388aeb7c53", "lon": -77.04349133333334}, {"is_reserved": 0, "fusion_lon": 0.0, "fusion_lat": 0.0, "name": "6ec8c0ae2154274c45ce4127d3aa40f6", "type": "electric_scooter", "is_disabled": 0, "lat": 38.92151766666667, "rental_uris": {"android": "https://dc.lft.to/lastmile_qr_scan", "ios": "https://dc.lft.to/lastmile_qr_scan"}, "bike_id": "6ec8c0ae2154274c45ce4127d3aa40f6", "lon": -77.02078866666666}, {"is_reserved": 0, "fusion_lon": 0.0, "fusion_lat": 0.0, "name": "61c3f84aeb7ded64eff5409068b4bea4", "type": "electric_scooter", "is_disabled": 0, "lat": 38.91692466666667, "rental_uris": {"android": "https://dc.lft.to/lastmile_qr_scan", "ios": "https://dc.lft.to/lastmile_qr_scan"}, "bike_id": "61c3f84aeb7ded64eff5409068b4bea4", "lon": -77.02933833333333}, {"is_reserved": 0, "fusion_lon": 0.0, "fusion_lat": 0.0, "name": "56c24b08f76c23af72e809492d0a6c60", "type": "electric_scooter", "is_disabled": 0, "lat": 38.913371833333336, "rental_uris": {"android": "https://dc.lft.to/lastmile_qr_scan", "ios": "https://dc.lft.to/lastmile_qr_scan"}, "bike_id": "56c24b08f76c23af72e809492d0a6c60", "lon": -77.01028983333333}, {"is_reserved": 0, "fusion_lon": 0.0, "fusion_lat": 0.0, "name": "0d10f54b3f4d38791e277db5992ed5dc", "type": "electric_scooter", "is_disabled": 0, "lat": 38.9205555, "rental_uris": {"android": "https://dc.lft.to/lastmile_qr_scan", "ios": "https://dc.lft.to/lastmile_qr_scan"}, "bike_id": "0d10f54b3f4d38791e277db5992ed5dc", "lon": -77.02367616666666}, {"is_reserved": 0, "fusion_lon": 0.0, "fusion_lat": 0.0, "name": "5c04163e2952ceb2164cddbf3c900434", "type": "electric_bike", "is_disabled": 0, "lat": 38.94552083333333, "rental_uris": {"android": "https://dc.lft.to/lastmile_qr_scan", "ios": "https://dc.lft.to/lastmile_qr_scan"}, "bike_id": "5c04163e2952ceb2164cddbf3c900434", "lon": -76.8953335}, {"is_reserved": 0, "fusion_lon": 0.0, "fusion_lat": 0.0, "name": "3f46cafcaee3f3deabb13ffdb42a31aa", "type": "electric_scooter", "is_disabled": 0, "lat": 38.9186815, "rental_uris": {"android": "https://dc.lft.to/lastmile_qr_scan", "ios": "https://dc.lft.to/lastmile_qr_scan"}, "bike_id": "3f46cafcaee3f3deabb13ffdb42a31aa", "lon": -77.02549366666666}, {"is_reserved": 0, "fusion_lon": 0.0, "fusion_lat": 0.0, "name": "957633e1c838d28ae239a12b0eaae43c", "type": "electric_scooter", "is_disabled": 0, "lat": 38.934915, "rental_uris": {"android": "https://dc.lft.to/lastmile_qr_scan", "ios": "https://dc.lft.to/lastmile_qr_scan"}, "bike_id": "957633e1c838d28ae239a12b0eaae43c", "lon": -77.036535}, {"is_reserved": 0, "fusion_lon": 0.0, "fusion_lat": 0.0, "name": "7934d3864dad4b1c72c9d7f79a85ec20", "type": "electric_scooter", "is_disabled": 0, "lat": 38.942599666666666, "rental_uris": {"android": "https://dc.lft.to/lastmile_qr_scan", "ios": "https://dc.lft.to/lastmile_qr_scan"}, "bike_id": "7934d3864dad4b1c72c9d7f79a85ec20", "lon": -77.02842}, {"is_reserved": 0, "fusion_lon": 0.0, "fusion_lat": 0.0, "name": "bdc352c26309309cac9ab88dfee74615", "type": "electric_bike", "is_disabled": 0, "lat": 38.936143, "rental_uris": {"android": "https://dc.lft.to/lastmile_qr_scan", "ios": "https://dc.lft.to/lastmile_qr_scan"}, "bike_id": "bdc352c26309309cac9ab88dfee74615", "lon": -77.037247}, {"is_reserved": 0, "fusion_lon": 0.0, "fusion_lat": 0.0, "name": "fb8dc77805607e4a8ec5d9f01e3c7a3b", "type": "electric_scooter", "is_disabled": 0, "lat": 38.92229416666667, "rental_uris": {"android": "https://dc.lft.to/lastmile_qr_scan", "ios": "https://dc.lft.to/lastmile_qr_scan"}, "bike_id": "fb8dc77805607e4a8ec5d9f01e3c7a3b", "lon": -77.04235666666666}, {"is_reserved": 0, "fusion_lon": 0.0, "fusion_lat": 0.0, "name": "938e7bd154cd8f63585c3a3890cbf419", "type": "electric_scooter", "is_disabled": 0, "lat": 38.93024033333333, "rental_uris": {"android": "https://dc.lft.to/lastmile_qr_scan", "ios": "https://dc.lft.to/lastmile_qr_scan"}, "bike_id": "938e7bd154cd8f63585c3a3890cbf419", "lon": -77.055289}, {"is_reserved": 0, "fusion_lon": 0.0, "fusion_lat": 0.0, "name": "0662d92f01ac39537d9785a61ea1de09", "type": "electric_bike", "is_disabled": 0, "lat": 38.993478333333336, "rental_uris": {"android": "https://dc.lft.to/lastmile_qr_scan", "ios": "https://dc.lft.to/lastmile_qr_scan"}, "bike_id": "0662d92f01ac39537d9785a61ea1de09", "lon": -77.11570916666666}, {"is_reserved": 0, "fusion_lon": 0.0, "fusion_lat": 0.0, "name": "c22909692457e793ff98a6abaafa93f5", "type": "electric_scooter", "is_disabled": 0, "lat": 38.89994033333333, "rental_uris": {"android": "https://dc.lft.to/lastmile_qr_scan", "ios": "https://dc.lft.to/lastmile_qr_scan"}, "bike_id": "c22909692457e793ff98a6abaafa93f5", "lon": -77.03172483333333}, {"is_reserved": 0, "fusion_lon": 0.0, "fusion_lat": 0.0, "name": "7581fccd9c0c2beadc72495ebc70913f", "type": "electric_bike", "is_disabled": 0, "lat": 38.84561083333333, "rental_uris": {"android": "https://dc.lft.to/lastmile_qr_scan", "ios": "https://dc.lft.to/lastmile_qr_scan"}, "bike_id": "7581fccd9c0c2beadc72495ebc70913f", "lon": -77.06693616666666}, {"is_reserved": 0, "fusion_lon": 0.0, "fusion_lat": 0.0, "name": "23c93592efd0db6dc679b97cdbcb5ccb", "type": "electric_scooter", "is_disabled": 0, "lat": 38.866571, "rental_uris": {"android": "https://dc.lft.to/lastmile_qr_scan", "ios": "https://dc.lft.to/lastmile_qr_scan"}, "bike_id": "23c93592efd0db6dc679b97cdbcb5ccb", "lon": -76.98528683333333}, {"is_reserved": 0, "fusion_lon": 0.0, "fusion_lat": 0.0, "name": "b80889a35de54834dd88b65754ff234b", "type": "electric_scooter", "is_disabled": 0, "lat": 38.90454233333333, "rental_uris": {"android": "https://dc.lft.to/lastmile_qr_scan", "ios": "https://dc.lft.to/lastmile_qr_scan"}, "bike_id": "b80889a35de54834dd88b65754ff234b", "lon": -77.04800033333333}, {"is_reserved": 0, "fusion_lon": 0.0, "fusion_lat": 0.0, "name": "40b38ba666a8ac9327815af22d3fd02d", "type": "electric_bike", "is_disabled": 0, "lat": 38.91018616666667, "rental_uris": {"android": "https://dc.lft.to/lastmile_qr_scan", "ios": "https://dc.lft.to/lastmile_qr_scan"}, "bike_id": "40b38ba666a8ac9327815af22d3fd02d", "lon": -77.22800783333334}, {"is_reserved": 0, "fusion_lon": 0.0, "fusion_lat": 0.0, "name": "a690878c44d0355474d7c83e3e81a29b", "type": "electric_bike", "is_disabled": 0, "lat": 38.96139466666666, "rental_uris": {"android": "https://dc.lft.to/lastmile_qr_scan", "ios": "https://dc.lft.to/lastmile_qr_scan"}, "bike_id": "a690878c44d0355474d7c83e3e81a29b", "lon": -77.02293833333333}, {"is_reserved": 0, "fusion_lon": 0.0, "fusion_lat": 0.0, "name": "d8bbfbffbd9e0f582bc3870d3f8042df", "type": "electric_scooter", "is_disabled": 0, "lat": 38.93541166666667, "rental_uris": {"android": "https://dc.lft.to/lastmile_qr_scan", "ios": "https://dc.lft.to/lastmile_qr_scan"}, "bike_id": "d8bbfbffbd9e0f582bc3870d3f8042df", "lon": -77.02344566666666}, {"is_reserved": 0, "fusion_lon": 0.0, "fusion_lat": 0.0, "name": "b60bf3c0e5a220c8613afacf2caa93d3", "type": "electric_scooter", "is_disabled": 0, "lat": 38.874904666666666, "rental_uris": {"android": "https://dc.lft.to/lastmile_qr_scan", "ios": "https://dc.lft.to/lastmile_qr_scan"}, "bike_id": "b60bf3c0e5a220c8613afacf2caa93d3", "lon": -76.99973333333334}, {"is_reserved": 0, "fusion_lon": 0.0, "fusion_lat": 0.0, "name": "b4600c42b24b2810ee54209ec7f19113", "type": "electric_bike", "is_disabled": 0, "lat": 38.95173333333334, "rental_uris": {"android": "https://dc.lft.to/lastmile_qr_scan", "ios": "https://dc.lft.to/lastmile_qr_scan"}, "bike_id": "b4600c42b24b2810ee54209ec7f19113", "lon": -76.96389116666667}, {"is_reserved": 0, "fusion_lon": 0.0, "fusion_lat": 0.0, "name": "ddd7891789e18fe5e3e56d0afc9376fa", "type": "electric_scooter", "is_disabled": 0, "lat": 38.923126833333335, "rental_uris": {"android": "https://dc.lft.to/lastmile_qr_scan", "ios": "https://dc.lft.to/lastmile_qr_scan"}, "bike_id": "ddd7891789e18fe5e3e56d0afc9376fa", "lon": -77.0275525}, {"is_reserved": 0, "fusion_lon": 0.0, "fusion_lat": 0.0, "name": "de69ad633bf365f1d8c488fec6f2082b", "type": "electric_scooter", "is_disabled": 0, "lat": 38.8872755, "rental_uris": {"android": "https://dc.lft.to/lastmile_qr_scan", "ios": "https://dc.lft.to/lastmile_qr_scan"}, "bike_id": "de69ad633bf365f1d8c488fec6f2082b", "lon": -77.02825016666667}, {"is_reserved": 0, "fusion_lon": 0.0, "fusion_lat": 0.0, "name": "f194f8f46a6f29dc407dab70a6522614", "type": "electric_scooter", "is_disabled": 0, "lat": 38.90372216666667, "rental_uris": {"android": "https://dc.lft.to/lastmile_qr_scan", "ios": "https://dc.lft.to/lastmile_qr_scan"}, "bike_id": "f194f8f46a6f29dc407dab70a6522614", "lon": -77.044666}, {"is_reserved": 0, "fusion_lon": 0.0, "fusion_lat": 0.0, "name": "49140da20663b77ab0061bcc7c9799a7", "type": "electric_scooter", "is_disabled": 0, "lat": 38.8654185, "rental_uris": {"android": "https://dc.lft.to/lastmile_qr_scan", "ios": "https://dc.lft.to/lastmile_qr_scan"}, "bike_id": "49140da20663b77ab0061bcc7c9799a7", "lon": -76.98705516666666}, {"is_reserved": 0, "fusion_lon": 0.0, "fusion_lat": 0.0, "name": "2704c7a69bcbc7c73ae248733e0f03e8", "type": "electric_scooter", "is_disabled": 0, "lat": 38.94210283333334, "rental_uris": {"android": "https://dc.lft.to/lastmile_qr_scan", "ios": "https://dc.lft.to/lastmile_qr_scan"}, "bike_id": "2704c7a69bcbc7c73ae248733e0f03e8", "lon": -77.0251115}, {"is_reserved": 0, "fusion_lon": 0.0, "fusion_lat": 0.0, "name": "2b234f526fa73ebb7655def902d99811", "type": "electric_scooter", "is_disabled": 0, "lat": 38.90733916666667, "rental_uris": {"android": "https://dc.lft.to/lastmile_qr_scan", "ios": "https://dc.lft.to/lastmile_qr_scan"}, "bike_id": "2b234f526fa73ebb7655def902d99811", "lon": -77.01133283333333}, {"is_reserved": 0, "fusion_lon": 0.0, "fusion_lat": 0.0, "name": "f426ce902e7cb091c2d3dbc1bee97bbd", "type": "electric_bike", "is_disabled": 0, "lat": 38.8799135, "rental_uris": {"android": "https://dc.lft.to/lastmile_qr_scan", "ios": "https://dc.lft.to/lastmile_qr_scan"}, "bike_id": "f426ce902e7cb091c2d3dbc1bee97bbd", "lon": -76.98471}, {"is_reserved": 0, "fusion_lon": 0.0, "fusion_lat": 0.0, "name": "b52c7cb290b95233fd0ca904f00a32d4", "type": "electric_scooter", "is_disabled": 0, "lat": 38.86701766666667, "rental_uris": {"android": "https://dc.lft.to/lastmile_qr_scan", "ios": "https://dc.lft.to/lastmile_qr_scan"}, "bike_id": "b52c7cb290b95233fd0ca904f00a32d4", "lon": -76.98592816666667}, {"is_reserved": 0, "fusion_lon": 0.0, "fusion_lat": 0.0, "name": "05c85131b35a4002e462cf9ba065a84f", "type": "electric_scooter", "is_disabled": 0, "lat": 38.91857866666667, "rental_uris": {"android": "https://dc.lft.to/lastmile_qr_scan", "ios": "https://dc.lft.to/lastmile_qr_scan"}, "bike_id": "05c85131b35a4002e462cf9ba065a84f", "lon": -77.0166085}, {"is_reserved": 0, "fusion_lon": 0.0, "fusion_lat": 0.0, "name": "1c9aa7c35419268d0f38f811d2f7bac4", "type": "electric_scooter", "is_disabled": 0, "lat": 38.91562283333333, "rental_uris": {"android": "https://dc.lft.to/lastmile_qr_scan", "ios": "https://dc.lft.to/lastmile_qr_scan"}, "bike_id": "1c9aa7c35419268d0f38f811d2f7bac4", "lon": -77.031709}, {"is_reserved": 0, "fusion_lon": 0.0, "fusion_lat": 0.0, "name": "ececbf8642615a0c3944fad01c821790", "type": "electric_scooter", "is_disabled": 0, "lat": 38.9245025, "rental_uris": {"android": "https://dc.lft.to/lastmile_qr_scan", "ios": "https://dc.lft.to/lastmile_qr_scan"}, "bike_id": "ececbf8642615a0c3944fad01c821790", "lon": -77.0411025}, {"is_reserved": 0, "fusion_lon": 0.0, "fusion_lat": 0.0, "name": "fd396b85c69f47cb0a43935dd2e1a5c0", "type": "electric_scooter", "is_disabled": 0, "lat": 38.89746383333333, "rental_uris": {"android": "https://dc.lft.to/lastmile_qr_scan", "ios": "https://dc.lft.to/lastmile_qr_scan"}, "bike_id": "fd396b85c69f47cb0a43935dd2e1a5c0", "lon": -76.99573583333333}, {"is_reserved": 0, "fusion_lon": 0.0, "fusion_lat": 0.0, "name": "ae15b8229d5ce1645f1b90bbc072aabc", "type": "electric_bike", "is_disabled": 0, "lat": 38.8727915, "rental_uris": {"android": "https://dc.lft.to/lastmile_qr_scan", "ios": "https://dc.lft.to/lastmile_qr_scan"}, "bike_id": "ae15b8229d5ce1645f1b90bbc072aabc", "lon": -77.23317016666667}, {"is_reserved": 0, "fusion_lon": 0.0, "fusion_lat": 0.0, "name": "3571434e31a9500d25635af7a0e0a684", "type": "electric_scooter", "is_disabled": 0, "lat": 38.90796383333333, "rental_uris": {"android": "https://dc.lft.to/lastmile_qr_scan", "ios": "https://dc.lft.to/lastmile_qr_scan"}, "bike_id": "3571434e31a9500d25635af7a0e0a684", "lon": -77.03864433333334}, {"is_reserved": 0, "fusion_lon": 0.0, "fusion_lat": 0.0, "name": "720e6efc226c20c09706cfe175c9eceb", "type": "electric_bike", "is_disabled": 0, "lat": 38.8278885, "rental_uris": {"android": "https://dc.lft.to/lastmile_qr_scan", "ios": "https://dc.lft.to/lastmile_qr_scan"}, "bike_id": "720e6efc226c20c09706cfe175c9eceb", "lon": -77.00909033333333}, {"is_reserved": 0, "fusion_lon": 0.0, "fusion_lat": 0.0, "name": "451b73b2d77235c6e1763ed16b095172", "type": "electric_scooter", "is_disabled": 0, "lat": 38.90745366666667, "rental_uris": {"android": "https://dc.lft.to/lastmile_qr_scan", "ios": "https://dc.lft.to/lastmile_qr_scan"}, "bike_id": "451b73b2d77235c6e1763ed16b095172", "lon": -77.04191}, {"is_reserved": 0, "fusion_lon": 0.0, "fusion_lat": 0.0, "name": "7970d62ebd34abc1b43313b8801217a4", "type": "electric_scooter", "is_disabled": 0, "lat": 38.911972166666665, "rental_uris": {"android": "https://dc.lft.to/lastmile_qr_scan", "ios": "https://dc.lft.to/lastmile_qr_scan"}, "bike_id": "7970d62ebd34abc1b43313b8801217a4", "lon": -77.030207}, {"is_reserved": 0, "fusion_lon": 0.0, "fusion_lat": 0.0, "name": "104f22edd7248bb9c714c0dbd57f3b7f", "type": "electric_scooter", "is_disabled": 0, "lat": 38.91890466666667, "rental_uris": {"android": "https://dc.lft.to/lastmile_qr_scan", "ios": "https://dc.lft.to/lastmile_qr_scan"}, "bike_id": "104f22edd7248bb9c714c0dbd57f3b7f", "lon": -77.0350375}, {"is_reserved": 0, "fusion_lon": 0.0, "fusion_lat": 0.0, "name": "869b1ac55e2f3bd2bb849850a5cf96ae", "type": "electric_scooter", "is_disabled": 0, "lat": 38.879907833333334, "rental_uris": {"android": "https://dc.lft.to/lastmile_qr_scan", "ios": "https://dc.lft.to/lastmile_qr_scan"}, "bike_id": "869b1ac55e2f3bd2bb849850a5cf96ae", "lon": -77.0152975}, {"is_reserved": 0, "fusion_lon": 0.0, "fusion_lat": 0.0, "name": "c6ba047afc02622c9c71f021483b4bdd", "type": "electric_scooter", "is_disabled": 0, "lat": 38.903756666666666, "rental_uris": {"android": "https://dc.lft.to/lastmile_qr_scan", "ios": "https://dc.lft.to/lastmile_qr_scan"}, "bike_id": "c6ba047afc02622c9c71f021483b4bdd", "lon": -77.0099115}, {"is_reserved": 0, "fusion_lon": 0.0, "fusion_lat": 0.0, "name": "be037d9d29d2cc83d16ce0ff158c40b0", "type": "electric_scooter", "is_disabled": 0, "lat": 38.905106333333336, "rental_uris": {"android": "https://dc.lft.to/lastmile_qr_scan", "ios": "https://dc.lft.to/lastmile_qr_scan"}, "bike_id": "be037d9d29d2cc83d16ce0ff158c40b0", "lon": -76.98479766666667}, {"is_reserved": 0, "fusion_lon": 0.0, "fusion_lat": 0.0, "name": "3b5b941ab4ff25b2aa2b9546de4311a9", "type": "electric_scooter", "is_disabled": 0, "lat": 38.90945283333333, "rental_uris": {"android": "https://dc.lft.to/lastmile_qr_scan", "ios": "https://dc.lft.to/lastmile_qr_scan"}, "bike_id": "3b5b941ab4ff25b2aa2b9546de4311a9", "lon": -77.045685}, {"is_reserved": 0, "fusion_lon": 0.0, "fusion_lat": 0.0, "name": "fb0398311e49938f9d150bce7ba04b9d", "type": "electric_scooter", "is_disabled": 0, "lat": 38.921622, "rental_uris": {"android": "https://dc.lft.to/lastmile_qr_scan", "ios": "https://dc.lft.to/lastmile_qr_scan"}, "bike_id": "fb0398311e49938f9d150bce7ba04b9d", "lon": -77.03385116666666}, {"is_reserved": 0, "fusion_lon": 0.0, "fusion_lat": 0.0, "name": "6ffe7311b84052976e7b1512e3cdd8d6", "type": "electric_scooter", "is_disabled": 0, "lat": 38.905064333333335, "rental_uris": {"android": "https://dc.lft.to/lastmile_qr_scan", "ios": "https://dc.lft.to/lastmile_qr_scan"}, "bike_id": "6ffe7311b84052976e7b1512e3cdd8d6", "lon": -77.05794316666666}, {"is_reserved": 0, "fusion_lon": 0.0, "fusion_lat": 0.0, "name": "2a9301d50dd90d9aa54435207961892e", "type": "electric_scooter", "is_disabled": 0, "lat": 38.896427333333335, "rental_uris": {"android": "https://dc.lft.to/lastmile_qr_scan", "ios": "https://dc.lft.to/lastmile_qr_scan"}, "bike_id": "2a9301d50dd90d9aa54435207961892e", "lon": -77.021832}, {"is_reserved": 0, "fusion_lon": 0.0, "fusion_lat": 0.0, "name": "f05684289307772898c929cf0eff5d9f", "type": "electric_scooter", "is_disabled": 0, "lat": 38.926670333333334, "rental_uris": {"android": "https://dc.lft.to/lastmile_qr_scan", "ios": "https://dc.lft.to/lastmile_qr_scan"}, "bike_id": "f05684289307772898c929cf0eff5d9f", "lon": -77.02275216666666}, {"is_reserved": 0, "fusion_lon": 0.0, "fusion_lat": 0.0, "name": "d00a86ad767510b0cb8c8d2b28a813d3", "type": "electric_bike", "is_disabled": 0, "lat": 38.812042, "rental_uris": {"android": "https://dc.lft.to/lastmile_qr_scan", "ios": "https://dc.lft.to/lastmile_qr_scan"}, "bike_id": "d00a86ad767510b0cb8c8d2b28a813d3", "lon": -77.10840683333333}, {"is_reserved": 0, "fusion_lon": 0.0, "fusion_lat": 0.0, "name": "90166d5b9062957a0ac67cd93b6574c9", "type": "electric_scooter", "is_disabled": 0, "lat": 38.893147666666664, "rental_uris": {"android": "https://dc.lft.to/lastmile_qr_scan", "ios": "https://dc.lft.to/lastmile_qr_scan"}, "bike_id": "90166d5b9062957a0ac67cd93b6574c9", "lon": -76.92884483333333}, {"is_reserved": 0, "fusion_lon": 0.0, "fusion_lat": 0.0, "name": "9cccccc0b5cdd9b5a4f327880db4e4ee", "type": "electric_scooter", "is_disabled": 0, "lat": 38.916621166666665, "rental_uris": {"android": "https://dc.lft.to/lastmile_qr_scan", "ios": "https://dc.lft.to/lastmile_qr_scan"}, "bike_id": "9cccccc0b5cdd9b5a4f327880db4e4ee", "lon": -77.03854216666667}, {"is_reserved": 0, "fusion_lon": 0.0, "fusion_lat": 0.0, "name": "9c7064e147d44b275fd7cfa9bd48d4dc", "type": "electric_bike", "is_disabled": 0, "lat": 38.94898333333333, "rental_uris": {"android": "https://dc.lft.to/lastmile_qr_scan", "ios": "https://dc.lft.to/lastmile_qr_scan"}, "bike_id": "9c7064e147d44b275fd7cfa9bd48d4dc", "lon": -77.034448}, {"is_reserved": 0, "fusion_lon": 0.0, "fusion_lat": 0.0, "name": "25ce32817978e2cd8d6e32c85e3fa157", "type": "electric_scooter", "is_disabled": 0, "lat": 38.901462333333335, "rental_uris": {"android": "https://dc.lft.to/lastmile_qr_scan", "ios": "https://dc.lft.to/lastmile_qr_scan"}, "bike_id": "25ce32817978e2cd8d6e32c85e3fa157", "lon": -77.03998516666667}, {"is_reserved": 0, "fusion_lon": 0.0, "fusion_lat": 0.0, "name": "14bcc5a6e60956eb8f7689901ebc2aa4", "type": "electric_bike", "is_disabled": 0, "lat": 38.9646635, "rental_uris": {"android": "https://dc.lft.to/lastmile_qr_scan", "ios": "https://dc.lft.to/lastmile_qr_scan"}, "bike_id": "14bcc5a6e60956eb8f7689901ebc2aa4", "lon": -77.03568566666667}, {"is_reserved": 0, "fusion_lon": 0.0, "fusion_lat": 0.0, "name": "e40dbf095c1dc9d42e18b2c9b146a3ff", "type": "electric_scooter", "is_disabled": 0, "lat": 38.901881333333336, "rental_uris": {"android": "https://dc.lft.to/lastmile_qr_scan", "ios": "https://dc.lft.to/lastmile_qr_scan"}, "bike_id": "e40dbf095c1dc9d42e18b2c9b146a3ff", "lon": -77.01303233333333}, {"is_reserved": 0, "fusion_lon": 0.0, "fusion_lat": 0.0, "name": "276c34483df8d02e8f61d7847fce6ea5", "type": "electric_scooter", "is_disabled": 0, "lat": 38.9128575, "rental_uris": {"android": "https://dc.lft.to/lastmile_qr_scan", "ios": "https://dc.lft.to/lastmile_qr_scan"}, "bike_id": "276c34483df8d02e8f61d7847fce6ea5", "lon": -77.03194683333334}, {"is_reserved": 0, "fusion_lon": 0.0, "fusion_lat": 0.0, "name": "f2e46eecfa888e8e4db0e6f1e3f9b4bf", "type": "electric_scooter", "is_disabled": 0, "lat": 38.90413066666667, "rental_uris": {"android": "https://dc.lft.to/lastmile_qr_scan", "ios": "https://dc.lft.to/lastmile_qr_scan"}, "bike_id": "f2e46eecfa888e8e4db0e6f1e3f9b4bf", "lon": -76.97328033333334}, {"is_reserved": 0, "fusion_lon": 0.0, "fusion_lat": 0.0, "name": "e7553ad17438fd721a3a1cdfe505f050", "type": "electric_scooter", "is_disabled": 0, "lat": 38.918425166666665, "rental_uris": {"android": "https://dc.lft.to/lastmile_qr_scan", "ios": "https://dc.lft.to/lastmile_qr_scan"}, "bike_id": "e7553ad17438fd721a3a1cdfe505f050", "lon": -77.05945683333333}, {"is_reserved": 0, "fusion_lon": 0.0, "fusion_lat": 0.0, "name": "920c33879e015e1ffbba3827c34105e1", "type": "electric_scooter", "is_disabled": 0, "lat": 38.889633333333336, "rental_uris": {"android": "https://dc.lft.to/lastmile_qr_scan", "ios": "https://dc.lft.to/lastmile_qr_scan"}, "bike_id": "920c33879e015e1ffbba3827c34105e1", "lon": -76.93707416666666}, {"is_reserved": 0, "fusion_lon": 0.0, "fusion_lat": 0.0, "name": "cbe4aaec2603ac32015f260f8510fe3b", "type": "electric_scooter", "is_disabled": 0, "lat": 38.883916, "rental_uris": {"android": "https://dc.lft.to/lastmile_qr_scan", "ios": "https://dc.lft.to/lastmile_qr_scan"}, "bike_id": "cbe4aaec2603ac32015f260f8510fe3b", "lon": -77.02574233333333}, {"is_reserved": 0, "fusion_lon": 0.0, "fusion_lat": 0.0, "name": "f66b61969f74c46724a098e091a5d9bc", "type": "electric_scooter", "is_disabled": 0, "lat": 38.923264, "rental_uris": {"android": "https://dc.lft.to/lastmile_qr_scan", "ios": "https://dc.lft.to/lastmile_qr_scan"}, "bike_id": "f66b61969f74c46724a098e091a5d9bc", "lon": -77.03544233333334}, {"is_reserved": 0, "fusion_lon": 0.0, "fusion_lat": 0.0, "name": "f3f00e2b9eb5c43ca2dcdbf4b8e93064", "type": "electric_bike", "is_disabled": 0, "lat": 38.93698966666667, "rental_uris": {"android": "https://dc.lft.to/lastmile_qr_scan", "ios": "https://dc.lft.to/lastmile_qr_scan"}, "bike_id": "f3f00e2b9eb5c43ca2dcdbf4b8e93064", "lon": -77.02977783333333}, {"is_reserved": 0, "fusion_lon": 0.0, "fusion_lat": 0.0, "name": "ed551acd9c4029bdc014ac5b3cc0f5af", "type": "electric_scooter", "is_disabled": 0, "lat": 38.895049, "rental_uris": {"android": "https://dc.lft.to/lastmile_qr_scan", "ios": "https://dc.lft.to/lastmile_qr_scan"}, "bike_id": "ed551acd9c4029bdc014ac5b3cc0f5af", "lon": -77.02320616666667}, {"is_reserved": 0, "fusion_lon": 0.0, "fusion_lat": 0.0, "name": "5d1dc725ab62b35029e8ff3d8668100f", "type": "electric_scooter", "is_disabled": 0, "lat": 38.89222083333333, "rental_uris": {"android": "https://dc.lft.to/lastmile_qr_scan", "ios": "https://dc.lft.to/lastmile_qr_scan"}, "bike_id": "5d1dc725ab62b35029e8ff3d8668100f", "lon": -77.03160533333333}, {"is_reserved": 0, "fusion_lon": 0.0, "fusion_lat": 0.0, "name": "7f3ac00b9db7ac5cbb5401cf9343eb0e", "type": "electric_scooter", "is_disabled": 0, "lat": 38.915235, "rental_uris": {"android": "https://dc.lft.to/lastmile_qr_scan", "ios": "https://dc.lft.to/lastmile_qr_scan"}, "bike_id": "7f3ac00b9db7ac5cbb5401cf9343eb0e", "lon": -77.0446425}, {"is_reserved": 0, "fusion_lon": 0.0, "fusion_lat": 0.0, "name": "b5041bc5ef4bf0a2774cdf4a75a1d341", "type": "electric_scooter", "is_disabled": 0, "lat": 38.97225066666667, "rental_uris": {"android": "https://dc.lft.to/lastmile_qr_scan", "ios": "https://dc.lft.to/lastmile_qr_scan"}, "bike_id": "b5041bc5ef4bf0a2774cdf4a75a1d341", "lon": -77.026386}, {"is_reserved": 0, "fusion_lon": 0.0, "fusion_lat": 0.0, "name": "695391ce194807560aab4906ecd1cdd0", "type": "electric_bike", "is_disabled": 0, "lat": 38.8824695, "rental_uris": {"android": "https://dc.lft.to/lastmile_qr_scan", "ios": "https://dc.lft.to/lastmile_qr_scan"}, "bike_id": "695391ce194807560aab4906ecd1cdd0", "lon": -76.96258416666667}, {"is_reserved": 0, "fusion_lon": 0.0, "fusion_lat": 0.0, "name": "79864f76ee7c35d7ac40987730cbef70", "type": "electric_scooter", "is_disabled": 0, "lat": 38.864098, "rental_uris": {"android": "https://dc.lft.to/lastmile_qr_scan", "ios": "https://dc.lft.to/lastmile_qr_scan"}, "bike_id": "79864f76ee7c35d7ac40987730cbef70", "lon": -76.99134566666666}, {"is_reserved": 0, "fusion_lon": 0.0, "fusion_lat": 0.0, "name": "c1c6511aa2c09e30e60e3f6a59f30aad", "type": "electric_bike", "is_disabled": 0, "lat": 38.940959, "rental_uris": {"android": "https://dc.lft.to/lastmile_qr_scan", "ios": "https://dc.lft.to/lastmile_qr_scan"}, "bike_id": "c1c6511aa2c09e30e60e3f6a59f30aad", "lon": -77.03282233333333}, {"is_reserved": 0, "fusion_lon": 0.0, "fusion_lat": 0.0, "name": "54a63486147b98781d3bff4f2ea2dc12", "type": "electric_scooter", "is_disabled": 0, "lat": 38.907854666666665, "rental_uris": {"android": "https://dc.lft.to/lastmile_qr_scan", "ios": "https://dc.lft.to/lastmile_qr_scan"}, "bike_id": "54a63486147b98781d3bff4f2ea2dc12", "lon": -77.01107}, {"is_reserved": 0, "fusion_lon": 0.0, "fusion_lat": 0.0, "name": "c58e1bb521fca05ab81e353a58c96c9d", "type": "electric_scooter", "is_disabled": 0, "lat": 38.87645966666667, "rental_uris": {"android": "https://dc.lft.to/lastmile_qr_scan", "ios": "https://dc.lft.to/lastmile_qr_scan"}, "bike_id": "c58e1bb521fca05ab81e353a58c96c9d", "lon": -77.005256}, {"is_reserved": 0, "fusion_lon": 0.0, "fusion_lat": 0.0, "name": "5928dda1f7f8817f1024860566b8ad37", "type": "electric_scooter", "is_disabled": 0, "lat": 38.887415833333336, "rental_uris": {"android": "https://dc.lft.to/lastmile_qr_scan", "ios": "https://dc.lft.to/lastmile_qr_scan"}, "bike_id": "5928dda1f7f8817f1024860566b8ad37", "lon": -77.02383933333333}, {"is_reserved": 0, "fusion_lon": 0.0, "fusion_lat": 0.0, "name": "035ae3691b2848a5c2938cbaafe1b0d6", "type": "electric_scooter", "is_disabled": 0, "lat": 38.9073835, "rental_uris": {"android": "https://dc.lft.to/lastmile_qr_scan", "ios": "https://dc.lft.to/lastmile_qr_scan"}, "bike_id": "035ae3691b2848a5c2938cbaafe1b0d6", "lon": -77.02960833333333}, {"is_reserved": 0, "fusion_lon": 0.0, "fusion_lat": 0.0, "name": "9d4df87570d39b3c0515ad8d82ca41cd", "type": "electric_scooter", "is_disabled": 0, "lat": 38.910337166666665, "rental_uris": {"android": "https://dc.lft.to/lastmile_qr_scan", "ios": "https://dc.lft.to/lastmile_qr_scan"}, "bike_id": "9d4df87570d39b3c0515ad8d82ca41cd", "lon": -77.03439766666666}, {"is_reserved": 0, "fusion_lon": 0.0, "fusion_lat": 0.0, "name": "88668948c13468f4d7edb81958bcffc9", "type": "electric_bike", "is_disabled": 0, "lat": 38.85443383333333, "rental_uris": {"android": "https://dc.lft.to/lastmile_qr_scan", "ios": "https://dc.lft.to/lastmile_qr_scan"}, "bike_id": "88668948c13468f4d7edb81958bcffc9", "lon": -77.08325766666667}, {"is_reserved": 0, "fusion_lon": 0.0, "fusion_lat": 0.0, "name": "8995aa35564e60bad10903912d2ca431", "type": "electric_scooter", "is_disabled": 0, "lat": 38.9183435, "rental_uris": {"android": "https://dc.lft.to/lastmile_qr_scan", "ios": "https://dc.lft.to/lastmile_qr_scan"}, "bike_id": "8995aa35564e60bad10903912d2ca431", "lon": -77.02461416666667}, {"is_reserved": 0, "fusion_lon": 0.0, "fusion_lat": 0.0, "name": "a4340de36ddb6725e335b2a7db316b22", "type": "electric_scooter", "is_disabled": 0, "lat": 38.875413, "rental_uris": {"android": "https://dc.lft.to/lastmile_qr_scan", "ios": "https://dc.lft.to/lastmile_qr_scan"}, "bike_id": "a4340de36ddb6725e335b2a7db316b22", "lon": -77.0060375}, {"is_reserved": 0, "fusion_lon": 0.0, "fusion_lat": 0.0, "name": "ee1cf193b61cfe7b44c65e8e228876b4", "type": "electric_scooter", "is_disabled": 0, "lat": 38.91712716666667, "rental_uris": {"android": "https://dc.lft.to/lastmile_qr_scan", "ios": "https://dc.lft.to/lastmile_qr_scan"}, "bike_id": "ee1cf193b61cfe7b44c65e8e228876b4", "lon": -77.030999}, {"is_reserved": 0, "fusion_lon": 0.0, "fusion_lat": 0.0, "name": "e974d240894302a0bfad8fac915d9fd1", "type": "electric_scooter", "is_disabled": 0, "lat": 38.938707, "rental_uris": {"android": "https://dc.lft.to/lastmile_qr_scan", "ios": "https://dc.lft.to/lastmile_qr_scan"}, "bike_id": "e974d240894302a0bfad8fac915d9fd1", "lon": -77.024386}, {"is_reserved": 0, "fusion_lon": 0.0, "fusion_lat": 0.0, "name": "d167a960200c2ad15849da229bcc4c4c", "type": "electric_scooter", "is_disabled": 0, "lat": 38.92637033333333, "rental_uris": {"android": "https://dc.lft.to/lastmile_qr_scan", "ios": "https://dc.lft.to/lastmile_qr_scan"}, "bike_id": "d167a960200c2ad15849da229bcc4c4c", "lon": -77.0346565}, {"is_reserved": 0, "fusion_lon": 0.0, "fusion_lat": 0.0, "name": "7fb01cfd1b60caddd7bb6c7682c8f85f", "type": "electric_scooter", "is_disabled": 0, "lat": 38.897358, "rental_uris": {"android": "https://dc.lft.to/lastmile_qr_scan", "ios": "https://dc.lft.to/lastmile_qr_scan"}, "bike_id": "7fb01cfd1b60caddd7bb6c7682c8f85f", "lon": -76.98507366666666}, {"is_reserved": 0, "fusion_lon": 0.0, "fusion_lat": 0.0, "name": "b74aecfcf81bb5f6f10192e373e8dc21", "type": "electric_scooter", "is_disabled": 0, "lat": 38.93065, "rental_uris": {"android": "https://dc.lft.to/lastmile_qr_scan", "ios": "https://dc.lft.to/lastmile_qr_scan"}, "bike_id": "b74aecfcf81bb5f6f10192e373e8dc21", "lon": -77.03944}, {"is_reserved": 0, "fusion_lon": 0.0, "fusion_lat": 0.0, "name": "c0b2336c1a8a954cd93ba03e6afd7e0e", "type": "electric_scooter", "is_disabled": 0, "lat": 38.897441666666666, "rental_uris": {"android": "https://dc.lft.to/lastmile_qr_scan", "ios": "https://dc.lft.to/lastmile_qr_scan"}, "bike_id": "c0b2336c1a8a954cd93ba03e6afd7e0e", "lon": -77.03351383333333}, {"is_reserved": 0, "fusion_lon": 0.0, "fusion_lat": 0.0, "name": "d61e3cf23ac79fc0c7de42bd1c7a082c", "type": "electric_scooter", "is_disabled": 0, "lat": 38.907979833333336, "rental_uris": {"android": "https://dc.lft.to/lastmile_qr_scan", "ios": "https://dc.lft.to/lastmile_qr_scan"}, "bike_id": "d61e3cf23ac79fc0c7de42bd1c7a082c", "lon": -77.03197483333334}, {"is_reserved": 0, "fusion_lon": 0.0, "fusion_lat": 0.0, "name": "88a465a9da5df6867312aa7ce320a140", "type": "electric_scooter", "is_disabled": 0, "lat": 38.96117666666667, "rental_uris": {"android": "https://dc.lft.to/lastmile_qr_scan", "ios": "https://dc.lft.to/lastmile_qr_scan"}, "bike_id": "88a465a9da5df6867312aa7ce320a140", "lon": -77.02784783333334}, {"is_reserved": 0, "fusion_lon": 0.0, "fusion_lat": 0.0, "name": "ce13aa4e97100ad820299693be58cbd6", "type": "electric_scooter", "is_disabled": 0, "lat": 38.90541983333333, "rental_uris": {"android": "https://dc.lft.to/lastmile_qr_scan", "ios": "https://dc.lft.to/lastmile_qr_scan"}, "bike_id": "ce13aa4e97100ad820299693be58cbd6", "lon": -77.02197516666666}, {"is_reserved": 0, "fusion_lon": 0.0, "fusion_lat": 0.0, "name": "b3cd2d7f32427f0b7e2ac95dc91645b6", "type": "electric_bike", "is_disabled": 0, "lat": 38.96838283333334, "rental_uris": {"android": "https://dc.lft.to/lastmile_qr_scan", "ios": "https://dc.lft.to/lastmile_qr_scan"}, "bike_id": "b3cd2d7f32427f0b7e2ac95dc91645b6", "lon": -77.00039516666666}, {"is_reserved": 0, "fusion_lon": 0.0, "fusion_lat": 0.0, "name": "1857c79b59db8ba54ea8b576dc71224e", "type": "electric_scooter", "is_disabled": 0, "lat": 38.89234916666667, "rental_uris": {"android": "https://dc.lft.to/lastmile_qr_scan", "ios": "https://dc.lft.to/lastmile_qr_scan"}, "bike_id": "1857c79b59db8ba54ea8b576dc71224e", "lon": -77.03203333333333}, {"is_reserved": 0, "fusion_lon": 0.0, "fusion_lat": 0.0, "name": "cab8fd6ca5550239b0db59b60f88e25f", "type": "electric_scooter", "is_disabled": 0, "lat": 38.91914633333333, "rental_uris": {"android": "https://dc.lft.to/lastmile_qr_scan", "ios": "https://dc.lft.to/lastmile_qr_scan"}, "bike_id": "cab8fd6ca5550239b0db59b60f88e25f", "lon": -77.0240355}, {"is_reserved": 0, "fusion_lon": 0.0, "fusion_lat": 0.0, "name": "4c55d1361f7ea81d66f2528d57903300", "type": "electric_scooter", "is_disabled": 0, "lat": 38.90171516666667, "rental_uris": {"android": "https://dc.lft.to/lastmile_qr_scan", "ios": "https://dc.lft.to/lastmile_qr_scan"}, "bike_id": "4c55d1361f7ea81d66f2528d57903300", "lon": -76.98003783333333}, {"is_reserved": 0, "fusion_lon": 0.0, "fusion_lat": 0.0, "name": "ba644b238d3b8664b573948c2365278f", "type": "electric_scooter", "is_disabled": 0, "lat": 38.91556716666667, "rental_uris": {"android": "https://dc.lft.to/lastmile_qr_scan", "ios": "https://dc.lft.to/lastmile_qr_scan"}, "bike_id": "ba644b238d3b8664b573948c2365278f", "lon": -77.00364816666666}, {"is_reserved": 0, "fusion_lon": 0.0, "fusion_lat": 0.0, "name": "9e73fab56d8d67af2023adf820d12e6e", "type": "electric_scooter", "is_disabled": 0, "lat": 38.93538683333333, "rental_uris": {"android": "https://dc.lft.to/lastmile_qr_scan", "ios": "https://dc.lft.to/lastmile_qr_scan"}, "bike_id": "9e73fab56d8d67af2023adf820d12e6e", "lon": -77.02349}, {"is_reserved": 0, "fusion_lon": 0.0, "fusion_lat": 0.0, "name": "110bee9aaa45eb2c7235063de1feee7e", "type": "electric_scooter", "is_disabled": 0, "lat": 38.9155705, "rental_uris": {"android": "https://dc.lft.to/lastmile_qr_scan", "ios": "https://dc.lft.to/lastmile_qr_scan"}, "bike_id": "110bee9aaa45eb2c7235063de1feee7e", "lon": -77.0418835}, {"is_reserved": 0, "fusion_lon": 0.0, "fusion_lat": 0.0, "name": "567db588040e1f6db03c7cab00cc2d03", "type": "electric_scooter", "is_disabled": 0, "lat": 38.913653, "rental_uris": {"android": "https://dc.lft.to/lastmile_qr_scan", "ios": "https://dc.lft.to/lastmile_qr_scan"}, "bike_id": "567db588040e1f6db03c7cab00cc2d03", "lon": -77.02042483333334}, {"is_reserved": 0, "fusion_lon": 0.0, "fusion_lat": 0.0, "name": "8ed5bc12cbc612314f182ba3cf7ed7a5", "type": "electric_scooter", "is_disabled": 0, "lat": 38.869769833333336, "rental_uris": {"android": "https://dc.lft.to/lastmile_qr_scan", "ios": "https://dc.lft.to/lastmile_qr_scan"}, "bike_id": "8ed5bc12cbc612314f182ba3cf7ed7a5", "lon": -77.012296}, {"is_reserved": 0, "fusion_lon": 0.0, "fusion_lat": 0.0, "name": "a4b6303b0361567fe440dc9f1868bb48", "type": "electric_scooter", "is_disabled": 0, "lat": 38.942031166666666, "rental_uris": {"android": "https://dc.lft.to/lastmile_qr_scan", "ios": "https://dc.lft.to/lastmile_qr_scan"}, "bike_id": "a4b6303b0361567fe440dc9f1868bb48", "lon": -77.0250725}, {"is_reserved": 0, "fusion_lon": 0.0, "fusion_lat": 0.0, "name": "3faf6708442e77416eec9441b3298191", "type": "electric_scooter", "is_disabled": 0, "lat": 38.929381166666666, "rental_uris": {"android": "https://dc.lft.to/lastmile_qr_scan", "ios": "https://dc.lft.to/lastmile_qr_scan"}, "bike_id": "3faf6708442e77416eec9441b3298191", "lon": -77.03652533333333}, {"is_reserved": 0, "fusion_lon": 0.0, "fusion_lat": 0.0, "name": "30f538e2ae95654c44bd76b2374598c5", "type": "electric_scooter", "is_disabled": 0, "lat": 38.9326335, "rental_uris": {"android": "https://dc.lft.to/lastmile_qr_scan", "ios": "https://dc.lft.to/lastmile_qr_scan"}, "bike_id": "30f538e2ae95654c44bd76b2374598c5", "lon": -77.020947}, {"is_reserved": 0, "fusion_lon": 0.0, "fusion_lat": 0.0, "name": "0db9582121344e7b8dc3f2d1963317ca", "type": "electric_bike", "is_disabled": 0, "lat": 38.95508933333333, "rental_uris": {"android": "https://dc.lft.to/lastmile_qr_scan", "ios": "https://dc.lft.to/lastmile_qr_scan"}, "bike_id": "0db9582121344e7b8dc3f2d1963317ca", "lon": -76.993558}, {"is_reserved": 0, "fusion_lon": 0.0, "fusion_lat": 0.0, "name": "84798aaaa862b9561d7f54ec5511936f", "type": "electric_scooter", "is_disabled": 0, "lat": 38.89222183333333, "rental_uris": {"android": "https://dc.lft.to/lastmile_qr_scan", "ios": "https://dc.lft.to/lastmile_qr_scan"}, "bike_id": "84798aaaa862b9561d7f54ec5511936f", "lon": -77.04306133333333}, {"is_reserved": 0, "fusion_lon": 0.0, "fusion_lat": 0.0, "name": "62a4f72c9d0e1a349345c7f97b2e2f37", "type": "electric_scooter", "is_disabled": 0, "lat": 38.95838533333333, "rental_uris": {"android": "https://dc.lft.to/lastmile_qr_scan", "ios": "https://dc.lft.to/lastmile_qr_scan"}, "bike_id": "62a4f72c9d0e1a349345c7f97b2e2f37", "lon": -77.0151495}, {"is_reserved": 0, "fusion_lon": 0.0, "fusion_lat": 0.0, "name": "dc3bd84b81b5eba1125986d1851f8aba", "type": "electric_bike", "is_disabled": 0, "lat": 39.0423775, "rental_uris": {"android": "https://dc.lft.to/lastmile_qr_scan", "ios": "https://dc.lft.to/lastmile_qr_scan"}, "bike_id": "dc3bd84b81b5eba1125986d1851f8aba", "lon": -77.03072066666667}, {"is_reserved": 0, "fusion_lon": 0.0, "fusion_lat": 0.0, "name": "9c73d8b340f73c2477115c6ed160872d", "type": "electric_scooter", "is_disabled": 0, "lat": 38.914322166666665, "rental_uris": {"android": "https://dc.lft.to/lastmile_qr_scan", "ios": "https://dc.lft.to/lastmile_qr_scan"}, "bike_id": "9c73d8b340f73c2477115c6ed160872d", "lon": -77.02039066666667}, {"is_reserved": 0, "fusion_lon": 0.0, "fusion_lat": 0.0, "name": "375815ca7c000dc3c65e8d0f004704f2", "type": "electric_scooter", "is_disabled": 0, "lat": 38.92534116666667, "rental_uris": {"android": "https://dc.lft.to/lastmile_qr_scan", "ios": "https://dc.lft.to/lastmile_qr_scan"}, "bike_id": "375815ca7c000dc3c65e8d0f004704f2", "lon": -77.03848616666667}, {"is_reserved": 0, "fusion_lon": 0.0, "fusion_lat": 0.0, "name": "9b9d4f667b7d6eae16a943b9d44308bd", "type": "electric_scooter", "is_disabled": 0, "lat": 38.87647116666667, "rental_uris": {"android": "https://dc.lft.to/lastmile_qr_scan", "ios": "https://dc.lft.to/lastmile_qr_scan"}, "bike_id": "9b9d4f667b7d6eae16a943b9d44308bd", "lon": -76.96507133333333}, {"is_reserved": 0, "fusion_lon": 0.0, "fusion_lat": 0.0, "name": "bb120c84bd5bd790517fc2bd812707f1", "type": "electric_scooter", "is_disabled": 0, "lat": 38.93102533333333, "rental_uris": {"android": "https://dc.lft.to/lastmile_qr_scan", "ios": "https://dc.lft.to/lastmile_qr_scan"}, "bike_id": "bb120c84bd5bd790517fc2bd812707f1", "lon": -77.02794933333334}, {"is_reserved": 0, "fusion_lon": 0.0, "fusion_lat": 0.0, "name": "1cb000941745557b4e3dc85cbfd51bb6", "type": "electric_scooter", "is_disabled": 0, "lat": 38.91996, "rental_uris": {"android": "https://dc.lft.to/lastmile_qr_scan", "ios": "https://dc.lft.to/lastmile_qr_scan"}, "bike_id": "1cb000941745557b4e3dc85cbfd51bb6", "lon": -77.02888683333333}, {"is_reserved": 0, "fusion_lon": 0.0, "fusion_lat": 0.0, "name": "0f0f097b47af95e894c0bbeb078681c8", "type": "electric_scooter", "is_disabled": 0, "lat": 38.94203733333333, "rental_uris": {"android": "https://dc.lft.to/lastmile_qr_scan", "ios": "https://dc.lft.to/lastmile_qr_scan"}, "bike_id": "0f0f097b47af95e894c0bbeb078681c8", "lon": -77.024988}, {"is_reserved": 0, "fusion_lon": 0.0, "fusion_lat": 0.0, "name": "971a003433d2d3e56b239c7e93301ca6", "type": "electric_scooter", "is_disabled": 0, "lat": 38.90959133333333, "rental_uris": {"android": "https://dc.lft.to/lastmile_qr_scan", "ios": "https://dc.lft.to/lastmile_qr_scan"}, "bike_id": "971a003433d2d3e56b239c7e93301ca6", "lon": -77.03159283333333}, {"is_reserved": 0, "fusion_lon": 0.0, "fusion_lat": 0.0, "name": "f3c5f2cc6a99ea77f62ef964fd8bfdb8", "type": "electric_scooter", "is_disabled": 0, "lat": 38.88746016666666, "rental_uris": {"android": "https://dc.lft.to/lastmile_qr_scan", "ios": "https://dc.lft.to/lastmile_qr_scan"}, "bike_id": "f3c5f2cc6a99ea77f62ef964fd8bfdb8", "lon": -77.02731133333333}, {"is_reserved": 0, "fusion_lon": 0.0, "fusion_lat": 0.0, "name": "e24eaa15143952e92b2558342b108835", "type": "electric_scooter", "is_disabled": 0, "lat": 38.926644333333336, "rental_uris": {"android": "https://dc.lft.to/lastmile_qr_scan", "ios": "https://dc.lft.to/lastmile_qr_scan"}, "bike_id": "e24eaa15143952e92b2558342b108835", "lon": -76.99537733333334}, {"is_reserved": 0, "fusion_lon": 0.0, "fusion_lat": 0.0, "name": "5f5327b201e48ee33bfe46daac24fa89", "type": "electric_scooter", "is_disabled": 0, "lat": 38.9353575, "rental_uris": {"android": "https://dc.lft.to/lastmile_qr_scan", "ios": "https://dc.lft.to/lastmile_qr_scan"}, "bike_id": "5f5327b201e48ee33bfe46daac24fa89", "lon": -77.0235305}, {"is_reserved": 0, "fusion_lon": 0.0, "fusion_lat": 0.0, "name": "909e576c01dd5d862d2ded7f3a8674e0", "type": "electric_scooter", "is_disabled": 0, "lat": 38.91773666666667, "rental_uris": {"android": "https://dc.lft.to/lastmile_qr_scan", "ios": "https://dc.lft.to/lastmile_qr_scan"}, "bike_id": "909e576c01dd5d862d2ded7f3a8674e0", "lon": -77.04771}, {"is_reserved": 0, "fusion_lon": 0.0, "fusion_lat": 0.0, "name": "8330deb4580baf1ff55b250da178af3e", "type": "electric_scooter", "is_disabled": 0, "lat": 38.9097025, "rental_uris": {"android": "https://dc.lft.to/lastmile_qr_scan", "ios": "https://dc.lft.to/lastmile_qr_scan"}, "bike_id": "8330deb4580baf1ff55b250da178af3e", "lon": -77.04011666666666}, {"is_reserved": 0, "fusion_lon": 0.0, "fusion_lat": 0.0, "name": "15c8018a436eeb365ab30df4a769540a", "type": "electric_bike", "is_disabled": 0, "lat": 38.865155333333334, "rental_uris": {"android": "https://dc.lft.to/lastmile_qr_scan", "ios": "https://dc.lft.to/lastmile_qr_scan"}, "bike_id": "15c8018a436eeb365ab30df4a769540a", "lon": -76.97329766666667}, {"is_reserved": 0, "fusion_lon": 0.0, "fusion_lat": 0.0, "name": "7cd38d48760911015051a1537dcb3418", "type": "electric_scooter", "is_disabled": 0, "lat": 38.939491333333336, "rental_uris": {"android": "https://dc.lft.to/lastmile_qr_scan", "ios": "https://dc.lft.to/lastmile_qr_scan"}, "bike_id": "7cd38d48760911015051a1537dcb3418", "lon": -77.07245366666666}, {"is_reserved": 0, "fusion_lon": 0.0, "fusion_lat": 0.0, "name": "b4533348aabd5933b9ce56c1fac88955", "type": "electric_scooter", "is_disabled": 0, "lat": 38.91278166666667, "rental_uris": {"android": "https://dc.lft.to/lastmile_qr_scan", "ios": "https://dc.lft.to/lastmile_qr_scan"}, "bike_id": "b4533348aabd5933b9ce56c1fac88955", "lon": -77.03131416666666}, {"is_reserved": 0, "fusion_lon": 0.0, "fusion_lat": 0.0, "name": "7a9770d3456deebcf61143259a28efde", "type": "electric_scooter", "is_disabled": 0, "lat": 38.91117666666667, "rental_uris": {"android": "https://dc.lft.to/lastmile_qr_scan", "ios": "https://dc.lft.to/lastmile_qr_scan"}, "bike_id": "7a9770d3456deebcf61143259a28efde", "lon": -77.02377233333333}, {"is_reserved": 0, "fusion_lon": 0.0, "fusion_lat": 0.0, "name": "a11c14762144707b5a9de9c436abf1ca", "type": "electric_scooter", "is_disabled": 0, "lat": 38.90047833333333, "rental_uris": {"android": "https://dc.lft.to/lastmile_qr_scan", "ios": "https://dc.lft.to/lastmile_qr_scan"}, "bike_id": "a11c14762144707b5a9de9c436abf1ca", "lon": -77.01767916666667}, {"is_reserved": 0, "fusion_lon": 0.0, "fusion_lat": 0.0, "name": "8e9fdb669972159bb25a19965d1940e1", "type": "electric_scooter", "is_disabled": 0, "lat": 38.863861, "rental_uris": {"android": "https://dc.lft.to/lastmile_qr_scan", "ios": "https://dc.lft.to/lastmile_qr_scan"}, "bike_id": "8e9fdb669972159bb25a19965d1940e1", "lon": -76.98905133333334}, {"is_reserved": 0, "fusion_lon": 0.0, "fusion_lat": 0.0, "name": "8076a4b5484ce99cc4613081fbd3d1dc", "type": "electric_bike", "is_disabled": 0, "lat": 38.865827333333336, "rental_uris": {"android": "https://dc.lft.to/lastmile_qr_scan", "ios": "https://dc.lft.to/lastmile_qr_scan"}, "bike_id": "8076a4b5484ce99cc4613081fbd3d1dc", "lon": -77.04762583333333}, {"is_reserved": 0, "fusion_lon": 0.0, "fusion_lat": 0.0, "name": "af420994e1e44a2c49a1b1bcce97792a", "type": "electric_scooter", "is_disabled": 0, "lat": 38.919530333333334, "rental_uris": {"android": "https://dc.lft.to/lastmile_qr_scan", "ios": "https://dc.lft.to/lastmile_qr_scan"}, "bike_id": "af420994e1e44a2c49a1b1bcce97792a", "lon": -77.04175}, {"is_reserved": 0, "fusion_lon": 0.0, "fusion_lat": 0.0, "name": "582b93d873b39baf15c58fa0ed5a2f7a", "type": "electric_scooter", "is_disabled": 0, "lat": 38.915619, "rental_uris": {"android": "https://dc.lft.to/lastmile_qr_scan", "ios": "https://dc.lft.to/lastmile_qr_scan"}, "bike_id": "582b93d873b39baf15c58fa0ed5a2f7a", "lon": -77.03165033333333}, {"is_reserved": 0, "fusion_lon": 0.0, "fusion_lat": 0.0, "name": "0260d88acd39f756ec52f60cf2be464f", "type": "electric_scooter", "is_disabled": 0, "lat": 38.938697166666664, "rental_uris": {"android": "https://dc.lft.to/lastmile_qr_scan", "ios": "https://dc.lft.to/lastmile_qr_scan"}, "bike_id": "0260d88acd39f756ec52f60cf2be464f", "lon": -77.02650483333333}, {"is_reserved": 0, "fusion_lon": 0.0, "fusion_lat": 0.0, "name": "e186755d5cffbe18b599383791685c2b", "type": "electric_scooter", "is_disabled": 0, "lat": 38.892280166666666, "rental_uris": {"android": "https://dc.lft.to/lastmile_qr_scan", "ios": "https://dc.lft.to/lastmile_qr_scan"}, "bike_id": "e186755d5cffbe18b599383791685c2b", "lon": -77.04380816666666}, {"is_reserved": 0, "fusion_lon": 0.0, "fusion_lat": 0.0, "name": "49955b1572b82f003a28dd47a35e1fdf", "type": "electric_scooter", "is_disabled": 0, "lat": 38.904709833333335, "rental_uris": {"android": "https://dc.lft.to/lastmile_qr_scan", "ios": "https://dc.lft.to/lastmile_qr_scan"}, "bike_id": "49955b1572b82f003a28dd47a35e1fdf", "lon": -77.01703516666667}, {"is_reserved": 0, "fusion_lon": 0.0, "fusion_lat": 0.0, "name": "34ffe3ce0cd014284f7cf0c34ce8418b", "type": "electric_scooter", "is_disabled": 0, "lat": 38.91183066666667, "rental_uris": {"android": "https://dc.lft.to/lastmile_qr_scan", "ios": "https://dc.lft.to/lastmile_qr_scan"}, "bike_id": "34ffe3ce0cd014284f7cf0c34ce8418b", "lon": -77.043453}, {"is_reserved": 0, "fusion_lon": 0.0, "fusion_lat": 0.0, "name": "78fbcd3e7c6a4fced21f847723248878", "type": "electric_scooter", "is_disabled": 0, "lat": 38.94199716666667, "rental_uris": {"android": "https://dc.lft.to/lastmile_qr_scan", "ios": "https://dc.lft.to/lastmile_qr_scan"}, "bike_id": "78fbcd3e7c6a4fced21f847723248878", "lon": -77.0250625}, {"is_reserved": 0, "fusion_lon": 0.0, "fusion_lat": 0.0, "name": "22e70c00b9994097d5ad9fa058a6afa3", "type": "electric_scooter", "is_disabled": 0, "lat": 38.91757416666667, "rental_uris": {"android": "https://dc.lft.to/lastmile_qr_scan", "ios": "https://dc.lft.to/lastmile_qr_scan"}, "bike_id": "22e70c00b9994097d5ad9fa058a6afa3", "lon": -77.012235}, {"is_reserved": 0, "fusion_lon": 0.0, "fusion_lat": 0.0, "name": "cc5e6df77770878223787efbe73f1395", "type": "electric_scooter", "is_disabled": 0, "lat": 38.87492533333333, "rental_uris": {"android": "https://dc.lft.to/lastmile_qr_scan", "ios": "https://dc.lft.to/lastmile_qr_scan"}, "bike_id": "cc5e6df77770878223787efbe73f1395", "lon": -77.00241516666667}, {"is_reserved": 0, "fusion_lon": 0.0, "fusion_lat": 0.0, "name": "c6b9336e898fbbe728bf017af37264e9", "type": "electric_scooter", "is_disabled": 0, "lat": 38.885059, "rental_uris": {"android": "https://dc.lft.to/lastmile_qr_scan", "ios": "https://dc.lft.to/lastmile_qr_scan"}, "bike_id": "c6b9336e898fbbe728bf017af37264e9", "lon": -77.02034933333333}, {"is_reserved": 0, "fusion_lon": 0.0, "fusion_lat": 0.0, "name": "0c005172936866467af9474527fb330d", "type": "electric_scooter", "is_disabled": 0, "lat": 38.892445, "rental_uris": {"android": "https://dc.lft.to/lastmile_qr_scan", "ios": "https://dc.lft.to/lastmile_qr_scan"}, "bike_id": "0c005172936866467af9474527fb330d", "lon": -77.03174566666667}, {"is_reserved": 0, "fusion_lon": 0.0, "fusion_lat": 0.0, "name": "ddc1d77a11381114c5a4a02a70773e19", "type": "electric_scooter", "is_disabled": 0, "lat": 38.8664705, "rental_uris": {"android": "https://dc.lft.to/lastmile_qr_scan", "ios": "https://dc.lft.to/lastmile_qr_scan"}, "bike_id": "ddc1d77a11381114c5a4a02a70773e19", "lon": -76.98263366666667}, {"is_reserved": 0, "fusion_lon": 0.0, "fusion_lat": 0.0, "name": "ab1590c4bf5d36ecc6ab7b3dc3f3648d", "type": "electric_scooter", "is_disabled": 0, "lat": 38.92111233333333, "rental_uris": {"android": "https://dc.lft.to/lastmile_qr_scan", "ios": "https://dc.lft.to/lastmile_qr_scan"}, "bike_id": "ab1590c4bf5d36ecc6ab7b3dc3f3648d", "lon": -77.01805083333333}, {"is_reserved": 0, "fusion_lon": 0.0, "fusion_lat": 0.0, "name": "a1d3de76d6fd6ff91d6e2391dfdc7b58", "type": "electric_scooter", "is_disabled": 0, "lat": 38.9292765, "rental_uris": {"android": "https://dc.lft.to/lastmile_qr_scan", "ios": "https://dc.lft.to/lastmile_qr_scan"}, "bike_id": "a1d3de76d6fd6ff91d6e2391dfdc7b58", "lon": -77.02333866666666}, {"is_reserved": 0, "fusion_lon": 0.0, "fusion_lat": 0.0, "name": "bc68364a9dc656231543e4862bd09538", "type": "electric_scooter", "is_disabled": 0, "lat": 38.895009333333334, "rental_uris": {"android": "https://dc.lft.to/lastmile_qr_scan", "ios": "https://dc.lft.to/lastmile_qr_scan"}, "bike_id": "bc68364a9dc656231543e4862bd09538", "lon": -77.02749933333334}, {"is_reserved": 0, "fusion_lon": 0.0, "fusion_lat": 0.0, "name": "1cd1c54d87200b2f68014558e33b9162", "type": "electric_scooter", "is_disabled": 0, "lat": 38.91890166666666, "rental_uris": {"android": "https://dc.lft.to/lastmile_qr_scan", "ios": "https://dc.lft.to/lastmile_qr_scan"}, "bike_id": "1cd1c54d87200b2f68014558e33b9162", "lon": -77.04825283333334}, {"is_reserved": 0, "fusion_lon": 0.0, "fusion_lat": 0.0, "name": "fb7eece88524abcd5404416bad340049", "type": "electric_scooter", "is_disabled": 0, "lat": 38.92119566666667, "rental_uris": {"android": "https://dc.lft.to/lastmile_qr_scan", "ios": "https://dc.lft.to/lastmile_qr_scan"}, "bike_id": "fb7eece88524abcd5404416bad340049", "lon": -77.012099}, {"is_reserved": 0, "fusion_lon": 0.0, "fusion_lat": 0.0, "name": "b8a7f606cf8a435c11da4e78e8c4fc4c", "type": "electric_bike", "is_disabled": 0, "lat": 38.922373666666665, "rental_uris": {"android": "https://dc.lft.to/lastmile_qr_scan", "ios": "https://dc.lft.to/lastmile_qr_scan"}, "bike_id": "b8a7f606cf8a435c11da4e78e8c4fc4c", "lon": -77.04248716666666}, {"is_reserved": 0, "fusion_lon": 0.0, "fusion_lat": 0.0, "name": "f2d4bd1b11057d845867320008304a9e", "type": "electric_scooter", "is_disabled": 0, "lat": 38.967835, "rental_uris": {"android": "https://dc.lft.to/lastmile_qr_scan", "ios": "https://dc.lft.to/lastmile_qr_scan"}, "bike_id": "f2d4bd1b11057d845867320008304a9e", "lon": -77.0150935}, {"is_reserved": 0, "fusion_lon": 0.0, "fusion_lat": 0.0, "name": "5689c3fc1fc78326a3566f1b57cf92c2", "type": "electric_scooter", "is_disabled": 0, "lat": 38.90230316666667, "rental_uris": {"android": "https://dc.lft.to/lastmile_qr_scan", "ios": "https://dc.lft.to/lastmile_qr_scan"}, "bike_id": "5689c3fc1fc78326a3566f1b57cf92c2", "lon": -76.99269766666667}, {"is_reserved": 0, "fusion_lon": 0.0, "fusion_lat": 0.0, "name": "ebc08363e9d7b63c68026632d8a439b7", "type": "electric_bike", "is_disabled": 0, "lat": 38.9535645, "rental_uris": {"android": "https://dc.lft.to/lastmile_qr_scan", "ios": "https://dc.lft.to/lastmile_qr_scan"}, "bike_id": "ebc08363e9d7b63c68026632d8a439b7", "lon": -76.98096616666666}, {"is_reserved": 0, "fusion_lon": 0.0, "fusion_lat": 0.0, "name": "8c5b9b134411b46d212bf55e469c38a6", "type": "electric_scooter", "is_disabled": 0, "lat": 38.8950535, "rental_uris": {"android": "https://dc.lft.to/lastmile_qr_scan", "ios": "https://dc.lft.to/lastmile_qr_scan"}, "bike_id": "8c5b9b134411b46d212bf55e469c38a6", "lon": -77.046526}, {"is_reserved": 0, "fusion_lon": 0.0, "fusion_lat": 0.0, "name": "2e6ac9bc670fad1e783df28bad5b68be", "type": "electric_scooter", "is_disabled": 0, "lat": 38.920437, "rental_uris": {"android": "https://dc.lft.to/lastmile_qr_scan", "ios": "https://dc.lft.to/lastmile_qr_scan"}, "bike_id": "2e6ac9bc670fad1e783df28bad5b68be", "lon": -77.0219475}, {"is_reserved": 0, "fusion_lon": 0.0, "fusion_lat": 0.0, "name": "d78bdadd795de86612a0d64ea7003045", "type": "electric_scooter", "is_disabled": 0, "lat": 38.89237216666667, "rental_uris": {"android": "https://dc.lft.to/lastmile_qr_scan", "ios": "https://dc.lft.to/lastmile_qr_scan"}, "bike_id": "d78bdadd795de86612a0d64ea7003045", "lon": -77.03204716666667}, {"is_reserved": 0, "fusion_lon": 0.0, "fusion_lat": 0.0, "name": "870eb2bf8762ae66143a49f422058dfb", "type": "electric_scooter", "is_disabled": 0, "lat": 38.91821933333333, "rental_uris": {"android": "https://dc.lft.to/lastmile_qr_scan", "ios": "https://dc.lft.to/lastmile_qr_scan"}, "bike_id": "870eb2bf8762ae66143a49f422058dfb", "lon": -77.045268}, {"is_reserved": 0, "fusion_lon": 0.0, "fusion_lat": 0.0, "name": "0c96994869ca41b55e3a5b3c9c0a0c95", "type": "electric_scooter", "is_disabled": 0, "lat": 38.89321233333333, "rental_uris": {"android": "https://dc.lft.to/lastmile_qr_scan", "ios": "https://dc.lft.to/lastmile_qr_scan"}, "bike_id": "0c96994869ca41b55e3a5b3c9c0a0c95", "lon": -76.93970616666667}, {"is_reserved": 0, "fusion_lon": 0.0, "fusion_lat": 0.0, "name": "5d3d3227349108665974b0c4123c7070", "type": "electric_scooter", "is_disabled": 0, "lat": 38.9044085, "rental_uris": {"android": "https://dc.lft.to/lastmile_qr_scan", "ios": "https://dc.lft.to/lastmile_qr_scan"}, "bike_id": "5d3d3227349108665974b0c4123c7070", "lon": -77.05147083333334}, {"is_reserved": 0, "fusion_lon": 0.0, "fusion_lat": 0.0, "name": "4c7f1d20206a2daef8a64f0b65d50fe4", "type": "electric_scooter", "is_disabled": 0, "lat": 38.905997, "rental_uris": {"android": "https://dc.lft.to/lastmile_qr_scan", "ios": "https://dc.lft.to/lastmile_qr_scan"}, "bike_id": "4c7f1d20206a2daef8a64f0b65d50fe4", "lon": -77.06417233333333}, {"is_reserved": 0, "fusion_lon": 0.0, "fusion_lat": 0.0, "name": "f7938b829192c96125b4d42a5a268439", "type": "electric_scooter", "is_disabled": 0, "lat": 38.920675833333334, "rental_uris": {"android": "https://dc.lft.to/lastmile_qr_scan", "ios": "https://dc.lft.to/lastmile_qr_scan"}, "bike_id": "f7938b829192c96125b4d42a5a268439", "lon": -77.04250866666666}, {"is_reserved": 0, "fusion_lon": 0.0, "fusion_lat": 0.0, "name": "46b1b7a17e6f501fb3ea3a260597b1d5", "type": "electric_scooter", "is_disabled": 0, "lat": 38.919929, "rental_uris": {"android": "https://dc.lft.to/lastmile_qr_scan", "ios": "https://dc.lft.to/lastmile_qr_scan"}, "bike_id": "46b1b7a17e6f501fb3ea3a260597b1d5", "lon": -77.021445}, {"is_reserved": 0, "fusion_lon": 0.0, "fusion_lat": 0.0, "name": "c1cb674a0be53a85ec3d7edda9e35f32", "type": "electric_scooter", "is_disabled": 0, "lat": 38.9014515, "rental_uris": {"android": "https://dc.lft.to/lastmile_qr_scan", "ios": "https://dc.lft.to/lastmile_qr_scan"}, "bike_id": "c1cb674a0be53a85ec3d7edda9e35f32", "lon": -77.01304716666667}, {"is_reserved": 0, "fusion_lon": 0.0, "fusion_lat": 0.0, "name": "614a79f78e63dd325f8ccd7b91b0c5bc", "type": "electric_scooter", "is_disabled": 0, "lat": 38.927285833333336, "rental_uris": {"android": "https://dc.lft.to/lastmile_qr_scan", "ios": "https://dc.lft.to/lastmile_qr_scan"}, "bike_id": "614a79f78e63dd325f8ccd7b91b0c5bc", "lon": -77.03521566666667}, {"is_reserved": 0, "fusion_lon": 0.0, "fusion_lat": 0.0, "name": "34d4610830000b528152a07aa549d3d1", "type": "electric_scooter", "is_disabled": 0, "lat": 38.92157233333333, "rental_uris": {"android": "https://dc.lft.to/lastmile_qr_scan", "ios": "https://dc.lft.to/lastmile_qr_scan"}, "bike_id": "34d4610830000b528152a07aa549d3d1", "lon": -77.02098533333333}, {"is_reserved": 0, "fusion_lon": 0.0, "fusion_lat": 0.0, "name": "eda41e93fcbbedee05c0eb41027cb101", "type": "electric_scooter", "is_disabled": 0, "lat": 38.9071825, "rental_uris": {"android": "https://dc.lft.to/lastmile_qr_scan", "ios": "https://dc.lft.to/lastmile_qr_scan"}, "bike_id": "eda41e93fcbbedee05c0eb41027cb101", "lon": -77.02977416666667}, {"is_reserved": 0, "fusion_lon": 0.0, "fusion_lat": 0.0, "name": "ab09aeb8091ea2b4789927367884014b", "type": "electric_scooter", "is_disabled": 0, "lat": 38.928697, "rental_uris": {"android": "https://dc.lft.to/lastmile_qr_scan", "ios": "https://dc.lft.to/lastmile_qr_scan"}, "bike_id": "ab09aeb8091ea2b4789927367884014b", "lon": -77.03318716666666}, {"is_reserved": 0, "fusion_lon": 0.0, "fusion_lat": 0.0, "name": "37484f6670a438944c3667c5749a4a95", "type": "electric_scooter", "is_disabled": 0, "lat": 38.922051833333335, "rental_uris": {"android": "https://dc.lft.to/lastmile_qr_scan", "ios": "https://dc.lft.to/lastmile_qr_scan"}, "bike_id": "37484f6670a438944c3667c5749a4a95", "lon": -77.0295835}, {"is_reserved": 0, "fusion_lon": 0.0, "fusion_lat": 0.0, "name": "8f291e55bd72451e2290e42efc9490c0", "type": "electric_scooter", "is_disabled": 0, "lat": 38.92854633333334, "rental_uris": {"android": "https://dc.lft.to/lastmile_qr_scan", "ios": "https://dc.lft.to/lastmile_qr_scan"}, "bike_id": "8f291e55bd72451e2290e42efc9490c0", "lon": -77.02728733333333}, {"is_reserved": 0, "fusion_lon": 0.0, "fusion_lat": 0.0, "name": "305f9386a37fe38dc0a0d1bea5847e27", "type": "electric_scooter", "is_disabled": 0, "lat": 38.90252666666667, "rental_uris": {"android": "https://dc.lft.to/lastmile_qr_scan", "ios": "https://dc.lft.to/lastmile_qr_scan"}, "bike_id": "305f9386a37fe38dc0a0d1bea5847e27", "lon": -77.044989}, {"is_reserved": 0, "fusion_lon": 0.0, "fusion_lat": 0.0, "name": "209b136ee010b386e165cc10e45f61ec", "type": "electric_scooter", "is_disabled": 0, "lat": 38.90846, "rental_uris": {"android": "https://dc.lft.to/lastmile_qr_scan", "ios": "https://dc.lft.to/lastmile_qr_scan"}, "bike_id": "209b136ee010b386e165cc10e45f61ec", "lon": -77.0331925}, {"is_reserved": 0, "fusion_lon": 0.0, "fusion_lat": 0.0, "name": "ec9ffa5519566e2286dbe9f01b8fc455", "type": "electric_scooter", "is_disabled": 0, "lat": 38.919447, "rental_uris": {"android": "https://dc.lft.to/lastmile_qr_scan", "ios": "https://dc.lft.to/lastmile_qr_scan"}, "bike_id": "ec9ffa5519566e2286dbe9f01b8fc455", "lon": -77.01800566666667}, {"is_reserved": 0, "fusion_lon": 0.0, "fusion_lat": 0.0, "name": "2e92c9fe36125ee7d0061aced310fb20", "type": "electric_scooter", "is_disabled": 0, "lat": 38.9265005, "rental_uris": {"android": "https://dc.lft.to/lastmile_qr_scan", "ios": "https://dc.lft.to/lastmile_qr_scan"}, "bike_id": "2e92c9fe36125ee7d0061aced310fb20", "lon": -77.04137483333334}, {"is_reserved": 0, "fusion_lon": 0.0, "fusion_lat": 0.0, "name": "2741428e541f86915a1f5560e20c319c", "type": "electric_scooter", "is_disabled": 0, "lat": 38.8808805, "rental_uris": {"android": "https://dc.lft.to/lastmile_qr_scan", "ios": "https://dc.lft.to/lastmile_qr_scan"}, "bike_id": "2741428e541f86915a1f5560e20c319c", "lon": -76.98513683333333}, {"is_reserved": 0, "fusion_lon": 0.0, "fusion_lat": 0.0, "name": "050bdc3f96450dfc91ff7cfc3620287a", "type": "electric_scooter", "is_disabled": 0, "lat": 38.918172166666665, "rental_uris": {"android": "https://dc.lft.to/lastmile_qr_scan", "ios": "https://dc.lft.to/lastmile_qr_scan"}, "bike_id": "050bdc3f96450dfc91ff7cfc3620287a", "lon": -77.029786}, {"is_reserved": 0, "fusion_lon": 0.0, "fusion_lat": 0.0, "name": "60c6db06299313c20a1b4975581d5607", "type": "electric_scooter", "is_disabled": 0, "lat": 38.910207666666665, "rental_uris": {"android": "https://dc.lft.to/lastmile_qr_scan", "ios": "https://dc.lft.to/lastmile_qr_scan"}, "bike_id": "60c6db06299313c20a1b4975581d5607", "lon": -77.06491516666667}, {"is_reserved": 0, "fusion_lon": 0.0, "fusion_lat": 0.0, "name": "3e5b66f5baa95df549da9d080d13f2b3", "type": "electric_scooter", "is_disabled": 0, "lat": 38.918339833333334, "rental_uris": {"android": "https://dc.lft.to/lastmile_qr_scan", "ios": "https://dc.lft.to/lastmile_qr_scan"}, "bike_id": "3e5b66f5baa95df549da9d080d13f2b3", "lon": -77.02463766666666}, {"is_reserved": 0, "fusion_lon": 0.0, "fusion_lat": 0.0, "name": "d3b9edfa73b8e49cb6e0d446f1613d93", "type": "electric_scooter", "is_disabled": 0, "lat": 38.924199333333334, "rental_uris": {"android": "https://dc.lft.to/lastmile_qr_scan", "ios": "https://dc.lft.to/lastmile_qr_scan"}, "bike_id": "d3b9edfa73b8e49cb6e0d446f1613d93", "lon": -77.03544666666667}, {"is_reserved": 0, "fusion_lon": 0.0, "fusion_lat": 0.0, "name": "78e3d2e480538ea81c15e12a7285275b", "type": "electric_bike", "is_disabled": 0, "lat": 38.93287466666666, "rental_uris": {"android": "https://dc.lft.to/lastmile_qr_scan", "ios": "https://dc.lft.to/lastmile_qr_scan"}, "bike_id": "78e3d2e480538ea81c15e12a7285275b", "lon": -77.03633966666666}, {"is_reserved": 0, "fusion_lon": 0.0, "fusion_lat": 0.0, "name": "328f5a93a26e5d362ca8d0a448970ad9", "type": "electric_scooter", "is_disabled": 0, "lat": 38.914202, "rental_uris": {"android": "https://dc.lft.to/lastmile_qr_scan", "ios": "https://dc.lft.to/lastmile_qr_scan"}, "bike_id": "328f5a93a26e5d362ca8d0a448970ad9", "lon": -77.02152783333334}, {"is_reserved": 0, "fusion_lon": 0.0, "fusion_lat": 0.0, "name": "a296ec93e9cf92df876e5d41689b4370", "type": "electric_scooter", "is_disabled": 0, "lat": 38.887414, "rental_uris": {"android": "https://dc.lft.to/lastmile_qr_scan", "ios": "https://dc.lft.to/lastmile_qr_scan"}, "bike_id": "a296ec93e9cf92df876e5d41689b4370", "lon": -77.031778}, {"is_reserved": 0, "fusion_lon": 0.0, "fusion_lat": 0.0, "name": "1558f37df5dee52f3ded166e0f5e5c11", "type": "electric_scooter", "is_disabled": 0, "lat": 38.90008066666667, "rental_uris": {"android": "https://dc.lft.to/lastmile_qr_scan", "ios": "https://dc.lft.to/lastmile_qr_scan"}, "bike_id": "1558f37df5dee52f3ded166e0f5e5c11", "lon": -76.998334}, {"is_reserved": 0, "fusion_lon": 0.0, "fusion_lat": 0.0, "name": "ba3239d61d3caf1b5696ad634b65c34f", "type": "electric_scooter", "is_disabled": 0, "lat": 38.93162683333333, "rental_uris": {"android": "https://dc.lft.to/lastmile_qr_scan", "ios": "https://dc.lft.to/lastmile_qr_scan"}, "bike_id": "ba3239d61d3caf1b5696ad634b65c34f", "lon": -76.99616383333333}, {"is_reserved": 0, "fusion_lon": 0.0, "fusion_lat": 0.0, "name": "6c5e70f7614700a746bdf1f0571a68a5", "type": "electric_scooter", "is_disabled": 0, "lat": 38.89575416666667, "rental_uris": {"android": "https://dc.lft.to/lastmile_qr_scan", "ios": "https://dc.lft.to/lastmile_qr_scan"}, "bike_id": "6c5e70f7614700a746bdf1f0571a68a5", "lon": -77.027993}, {"is_reserved": 0, "fusion_lon": 0.0, "fusion_lat": 0.0, "name": "764b4c00e21232bd22a3f096df4aa779", "type": "electric_scooter", "is_disabled": 0, "lat": 38.925763333333336, "rental_uris": {"android": "https://dc.lft.to/lastmile_qr_scan", "ios": "https://dc.lft.to/lastmile_qr_scan"}, "bike_id": "764b4c00e21232bd22a3f096df4aa779", "lon": -77.05263733333334}, {"is_reserved": 0, "fusion_lon": 0.0, "fusion_lat": 0.0, "name": "3d3436cc5ece0cf647b54b62b764421d", "type": "electric_scooter", "is_disabled": 0, "lat": 38.91743616666667, "rental_uris": {"android": "https://dc.lft.to/lastmile_qr_scan", "ios": "https://dc.lft.to/lastmile_qr_scan"}, "bike_id": "3d3436cc5ece0cf647b54b62b764421d", "lon": -77.01085833333333}, {"is_reserved": 0, "fusion_lon": 0.0, "fusion_lat": 0.0, "name": "82372184615bfa09f8cedbe5bffe8fa0", "type": "electric_scooter", "is_disabled": 0, "lat": 38.86409066666667, "rental_uris": {"android": "https://dc.lft.to/lastmile_qr_scan", "ios": "https://dc.lft.to/lastmile_qr_scan"}, "bike_id": "82372184615bfa09f8cedbe5bffe8fa0", "lon": -77.01215183333333}, {"is_reserved": 0, "fusion_lon": 0.0, "fusion_lat": 0.0, "name": "9f5913117139bb886f74a50183a8cd71", "type": "electric_scooter", "is_disabled": 0, "lat": 38.88589966666667, "rental_uris": {"android": "https://dc.lft.to/lastmile_qr_scan", "ios": "https://dc.lft.to/lastmile_qr_scan"}, "bike_id": "9f5913117139bb886f74a50183a8cd71", "lon": -76.929866}, {"is_reserved": 0, "fusion_lon": 0.0, "fusion_lat": 0.0, "name": "751037f22cfb5b64bf3671248a12d5c2", "type": "electric_bike", "is_disabled": 0, "lat": 38.8763905, "rental_uris": {"android": "https://dc.lft.to/lastmile_qr_scan", "ios": "https://dc.lft.to/lastmile_qr_scan"}, "bike_id": "751037f22cfb5b64bf3671248a12d5c2", "lon": -76.98870066666667}, {"is_reserved": 0, "fusion_lon": 0.0, "fusion_lat": 0.0, "name": "68cac0118a36d07434984f7fcbbc52c3", "type": "electric_scooter", "is_disabled": 0, "lat": 38.90016983333334, "rental_uris": {"android": "https://dc.lft.to/lastmile_qr_scan", "ios": "https://dc.lft.to/lastmile_qr_scan"}, "bike_id": "68cac0118a36d07434984f7fcbbc52c3", "lon": -76.98871016666666}, {"is_reserved": 0, "fusion_lon": 0.0, "fusion_lat": 0.0, "name": "904ad25f10cfc7d06cac2715c9b02a74", "type": "electric_scooter", "is_disabled": 0, "lat": 38.873491333333334, "rental_uris": {"android": "https://dc.lft.to/lastmile_qr_scan", "ios": "https://dc.lft.to/lastmile_qr_scan"}, "bike_id": "904ad25f10cfc7d06cac2715c9b02a74", "lon": -77.006295}, {"is_reserved": 0, "fusion_lon": 0.0, "fusion_lat": 0.0, "name": "420c5300dd89aae0c99d3de65553d9df", "type": "electric_scooter", "is_disabled": 0, "lat": 38.92776283333333, "rental_uris": {"android": "https://dc.lft.to/lastmile_qr_scan", "ios": "https://dc.lft.to/lastmile_qr_scan"}, "bike_id": "420c5300dd89aae0c99d3de65553d9df", "lon": -77.02783833333334}, {"is_reserved": 0, "fusion_lon": 0.0, "fusion_lat": 0.0, "name": "6081b52fe996b911528023f1c9855e3b", "type": "electric_scooter", "is_disabled": 0, "lat": 38.907468, "rental_uris": {"android": "https://dc.lft.to/lastmile_qr_scan", "ios": "https://dc.lft.to/lastmile_qr_scan"}, "bike_id": "6081b52fe996b911528023f1c9855e3b", "lon": -76.9850475}, {"is_reserved": 0, "fusion_lon": 0.0, "fusion_lat": 0.0, "name": "f9ce60dc596e8f76c04fb404064fd669", "type": "electric_bike", "is_disabled": 0, "lat": 38.8728315, "rental_uris": {"android": "https://dc.lft.to/lastmile_qr_scan", "ios": "https://dc.lft.to/lastmile_qr_scan"}, "bike_id": "f9ce60dc596e8f76c04fb404064fd669", "lon": -77.23329166666667}, {"is_reserved": 0, "fusion_lon": 0.0, "fusion_lat": 0.0, "name": "1d8516020ef720a31c03ccdfd369e5a8", "type": "electric_scooter", "is_disabled": 0, "lat": 38.91380016666667, "rental_uris": {"android": "https://dc.lft.to/lastmile_qr_scan", "ios": "https://dc.lft.to/lastmile_qr_scan"}, "bike_id": "1d8516020ef720a31c03ccdfd369e5a8", "lon": -77.04127616666666}, {"is_reserved": 0, "fusion_lon": 0.0, "fusion_lat": 0.0, "name": "f8d11ba01a491c41ef38ff8b8792afbb", "type": "electric_scooter", "is_disabled": 0, "lat": 38.90783033333334, "rental_uris": {"android": "https://dc.lft.to/lastmile_qr_scan", "ios": "https://dc.lft.to/lastmile_qr_scan"}, "bike_id": "f8d11ba01a491c41ef38ff8b8792afbb", "lon": -77.07252266666667}, {"is_reserved": 0, "fusion_lon": 0.0, "fusion_lat": 0.0, "name": "9fe012dcc6b661a8c7ac85f22ffe9153", "type": "electric_scooter", "is_disabled": 0, "lat": 38.9250065, "rental_uris": {"android": "https://dc.lft.to/lastmile_qr_scan", "ios": "https://dc.lft.to/lastmile_qr_scan"}, "bike_id": "9fe012dcc6b661a8c7ac85f22ffe9153", "lon": -77.02354066666666}, {"is_reserved": 0, "fusion_lon": 0.0, "fusion_lat": 0.0, "name": "6d1c21b00cad43062635ed2c237325fc", "type": "electric_scooter", "is_disabled": 0, "lat": 38.9071495, "rental_uris": {"android": "https://dc.lft.to/lastmile_qr_scan", "ios": "https://dc.lft.to/lastmile_qr_scan"}, "bike_id": "6d1c21b00cad43062635ed2c237325fc", "lon": -77.08207833333333}, {"is_reserved": 0, "fusion_lon": 0.0, "fusion_lat": 0.0, "name": "f78877749f0e82cec8de65723ffeb247", "type": "electric_scooter", "is_disabled": 0, "lat": 38.897461, "rental_uris": {"android": "https://dc.lft.to/lastmile_qr_scan", "ios": "https://dc.lft.to/lastmile_qr_scan"}, "bike_id": "f78877749f0e82cec8de65723ffeb247", "lon": -77.044403}, {"is_reserved": 0, "fusion_lon": 0.0, "fusion_lat": 0.0, "name": "6e692392270555d4de5516ae991fc6a5", "type": "electric_scooter", "is_disabled": 0, "lat": 38.929504666666666, "rental_uris": {"android": "https://dc.lft.to/lastmile_qr_scan", "ios": "https://dc.lft.to/lastmile_qr_scan"}, "bike_id": "6e692392270555d4de5516ae991fc6a5", "lon": -77.02779283333334}, {"is_reserved": 0, "fusion_lon": 0.0, "fusion_lat": 0.0, "name": "047de656046285cdc067cccb8c3edca5", "type": "electric_scooter", "is_disabled": 0, "lat": 38.92722633333333, "rental_uris": {"android": "https://dc.lft.to/lastmile_qr_scan", "ios": "https://dc.lft.to/lastmile_qr_scan"}, "bike_id": "047de656046285cdc067cccb8c3edca5", "lon": -77.03993366666667}, {"is_reserved": 0, "fusion_lon": 0.0, "fusion_lat": 0.0, "name": "d2dc36c1c738c0edc5501a7e7d660d59", "type": "electric_scooter", "is_disabled": 0, "lat": 38.905773, "rental_uris": {"android": "https://dc.lft.to/lastmile_qr_scan", "ios": "https://dc.lft.to/lastmile_qr_scan"}, "bike_id": "d2dc36c1c738c0edc5501a7e7d660d59", "lon": -77.0032065}, {"is_reserved": 0, "fusion_lon": 0.0, "fusion_lat": 0.0, "name": "d898403d9be238f096b788d6dd6dcdc4", "type": "electric_scooter", "is_disabled": 0, "lat": 38.90125333333334, "rental_uris": {"android": "https://dc.lft.to/lastmile_qr_scan", "ios": "https://dc.lft.to/lastmile_qr_scan"}, "bike_id": "d898403d9be238f096b788d6dd6dcdc4", "lon": -77.0400635},