{"data": {"bikes": [{"rental_uris": {"ios": "https://dc.lft.to/lastmile_qr_scan", "android": "https://dc.lft.to/lastmile_qr_scan"}, "lat": 38.917049166666665, "bike_id": "907191193cd0a6dbbb1832affccba384", "lon": -77.02305, "type": "electric_scooter", "fusion_lon": 0.0, "fusion_lat": 0.0, "is_reserved": 0, "name": "907191193cd0a6dbbb1832affccba384", "is_disabled": 0}, {"rental_uris": {"ios": "https://dc.lft.to/lastmile_qr_scan", "android": "https://dc.lft.to/lastmile_qr_scan"}, "lat": 38.92506983333333, "bike_id": "a45274cdede252db5b661d091ff444f4", "lon": -77.02275283333333, "type": "electric_scooter", "fusion_lon": 0.0, "fusion_lat": 0.0, "is_reserved": 0, "name": "a45274cdede252db5b661d091ff444f4", "is_disabled": 0}, {"rental_uris": {"ios": "https://dc.lft.to/lastmile_qr_scan", "android": "https://dc.lft.to/lastmile_qr_scan"}, "lat": 38.902464333333334, "bike_id": "88c10422b88bdb19045f53ac9a5df3e1", "lon": -77.04564366666666, "type": "electric_scooter", "fusion_lon": 0.0, "fusion_lat": 0.0, "is_reserved": 0, "name": "88c10422b88bdb19045f53ac9a5df3e1", "is_disabled": 0}, {"rental_uris": {"ios": "https://dc.lft.to/lastmile_qr_scan", "android": "https://dc.lft.to/lastmile_qr_scan"}, "lat": 38.919275166666665, "bike_id": "73e50ab77b82b030ca44f337bf8b7ec1", "lon": -77.02511483333333, "type": "electric_scooter", "fusion_lon": 0.0, "fusion_lat": 0.0, "is_reserved": 0, "name": "73e50ab77b82b030ca44f337bf8b7ec1", "is_disabled": 0}, {"rental_uris": {"ios": "https://dc.lft.to/lastmile_qr_scan", "android": "https://dc.lft.to/lastmile_qr_scan"}, "lat": 38.90280533333333, "bike_id": "93987c26737570da113990e875159283", "lon": -77.0383575, "type": "electric_scooter", "fusion_lon": 0.0, "fusion_lat": 0.0, "is_reserved": 0, "name": "93987c26737570da113990e875159283", "is_disabled": 0}, {"rental_uris": {"ios": "https://dc.lft.to/lastmile_qr_scan", "android": "https://dc.lft.to/lastmile_qr_scan"}, "lat": 38.90027516666667, "bike_id": "025aa5bf7c8e45c43d748f0b236ae68a", "lon": -77.02848733333333, "type": "electric_scooter", "fusion_lon": 0.0, "fusion_lat": 0.0, "is_reserved": 0, "name": "025aa5bf7c8e45c43d748f0b236ae68a", "is_disabled": 0}, {"rental_uris": {"ios": "https://dc.lft.to/lastmile_qr_scan", "android": "https://dc.lft.to/lastmile_qr_scan"}, "lat": 38.90482566666667, "bike_id": "36cd09542844b47c1b46fa5e26afab47", "lon": -77.0343195, "type": "electric_scooter", "fusion_lon": 0.0, "fusion_lat": 0.0, "is_reserved": 0, "name": "36cd09542844b47c1b46fa5e26afab47", "is_disabled": 0}, {"rental_uris": {"ios": "https://dc.lft.to/lastmile_qr_scan", "android": "https://dc.lft.to/lastmile_qr_scan"}, "lat": 38.900672666666665, "bike_id": "001903ce0b665f02dda1792103a0f936", "lon": -77.04998883333333, "type": "electric_scooter", "fusion_lon": 0.0, "fusion_lat": 0.0, "is_reserved": 0, "name": "001903ce0b665f02dda1792103a0f936", "is_disabled": 0}, {"rental_uris": {"ios": "https://dc.lft.to/lastmile_qr_scan", "android": "https://dc.lft.to/lastmile_qr_scan"}, "lat": 38.900054833333336, "bike_id": "18dc9fc21b8b725a203cac4dc33e646a", "lon": -77.00700433333333, "type": "electric_scooter", "fusion_lon": 0.0, "fusion_lat": 0.0, "is_reserved": 0, "name": "18dc9fc21b8b725a203cac4dc33e646a", "is_disabled": 0}, {"rental_uris": {"ios": "https://dc.lft.to/lastmile_qr_scan", "android": "https://dc.lft.to/lastmile_qr_scan"}, "lat": 38.924135, "bike_id": "bb5b91f886be4f9a6ddc9ce102c81308", "lon": -77.02005633333333, "type": "electric_scooter", "fusion_lon": 0.0, "fusion_lat": 0.0, "is_reserved": 0, "name": "bb5b91f886be4f9a6ddc9ce102c81308", "is_disabled": 0}, {"rental_uris": {"ios": "https://dc.lft.to/lastmile_qr_scan", "android": "https://dc.lft.to/lastmile_qr_scan"}, "lat": 38.905764, "bike_id": "cddc25789ebf0af26dcb3b216693c2f4", "lon": -77.007805, "type": "electric_scooter", "fusion_lon": 0.0, "fusion_lat": 0.0, "is_reserved": 0, "name": "cddc25789ebf0af26dcb3b216693c2f4", "is_disabled": 0}, {"rental_uris": {"ios": "https://dc.lft.to/lastmile_qr_scan", "android": "https://dc.lft.to/lastmile_qr_scan"}, "lat": 38.909697666666666, "bike_id": "81b3b4a89e16775aad44f358cac93911", "lon": -77.011073, "type": "electric_scooter", "fusion_lon": 0.0, "fusion_lat": 0.0, "is_reserved": 0, "name": "81b3b4a89e16775aad44f358cac93911", "is_disabled": 0}, {"rental_uris": {"ios": "https://dc.lft.to/lastmile_qr_scan", "android": "https://dc.lft.to/lastmile_qr_scan"}, "lat": 38.90079266666667, "bike_id": "cbb0623597f7291b2168c04b18d0f989", "lon": -77.01224366666666, "type": "electric_scooter", "fusion_lon": 0.0, "fusion_lat": 0.0, "is_reserved": 0, "name": "cbb0623597f7291b2168c04b18d0f989", "is_disabled": 0}, {"rental_uris": {"ios": "https://dc.lft.to/lastmile_qr_scan", "android": "https://dc.lft.to/lastmile_qr_scan"}, "lat": 38.8750375, "bike_id": "9df4492890b2f12bc3b3adf15007a03e", "lon": -76.99977583333333, "type": "electric_scooter", "fusion_lon": 0.0, "fusion_lat": 0.0, "is_reserved": 0, "name": "9df4492890b2f12bc3b3adf15007a03e", "is_disabled": 0}, {"rental_uris": {"ios": "https://dc.lft.to/lastmile_qr_scan", "android": "https://dc.lft.to/lastmile_qr_scan"}, "lat": 38.86371666666667, "bike_id": "e3507491963b22d32e5007f5ea803e4b", "lon": -76.99056733333333, "type": "electric_scooter", "fusion_lon": 0.0, "fusion_lat": 0.0, "is_reserved": 0, "name": "e3507491963b22d32e5007f5ea803e4b", "is_disabled": 0}, {"rental_uris": {"ios": "https://dc.lft.to/lastmile_qr_scan", "android": "https://dc.lft.to/lastmile_qr_scan"}, "lat": 38.892725, "bike_id": "9eba215fe2e5d07db5ada7bebb40c4d9", "lon": -77.00126716666666, "type": "electric_scooter", "fusion_lon": 0.0, "fusion_lat": 0.0, "is_reserved": 0, "name": "9eba215fe2e5d07db5ada7bebb40c4d9", "is_disabled": 0}, {"rental_uris": {"ios": "https://dc.lft.to/lastmile_qr_scan", "android": "https://dc.lft.to/lastmile_qr_scan"}, "lat": 38.922303666666664, "bike_id": "e8f09484af7c68704aa5f6871b84e808", "lon": -77.0297015, "type": "electric_scooter", "fusion_lon": 0.0, "fusion_lat": 0.0, "is_reserved": 0, "name": "e8f09484af7c68704aa5f6871b84e808", "is_disabled": 0}, {"rental_uris": {"ios": "https://dc.lft.to/lastmile_qr_scan", "android": "https://dc.lft.to/lastmile_qr_scan"}, "lat": 38.972190499999996, "bike_id": "d516878a9efd7c65139f856538d9e614", "lon": -77.03322983333334, "type": "electric_bike", "fusion_lon": 0.0, "fusion_lat": 0.0, "is_reserved": 0, "name": "d516878a9efd7c65139f856538d9e614", "is_disabled": 0}, {"rental_uris": {"ios": "https://dc.lft.to/lastmile_qr_scan", "android": "https://dc.lft.to/lastmile_qr_scan"}, "lat": 38.90286533333333, "bike_id": "4be9d9cb018e4f93d436c48e19361978", "lon": -77.0334625, "type": "electric_scooter", "fusion_lon": 0.0, "fusion_lat": 0.0, "is_reserved": 0, "name": "4be9d9cb018e4f93d436c48e19361978", "is_disabled": 0}, {"rental_uris": {"ios": "https://dc.lft.to/lastmile_qr_scan", "android": "https://dc.lft.to/lastmile_qr_scan"}, "lat": 38.905231666666666, "bike_id": "4eda27888fc67f95caec8e2d834950a0", "lon": -77.06378283333333, "type": "electric_scooter", "fusion_lon": 0.0, "fusion_lat": 0.0, "is_reserved": 0, "name": "4eda27888fc67f95caec8e2d834950a0", "is_disabled": 0}, {"rental_uris": {"ios": "https://dc.lft.to/lastmile_qr_scan", "android": "https://dc.lft.to/lastmile_qr_scan"}, "lat": 38.933678, "bike_id": "d84a48e87f840adb02ac525c157d67f2", "lon": -77.05724833333333, "type": "electric_scooter", "fusion_lon": 0.0, "fusion_lat": 0.0, "is_reserved": 0, "name": "d84a48e87f840adb02ac525c157d67f2", "is_disabled": 0}, {"rental_uris": {"ios": "https://dc.lft.to/lastmile_qr_scan", "android": "https://dc.lft.to/lastmile_qr_scan"}, "lat": 38.89846933333333, "bike_id": "29931e4ef65e1d838c835a5df4a63aec", "lon": -77.01219083333334, "type": "electric_scooter", "fusion_lon": 0.0, "fusion_lat": 0.0, "is_reserved": 0, "name": "29931e4ef65e1d838c835a5df4a63aec", "is_disabled": 0}, {"rental_uris": {"ios": "https://dc.lft.to/lastmile_qr_scan", "android": "https://dc.lft.to/lastmile_qr_scan"}, "lat": 38.8603315, "bike_id": "1af47b810f96bc52eddf875cf5167fe7", "lon": -76.96706033333334, "type": "electric_scooter", "fusion_lon": 0.0, "fusion_lat": 0.0, "is_reserved": 0, "name": "1af47b810f96bc52eddf875cf5167fe7", "is_disabled": 0}, {"rental_uris": {"ios": "https://dc.lft.to/lastmile_qr_scan", "android": "https://dc.lft.to/lastmile_qr_scan"}, "lat": 38.844710166666665, "bike_id": "6643d41759ffcf7d31e598ec5bd7b455", "lon": -76.9785205, "type": "electric_bike", "fusion_lon": 0.0, "fusion_lat": 0.0, "is_reserved": 0, "name": "6643d41759ffcf7d31e598ec5bd7b455", "is_disabled": 0}, {"rental_uris": {"ios": "https://dc.lft.to/lastmile_qr_scan", "android": "https://dc.lft.to/lastmile_qr_scan"}, "lat": 38.90968266666667, "bike_id": "f8cdf307a01855d3e6baac9206665b6d", "lon": -77.02553916666666, "type": "electric_scooter", "fusion_lon": 0.0, "fusion_lat": 0.0, "is_reserved": 0, "name": "f8cdf307a01855d3e6baac9206665b6d", "is_disabled": 0}, {"rental_uris": {"ios": "https://dc.lft.to/lastmile_qr_scan", "android": "https://dc.lft.to/lastmile_qr_scan"}, "lat": 38.876554166666665, "bike_id": "5537260d297d10691eff862b74c10a40", "lon": -77.00553916666667, "type": "electric_scooter", "fusion_lon": 0.0, "fusion_lat": 0.0, "is_reserved": 0, "name": "5537260d297d10691eff862b74c10a40", "is_disabled": 0}, {"rental_uris": {"ios": "https://dc.lft.to/lastmile_qr_scan", "android": "https://dc.lft.to/lastmile_qr_scan"}, "lat": 38.906149166666665, "bike_id": "48c27f49756d5558c28b1ce053117109", "lon": -77.05655466666667, "type": "electric_scooter", "fusion_lon": 0.0, "fusion_lat": 0.0, "is_reserved": 0, "name": "48c27f49756d5558c28b1ce053117109", "is_disabled": 0}, {"rental_uris": {"ios": "https://dc.lft.to/lastmile_qr_scan", "android": "https://dc.lft.to/lastmile_qr_scan"}, "lat": 38.92233133333333, "bike_id": "08cfa0ddc26afd5dfc306c46348e103c", "lon": -77.00845716666667, "type": "electric_scooter", "fusion_lon": 0.0, "fusion_lat": 0.0, "is_reserved": 0, "name": "08cfa0ddc26afd5dfc306c46348e103c", "is_disabled": 0}, {"rental_uris": {"ios": "https://dc.lft.to/lastmile_qr_scan", "android": "https://dc.lft.to/lastmile_qr_scan"}, "lat": 38.894645, "bike_id": "3d1946d3ff8dab669121d0fd33bb4216", "lon": -77.00345783333333, "type": "electric_scooter", "fusion_lon": 0.0, "fusion_lat": 0.0, "is_reserved": 0, "name": "3d1946d3ff8dab669121d0fd33bb4216", "is_disabled": 0}, {"rental_uris": {"ios": "https://dc.lft.to/lastmile_qr_scan", "android": "https://dc.lft.to/lastmile_qr_scan"}, "lat": 38.879235, "bike_id": "b99fa3f6d573bf6a444b2b5ab2d53118", "lon": -76.99519033333333, "type": "electric_scooter", "fusion_lon": 0.0, "fusion_lat": 0.0, "is_reserved": 0, "name": "b99fa3f6d573bf6a444b2b5ab2d53118", "is_disabled": 0}, {"rental_uris": {"ios": "https://dc.lft.to/lastmile_qr_scan", "android": "https://dc.lft.to/lastmile_qr_scan"}, "lat": 38.918061, "bike_id": "9d84e09e4f9a976a15f5be795adb852c", "lon": -77.0249425, "type": "electric_scooter", "fusion_lon": 0.0, "fusion_lat": 0.0, "is_reserved": 0, "name": "9d84e09e4f9a976a15f5be795adb852c", "is_disabled": 0}, {"rental_uris": {"ios": "https://dc.lft.to/lastmile_qr_scan", "android": "https://dc.lft.to/lastmile_qr_scan"}, "lat": 38.8965125, "bike_id": "0a1480776edf74fa47d01b5cf1b9bcae", "lon": -77.0705065, "type": "electric_scooter", "fusion_lon": 0.0, "fusion_lat": 0.0, "is_reserved": 0, "name": "0a1480776edf74fa47d01b5cf1b9bcae", "is_disabled": 0}, {"rental_uris": {"ios": "https://dc.lft.to/lastmile_qr_scan", "android": "https://dc.lft.to/lastmile_qr_scan"}, "lat": 38.924804, "bike_id": "bb907d47809f37db24b9c33620914593", "lon": -77.0521265, "type": "electric_scooter", "fusion_lon": 0.0, "fusion_lat": 0.0, "is_reserved": 0, "name": "bb907d47809f37db24b9c33620914593", "is_disabled": 0}, {"rental_uris": {"ios": "https://dc.lft.to/lastmile_qr_scan", "android": "https://dc.lft.to/lastmile_qr_scan"}, "lat": 38.997096666666664, "bike_id": "6b73e284210066653b8f4c5af5ebce27", "lon": -77.02543333333334, "type": "electric_bike", "fusion_lon": 0.0, "fusion_lat": 0.0, "is_reserved": 0, "name": "6b73e284210066653b8f4c5af5ebce27", "is_disabled": 0}, {"rental_uris": {"ios": "https://dc.lft.to/lastmile_qr_scan", "android": "https://dc.lft.to/lastmile_qr_scan"}, "lat": 38.91982133333333, "bike_id": "3ea5286c21fa51e03c9df5c118dd8487", "lon": -77.032814, "type": "electric_scooter", "fusion_lon": 0.0, "fusion_lat": 0.0, "is_reserved": 0, "name": "3ea5286c21fa51e03c9df5c118dd8487", "is_disabled": 0}, {"rental_uris": {"ios": "https://dc.lft.to/lastmile_qr_scan", "android": "https://dc.lft.to/lastmile_qr_scan"}, "lat": 38.87571466666667, "bike_id": "ec83c2a65b5a82d87cb9f93fc652e623", "lon": -77.0057005, "type": "electric_scooter", "fusion_lon": 0.0, "fusion_lat": 0.0, "is_reserved": 0, "name": "ec83c2a65b5a82d87cb9f93fc652e623", "is_disabled": 0}, {"rental_uris": {"ios": "https://dc.lft.to/lastmile_qr_scan", "android": "https://dc.lft.to/lastmile_qr_scan"}, "lat": 38.903730833333334, "bike_id": "2b4bea1b9fec4213ca1c8d49e67538f5", "lon": -77.02568966666666, "type": "electric_scooter", "fusion_lon": 0.0, "fusion_lat": 0.0, "is_reserved": 0, "name": "2b4bea1b9fec4213ca1c8d49e67538f5", "is_disabled": 0}, {"rental_uris": {"ios": "https://dc.lft.to/lastmile_qr_scan", "android": "https://dc.lft.to/lastmile_qr_scan"}, "lat": 38.89722966666667, "bike_id": "bdaabc54d95db4e58e3eba1f784d208a", "lon": -77.0272635, "type": "electric_scooter", "fusion_lon": 0.0, "fusion_lat": 0.0, "is_reserved": 0, "name": "bdaabc54d95db4e58e3eba1f784d208a", "is_disabled": 0}, {"rental_uris": {"ios": "https://dc.lft.to/lastmile_qr_scan", "android": "https://dc.lft.to/lastmile_qr_scan"}, "lat": 38.912775833333335, "bike_id": "722062a17a478e0110b7a5481aaf56fe", "lon": -77.0383955, "type": "electric_scooter", "fusion_lon": 0.0, "fusion_lat": 0.0, "is_reserved": 0, "name": "722062a17a478e0110b7a5481aaf56fe", "is_disabled": 0}, {"rental_uris": {"ios": "https://dc.lft.to/lastmile_qr_scan", "android": "https://dc.lft.to/lastmile_qr_scan"}, "lat": 38.911773333333336, "bike_id": "7e983a51b26f71b2d3c94642dbe12b97", "lon": -77.01135416666666, "type": "electric_scooter", "fusion_lon": 0.0, "fusion_lat": 0.0, "is_reserved": 0, "name": "7e983a51b26f71b2d3c94642dbe12b97", "is_disabled": 0}, {"rental_uris": {"ios": "https://dc.lft.to/lastmile_qr_scan", "android": "https://dc.lft.to/lastmile_qr_scan"}, "lat": 38.887675, "bike_id": "975ff456365c448f1c307901132444cc", "lon": -76.95588933333333, "type": "electric_scooter", "fusion_lon": 0.0, "fusion_lat": 0.0, "is_reserved": 0, "name": "975ff456365c448f1c307901132444cc", "is_disabled": 0}, {"rental_uris": {"ios": "https://dc.lft.to/lastmile_qr_scan", "android": "https://dc.lft.to/lastmile_qr_scan"}, "lat": 38.9171725, "bike_id": "a04fcd7e4fd71cc909077f22c49bd2fa", "lon": -77.02599466666666, "type": "electric_scooter", "fusion_lon": 0.0, "fusion_lat": 0.0, "is_reserved": 0, "name": "a04fcd7e4fd71cc909077f22c49bd2fa", "is_disabled": 0}, {"rental_uris": {"ios": "https://dc.lft.to/lastmile_qr_scan", "android": "https://dc.lft.to/lastmile_qr_scan"}, "lat": 38.917456666666666, "bike_id": "6680f4ce565ce1293607ea40e39a1600", "lon": -77.036395, "type": "electric_scooter", "fusion_lon": 0.0, "fusion_lat": 0.0, "is_reserved": 0, "name": "6680f4ce565ce1293607ea40e39a1600", "is_disabled": 0}, {"rental_uris": {"ios": "https://dc.lft.to/lastmile_qr_scan", "android": "https://dc.lft.to/lastmile_qr_scan"}, "lat": 38.905728333333336, "bike_id": "5eb17968201c05044cf946f99c9528ff", "lon": -77.0039375, "type": "electric_scooter", "fusion_lon": 0.0, "fusion_lat": 0.0, "is_reserved": 0, "name": "5eb17968201c05044cf946f99c9528ff", "is_disabled": 0}, {"rental_uris": {"ios": "https://dc.lft.to/lastmile_qr_scan", "android": "https://dc.lft.to/lastmile_qr_scan"}, "lat": 38.86621933333333, "bike_id": "a4323bc226d0c7946af318d4c22db3cc", "lon": -76.987123, "type": "electric_scooter", "fusion_lon": 0.0, "fusion_lat": 0.0, "is_reserved": 0, "name": "a4323bc226d0c7946af318d4c22db3cc", "is_disabled": 0}, {"rental_uris": {"ios": "https://dc.lft.to/lastmile_qr_scan", "android": "https://dc.lft.to/lastmile_qr_scan"}, "lat": 38.90086083333333, "bike_id": "7a433742ede4c8e9a23cadd9afe0ec01", "lon": -77.04868383333333, "type": "electric_scooter", "fusion_lon": 0.0, "fusion_lat": 0.0, "is_reserved": 0, "name": "7a433742ede4c8e9a23cadd9afe0ec01", "is_disabled": 0}, {"rental_uris": {"ios": "https://dc.lft.to/lastmile_qr_scan", "android": "https://dc.lft.to/lastmile_qr_scan"}, "lat": 38.9142025, "bike_id": "d73fd6aff7f866e630a840525c16b5f8", "lon": -77.0317115, "type": "electric_scooter", "fusion_lon": 0.0, "fusion_lat": 0.0, "is_reserved": 0, "name": "d73fd6aff7f866e630a840525c16b5f8", "is_disabled": 0}, {"rental_uris": {"ios": "https://dc.lft.to/lastmile_qr_scan", "android": "https://dc.lft.to/lastmile_qr_scan"}, "lat": 38.90130666666667, "bike_id": "4c5a26f17e7f93ff2b568af8d7b2374d", "lon": -77.03250466666667, "type": "electric_scooter", "fusion_lon": 0.0, "fusion_lat": 0.0, "is_reserved": 0, "name": "4c5a26f17e7f93ff2b568af8d7b2374d", "is_disabled": 0}, {"rental_uris": {"ios": "https://dc.lft.to/lastmile_qr_scan", "android": "https://dc.lft.to/lastmile_qr_scan"}, "lat": 38.9160785, "bike_id": "d178ea59fdc6f2de1fab632fbe787d64", "lon": -77.08526016666667, "type": "electric_scooter", "fusion_lon": 0.0, "fusion_lat": 0.0, "is_reserved": 0, "name": "d178ea59fdc6f2de1fab632fbe787d64", "is_disabled": 0}, {"rental_uris": {"ios": "https://dc.lft.to/lastmile_qr_scan", "android": "https://dc.lft.to/lastmile_qr_scan"}, "lat": 38.95250683333333, "bike_id": "3377db57c0cfdcb0f89382d5254d459f", "lon": -77.01963516666666, "type": "electric_scooter", "fusion_lon": 0.0, "fusion_lat": 0.0, "is_reserved": 0, "name": "3377db57c0cfdcb0f89382d5254d459f", "is_disabled": 0}, {"rental_uris": {"ios": "https://dc.lft.to/lastmile_qr_scan", "android": "https://dc.lft.to/lastmile_qr_scan"}, "lat": 38.902613, "bike_id": "6896b0088a670fdb41d95b4ac7f076dd", "lon": -77.03463933333333, "type": "electric_scooter", "fusion_lon": 0.0, "fusion_lat": 0.0, "is_reserved": 0, "name": "6896b0088a670fdb41d95b4ac7f076dd", "is_disabled": 0}, {"rental_uris": {"ios": "https://dc.lft.to/lastmile_qr_scan", "android": "https://dc.lft.to/lastmile_qr_scan"}, "lat": 38.90753866666667, "bike_id": "d53993b3ad4f2805f1d50e1ccd829deb", "lon": -77.07149166666666, "type": "electric_scooter", "fusion_lon": 0.0, "fusion_lat": 0.0, "is_reserved": 0, "name": "d53993b3ad4f2805f1d50e1ccd829deb", "is_disabled": 0}, {"rental_uris": {"ios": "https://dc.lft.to/lastmile_qr_scan", "android": "https://dc.lft.to/lastmile_qr_scan"}, "lat": 38.984596833333335, "bike_id": "046ea632ac98c3e93e36e8330662457b", "lon": -76.97049633333333, "type": "electric_bike", "fusion_lon": 0.0, "fusion_lat": 0.0, "is_reserved": 0, "name": "046ea632ac98c3e93e36e8330662457b", "is_disabled": 0}, {"rental_uris": {"ios": "https://dc.lft.to/lastmile_qr_scan", "android": "https://dc.lft.to/lastmile_qr_scan"}, "lat": 38.92450216666667, "bike_id": "2133e3e32742c8c92ae198a82edb9258", "lon": -77.02022466666666, "type": "electric_scooter", "fusion_lon": 0.0, "fusion_lat": 0.0, "is_reserved": 0, "name": "2133e3e32742c8c92ae198a82edb9258", "is_disabled": 0}, {"rental_uris": {"ios": "https://dc.lft.to/lastmile_qr_scan", "android": "https://dc.lft.to/lastmile_qr_scan"}, "lat": 38.931090166666664, "bike_id": "77bd481cac15f83fb30aedab5a5c4a7e", "lon": -77.035064, "type": "electric_scooter", "fusion_lon": 0.0, "fusion_lat": 0.0, "is_reserved": 0, "name": "77bd481cac15f83fb30aedab5a5c4a7e", "is_disabled": 0}, {"rental_uris": {"ios": "https://dc.lft.to/lastmile_qr_scan", "android": "https://dc.lft.to/lastmile_qr_scan"}, "lat": 38.91002833333334, "bike_id": "fa119639357698d91113d430a970e301", "lon": -77.03658033333333, "type": "electric_scooter", "fusion_lon": 0.0, "fusion_lat": 0.0, "is_reserved": 0, "name": "fa119639357698d91113d430a970e301", "is_disabled": 0}, {"rental_uris": {"ios": "https://dc.lft.to/lastmile_qr_scan", "android": "https://dc.lft.to/lastmile_qr_scan"}, "lat": 38.9296625, "bike_id": "ef956bc4ae5a21900827733e4edde449", "lon": -77.03257183333334, "type": "electric_scooter", "fusion_lon": 0.0, "fusion_lat": 0.0, "is_reserved": 0, "name": "ef956bc4ae5a21900827733e4edde449", "is_disabled": 0}, {"rental_uris": {"ios": "https://dc.lft.to/lastmile_qr_scan", "android": "https://dc.lft.to/lastmile_qr_scan"}, "lat": 38.90235783333333, "bike_id": "66c8f7d3b35c65006cc2d200ce7486a4", "lon": -77.038081, "type": "electric_scooter", "fusion_lon": 0.0, "fusion_lat": 0.0, "is_reserved": 0, "name": "66c8f7d3b35c65006cc2d200ce7486a4", "is_disabled": 0}, {"rental_uris": {"ios": "https://dc.lft.to/lastmile_qr_scan", "android": "https://dc.lft.to/lastmile_qr_scan"}, "lat": 38.91699216666667, "bike_id": "0f73ba216a6dc6ce184961378bf432e4", "lon": -77.01196866666666, "type": "electric_scooter", "fusion_lon": 0.0, "fusion_lat": 0.0, "is_reserved": 0, "name": "0f73ba216a6dc6ce184961378bf432e4", "is_disabled": 0}, {"rental_uris": {"ios": "https://dc.lft.to/lastmile_qr_scan", "android": "https://dc.lft.to/lastmile_qr_scan"}, "lat": 38.900741833333335, "bike_id": "8323ec4627e286517ee57dc93ef39755", "lon": -77.0270635, "type": "electric_scooter", "fusion_lon": 0.0, "fusion_lat": 0.0, "is_reserved": 0, "name": "8323ec4627e286517ee57dc93ef39755", "is_disabled": 0}, {"rental_uris": {"ios": "https://dc.lft.to/lastmile_qr_scan", "android": "https://dc.lft.to/lastmile_qr_scan"}, "lat": 38.904898, "bike_id": "d30380e3df0169f89b969d433208a989", "lon": -77.02601583333333, "type": "electric_scooter", "fusion_lon": 0.0, "fusion_lat": 0.0, "is_reserved": 0, "name": "d30380e3df0169f89b969d433208a989", "is_disabled": 0}, {"rental_uris": {"ios": "https://dc.lft.to/lastmile_qr_scan", "android": "https://dc.lft.to/lastmile_qr_scan"}, "lat": 38.917012166666666, "bike_id": "96ab11c7823cb1c123cf29b4d88a7f0c", "lon": -77.024565, "type": "electric_scooter", "fusion_lon": 0.0, "fusion_lat": 0.0, "is_reserved": 0, "name": "96ab11c7823cb1c123cf29b4d88a7f0c", "is_disabled": 0}, {"rental_uris": {"ios": "https://dc.lft.to/lastmile_qr_scan", "android": "https://dc.lft.to/lastmile_qr_scan"}, "lat": 38.9236425, "bike_id": "7e12115c366c75854f8e1b6c22c431dc", "lon": -77.01945616666667, "type": "electric_scooter", "fusion_lon": 0.0, "fusion_lat": 0.0, "is_reserved": 0, "name": "7e12115c366c75854f8e1b6c22c431dc", "is_disabled": 0}, {"rental_uris": {"ios": "https://dc.lft.to/lastmile_qr_scan", "android": "https://dc.lft.to/lastmile_qr_scan"}, "lat": 38.911037, "bike_id": "5230774da3f6419c0aa51fe1e3ba5d6d", "lon": -77.02231916666666, "type": "electric_scooter", "fusion_lon": 0.0, "fusion_lat": 0.0, "is_reserved": 0, "name": "5230774da3f6419c0aa51fe1e3ba5d6d", "is_disabled": 0}, {"rental_uris": {"ios": "https://dc.lft.to/lastmile_qr_scan", "android": "https://dc.lft.to/lastmile_qr_scan"}, "lat": 38.9034065, "bike_id": "db146ae5ec80aa85b062ddcf51ae1cbd", "lon": -77.02062466666666, "type": "electric_scooter", "fusion_lon": 0.0, "fusion_lat": 0.0, "is_reserved": 0, "name": "db146ae5ec80aa85b062ddcf51ae1cbd", "is_disabled": 0}, {"rental_uris": {"ios": "https://dc.lft.to/lastmile_qr_scan", "android": "https://dc.lft.to/lastmile_qr_scan"}, "lat": 38.901711666666664, "bike_id": "39c2543c9931fc0269d441554e07f258", "lon": -76.92654166666667, "type": "electric_scooter", "fusion_lon": 0.0, "fusion_lat": 0.0, "is_reserved": 0, "name": "39c2543c9931fc0269d441554e07f258", "is_disabled": 0}, {"rental_uris": {"ios": "https://dc.lft.to/lastmile_qr_scan", "android": "https://dc.lft.to/lastmile_qr_scan"}, "lat": 38.8718675, "bike_id": "bea4f600657f5ad63c4bf112f24744b0", "lon": -77.00723083333334, "type": "electric_scooter", "fusion_lon": 0.0, "fusion_lat": 0.0, "is_reserved": 0, "name": "bea4f600657f5ad63c4bf112f24744b0", "is_disabled": 0}, {"rental_uris": {"ios": "https://dc.lft.to/lastmile_qr_scan", "android": "https://dc.lft.to/lastmile_qr_scan"}, "lat": 38.90597316666667, "bike_id": "fbf749decb6758aa3b1cf060d6eb65dd", "lon": -77.00555516666667, "type": "electric_scooter", "fusion_lon": 0.0, "fusion_lat": 0.0, "is_reserved": 0, "name": "fbf749decb6758aa3b1cf060d6eb65dd", "is_disabled": 0}, {"rental_uris": {"ios": "https://dc.lft.to/lastmile_qr_scan", "android": "https://dc.lft.to/lastmile_qr_scan"}, "lat": 38.9025935, "bike_id": "e3ba75c064f0d1362cb0daa33a9d1399", "lon": -77.018474, "type": "electric_scooter", "fusion_lon": 0.0, "fusion_lat": 0.0, "is_reserved": 0, "name": "e3ba75c064f0d1362cb0daa33a9d1399", "is_disabled": 0}, {"rental_uris": {"ios": "https://dc.lft.to/lastmile_qr_scan", "android": "https://dc.lft.to/lastmile_qr_scan"}, "lat": 38.973683333333334, "bike_id": "f9bcbd2dac6d14aedd077bc5890f218d", "lon": -77.01849416666667, "type": "electric_scooter", "fusion_lon": 0.0, "fusion_lat": 0.0, "is_reserved": 0, "name": "f9bcbd2dac6d14aedd077bc5890f218d", "is_disabled": 0}, {"rental_uris": {"ios": "https://dc.lft.to/lastmile_qr_scan", "android": "https://dc.lft.to/lastmile_qr_scan"}, "lat": 38.9205135, "bike_id": "32dca0f6ce766123dc1352ca7e7aa082", "lon": -77.03358466666667, "type": "electric_scooter", "fusion_lon": 0.0, "fusion_lat": 0.0, "is_reserved": 0, "name": "32dca0f6ce766123dc1352ca7e7aa082", "is_disabled": 0}, {"rental_uris": {"ios": "https://dc.lft.to/lastmile_qr_scan", "android": "https://dc.lft.to/lastmile_qr_scan"}, "lat": 38.899278, "bike_id": "8d475613ed6c2ccbe3e551b93521168b", "lon": -77.02784466666667, "type": "electric_scooter", "fusion_lon": 0.0, "fusion_lat": 0.0, "is_reserved": 0, "name": "8d475613ed6c2ccbe3e551b93521168b", "is_disabled": 0}, {"rental_uris": {"ios": "https://dc.lft.to/lastmile_qr_scan", "android": "https://dc.lft.to/lastmile_qr_scan"}, "lat": 38.8954435, "bike_id": "0c516f631d4757d3409279edd583e3fd", "lon": -76.982474, "type": "electric_scooter", "fusion_lon": 0.0, "fusion_lat": 0.0, "is_reserved": 0, "name": "0c516f631d4757d3409279edd583e3fd", "is_disabled": 0}, {"rental_uris": {"ios": "https://dc.lft.to/lastmile_qr_scan", "android": "https://dc.lft.to/lastmile_qr_scan"}, "lat": 38.90233083333333, "bike_id": "3dcd6785403bcc290399589b06067125", "lon": -77.0294975, "type": "electric_scooter", "fusion_lon": 0.0, "fusion_lat": 0.0, "is_reserved": 0, "name": "3dcd6785403bcc290399589b06067125", "is_disabled": 0}, {"rental_uris": {"ios": "https://dc.lft.to/lastmile_qr_scan", "android": "https://dc.lft.to/lastmile_qr_scan"}, "lat": 38.920275333333336, "bike_id": "cdaa0f2adc0199b6ce9d1ad744c52c9e", "lon": -77.01025933333334, "type": "electric_scooter", "fusion_lon": 0.0, "fusion_lat": 0.0, "is_reserved": 0, "name": "cdaa0f2adc0199b6ce9d1ad744c52c9e", "is_disabled": 0}, {"rental_uris": {"ios": "https://dc.lft.to/lastmile_qr_scan", "android": "https://dc.lft.to/lastmile_qr_scan"}, "lat": 38.93209733333333, "bike_id": "953c10b60ce93a0b54e09a576a9297fd", "lon": -77.0235175, "type": "electric_scooter", "fusion_lon": 0.0, "fusion_lat": 0.0, "is_reserved": 0, "name": "953c10b60ce93a0b54e09a576a9297fd", "is_disabled": 0}, {"rental_uris": {"ios": "https://dc.lft.to/lastmile_qr_scan", "android": "https://dc.lft.to/lastmile_qr_scan"}, "lat": 38.87497966666667, "bike_id": "c31d2b72d8e4101fe5bd41031a7c8631", "lon": -77.00128666666667, "type": "electric_scooter", "fusion_lon": 0.0, "fusion_lat": 0.0, "is_reserved": 0, "name": "c31d2b72d8e4101fe5bd41031a7c8631", "is_disabled": 0}, {"rental_uris": {"ios": "https://dc.lft.to/lastmile_qr_scan", "android": "https://dc.lft.to/lastmile_qr_scan"}, "lat": 38.915358833333336, "bike_id": "5bbbf64b6b5876d340728c84567352bb", "lon": -77.0198185, "type": "electric_scooter", "fusion_lon": 0.0, "fusion_lat": 0.0, "is_reserved": 0, "name": "5bbbf64b6b5876d340728c84567352bb", "is_disabled": 0}, {"rental_uris": {"ios": "https://dc.lft.to/lastmile_qr_scan", "android": "https://dc.lft.to/lastmile_qr_scan"}, "lat": 38.90984066666667, "bike_id": "8626325c3db3ebb57d728c5eafd52210", "lon": -77.03180633333334, "type": "electric_scooter", "fusion_lon": 0.0, "fusion_lat": 0.0, "is_reserved": 0, "name": "8626325c3db3ebb57d728c5eafd52210", "is_disabled": 0}, {"rental_uris": {"ios": "https://dc.lft.to/lastmile_qr_scan", "android": "https://dc.lft.to/lastmile_qr_scan"}, "lat": 38.8951255, "bike_id": "db79525373487cbfb3f89db680941301", "lon": -77.02266966666667, "type": "electric_scooter", "fusion_lon": 0.0, "fusion_lat": 0.0, "is_reserved": 0, "name": "db79525373487cbfb3f89db680941301", "is_disabled": 0}, {"rental_uris": {"ios": "https://dc.lft.to/lastmile_qr_scan", "android": "https://dc.lft.to/lastmile_qr_scan"}, "lat": 38.86517083333333, "bike_id": "966a51e7fb4a5b76e97964701c7ac36c", "lon": -77.1293565, "type": "electric_bike", "fusion_lon": 0.0, "fusion_lat": 0.0, "is_reserved": 0, "name": "966a51e7fb4a5b76e97964701c7ac36c", "is_disabled": 0}, {"rental_uris": {"ios": "https://dc.lft.to/lastmile_qr_scan", "android": "https://dc.lft.to/lastmile_qr_scan"}, "lat": 38.910687833333334, "bike_id": "30d13ebe1bd09471ecf02381cbbf396a", "lon": -77.026382, "type": "electric_scooter", "fusion_lon": 0.0, "fusion_lat": 0.0, "is_reserved": 0, "name": "30d13ebe1bd09471ecf02381cbbf396a", "is_disabled": 0}, {"rental_uris": {"ios": "https://dc.lft.to/lastmile_qr_scan", "android": "https://dc.lft.to/lastmile_qr_scan"}, "lat": 38.923827333333335, "bike_id": "e3cfd1dc73e774b6ec0b65a7e1a49f3b", "lon": -77.036577, "type": "electric_scooter", "fusion_lon": 0.0, "fusion_lat": 0.0, "is_reserved": 0, "name": "e3cfd1dc73e774b6ec0b65a7e1a49f3b", "is_disabled": 0}, {"rental_uris": {"ios": "https://dc.lft.to/lastmile_qr_scan", "android": "https://dc.lft.to/lastmile_qr_scan"}, "lat": 38.8935805, "bike_id": "33dbc4f43afd1fe5e5da3be165fe10ec", "lon": -76.949403, "type": "electric_scooter", "fusion_lon": 0.0, "fusion_lat": 0.0, "is_reserved": 0, "name": "33dbc4f43afd1fe5e5da3be165fe10ec", "is_disabled": 0}, {"rental_uris": {"ios": "https://dc.lft.to/lastmile_qr_scan", "android": "https://dc.lft.to/lastmile_qr_scan"}, "lat": 38.8952695, "bike_id": "426a9195b533ce5c74de15c19b3d22d8", "lon": -77.00335233333334, "type": "electric_scooter", "fusion_lon": 0.0, "fusion_lat": 0.0, "is_reserved": 0, "name": "426a9195b533ce5c74de15c19b3d22d8", "is_disabled": 0}, {"rental_uris": {"ios": "https://dc.lft.to/lastmile_qr_scan", "android": "https://dc.lft.to/lastmile_qr_scan"}, "lat": 38.887148833333335, "bike_id": "db14943b1e18150e83e062c4de60d5cf", "lon": -77.0217465, "type": "electric_scooter", "fusion_lon": 0.0, "fusion_lat": 0.0, "is_reserved": 0, "name": "db14943b1e18150e83e062c4de60d5cf", "is_disabled": 0}, {"rental_uris": {"ios": "https://dc.lft.to/lastmile_qr_scan", "android": "https://dc.lft.to/lastmile_qr_scan"}, "lat": 38.80396016666667, "bike_id": "bb7257f6a1ee9fc532bc2f9c8c7b1f3b", "lon": -77.05561233333333, "type": "electric_bike", "fusion_lon": 0.0, "fusion_lat": 0.0, "is_reserved": 0, "name": "bb7257f6a1ee9fc532bc2f9c8c7b1f3b", "is_disabled": 0}, {"rental_uris": {"ios": "https://dc.lft.to/lastmile_qr_scan", "android": "https://dc.lft.to/lastmile_qr_scan"}, "lat": 38.9037185, "bike_id": "95b3c5ea3a9c30feabb5b1ac5f4b8ef5", "lon": -77.03168916666667, "type": "electric_scooter", "fusion_lon": 0.0, "fusion_lat": 0.0, "is_reserved": 0, "name": "95b3c5ea3a9c30feabb5b1ac5f4b8ef5", "is_disabled": 0}, {"rental_uris": {"ios": "https://dc.lft.to/lastmile_qr_scan", "android": "https://dc.lft.to/lastmile_qr_scan"}, "lat": 38.925064, "bike_id": "507b507f57b092df24849f8882ec12dd", "lon": -77.05227033333334, "type": "electric_scooter", "fusion_lon": 0.0, "fusion_lat": 0.0, "is_reserved": 0, "name": "507b507f57b092df24849f8882ec12dd", "is_disabled": 0}, {"rental_uris": {"ios": "https://dc.lft.to/lastmile_qr_scan", "android": "https://dc.lft.to/lastmile_qr_scan"}, "lat": 38.901476833333334, "bike_id": "cf34a8a9ad14243e1ec1c49261c64ed6", "lon": -77.03379416666667, "type": "electric_scooter", "fusion_lon": 0.0, "fusion_lat": 0.0, "is_reserved": 0, "name": "cf34a8a9ad14243e1ec1c49261c64ed6", "is_disabled": 0}, {"rental_uris": {"ios": "https://dc.lft.to/lastmile_qr_scan", "android": "https://dc.lft.to/lastmile_qr_scan"}, "lat": 38.8853425, "bike_id": "42f9846b20fbdf9e857c8ae2d34e6479", "lon": -76.9827545, "type": "electric_scooter", "fusion_lon": 0.0, "fusion_lat": 0.0, "is_reserved": 0, "name": "42f9846b20fbdf9e857c8ae2d34e6479", "is_disabled": 0}, {"rental_uris": {"ios": "https://dc.lft.to/lastmile_qr_scan", "android": "https://dc.lft.to/lastmile_qr_scan"}, "lat": 38.9053225, "bike_id": "f337a1685599b6aadf9bdf4c4db29e8f", "lon": -77.0498345, "type": "electric_scooter", "fusion_lon": 0.0, "fusion_lat": 0.0, "is_reserved": 0, "name": "f337a1685599b6aadf9bdf4c4db29e8f", "is_disabled": 0}, {"rental_uris": {"ios": "https://dc.lft.to/lastmile_qr_scan", "android": "https://dc.lft.to/lastmile_qr_scan"}, "lat": 38.91610983333333, "bike_id": "3930e97b148b03378048fd22ddda5b58", "lon": -77.03137833333334, "type": "electric_scooter", "fusion_lon": 0.0, "fusion_lat": 0.0, "is_reserved": 0, "name": "3930e97b148b03378048fd22ddda5b58", "is_disabled": 0}, {"rental_uris": {"ios": "https://dc.lft.to/lastmile_qr_scan", "android": "https://dc.lft.to/lastmile_qr_scan"}, "lat": 38.90270066666667, "bike_id": "e9919f1314126a6be755ee437a098a43", "lon": -77.03036533333334, "type": "electric_scooter", "fusion_lon": 0.0, "fusion_lat": 0.0, "is_reserved": 0, "name": "e9919f1314126a6be755ee437a098a43", "is_disabled": 0}, {"rental_uris": {"ios": "https://dc.lft.to/lastmile_qr_scan", "android": "https://dc.lft.to/lastmile_qr_scan"}, "lat": 38.94408133333334, "bike_id": "fe8a5f8a88ae631721079c3fd1de4692", "lon": -77.02618633333333, "type": "electric_scooter", "fusion_lon": 0.0, "fusion_lat": 0.0, "is_reserved": 0, "name": "fe8a5f8a88ae631721079c3fd1de4692", "is_disabled": 0}, {"rental_uris": {"ios": "https://dc.lft.to/lastmile_qr_scan", "android": "https://dc.lft.to/lastmile_qr_scan"}, "lat": 38.922603, "bike_id": "be27067a3ed73cf6e92faf1c0b658bfa", "lon": -77.03661233333334, "type": "electric_scooter", "fusion_lon": 0.0, "fusion_lat": 0.0, "is_reserved": 0, "name": "be27067a3ed73cf6e92faf1c0b658bfa", "is_disabled": 0}, {"rental_uris": {"ios": "https://dc.lft.to/lastmile_qr_scan", "android": "https://dc.lft.to/lastmile_qr_scan"}, "lat": 38.893659666666665, "bike_id": "1ac95625f67663b3cf378f96f4e013e7", "lon": -76.94703216666667, "type": "electric_scooter", "fusion_lon": 0.0, "fusion_lat": 0.0, "is_reserved": 0, "name": "1ac95625f67663b3cf378f96f4e013e7", "is_disabled": 0}, {"rental_uris": {"ios": "https://dc.lft.to/lastmile_qr_scan", "android": "https://dc.lft.to/lastmile_qr_scan"}, "lat": 38.905591666666666, "bike_id": "66da94136b682dec964d3c1e41dd0fda", "lon": -77.04855883333333, "type": "electric_scooter", "fusion_lon": 0.0, "fusion_lat": 0.0, "is_reserved": 0, "name": "66da94136b682dec964d3c1e41dd0fda", "is_disabled": 0}, {"rental_uris": {"ios": "https://dc.lft.to/lastmile_qr_scan", "android": "https://dc.lft.to/lastmile_qr_scan"}, "lat": 38.934874666666666, "bike_id": "91e4b8d2d555def6e8abd186166013ce", "lon": -77.02603416666666, "type": "electric_scooter", "fusion_lon": 0.0, "fusion_lat": 0.0, "is_reserved": 0, "name": "91e4b8d2d555def6e8abd186166013ce", "is_disabled": 0}, {"rental_uris": {"ios": "https://dc.lft.to/lastmile_qr_scan", "android": "https://dc.lft.to/lastmile_qr_scan"}, "lat": 38.90468416666667, "bike_id": "26e08d09911f1d9762739e2426f7c8f8", "lon": -77.03548133333334, "type": "electric_scooter", "fusion_lon": 0.0, "fusion_lat": 0.0, "is_reserved": 0, "name": "26e08d09911f1d9762739e2426f7c8f8", "is_disabled": 0}, {"rental_uris": {"ios": "https://dc.lft.to/lastmile_qr_scan", "android": "https://dc.lft.to/lastmile_qr_scan"}, "lat": 38.925635166666666, "bike_id": "884864dd9861575336822bcd029388dd", "lon": -77.0526875, "type": "electric_scooter", "fusion_lon": 0.0, "fusion_lat": 0.0, "is_reserved": 0, "name": "884864dd9861575336822bcd029388dd", "is_disabled": 0}, {"rental_uris": {"ios": "https://dc.lft.to/lastmile_qr_scan", "android": "https://dc.lft.to/lastmile_qr_scan"}, "lat": 38.875783166666665, "bike_id": "5ee81fd03e36d4f7d0e8f90c4421e1c6", "lon": -77.23410233333334, "type": "electric_bike", "fusion_lon": 0.0, "fusion_lat": 0.0, "is_reserved": 0, "name": "5ee81fd03e36d4f7d0e8f90c4421e1c6", "is_disabled": 0}, {"rental_uris": {"ios": "https://dc.lft.to/lastmile_qr_scan", "android": "https://dc.lft.to/lastmile_qr_scan"}, "lat": 38.865359833333336, "bike_id": "3fb9dbf505453c27a5ca5c2917c9bf32", "lon": -76.98968833333333, "type": "electric_scooter", "fusion_lon": 0.0, "fusion_lat": 0.0, "is_reserved": 0, "name": "3fb9dbf505453c27a5ca5c2917c9bf32", "is_disabled": 0}, {"rental_uris": {"ios": "https://dc.lft.to/lastmile_qr_scan", "android": "https://dc.lft.to/lastmile_qr_scan"}, "lat": 38.92373083333333, "bike_id": "e7c304089f23ce535d2028be3638c71d", "lon": -77.04128216666666, "type": "electric_scooter", "fusion_lon": 0.0, "fusion_lat": 0.0, "is_reserved": 0, "name": "e7c304089f23ce535d2028be3638c71d", "is_disabled": 0}, {"rental_uris": {"ios": "https://dc.lft.to/lastmile_qr_scan", "android": "https://dc.lft.to/lastmile_qr_scan"}, "lat": 38.905365333333336, "bike_id": "77b1fcee54072b02ec95895242b0dc3c", "lon": -77.05058133333333, "type": "electric_scooter", "fusion_lon": 0.0, "fusion_lat": 0.0, "is_reserved": 0, "name": "77b1fcee54072b02ec95895242b0dc3c", "is_disabled": 0}, {"rental_uris": {"ios": "https://dc.lft.to/lastmile_qr_scan", "android": "https://dc.lft.to/lastmile_qr_scan"}, "lat": 38.899945333333335, "bike_id": "789e19a8da9875e19bc82004c4d7db58", "lon": -77.02455583333334, "type": "electric_scooter", "fusion_lon": 0.0, "fusion_lat": 0.0, "is_reserved": 0, "name": "789e19a8da9875e19bc82004c4d7db58", "is_disabled": 0}, {"rental_uris": {"ios": "https://dc.lft.to/lastmile_qr_scan", "android": "https://dc.lft.to/lastmile_qr_scan"}, "lat": 38.89211916666667, "bike_id": "89c069dd8a7bdd6ed768bf19b0daedf7", "lon": -76.99564383333333, "type": "electric_scooter", "fusion_lon": 0.0, "fusion_lat": 0.0, "is_reserved": 0, "name": "89c069dd8a7bdd6ed768bf19b0daedf7", "is_disabled": 0}, {"rental_uris": {"ios": "https://dc.lft.to/lastmile_qr_scan", "android": "https://dc.lft.to/lastmile_qr_scan"}, "lat": 38.89609266666667, "bike_id": "fb09d3a63a7996cc826e747ded40a479", "lon": -77.04540333333334, "type": "electric_scooter", "fusion_lon": 0.0, "fusion_lat": 0.0, "is_reserved": 0, "name": "fb09d3a63a7996cc826e747ded40a479", "is_disabled": 0}, {"rental_uris": {"ios": "https://dc.lft.to/lastmile_qr_scan", "android": "https://dc.lft.to/lastmile_qr_scan"}, "lat": 38.92075033333333, "bike_id": "473bac35093e40875a4d3b4455cc747f", "lon": -77.0248315, "type": "electric_scooter", "fusion_lon": 0.0, "fusion_lat": 0.0, "is_reserved": 0, "name": "473bac35093e40875a4d3b4455cc747f", "is_disabled": 0}, {"rental_uris": {"ios": "https://dc.lft.to/lastmile_qr_scan", "android": "https://dc.lft.to/lastmile_qr_scan"}, "lat": 38.915046, "bike_id": "55c9fba7d5c08b739f826e2e6dc70f12", "lon": -77.04615816666667, "type": "electric_scooter", "fusion_lon": 0.0, "fusion_lat": 0.0, "is_reserved": 0, "name": "55c9fba7d5c08b739f826e2e6dc70f12", "is_disabled": 0}, {"rental_uris": {"ios": "https://dc.lft.to/lastmile_qr_scan", "android": "https://dc.lft.to/lastmile_qr_scan"}, "lat": 38.892289166666664, "bike_id": "57a06b4f66ef750b5d941538cbdc70c2", "lon": -77.02595666666667, "type": "electric_scooter", "fusion_lon": 0.0, "fusion_lat": 0.0, "is_reserved": 0, "name": "57a06b4f66ef750b5d941538cbdc70c2", "is_disabled": 0}, {"rental_uris": {"ios": "https://dc.lft.to/lastmile_qr_scan", "android": "https://dc.lft.to/lastmile_qr_scan"}, "lat": 38.89933716666667, "bike_id": "24934bf0c3ed5e60ea83afe1829c4540", "lon": -77.04179366666666, "type": "electric_scooter", "fusion_lon": 0.0, "fusion_lat": 0.0, "is_reserved": 0, "name": "24934bf0c3ed5e60ea83afe1829c4540", "is_disabled": 0}, {"rental_uris": {"ios": "https://dc.lft.to/lastmile_qr_scan", "android": "https://dc.lft.to/lastmile_qr_scan"}, "lat": 38.9186505, "bike_id": "694d859c2a514a197f0d1f55a50a8f61", "lon": -77.01349, "type": "electric_scooter", "fusion_lon": 0.0, "fusion_lat": 0.0, "is_reserved": 0, "name": "694d859c2a514a197f0d1f55a50a8f61", "is_disabled": 0}, {"rental_uris": {"ios": "https://dc.lft.to/lastmile_qr_scan", "android": "https://dc.lft.to/lastmile_qr_scan"}, "lat": 38.919381333333334, "bike_id": "9d3345ebde7aad139084bb48904a3e0c", "lon": -77.07056116666666, "type": "electric_scooter", "fusion_lon": 0.0, "fusion_lat": 0.0, "is_reserved": 0, "name": "9d3345ebde7aad139084bb48904a3e0c", "is_disabled": 0}, {"rental_uris": {"ios": "https://dc.lft.to/lastmile_qr_scan", "android": "https://dc.lft.to/lastmile_qr_scan"}, "lat": 38.88600433333333, "bike_id": "0e4533c4f23bdfcdd0ab1dec19ff897a", "lon": -76.99556516666667, "type": "electric_scooter", "fusion_lon": 0.0, "fusion_lat": 0.0, "is_reserved": 0, "name": "0e4533c4f23bdfcdd0ab1dec19ff897a", "is_disabled": 0}, {"rental_uris": {"ios": "https://dc.lft.to/lastmile_qr_scan", "android": "https://dc.lft.to/lastmile_qr_scan"}, "lat": 38.897386833333336, "bike_id": "02dc8e857913dff6f86b9fcb6fc22461", "lon": -77.02213483333334, "type": "electric_scooter", "fusion_lon": 0.0, "fusion_lat": 0.0, "is_reserved": 0, "name": "02dc8e857913dff6f86b9fcb6fc22461", "is_disabled": 0}, {"rental_uris": {"ios": "https://dc.lft.to/lastmile_qr_scan", "android": "https://dc.lft.to/lastmile_qr_scan"}, "lat": 38.929822, "bike_id": "ed943e0856a83409e54277129558e65e", "lon": -77.02347033333334, "type": "electric_scooter", "fusion_lon": 0.0, "fusion_lat": 0.0, "is_reserved": 0, "name": "ed943e0856a83409e54277129558e65e", "is_disabled": 0}, {"rental_uris": {"ios": "https://dc.lft.to/lastmile_qr_scan", "android": "https://dc.lft.to/lastmile_qr_scan"}, "lat": 38.96550366666666, "bike_id": "b08ab93c2c1dab769bcb034d80d51cc6", "lon": -77.03628166666667, "type": "electric_scooter", "fusion_lon": 0.0, "fusion_lat": 0.0, "is_reserved": 0, "name": "b08ab93c2c1dab769bcb034d80d51cc6", "is_disabled": 0}, {"rental_uris": {"ios": "https://dc.lft.to/lastmile_qr_scan", "android": "https://dc.lft.to/lastmile_qr_scan"}, "lat": 38.92417866666667, "bike_id": "284cb49b7783895d0a342abc013a6430", "lon": -77.019468, "type": "electric_scooter", "fusion_lon": 0.0, "fusion_lat": 0.0, "is_reserved": 0, "name": "284cb49b7783895d0a342abc013a6430", "is_disabled": 0}, {"rental_uris": {"ios": "https://dc.lft.to/lastmile_qr_scan", "android": "https://dc.lft.to/lastmile_qr_scan"}, "lat": 38.8950415, "bike_id": "35f84eb1b831bbdc25cf55033875e792", "lon": -77.0466965, "type": "electric_scooter", "fusion_lon": 0.0, "fusion_lat": 0.0, "is_reserved": 0, "name": "35f84eb1b831bbdc25cf55033875e792", "is_disabled": 0}, {"rental_uris": {"ios": "https://dc.lft.to/lastmile_qr_scan", "android": "https://dc.lft.to/lastmile_qr_scan"}, "lat": 38.87382983333333, "bike_id": "b100cbdaa3c4ddb79c1bcb38b8572ad8", "lon": -77.00067433333334, "type": "electric_scooter", "fusion_lon": 0.0, "fusion_lat": 0.0, "is_reserved": 0, "name": "b100cbdaa3c4ddb79c1bcb38b8572ad8", "is_disabled": 0}, {"rental_uris": {"ios": "https://dc.lft.to/lastmile_qr_scan", "android": "https://dc.lft.to/lastmile_qr_scan"}, "lat": 38.915568, "bike_id": "3ec9308b0e5551d72066e28ac001312d", "lon": -77.03176416666666, "type": "electric_scooter", "fusion_lon": 0.0, "fusion_lat": 0.0, "is_reserved": 0, "name": "3ec9308b0e5551d72066e28ac001312d", "is_disabled": 0}, {"rental_uris": {"ios": "https://dc.lft.to/lastmile_qr_scan", "android": "https://dc.lft.to/lastmile_qr_scan"}, "lat": 38.93581433333333, "bike_id": "526ecc4b018d5e00786981382203e52f", "lon": -77.03345916666666, "type": "electric_scooter", "fusion_lon": 0.0, "fusion_lat": 0.0, "is_reserved": 0, "name": "526ecc4b018d5e00786981382203e52f", "is_disabled": 0}, {"rental_uris": {"ios": "https://dc.lft.to/lastmile_qr_scan", "android": "https://dc.lft.to/lastmile_qr_scan"}, "lat": 38.88449466666667, "bike_id": "6ff7005bf2e1d611b30d86ae320300b2", "lon": -76.9509565, "type": "electric_scooter", "fusion_lon": 0.0, "fusion_lat": 0.0, "is_reserved": 0, "name": "6ff7005bf2e1d611b30d86ae320300b2", "is_disabled": 0}, {"rental_uris": {"ios": "https://dc.lft.to/lastmile_qr_scan", "android": "https://dc.lft.to/lastmile_qr_scan"}, "lat": 38.932079, "bike_id": "d59815c62324200e04464a7ead194b6c", "lon": -76.99900016666666, "type": "electric_scooter", "fusion_lon": 0.0, "fusion_lat": 0.0, "is_reserved": 0, "name": "d59815c62324200e04464a7ead194b6c", "is_disabled": 0}, {"rental_uris": {"ios": "https://dc.lft.to/lastmile_qr_scan", "android": "https://dc.lft.to/lastmile_qr_scan"}, "lat": 38.919944666666666, "bike_id": "7b45b8e1194089db72b5e49a938d1175", "lon": -77.03277283333334, "type": "electric_scooter", "fusion_lon": 0.0, "fusion_lat": 0.0, "is_reserved": 0, "name": "7b45b8e1194089db72b5e49a938d1175", "is_disabled": 0}, {"rental_uris": {"ios": "https://dc.lft.to/lastmile_qr_scan", "android": "https://dc.lft.to/lastmile_qr_scan"}, "lat": 38.895568833333336, "bike_id": "ee49ca9f3c8a224e6e5a06e59d935832", "lon": -77.046746, "type": "electric_scooter", "fusion_lon": 0.0, "fusion_lat": 0.0, "is_reserved": 0, "name": "ee49ca9f3c8a224e6e5a06e59d935832", "is_disabled": 0}, {"rental_uris": {"ios": "https://dc.lft.to/lastmile_qr_scan", "android": "https://dc.lft.to/lastmile_qr_scan"}, "lat": 38.89962466666667, "bike_id": "e572124976f842ba78f44a34ca1c47f2", "lon": -77.04499983333334, "type": "electric_scooter", "fusion_lon": 0.0, "fusion_lat": 0.0, "is_reserved": 0, "name": "e572124976f842ba78f44a34ca1c47f2", "is_disabled": 0}, {"rental_uris": {"ios": "https://dc.lft.to/lastmile_qr_scan", "android": "https://dc.lft.to/lastmile_qr_scan"}, "lat": 39.0408975, "bike_id": "d004f7a033d490d014b43f80241010d4", "lon": -77.05336733333333, "type": "electric_bike", "fusion_lon": 0.0, "fusion_lat": 0.0, "is_reserved": 0, "name": "d004f7a033d490d014b43f80241010d4", "is_disabled": 0}, {"rental_uris": {"ios": "https://dc.lft.to/lastmile_qr_scan", "android": "https://dc.lft.to/lastmile_qr_scan"}, "lat": 38.938555, "bike_id": "419069053dd98827b4ed8a837a52c856", "lon": -77.02454933333334, "type": "electric_scooter", "fusion_lon": 0.0, "fusion_lat": 0.0, "is_reserved": 0, "name": "419069053dd98827b4ed8a837a52c856", "is_disabled": 0}, {"rental_uris": {"ios": "https://dc.lft.to/lastmile_qr_scan", "android": "https://dc.lft.to/lastmile_qr_scan"}, "lat": 38.934987666666665, "bike_id": "645edeed6b33f02e8abdcf543c1c7ab7", "lon": -76.99802783333334, "type": "electric_bike", "fusion_lon": 0.0, "fusion_lat": 0.0, "is_reserved": 0, "name": "645edeed6b33f02e8abdcf543c1c7ab7", "is_disabled": 0}, {"rental_uris": {"ios": "https://dc.lft.to/lastmile_qr_scan", "android": "https://dc.lft.to/lastmile_qr_scan"}, "lat": 38.892195, "bike_id": "2de1081e35f0e57406585ee89b7d0b59", "lon": -77.01488383333333, "type": "electric_scooter", "fusion_lon": 0.0, "fusion_lat": 0.0, "is_reserved": 0, "name": "2de1081e35f0e57406585ee89b7d0b59", "is_disabled": 0}, {"rental_uris": {"ios": "https://dc.lft.to/lastmile_qr_scan", "android": "https://dc.lft.to/lastmile_qr_scan"}, "lat": 38.91737783333333, "bike_id": "d9ef54486e561e657e52555a8a0dca81", "lon": -77.04319183333334, "type": "electric_scooter", "fusion_lon": 0.0, "fusion_lat": 0.0, "is_reserved": 0, "name": "d9ef54486e561e657e52555a8a0dca81", "is_disabled": 0}, {"rental_uris": {"ios": "https://dc.lft.to/lastmile_qr_scan", "android": "https://dc.lft.to/lastmile_qr_scan"}, "lat": 38.9056825, "bike_id": "4327d5d5f7d6ba03c8183b5f175103a9", "lon": -77.03442833333334, "type": "electric_scooter", "fusion_lon": 0.0, "fusion_lat": 0.0, "is_reserved": 0, "name": "4327d5d5f7d6ba03c8183b5f175103a9", "is_disabled": 0}, {"rental_uris": {"ios": "https://dc.lft.to/lastmile_qr_scan", "android": "https://dc.lft.to/lastmile_qr_scan"}, "lat": 38.89223916666667, "bike_id": "ce46fecd089383f6bdc581c78f765c46", "lon": -77.04369466666667, "type": "electric_scooter", "fusion_lon": 0.0, "fusion_lat": 0.0, "is_reserved": 0, "name": "ce46fecd089383f6bdc581c78f765c46", "is_disabled": 0}, {"rental_uris": {"ios": "https://dc.lft.to/lastmile_qr_scan", "android": "https://dc.lft.to/lastmile_qr_scan"}, "lat": 38.893051, "bike_id": "58f28b9d6ce560c5a79a0d7f2dafc5b3", "lon": -76.93979333333333, "type": "electric_scooter", "fusion_lon": 0.0, "fusion_lat": 0.0, "is_reserved": 0, "name": "58f28b9d6ce560c5a79a0d7f2dafc5b3", "is_disabled": 0}, {"rental_uris": {"ios": "https://dc.lft.to/lastmile_qr_scan", "android": "https://dc.lft.to/lastmile_qr_scan"}, "lat": 38.90334133333333, "bike_id": "6f3383357649356bb1acd18bb897d2df", "lon": -77.03979533333333, "type": "electric_scooter", "fusion_lon": 0.0, "fusion_lat": 0.0, "is_reserved": 0, "name": "6f3383357649356bb1acd18bb897d2df", "is_disabled": 0}, {"rental_uris": {"ios": "https://dc.lft.to/lastmile_qr_scan", "android": "https://dc.lft.to/lastmile_qr_scan"}, "lat": 38.920619, "bike_id": "83e764f69c84c3695915d952dc488c79", "lon": -77.02559583333333, "type": "electric_scooter", "fusion_lon": 0.0, "fusion_lat": 0.0, "is_reserved": 0, "name": "83e764f69c84c3695915d952dc488c79", "is_disabled": 0}, {"rental_uris": {"ios": "https://dc.lft.to/lastmile_qr_scan", "android": "https://dc.lft.to/lastmile_qr_scan"}, "lat": 38.90548966666667, "bike_id": "3685ca9c2900a1cb87bf1fba59abacbd", "lon": -77.00419583333333, "type": "electric_scooter", "fusion_lon": 0.0, "fusion_lat": 0.0, "is_reserved": 0, "name": "3685ca9c2900a1cb87bf1fba59abacbd", "is_disabled": 0}, {"rental_uris": {"ios": "https://dc.lft.to/lastmile_qr_scan", "android": "https://dc.lft.to/lastmile_qr_scan"}, "lat": 38.846137166666665, "bike_id": "c62c9e2aae7d0297b912dc2a5c6b03f4", "lon": -76.98267083333333, "type": "electric_scooter", "fusion_lon": 0.0, "fusion_lat": 0.0, "is_reserved": 0, "name": "c62c9e2aae7d0297b912dc2a5c6b03f4", "is_disabled": 0}, {"rental_uris": {"ios": "https://dc.lft.to/lastmile_qr_scan", "android": "https://dc.lft.to/lastmile_qr_scan"}, "lat": 38.89231866666667, "bike_id": "06a3b221518e4b12df6a6c6d31bb983e", "lon": -77.03203083333334, "type": "electric_scooter", "fusion_lon": 0.0, "fusion_lat": 0.0, "is_reserved": 0, "name": "06a3b221518e4b12df6a6c6d31bb983e", "is_disabled": 0}, {"rental_uris": {"ios": "https://dc.lft.to/lastmile_qr_scan", "android": "https://dc.lft.to/lastmile_qr_scan"}, "lat": 38.862461, "bike_id": "af71128b5322673f76286bca030a4b7b", "lon": -76.99491983333333, "type": "electric_scooter", "fusion_lon": 0.0, "fusion_lat": 0.0, "is_reserved": 0, "name": "af71128b5322673f76286bca030a4b7b", "is_disabled": 0}, {"rental_uris": {"ios": "https://dc.lft.to/lastmile_qr_scan", "android": "https://dc.lft.to/lastmile_qr_scan"}, "lat": 38.91787766666667, "bike_id": "8fba3ac21ab78696eab3c9bacf64eacd", "lon": -77.023707, "type": "electric_scooter", "fusion_lon": 0.0, "fusion_lat": 0.0, "is_reserved": 0, "name": "8fba3ac21ab78696eab3c9bacf64eacd", "is_disabled": 0}, {"rental_uris": {"ios": "https://dc.lft.to/lastmile_qr_scan", "android": "https://dc.lft.to/lastmile_qr_scan"}, "lat": 38.92625316666667, "bike_id": "d308fd982d179b5f0fc15fb406ace7bc", "lon": -77.0419195, "type": "electric_scooter", "fusion_lon": 0.0, "fusion_lat": 0.0, "is_reserved": 0, "name": "d308fd982d179b5f0fc15fb406ace7bc", "is_disabled": 0}, {"rental_uris": {"ios": "https://dc.lft.to/lastmile_qr_scan", "android": "https://dc.lft.to/lastmile_qr_scan"}, "lat": 38.8729305, "bike_id": "6ac982b9f31d68c71a14c657b335170b", "lon": -77.1392855, "type": "electric_bike", "fusion_lon": 0.0, "fusion_lat": 0.0, "is_reserved": 0, "name": "6ac982b9f31d68c71a14c657b335170b", "is_disabled": 0}, {"rental_uris": {"ios": "https://dc.lft.to/lastmile_qr_scan", "android": "https://dc.lft.to/lastmile_qr_scan"}, "lat": 38.899923333333334, "bike_id": "ec07554793da7d5436e6231a924605dd", "lon": -77.02703066666666, "type": "electric_scooter", "fusion_lon": 0.0, "fusion_lat": 0.0, "is_reserved": 0, "name": "ec07554793da7d5436e6231a924605dd", "is_disabled": 0}, {"rental_uris": {"ios": "https://dc.lft.to/lastmile_qr_scan", "android": "https://dc.lft.to/lastmile_qr_scan"}, "lat": 38.89219583333333, "bike_id": "c560b912350772839e39d609e0aa282f", "lon": -77.02542166666667, "type": "electric_scooter", "fusion_lon": 0.0, "fusion_lat": 0.0, "is_reserved": 0, "name": "c560b912350772839e39d609e0aa282f", "is_disabled": 0}, {"rental_uris": {"ios": "https://dc.lft.to/lastmile_qr_scan", "android": "https://dc.lft.to/lastmile_qr_scan"}, "lat": 38.90502866666667, "bike_id": "966d7b41393730d961bb363a345bb247", "lon": -77.06009783333333, "type": "electric_bike", "fusion_lon": 0.0, "fusion_lat": 0.0, "is_reserved": 0, "name": "966d7b41393730d961bb363a345bb247", "is_disabled": 0}, {"rental_uris": {"ios": "https://dc.lft.to/lastmile_qr_scan", "android": "https://dc.lft.to/lastmile_qr_scan"}, "lat": 38.9051645, "bike_id": "c325a6ca8c233da5f808af1ac2cee3da", "lon": -76.99467883333334, "type": "electric_scooter", "fusion_lon": 0.0, "fusion_lat": 0.0, "is_reserved": 0, "name": "c325a6ca8c233da5f808af1ac2cee3da", "is_disabled": 0}, {"rental_uris": {"ios": "https://dc.lft.to/lastmile_qr_scan", "android": "https://dc.lft.to/lastmile_qr_scan"}, "lat": 38.896112333333335, "bike_id": "95489b2b22639716512db429003e7e81", "lon": -77.04441333333334, "type": "electric_scooter", "fusion_lon": 0.0, "fusion_lat": 0.0, "is_reserved": 0, "name": "95489b2b22639716512db429003e7e81", "is_disabled": 0}, {"rental_uris": {"ios": "https://dc.lft.to/lastmile_qr_scan", "android": "https://dc.lft.to/lastmile_qr_scan"}, "lat": 38.9160065, "bike_id": "0d736631cd459f87a3b9e25d034d0509", "lon": -77.04627716666667, "type": "electric_scooter", "fusion_lon": 0.0, "fusion_lat": 0.0, "is_reserved": 0, "name": "0d736631cd459f87a3b9e25d034d0509", "is_disabled": 0}, {"rental_uris": {"ios": "https://dc.lft.to/lastmile_qr_scan", "android": "https://dc.lft.to/lastmile_qr_scan"}, "lat": 38.90872383333333, "bike_id": "d70f2678ce11221563c2eca6c63c8779", "lon": -77.04047516666667, "type": "electric_scooter", "fusion_lon": 0.0, "fusion_lat": 0.0, "is_reserved": 0, "name": "d70f2678ce11221563c2eca6c63c8779", "is_disabled": 0}, {"rental_uris": {"ios": "https://dc.lft.to/lastmile_qr_scan", "android": "https://dc.lft.to/lastmile_qr_scan"}, "lat": 38.87173816666667, "bike_id": "36caf4d9594e6018c84f17c09b5326ea", "lon": -77.006213, "type": "electric_scooter", "fusion_lon": 0.0, "fusion_lat": 0.0, "is_reserved": 0, "name": "36caf4d9594e6018c84f17c09b5326ea", "is_disabled": 0}, {"rental_uris": {"ios": "https://dc.lft.to/lastmile_qr_scan", "android": "https://dc.lft.to/lastmile_qr_scan"}, "lat": 38.898463, "bike_id": "5d1129499ef525fcd470df0dddbaadb5", "lon": -77.01954183333334, "type": "electric_scooter", "fusion_lon": 0.0, "fusion_lat": 0.0, "is_reserved": 0, "name": "5d1129499ef525fcd470df0dddbaadb5", "is_disabled": 0}, {"rental_uris": {"ios": "https://dc.lft.to/lastmile_qr_scan", "android": "https://dc.lft.to/lastmile_qr_scan"}, "lat": 38.903416666666665, "bike_id": "b090be69466aff07d79689c42de6cb4a", "lon": -76.976123, "type": "electric_scooter", "fusion_lon": 0.0, "fusion_lat": 0.0, "is_reserved": 0, "name": "b090be69466aff07d79689c42de6cb4a", "is_disabled": 0}, {"rental_uris": {"ios": "https://dc.lft.to/lastmile_qr_scan", "android": "https://dc.lft.to/lastmile_qr_scan"}, "lat": 38.92436516666667, "bike_id": "5ab6c08662a242a03ce2c8331ad1ddf9", "lon": -77.03403183333333, "type": "electric_scooter", "fusion_lon": 0.0, "fusion_lat": 0.0, "is_reserved": 0, "name": "5ab6c08662a242a03ce2c8331ad1ddf9", "is_disabled": 0}, {"rental_uris": {"ios": "https://dc.lft.to/lastmile_qr_scan", "android": "https://dc.lft.to/lastmile_qr_scan"}, "lat": 38.893632, "bike_id": "12e3e915329a279ea753b83009fa7329", "lon": -76.98432816666667, "type": "electric_scooter", "fusion_lon": 0.0, "fusion_lat": 0.0, "is_reserved": 0, "name": "12e3e915329a279ea753b83009fa7329", "is_disabled": 0}, {"rental_uris": {"ios": "https://dc.lft.to/lastmile_qr_scan", "android": "https://dc.lft.to/lastmile_qr_scan"}, "lat": 38.913447166666664, "bike_id": "21cb3c53d60bc2eb731dd23a2f35a6a5", "lon": -77.02757933333334, "type": "electric_scooter", "fusion_lon": 0.0, "fusion_lat": 0.0, "is_reserved": 0, "name": "21cb3c53d60bc2eb731dd23a2f35a6a5", "is_disabled": 0}, {"rental_uris": {"ios": "https://dc.lft.to/lastmile_qr_scan", "android": "https://dc.lft.to/lastmile_qr_scan"}, "lat": 38.89839533333333, "bike_id": "74dc284b001f525ab127da154d350dda", "lon": -77.04828433333333, "type": "electric_scooter", "fusion_lon": 0.0, "fusion_lat": 0.0, "is_reserved": 0, "name": "74dc284b001f525ab127da154d350dda", "is_disabled": 0}, {"rental_uris": {"ios": "https://dc.lft.to/lastmile_qr_scan", "android": "https://dc.lft.to/lastmile_qr_scan"}, "lat": 38.8961825, "bike_id": "e8447bc2e98b9c1d46fc36d2c1be0779", "lon": -77.02633383333334, "type": "electric_scooter", "fusion_lon": 0.0, "fusion_lat": 0.0, "is_reserved": 0, "name": "e8447bc2e98b9c1d46fc36d2c1be0779", "is_disabled": 0}, {"rental_uris": {"ios": "https://dc.lft.to/lastmile_qr_scan", "android": "https://dc.lft.to/lastmile_qr_scan"}, "lat": 38.92873866666667, "bike_id": "e539e779efcb714678a6fd80d6b4faca", "lon": -77.03248666666667, "type": "electric_scooter", "fusion_lon": 0.0, "fusion_lat": 0.0, "is_reserved": 0, "name": "e539e779efcb714678a6fd80d6b4faca", "is_disabled": 0}, {"rental_uris": {"ios": "https://dc.lft.to/lastmile_qr_scan", "android": "https://dc.lft.to/lastmile_qr_scan"}, "lat": 38.92405316666667, "bike_id": "4dca64bd92007bb0c1b08f28a39bd15f", "lon": -77.03520633333333, "type": "electric_scooter", "fusion_lon": 0.0, "fusion_lat": 0.0, "is_reserved": 0, "name": "4dca64bd92007bb0c1b08f28a39bd15f", "is_disabled": 0}, {"rental_uris": {"ios": "https://dc.lft.to/lastmile_qr_scan", "android": "https://dc.lft.to/lastmile_qr_scan"}, "lat": 38.8973215, "bike_id": "a43eec64c4fb815bfa702ba52c114fc3", "lon": -77.02992783333333, "type": "electric_scooter", "fusion_lon": 0.0, "fusion_lat": 0.0, "is_reserved": 0, "name": "a43eec64c4fb815bfa702ba52c114fc3", "is_disabled": 0}, {"rental_uris": {"ios": "https://dc.lft.to/lastmile_qr_scan", "android": "https://dc.lft.to/lastmile_qr_scan"}, "lat": 38.92419266666667, "bike_id": "61883a6a5c7da3ef5df59b680b4ae1fa", "lon": -77.01948233333333, "type": "electric_scooter", "fusion_lon": 0.0, "fusion_lat": 0.0, "is_reserved": 0, "name": "61883a6a5c7da3ef5df59b680b4ae1fa", "is_disabled": 0}, {"rental_uris": {"ios": "https://dc.lft.to/lastmile_qr_scan", "android": "https://dc.lft.to/lastmile_qr_scan"}, "lat": 38.928957833333335, "bike_id": "43f0bc68700d6ab93f94d8d324303396", "lon": -77.01632616666667, "type": "electric_scooter", "fusion_lon": 0.0, "fusion_lat": 0.0, "is_reserved": 0, "name": "43f0bc68700d6ab93f94d8d324303396", "is_disabled": 0}, {"rental_uris": {"ios": "https://dc.lft.to/lastmile_qr_scan", "android": "https://dc.lft.to/lastmile_qr_scan"}, "lat": 38.9316095, "bike_id": "e3e6b3d3fc7b26a37b05158f60b9ef3a", "lon": -77.03620283333333, "type": "electric_scooter", "fusion_lon": 0.0, "fusion_lat": 0.0, "is_reserved": 0, "name": "e3e6b3d3fc7b26a37b05158f60b9ef3a", "is_disabled": 0}, {"rental_uris": {"ios": "https://dc.lft.to/lastmile_qr_scan", "android": "https://dc.lft.to/lastmile_qr_scan"}, "lat": 38.884102166666665, "bike_id": "a23727f6631af64bcd8751e967b18983", "lon": -76.948211, "type": "electric_scooter", "fusion_lon": 0.0, "fusion_lat": 0.0, "is_reserved": 0, "name": "a23727f6631af64bcd8751e967b18983", "is_disabled": 0}, {"rental_uris": {"ios": "https://dc.lft.to/lastmile_qr_scan", "android": "https://dc.lft.to/lastmile_qr_scan"}, "lat": 38.83099033333333, "bike_id": "c23a1e402e5c4010c5c7f5ab178836ea", "lon": -77.04289016666667, "type": "electric_bike", "fusion_lon": 0.0, "fusion_lat": 0.0, "is_reserved": 0, "name": "c23a1e402e5c4010c5c7f5ab178836ea", "is_disabled": 0}, {"rental_uris": {"ios": "https://dc.lft.to/lastmile_qr_scan", "android": "https://dc.lft.to/lastmile_qr_scan"}, "lat": 38.898828333333334, "bike_id": "4d49c54302f103ec0f53fdbe0f0ee930", "lon": -76.931755, "type": "electric_scooter", "fusion_lon": 0.0, "fusion_lat": 0.0, "is_reserved": 0, "name": "4d49c54302f103ec0f53fdbe0f0ee930", "is_disabled": 0}, {"rental_uris": {"ios": "https://dc.lft.to/lastmile_qr_scan", "android": "https://dc.lft.to/lastmile_qr_scan"}, "lat": 38.891944333333335, "bike_id": "f84e4c541d47eb9541a8209df500eda8", "lon": -77.0237875, "type": "electric_scooter", "fusion_lon": 0.0, "fusion_lat": 0.0, "is_reserved": 0, "name": "f84e4c541d47eb9541a8209df500eda8", "is_disabled": 0}, {"rental_uris": {"ios": "https://dc.lft.to/lastmile_qr_scan", "android": "https://dc.lft.to/lastmile_qr_scan"}, "lat": 38.89886666666666, "bike_id": "67173982ef84d09aa0a5894c463ecba9", "lon": -76.931713, "type": "electric_scooter", "fusion_lon": 0.0, "fusion_lat": 0.0, "is_reserved": 0, "name": "67173982ef84d09aa0a5894c463ecba9", "is_disabled": 0}, {"rental_uris": {"ios": "https://dc.lft.to/lastmile_qr_scan", "android": "https://dc.lft.to/lastmile_qr_scan"}, "lat": 38.903650999999996, "bike_id": "f019799194fdb72e8365cc801e4f3b15", "lon": -77.0465285, "type": "electric_scooter", "fusion_lon": 0.0, "fusion_lat": 0.0, "is_reserved": 0, "name": "f019799194fdb72e8365cc801e4f3b15", "is_disabled": 0}, {"rental_uris": {"ios": "https://dc.lft.to/lastmile_qr_scan", "android": "https://dc.lft.to/lastmile_qr_scan"}, "lat": 38.895306166666664, "bike_id": "6030344509b0ff705e24449cac7bfefd", "lon": -76.94890583333333, "type": "electric_scooter", "fusion_lon": 0.0, "fusion_lat": 0.0, "is_reserved": 0, "name": "6030344509b0ff705e24449cac7bfefd", "is_disabled": 0}, {"rental_uris": {"ios": "https://dc.lft.to/lastmile_qr_scan", "android": "https://dc.lft.to/lastmile_qr_scan"}, "lat": 38.87470416666667, "bike_id": "3e6a327c6a99a139d9bc32f8c58e2e7d", "lon": -77.0051705, "type": "electric_scooter", "fusion_lon": 0.0, "fusion_lat": 0.0, "is_reserved": 0, "name": "3e6a327c6a99a139d9bc32f8c58e2e7d", "is_disabled": 0}, {"rental_uris": {"ios": "https://dc.lft.to/lastmile_qr_scan", "android": "https://dc.lft.to/lastmile_qr_scan"}, "lat": 38.87171566666667, "bike_id": "a7f495e5b7102ff79c3aa3c8a63f61ce", "lon": -77.00679883333333, "type": "electric_scooter", "fusion_lon": 0.0, "fusion_lat": 0.0, "is_reserved": 0, "name": "a7f495e5b7102ff79c3aa3c8a63f61ce", "is_disabled": 0}, {"rental_uris": {"ios": "https://dc.lft.to/lastmile_qr_scan", "android": "https://dc.lft.to/lastmile_qr_scan"}, "lat": 38.9038195, "bike_id": "24f5069ed227592bb5562f670e6cb1c6", "lon": -77.03626, "type": "electric_scooter", "fusion_lon": 0.0, "fusion_lat": 0.0, "is_reserved": 0, "name": "24f5069ed227592bb5562f670e6cb1c6", "is_disabled": 0}, {"rental_uris": {"ios": "https://dc.lft.to/lastmile_qr_scan", "android": "https://dc.lft.to/lastmile_qr_scan"}, "lat": 38.926527666666665, "bike_id": "013022f7996bcab6db52cb5a872af52c", "lon": -77.0372175, "type": "electric_scooter", "fusion_lon": 0.0, "fusion_lat": 0.0, "is_reserved": 0, "name": "013022f7996bcab6db52cb5a872af52c", "is_disabled": 0}, {"rental_uris": {"ios": "https://dc.lft.to/lastmile_qr_scan", "android": "https://dc.lft.to/lastmile_qr_scan"}, "lat": 38.917120833333335, "bike_id": "4651d0813127d50522058e45997e50f0", "lon": -77.032368, "type": "electric_scooter", "fusion_lon": 0.0, "fusion_lat": 0.0, "is_reserved": 0, "name": "4651d0813127d50522058e45997e50f0", "is_disabled": 0}, {"rental_uris": {"ios": "https://dc.lft.to/lastmile_qr_scan", "android": "https://dc.lft.to/lastmile_qr_scan"}, "lat": 38.913310333333335, "bike_id": "65baa2c7314532f4f0ce7977256153fb", "lon": -77.04550133333333, "type": "electric_scooter", "fusion_lon": 0.0, "fusion_lat": 0.0, "is_reserved": 0, "name": "65baa2c7314532f4f0ce7977256153fb", "is_disabled": 0}, {"rental_uris": {"ios": "https://dc.lft.to/lastmile_qr_scan", "android": "https://dc.lft.to/lastmile_qr_scan"}, "lat": 38.86754283333333, "bike_id": "547a7ebe80f0e102e85bd78d116333df", "lon": -76.945299, "type": "electric_bike", "fusion_lon": 0.0, "fusion_lat": 0.0, "is_reserved": 0, "name": "547a7ebe80f0e102e85bd78d116333df", "is_disabled": 0}, {"rental_uris": {"ios": "https://dc.lft.to/lastmile_qr_scan", "android": "https://dc.lft.to/lastmile_qr_scan"}, "lat": 38.87496483333334, "bike_id": "20348cdf863a69f4fc3d5585265bae21", "lon": -77.01850933333333, "type": "electric_scooter", "fusion_lon": 0.0, "fusion_lat": 0.0, "is_reserved": 0, "name": "20348cdf863a69f4fc3d5585265bae21", "is_disabled": 0}, {"rental_uris": {"ios": "https://dc.lft.to/lastmile_qr_scan", "android": "https://dc.lft.to/lastmile_qr_scan"}, "lat": 38.922348166666666, "bike_id": "07afa1075a6f6f927436259b759f9af5", "lon": -77.03523316666667, "type": "electric_scooter", "fusion_lon": 0.0, "fusion_lat": 0.0, "is_reserved": 0, "name": "07afa1075a6f6f927436259b759f9af5", "is_disabled": 0}, {"rental_uris": {"ios": "https://dc.lft.to/lastmile_qr_scan", "android": "https://dc.lft.to/lastmile_qr_scan"}, "lat": 38.91545683333333, "bike_id": "e290b2a4a9af74a840428db58695a2da", "lon": -77.02405966666667, "type": "electric_scooter", "fusion_lon": 0.0, "fusion_lat": 0.0, "is_reserved": 0, "name": "e290b2a4a9af74a840428db58695a2da", "is_disabled": 0}, {"rental_uris": {"ios": "https://dc.lft.to/lastmile_qr_scan", "android": "https://dc.lft.to/lastmile_qr_scan"}, "lat": 38.94442, "bike_id": "c512aa0438bd5a711894a05c037a4649", "lon": -77.06404683333334, "type": "electric_scooter", "fusion_lon": 0.0, "fusion_lat": 0.0, "is_reserved": 0, "name": "c512aa0438bd5a711894a05c037a4649", "is_disabled": 0}, {"rental_uris": {"ios": "https://dc.lft.to/lastmile_qr_scan", "android": "https://dc.lft.to/lastmile_qr_scan"}, "lat": 38.90476433333333, "bike_id": "c9708b04ca047f630421ec5ea26e3828", "lon": -77.00206016666667, "type": "electric_scooter", "fusion_lon": 0.0, "fusion_lat": 0.0, "is_reserved": 0, "name": "c9708b04ca047f630421ec5ea26e3828", "is_disabled": 0}, {"rental_uris": {"ios": "https://dc.lft.to/lastmile_qr_scan", "android": "https://dc.lft.to/lastmile_qr_scan"}, "lat": 38.931851, "bike_id": "27f166d21e1cd78c6e153990dc44c131", "lon": -77.0842345, "type": "electric_scooter", "fusion_lon": 0.0, "fusion_lat": 0.0, "is_reserved": 0, "name": "27f166d21e1cd78c6e153990dc44c131", "is_disabled": 0}, {"rental_uris": {"ios": "https://dc.lft.to/lastmile_qr_scan", "android": "https://dc.lft.to/lastmile_qr_scan"}, "lat": 38.89608883333333, "bike_id": "2bb56b528ccf6625e5059751bf35182f", "lon": -77.04412533333333, "type": "electric_scooter", "fusion_lon": 0.0, "fusion_lat": 0.0, "is_reserved": 0, "name": "2bb56b528ccf6625e5059751bf35182f", "is_disabled": 0}, {"rental_uris": {"ios": "https://dc.lft.to/lastmile_qr_scan", "android": "https://dc.lft.to/lastmile_qr_scan"}, "lat": 38.8871445, "bike_id": "605941f825ca500ca4dc7ceb272c8988", "lon": -77.01777566666667, "type": "electric_scooter", "fusion_lon": 0.0, "fusion_lat": 0.0, "is_reserved": 0, "name": "605941f825ca500ca4dc7ceb272c8988", "is_disabled": 0}, {"rental_uris": {"ios": "https://dc.lft.to/lastmile_qr_scan", "android": "https://dc.lft.to/lastmile_qr_scan"}, "lat": 38.9091835, "bike_id": "aa314ad159f0ee86415b31fd90565245", "lon": -77.04654166666667, "type": "electric_scooter", "fusion_lon": 0.0, "fusion_lat": 0.0, "is_reserved": 0, "name": "aa314ad159f0ee86415b31fd90565245", "is_disabled": 0}, {"rental_uris": {"ios": "https://dc.lft.to/lastmile_qr_scan", "android": "https://dc.lft.to/lastmile_qr_scan"}, "lat": 38.913998666666664, "bike_id": "05ea087169a5de706a6f9a43de9c9fdb", "lon": -77.01293066666666, "type": "electric_scooter", "fusion_lon": 0.0, "fusion_lat": 0.0, "is_reserved": 0, "name": "05ea087169a5de706a6f9a43de9c9fdb", "is_disabled": 0}, {"rental_uris": {"ios": "https://dc.lft.to/lastmile_qr_scan", "android": "https://dc.lft.to/lastmile_qr_scan"}, "lat": 38.917632833333336, "bike_id": "d4e139525a05b8c5fa0be15298dec3ba", "lon": -77.03850466666667, "type": "electric_scooter", "fusion_lon": 0.0, "fusion_lat": 0.0, "is_reserved": 0, "name": "d4e139525a05b8c5fa0be15298dec3ba", "is_disabled": 0}, {"rental_uris": {"ios": "https://dc.lft.to/lastmile_qr_scan", "android": "https://dc.lft.to/lastmile_qr_scan"}, "lat": 38.928484166666664, "bike_id": "6c63ab3371cd44effe93e1979805e9ef", "lon": -77.05425133333334, "type": "electric_scooter", "fusion_lon": 0.0, "fusion_lat": 0.0, "is_reserved": 0, "name": "6c63ab3371cd44effe93e1979805e9ef", "is_disabled": 0}, {"rental_uris": {"ios": "https://dc.lft.to/lastmile_qr_scan", "android": "https://dc.lft.to/lastmile_qr_scan"}, "lat": 38.90375816666667, "bike_id": "2bbfe28099ea9fb0ea24b6782b76bfc0", "lon": -77.031898, "type": "electric_scooter", "fusion_lon": 0.0, "fusion_lat": 0.0, "is_reserved": 0, "name": "2bbfe28099ea9fb0ea24b6782b76bfc0", "is_disabled": 0}, {"rental_uris": {"ios": "https://dc.lft.to/lastmile_qr_scan", "android": "https://dc.lft.to/lastmile_qr_scan"}, "lat": 38.87761166666667, "bike_id": "4ce7d8cc0c8169844cd6f684ddc7ac61", "lon": -77.01774733333333, "type": "electric_scooter", "fusion_lon": 0.0, "fusion_lat": 0.0, "is_reserved": 0, "name": "4ce7d8cc0c8169844cd6f684ddc7ac61", "is_disabled": 0}, {"rental_uris": {"ios": "https://dc.lft.to/lastmile_qr_scan", "android": "https://dc.lft.to/lastmile_qr_scan"}, "lat": 38.920617166666666, "bike_id": "666774e50c43ecf385809464815fe241", "lon": -76.995746, "type": "electric_bike", "fusion_lon": 0.0, "fusion_lat": 0.0, "is_reserved": 0, "name": "666774e50c43ecf385809464815fe241", "is_disabled": 0}, {"rental_uris": {"ios": "https://dc.lft.to/lastmile_qr_scan", "android": "https://dc.lft.to/lastmile_qr_scan"}, "lat": 38.94616283333333, "bike_id": "c70874dead34bc6fd87cb8d3b97c209b", "lon": -77.09669983333333, "type": "electric_bike", "fusion_lon": 0.0, "fusion_lat": 0.0, "is_reserved": 0, "name": "c70874dead34bc6fd87cb8d3b97c209b", "is_disabled": 0}, {"rental_uris": {"ios": "https://dc.lft.to/lastmile_qr_scan", "android": "https://dc.lft.to/lastmile_qr_scan"}, "lat": 38.91907033333333, "bike_id": "f9367b90cc691c70a3afd5fb79fb322d", "lon": -77.0204985, "type": "electric_scooter", "fusion_lon": 0.0, "fusion_lat": 0.0, "is_reserved": 0, "name": "f9367b90cc691c70a3afd5fb79fb322d", "is_disabled": 0}, {"rental_uris": {"ios": "https://dc.lft.to/lastmile_qr_scan", "android": "https://dc.lft.to/lastmile_qr_scan"}, "lat": 38.887455333333335, "bike_id": "9f9453e6f447911a1b5dea3877f7221a", "lon": -77.0256285, "type": "electric_scooter", "fusion_lon": 0.0, "fusion_lat": 0.0, "is_reserved": 0, "name": "9f9453e6f447911a1b5dea3877f7221a", "is_disabled": 0}, {"rental_uris": {"ios": "https://dc.lft.to/lastmile_qr_scan", "android": "https://dc.lft.to/lastmile_qr_scan"}, "lat": 38.89735666666667, "bike_id": "563ab488de9f159606637559e8ab3fc7", "lon": -77.02572783333333, "type": "electric_scooter", "fusion_lon": 0.0, "fusion_lat": 0.0, "is_reserved": 0, "name": "563ab488de9f159606637559e8ab3fc7", "is_disabled": 0}, {"rental_uris": {"ios": "https://dc.lft.to/lastmile_qr_scan", "android": "https://dc.lft.to/lastmile_qr_scan"}, "lat": 38.900908666666666, "bike_id": "40a9017f908957708a3f3c4ea36fae4a", "lon": -76.983318, "type": "electric_scooter", "fusion_lon": 0.0, "fusion_lat": 0.0, "is_reserved": 0, "name": "40a9017f908957708a3f3c4ea36fae4a", "is_disabled": 0}, {"rental_uris": {"ios": "https://dc.lft.to/lastmile_qr_scan", "android": "https://dc.lft.to/lastmile_qr_scan"}, "lat": 38.906378833333335, "bike_id": "7f32e747a5b51775f299be4a2d36077f", "lon": -77.03904, "type": "electric_scooter", "fusion_lon": 0.0, "fusion_lat": 0.0, "is_reserved": 0, "name": "7f32e747a5b51775f299be4a2d36077f", "is_disabled": 0}, {"rental_uris": {"ios": "https://dc.lft.to/lastmile_qr_scan", "android": "https://dc.lft.to/lastmile_qr_scan"}, "lat": 38.88478633333333, "bike_id": "c25e96046574804123e8bea41363db60", "lon": -77.01506133333334, "type": "electric_scooter", "fusion_lon": 0.0, "fusion_lat": 0.0, "is_reserved": 0, "name": "c25e96046574804123e8bea41363db60", "is_disabled": 0}, {"rental_uris": {"ios": "https://dc.lft.to/lastmile_qr_scan", "android": "https://dc.lft.to/lastmile_qr_scan"}, "lat": 38.8983535, "bike_id": "0197a228391ab3d0f3f6e540a62a2e5d", "lon": -76.9463655, "type": "electric_scooter", "fusion_lon": 0.0, "fusion_lat": 0.0, "is_reserved": 0, "name": "0197a228391ab3d0f3f6e540a62a2e5d", "is_disabled": 0}, {"rental_uris": {"ios": "https://dc.lft.to/lastmile_qr_scan", "android": "https://dc.lft.to/lastmile_qr_scan"}, "lat": 38.92341916666667, "bike_id": "135c27eade58254085101daf7fd17077", "lon": -77.0504075, "type": "electric_scooter", "fusion_lon": 0.0, "fusion_lat": 0.0, "is_reserved": 0, "name": "135c27eade58254085101daf7fd17077", "is_disabled": 0}, {"rental_uris": {"ios": "https://dc.lft.to/lastmile_qr_scan", "android": "https://dc.lft.to/lastmile_qr_scan"}, "lat": 38.821762666666665, "bike_id": "eb899c11a49859f830d5177c27dc69e6", "lon": -76.99508783333333, "type": "electric_bike", "fusion_lon": 0.0, "fusion_lat": 0.0, "is_reserved": 0, "name": "eb899c11a49859f830d5177c27dc69e6", "is_disabled": 0}, {"rental_uris": {"ios": "https://dc.lft.to/lastmile_qr_scan", "android": "https://dc.lft.to/lastmile_qr_scan"}, "lat": 38.91704983333333, "bike_id": "03f98625c3fff7d4ee0f9540518b1482", "lon": -77.02460033333334, "type": "electric_scooter", "fusion_lon": 0.0, "fusion_lat": 0.0, "is_reserved": 0, "name": "03f98625c3fff7d4ee0f9540518b1482", "is_disabled": 0}, {"rental_uris": {"ios": "https://dc.lft.to/lastmile_qr_scan", "android": "https://dc.lft.to/lastmile_qr_scan"}, "lat": 38.928785833333336, "bike_id": "7f17cc8d83b5c9cfb077f3a94a0e8ec1", "lon": -77.03731366666666, "type": "electric_scooter", "fusion_lon": 0.0, "fusion_lat": 0.0, "is_reserved": 0, "name": "7f17cc8d83b5c9cfb077f3a94a0e8ec1", "is_disabled": 0}, {"rental_uris": {"ios": "https://dc.lft.to/lastmile_qr_scan", "android": "https://dc.lft.to/lastmile_qr_scan"}, "lat": 38.9181325, "bike_id": "8807648fb434657f86e83d11fff17442", "lon": -77.039794, "type": "electric_scooter", "fusion_lon": 0.0, "fusion_lat": 0.0, "is_reserved": 0, "name": "8807648fb434657f86e83d11fff17442", "is_disabled": 0}, {"rental_uris": {"ios": "https://dc.lft.to/lastmile_qr_scan", "android": "https://dc.lft.to/lastmile_qr_scan"}, "lat": 38.9417665, "bike_id": "3e6561b36c17b3846de235e0a64faed3", "lon": -77.03146616666666, "type": "electric_scooter", "fusion_lon": 0.0, "fusion_lat": 0.0, "is_reserved": 0, "name": "3e6561b36c17b3846de235e0a64faed3", "is_disabled": 0}, {"rental_uris": {"ios": "https://dc.lft.to/lastmile_qr_scan", "android": "https://dc.lft.to/lastmile_qr_scan"}, "lat": 38.930767833333334, "bike_id": "c650780317dd9434eed9cf577830ae04", "lon": -77.03280066666666, "type": "electric_scooter", "fusion_lon": 0.0, "fusion_lat": 0.0, "is_reserved": 0, "name": "c650780317dd9434eed9cf577830ae04", "is_disabled": 0}, {"rental_uris": {"ios": "https://dc.lft.to/lastmile_qr_scan", "android": "https://dc.lft.to/lastmile_qr_scan"}, "lat": 38.8775715, "bike_id": "ab72d86a2951bbc64db3c231542a7211", "lon": -76.9975215, "type": "electric_scooter", "fusion_lon": 0.0, "fusion_lat": 0.0, "is_reserved": 0, "name": "ab72d86a2951bbc64db3c231542a7211", "is_disabled": 0}, {"rental_uris": {"ios": "https://dc.lft.to/lastmile_qr_scan", "android": "https://dc.lft.to/lastmile_qr_scan"}, "lat": 38.91414066666667, "bike_id": "83be09d90883757c028b624c0e4fab49", "lon": -77.021139, "type": "electric_scooter", "fusion_lon": 0.0, "fusion_lat": 0.0, "is_reserved": 0, "name": "83be09d90883757c028b624c0e4fab49", "is_disabled": 0}, {"rental_uris": {"ios": "https://dc.lft.to/lastmile_qr_scan", "android": "https://dc.lft.to/lastmile_qr_scan"}, "lat": 38.90250983333333, "bike_id": "f4aaf52089a5fcaef0364c9e65b51eb1", "lon": -77.01736383333333, "type": "electric_scooter", "fusion_lon": 0.0, "fusion_lat": 0.0, "is_reserved": 0, "name": "f4aaf52089a5fcaef0364c9e65b51eb1", "is_disabled": 0}, {"rental_uris": {"ios": "https://dc.lft.to/lastmile_qr_scan", "android": "https://dc.lft.to/lastmile_qr_scan"}, "lat": 38.90947466666667, "bike_id": "bac54f5258940a3530c34b8a6f74e3e1", "lon": -77.04421583333334, "type": "electric_scooter", "fusion_lon": 0.0, "fusion_lat": 0.0, "is_reserved": 0, "name": "bac54f5258940a3530c34b8a6f74e3e1", "is_disabled": 0}, {"rental_uris": {"ios": "https://dc.lft.to/lastmile_qr_scan", "android": "https://dc.lft.to/lastmile_qr_scan"}, "lat": 38.89356883333333, "bike_id": "cdb2846c3f9dd455a5f31373b7faee6c", "lon": -76.9493395, "type": "electric_scooter", "fusion_lon": 0.0, "fusion_lat": 0.0, "is_reserved": 0, "name": "cdb2846c3f9dd455a5f31373b7faee6c", "is_disabled": 0}, {"rental_uris": {"ios": "https://dc.lft.to/lastmile_qr_scan", "android": "https://dc.lft.to/lastmile_qr_scan"}, "lat": 38.846435666666665, "bike_id": "da83827c74da8dae55d559f0b0caa8ce", "lon": -76.991276, "type": "electric_scooter", "fusion_lon": 0.0, "fusion_lat": 0.0, "is_reserved": 0, "name": "da83827c74da8dae55d559f0b0caa8ce", "is_disabled": 0}, {"rental_uris": {"ios": "https://dc.lft.to/lastmile_qr_scan", "android": "https://dc.lft.to/lastmile_qr_scan"}, "lat": 38.897222, "bike_id": "fcf947578dec6eea36451a5caea2edfb", "lon": -77.0271585, "type": "electric_scooter", "fusion_lon": 0.0, "fusion_lat": 0.0, "is_reserved": 0, "name": "fcf947578dec6eea36451a5caea2edfb", "is_disabled": 0}, {"rental_uris": {"ios": "https://dc.lft.to/lastmile_qr_scan", "android": "https://dc.lft.to/lastmile_qr_scan"}, "lat": 38.92326083333333, "bike_id": "a40967e5581e3c270b0d097492a64fb8", "lon": -77.00046533333334, "type": "electric_scooter", "fusion_lon": 0.0, "fusion_lat": 0.0, "is_reserved": 0, "name": "a40967e5581e3c270b0d097492a64fb8", "is_disabled": 0}, {"rental_uris": {"ios": "https://dc.lft.to/lastmile_qr_scan", "android": "https://dc.lft.to/lastmile_qr_scan"}, "lat": 38.9089715, "bike_id": "18399c40295d8718e3d96f785d09d1ed", "lon": -76.99781183333333, "type": "electric_scooter", "fusion_lon": 0.0, "fusion_lat": 0.0, "is_reserved": 0, "name": "18399c40295d8718e3d96f785d09d1ed", "is_disabled": 0}, {"rental_uris": {"ios": "https://dc.lft.to/lastmile_qr_scan", "android": "https://dc.lft.to/lastmile_qr_scan"}, "lat": 38.923655833333335, "bike_id": "ce0ce8d7d5f99508439f4a130c0f3458", "lon": -77.042584, "type": "electric_scooter", "fusion_lon": 0.0, "fusion_lat": 0.0, "is_reserved": 0, "name": "ce0ce8d7d5f99508439f4a130c0f3458", "is_disabled": 0}, {"rental_uris": {"ios": "https://dc.lft.to/lastmile_qr_scan", "android": "https://dc.lft.to/lastmile_qr_scan"}, "lat": 38.866914, "bike_id": "946359e174d4e99b786b634be9e5b10e", "lon": -76.98541683333333, "type": "electric_scooter", "fusion_lon": 0.0, "fusion_lat": 0.0, "is_reserved": 0, "name": "946359e174d4e99b786b634be9e5b10e", "is_disabled": 0}, {"rental_uris": {"ios": "https://dc.lft.to/lastmile_qr_scan", "android": "https://dc.lft.to/lastmile_qr_scan"}, "lat": 38.899432, "bike_id": "8d1912a2fffed8cbbd4bfaf673720113", "lon": -77.04498133333334, "type": "electric_scooter", "fusion_lon": 0.0, "fusion_lat": 0.0, "is_reserved": 0, "name": "8d1912a2fffed8cbbd4bfaf673720113", "is_disabled": 0}, {"rental_uris": {"ios": "https://dc.lft.to/lastmile_qr_scan", "android": "https://dc.lft.to/lastmile_qr_scan"}, "lat": 38.92048916666667, "bike_id": "7359d070207cf46b485a7d17d8a035c5", "lon": -77.02425916666667, "type": "electric_scooter", "fusion_lon": 0.0, "fusion_lat": 0.0, "is_reserved": 0, "name": "7359d070207cf46b485a7d17d8a035c5", "is_disabled": 0}, {"rental_uris": {"ios": "https://dc.lft.to/lastmile_qr_scan", "android": "https://dc.lft.to/lastmile_qr_scan"}, "lat": 38.8459785, "bike_id": "1cfcce8c943284ae3df450f3c0eb1210", "lon": -77.10857783333333, "type": "electric_bike", "fusion_lon": 0.0, "fusion_lat": 0.0, "is_reserved": 0, "name": "1cfcce8c943284ae3df450f3c0eb1210", "is_disabled": 0}, {"rental_uris": {"ios": "https://dc.lft.to/lastmile_qr_scan", "android": "https://dc.lft.to/lastmile_qr_scan"}, "lat": 38.9223875, "bike_id": "1e673931c88ed635f234361888b6bf3a", "lon": -77.04263, "type": "electric_scooter", "fusion_lon": 0.0, "fusion_lat": 0.0, "is_reserved": 0, "name": "1e673931c88ed635f234361888b6bf3a", "is_disabled": 0}, {"rental_uris": {"ios": "https://dc.lft.to/lastmile_qr_scan", "android": "https://dc.lft.to/lastmile_qr_scan"}, "lat": 38.877311666666664, "bike_id": "5e9e48d0124cb5aab6019dfa4ac93305", "lon": -77.003127, "type": "electric_scooter", "fusion_lon": 0.0, "fusion_lat": 0.0, "is_reserved": 0, "name": "5e9e48d0124cb5aab6019dfa4ac93305", "is_disabled": 0}, {"rental_uris": {"ios": "https://dc.lft.to/lastmile_qr_scan", "android": "https://dc.lft.to/lastmile_qr_scan"}, "lat": 38.8738615, "bike_id": "f0c59d714759c66a530fb7dc13c807c2", "lon": -77.043503, "type": "electric_scooter", "fusion_lon": 0.0, "fusion_lat": 0.0, "is_reserved": 0, "name": "f0c59d714759c66a530fb7dc13c807c2", "is_disabled": 0}, {"rental_uris": {"ios": "https://dc.lft.to/lastmile_qr_scan", "android": "https://dc.lft.to/lastmile_qr_scan"}, "lat": 38.8974595, "bike_id": "625373582defea2f2e48f4c70c81be05", "lon": -77.04706483333334, "type": "electric_scooter", "fusion_lon": 0.0, "fusion_lat": 0.0, "is_reserved": 0, "name": "625373582defea2f2e48f4c70c81be05", "is_disabled": 0}, {"rental_uris": {"ios": "https://dc.lft.to/lastmile_qr_scan", "android": "https://dc.lft.to/lastmile_qr_scan"}, "lat": 38.9038405, "bike_id": "8874d5ba26ad82ec5078925e11bc31df", "lon": -77.034137, "type": "electric_scooter", "fusion_lon": 0.0, "fusion_lat": 0.0, "is_reserved": 0, "name": "8874d5ba26ad82ec5078925e11bc31df", "is_disabled": 0}, {"rental_uris": {"ios": "https://dc.lft.to/lastmile_qr_scan", "android": "https://dc.lft.to/lastmile_qr_scan"}, "lat": 38.9227225, "bike_id": "b51824010b9be70c4dbb2b3e24271278", "lon": -77.01908216666666, "type": "electric_scooter", "fusion_lon": 0.0, "fusion_lat": 0.0, "is_reserved": 0, "name": "b51824010b9be70c4dbb2b3e24271278", "is_disabled": 0}, {"rental_uris": {"ios": "https://dc.lft.to/lastmile_qr_scan", "android": "https://dc.lft.to/lastmile_qr_scan"}, "lat": 38.93075416666667, "bike_id": "83e059c731951ebb1579924e692a70da", "lon": -77.03375733333333, "type": "electric_scooter", "fusion_lon": 0.0, "fusion_lat": 0.0, "is_reserved": 0, "name": "83e059c731951ebb1579924e692a70da", "is_disabled": 0}, {"rental_uris": {"ios": "https://dc.lft.to/lastmile_qr_scan", "android": "https://dc.lft.to/lastmile_qr_scan"}, "lat": 38.89525833333333, "bike_id": "3be864d5588b9dd4b9c7835437392e23", "lon": -77.00338133333334, "type": "electric_scooter", "fusion_lon": 0.0, "fusion_lat": 0.0, "is_reserved": 0, "name": "3be864d5588b9dd4b9c7835437392e23", "is_disabled": 0}, {"rental_uris": {"ios": "https://dc.lft.to/lastmile_qr_scan", "android": "https://dc.lft.to/lastmile_qr_scan"}, "lat": 38.9222965, "bike_id": "97a2fb8f0a7d2fc86ba315194bfb7753", "lon": -77.04394016666667, "type": "electric_scooter", "fusion_lon": 0.0, "fusion_lat": 0.0, "is_reserved": 0, "name": "97a2fb8f0a7d2fc86ba315194bfb7753", "is_disabled": 0}, {"rental_uris": {"ios": "https://dc.lft.to/lastmile_qr_scan", "android": "https://dc.lft.to/lastmile_qr_scan"}, "lat": 38.89370533333334, "bike_id": "ad47844674477786e9c60803d6f1906b", "lon": -77.0196245, "type": "electric_scooter", "fusion_lon": 0.0, "fusion_lat": 0.0, "is_reserved": 0, "name": "ad47844674477786e9c60803d6f1906b", "is_disabled": 0}, {"rental_uris": {"ios": "https://dc.lft.to/lastmile_qr_scan", "android": "https://dc.lft.to/lastmile_qr_scan"}, "lat": 38.923468166666666, "bike_id": "47abbd7d4a5cbfda6b6b1ee1584c61a8", "lon": -77.05086983333334, "type": "electric_scooter", "fusion_lon": 0.0, "fusion_lat": 0.0, "is_reserved": 0, "name": "47abbd7d4a5cbfda6b6b1ee1584c61a8", "is_disabled": 0}, {"rental_uris": {"ios": "https://dc.lft.to/lastmile_qr_scan", "android": "https://dc.lft.to/lastmile_qr_scan"}, "lat": 38.86723466666667, "bike_id": "c2d17d2cb8510256234b9e82c77617ab", "lon": -76.98692183333333, "type": "electric_scooter", "fusion_lon": 0.0, "fusion_lat": 0.0, "is_reserved": 0, "name": "c2d17d2cb8510256234b9e82c77617ab", "is_disabled": 0}, {"rental_uris": {"ios": "https://dc.lft.to/lastmile_qr_scan", "android": "https://dc.lft.to/lastmile_qr_scan"}, "lat": 38.900179666666666, "bike_id": "946f8ba349fdf21bfcb8758506aa1ec2", "lon": -77.0304975, "type": "electric_scooter", "fusion_lon": 0.0, "fusion_lat": 0.0, "is_reserved": 0, "name": "946f8ba349fdf21bfcb8758506aa1ec2", "is_disabled": 0}, {"rental_uris": {"ios": "https://dc.lft.to/lastmile_qr_scan", "android": "https://dc.lft.to/lastmile_qr_scan"}, "lat": 38.881426833333336, "bike_id": "31629b2b78ad0cad195b12642c780e0b", "lon": -77.02703933333333, "type": "electric_scooter", "fusion_lon": 0.0, "fusion_lat": 0.0, "is_reserved": 0, "name": "31629b2b78ad0cad195b12642c780e0b", "is_disabled": 0}, {"rental_uris": {"ios": "https://dc.lft.to/lastmile_qr_scan", "android": "https://dc.lft.to/lastmile_qr_scan"}, "lat": 38.90432083333334, "bike_id": "2a321748227f520da5033be42de5200f", "lon": -77.04845933333333, "type": "electric_scooter", "fusion_lon": 0.0, "fusion_lat": 0.0, "is_reserved": 0, "name": "2a321748227f520da5033be42de5200f", "is_disabled": 0}, {"rental_uris": {"ios": "https://dc.lft.to/lastmile_qr_scan", "android": "https://dc.lft.to/lastmile_qr_scan"}, "lat": 38.90982433333333, "bike_id": "bf180424bd3fb48dbf650a72ff87815a", "lon": -76.9949795, "type": "electric_scooter", "fusion_lon": 0.0, "fusion_lat": 0.0, "is_reserved": 0, "name": "bf180424bd3fb48dbf650a72ff87815a", "is_disabled": 0}, {"rental_uris": {"ios": "https://dc.lft.to/lastmile_qr_scan", "android": "https://dc.lft.to/lastmile_qr_scan"}, "lat": 38.92024133333334, "bike_id": "adc303479116028770793c3102247d24", "lon": -77.0316935, "type": "electric_scooter", "fusion_lon": 0.0, "fusion_lat": 0.0, "is_reserved": 0, "name": "adc303479116028770793c3102247d24", "is_disabled": 0}, {"rental_uris": {"ios": "https://dc.lft.to/lastmile_qr_scan", "android": "https://dc.lft.to/lastmile_qr_scan"}, "lat": 38.90440983333333, "bike_id": "c3ce44ff744ee7340ef0dc11777487f9", "lon": -76.980034, "type": "electric_scooter", "fusion_lon": 0.0, "fusion_lat": 0.0, "is_reserved": 0, "name": "c3ce44ff744ee7340ef0dc11777487f9", "is_disabled": 0}, {"rental_uris": {"ios": "https://dc.lft.to/lastmile_qr_scan", "android": "https://dc.lft.to/lastmile_qr_scan"}, "lat": 38.921407, "bike_id": "de7eb05fc056d62fcb6bf251b8c3b908", "lon": -77.04355033333333, "type": "electric_scooter", "fusion_lon": 0.0, "fusion_lat": 0.0, "is_reserved": 0, "name": "de7eb05fc056d62fcb6bf251b8c3b908", "is_disabled": 0}, {"rental_uris": {"ios": "https://dc.lft.to/lastmile_qr_scan", "android": "https://dc.lft.to/lastmile_qr_scan"}, "lat": 38.902701, "bike_id": "b7f66c5e0d1f4b1faeadedc8130b6a57", "lon": -77.03266033333334, "type": "electric_scooter", "fusion_lon": 0.0, "fusion_lat": 0.0, "is_reserved": 0, "name": "b7f66c5e0d1f4b1faeadedc8130b6a57", "is_disabled": 0}, {"rental_uris": {"ios": "https://dc.lft.to/lastmile_qr_scan", "android": "https://dc.lft.to/lastmile_qr_scan"}, "lat": 38.92440883333333, "bike_id": "8e62002fc65f4b55ad27b49cf6f83256", "lon": -77.02151683333334, "type": "electric_scooter", "fusion_lon": 0.0, "fusion_lat": 0.0, "is_reserved": 0, "name": "8e62002fc65f4b55ad27b49cf6f83256", "is_disabled": 0}, {"rental_uris": {"ios": "https://dc.lft.to/lastmile_qr_scan", "android": "https://dc.lft.to/lastmile_qr_scan"}, "lat": 38.92247283333333, "bike_id": "e3f45bcb1a850d9d45f0212542c230ff", "lon": -76.9808245, "type": "electric_scooter", "fusion_lon": 0.0, "fusion_lat": 0.0, "is_reserved": 0, "name": "e3f45bcb1a850d9d45f0212542c230ff", "is_disabled": 0}, {"rental_uris": {"ios": "https://dc.lft.to/lastmile_qr_scan", "android": "https://dc.lft.to/lastmile_qr_scan"}, "lat": 38.901356666666665, "bike_id": "2c6e7ba3e28b6fa36919d0c74f53fa03", "lon": -77.0325045, "type": "electric_scooter", "fusion_lon": 0.0, "fusion_lat": 0.0, "is_reserved": 0, "name": "2c6e7ba3e28b6fa36919d0c74f53fa03", "is_disabled": 0}, {"rental_uris": {"ios": "https://dc.lft.to/lastmile_qr_scan", "android": "https://dc.lft.to/lastmile_qr_scan"}, "lat": 38.8939385, "bike_id": "9d9e9d51becf48be637b83400471a680", "lon": -77.02344583333333, "type": "electric_scooter", "fusion_lon": 0.0, "fusion_lat": 0.0, "is_reserved": 0, "name": "9d9e9d51becf48be637b83400471a680", "is_disabled": 0}, {"rental_uris": {"ios": "https://dc.lft.to/lastmile_qr_scan", "android": "https://dc.lft.to/lastmile_qr_scan"}, "lat": 38.919208, "bike_id": "a2ea9bacc98d9b67ee1ecfccb30d8609", "lon": -77.03359316666666, "type": "electric_scooter", "fusion_lon": 0.0, "fusion_lat": 0.0, "is_reserved": 0, "name": "a2ea9bacc98d9b67ee1ecfccb30d8609", "is_disabled": 0}, {"rental_uris": {"ios": "https://dc.lft.to/lastmile_qr_scan", "android": "https://dc.lft.to/lastmile_qr_scan"}, "lat": 38.928624166666665, "bike_id": "821d97c106ad8f06bde5444d82c798d3", "lon": -77.02172416666667, "type": "electric_scooter", "fusion_lon": 0.0, "fusion_lat": 0.0, "is_reserved": 0, "name": "821d97c106ad8f06bde5444d82c798d3", "is_disabled": 0}, {"rental_uris": {"ios": "https://dc.lft.to/lastmile_qr_scan", "android": "https://dc.lft.to/lastmile_qr_scan"}, "lat": 38.92369333333333, "bike_id": "9860044aa53d2c70e9f7ee1d2531b597", "lon": -77.02112066666666, "type": "electric_scooter", "fusion_lon": 0.0, "fusion_lat": 0.0, "is_reserved": 0, "name": "9860044aa53d2c70e9f7ee1d2531b597", "is_disabled": 0}, {"rental_uris": {"ios": "https://dc.lft.to/lastmile_qr_scan", "android": "https://dc.lft.to/lastmile_qr_scan"}, "lat": 38.899027833333335, "bike_id": "ff04a81ceb37cb0281fce8893640b4a8", "lon": -76.9336905, "type": "electric_scooter", "fusion_lon": 0.0, "fusion_lat": 0.0, "is_reserved": 0, "name": "ff04a81ceb37cb0281fce8893640b4a8", "is_disabled": 0}, {"rental_uris": {"ios": "https://dc.lft.to/lastmile_qr_scan", "android": "https://dc.lft.to/lastmile_qr_scan"}, "lat": 38.88709383333333, "bike_id": "bc639f05e0b7f19f9093c2f85f9e05c1", "lon": -77.01775716666667, "type": "electric_scooter", "fusion_lon": 0.0, "fusion_lat": 0.0, "is_reserved": 0, "name": "bc639f05e0b7f19f9093c2f85f9e05c1", "is_disabled": 0}, {"rental_uris": {"ios": "https://dc.lft.to/lastmile_qr_scan", "android": "https://dc.lft.to/lastmile_qr_scan"}, "lat": 38.904680166666665, "bike_id": "00911ae09c16149c35a4136981a1d977", "lon": -77.01940383333333, "type": "electric_scooter", "fusion_lon": 0.0, "fusion_lat": 0.0, "is_reserved": 0, "name": "00911ae09c16149c35a4136981a1d977", "is_disabled": 0}, {"rental_uris": {"ios": "https://dc.lft.to/lastmile_qr_scan", "android": "https://dc.lft.to/lastmile_qr_scan"}, "lat": 38.863740166666666, "bike_id": "aa386f786c2b766e1527c4ef64a1dee9", "lon": -76.990587, "type": "electric_scooter", "fusion_lon": 0.0, "fusion_lat": 0.0, "is_reserved": 0, "name": "aa386f786c2b766e1527c4ef64a1dee9", "is_disabled": 0}, {"rental_uris": {"ios": "https://dc.lft.to/lastmile_qr_scan", "android": "https://dc.lft.to/lastmile_qr_scan"}, "lat": 38.921546, "bike_id": "43728bfc5a5603574633b121119c1e2b", "lon": -77.02084866666667, "type": "electric_scooter", "fusion_lon": 0.0, "fusion_lat": 0.0, "is_reserved": 0, "name": "43728bfc5a5603574633b121119c1e2b", "is_disabled": 0}, {"rental_uris": {"ios": "https://dc.lft.to/lastmile_qr_scan", "android": "https://dc.lft.to/lastmile_qr_scan"}, "lat": 38.885391166666665, "bike_id": "7655525072a8282591aa1cb573187814", "lon": -77.00572316666667, "type": "electric_scooter", "fusion_lon": 0.0, "fusion_lat": 0.0, "is_reserved": 0, "name": "7655525072a8282591aa1cb573187814", "is_disabled": 0}, {"rental_uris": {"ios": "https://dc.lft.to/lastmile_qr_scan", "android": "https://dc.lft.to/lastmile_qr_scan"}, "lat": 38.880386666666666, "bike_id": "75f0020ef88d9558d2b05fbc91a34c2a", "lon": -77.01981716666667, "type": "electric_scooter", "fusion_lon": 0.0, "fusion_lat": 0.0, "is_reserved": 0, "name": "75f0020ef88d9558d2b05fbc91a34c2a", "is_disabled": 0}, {"rental_uris": {"ios": "https://dc.lft.to/lastmile_qr_scan", "android": "https://dc.lft.to/lastmile_qr_scan"}, "lat": 38.895824166666664, "bike_id": "5d5e79d590c3105ee52923741c3afcd8", "lon": -77.004742, "type": "electric_scooter", "fusion_lon": 0.0, "fusion_lat": 0.0, "is_reserved": 0, "name": "5d5e79d590c3105ee52923741c3afcd8", "is_disabled": 0}, {"rental_uris": {"ios": "https://dc.lft.to/lastmile_qr_scan", "android": "https://dc.lft.to/lastmile_qr_scan"}, "lat": 38.930563, "bike_id": "e519d80abc2012ce40f95055c5726ffc", "lon": -77.03635666666666, "type": "electric_scooter", "fusion_lon": 0.0, "fusion_lat": 0.0, "is_reserved": 0, "name": "e519d80abc2012ce40f95055c5726ffc", "is_disabled": 0}, {"rental_uris": {"ios": "https://dc.lft.to/lastmile_qr_scan", "android": "https://dc.lft.to/lastmile_qr_scan"}, "lat": 38.914172666666666, "bike_id": "f9a9e9a5cd5f3ec96d7122f27cd481f9", "lon": -77.01989766666667, "type": "electric_scooter", "fusion_lon": 0.0, "fusion_lat": 0.0, "is_reserved": 0, "name": "f9a9e9a5cd5f3ec96d7122f27cd481f9", "is_disabled": 0}, {"rental_uris": {"ios": "https://dc.lft.to/lastmile_qr_scan", "android": "https://dc.lft.to/lastmile_qr_scan"}, "lat": 38.91409933333333, "bike_id": "f73c172e8bf7d6a7a5a3f87ea338014f", "lon": -77.02106833333333, "type": "electric_scooter", "fusion_lon": 0.0, "fusion_lat": 0.0, "is_reserved": 0, "name": "f73c172e8bf7d6a7a5a3f87ea338014f", "is_disabled": 0}, {"rental_uris": {"ios": "https://dc.lft.to/lastmile_qr_scan", "android": "https://dc.lft.to/lastmile_qr_scan"}, "lat": 38.903125333333335, "bike_id": "6052f78d7437a492d734b52ee19b5928", "lon": -77.04869183333334, "type": "electric_scooter", "fusion_lon": 0.0, "fusion_lat": 0.0, "is_reserved": 0, "name": "6052f78d7437a492d734b52ee19b5928", "is_disabled": 0}, {"rental_uris": {"ios": "https://dc.lft.to/lastmile_qr_scan", "android": "https://dc.lft.to/lastmile_qr_scan"}, "lat": 38.932148833333336, "bike_id": "80a36bead2de2d123c514d8a5eef8ede", "lon": -77.03369283333333, "type": "electric_scooter", "fusion_lon": 0.0, "fusion_lat": 0.0, "is_reserved": 0, "name": "80a36bead2de2d123c514d8a5eef8ede", "is_disabled": 0}, {"rental_uris": {"ios": "https://dc.lft.to/lastmile_qr_scan", "android": "https://dc.lft.to/lastmile_qr_scan"}, "lat": 38.903941333333336, "bike_id": "5ec298f490153d94df7248ca92ff144c", "lon": -76.989456, "type": "electric_scooter", "fusion_lon": 0.0, "fusion_lat": 0.0, "is_reserved": 0, "name": "5ec298f490153d94df7248ca92ff144c", "is_disabled": 0}, {"rental_uris": {"ios": "https://dc.lft.to/lastmile_qr_scan", "android": "https://dc.lft.to/lastmile_qr_scan"}, "lat": 38.891036666666665, "bike_id": "bb282fb7bb78d331ca54f1357daad24d", "lon": -77.0019845, "type": "electric_scooter", "fusion_lon": 0.0, "fusion_lat": 0.0, "is_reserved": 0, "name": "bb282fb7bb78d331ca54f1357daad24d", "is_disabled": 0}, {"rental_uris": {"ios": "https://dc.lft.to/lastmile_qr_scan", "android": "https://dc.lft.to/lastmile_qr_scan"}, "lat": 38.909168, "bike_id": "3147ee6eb962dbfd8fa7149c8781a31a", "lon": -77.0319895, "type": "electric_scooter", "fusion_lon": 0.0, "fusion_lat": 0.0, "is_reserved": 0, "name": "3147ee6eb962dbfd8fa7149c8781a31a", "is_disabled": 0}, {"rental_uris": {"ios": "https://dc.lft.to/lastmile_qr_scan", "android": "https://dc.lft.to/lastmile_qr_scan"}, "lat": 38.90280166666667, "bike_id": "6587ad516ace2b7331c97a431b74bdbc", "lon": -77.03828433333334, "type": "electric_scooter", "fusion_lon": 0.0, "fusion_lat": 0.0, "is_reserved": 0, "name": "6587ad516ace2b7331c97a431b74bdbc", "is_disabled": 0}, {"rental_uris": {"ios": "https://dc.lft.to/lastmile_qr_scan", "android": "https://dc.lft.to/lastmile_qr_scan"}, "lat": 38.918156, "bike_id": "4d1a19ffc29e0b0a5edca164af8e1649", "lon": -77.039776, "type": "electric_scooter", "fusion_lon": 0.0, "fusion_lat": 0.0, "is_reserved": 0, "name": "4d1a19ffc29e0b0a5edca164af8e1649", "is_disabled": 0}, {"rental_uris": {"ios": "https://dc.lft.to/lastmile_qr_scan", "android": "https://dc.lft.to/lastmile_qr_scan"}, "lat": 38.90128, "bike_id": "9d9e6d4d488a5b8d15305543b45fa491", "lon": -77.03253066666667, "type": "electric_scooter", "fusion_lon": 0.0, "fusion_lat": 0.0, "is_reserved": 0, "name": "9d9e6d4d488a5b8d15305543b45fa491", "is_disabled": 0}, {"rental_uris": {"ios": "https://dc.lft.to/lastmile_qr_scan", "android": "https://dc.lft.to/lastmile_qr_scan"}, "lat": 38.992251, "bike_id": "c3886ab273f91ebd3f89f012aec449d7", "lon": -77.035838, "type": "electric_scooter", "fusion_lon": 0.0, "fusion_lat": 0.0, "is_reserved": 0, "name": "c3886ab273f91ebd3f89f012aec449d7", "is_disabled": 0}, {"rental_uris": {"ios": "https://dc.lft.to/lastmile_qr_scan", "android": "https://dc.lft.to/lastmile_qr_scan"}, "lat": 38.883972166666666, "bike_id": "6d46864bf46e442c5f0539ab04f1455d", "lon": -76.960537, "type": "electric_bike", "fusion_lon": 0.0, "fusion_lat": 0.0, "is_reserved": 0, "name": "6d46864bf46e442c5f0539ab04f1455d", "is_disabled": 0}, {"rental_uris": {"ios": "https://dc.lft.to/lastmile_qr_scan", "android": "https://dc.lft.to/lastmile_qr_scan"}, "lat": 38.89631883333333, "bike_id": "172a92bc41e260c579404a05ae01646c", "lon": -77.04331316666666, "type": "electric_scooter", "fusion_lon": 0.0, "fusion_lat": 0.0, "is_reserved": 0, "name": "172a92bc41e260c579404a05ae01646c", "is_disabled": 0}, {"rental_uris": {"ios": "https://dc.lft.to/lastmile_qr_scan", "android": "https://dc.lft.to/lastmile_qr_scan"}, "lat": 39.0510255, "bike_id": "e75b3b7a12e99a1284d0e16e3c518afa", "lon": -77.1174245, "type": "electric_bike", "fusion_lon": 0.0, "fusion_lat": 0.0, "is_reserved": 0, "name": "e75b3b7a12e99a1284d0e16e3c518afa", "is_disabled": 0}, {"rental_uris": {"ios": "https://dc.lft.to/lastmile_qr_scan", "android": "https://dc.lft.to/lastmile_qr_scan"}, "lat": 38.9059035, "bike_id": "31bb23e62209dafbc0a9eba5bf3d3fa2", "lon": -77.04598683333333, "type": "electric_scooter", "fusion_lon": 0.0, "fusion_lat": 0.0, "is_reserved": 0, "name": "31bb23e62209dafbc0a9eba5bf3d3fa2", "is_disabled": 0}, {"rental_uris": {"ios": "https://dc.lft.to/lastmile_qr_scan", "android": "https://dc.lft.to/lastmile_qr_scan"}, "lat": 38.90368133333333, "bike_id": "89f9370761e9bf53fc61f9b7f7934f5c", "lon": -77.022065, "type": "electric_scooter", "fusion_lon": 0.0, "fusion_lat": 0.0, "is_reserved": 0, "name": "89f9370761e9bf53fc61f9b7f7934f5c", "is_disabled": 0}, {"rental_uris": {"ios": "https://dc.lft.to/lastmile_qr_scan", "android": "https://dc.lft.to/lastmile_qr_scan"}, "lat": 38.933577, "bike_id": "b1b088ed34aa820da79b6432d9629a36", "lon": -77.04109833333334, "type": "electric_scooter", "fusion_lon": 0.0, "fusion_lat": 0.0, "is_reserved": 0, "name": "b1b088ed34aa820da79b6432d9629a36", "is_disabled": 0}, {"rental_uris": {"ios": "https://dc.lft.to/lastmile_qr_scan", "android": "https://dc.lft.to/lastmile_qr_scan"}, "lat": 38.908104333333334, "bike_id": "4b50d77197e1400eca76f239b72bafc1", "lon": -77.0386495, "type": "electric_scooter", "fusion_lon": 0.0, "fusion_lat": 0.0, "is_reserved": 0, "name": "4b50d77197e1400eca76f239b72bafc1", "is_disabled": 0}, {"rental_uris": {"ios": "https://dc.lft.to/lastmile_qr_scan", "android": "https://dc.lft.to/lastmile_qr_scan"}, "lat": 38.9167555, "bike_id": "62d5fb5dd6a7ea42cd4006f402251695", "lon": -77.02379833333333, "type": "electric_scooter", "fusion_lon": 0.0, "fusion_lat": 0.0, "is_reserved": 0, "name": "62d5fb5dd6a7ea42cd4006f402251695", "is_disabled": 0}, {"rental_uris": {"ios": "https://dc.lft.to/lastmile_qr_scan", "android": "https://dc.lft.to/lastmile_qr_scan"}, "lat": 38.9222965, "bike_id": "293ae1c77a1d05158c40d01ba2968636", "lon": -77.018205, "type": "electric_scooter", "fusion_lon": 0.0, "fusion_lat": 0.0, "is_reserved": 0, "name": "293ae1c77a1d05158c40d01ba2968636", "is_disabled": 0}, {"rental_uris": {"ios": "https://dc.lft.to/lastmile_qr_scan", "android": "https://dc.lft.to/lastmile_qr_scan"}, "lat": 38.929983, "bike_id": "d8eace680f3cef7a38236b89ad28fe4e", "lon": -77.03227966666667, "type": "electric_scooter", "fusion_lon": 0.0, "fusion_lat": 0.0, "is_reserved": 0, "name": "d8eace680f3cef7a38236b89ad28fe4e", "is_disabled": 0}, {"rental_uris": {"ios": "https://dc.lft.to/lastmile_qr_scan", "android": "https://dc.lft.to/lastmile_qr_scan"}, "lat": 38.87206, "bike_id": "15646db555dc8496ffc2814c30c59a97", "lon": -77.01629716666666, "type": "electric_scooter", "fusion_lon": 0.0, "fusion_lat": 0.0, "is_reserved": 0, "name": "15646db555dc8496ffc2814c30c59a97", "is_disabled": 0}, {"rental_uris": {"ios": "https://dc.lft.to/lastmile_qr_scan", "android": "https://dc.lft.to/lastmile_qr_scan"},