{"data": {"bikes": [{"name": "3e80d5a8ee7b5dc95ad55baadc671b34", "type": "electric_scooter", "lat": 38.9085, "is_reserved": 0, "lon": -77.02058283333334, "fusion_lon": 0.0, "is_disabled": 0, "fusion_lat": 0.0, "bike_id": "3e80d5a8ee7b5dc95ad55baadc671b34", "rental_uris": {"ios": "https://dc.lft.to/lastmile_qr_scan", "android": "https://dc.lft.to/lastmile_qr_scan"}}, {"name": "92e125712d7ea778971cd64ef1eec087", "type": "electric_scooter", "lat": 38.89663016666667, "is_reserved": 0, "lon": -76.9486125, "fusion_lon": 0.0, "is_disabled": 0, "fusion_lat": 0.0, "bike_id": "92e125712d7ea778971cd64ef1eec087", "rental_uris": {"ios": "https://dc.lft.to/lastmile_qr_scan", "android": "https://dc.lft.to/lastmile_qr_scan"}}, {"name": "06857195f59e976d3d2e1c2a2ac8818b", "type": "electric_scooter", "lat": 38.9009855, "is_reserved": 0, "lon": -77.02163183333333, "fusion_lon": 0.0, "is_disabled": 0, "fusion_lat": 0.0, "bike_id": "06857195f59e976d3d2e1c2a2ac8818b", "rental_uris": {"ios": "https://dc.lft.to/lastmile_qr_scan", "android": "https://dc.lft.to/lastmile_qr_scan"}}, {"name": "b0a82391a811c9b36265577448f3dacb", "type": "electric_scooter", "lat": 38.931147333333335, "is_reserved": 0, "lon": -77.02098033333333, "fusion_lon": 0.0, "is_disabled": 0, "fusion_lat": 0.0, "bike_id": "b0a82391a811c9b36265577448f3dacb", "rental_uris": {"ios": "https://dc.lft.to/lastmile_qr_scan", "android": "https://dc.lft.to/lastmile_qr_scan"}}, {"name": "9b8089eb3ecc5f0d296bd2ff4924d599", "type": "electric_scooter", "lat": 38.9187625, "is_reserved": 0, "lon": -77.02320116666667, "fusion_lon": 0.0, "is_disabled": 0, "fusion_lat": 0.0, "bike_id": "9b8089eb3ecc5f0d296bd2ff4924d599", "rental_uris": {"ios": "https://dc.lft.to/lastmile_qr_scan", "android": "https://dc.lft.to/lastmile_qr_scan"}}, {"name": "4501979f5a0c7b36a2258b499052a812", "type": "electric_scooter", "lat": 38.88327916666667, "is_reserved": 0, "lon": -77.01774866666666, "fusion_lon": 0.0, "is_disabled": 0, "fusion_lat": 0.0, "bike_id": "4501979f5a0c7b36a2258b499052a812", "rental_uris": {"ios": "https://dc.lft.to/lastmile_qr_scan", "android": "https://dc.lft.to/lastmile_qr_scan"}}, {"name": "3e97f88db3b0175dc1ef0bc19d3900c0", "type": "electric_scooter", "lat": 38.90982783333333, "is_reserved": 0, "lon": -77.067124, "fusion_lon": 0.0, "is_disabled": 0, "fusion_lat": 0.0, "bike_id": "3e97f88db3b0175dc1ef0bc19d3900c0", "rental_uris": {"ios": "https://dc.lft.to/lastmile_qr_scan", "android": "https://dc.lft.to/lastmile_qr_scan"}}, {"name": "24a2369133a61a1ef1833c9e466d7a84", "type": "electric_scooter", "lat": 38.949282, "is_reserved": 0, "lon": -77.01936266666667, "fusion_lon": 0.0, "is_disabled": 0, "fusion_lat": 0.0, "bike_id": "24a2369133a61a1ef1833c9e466d7a84", "rental_uris": {"ios": "https://dc.lft.to/lastmile_qr_scan", "android": "https://dc.lft.to/lastmile_qr_scan"}}, {"name": "dfe69827d3660fbe868dcef72f7f05c0", "type": "electric_scooter", "lat": 38.917841833333334, "is_reserved": 0, "lon": -77.02299, "fusion_lon": 0.0, "is_disabled": 0, "fusion_lat": 0.0, "bike_id": "dfe69827d3660fbe868dcef72f7f05c0", "rental_uris": {"ios": "https://dc.lft.to/lastmile_qr_scan", "android": "https://dc.lft.to/lastmile_qr_scan"}}, {"name": "6d209cd31ea8b7a57a4e4fdc577bd2e1", "type": "electric_scooter", "lat": 38.93489066666667, "is_reserved": 0, "lon": -77.07254483333334, "fusion_lon": 0.0, "is_disabled": 0, "fusion_lat": 0.0, "bike_id": "6d209cd31ea8b7a57a4e4fdc577bd2e1", "rental_uris": {"ios": "https://dc.lft.to/lastmile_qr_scan", "android": "https://dc.lft.to/lastmile_qr_scan"}}, {"name": "888ac6a1b90651c203737a0faa31d377", "type": "electric_scooter", "lat": 38.917155, "is_reserved": 0, "lon": -77.034756, "fusion_lon": 0.0, "is_disabled": 0, "fusion_lat": 0.0, "bike_id": "888ac6a1b90651c203737a0faa31d377", "rental_uris": {"ios": "https://dc.lft.to/lastmile_qr_scan", "android": "https://dc.lft.to/lastmile_qr_scan"}}, {"name": "7e2d26fe18445ccc1df4b5a246ab8f69", "type": "electric_scooter", "lat": 38.90846583333333, "is_reserved": 0, "lon": -77.00055333333333, "fusion_lon": 0.0, "is_disabled": 0, "fusion_lat": 0.0, "bike_id": "7e2d26fe18445ccc1df4b5a246ab8f69", "rental_uris": {"ios": "https://dc.lft.to/lastmile_qr_scan", "android": "https://dc.lft.to/lastmile_qr_scan"}}, {"name": "600bece29752d3152b463d8475197f7d", "type": "electric_scooter", "lat": 38.924594666666664, "is_reserved": 0, "lon": -76.99903483333334, "fusion_lon": 0.0, "is_disabled": 0, "fusion_lat": 0.0, "bike_id": "600bece29752d3152b463d8475197f7d", "rental_uris": {"ios": "https://dc.lft.to/lastmile_qr_scan", "android": "https://dc.lft.to/lastmile_qr_scan"}}, {"name": "754a125013d2fc99d25fae223b362404", "type": "electric_scooter", "lat": 38.910475166666664, "is_reserved": 0, "lon": -77.02823016666666, "fusion_lon": 0.0, "is_disabled": 0, "fusion_lat": 0.0, "bike_id": "754a125013d2fc99d25fae223b362404", "rental_uris": {"ios": "https://dc.lft.to/lastmile_qr_scan", "android": "https://dc.lft.to/lastmile_qr_scan"}}, {"name": "0ffb203cffa4a2b383a7fffb3c97430a", "type": "electric_bike", "lat": 38.896888, "is_reserved": 0, "lon": -76.940671, "fusion_lon": 0.0, "is_disabled": 0, "fusion_lat": 0.0, "bike_id": "0ffb203cffa4a2b383a7fffb3c97430a", "rental_uris": {"ios": "https://dc.lft.to/lastmile_qr_scan", "android": "https://dc.lft.to/lastmile_qr_scan"}}, {"name": "be90ef0862eea29709c9128f6b02a625", "type": "electric_scooter", "lat": 38.95639416666667, "is_reserved": 0, "lon": -77.02549783333333, "fusion_lon": 0.0, "is_disabled": 0, "fusion_lat": 0.0, "bike_id": "be90ef0862eea29709c9128f6b02a625", "rental_uris": {"ios": "https://dc.lft.to/lastmile_qr_scan", "android": "https://dc.lft.to/lastmile_qr_scan"}}, {"name": "5a80fb40696c89501e5c2fa145ab3398", "type": "electric_bike", "lat": 38.886476333333334, "is_reserved": 0, "lon": -76.95474883333333, "fusion_lon": 0.0, "is_disabled": 0, "fusion_lat": 0.0, "bike_id": "5a80fb40696c89501e5c2fa145ab3398", "rental_uris": {"ios": "https://dc.lft.to/lastmile_qr_scan", "android": "https://dc.lft.to/lastmile_qr_scan"}}, {"name": "5d9318d8f748b9b5bf6c980930b030c5", "type": "electric_scooter", "lat": 38.883336, "is_reserved": 0, "lon": -77.01775683333334, "fusion_lon": 0.0, "is_disabled": 0, "fusion_lat": 0.0, "bike_id": "5d9318d8f748b9b5bf6c980930b030c5", "rental_uris": {"ios": "https://dc.lft.to/lastmile_qr_scan", "android": "https://dc.lft.to/lastmile_qr_scan"}}, {"name": "1321c2a1174022fa3bd0affc0df4aedd", "type": "electric_scooter", "lat": 38.908399, "is_reserved": 0, "lon": -76.99975116666667, "fusion_lon": 0.0, "is_disabled": 0, "fusion_lat": 0.0, "bike_id": "1321c2a1174022fa3bd0affc0df4aedd", "rental_uris": {"ios": "https://dc.lft.to/lastmile_qr_scan", "android": "https://dc.lft.to/lastmile_qr_scan"}}, {"name": "075d75de49c02dc52daf64208580c171", "type": "electric_scooter", "lat": 38.864254833333334, "is_reserved": 0, "lon": -76.98577416666667, "fusion_lon": 0.0, "is_disabled": 0, "fusion_lat": 0.0, "bike_id": "075d75de49c02dc52daf64208580c171", "rental_uris": {"ios": "https://dc.lft.to/lastmile_qr_scan", "android": "https://dc.lft.to/lastmile_qr_scan"}}, {"name": "e41606d58645aa0d563c0bc4379c42f2", "type": "electric_scooter", "lat": 38.9335245, "is_reserved": 0, "lon": -77.034264, "fusion_lon": 0.0, "is_disabled": 0, "fusion_lat": 0.0, "bike_id": "e41606d58645aa0d563c0bc4379c42f2", "rental_uris": {"ios": "https://dc.lft.to/lastmile_qr_scan", "android": "https://dc.lft.to/lastmile_qr_scan"}}, {"name": "ef42b260342202ee5c7c68ab62cd28a8", "type": "electric_scooter", "lat": 38.892346333333336, "is_reserved": 0, "lon": -77.05001733333333, "fusion_lon": 0.0, "is_disabled": 0, "fusion_lat": 0.0, "bike_id": "ef42b260342202ee5c7c68ab62cd28a8", "rental_uris": {"ios": "https://dc.lft.to/lastmile_qr_scan", "android": "https://dc.lft.to/lastmile_qr_scan"}}, {"name": "e469fad8dbe986184de512ab44f8f38e", "type": "electric_scooter", "lat": 38.92601916666667, "is_reserved": 0, "lon": -77.021199, "fusion_lon": 0.0, "is_disabled": 0, "fusion_lat": 0.0, "bike_id": "e469fad8dbe986184de512ab44f8f38e", "rental_uris": {"ios": "https://dc.lft.to/lastmile_qr_scan", "android": "https://dc.lft.to/lastmile_qr_scan"}}, {"name": "511e1550ed7b7d779963ffb7134042d3", "type": "electric_bike", "lat": 38.89458116666667, "is_reserved": 0, "lon": -76.97037066666667, "fusion_lon": 0.0, "is_disabled": 0, "fusion_lat": 0.0, "bike_id": "511e1550ed7b7d779963ffb7134042d3", "rental_uris": {"ios": "https://dc.lft.to/lastmile_qr_scan", "android": "https://dc.lft.to/lastmile_qr_scan"}}, {"name": "c66f8e99d0b58d765a3674a88f99d534", "type": "electric_scooter", "lat": 38.90724866666667, "is_reserved": 0, "lon": -77.02501983333333, "fusion_lon": 0.0, "is_disabled": 0, "fusion_lat": 0.0, "bike_id": "c66f8e99d0b58d765a3674a88f99d534", "rental_uris": {"ios": "https://dc.lft.to/lastmile_qr_scan", "android": "https://dc.lft.to/lastmile_qr_scan"}}, {"name": "a7ee58ed0461e78c6baab1ecba053539", "type": "electric_scooter", "lat": 38.917682, "is_reserved": 0, "lon": -77.0271965, "fusion_lon": 0.0, "is_disabled": 0, "fusion_lat": 0.0, "bike_id": "a7ee58ed0461e78c6baab1ecba053539", "rental_uris": {"ios": "https://dc.lft.to/lastmile_qr_scan", "android": "https://dc.lft.to/lastmile_qr_scan"}}, {"name": "bb84d194c09a134a3edc8a90255fddd1", "type": "electric_scooter", "lat": 38.933700333333334, "is_reserved": 0, "lon": -77.05727, "fusion_lon": 0.0, "is_disabled": 0, "fusion_lat": 0.0, "bike_id": "bb84d194c09a134a3edc8a90255fddd1", "rental_uris": {"ios": "https://dc.lft.to/lastmile_qr_scan", "android": "https://dc.lft.to/lastmile_qr_scan"}}, {"name": "52433050680690ff4007b2fa7629be21", "type": "electric_scooter", "lat": 38.90282233333333, "is_reserved": 0, "lon": -77.03845183333334, "fusion_lon": 0.0, "is_disabled": 0, "fusion_lat": 0.0, "bike_id": "52433050680690ff4007b2fa7629be21", "rental_uris": {"ios": "https://dc.lft.to/lastmile_qr_scan", "android": "https://dc.lft.to/lastmile_qr_scan"}}, {"name": "b7182bf56dda62c8430b535146f914be", "type": "electric_scooter", "lat": 38.9749985, "is_reserved": 0, "lon": -77.0169155, "fusion_lon": 0.0, "is_disabled": 0, "fusion_lat": 0.0, "bike_id": "b7182bf56dda62c8430b535146f914be", "rental_uris": {"ios": "https://dc.lft.to/lastmile_qr_scan", "android": "https://dc.lft.to/lastmile_qr_scan"}}, {"name": "45b48a8c417269ce82d2fb7e8f146495", "type": "electric_bike", "lat": 38.93954566666667, "is_reserved": 0, "lon": -77.36098516666667, "fusion_lon": 0.0, "is_disabled": 0, "fusion_lat": 0.0, "bike_id": "45b48a8c417269ce82d2fb7e8f146495", "rental_uris": {"ios": "https://dc.lft.to/lastmile_qr_scan", "android": "https://dc.lft.to/lastmile_qr_scan"}}, {"name": "a5d0bf7235f1b3bd02ff22a17e10ab1e", "type": "electric_scooter", "lat": 38.898671666666665, "is_reserved": 0, "lon": -76.94639583333333, "fusion_lon": 0.0, "is_disabled": 0, "fusion_lat": 0.0, "bike_id": "a5d0bf7235f1b3bd02ff22a17e10ab1e", "rental_uris": {"ios": "https://dc.lft.to/lastmile_qr_scan", "android": "https://dc.lft.to/lastmile_qr_scan"}}, {"name": "5b0b7c8c5c8480e529b4c914ab791650", "type": "electric_scooter", "lat": 38.906696, "is_reserved": 0, "lon": -77.02692866666666, "fusion_lon": 0.0, "is_disabled": 0, "fusion_lat": 0.0, "bike_id": "5b0b7c8c5c8480e529b4c914ab791650", "rental_uris": {"ios": "https://dc.lft.to/lastmile_qr_scan", "android": "https://dc.lft.to/lastmile_qr_scan"}}, {"name": "b93da0b74b284daddeea1510fe92b570", "type": "electric_scooter", "lat": 38.9123735, "is_reserved": 0, "lon": -77.04879366666667, "fusion_lon": 0.0, "is_disabled": 0, "fusion_lat": 0.0, "bike_id": "b93da0b74b284daddeea1510fe92b570", "rental_uris": {"ios": "https://dc.lft.to/lastmile_qr_scan", "android": "https://dc.lft.to/lastmile_qr_scan"}}, {"name": "1b63ca0f45f40447b97aab15f8bf6d39", "type": "electric_scooter", "lat": 38.909711333333334, "is_reserved": 0, "lon": -77.0111975, "fusion_lon": 0.0, "is_disabled": 0, "fusion_lat": 0.0, "bike_id": "1b63ca0f45f40447b97aab15f8bf6d39", "rental_uris": {"ios": "https://dc.lft.to/lastmile_qr_scan", "android": "https://dc.lft.to/lastmile_qr_scan"}}, {"name": "decf832f307c2ec4891061b5429e8fb5", "type": "electric_scooter", "lat": 38.924363666666665, "is_reserved": 0, "lon": -77.04252733333334, "fusion_lon": 0.0, "is_disabled": 0, "fusion_lat": 0.0, "bike_id": "decf832f307c2ec4891061b5429e8fb5", "rental_uris": {"ios": "https://dc.lft.to/lastmile_qr_scan", "android": "https://dc.lft.to/lastmile_qr_scan"}}, {"name": "e37aaca89ea43c64cd80fdefeaae6001", "type": "electric_bike", "lat": 38.95336116666667, "is_reserved": 0, "lon": -76.98253216666667, "fusion_lon": 0.0, "is_disabled": 0, "fusion_lat": 0.0, "bike_id": "e37aaca89ea43c64cd80fdefeaae6001", "rental_uris": {"ios": "https://dc.lft.to/lastmile_qr_scan", "android": "https://dc.lft.to/lastmile_qr_scan"}}, {"name": "d56bb9a10fee8c7eb7e13ed61764a6c4", "type": "electric_bike", "lat": 38.8775015, "is_reserved": 0, "lon": -76.97988916666667, "fusion_lon": 0.0, "is_disabled": 0, "fusion_lat": 0.0, "bike_id": "d56bb9a10fee8c7eb7e13ed61764a6c4", "rental_uris": {"ios": "https://dc.lft.to/lastmile_qr_scan", "android": "https://dc.lft.to/lastmile_qr_scan"}}, {"name": "c08ffe63c7ea62e452e7fb2a4937925f", "type": "electric_bike", "lat": 38.959282, "is_reserved": 0, "lon": -76.925338, "fusion_lon": 0.0, "is_disabled": 0, "fusion_lat": 0.0, "bike_id": "c08ffe63c7ea62e452e7fb2a4937925f", "rental_uris": {"ios": "https://dc.lft.to/lastmile_qr_scan", "android": "https://dc.lft.to/lastmile_qr_scan"}}, {"name": "339e4006c96d57ebcbd46c5e13cd370f", "type": "electric_scooter", "lat": 38.8696235, "is_reserved": 0, "lon": -77.01374616666666, "fusion_lon": 0.0, "is_disabled": 0, "fusion_lat": 0.0, "bike_id": "339e4006c96d57ebcbd46c5e13cd370f", "rental_uris": {"ios": "https://dc.lft.to/lastmile_qr_scan", "android": "https://dc.lft.to/lastmile_qr_scan"}}, {"name": "7932c0ca0a229fd354ccac51b5dca5ff", "type": "electric_scooter", "lat": 38.955363166666665, "is_reserved": 0, "lon": -77.02464116666667, "fusion_lon": 0.0, "is_disabled": 0, "fusion_lat": 0.0, "bike_id": "7932c0ca0a229fd354ccac51b5dca5ff", "rental_uris": {"ios": "https://dc.lft.to/lastmile_qr_scan", "android": "https://dc.lft.to/lastmile_qr_scan"}}, {"name": "30a7c053508911fb057924441004a174", "type": "electric_bike", "lat": 38.903015833333335, "is_reserved": 0, "lon": -76.94446916666666, "fusion_lon": 0.0, "is_disabled": 0, "fusion_lat": 0.0, "bike_id": "30a7c053508911fb057924441004a174", "rental_uris": {"ios": "https://dc.lft.to/lastmile_qr_scan", "android": "https://dc.lft.to/lastmile_qr_scan"}}, {"name": "64b648b30c882b1b95af4215e2990a5a", "type": "electric_scooter", "lat": 38.917209666666665, "is_reserved": 0, "lon": -77.018624, "fusion_lon": 0.0, "is_disabled": 0, "fusion_lat": 0.0, "bike_id": "64b648b30c882b1b95af4215e2990a5a", "rental_uris": {"ios": "https://dc.lft.to/lastmile_qr_scan", "android": "https://dc.lft.to/lastmile_qr_scan"}}, {"name": "ce389ab18a76fae60534cec645f6c972", "type": "electric_scooter", "lat": 38.9056565, "is_reserved": 0, "lon": -77.02173983333333, "fusion_lon": 0.0, "is_disabled": 0, "fusion_lat": 0.0, "bike_id": "ce389ab18a76fae60534cec645f6c972", "rental_uris": {"ios": "https://dc.lft.to/lastmile_qr_scan", "android": "https://dc.lft.to/lastmile_qr_scan"}}, {"name": "130e9ffcdf7e1d2e42c4cc90ab7ec10f", "type": "electric_scooter", "lat": 38.900309166666666, "is_reserved": 0, "lon": -76.99081133333334, "fusion_lon": 0.0, "is_disabled": 0, "fusion_lat": 0.0, "bike_id": "130e9ffcdf7e1d2e42c4cc90ab7ec10f", "rental_uris": {"ios": "https://dc.lft.to/lastmile_qr_scan", "android": "https://dc.lft.to/lastmile_qr_scan"}}, {"name": "ce7e7544161e33094dfcaf39116c5a83", "type": "electric_scooter", "lat": 38.914921, "is_reserved": 0, "lon": -77.0323605, "fusion_lon": 0.0, "is_disabled": 0, "fusion_lat": 0.0, "bike_id": "ce7e7544161e33094dfcaf39116c5a83", "rental_uris": {"ios": "https://dc.lft.to/lastmile_qr_scan", "android": "https://dc.lft.to/lastmile_qr_scan"}}, {"name": "35b376fc42e7d73331439873bf55539c", "type": "electric_bike", "lat": 38.99093366666666, "is_reserved": 0, "lon": -76.87498333333333, "fusion_lon": 0.0, "is_disabled": 0, "fusion_lat": 0.0, "bike_id": "35b376fc42e7d73331439873bf55539c", "rental_uris": {"ios": "https://dc.lft.to/lastmile_qr_scan", "android": "https://dc.lft.to/lastmile_qr_scan"}}, {"name": "d2d568b386f833682c939cf67dcd59ce", "type": "electric_scooter", "lat": 38.917159833333336, "is_reserved": 0, "lon": -77.03863083333333, "fusion_lon": 0.0, "is_disabled": 0, "fusion_lat": 0.0, "bike_id": "d2d568b386f833682c939cf67dcd59ce", "rental_uris": {"ios": "https://dc.lft.to/lastmile_qr_scan", "android": "https://dc.lft.to/lastmile_qr_scan"}}, {"name": "e635196f3bf7540b4e100d1afb2c44f3", "type": "electric_scooter", "lat": 38.919164, "is_reserved": 0, "lon": -77.03138783333333, "fusion_lon": 0.0, "is_disabled": 0, "fusion_lat": 0.0, "bike_id": "e635196f3bf7540b4e100d1afb2c44f3", "rental_uris": {"ios": "https://dc.lft.to/lastmile_qr_scan", "android": "https://dc.lft.to/lastmile_qr_scan"}}, {"name": "8f186c3b3b30c6be7ed3dd41c9afe41b", "type": "electric_scooter", "lat": 38.892374, "is_reserved": 0, "lon": -77.022078, "fusion_lon": 0.0, "is_disabled": 0, "fusion_lat": 0.0, "bike_id": "8f186c3b3b30c6be7ed3dd41c9afe41b", "rental_uris": {"ios": "https://dc.lft.to/lastmile_qr_scan", "android": "https://dc.lft.to/lastmile_qr_scan"}}, {"name": "27c78f137e0810fdd493c31af0ba4f2e", "type": "electric_scooter", "lat": 38.90532433333333, "is_reserved": 0, "lon": -77.059123, "fusion_lon": 0.0, "is_disabled": 0, "fusion_lat": 0.0, "bike_id": "27c78f137e0810fdd493c31af0ba4f2e", "rental_uris": {"ios": "https://dc.lft.to/lastmile_qr_scan", "android": "https://dc.lft.to/lastmile_qr_scan"}}, {"name": "87c9e4ed41a0f4936fd7967a78e4643a", "type": "electric_scooter", "lat": 38.8840575, "is_reserved": 0, "lon": -77.01520866666667, "fusion_lon": 0.0, "is_disabled": 0, "fusion_lat": 0.0, "bike_id": "87c9e4ed41a0f4936fd7967a78e4643a", "rental_uris": {"ios": "https://dc.lft.to/lastmile_qr_scan", "android": "https://dc.lft.to/lastmile_qr_scan"}}, {"name": "48231d0b305e653f732568e8717ac7d0", "type": "electric_scooter", "lat": 38.876341, "is_reserved": 0, "lon": -77.009214, "fusion_lon": 0.0, "is_disabled": 0, "fusion_lat": 0.0, "bike_id": "48231d0b305e653f732568e8717ac7d0", "rental_uris": {"ios": "https://dc.lft.to/lastmile_qr_scan", "android": "https://dc.lft.to/lastmile_qr_scan"}}, {"name": "21b53635555620d45fe94240b9e42c0e", "type": "electric_scooter", "lat": 38.92444883333334, "is_reserved": 0, "lon": -77.0335485, "fusion_lon": 0.0, "is_disabled": 0, "fusion_lat": 0.0, "bike_id": "21b53635555620d45fe94240b9e42c0e", "rental_uris": {"ios": "https://dc.lft.to/lastmile_qr_scan", "android": "https://dc.lft.to/lastmile_qr_scan"}}, {"name": "0bc5c76c3bdacb01a2195fd752e1790d", "type": "electric_scooter", "lat": 38.90581683333333, "is_reserved": 0, "lon": -77.04871666666666, "fusion_lon": 0.0, "is_disabled": 0, "fusion_lat": 0.0, "bike_id": "0bc5c76c3bdacb01a2195fd752e1790d", "rental_uris": {"ios": "https://dc.lft.to/lastmile_qr_scan", "android": "https://dc.lft.to/lastmile_qr_scan"}}, {"name": "10694d51c0e31a73b93e7a979dfe0a0e", "type": "electric_bike", "lat": 38.828757, "is_reserved": 0, "lon": -77.1122265, "fusion_lon": 0.0, "is_disabled": 0, "fusion_lat": 0.0, "bike_id": "10694d51c0e31a73b93e7a979dfe0a0e", "rental_uris": {"ios": "https://dc.lft.to/lastmile_qr_scan", "android": "https://dc.lft.to/lastmile_qr_scan"}}, {"name": "8ece143c2ea3132068f7fb384bde97e9", "type": "electric_scooter", "lat": 38.900225, "is_reserved": 0, "lon": -77.00186433333333, "fusion_lon": 0.0, "is_disabled": 0, "fusion_lat": 0.0, "bike_id": "8ece143c2ea3132068f7fb384bde97e9", "rental_uris": {"ios": "https://dc.lft.to/lastmile_qr_scan", "android": "https://dc.lft.to/lastmile_qr_scan"}}, {"name": "07adcfcf1a7fa02170efe55701cddaab", "type": "electric_scooter", "lat": 38.902688166666664, "is_reserved": 0, "lon": -77.03856216666667, "fusion_lon": 0.0, "is_disabled": 0, "fusion_lat": 0.0, "bike_id": "07adcfcf1a7fa02170efe55701cddaab", "rental_uris": {"ios": "https://dc.lft.to/lastmile_qr_scan", "android": "https://dc.lft.to/lastmile_qr_scan"}}, {"name": "5e85f9f294fbdc874145d7a52dd2342d", "type": "electric_bike", "lat": 38.807861, "is_reserved": 0, "lon": -77.129575, "fusion_lon": 0.0, "is_disabled": 0, "fusion_lat": 0.0, "bike_id": "5e85f9f294fbdc874145d7a52dd2342d", "rental_uris": {"ios": "https://dc.lft.to/lastmile_qr_scan", "android": "https://dc.lft.to/lastmile_qr_scan"}}, {"name": "b3318262a4e9ab2e7dc09c10446755be", "type": "electric_scooter", "lat": 38.91673333333333, "is_reserved": 0, "lon": -77.02328483333334, "fusion_lon": 0.0, "is_disabled": 0, "fusion_lat": 0.0, "bike_id": "b3318262a4e9ab2e7dc09c10446755be", "rental_uris": {"ios": "https://dc.lft.to/lastmile_qr_scan", "android": "https://dc.lft.to/lastmile_qr_scan"}}, {"name": "221e8d37c1c1354e5fa954266eb18b6b", "type": "electric_scooter", "lat": 38.95660766666666, "is_reserved": 0, "lon": -77.03300616666667, "fusion_lon": 0.0, "is_disabled": 0, "fusion_lat": 0.0, "bike_id": "221e8d37c1c1354e5fa954266eb18b6b", "rental_uris": {"ios": "https://dc.lft.to/lastmile_qr_scan", "android": "https://dc.lft.to/lastmile_qr_scan"}}, {"name": "792a530ada276bad064e59b916fa0681", "type": "electric_bike", "lat": 39.00388816666667, "is_reserved": 0, "lon": -77.0129245, "fusion_lon": 0.0, "is_disabled": 0, "fusion_lat": 0.0, "bike_id": "792a530ada276bad064e59b916fa0681", "rental_uris": {"ios": "https://dc.lft.to/lastmile_qr_scan", "android": "https://dc.lft.to/lastmile_qr_scan"}}, {"name": "0fd0dfa6f9d293c99c822321664bfdb8", "type": "electric_scooter", "lat": 38.934605, "is_reserved": 0, "lon": -77.07294783333333, "fusion_lon": 0.0, "is_disabled": 0, "fusion_lat": 0.0, "bike_id": "0fd0dfa6f9d293c99c822321664bfdb8", "rental_uris": {"ios": "https://dc.lft.to/lastmile_qr_scan", "android": "https://dc.lft.to/lastmile_qr_scan"}}, {"name": "a946d623a2be0c95451849e10e0b2b0a", "type": "electric_bike", "lat": 38.8278625, "is_reserved": 0, "lon": -77.00920083333334, "fusion_lon": 0.0, "is_disabled": 0, "fusion_lat": 0.0, "bike_id": "a946d623a2be0c95451849e10e0b2b0a", "rental_uris": {"ios": "https://dc.lft.to/lastmile_qr_scan", "android": "https://dc.lft.to/lastmile_qr_scan"}}, {"name": "da16493c25e41d9663697fb0e9e1ea34", "type": "electric_scooter", "lat": 38.90037383333333, "is_reserved": 0, "lon": -76.98840816666667, "fusion_lon": 0.0, "is_disabled": 0, "fusion_lat": 0.0, "bike_id": "da16493c25e41d9663697fb0e9e1ea34", "rental_uris": {"ios": "https://dc.lft.to/lastmile_qr_scan", "android": "https://dc.lft.to/lastmile_qr_scan"}}, {"name": "2495fef24eb8bab501a8ffeea418d316", "type": "electric_scooter", "lat": 38.958426, "is_reserved": 0, "lon": -77.029304, "fusion_lon": 0.0, "is_disabled": 0, "fusion_lat": 0.0, "bike_id": "2495fef24eb8bab501a8ffeea418d316", "rental_uris": {"ios": "https://dc.lft.to/lastmile_qr_scan", "android": "https://dc.lft.to/lastmile_qr_scan"}}, {"name": "60540e6b67198a43bc419e58a6f40a2e", "type": "electric_scooter", "lat": 38.92490183333334, "is_reserved": 0, "lon": -77.07324733333333, "fusion_lon": 0.0, "is_disabled": 0, "fusion_lat": 0.0, "bike_id": "60540e6b67198a43bc419e58a6f40a2e", "rental_uris": {"ios": "https://dc.lft.to/lastmile_qr_scan", "android": "https://dc.lft.to/lastmile_qr_scan"}}, {"name": "9c45e011ac4a4ded317778c52a72ef8b", "type": "electric_scooter", "lat": 38.93492716666667, "is_reserved": 0, "lon": -77.03282233333333, "fusion_lon": 0.0, "is_disabled": 0, "fusion_lat": 0.0, "bike_id": "9c45e011ac4a4ded317778c52a72ef8b", "rental_uris": {"ios": "https://dc.lft.to/lastmile_qr_scan", "android": "https://dc.lft.to/lastmile_qr_scan"}}, {"name": "d377cd7b206369fe33c12cfe45d8e36f", "type": "electric_scooter", "lat": 38.894905333333334, "is_reserved": 0, "lon": -77.03061733333334, "fusion_lon": 0.0, "is_disabled": 0, "fusion_lat": 0.0, "bike_id": "d377cd7b206369fe33c12cfe45d8e36f", "rental_uris": {"ios": "https://dc.lft.to/lastmile_qr_scan", "android": "https://dc.lft.to/lastmile_qr_scan"}}, {"name": "6bdd9bb8e15919e0bab53d4a53d47a65", "type": "electric_scooter", "lat": 38.93377433333333, "is_reserved": 0, "lon": -77.03460133333333, "fusion_lon": 0.0, "is_disabled": 0, "fusion_lat": 0.0, "bike_id": "6bdd9bb8e15919e0bab53d4a53d47a65", "rental_uris": {"ios": "https://dc.lft.to/lastmile_qr_scan", "android": "https://dc.lft.to/lastmile_qr_scan"}}, {"name": "418c6036144e5ad139454183e76e5741", "type": "electric_scooter", "lat": 38.917277, "is_reserved": 0, "lon": -77.06844033333333, "fusion_lon": 0.0, "is_disabled": 0, "fusion_lat": 0.0, "bike_id": "418c6036144e5ad139454183e76e5741", "rental_uris": {"ios": "https://dc.lft.to/lastmile_qr_scan", "android": "https://dc.lft.to/lastmile_qr_scan"}}, {"name": "9746e6dede79c7db3729b7bb34c11060", "type": "electric_scooter", "lat": 38.91221066666667, "is_reserved": 0, "lon": -77.04461016666667, "fusion_lon": 0.0, "is_disabled": 0, "fusion_lat": 0.0, "bike_id": "9746e6dede79c7db3729b7bb34c11060", "rental_uris": {"ios": "https://dc.lft.to/lastmile_qr_scan", "android": "https://dc.lft.to/lastmile_qr_scan"}}, {"name": "46085ebe896c79fc3697ba12238b5a6a", "type": "electric_scooter", "lat": 38.90582083333334, "is_reserved": 0, "lon": -77.0249555, "fusion_lon": 0.0, "is_disabled": 0, "fusion_lat": 0.0, "bike_id": "46085ebe896c79fc3697ba12238b5a6a", "rental_uris": {"ios": "https://dc.lft.to/lastmile_qr_scan", "android": "https://dc.lft.to/lastmile_qr_scan"}}, {"name": "9cec13ef1e5bb086b970be0042dd675f", "type": "electric_scooter", "lat": 38.927365333333334, "is_reserved": 0, "lon": -77.02980316666667, "fusion_lon": 0.0, "is_disabled": 0, "fusion_lat": 0.0, "bike_id": "9cec13ef1e5bb086b970be0042dd675f", "rental_uris": {"ios": "https://dc.lft.to/lastmile_qr_scan", "android": "https://dc.lft.to/lastmile_qr_scan"}}, {"name": "370661f1b401d158fcc7795912f0e57e", "type": "electric_bike", "lat": 38.948400666666664, "is_reserved": 0, "lon": -77.03902583333333, "fusion_lon": 0.0, "is_disabled": 0, "fusion_lat": 0.0, "bike_id": "370661f1b401d158fcc7795912f0e57e", "rental_uris": {"ios": "https://dc.lft.to/lastmile_qr_scan", "android": "https://dc.lft.to/lastmile_qr_scan"}}, {"name": "c8661379b8e287328fa0f8dc9b129a16", "type": "electric_scooter", "lat": 38.91092833333333, "is_reserved": 0, "lon": -77.03845133333333, "fusion_lon": 0.0, "is_disabled": 0, "fusion_lat": 0.0, "bike_id": "c8661379b8e287328fa0f8dc9b129a16", "rental_uris": {"ios": "https://dc.lft.to/lastmile_qr_scan", "android": "https://dc.lft.to/lastmile_qr_scan"}}, {"name": "6cfc0a799b0338278936d9ef1b864677", "type": "electric_scooter", "lat": 38.894079166666664, "is_reserved": 0, "lon": -76.9480545, "fusion_lon": 0.0, "is_disabled": 0, "fusion_lat": 0.0, "bike_id": "6cfc0a799b0338278936d9ef1b864677", "rental_uris": {"ios": "https://dc.lft.to/lastmile_qr_scan", "android": "https://dc.lft.to/lastmile_qr_scan"}}, {"name": "fb34f2ca3f60f7c9215da0b8b0a0ee00", "type": "electric_scooter", "lat": 38.923134833333336, "is_reserved": 0, "lon": -77.03915516666666, "fusion_lon": 0.0, "is_disabled": 0, "fusion_lat": 0.0, "bike_id": "fb34f2ca3f60f7c9215da0b8b0a0ee00", "rental_uris": {"ios": "https://dc.lft.to/lastmile_qr_scan", "android": "https://dc.lft.to/lastmile_qr_scan"}}, {"name": "212c2b000bcb1efadaf221a331bb80e3", "type": "electric_scooter", "lat": 38.857129, "is_reserved": 0, "lon": -76.98130833333333, "fusion_lon": 0.0, "is_disabled": 0, "fusion_lat": 0.0, "bike_id": "212c2b000bcb1efadaf221a331bb80e3", "rental_uris": {"ios": "https://dc.lft.to/lastmile_qr_scan", "android": "https://dc.lft.to/lastmile_qr_scan"}}, {"name": "12d9edbb03373b8a7c16d4661d144d08", "type": "electric_bike", "lat": 38.908656666666666, "is_reserved": 0, "lon": -77.047831, "fusion_lon": 0.0, "is_disabled": 0, "fusion_lat": 0.0, "bike_id": "12d9edbb03373b8a7c16d4661d144d08", "rental_uris": {"ios": "https://dc.lft.to/lastmile_qr_scan", "android": "https://dc.lft.to/lastmile_qr_scan"}}, {"name": "d6a62e34514dddb42ebeb5816ad9538e", "type": "electric_bike", "lat": 38.87983233333333, "is_reserved": 0, "lon": -76.9160205, "fusion_lon": 0.0, "is_disabled": 0, "fusion_lat": 0.0, "bike_id": "d6a62e34514dddb42ebeb5816ad9538e", "rental_uris": {"ios": "https://dc.lft.to/lastmile_qr_scan", "android": "https://dc.lft.to/lastmile_qr_scan"}}, {"name": "8454638d97e54a7229f230393eb2172c", "type": "electric_scooter", "lat": 38.93538516666667, "is_reserved": 0, "lon": -77.03686733333333, "fusion_lon": 0.0, "is_disabled": 0, "fusion_lat": 0.0, "bike_id": "8454638d97e54a7229f230393eb2172c", "rental_uris": {"ios": "https://dc.lft.to/lastmile_qr_scan", "android": "https://dc.lft.to/lastmile_qr_scan"}}, {"name": "1c2ab3aac8a333e32b25b94f5af806a8", "type": "electric_scooter", "lat": 38.915938, "is_reserved": 0, "lon": -77.044745, "fusion_lon": 0.0, "is_disabled": 0, "fusion_lat": 0.0, "bike_id": "1c2ab3aac8a333e32b25b94f5af806a8", "rental_uris": {"ios": "https://dc.lft.to/lastmile_qr_scan", "android": "https://dc.lft.to/lastmile_qr_scan"}}, {"name": "44f6aaaac93b8c1cfac3272f3730269c", "type": "electric_scooter", "lat": 38.935808333333334, "is_reserved": 0, "lon": -76.9910225, "fusion_lon": 0.0, "is_disabled": 0, "fusion_lat": 0.0, "bike_id": "44f6aaaac93b8c1cfac3272f3730269c", "rental_uris": {"ios": "https://dc.lft.to/lastmile_qr_scan", "android": "https://dc.lft.to/lastmile_qr_scan"}}, {"name": "d7cca500f090b77d0e72d95b16b2a9c4", "type": "electric_scooter", "lat": 38.925276, "is_reserved": 0, "lon": -77.05529866666667, "fusion_lon": 0.0, "is_disabled": 0, "fusion_lat": 0.0, "bike_id": "d7cca500f090b77d0e72d95b16b2a9c4", "rental_uris": {"ios": "https://dc.lft.to/lastmile_qr_scan", "android": "https://dc.lft.to/lastmile_qr_scan"}}, {"name": "7518098a33c964f280870b912a65a2c4", "type": "electric_scooter", "lat": 38.92235516666667, "is_reserved": 0, "lon": -77.03365983333333, "fusion_lon": 0.0, "is_disabled": 0, "fusion_lat": 0.0, "bike_id": "7518098a33c964f280870b912a65a2c4", "rental_uris": {"ios": "https://dc.lft.to/lastmile_qr_scan", "android": "https://dc.lft.to/lastmile_qr_scan"}}, {"name": "def183479630cf327a8884adee620f69", "type": "electric_scooter", "lat": 38.91875983333333, "is_reserved": 0, "lon": -77.043789, "fusion_lon": 0.0, "is_disabled": 0, "fusion_lat": 0.0, "bike_id": "def183479630cf327a8884adee620f69", "rental_uris": {"ios": "https://dc.lft.to/lastmile_qr_scan", "android": "https://dc.lft.to/lastmile_qr_scan"}}, {"name": "d51b57049de1ad83798b65ce66d8a5c4", "type": "electric_scooter", "lat": 38.90152716666667, "is_reserved": 0, "lon": -76.93064783333334, "fusion_lon": 0.0, "is_disabled": 0, "fusion_lat": 0.0, "bike_id": "d51b57049de1ad83798b65ce66d8a5c4", "rental_uris": {"ios": "https://dc.lft.to/lastmile_qr_scan", "android": "https://dc.lft.to/lastmile_qr_scan"}}, {"name": "b7f5ae73de071be89884b5bcb9fc4d7f", "type": "electric_scooter", "lat": 38.926875, "is_reserved": 0, "lon": -77.0956635, "fusion_lon": 0.0, "is_disabled": 0, "fusion_lat": 0.0, "bike_id": "b7f5ae73de071be89884b5bcb9fc4d7f", "rental_uris": {"ios": "https://dc.lft.to/lastmile_qr_scan", "android": "https://dc.lft.to/lastmile_qr_scan"}}, {"name": "62e89312aaa6187f5d4900c65b22b456", "type": "electric_scooter", "lat": 38.9247945, "is_reserved": 0, "lon": -77.0283785, "fusion_lon": 0.0, "is_disabled": 0, "fusion_lat": 0.0, "bike_id": "62e89312aaa6187f5d4900c65b22b456", "rental_uris": {"ios": "https://dc.lft.to/lastmile_qr_scan", "android": "https://dc.lft.to/lastmile_qr_scan"}}, {"name": "0e32436d0589d79f31046491bb208f3b", "type": "electric_scooter", "lat": 38.924785, "is_reserved": 0, "lon": -77.0376325, "fusion_lon": 0.0, "is_disabled": 0, "fusion_lat": 0.0, "bike_id": "0e32436d0589d79f31046491bb208f3b", "rental_uris": {"ios": "https://dc.lft.to/lastmile_qr_scan", "android": "https://dc.lft.to/lastmile_qr_scan"}}, {"name": "ad92908388d4cf71257531e0e62dca62", "type": "electric_scooter", "lat": 38.91579633333333, "is_reserved": 0, "lon": -77.0219045, "fusion_lon": 0.0, "is_disabled": 0, "fusion_lat": 0.0, "bike_id": "ad92908388d4cf71257531e0e62dca62", "rental_uris": {"ios": "https://dc.lft.to/lastmile_qr_scan", "android": "https://dc.lft.to/lastmile_qr_scan"}}, {"name": "0199df6e2f431e9554cfb39488ad78e3", "type": "electric_scooter", "lat": 38.90529133333333, "is_reserved": 0, "lon": -77.06510933333334, "fusion_lon": 0.0, "is_disabled": 0, "fusion_lat": 0.0, "bike_id": "0199df6e2f431e9554cfb39488ad78e3", "rental_uris": {"ios": "https://dc.lft.to/lastmile_qr_scan", "android": "https://dc.lft.to/lastmile_qr_scan"}}, {"name": "ee8fb1a34f5663aad5a36ba3fb2382af", "type": "electric_scooter", "lat": 38.92551233333333, "is_reserved": 0, "lon": -77.00093116666666, "fusion_lon": 0.0, "is_disabled": 0, "fusion_lat": 0.0, "bike_id": "ee8fb1a34f5663aad5a36ba3fb2382af", "rental_uris": {"ios": "https://dc.lft.to/lastmile_qr_scan", "android": "https://dc.lft.to/lastmile_qr_scan"}}, {"name": "0803c081935d8d58c48d526b6d612af6", "type": "electric_scooter", "lat": 38.9272905, "is_reserved": 0, "lon": -77.03971783333333, "fusion_lon": 0.0, "is_disabled": 0, "fusion_lat": 0.0, "bike_id": "0803c081935d8d58c48d526b6d612af6", "rental_uris": {"ios": "https://dc.lft.to/lastmile_qr_scan", "android": "https://dc.lft.to/lastmile_qr_scan"}}, {"name": "c1361a4ff217b1641e2495b7c1591762", "type": "electric_scooter", "lat": 38.8995605, "is_reserved": 0, "lon": -77.05273366666667, "fusion_lon": 0.0, "is_disabled": 0, "fusion_lat": 0.0, "bike_id": "c1361a4ff217b1641e2495b7c1591762", "rental_uris": {"ios": "https://dc.lft.to/lastmile_qr_scan", "android": "https://dc.lft.to/lastmile_qr_scan"}}, {"name": "4b9386d061fd7f6a7b7687f6dbeb969d", "type": "electric_scooter", "lat": 38.905074166666665, "is_reserved": 0, "lon": -77.029423, "fusion_lon": 0.0, "is_disabled": 0, "fusion_lat": 0.0, "bike_id": "4b9386d061fd7f6a7b7687f6dbeb969d", "rental_uris": {"ios": "https://dc.lft.to/lastmile_qr_scan", "android": "https://dc.lft.to/lastmile_qr_scan"}}, {"name": "3794b40ab1ff626ecb1a4a09164f0300", "type": "electric_scooter", "lat": 38.9010855, "is_reserved": 0, "lon": -77.03330533333333, "fusion_lon": 0.0, "is_disabled": 0, "fusion_lat": 0.0, "bike_id": "3794b40ab1ff626ecb1a4a09164f0300", "rental_uris": {"ios": "https://dc.lft.to/lastmile_qr_scan", "android": "https://dc.lft.to/lastmile_qr_scan"}}, {"name": "ac0cdb82842f209a540d69afac90c38e", "type": "electric_bike", "lat": 38.999165833333336, "is_reserved": 0, "lon": -77.04615633333333, "fusion_lon": 0.0, "is_disabled": 0, "fusion_lat": 0.0, "bike_id": "ac0cdb82842f209a540d69afac90c38e", "rental_uris": {"ios": "https://dc.lft.to/lastmile_qr_scan", "android": "https://dc.lft.to/lastmile_qr_scan"}}, {"name": "16c7699e4f9a6ddae5fff143718bc221", "type": "electric_scooter", "lat": 38.87394116666667, "is_reserved": 0, "lon": -77.00028916666666, "fusion_lon": 0.0, "is_disabled": 0, "fusion_lat": 0.0, "bike_id": "16c7699e4f9a6ddae5fff143718bc221", "rental_uris": {"ios": "https://dc.lft.to/lastmile_qr_scan", "android": "https://dc.lft.to/lastmile_qr_scan"}}, {"name": "6176603917faf66e59342682bf5bde40", "type": "electric_bike", "lat": 38.845772333333336, "is_reserved": 0, "lon": -77.09628916666666, "fusion_lon": 0.0, "is_disabled": 0, "fusion_lat": 0.0, "bike_id": "6176603917faf66e59342682bf5bde40", "rental_uris": {"ios": "https://dc.lft.to/lastmile_qr_scan", "android": "https://dc.lft.to/lastmile_qr_scan"}}, {"name": "4effdc0356d7abff06a5c5f7ebd80b2d", "type": "electric_scooter", "lat": 38.9611805, "is_reserved": 0, "lon": -77.02812483333334, "fusion_lon": 0.0, "is_disabled": 0, "fusion_lat": 0.0, "bike_id": "4effdc0356d7abff06a5c5f7ebd80b2d", "rental_uris": {"ios": "https://dc.lft.to/lastmile_qr_scan", "android": "https://dc.lft.to/lastmile_qr_scan"}}, {"name": "3322f964d93a740438a66492b6133221", "type": "electric_scooter", "lat": 38.91934283333333, "is_reserved": 0, "lon": -77.04499433333334, "fusion_lon": 0.0, "is_disabled": 0, "fusion_lat": 0.0, "bike_id": "3322f964d93a740438a66492b6133221", "rental_uris": {"ios": "https://dc.lft.to/lastmile_qr_scan", "android": "https://dc.lft.to/lastmile_qr_scan"}}, {"name": "db6590a9303f8eac886d0347d90c923d", "type": "electric_scooter", "lat": 38.913406333333334, "is_reserved": 0, "lon": -77.0162345, "fusion_lon": 0.0, "is_disabled": 0, "fusion_lat": 0.0, "bike_id": "db6590a9303f8eac886d0347d90c923d", "rental_uris": {"ios": "https://dc.lft.to/lastmile_qr_scan", "android": "https://dc.lft.to/lastmile_qr_scan"}}, {"name": "40126886a5281917fbeeecf21bf9fd9a", "type": "electric_scooter", "lat": 38.90684133333333, "is_reserved": 0, "lon": -77.02494416666667, "fusion_lon": 0.0, "is_disabled": 0, "fusion_lat": 0.0, "bike_id": "40126886a5281917fbeeecf21bf9fd9a", "rental_uris": {"ios": "https://dc.lft.to/lastmile_qr_scan", "android": "https://dc.lft.to/lastmile_qr_scan"}}, {"name": "ead2645d725d17ef5a7252d1742cdebd", "type": "electric_scooter", "lat": 38.90272516666667, "is_reserved": 0, "lon": -77.017632, "fusion_lon": 0.0, "is_disabled": 0, "fusion_lat": 0.0, "bike_id": "ead2645d725d17ef5a7252d1742cdebd", "rental_uris": {"ios": "https://dc.lft.to/lastmile_qr_scan", "android": "https://dc.lft.to/lastmile_qr_scan"}}, {"name": "031f36f63a9e3e96339fd4d78894ba61", "type": "electric_scooter", "lat": 38.86380916666667, "is_reserved": 0, "lon": -77.013561, "fusion_lon": 0.0, "is_disabled": 0, "fusion_lat": 0.0, "bike_id": "031f36f63a9e3e96339fd4d78894ba61", "rental_uris": {"ios": "https://dc.lft.to/lastmile_qr_scan", "android": "https://dc.lft.to/lastmile_qr_scan"}}, {"name": "945a3ee97c599f4529b4d998dd9aba8a", "type": "electric_scooter", "lat": 38.923035, "is_reserved": 0, "lon": -77.01208516666667, "fusion_lon": 0.0, "is_disabled": 0, "fusion_lat": 0.0, "bike_id": "945a3ee97c599f4529b4d998dd9aba8a", "rental_uris": {"ios": "https://dc.lft.to/lastmile_qr_scan", "android": "https://dc.lft.to/lastmile_qr_scan"}}, {"name": "0db5aadc66d0f6eb9af1790ebebaedc9", "type": "electric_bike", "lat": 39.058125833333335, "is_reserved": 0, "lon": -77.1262735, "fusion_lon": 0.0, "is_disabled": 0, "fusion_lat": 0.0, "bike_id": "0db5aadc66d0f6eb9af1790ebebaedc9", "rental_uris": {"ios": "https://dc.lft.to/lastmile_qr_scan", "android": "https://dc.lft.to/lastmile_qr_scan"}}, {"name": "6fe4ea36303df1df53689af03467bced", "type": "electric_scooter", "lat": 38.88505266666667, "is_reserved": 0, "lon": -76.99839466666667, "fusion_lon": 0.0, "is_disabled": 0, "fusion_lat": 0.0, "bike_id": "6fe4ea36303df1df53689af03467bced", "rental_uris": {"ios": "https://dc.lft.to/lastmile_qr_scan", "android": "https://dc.lft.to/lastmile_qr_scan"}}, {"name": "5499a62a00aea5847350c2497bc86c9b", "type": "electric_scooter", "lat": 38.915665833333335, "is_reserved": 0, "lon": -77.02943683333334, "fusion_lon": 0.0, "is_disabled": 0, "fusion_lat": 0.0, "bike_id": "5499a62a00aea5847350c2497bc86c9b", "rental_uris": {"ios": "https://dc.lft.to/lastmile_qr_scan", "android": "https://dc.lft.to/lastmile_qr_scan"}}, {"name": "9c405e90708fceff12561d0acb51da3a", "type": "electric_scooter", "lat": 38.92487033333333, "is_reserved": 0, "lon": -77.052177, "fusion_lon": 0.0, "is_disabled": 0, "fusion_lat": 0.0, "bike_id": "9c405e90708fceff12561d0acb51da3a", "rental_uris": {"ios": "https://dc.lft.to/lastmile_qr_scan", "android": "https://dc.lft.to/lastmile_qr_scan"}}, {"name": "a54b62277165d79cab36fbf9d6216c15", "type": "electric_scooter", "lat": 38.94186633333333, "is_reserved": 0, "lon": -77.0303245, "fusion_lon": 0.0, "is_disabled": 0, "fusion_lat": 0.0, "bike_id": "a54b62277165d79cab36fbf9d6216c15", "rental_uris": {"ios": "https://dc.lft.to/lastmile_qr_scan", "android": "https://dc.lft.to/lastmile_qr_scan"}}, {"name": "e6338cee86bbee0abb4b5473d843d177", "type": "electric_scooter", "lat": 38.899330166666665, "is_reserved": 0, "lon": -77.01490516666667, "fusion_lon": 0.0, "is_disabled": 0, "fusion_lat": 0.0, "bike_id": "e6338cee86bbee0abb4b5473d843d177", "rental_uris": {"ios": "https://dc.lft.to/lastmile_qr_scan", "android": "https://dc.lft.to/lastmile_qr_scan"}}, {"name": "14a3de26a61fe299506c13d1a88f5929", "type": "electric_scooter", "lat": 38.902743666666666, "is_reserved": 0, "lon": -77.031752, "fusion_lon": 0.0, "is_disabled": 0, "fusion_lat": 0.0, "bike_id": "14a3de26a61fe299506c13d1a88f5929", "rental_uris": {"ios": "https://dc.lft.to/lastmile_qr_scan", "android": "https://dc.lft.to/lastmile_qr_scan"}}, {"name": "4dc342a5b5c032d0c68167e4a7a57fb6", "type": "electric_bike", "lat": 38.84609583333334, "is_reserved": 0, "lon": -76.97831033333334, "fusion_lon": 0.0, "is_disabled": 0, "fusion_lat": 0.0, "bike_id": "4dc342a5b5c032d0c68167e4a7a57fb6", "rental_uris": {"ios": "https://dc.lft.to/lastmile_qr_scan", "android": "https://dc.lft.to/lastmile_qr_scan"}}, {"name": "ec0c3e3fc354d3b9a2d48a7de41e35b4", "type": "electric_scooter", "lat": 38.9159025, "is_reserved": 0, "lon": -76.983766, "fusion_lon": 0.0, "is_disabled": 0, "fusion_lat": 0.0, "bike_id": "ec0c3e3fc354d3b9a2d48a7de41e35b4", "rental_uris": {"ios": "https://dc.lft.to/lastmile_qr_scan", "android": "https://dc.lft.to/lastmile_qr_scan"}}, {"name": "302e3c63a67f54e5b159fe65b1799fe4", "type": "electric_scooter", "lat": 38.898931, "is_reserved": 0, "lon": -77.03292216666667, "fusion_lon": 0.0, "is_disabled": 0, "fusion_lat": 0.0, "bike_id": "302e3c63a67f54e5b159fe65b1799fe4", "rental_uris": {"ios": "https://dc.lft.to/lastmile_qr_scan", "android": "https://dc.lft.to/lastmile_qr_scan"}}, {"name": "92c4e58600f45d1446026b519cef250c", "type": "electric_scooter", "lat": 38.93459583333333, "is_reserved": 0, "lon": -77.0305015, "fusion_lon": 0.0, "is_disabled": 0, "fusion_lat": 0.0, "bike_id": "92c4e58600f45d1446026b519cef250c", "rental_uris": {"ios": "https://dc.lft.to/lastmile_qr_scan", "android": "https://dc.lft.to/lastmile_qr_scan"}}, {"name": "1e7b623f9650eaf19e71baab54b1e169", "type": "electric_scooter", "lat": 38.89017, "is_reserved": 0, "lon": -76.93730733333334, "fusion_lon": 0.0, "is_disabled": 0, "fusion_lat": 0.0, "bike_id": "1e7b623f9650eaf19e71baab54b1e169", "rental_uris": {"ios": "https://dc.lft.to/lastmile_qr_scan", "android": "https://dc.lft.to/lastmile_qr_scan"}}, {"name": "15bb3dc206bcacac424137e8420d3c2d", "type": "electric_bike", "lat": 38.84608466666667, "is_reserved": 0, "lon": -76.96891416666666, "fusion_lon": 0.0, "is_disabled": 0, "fusion_lat": 0.0, "bike_id": "15bb3dc206bcacac424137e8420d3c2d", "rental_uris": {"ios": "https://dc.lft.to/lastmile_qr_scan", "android": "https://dc.lft.to/lastmile_qr_scan"}}, {"name": "39f0f3dc50c4a9011ace5b8209563edb", "type": "electric_scooter", "lat": 38.91471883333333, "is_reserved": 0, "lon": -77.00838233333333, "fusion_lon": 0.0, "is_disabled": 0, "fusion_lat": 0.0, "bike_id": "39f0f3dc50c4a9011ace5b8209563edb", "rental_uris": {"ios": "https://dc.lft.to/lastmile_qr_scan", "android": "https://dc.lft.to/lastmile_qr_scan"}}, {"name": "67279e97f4deddc3e5ca51dc4a1de2ec", "type": "electric_scooter", "lat": 38.92333516666667, "is_reserved": 0, "lon": -77.04021983333334, "fusion_lon": 0.0, "is_disabled": 0, "fusion_lat": 0.0, "bike_id": "67279e97f4deddc3e5ca51dc4a1de2ec", "rental_uris": {"ios": "https://dc.lft.to/lastmile_qr_scan", "android": "https://dc.lft.to/lastmile_qr_scan"}}, {"name": "6c72e93b8231dd980452a1f85335965a", "type": "electric_bike", "lat": 38.952947, "is_reserved": 0, "lon": -76.97810233333334, "fusion_lon": 0.0, "is_disabled": 0, "fusion_lat": 0.0, "bike_id": "6c72e93b8231dd980452a1f85335965a", "rental_uris": {"ios": "https://dc.lft.to/lastmile_qr_scan", "android": "https://dc.lft.to/lastmile_qr_scan"}}, {"name": "ccc53c034f2207c50088f512de65e269", "type": "electric_scooter", "lat": 38.911228666666666, "is_reserved": 0, "lon": -77.037355, "fusion_lon": 0.0, "is_disabled": 0, "fusion_lat": 0.0, "bike_id": "ccc53c034f2207c50088f512de65e269", "rental_uris": {"ios": "https://dc.lft.to/lastmile_qr_scan", "android": "https://dc.lft.to/lastmile_qr_scan"}}, {"name": "c4211a9a12ac6f3b69c62aaef6a81058", "type": "electric_bike", "lat": 38.92213133333333, "is_reserved": 0, "lon": -76.98833116666667, "fusion_lon": 0.0, "is_disabled": 0, "fusion_lat": 0.0, "bike_id": "c4211a9a12ac6f3b69c62aaef6a81058", "rental_uris": {"ios": "https://dc.lft.to/lastmile_qr_scan", "android": "https://dc.lft.to/lastmile_qr_scan"}}, {"name": "1b66cdd2cb963d86d44f88a7746a2f9d", "type": "electric_bike", "lat": 38.969134833333335, "is_reserved": 0, "lon": -76.95659333333333, "fusion_lon": 0.0, "is_disabled": 0, "fusion_lat": 0.0, "bike_id": "1b66cdd2cb963d86d44f88a7746a2f9d", "rental_uris": {"ios": "https://dc.lft.to/lastmile_qr_scan", "android": "https://dc.lft.to/lastmile_qr_scan"}}, {"name": "45e43bf38567c5375cba8abac9552a12", "type": "electric_bike", "lat": 38.99234883333333, "is_reserved": 0, "lon": -76.87827866666666, "fusion_lon": 0.0, "is_disabled": 0, "fusion_lat": 0.0, "bike_id": "45e43bf38567c5375cba8abac9552a12", "rental_uris": {"ios": "https://dc.lft.to/lastmile_qr_scan", "android": "https://dc.lft.to/lastmile_qr_scan"}}, {"name": "f6324b08566ef77722a9e82674d9156d", "type": "electric_scooter", "lat": 38.842955833333335, "is_reserved": 0, "lon": -76.999529, "fusion_lon": 0.0, "is_disabled": 0, "fusion_lat": 0.0, "bike_id": "f6324b08566ef77722a9e82674d9156d", "rental_uris": {"ios": "https://dc.lft.to/lastmile_qr_scan", "android": "https://dc.lft.to/lastmile_qr_scan"}}, {"name": "a8ee6940517f4944af304a71e3339fe9", "type": "electric_scooter", "lat": 38.90046366666667, "is_reserved": 0, "lon": -77.02623916666667, "fusion_lon": 0.0, "is_disabled": 0, "fusion_lat": 0.0, "bike_id": "a8ee6940517f4944af304a71e3339fe9", "rental_uris": {"ios": "https://dc.lft.to/lastmile_qr_scan", "android": "https://dc.lft.to/lastmile_qr_scan"}}, {"name": "c2b659570821027e6299eb8b466fcd04", "type": "electric_scooter", "lat": 38.9012915, "is_reserved": 0, "lon": -77.012003, "fusion_lon": 0.0, "is_disabled": 0, "fusion_lat": 0.0, "bike_id": "c2b659570821027e6299eb8b466fcd04", "rental_uris": {"ios": "https://dc.lft.to/lastmile_qr_scan", "android": "https://dc.lft.to/lastmile_qr_scan"}}, {"name": "45cd2cc39b8b478e9953729d42988a90", "type": "electric_scooter", "lat": 38.90277566666666, "is_reserved": 0, "lon": -77.06110383333333, "fusion_lon": 0.0, "is_disabled": 0, "fusion_lat": 0.0, "bike_id": "45cd2cc39b8b478e9953729d42988a90", "rental_uris": {"ios": "https://dc.lft.to/lastmile_qr_scan", "android": "https://dc.lft.to/lastmile_qr_scan"}}, {"name": "331bc5c69e93468245a51af03ede0426", "type": "electric_scooter", "lat": 38.865697833333336, "is_reserved": 0, "lon": -76.98551083333334, "fusion_lon": 0.0, "is_disabled": 0, "fusion_lat": 0.0, "bike_id": "331bc5c69e93468245a51af03ede0426", "rental_uris": {"ios": "https://dc.lft.to/lastmile_qr_scan", "android": "https://dc.lft.to/lastmile_qr_scan"}}, {"name": "a26f9d021fc76579d33ae5ee64092cec", "type": "electric_scooter", "lat": 38.93077916666667, "is_reserved": 0, "lon": -77.03401416666667, "fusion_lon": 0.0, "is_disabled": 0, "fusion_lat": 0.0, "bike_id": "a26f9d021fc76579d33ae5ee64092cec", "rental_uris": {"ios": "https://dc.lft.to/lastmile_qr_scan", "android": "https://dc.lft.to/lastmile_qr_scan"}}, {"name": "ffa5a0f131827ff6e2438bdcddbd49df", "type": "electric_scooter", "lat": 38.944410833333336, "is_reserved": 0, "lon": -77.06353333333334, "fusion_lon": 0.0, "is_disabled": 0, "fusion_lat": 0.0, "bike_id": "ffa5a0f131827ff6e2438bdcddbd49df", "rental_uris": {"ios": "https://dc.lft.to/lastmile_qr_scan", "android": "https://dc.lft.to/lastmile_qr_scan"}}, {"name": "887b814e1e6f0e3b0af994b00d0ffc86", "type": "electric_scooter", "lat": 38.90070566666667, "is_reserved": 0, "lon": -76.9870875, "fusion_lon": 0.0, "is_disabled": 0, "fusion_lat": 0.0, "bike_id": "887b814e1e6f0e3b0af994b00d0ffc86", "rental_uris": {"ios": "https://dc.lft.to/lastmile_qr_scan", "android": "https://dc.lft.to/lastmile_qr_scan"}}, {"name": "2bd32b2c6f659ec8c725b84f765aa1f9", "type": "electric_scooter", "lat": 38.94462983333333, "is_reserved": 0, "lon": -77.00658216666666, "fusion_lon": 0.0, "is_disabled": 0, "fusion_lat": 0.0, "bike_id": "2bd32b2c6f659ec8c725b84f765aa1f9", "rental_uris": {"ios": "https://dc.lft.to/lastmile_qr_scan", "android": "https://dc.lft.to/lastmile_qr_scan"}}, {"name": "24d22c98ee6b4a290f3151e2cf7794a9", "type": "electric_scooter", "lat": 38.873426, "is_reserved": 0, "lon": -77.0186325, "fusion_lon": 0.0, "is_disabled": 0, "fusion_lat": 0.0, "bike_id": "24d22c98ee6b4a290f3151e2cf7794a9", "rental_uris": {"ios": "https://dc.lft.to/lastmile_qr_scan", "android": "https://dc.lft.to/lastmile_qr_scan"}}, {"name": "aaf07ef0c49bd47b2d188735143572cb", "type": "electric_scooter", "lat": 38.8843545, "is_reserved": 0, "lon": -77.02958066666666, "fusion_lon": 0.0, "is_disabled": 0, "fusion_lat": 0.0, "bike_id": "aaf07ef0c49bd47b2d188735143572cb", "rental_uris": {"ios": "https://dc.lft.to/lastmile_qr_scan", "android": "https://dc.lft.to/lastmile_qr_scan"}}, {"name": "c1d5a3e3ea83b4216b104866071ea70a", "type": "electric_scooter", "lat": 38.8624375, "is_reserved": 0, "lon": -76.9949555, "fusion_lon": 0.0, "is_disabled": 0, "fusion_lat": 0.0, "bike_id": "c1d5a3e3ea83b4216b104866071ea70a", "rental_uris": {"ios": "https://dc.lft.to/lastmile_qr_scan", "android": "https://dc.lft.to/lastmile_qr_scan"}}, {"name": "b09cc38b35a9d940595e978eece634ad", "type": "electric_scooter", "lat": 38.93235516666667, "is_reserved": 0, "lon": -77.03836466666667, "fusion_lon": 0.0, "is_disabled": 0, "fusion_lat": 0.0, "bike_id": "b09cc38b35a9d940595e978eece634ad", "rental_uris": {"ios": "https://dc.lft.to/lastmile_qr_scan", "android": "https://dc.lft.to/lastmile_qr_scan"}}, {"name": "b9c7e7b5a3f8ea1179b6797f5e88b674", "type": "electric_scooter", "lat": 38.870098, "is_reserved": 0, "lon": -77.012226, "fusion_lon": 0.0, "is_disabled": 0, "fusion_lat": 0.0, "bike_id": "b9c7e7b5a3f8ea1179b6797f5e88b674", "rental_uris": {"ios": "https://dc.lft.to/lastmile_qr_scan", "android": "https://dc.lft.to/lastmile_qr_scan"}}, {"name": "536fd8e09af4febe61503c157d4fb22b", "type": "electric_scooter", "lat": 38.9093085, "is_reserved": 0, "lon": -76.99967633333333, "fusion_lon": 0.0, "is_disabled": 0, "fusion_lat": 0.0, "bike_id": "536fd8e09af4febe61503c157d4fb22b", "rental_uris": {"ios": "https://dc.lft.to/lastmile_qr_scan", "android": "https://dc.lft.to/lastmile_qr_scan"}}, {"name": "e3daa4e49b56af44a71d95307f2c1019", "type": "electric_bike", "lat": 38.81337766666667, "is_reserved": 0, "lon": -77.05111133333334, "fusion_lon": 0.0, "is_disabled": 0, "fusion_lat": 0.0, "bike_id": "e3daa4e49b56af44a71d95307f2c1019", "rental_uris": {"ios": "https://dc.lft.to/lastmile_qr_scan", "android": "https://dc.lft.to/lastmile_qr_scan"}}, {"name": "45c51129c152eb646211fb22c426364d", "type": "electric_bike", "lat": 38.8699185, "is_reserved": 0, "lon": -76.95987466666666, "fusion_lon": 0.0, "is_disabled": 0, "fusion_lat": 0.0, "bike_id": "45c51129c152eb646211fb22c426364d", "rental_uris": {"ios": "https://dc.lft.to/lastmile_qr_scan", "android": "https://dc.lft.to/lastmile_qr_scan"}}, {"name": "98737b3829c3c06498e6390e758cd852", "type": "electric_scooter", "lat": 38.936193833333334, "is_reserved": 0, "lon": -77.02245516666666, "fusion_lon": 0.0, "is_disabled": 0, "fusion_lat": 0.0, "bike_id": "98737b3829c3c06498e6390e758cd852", "rental_uris": {"ios": "https://dc.lft.to/lastmile_qr_scan", "android": "https://dc.lft.to/lastmile_qr_scan"}}, {"name": "59b5c7c091631beae50d85054250bb42", "type": "electric_bike", "lat": 38.98504233333333, "is_reserved": 0, "lon": -76.982061, "fusion_lon": 0.0, "is_disabled": 0, "fusion_lat": 0.0, "bike_id": "59b5c7c091631beae50d85054250bb42", "rental_uris": {"ios": "https://dc.lft.to/lastmile_qr_scan", "android": "https://dc.lft.to/lastmile_qr_scan"}}, {"name": "570967e533b2f448796f5c49a7abe56b", "type": "electric_scooter", "lat": 38.903158, "is_reserved": 0, "lon": -77.031981, "fusion_lon": 0.0, "is_disabled": 0, "fusion_lat": 0.0, "bike_id": "570967e533b2f448796f5c49a7abe56b", "rental_uris": {"ios": "https://dc.lft.to/lastmile_qr_scan", "android": "https://dc.lft.to/lastmile_qr_scan"}}, {"name": "1b9609bd16f41367b9baa49266e7a073", "type": "electric_scooter", "lat": 38.93266783333333, "is_reserved": 0, "lon": -77.03495783333334, "fusion_lon": 0.0, "is_disabled": 0, "fusion_lat": 0.0, "bike_id": "1b9609bd16f41367b9baa49266e7a073", "rental_uris": {"ios": "https://dc.lft.to/lastmile_qr_scan", "android": "https://dc.lft.to/lastmile_qr_scan"}}, {"name": "c9e320544477dee2747e051573e71634", "type": "electric_scooter", "lat": 38.901974333333335, "is_reserved": 0, "lon": -76.98210116666667, "fusion_lon": 0.0, "is_disabled": 0, "fusion_lat": 0.0, "bike_id": "c9e320544477dee2747e051573e71634", "rental_uris": {"ios": "https://dc.lft.to/lastmile_qr_scan", "android": "https://dc.lft.to/lastmile_qr_scan"}}, {"name": "5a7b4a188e2aff61dc60ec18a76e5f6c", "type": "electric_scooter", "lat": 38.921024, "is_reserved": 0, "lon": -77.01376816666667, "fusion_lon": 0.0, "is_disabled": 0, "fusion_lat": 0.0, "bike_id": "5a7b4a188e2aff61dc60ec18a76e5f6c", "rental_uris": {"ios": "https://dc.lft.to/lastmile_qr_scan", "android": "https://dc.lft.to/lastmile_qr_scan"}}, {"name": "050bc7382dfcdb41be6330553dd14663", "type": "electric_scooter", "lat": 38.927144, "is_reserved": 0, "lon": -77.020942, "fusion_lon": 0.0, "is_disabled": 0, "fusion_lat": 0.0, "bike_id": "050bc7382dfcdb41be6330553dd14663", "rental_uris": {"ios": "https://dc.lft.to/lastmile_qr_scan", "android": "https://dc.lft.to/lastmile_qr_scan"}}, {"name": "6fbd6826258090c67d1c1485a0556183", "type": "electric_scooter", "lat": 38.92877266666667, "is_reserved": 0, "lon": -77.01401366666667, "fusion_lon": 0.0, "is_disabled": 0, "fusion_lat": 0.0, "bike_id": "6fbd6826258090c67d1c1485a0556183", "rental_uris": {"ios": "https://dc.lft.to/lastmile_qr_scan", "android": "https://dc.lft.to/lastmile_qr_scan"}}, {"name": "14ff4e9c2ebacb700b2a1e0b4fd3bc54", "type": "electric_scooter", "lat": 38.932863166666664, "is_reserved": 0, "lon": -77.029771, "fusion_lon": 0.0, "is_disabled": 0, "fusion_lat": 0.0, "bike_id": "14ff4e9c2ebacb700b2a1e0b4fd3bc54", "rental_uris": {"ios": "https://dc.lft.to/lastmile_qr_scan", "android": "https://dc.lft.to/lastmile_qr_scan"}}, {"name": "6375c51cd5c8fd4f7054d7380f4c590d", "type": "electric_scooter", "lat": 38.88295333333333, "is_reserved": 0, "lon": -76.98618116666667, "fusion_lon": 0.0, "is_disabled": 0, "fusion_lat": 0.0, "bike_id": "6375c51cd5c8fd4f7054d7380f4c590d", "rental_uris": {"ios": "https://dc.lft.to/lastmile_qr_scan", "android": "https://dc.lft.to/lastmile_qr_scan"}}, {"name": "7654ea048e256e7140d34d5ba06a58e8", "type": "electric_scooter", "lat": 38.86834233333333, "is_reserved": 0, "lon": -76.986115, "fusion_lon": 0.0, "is_disabled": 0, "fusion_lat": 0.0, "bike_id": "7654ea048e256e7140d34d5ba06a58e8", "rental_uris": {"ios": "https://dc.lft.to/lastmile_qr_scan", "android": "https://dc.lft.to/lastmile_qr_scan"}}, {"name": "98c13d6b1ee8b3e25b0a47591d9f8902", "type": "electric_scooter", "lat": 38.905866333333336, "is_reserved": 0, "lon": -77.0487495, "fusion_lon": 0.0, "is_disabled": 0, "fusion_lat": 0.0, "bike_id": "98c13d6b1ee8b3e25b0a47591d9f8902", "rental_uris": {"ios": "https://dc.lft.to/lastmile_qr_scan", "android": "https://dc.lft.to/lastmile_qr_scan"}}, {"name": "80702bfdac49bba0269a64f18dd66ac6", "type": "electric_scooter", "lat": 38.9317635, "is_reserved": 0, "lon": -77.02853133333333, "fusion_lon": 0.0, "is_disabled": 0, "fusion_lat": 0.0, "bike_id": "80702bfdac49bba0269a64f18dd66ac6", "rental_uris": {"ios": "https://dc.lft.to/lastmile_qr_scan", "android": "https://dc.lft.to/lastmile_qr_scan"}}, {"name": "dc99e0fb05a136fb63b9c0c332227f6d", "type": "electric_scooter", "lat": 38.91807983333333, "is_reserved": 0, "lon": -77.0278925, "fusion_lon": 0.0, "is_disabled": 0, "fusion_lat": 0.0, "bike_id": "dc99e0fb05a136fb63b9c0c332227f6d", "rental_uris": {"ios": "https://dc.lft.to/lastmile_qr_scan", "android": "https://dc.lft.to/lastmile_qr_scan"}}, {"name": "31d924812a50e3e61160cd9b28f740f9", "type": "electric_scooter", "lat": 38.94014266666667, "is_reserved": 0, "lon": -77.07176383333334, "fusion_lon": 0.0, "is_disabled": 0, "fusion_lat": 0.0, "bike_id": "31d924812a50e3e61160cd9b28f740f9", "rental_uris": {"ios": "https://dc.lft.to/lastmile_qr_scan", "android": "https://dc.lft.to/lastmile_qr_scan"}}, {"name": "831ee59e9ef3c8580470a1d727503d1e", "type": "electric_scooter", "lat": 38.916948833333336, "is_reserved": 0, "lon": -77.01231816666666, "fusion_lon": 0.0, "is_disabled": 0, "fusion_lat": 0.0, "bike_id": "831ee59e9ef3c8580470a1d727503d1e", "rental_uris": {"ios": "https://dc.lft.to/lastmile_qr_scan", "android": "https://dc.lft.to/lastmile_qr_scan"}}, {"name": "80c0703e303518c959bbbd0c6cdb86b2", "type": "electric_scooter", "lat": 38.9201905, "is_reserved": 0, "lon": -77.03868366666667, "fusion_lon": 0.0, "is_disabled": 0, "fusion_lat": 0.0, "bike_id": "80c0703e303518c959bbbd0c6cdb86b2", "rental_uris": {"ios": "https://dc.lft.to/lastmile_qr_scan", "android": "https://dc.lft.to/lastmile_qr_scan"}}, {"name": "c3fa814134053033dd6c6523529f42d1", "type": "electric_scooter", "lat": 38.91916666666667, "is_reserved": 0, "lon": -77.034213, "fusion_lon": 0.0, "is_disabled": 0, "fusion_lat": 0.0, "bike_id": "c3fa814134053033dd6c6523529f42d1", "rental_uris": {"ios": "https://dc.lft.to/lastmile_qr_scan", "android": "https://dc.lft.to/lastmile_qr_scan"}}, {"name": "3e40c28330460d4d1961bc67b17a7164", "type": "electric_scooter", "lat": 38.90896433333333, "is_reserved": 0, "lon": -77.031525, "fusion_lon": 0.0, "is_disabled": 0, "fusion_lat": 0.0, "bike_id": "3e40c28330460d4d1961bc67b17a7164", "rental_uris": {"ios": "https://dc.lft.to/lastmile_qr_scan", "android": "https://dc.lft.to/lastmile_qr_scan"}}, {"name": "c95f2db4a61158e1118ea9406f90c492", "type": "electric_bike", "lat": 38.882766333333336, "is_reserved": 0, "lon": -76.9994425, "fusion_lon": 0.0, "is_disabled": 0, "fusion_lat": 0.0, "bike_id": "c95f2db4a61158e1118ea9406f90c492", "rental_uris": {"ios": "https://dc.lft.to/lastmile_qr_scan", "android": "https://dc.lft.to/lastmile_qr_scan"}}, {"name": "783e4ae7237cc731a2918491abdd48b7", "type": "electric_scooter", "lat": 38.90413433333333, "is_reserved": 0, "lon": -76.97332383333334, "fusion_lon": 0.0, "is_disabled": 0, "fusion_lat": 0.0, "bike_id": "783e4ae7237cc731a2918491abdd48b7", "rental_uris": {"ios": "https://dc.lft.to/lastmile_qr_scan", "android": "https://dc.lft.to/lastmile_qr_scan"}}, {"name": "55d7cb1a3428dec45ee470e1929b9c20", "type": "electric_scooter", "lat": 38.90442066666667, "is_reserved": 0, "lon": -76.9849695, "fusion_lon": 0.0, "is_disabled": 0, "fusion_lat": 0.0, "bike_id": "55d7cb1a3428dec45ee470e1929b9c20", "rental_uris": {"ios": "https://dc.lft.to/lastmile_qr_scan", "android": "https://dc.lft.to/lastmile_qr_scan"}}, {"name": "134cf462fca57d506a3dd9ca1ca2cba6", "type": "electric_scooter", "lat": 38.885257, "is_reserved": 0, "lon": -77.03357266666667, "fusion_lon": 0.0, "is_disabled": 0, "fusion_lat": 0.0, "bike_id": "134cf462fca57d506a3dd9ca1ca2cba6", "rental_uris": {"ios": "https://dc.lft.to/lastmile_qr_scan", "android": "https://dc.lft.to/lastmile_qr_scan"}}, {"name": "be8845ae159f464ded45e3acaea42a78", "type": "electric_scooter", "lat": 38.91010466666667, "is_reserved": 0, "lon": -77.021869, "fusion_lon": 0.0, "is_disabled": 0, "fusion_lat": 0.0, "bike_id": "be8845ae159f464ded45e3acaea42a78", "rental_uris": {"ios": "https://dc.lft.to/lastmile_qr_scan", "android": "https://dc.lft.to/lastmile_qr_scan"}}, {"name": "40dfb435cac361487ca8a64aba792fd3", "type": "electric_scooter", "lat": 38.92250333333333, "is_reserved": 0, "lon": -77.030864, "fusion_lon": 0.0, "is_disabled": 0, "fusion_lat": 0.0, "bike_id": "40dfb435cac361487ca8a64aba792fd3", "rental_uris": {"ios": "https://dc.lft.to/lastmile_qr_scan", "android": "https://dc.lft.to/lastmile_qr_scan"}}, {"name": "c4051be87e808d12221d9b9dd87d51b3", "type": "electric_scooter", "lat": 38.8800125, "is_reserved": 0, "lon": -76.98546766666666, "fusion_lon": 0.0, "is_disabled": 0, "fusion_lat": 0.0, "bike_id": "c4051be87e808d12221d9b9dd87d51b3", "rental_uris": {"ios": "https://dc.lft.to/lastmile_qr_scan", "android": "https://dc.lft.to/lastmile_qr_scan"}}, {"name": "5fb98899eb3ff17947e4e766c8a5ed39", "type": "electric_scooter", "lat": 38.9182335, "is_reserved": 0, "lon": -77.034447, "fusion_lon": 0.0, "is_disabled": 0, "fusion_lat": 0.0, "bike_id": "5fb98899eb3ff17947e4e766c8a5ed39", "rental_uris": {"ios": "https://dc.lft.to/lastmile_qr_scan", "android": "https://dc.lft.to/lastmile_qr_scan"}}, {"name": "12d8fb7618e3b6b21ed2c37ef6720d8d", "type": "electric_scooter", "lat": 38.9430625, "is_reserved": 0, "lon": -77.05928083333333, "fusion_lon": 0.0, "is_disabled": 0, "fusion_lat": 0.0, "bike_id": "12d8fb7618e3b6b21ed2c37ef6720d8d", "rental_uris": {"ios": "https://dc.lft.to/lastmile_qr_scan", "android": "https://dc.lft.to/lastmile_qr_scan"}}, {"name": "7a164e4d88d1c00c066916193baa8f57", "type": "electric_scooter", "lat": 38.90116483333333, "is_reserved": 0, "lon": -77.041463, "fusion_lon": 0.0, "is_disabled": 0, "fusion_lat": 0.0, "bike_id": "7a164e4d88d1c00c066916193baa8f57", "rental_uris": {"ios": "https://dc.lft.to/lastmile_qr_scan", "android": "https://dc.lft.to/lastmile_qr_scan"}}, {"name": "b30df0b240b85d31b834b1721c4df276", "type": "electric_scooter", "lat": 38.909211666666664, "is_reserved": 0, "lon": -77.032157, "fusion_lon": 0.0, "is_disabled": 0, "fusion_lat": 0.0, "bike_id": "b30df0b240b85d31b834b1721c4df276", "rental_uris": {"ios": "https://dc.lft.to/lastmile_qr_scan", "android": "https://dc.lft.to/lastmile_qr_scan"}}, {"name": "0548ebd84150115af22c75ded1e6a207", "type": "electric_scooter", "lat": 38.91634633333334, "is_reserved": 0, "lon": -77.01336033333334, "fusion_lon": 0.0, "is_disabled": 0, "fusion_lat": 0.0, "bike_id": "0548ebd84150115af22c75ded1e6a207", "rental_uris": {"ios": "https://dc.lft.to/lastmile_qr_scan", "android": "https://dc.lft.to/lastmile_qr_scan"}}, {"name": "442ed3842cb7639752e9335164ddc0c8", "type": "electric_scooter", "lat": 38.906136333333336, "is_reserved": 0, "lon": -77.0748955, "fusion_lon": 0.0, "is_disabled": 0, "fusion_lat": 0.0, "bike_id": "442ed3842cb7639752e9335164ddc0c8", "rental_uris": {"ios": "https://dc.lft.to/lastmile_qr_scan", "android": "https://dc.lft.to/lastmile_qr_scan"}}, {"name": "c12298f2e3347b303d4bf8e6a514c758", "type": "electric_scooter", "lat": 38.9158485, "is_reserved": 0, "lon": -77.0450945, "fusion_lon": 0.0, "is_disabled": 0, "fusion_lat": 0.0, "bike_id": "c12298f2e3347b303d4bf8e6a514c758", "rental_uris": {"ios": "https://dc.lft.to/lastmile_qr_scan", "android": "https://dc.lft.to/lastmile_qr_scan"}}, {"name": "f2eafdb964cd9123d0ed36983dabe383", "type": "electric_scooter", "lat": 38.90016266666667, "is_reserved": 0, "lon": -76.991197, "fusion_lon": 0.0, "is_disabled": 0, "fusion_lat": 0.0, "bike_id": "f2eafdb964cd9123d0ed36983dabe383", "rental_uris": {"ios": "https://dc.lft.to/lastmile_qr_scan", "android": "https://dc.lft.to/lastmile_qr_scan"}}, {"name": "d188244ea01832146f03cdc279c90764", "type": "electric_scooter", "lat": 38.8833125, "is_reserved": 0, "lon": -77.01763983333333, "fusion_lon": 0.0, "is_disabled": 0, "fusion_lat": 0.0, "bike_id": "d188244ea01832146f03cdc279c90764", "rental_uris": {"ios": "https://dc.lft.to/lastmile_qr_scan", "android": "https://dc.lft.to/lastmile_qr_scan"}}, {"name": "5d391abcbfb7527da230396736c948c9", "type": "electric_bike", "lat": 39.03882016666667, "is_reserved": 0, "lon": -76.99043683333333, "fusion_lon": 0.0, "is_disabled": 0, "fusion_lat": 0.0, "bike_id": "5d391abcbfb7527da230396736c948c9", "rental_uris": {"ios": "https://dc.lft.to/lastmile_qr_scan", "android": "https://dc.lft.to/lastmile_qr_scan"}}, {"name": "041dbabbb695c501ea5da115e6ad7433", "type": "electric_scooter", "lat": 38.900823, "is_reserved": 0, "lon": -77.05013266666667, "fusion_lon": 0.0, "is_disabled": 0, "fusion_lat": 0.0, "bike_id": "041dbabbb695c501ea5da115e6ad7433", "rental_uris": {"ios": "https://dc.lft.to/lastmile_qr_scan", "android": "https://dc.lft.to/lastmile_qr_scan"}}, {"name": "796b765af37f92c32cfc876c5702bb1b", "type": "electric_scooter", "lat": 38.905246166666664, "is_reserved": 0, "lon": -77.04352316666666, "fusion_lon": 0.0, "is_disabled": 0, "fusion_lat": 0.0, "bike_id": "796b765af37f92c32cfc876c5702bb1b", "rental_uris": {"ios": "https://dc.lft.to/lastmile_qr_scan", "android": "https://dc.lft.to/lastmile_qr_scan"}}, {"name": "966b1b996eba9e7cf9188565593434e5", "type": "electric_scooter", "lat": 38.899794666666665, "is_reserved": 0, "lon": -76.991469, "fusion_lon": 0.0, "is_disabled": 0, "fusion_lat": 0.0, "bike_id": "966b1b996eba9e7cf9188565593434e5", "rental_uris": {"ios": "https://dc.lft.to/lastmile_qr_scan", "android": "https://dc.lft.to/lastmile_qr_scan"}}, {"name": "254aed5dc14c57c6a5e321ebd5729a65", "type": "electric_scooter", "lat": 38.90495033333333, "is_reserved": 0, "lon": -77.027257, "fusion_lon": 0.0, "is_disabled": 0, "fusion_lat": 0.0, "bike_id": "254aed5dc14c57c6a5e321ebd5729a65", "rental_uris": {"ios": "https://dc.lft.to/lastmile_qr_scan", "android": "https://dc.lft.to/lastmile_qr_scan"}}, {"name": "c004cf6d698dcc5aa79ec2565873663e", "type": "electric_bike", "lat": 38.94162133333333, "is_reserved": 0, "lon": -77.00202333333333, "fusion_lon": 0.0, "is_disabled": 0, "fusion_lat": 0.0, "bike_id": "c004cf6d698dcc5aa79ec2565873663e", "rental_uris": {"ios": "https://dc.lft.to/lastmile_qr_scan", "android": "https://dc.lft.to/lastmile_qr_scan"}}, {"name": "8187d4b5bf75246dc3aeaba45c1c1d6d", "type": "electric_scooter", "lat": 38.92289483333333, "is_reserved": 0, "lon": -77.036584, "fusion_lon": 0.0, "is_disabled": 0, "fusion_lat": 0.0, "bike_id": "8187d4b5bf75246dc3aeaba45c1c1d6d", "rental_uris": {"ios": "https://dc.lft.to/lastmile_qr_scan", "android": "https://dc.lft.to/lastmile_qr_scan"}}, {"name": "9400df983ad794b817a3a32eb6f76e92", "type": "electric_scooter", "lat": 38.8933565, "is_reserved": 0, "lon": -76.929935, "fusion_lon": 0.0, "is_disabled": 0, "fusion_lat": 0.0, "bike_id": "9400df983ad794b817a3a32eb6f76e92", "rental_uris": {"ios": "https://dc.lft.to/lastmile_qr_scan", "android": "https://dc.lft.to/lastmile_qr_scan"}}, {"name": "827fcdfba434e6a3bbf4480501346808", "type": "electric_scooter", "lat": 38.886075, "is_reserved": 0, "lon": -76.99518333333333, "fusion_lon": 0.0, "is_disabled": 0, "fusion_lat": 0.0, "bike_id": "827fcdfba434e6a3bbf4480501346808", "rental_uris": {"ios": "https://dc.lft.to/lastmile_qr_scan", "android": "https://dc.lft.to/lastmile_qr_scan"}}, {"name": "9f451cc40d34e0ecd84d9f337dcac58d", "type": "electric_scooter", "lat": 38.907575, "is_reserved": 0, "lon": -77.03075316666667, "fusion_lon": 0.0, "is_disabled": 0, "fusion_lat": 0.0, "bike_id": "9f451cc40d34e0ecd84d9f337dcac58d", "rental_uris": {"ios": "https://dc.lft.to/lastmile_qr_scan", "android": "https://dc.lft.to/lastmile_qr_scan"}}, {"name": "91e83e93c6ec72557b458047171e40d8", "type": "electric_scooter", "lat": 38.921572166666664, "is_reserved": 0, "lon": -77.03855933333334, "fusion_lon": 0.0, "is_disabled": 0, "fusion_lat": 0.0, "bike_id": "91e83e93c6ec72557b458047171e40d8", "rental_uris": {"ios": "https://dc.lft.to/lastmile_qr_scan", "android": "https://dc.lft.to/lastmile_qr_scan"}}, {"name": "ac5908142ce7f5fb10c41eac91d6e6a1", "type": "electric_scooter", "lat": 38.936642666666664, "is_reserved": 0, "lon": -77.03689366666667, "fusion_lon": 0.0, "is_disabled": 0, "fusion_lat": 0.0, "bike_id": "ac5908142ce7f5fb10c41eac91d6e6a1", "rental_uris": {"ios": "https://dc.lft.to/lastmile_qr_scan", "android": "https://dc.lft.to/lastmile_qr_scan"}}, {"name": "24a6a8d4687a67770e3dc1d8c2ad65a4", "type": "electric_scooter", "lat": 38.92087433333333, "is_reserved": 0, "lon": -77.0248465, "fusion_lon": 0.0, "is_disabled": 0, "fusion_lat": 0.0, "bike_id": "24a6a8d4687a67770e3dc1d8c2ad65a4", "rental_uris": {"ios": "https://dc.lft.to/lastmile_qr_scan", "android": "https://dc.lft.to/lastmile_qr_scan"}}, {"name": "edaaeb0685eb4e4c8531f3b67a2eafda", "type": "electric_scooter", "lat": 38.89044666666667, "is_reserved": 0, "lon": -77.02975366666666, "fusion_lon": 0.0, "is_disabled": 0, "fusion_lat": 0.0, "bike_id": "edaaeb0685eb4e4c8531f3b67a2eafda", "rental_uris": {"ios": "https://dc.lft.to/lastmile_qr_scan", "android": "https://dc.lft.to/lastmile_qr_scan"}}, {"name": "6e9bbd02d3b0d5aa54b7386faa3eec70", "type": "electric_scooter", "lat": 38.914993, "is_reserved": 0, "lon": -77.0122115, "fusion_lon": 0.0, "is_disabled": 0, "fusion_lat": 0.0, "bike_id": "6e9bbd02d3b0d5aa54b7386faa3eec70", "rental_uris": {"ios": "https://dc.lft.to/lastmile_qr_scan", "android": "https://dc.lft.to/lastmile_qr_scan"}}, {"name": "b6cd9f25c283dcfb06644977446c966a", "type": "electric_scooter", "lat": 38.89538733333333, "is_reserved": 0, "lon": -77.033546, "fusion_lon": 0.0, "is_disabled": 0, "fusion_lat": 0.0, "bike_id": "b6cd9f25c283dcfb06644977446c966a", "rental_uris": {"ios": "https://dc.lft.to/lastmile_qr_scan", "android": "https://dc.lft.to/lastmile_qr_scan"}}, {"name": "80738fd98a7fa92085ad2d2d78f777dc", "type": "electric_scooter", "lat": 38.9168095, "is_reserved": 0, "lon": -77.03187716666666, "fusion_lon": 0.0, "is_disabled": 0, "fusion_lat": 0.0, "bike_id": "80738fd98a7fa92085ad2d2d78f777dc", "rental_uris": {"ios": "https://dc.lft.to/lastmile_qr_scan", "android": "https://dc.lft.to/lastmile_qr_scan"}}, {"name": "56b6d1bf1879799a6fe26c0ffd9446c2", "type": "electric_scooter", "lat": 38.923542, "is_reserved": 0, "lon": -77.05068316666667, "fusion_lon": 0.0, "is_disabled": 0, "fusion_lat": 0.0, "bike_id": "56b6d1bf1879799a6fe26c0ffd9446c2", "rental_uris": {"ios": "https://dc.lft.to/lastmile_qr_scan", "android": "https://dc.lft.to/lastmile_qr_scan"}}, {"name": "1b4cffbc8f07dd4399b1513662109453", "type": "electric_bike", "lat": 38.96502666666667, "is_reserved": 0, "lon": -77.064981, "fusion_lon": 0.0, "is_disabled": 0, "fusion_lat": 0.0, "bike_id": "1b4cffbc8f07dd4399b1513662109453", "rental_uris": {"ios": "https://dc.lft.to/lastmile_qr_scan", "android": "https://dc.lft.to/lastmile_qr_scan"}}, {"name": "a3fdb77fd8dfe38d721cf9e4f95f5448", "type": "electric_scooter", "lat": 38.89511433333333, "is_reserved": 0, "lon": -77.003383, "fusion_lon": 0.0, "is_disabled": 0, "fusion_lat": 0.0, "bike_id": "a3fdb77fd8dfe38d721cf9e4f95f5448", "rental_uris": {"ios": "https://dc.lft.to/lastmile_qr_scan", "android": "https://dc.lft.to/lastmile_qr_scan"}}, {"name": "f48f6bd2cda01ec01fd4ba48aae84ef0", "type": "electric_scooter", "lat": 38.92073633333333, "is_reserved": 0, "lon": -77.02214066666667, "fusion_lon": 0.0, "is_disabled": 0, "fusion_lat": 0.0, "bike_id": "f48f6bd2cda01ec01fd4ba48aae84ef0", "rental_uris": {"ios": "https://dc.lft.to/lastmile_qr_scan", "android": "https://dc.lft.to/lastmile_qr_scan"}}, {"name": "44d4f6d8734139c9b5e5893064bcc0a6", "type": "electric_scooter", "lat": 38.8947305, "is_reserved": 0, "lon": -77.00134433333334, "fusion_lon": 0.0, "is_disabled": 0, "fusion_lat": 0.0, "bike_id": "44d4f6d8734139c9b5e5893064bcc0a6", "rental_uris": {"ios": "https://dc.lft.to/lastmile_qr_scan", "android": "https://dc.lft.to/lastmile_qr_scan"}}, {"name": "a1ad48c227acc4f17da5af530122864a", "type": "electric_scooter", "lat": 38.9023875, "is_reserved": 0, "lon": -77.02197883333334, "fusion_lon": 0.0, "is_disabled": 0, "fusion_lat": 0.0, "bike_id": "a1ad48c227acc4f17da5af530122864a", "rental_uris": {"ios": "https://dc.lft.to/lastmile_qr_scan", "android": "https://dc.lft.to/lastmile_qr_scan"}}, {"name": "1ac64e4d8bbb713522bc9b9d089aee34", "type": "electric_scooter", "lat": 38.906393, "is_reserved": 0, "lon": -77.02968016666667, "fusion_lon": 0.0, "is_disabled": 0, "fusion_lat": 0.0, "bike_id": "1ac64e4d8bbb713522bc9b9d089aee34", "rental_uris": {"ios": "https://dc.lft.to/lastmile_qr_scan", "android": "https://dc.lft.to/lastmile_qr_scan"}}, {"name": "0b48551218fffd24c401e42f8e6f5c1f", "type": "electric_scooter", "lat": 38.9313155, "is_reserved": 0, "lon": -77.03607866666667, "fusion_lon": 0.0, "is_disabled": 0, "fusion_lat": 0.0, "bike_id": "0b48551218fffd24c401e42f8e6f5c1f", "rental_uris": {"ios": "https://dc.lft.to/lastmile_qr_scan", "android": "https://dc.lft.to/lastmile_qr_scan"}}, {"name": "d286604b55d46c6060f98c1785fbe85a", "type": "electric_scooter", "lat": 38.896813, "is_reserved": 0, "lon": -77.01166783333333, "fusion_lon": 0.0, "is_disabled": 0, "fusion_lat": 0.0, "bike_id": "d286604b55d46c6060f98c1785fbe85a", "rental_uris": {"ios": "https://dc.lft.to/lastmile_qr_scan", "android": "https://dc.lft.to/lastmile_qr_scan"}}, {"name": "4ac0fccbd67050457d2bb8f33dab28d4", "type": "electric_scooter", "lat": 38.89939966666667, "is_reserved": 0, "lon": -77.03173716666667, "fusion_lon": 0.0, "is_disabled": 0, "fusion_lat": 0.0, "bike_id": "4ac0fccbd67050457d2bb8f33dab28d4", "rental_uris": {"ios": "https://dc.lft.to/lastmile_qr_scan", "android": "https://dc.lft.to/lastmile_qr_scan"}}, {"name": "a5cc3fe5b0b9a6452dcf9e72738641b7", "type": "electric_scooter", "lat": 38.9227045, "is_reserved": 0, "lon": -77.03402966666667, "fusion_lon": 0.0, "is_disabled": 0, "fusion_lat": 0.0, "bike_id": "a5cc3fe5b0b9a6452dcf9e72738641b7", "rental_uris": {"ios": "https://dc.lft.to/lastmile_qr_scan", "android": "https://dc.lft.to/lastmile_qr_scan"}}, {"name": "8d13f377ac2433832a221427fffebcc9", "type": "electric_scooter", "lat": 38.904008, "is_reserved": 0, "lon": -76.98082533333333, "fusion_lon": 0.0, "is_disabled": 0, "fusion_lat": 0.0, "bike_id": "8d13f377ac2433832a221427fffebcc9", "rental_uris": {"ios": "https://dc.lft.to/lastmile_qr_scan", "android": "https://dc.lft.to/lastmile_qr_scan"}}, {"name": "5c88c70d513cb9fde5bd937bac4b594a", "type": "electric_scooter", "lat": 38.870839833333335, "is_reserved": 0, "lon": -77.01207016666666, "fusion_lon": 0.0, "is_disabled": 0, "fusion_lat": 0.0, "bike_id": "5c88c70d513cb9fde5bd937bac4b594a", "rental_uris": {"ios": "https://dc.lft.to/lastmile_qr_scan", "android": "https://dc.lft.to/lastmile_qr_scan"}}, {"name": "e6b3e7f214c3269e18fcfa1af9529b2c", "type": "electric_bike", "lat": 38.9462565, "is_reserved": 0, "lon": -76.946295, "fusion_lon": 0.0, "is_disabled": 0, "fusion_lat": 0.0, "bike_id": "e6b3e7f214c3269e18fcfa1af9529b2c", "rental_uris": {"ios": "https://dc.lft.to/lastmile_qr_scan", "android": "https://dc.lft.to/lastmile_qr_scan"}}, {"name": "34c762d0dad4c1768191a32ec6af884a", "type": "electric_scooter", "lat": 38.934510833333334, "is_reserved": 0, "lon": -77.02849683333334, "fusion_lon": 0.0, "is_disabled": 0, "fusion_lat": 0.0, "bike_id": "34c762d0dad4c1768191a32ec6af884a", "rental_uris": {"ios": "https://dc.lft.to/lastmile_qr_scan", "android": "https://dc.lft.to/lastmile_qr_scan"}}, {"name": "2ca7908c8c354922fbad3c8b7ac1e6da", "type": "electric_scooter", "lat": 38.924771166666666, "is_reserved": 0, "lon": -77.03773416666667, "fusion_lon": 0.0, "is_disabled": 0, "fusion_lat": 0.0, "bike_id": "2ca7908c8c354922fbad3c8b7ac1e6da", "rental_uris": {"ios": "https://dc.lft.to/lastmile_qr_scan", "android": "https://dc.lft.to/lastmile_qr_scan"}}, {"name": "8d9a417b8a3abe2f29299a2c0f5fd1ed", "type": "electric_scooter", "lat": 38.907954333333336, "is_reserved": 0, "lon": -77.00966816666667, "fusion_lon": 0.0, "is_disabled": 0, "fusion_lat": 0.0, "bike_id": "8d9a417b8a3abe2f29299a2c0f5fd1ed", "rental_uris": {"ios": "https://dc.lft.to/lastmile_qr_scan", "android": "https://dc.lft.to/lastmile_qr_scan"}}, {"name": "6f890779b13c4aaf47aa05fe571166ac", "type": "electric_scooter", "lat": 38.922371, "is_reserved": 0, "lon": -77.03898666666667, "fusion_lon": 0.0, "is_disabled": 0, "fusion_lat": 0.0, "bike_id": "6f890779b13c4aaf47aa05fe571166ac", "rental_uris": {"ios": "https://dc.lft.to/lastmile_qr_scan", "android": "https://dc.lft.to/lastmile_qr_scan"}}, {"name": "2a5830955b21f00c8afa858b187e7ae1", "type": "electric_scooter", "lat": 38.89765933333334, "is_reserved": 0, "lon": -77.02685866666667, "fusion_lon": 0.0, "is_disabled": 0, "fusion_lat": 0.0, "bike_id": "2a5830955b21f00c8afa858b187e7ae1", "rental_uris": {"ios": "https://dc.lft.to/lastmile_qr_scan", "android": "https://dc.lft.to/lastmile_qr_scan"}}, {"name": "43ad6df01ebd7f4cc9d960cbee43d162", "type": "electric_scooter", "lat": 38.86699316666667, "is_reserved": 0, "lon": -76.98714566666666, "fusion_lon": 0.0, "is_disabled": 0, "fusion_lat": 0.0, "bike_id": "43ad6df01ebd7f4cc9d960cbee43d162", "rental_uris": {"ios": "https://dc.lft.to/lastmile_qr_scan", "android": "https://dc.lft.to/lastmile_qr_scan"}}, {"name": "703c34583ae95581186b8b53585106bf", "type": "electric_bike", "lat": 38.89771016666667, "is_reserved": 0, "lon": -76.9044245, "fusion_lon": 0.0, "is_disabled": 0, "fusion_lat": 0.0, "bike_id": "703c34583ae95581186b8b53585106bf", "rental_uris": {"ios": "https://dc.lft.to/lastmile_qr_scan", "android": "https://dc.lft.to/lastmile_qr_scan"}}, {"name": "d410cfd623fa1e2885d1eca33aacf1e0", "type": "electric_scooter", "lat": 38.9324275, "is_reserved": 0, "lon": -77.02952266666667, "fusion_lon": 0.0, "is_disabled": 0, "fusion_lat": 0.0, "bike_id": "d410cfd623fa1e2885d1eca33aacf1e0", "rental_uris": {"ios": "https://dc.lft.to/lastmile_qr_scan", "android": "https://dc.lft.to/lastmile_qr_scan"}}, {"name": "dbfaa3c849a49595e6e2a23bc60cec47", "type": "electric_scooter", "lat": 38.90575, "is_reserved": 0, "lon": -77.0060605, "fusion_lon": 0.0, "is_disabled": 0, "fusion_lat": 0.0, "bike_id": "dbfaa3c849a49595e6e2a23bc60cec47", "rental_uris": {"ios": "https://dc.lft.to/lastmile_qr_scan", "android": "https://dc.lft.to/lastmile_qr_scan"}}, {"name": "f2106a3159583b51a22186bd416fe501", "type": "electric_bike", "lat": 38.871357333333336, "is_reserved": 0, "lon": -76.93728933333334, "fusion_lon": 0.0, "is_disabled": 0, "fusion_lat": 0.0, "bike_id": "f2106a3159583b51a22186bd416fe501", "rental_uris": {"ios": "https://dc.lft.to/lastmile_qr_scan", "android": "https://dc.lft.to/lastmile_qr_scan"}}, {"name": "dea81016b8e415aef85f932888fcf9a5", "type": "electric_scooter", "lat": 38.909582666666665, "is_reserved": 0, "lon": -77.0432565, "fusion_lon": 0.0, "is_disabled": 0, "fusion_lat": 0.0, "bike_id": "dea81016b8e415aef85f932888fcf9a5", "rental_uris": {"ios": "https://dc.lft.to/lastmile_qr_scan", "android": "https://dc.lft.to/lastmile_qr_scan"}}, {"name": "59a60f9c972bc61e3695f117bed499f0", "type": "electric_scooter", "lat": 38.909453666666664, "is_reserved": 0, "lon": -76.99892883333334, "fusion_lon": 0.0, "is_disabled": 0, "fusion_lat": 0.0, "bike_id": "59a60f9c972bc61e3695f117bed499f0", "rental_uris": {"ios": "https://dc.lft.to/lastmile_qr_scan", "android": "https://dc.lft.to/lastmile_qr_scan"}}, {"name": "c29594a28db0f5a2eb0b6044f61ea7e6", "type": "electric_bike", "lat": 38.832377666666666, "is_reserved": 0, "lon": -76.94625883333333, "fusion_lon": 0.0, "is_disabled": 0, "fusion_lat": 0.0, "bike_id": "c29594a28db0f5a2eb0b6044f61ea7e6", "rental_uris": {"ios": "https://dc.lft.to/lastmile_qr_scan", "android": "https://dc.lft.to/lastmile_qr_scan"}}, {"name": "6621612583f799931b168853c10178bb", "type": "electric_scooter", "lat": 38.929928833333335, "is_reserved": 0, "lon": -77.07941583333333, "fusion_lon": 0.0, "is_disabled": 0, "fusion_lat": 0.0, "bike_id": "6621612583f799931b168853c10178bb", "rental_uris": {"ios": "https://dc.lft.to/lastmile_qr_scan", "android": "https://dc.lft.to/lastmile_qr_scan"}}, {"name": "609f72b291b5ad009cd3633f3acdc713", "type": "electric_scooter", "lat": 38.924929166666665, "is_reserved": 0, "lon": -77.0271225, "fusion_lon": 0.0, "is_disabled": 0, "fusion_lat": 0.0, "bike_id": "609f72b291b5ad009cd3633f3acdc713", "rental_uris": {"ios": "https://dc.lft.to/lastmile_qr_scan", "android": "https://dc.lft.to/lastmile_qr_scan"}}, {"name": "b8800461abaeca43dad3699dd8d422f6", "type": "electric_scooter", "lat": 38.93119433333333, "is_reserved": 0, "lon": -77.0380535, "fusion_lon": 0.0, "is_disabled": 0, "fusion_lat": 0.0, "bike_id": "b8800461abaeca43dad3699dd8d422f6", "rental_uris": {"ios": "https://dc.lft.to/lastmile_qr_scan", "android": "https://dc.lft.to/lastmile_qr_scan"}}, {"name": "80d0403ecbb2c351ef04a8d301c7f518", "type": "electric_scooter", "lat": 38.905800166666666, "is_reserved": 0, "lon": -77.02936616666666, "fusion_lon": 0.0, "is_disabled": 0, "fusion_lat": 0.0, "bike_id": "80d0403ecbb2c351ef04a8d301c7f518", "rental_uris": {"ios": "https://dc.lft.to/lastmile_qr_scan", "android": "https://dc.lft.to/lastmile_qr_scan"}}, {"name": "c15fd00dadd8ecb425e5498baf61dbe4", "type": "electric_scooter", "lat": 38.915919, "is_reserved": 0, "lon": -76.98374166666666, "fusion_lon": 0.0, "is_disabled": 0, "fusion_lat": 0.0, "bike_id": "c15fd00dadd8ecb425e5498baf61dbe4", "rental_uris": {"ios": "https://dc.lft.to/lastmile_qr_scan", "android": "https://dc.lft.to/lastmile_qr_scan"}}, {"name": "3cb473aebe79d83859118c765d4cced6", "type": "electric_scooter", "lat": 38.941658333333336, "is_reserved": 0, "lon": -77.015466, "fusion_lon": 0.0, "is_disabled": 0, "fusion_lat": 0.0, "bike_id": "3cb473aebe79d83859118c765d4cced6", "rental_uris": {"ios": "https://dc.lft.to/lastmile_qr_scan", "android": "https://dc.lft.to/lastmile_qr_scan"}}, {"name": "ad3ce302424b5b63594984e8091e678e", "type": "electric_scooter", "lat": 38.897936333333334, "is_reserved": 0, "lon": -77.03290166666666, "fusion_lon": 0.0, "is_disabled": 0, "fusion_lat": 0.0, "bike_id": "ad3ce302424b5b63594984e8091e678e", "rental_uris": {"ios": "https://dc.lft.to/lastmile_qr_scan", "android": "https://dc.lft.to/lastmile_qr_scan"}}, {"name": "a58b08be949d828cd040d9533d20c8e3", "type": "electric_scooter", "lat": 38.91574416666667, "is_reserved": 0, "lon": -77.0462195, "fusion_lon": 0.0, "is_disabled": 0, "fusion_lat": 0.0, "bike_id": "a58b08be949d828cd040d9533d20c8e3", "rental_uris": {"ios": "https://dc.lft.to/lastmile_qr_scan", "android": "https://dc.lft.to/lastmile_qr_scan"}}, {"name": "a1c81537e6978b2a0235ddf313849cd4", "type": "electric_scooter", "lat": 38.917102666666665, "is_reserved": 0, "lon": -77.03126716666667, "fusion_lon": 0.0, "is_disabled": 0, "fusion_lat": 0.0, "bike_id": "a1c81537e6978b2a0235ddf313849cd4", "rental_uris": {"ios": "https://dc.lft.to/lastmile_qr_scan", "android": "https://dc.lft.to/lastmile_qr_scan"}}, {"name": "4081ec7c55e150cfbb88218e6358d6d7", "type": "electric_scooter", "lat": 38.88515266666667, "is_reserved": 0, "lon": -77.00570683333333, "fusion_lon": 0.0, "is_disabled": 0, "fusion_lat": 0.0, "bike_id": "4081ec7c55e150cfbb88218e6358d6d7", "rental_uris": {"ios": "https://dc.lft.to/lastmile_qr_scan", "android": "https://dc.lft.to/lastmile_qr_scan"}}, {"name": "9928cf86caa665023539c57d03157a0c", "type": "electric_scooter", "lat": 38.92247616666667, "is_reserved": 0, "lon": -77.030915, "fusion_lon": 0.0, "is_disabled": 0, "fusion_lat": 0.0, "bike_id": "9928cf86caa665023539c57d03157a0c", "rental_uris": {"ios": "https://dc.lft.to/lastmile_qr_scan", "android": "https://dc.lft.to/lastmile_qr_scan"}}, {"name": "37992a487a2bd703547a379902a9697e", "type": "electric_scooter", "lat": 38.89788583333333, "is_reserved": 0, "lon": -77.031362, "fusion_lon": 0.0, "is_disabled": 0, "fusion_lat": 0.0, "bike_id": "37992a487a2bd703547a379902a9697e", "rental_uris": {"ios": "https://dc.lft.to/lastmile_qr_scan", "android": "https://dc.lft.to/lastmile_qr_scan"}}, {"name": "2c5cae1587533597acb90a07dd5c478b", "type": "electric_scooter", "lat": 38.914077666666664, "is_reserved": 0, "lon": -77.00836983333333, "fusion_lon": 0.0, "is_disabled": 0, "fusion_lat": 0.0, "bike_id": "2c5cae1587533597acb90a07dd5c478b", "rental_uris": {"ios": "https://dc.lft.to/lastmile_qr_scan", "android": "https://dc.lft.to/lastmile_qr_scan"}}, {"name": "d9935a1bb8f906c1bf44e426ac225e86", "type": "electric_scooter", "lat": 38.895141833333334, "is_reserved": 0, "lon": -77.01078283333334, "fusion_lon": 0.0, "is_disabled": 0, "fusion_lat": 0.0, "bike_id": "d9935a1bb8f906c1bf44e426ac225e86", "rental_uris": {"ios": "https://dc.lft.to/lastmile_qr_scan", "android": "https://dc.lft.to/lastmile_qr_scan"}}, {"name": "652b534e1fef34c785c6f463d42858b8", "type": "electric_scooter", "lat": 38.904117666666664, "is_reserved": 0, "lon": -77.01752983333333, "fusion_lon": 0.0, "is_disabled": 0, "fusion_lat": 0.0, "bike_id": "652b534e1fef34c785c6f463d42858b8", "rental_uris": {"ios": "https://dc.lft.to/lastmile_qr_scan", "android": "https://dc.lft.to/lastmile_qr_scan"}}, {"name": "04f6f0725a569f94370fb22f68dcd01e", "type": "electric_scooter", "lat": 38.90248116666667, "is_reserved": 0, "lon": -77.00197683333333, "fusion_lon": 0.0, "is_disabled": 0, "fusion_lat": 0.0, "bike_id": "04f6f0725a569f94370fb22f68dcd01e", "rental_uris": {"ios": "https://dc.lft.to/lastmile_qr_scan", "android": "https://dc.lft.to/lastmile_qr_scan"}}, {"name": "f5a77c5ba695ef9f00d2fe6785105562", "type": "electric_scooter", "lat": 38.90359216666667, "is_reserved": 0, "lon": -77.04461316666666, "fusion_lon": 0.0, "is_disabled": 0, "fusion_lat": 0.0, "bike_id": "f5a77c5ba695ef9f00d2fe6785105562", "rental_uris": {"ios": "https://dc.lft.to/lastmile_qr_scan", "android": "https://dc.lft.to/lastmile_qr_scan"}}, {"name": "5270959e395e330e5f3dddeb6d645295", "type": "electric_scooter", "lat": 38.917697, "is_reserved": 0, "lon": -77.0271545, "fusion_lon": 0.0, "is_disabled": 0, "fusion_lat": 0.0, "bike_id": "5270959e395e330e5f3dddeb6d645295", "rental_uris": {"ios": "https://dc.lft.to/lastmile_qr_scan", "android": "https://dc.lft.to/lastmile_qr_scan"}}, {"name": "583a7dc2097d56f8002ad3218fae8ff2", "type": "electric_scooter", "lat": 38.90862816666667, "is_reserved": 0, "lon": -77.02503633333333, "fusion_lon": 0.0, "is_disabled": 0, "fusion_lat": 0.0, "bike_id": "583a7dc2097d56f8002ad3218fae8ff2", "rental_uris": {"ios": "https://dc.lft.to/lastmile_qr_scan", "android": "https://dc.lft.to/lastmile_qr_scan"}}, {"name": "6cb7b88f1f91d073514489f9686c0b20", "type": "electric_bike", "lat": 38.8808395, "is_reserved": 0, "lon": -76.98536016666667, "fusion_lon": 0.0, "is_disabled": 0, "fusion_lat": 0.0, "bike_id": "6cb7b88f1f91d073514489f9686c0b20", "rental_uris": {"ios": "https://dc.lft.to/lastmile_qr_scan", "android": "https://dc.lft.to/lastmile_qr_scan"}}, {"name": "3c10a73f4690a4c3d6dff0f695318cbb", "type": "electric_scooter", "lat": 38.91879016666667, "is_reserved": 0, "lon": -77.0435135, "fusion_lon": 0.0, "is_disabled": 0, "fusion_lat": 0.0, "bike_id": "3c10a73f4690a4c3d6dff0f695318cbb", "rental_uris": {"ios": "https://dc.lft.to/lastmile_qr_scan", "android": "https://dc.lft.to/lastmile_qr_scan"}}, {"name": "f6b36f60a52bc15103a249e43071f2a5", "type": "electric_scooter", "lat": 38.85450216666667, "is_reserved": 0, "lon": -76.98582066666667, "fusion_lon": 0.0, "is_disabled": 0, "fusion_lat": 0.0, "bike_id": "f6b36f60a52bc15103a249e43071f2a5", "rental_uris": {"ios": "https://dc.lft.to/lastmile_qr_scan", "android": "https://dc.lft.to/lastmile_qr_scan"}}, {"name": "c5a10a5953af7711ab9a6af0ec5c4793", "type": "electric_scooter", "lat": 38.928811833333334, "is_reserved": 0, "lon": -77.037592, "fusion_lon": 0.0, "is_disabled": 0, "fusion_lat": 0.0, "bike_id": "c5a10a5953af7711ab9a6af0ec5c4793", "rental_uris": {"ios": "https://dc.lft.to/lastmile_qr_scan", "android": "https://dc.lft.to/lastmile_qr_scan"}}, {"name": "359160c71124976ec0cf2ab189a0490b", "type": "electric_scooter", "lat": 38.924798333333335, "is_reserved": 0, "lon": -77.0284035, "fusion_lon": 0.0, "is_disabled": 0, "fusion_lat": 0.0, "bike_id": "359160c71124976ec0cf2ab189a0490b", "rental_uris": {"ios": "https://dc.lft.to/lastmile_qr_scan", "android": "https://dc.lft.to/lastmile_qr_scan"}}, {"name": "7e45d37da92bb9573bf9613ce20d89a1", "type": "electric_bike", "lat": 38.95911666666667, "is_reserved": 0, "lon": -77.001541, "fusion_lon": 0.0, "is_disabled": 0, "fusion_lat": 0.0, "bike_id": "7e45d37da92bb9573bf9613ce20d89a1", "rental_uris": {"ios": "https://dc.lft.to/lastmile_qr_scan", "android": "https://dc.lft.to/lastmile_qr_scan"}}, {"name": "a37afcadf3140c18d6f40b4d25e38dd7", "type": "electric_scooter", "lat": 38.878478666666666, "is_reserved": 0, "lon": -77.019628, "fusion_lon": 0.0, "is_disabled": 0, "fusion_lat": 0.0, "bike_id": "a37afcadf3140c18d6f40b4d25e38dd7", "rental_uris": {"ios": "https://dc.lft.to/lastmile_qr_scan", "android": "https://dc.lft.to/lastmile_qr_scan"}}, {"name": "4aec7901c08c91ed6cb3afd4cdf3566c", "type": "electric_scooter", "lat": 38.899489333333335, "is_reserved": 0, "lon": -77.03114533333333, "fusion_lon": 0.0, "is_disabled": 0, "fusion_lat": 0.0, "bike_id": "4aec7901c08c91ed6cb3afd4cdf3566c", "rental_uris": {"ios": "https://dc.lft.to/lastmile_qr_scan", "android": "https://dc.lft.to/lastmile_qr_scan"}}, {"name": "8f4fe7c6690722fe9f4924cca8109501", "type": "electric_scooter", "lat": 38.872400999999996, "is_reserved": 0, "lon": -77.0116635, "fusion_lon": 0.0, "is_disabled": 0, "fusion_lat": 0.0, "bike_id": "8f4fe7c6690722fe9f4924cca8109501", "rental_uris": {"ios": "https://dc.lft.to/lastmile_qr_scan", "android": "https://dc.lft.to/lastmile_qr_scan"}}, {"name": "16a4ce9baca6ef1176f093bda5f39a5e", "type": "electric_scooter", "lat": 38.94102783333334, "is_reserved": 0, "lon": -77.02108583333333, "fusion_lon": 0.0, "is_disabled": 0, "fusion_lat": 0.0, "bike_id": "16a4ce9baca6ef1176f093bda5f39a5e", "rental_uris": {"ios": "https://dc.lft.to/lastmile_qr_scan", "android": "https://dc.lft.to/lastmile_qr_scan"}}, {"name": "58d94ebe8482e5c79a85f3490d1a331c", "type": "electric_scooter", "lat": 38.91580233333333, "is_reserved": 0, "lon": -77.0218395, "fusion_lon": 0.0, "is_disabled": 0, "fusion_lat": 0.0, "bike_id": "58d94ebe8482e5c79a85f3490d1a331c", "rental_uris": {"ios": "https://dc.lft.to/lastmile_qr_scan", "android": "https://dc.lft.to/lastmile_qr_scan"}}, {"name": "7c6100483965182314bd250d02d5b12c", "type": "electric_bike", "lat": 38.874776, "is_reserved": 0, "lon": -76.96522783333333, "fusion_lon": 0.0, "is_disabled": 0, "fusion_lat": 0.0, "bike_id": "7c6100483965182314bd250d02d5b12c", "rental_uris": {"ios": "https://dc.lft.to/lastmile_qr_scan", "android": "https://dc.lft.to/lastmile_qr_scan"}}, {"name": "a86303069111d4b58b47c64590ca4023", "type": "electric_scooter", "lat": 38.905215, "is_reserved": 0, "lon": -77.06627816666666, "fusion_lon": 0.0, "is_disabled": 0, "fusion_lat": 0.0, "bike_id": "a86303069111d4b58b47c64590ca4023", "rental_uris": {"ios": "https://dc.lft.to/lastmile_qr_scan", "android": "https://dc.lft.to/lastmile_qr_scan"}}, {"name": "21a02abc668ae9bf5ac041816c0e5810", "type": "electric_scooter", "lat": 38.94640716666667, "is_reserved": 0, "lon": -77.01925633333333, "fusion_lon": 0.0, "is_disabled": 0, "fusion_lat": 0.0, "bike_id": "21a02abc668ae9bf5ac041816c0e5810", "rental_uris": {"ios": "https://dc.lft.to/lastmile_qr_scan", "android": "https://dc.lft.to/lastmile_qr_scan"}}, {"name": "92169b0cdbf8e7b2b985f888a6478aaf", "type": "electric_scooter", "lat": 38.86663033333333, "is_reserved": 0, "lon": -76.98886333333333, "fusion_lon": 0.0, "is_disabled": 0, "fusion_lat": 0.0, "bike_id": "92169b0cdbf8e7b2b985f888a6478aaf", "rental_uris": {"ios": "https://dc.lft.to/lastmile_qr_scan", "android": "https://dc.lft.to/lastmile_qr_scan"}}, {"name": "ff6f34ddbc8622eaa62c9f9a50f15fa3", "type": "electric_scooter", "lat": 38.927352, "is_reserved": 0, "lon": -77.02993016666667, "fusion_lon": 0.0, "is_disabled": 0, "fusion_lat": 0.0, "bike_id": "ff6f34ddbc8622eaa62c9f9a50f15fa3", "rental_uris": {"ios": "https://dc.lft.to/lastmile_qr_scan", "android": "https://dc.lft.to/lastmile_qr_scan"}}, {"name": "4443f5ce5497715b6631c8f627d00685", "type": "electric_bike", "lat": 38.96757483333333, "is_reserved": 0, "lon": -77.02797516666666, "fusion_lon": 0.0, "is_disabled": 0, "fusion_lat": 0.0, "bike_id": "4443f5ce5497715b6631c8f627d00685", "rental_uris": {"ios": "https://dc.lft.to/lastmile_qr_scan", "android": "https://dc.lft.to/lastmile_qr_scan"}}, {"name": "6691d442650b72e8b2652d927ec5c458", "type": "electric_scooter", "lat": 38.915740166666666, "is_reserved": 0, "lon": -77.04613916666666, "fusion_lon": 0.0, "is_disabled": 0, "fusion_lat": 0.0, "bike_id": "6691d442650b72e8b2652d927ec5c458", "rental_uris": {"ios": "https://dc.lft.to/lastmile_qr_scan", "android": "https://dc.lft.to/lastmile_qr_scan"}}, {"name": "8d3774a724e36dbd605b847c7dc4c7af", "type": "electric_scooter", "lat": 38.9101595, "is_reserved": 0, "lon": -76.99392066666667, "fusion_lon": 0.0, "is_disabled": 0, "fusion_lat": 0.0, "bike_id": "8d3774a724e36dbd605b847c7dc4c7af", "rental_uris": {"ios": "https://dc.lft.to/lastmile_qr_scan", "android": "https://dc.lft.to/lastmile_qr_scan"}}, {"name": "5b6c62788f5ad4fac714ed6c44a8e51d", "type": "electric_scooter", "lat": 38.939437833333336, "is_reserved": 0, "lon": -77.0170825, "fusion_lon": 0.0, "is_disabled": 0, "fusion_lat": 0.0, "bike_id": "5b6c62788f5ad4fac714ed6c44a8e51d", "rental_uris": {"ios": "https://dc.lft.to/lastmile_qr_scan", "android": "https://dc.lft.to/lastmile_qr_scan"}}, {"name": "41983a70a91fab9ba88233ff24352a49", "type": "electric_scooter", "lat": 38.90063166666667, "is_reserved": 0, "lon": -77.01283183333334, "fusion_lon": 0.0, "is_disabled": 0, "fusion_lat": 0.0, "bike_id": "41983a70a91fab9ba88233ff24352a49", "rental_uris": {"ios": "https://dc.lft.to/lastmile_qr_scan", "android": "https://dc.lft.to/lastmile_qr_scan"}}, {"name": "8b5614965a69a3a9f60ce8b785a62970", "type": "electric_scooter", "lat": 38.8832025, "is_reserved": 0, "lon": -77.0093885, "fusion_lon": 0.0, "is_disabled": 0, "fusion_lat": 0.0, "bike_id": "8b5614965a69a3a9f60ce8b785a62970", "rental_uris": {"ios": "https://dc.lft.to/lastmile_qr_scan", "android": "https://dc.lft.to/lastmile_qr_scan"}}, {"name": "0837dac38ce3be9944a6064e20ba2370", "type": "electric_scooter", "lat": 38.88445, "is_reserved": 0, "lon": -77.00581166666667, "fusion_lon": 0.0, "is_disabled": 0, "fusion_lat": 0.0, "bike_id": "0837dac38ce3be9944a6064e20ba2370", "rental_uris": {"ios": "https://dc.lft.to/lastmile_qr_scan", "android": "https://dc.lft.to/lastmile_qr_scan"}}, {"name": "6c2f195786ca811a71a849fe17476d82", "type": "electric_scooter", "lat": 38.934553666666666, "is_reserved": 0, "lon": -77.07241116666667, "fusion_lon": 0.0, "is_disabled": 0, "fusion_lat": 0.0, "bike_id": "6c2f195786ca811a71a849fe17476d82", "rental_uris": {"ios": "https://dc.lft.to/lastmile_qr_scan", "android": "https://dc.lft.to/lastmile_qr_scan"}}, {"name": "fd33f7cefd6e91055947e48f8303258f", "type": "electric_scooter", "lat": 38.89632433333333, "is_reserved": 0, "lon": -77.01028633333334, "fusion_lon": 0.0, "is_disabled": 0, "fusion_lat": 0.0, "bike_id": "fd33f7cefd6e91055947e48f8303258f", "rental_uris": {"ios": "https://dc.lft.to/lastmile_qr_scan", "android": "https://dc.lft.to/lastmile_qr_scan"}}, {"name": "eca86d07baa9f593b95041691f14bb91", "type": "electric_scooter", "lat": 38.92018383333333, "is_reserved": 0, "lon": -77.0441335, "fusion_lon": 0.0, "is_disabled": 0, "fusion_lat": 0.0, "bike_id": "eca86d07baa9f593b95041691f14bb91", "rental_uris": {"ios": "https://dc.lft.to/lastmile_qr_scan", "android": "https://dc.lft.to/lastmile_qr_scan"}}, {"name": "2fee90ffdf78ca55c3d3137aa6f6bc70", "type": "electric_bike", "lat": 38.94277616666667, "is_reserved": 0, "lon": -76.980764, "fusion_lon": 0.0, "is_disabled": 0, "fusion_lat": 0.0, "bike_id": "2fee90ffdf78ca55c3d3137aa6f6bc70", "rental_uris": {"ios": "https://dc.lft.to/lastmile_qr_scan", "android": "https://dc.lft.to/lastmile_qr_scan"}}, {"name": "41a22288fc48e28b0e4cd85a457ad53e", "type": "electric_scooter", "lat": 38.898877, "is_reserved": 0, "lon": -76.93177583333333, "fusion_lon": 0.0, "is_disabled": 0, "fusion_lat": 0.0, "bike_id": "41a22288fc48e28b0e4cd85a457ad53e", "rental_uris": {"ios": "https://dc.lft.to/lastmile_qr_scan", "android": "https://dc.lft.to/lastmile_qr_scan"}}, {"name": "fba3e921f18ae967f34895dfdaefc9d3", "type": "electric_scooter", "lat": 38.92887116666667, "is_reserved": 0, "lon": -77.03746383333333, "fusion_lon": 0.0, "is_disabled": 0, "fusion_lat": 0.0, "bike_id": "fba3e921f18ae967f34895dfdaefc9d3", "rental_uris": {"ios": "https://dc.lft.to/lastmile_qr_scan", "android": "https://dc.lft.to/lastmile_qr_scan"}}, {"name": "2d77dd0a077cdc5fe0dbb48c591a4e9e", "type": "electric_scooter", "lat": 38.89404533333333, "is_reserved": 0, "lon": -76.99363366666667, "fusion_lon": 0.0, "is_disabled": 0, "fusion_lat": 0.0, "bike_id": "2d77dd0a077cdc5fe0dbb48c591a4e9e", "rental_uris": {"ios": "https://dc.lft.to/lastmile_qr_scan", "android": "https://dc.lft.to/lastmile_qr_scan"}}, {"name": "93fb44de98768690b74cfe82cadd15c5", "type": "electric_scooter", "lat": 38.92755666666667, "is_reserved": 0, "lon": -77.02423266666666, "fusion_lon": 0.0, "is_disabled": 0, "fusion_lat": 0.0, "bike_id": "93fb44de98768690b74cfe82cadd15c5", "rental_uris": {"ios": "https://dc.lft.to/lastmile_qr_scan", "android": "https://dc.lft.to/lastmile_qr_scan"}}, {"name": "dcb8d611040590c8c740fe6807154e3b", "type": "electric_bike", "lat": 38.898929333333335, "is_reserved": 0, "lon": -76.983934, "fusion_lon": 0.0, "is_disabled": 0, "fusion_lat": 0.0, "bike_id": "dcb8d611040590c8c740fe6807154e3b", "rental_uris": {"ios": "https://dc.lft.to/lastmile_qr_scan", "android": "https://dc.lft.to/lastmile_qr_scan"}}, {"name": "aecb7e37c0e87c3c891367fd94722026", "type": "electric_scooter", "lat": 38.9110795, "is_reserved": 0, "lon": -77.00755916666667, "fusion_lon": 0.0, "is_disabled": 0, "fusion_lat": 0.0, "bike_id": "aecb7e37c0e87c3c891367fd94722026", "rental_uris": {"ios": "https://dc.lft.to/lastmile_qr_scan", "android": "https://dc.lft.to/lastmile_qr_scan"}}, {"name": "913c4464d6d7f9defcb06fc76507fd4e", "type": "electric_scooter", "lat": 38.912693, "is_reserved": 0, "lon": -77.03156183333333, "fusion_lon": 0.0, "is_disabled": 0, "fusion_lat": 0.0, "bike_id": "913c4464d6d7f9defcb06fc76507fd4e", "rental_uris": {"ios": "https://dc.lft.to/lastmile_qr_scan", "android": "https://dc.lft.to/lastmile_qr_scan"}}, {"name": "160173cd5a9655a00817c5cd019bba14", "type": "electric_scooter", "lat": 38.892238166666665, "is_reserved": 0, "lon": -77.0437085, "fusion_lon": 0.0, "is_disabled": 0, "fusion_lat": 0.0, "bike_id": "160173cd5a9655a00817c5cd019bba14", "rental_uris": {"ios": "https://dc.lft.to/lastmile_qr_scan", "android": "https://dc.lft.to/lastmile_qr_scan"}}, {"name": "d2169ff91aee703a6ded1d24c5da2845", "type": "electric_scooter", "lat": 38.9171735, "is_reserved": 0, "lon": -77.025128, "fusion_lon": 0.0, "is_disabled": 0, "fusion_lat": 0.0, "bike_id": "d2169ff91aee703a6ded1d24c5da2845", "rental_uris": {"ios": "https://dc.lft.to/lastmile_qr_scan", "android": "https://dc.lft.to/lastmile_qr_scan"}}, {"name": "72e293f14a0cdeb1a94905e76dc24bd3", "type": "electric_scooter", "lat": 38.91410616666667, "is_reserved": 0, "lon": -77.03906866666667, "fusion_lon": 0.0, "is_disabled": 0, "fusion_lat": 0.0, "bike_id": "72e293f14a0cdeb1a94905e76dc24bd3", "rental_uris": {"ios": "https://dc.lft.to/lastmile_qr_scan", "android": "https://dc.lft.to/lastmile_qr_scan"}}, {"name": "7893573e1addd01446c19c0d2dd5427b", "type": "electric_scooter", "lat": 38.895352333333335, "is_reserved": 0, "lon": -77.04850266666666, "fusion_lon": 0.0, "is_disabled": 0, "fusion_lat": 0.0, "bike_id": "7893573e1addd01446c19c0d2dd5427b", "rental_uris": {"ios": "https://dc.lft.to/lastmile_qr_scan", "android": "https://dc.lft.to/lastmile_qr_scan"}}, {"name": "df6d1da02ec487d741452723b4e514e9", "type": "electric_scooter", "lat": 38.900073166666665, "is_reserved": 0, "lon": -77.0525025, "fusion_lon": 0.0, "is_disabled": 0, "fusion_lat": 0.0, "bike_id": "df6d1da02ec487d741452723b4e514e9", "rental_uris": {"ios": "https://dc.lft.to/lastmile_qr_scan", "android": "https://dc.lft.to/lastmile_qr_scan"}}, {"name": "02d670679b070b9db74f0d5bdba71aa5", "type": "electric_scooter", "lat": 38.90377433333333, "is_reserved": 0, "lon": -77.033796, "fusion_lon": 0.0, "is_disabled": 0, "fusion_lat": 0.0, "bike_id": "02d670679b070b9db74f0d5bdba71aa5", "rental_uris": {"ios": "https://dc.lft.to/lastmile_qr_scan", "android": "https://dc.lft.to/lastmile_qr_scan"}},