{"data": {"bikes": [{"bike_id": "e314ab9c97715945fef3cf111f49852c", "type": "electric_scooter", "is_disabled": 0, "lat": 38.923988333333334, "rental_uris": {"ios": "https://dc.lft.to/lastmile_qr_scan", "android": "https://dc.lft.to/lastmile_qr_scan"}, "is_reserved": 0, "fusion_lon": 0.0, "fusion_lat": 0.0, "lon": -77.02257016666667, "name": "e314ab9c97715945fef3cf111f49852c"}, {"bike_id": "d1bcfb91c9a4a02527d345cd4b3eb872", "type": "electric_scooter", "is_disabled": 0, "lat": 38.914036833333334, "rental_uris": {"ios": "https://dc.lft.to/lastmile_qr_scan", "android": "https://dc.lft.to/lastmile_qr_scan"}, "is_reserved": 0, "fusion_lon": 0.0, "fusion_lat": 0.0, "lon": -77.03442983333333, "name": "d1bcfb91c9a4a02527d345cd4b3eb872"}, {"bike_id": "0786e52c88500fa55088759af94e62d4", "type": "electric_scooter", "is_disabled": 0, "lat": 38.8650415, "rental_uris": {"ios": "https://dc.lft.to/lastmile_qr_scan", "android": "https://dc.lft.to/lastmile_qr_scan"}, "is_reserved": 0, "fusion_lon": 0.0, "fusion_lat": 0.0, "lon": -76.99003066666667, "name": "0786e52c88500fa55088759af94e62d4"}, {"bike_id": "35ce331189569f228fcff994fa5dc4e6", "type": "electric_scooter", "is_disabled": 0, "lat": 38.91873966666667, "rental_uris": {"ios": "https://dc.lft.to/lastmile_qr_scan", "android": "https://dc.lft.to/lastmile_qr_scan"}, "is_reserved": 0, "fusion_lon": 0.0, "fusion_lat": 0.0, "lon": -77.034751, "name": "35ce331189569f228fcff994fa5dc4e6"}, {"bike_id": "7de28e48aba0168acc2d9494fbd39eea", "type": "electric_scooter", "is_disabled": 0, "lat": 38.92332833333333, "rental_uris": {"ios": "https://dc.lft.to/lastmile_qr_scan", "android": "https://dc.lft.to/lastmile_qr_scan"}, "is_reserved": 0, "fusion_lon": 0.0, "fusion_lat": 0.0, "lon": -77.03539583333334, "name": "7de28e48aba0168acc2d9494fbd39eea"}, {"bike_id": "d63f60eea4198a08b38f00c7e44579a0", "type": "electric_scooter", "is_disabled": 0, "lat": 38.92320633333333, "rental_uris": {"ios": "https://dc.lft.to/lastmile_qr_scan", "android": "https://dc.lft.to/lastmile_qr_scan"}, "is_reserved": 0, "fusion_lon": 0.0, "fusion_lat": 0.0, "lon": -77.04041466666666, "name": "d63f60eea4198a08b38f00c7e44579a0"}, {"bike_id": "9542c9b97d6236f6ed9db0dc13090d84", "type": "electric_bike", "is_disabled": 0, "lat": 38.807605333333335, "rental_uris": {"ios": "https://dc.lft.to/lastmile_qr_scan", "android": "https://dc.lft.to/lastmile_qr_scan"}, "is_reserved": 0, "fusion_lon": 0.0, "fusion_lat": 0.0, "lon": -77.09467583333333, "name": "9542c9b97d6236f6ed9db0dc13090d84"}, {"bike_id": "a65e947fe3a9d4d6f7ac9954bddced6f", "type": "electric_bike", "is_disabled": 0, "lat": 38.99346083333333, "rental_uris": {"ios": "https://dc.lft.to/lastmile_qr_scan", "android": "https://dc.lft.to/lastmile_qr_scan"}, "is_reserved": 0, "fusion_lon": 0.0, "fusion_lat": 0.0, "lon": -77.11575883333333, "name": "a65e947fe3a9d4d6f7ac9954bddced6f"}, {"bike_id": "f882c3be5a2bc0b0f4b4219730910f75", "type": "electric_scooter", "is_disabled": 0, "lat": 38.92079666666667, "rental_uris": {"ios": "https://dc.lft.to/lastmile_qr_scan", "android": "https://dc.lft.to/lastmile_qr_scan"}, "is_reserved": 0, "fusion_lon": 0.0, "fusion_lat": 0.0, "lon": -77.0240625, "name": "f882c3be5a2bc0b0f4b4219730910f75"}, {"bike_id": "6dd9b29bfb278438b5722be5d20ea4b4", "type": "electric_scooter", "is_disabled": 0, "lat": 38.916096333333336, "rental_uris": {"ios": "https://dc.lft.to/lastmile_qr_scan", "android": "https://dc.lft.to/lastmile_qr_scan"}, "is_reserved": 0, "fusion_lon": 0.0, "fusion_lat": 0.0, "lon": -77.03391783333333, "name": "6dd9b29bfb278438b5722be5d20ea4b4"}, {"bike_id": "910083972ea5b72ee4c9b5f8a401d881", "type": "electric_scooter", "is_disabled": 0, "lat": 38.877902, "rental_uris": {"ios": "https://dc.lft.to/lastmile_qr_scan", "android": "https://dc.lft.to/lastmile_qr_scan"}, "is_reserved": 0, "fusion_lon": 0.0, "fusion_lat": 0.0, "lon": -77.01743066666667, "name": "910083972ea5b72ee4c9b5f8a401d881"}, {"bike_id": "c9b58e9215c87fcb46bf07b006d269be", "type": "electric_scooter", "is_disabled": 0, "lat": 38.923978, "rental_uris": {"ios": "https://dc.lft.to/lastmile_qr_scan", "android": "https://dc.lft.to/lastmile_qr_scan"}, "is_reserved": 0, "fusion_lon": 0.0, "fusion_lat": 0.0, "lon": -77.04474616666667, "name": "c9b58e9215c87fcb46bf07b006d269be"}, {"bike_id": "0122f40f081c1865f513d43e2a21c461", "type": "electric_scooter", "is_disabled": 0, "lat": 38.923615, "rental_uris": {"ios": "https://dc.lft.to/lastmile_qr_scan", "android": "https://dc.lft.to/lastmile_qr_scan"}, "is_reserved": 0, "fusion_lon": 0.0, "fusion_lat": 0.0, "lon": -77.05278916666667, "name": "0122f40f081c1865f513d43e2a21c461"}, {"bike_id": "2c73d4ab580d3d51cd7ca2e492774254", "type": "electric_scooter", "is_disabled": 0, "lat": 38.928689166666665, "rental_uris": {"ios": "https://dc.lft.to/lastmile_qr_scan", "android": "https://dc.lft.to/lastmile_qr_scan"}, "is_reserved": 0, "fusion_lon": 0.0, "fusion_lat": 0.0, "lon": -77.034454, "name": "2c73d4ab580d3d51cd7ca2e492774254"}, {"bike_id": "26c317e2be32f8722a793582b2338a41", "type": "electric_scooter", "is_disabled": 0, "lat": 38.87939733333333, "rental_uris": {"ios": "https://dc.lft.to/lastmile_qr_scan", "android": "https://dc.lft.to/lastmile_qr_scan"}, "is_reserved": 0, "fusion_lon": 0.0, "fusion_lat": 0.0, "lon": -77.02362016666666, "name": "26c317e2be32f8722a793582b2338a41"}, {"bike_id": "b4a5aa048bd95e95c996c2f9bde31572", "type": "electric_scooter", "is_disabled": 0, "lat": 38.89358883333333, "rental_uris": {"ios": "https://dc.lft.to/lastmile_qr_scan", "android": "https://dc.lft.to/lastmile_qr_scan"}, "is_reserved": 0, "fusion_lon": 0.0, "fusion_lat": 0.0, "lon": -76.94933333333333, "name": "b4a5aa048bd95e95c996c2f9bde31572"}, {"bike_id": "3adb66931e349821b2569d9f73631824", "type": "electric_scooter", "is_disabled": 0, "lat": 38.8960785, "rental_uris": {"ios": "https://dc.lft.to/lastmile_qr_scan", "android": "https://dc.lft.to/lastmile_qr_scan"}, "is_reserved": 0, "fusion_lon": 0.0, "fusion_lat": 0.0, "lon": -77.05438516666666, "name": "3adb66931e349821b2569d9f73631824"}, {"bike_id": "8458eebffb363418256115e9a26b0e95", "type": "electric_scooter", "is_disabled": 0, "lat": 38.902415, "rental_uris": {"ios": "https://dc.lft.to/lastmile_qr_scan", "android": "https://dc.lft.to/lastmile_qr_scan"}, "is_reserved": 0, "fusion_lon": 0.0, "fusion_lat": 0.0, "lon": -77.04604, "name": "8458eebffb363418256115e9a26b0e95"}, {"bike_id": "eb25c0b1be48e81d45546f88a6f05182", "type": "electric_scooter", "is_disabled": 0, "lat": 38.927984, "rental_uris": {"ios": "https://dc.lft.to/lastmile_qr_scan", "android": "https://dc.lft.to/lastmile_qr_scan"}, "is_reserved": 0, "fusion_lon": 0.0, "fusion_lat": 0.0, "lon": -77.03206566666667, "name": "eb25c0b1be48e81d45546f88a6f05182"}, {"bike_id": "daf5be6548306b483214c2de71aab95d", "type": "electric_bike", "is_disabled": 0, "lat": 38.882464, "rental_uris": {"ios": "https://dc.lft.to/lastmile_qr_scan", "android": "https://dc.lft.to/lastmile_qr_scan"}, "is_reserved": 0, "fusion_lon": 0.0, "fusion_lat": 0.0, "lon": -76.96250333333333, "name": "daf5be6548306b483214c2de71aab95d"}, {"bike_id": "4705b9eb069e2d75ca40e3c96c24007a", "type": "electric_scooter", "is_disabled": 0, "lat": 38.844386, "rental_uris": {"ios": "https://dc.lft.to/lastmile_qr_scan", "android": "https://dc.lft.to/lastmile_qr_scan"}, "is_reserved": 0, "fusion_lon": 0.0, "fusion_lat": 0.0, "lon": -76.997796, "name": "4705b9eb069e2d75ca40e3c96c24007a"}, {"bike_id": "a88e9392eabae3c65d6eb1e9a306d634", "type": "electric_scooter", "is_disabled": 0, "lat": 38.915736333333335, "rental_uris": {"ios": "https://dc.lft.to/lastmile_qr_scan", "android": "https://dc.lft.to/lastmile_qr_scan"}, "is_reserved": 0, "fusion_lon": 0.0, "fusion_lat": 0.0, "lon": -77.05005883333334, "name": "a88e9392eabae3c65d6eb1e9a306d634"}, {"bike_id": "d91c1299a9f7c0829130a7c19bf6afd1", "type": "electric_scooter", "is_disabled": 0, "lat": 38.91405533333333, "rental_uris": {"ios": "https://dc.lft.to/lastmile_qr_scan", "android": "https://dc.lft.to/lastmile_qr_scan"}, "is_reserved": 0, "fusion_lon": 0.0, "fusion_lat": 0.0, "lon": -77.0317495, "name": "d91c1299a9f7c0829130a7c19bf6afd1"}, {"bike_id": "414958c06b21ea137e6fec892a04d759", "type": "electric_scooter", "is_disabled": 0, "lat": 38.88852333333333, "rental_uris": {"ios": "https://dc.lft.to/lastmile_qr_scan", "android": "https://dc.lft.to/lastmile_qr_scan"}, "is_reserved": 0, "fusion_lon": 0.0, "fusion_lat": 0.0, "lon": -77.00049283333334, "name": "414958c06b21ea137e6fec892a04d759"}, {"bike_id": "e208014cd8eb0131ea1d1562a0dcc945", "type": "electric_scooter", "is_disabled": 0, "lat": 38.920359833333336, "rental_uris": {"ios": "https://dc.lft.to/lastmile_qr_scan", "android": "https://dc.lft.to/lastmile_qr_scan"}, "is_reserved": 0, "fusion_lon": 0.0, "fusion_lat": 0.0, "lon": -76.97802716666666, "name": "e208014cd8eb0131ea1d1562a0dcc945"}, {"bike_id": "589c4972c86ccb3b4685fece26fe45d7", "type": "electric_bike", "is_disabled": 0, "lat": 39.04310783333333, "rental_uris": {"ios": "https://dc.lft.to/lastmile_qr_scan", "android": "https://dc.lft.to/lastmile_qr_scan"}, "is_reserved": 0, "fusion_lon": 0.0, "fusion_lat": 0.0, "lon": -77.0515965, "name": "589c4972c86ccb3b4685fece26fe45d7"}, {"bike_id": "2b47bf451b6de3887e964568cfa5f375", "type": "electric_scooter", "is_disabled": 0, "lat": 38.92465766666667, "rental_uris": {"ios": "https://dc.lft.to/lastmile_qr_scan", "android": "https://dc.lft.to/lastmile_qr_scan"}, "is_reserved": 0, "fusion_lon": 0.0, "fusion_lat": 0.0, "lon": -77.05202016666667, "name": "2b47bf451b6de3887e964568cfa5f375"}, {"bike_id": "dd42ce89cb40020dbe32da1ae58bf98a", "type": "electric_scooter", "is_disabled": 0, "lat": 38.906035833333334, "rental_uris": {"ios": "https://dc.lft.to/lastmile_qr_scan", "android": "https://dc.lft.to/lastmile_qr_scan"}, "is_reserved": 0, "fusion_lon": 0.0, "fusion_lat": 0.0, "lon": -77.03472266666667, "name": "dd42ce89cb40020dbe32da1ae58bf98a"}, {"bike_id": "dd9dd0f5ad7cc9f7b17849991c5280e8", "type": "electric_bike", "is_disabled": 0, "lat": 38.82379933333333, "rental_uris": {"ios": "https://dc.lft.to/lastmile_qr_scan", "android": "https://dc.lft.to/lastmile_qr_scan"}, "is_reserved": 0, "fusion_lon": 0.0, "fusion_lat": 0.0, "lon": -77.0022555, "name": "dd9dd0f5ad7cc9f7b17849991c5280e8"}, {"bike_id": "849c070d32ef8d311c6ce0e4bb8bd519", "type": "electric_scooter", "is_disabled": 0, "lat": 38.93293116666667, "rental_uris": {"ios": "https://dc.lft.to/lastmile_qr_scan", "android": "https://dc.lft.to/lastmile_qr_scan"}, "is_reserved": 0, "fusion_lon": 0.0, "fusion_lat": 0.0, "lon": -77.03546183333333, "name": "849c070d32ef8d311c6ce0e4bb8bd519"}, {"bike_id": "9439b34228191fcac71588dd6038e2cd", "type": "electric_bike", "is_disabled": 0, "lat": 38.9074445, "rental_uris": {"ios": "https://dc.lft.to/lastmile_qr_scan", "android": "https://dc.lft.to/lastmile_qr_scan"}, "is_reserved": 0, "fusion_lon": 0.0, "fusion_lat": 0.0, "lon": -76.98679716666666, "name": "9439b34228191fcac71588dd6038e2cd"}, {"bike_id": "3fe037e20a11331fcbe4079c342cbdad", "type": "electric_scooter", "is_disabled": 0, "lat": 38.90528, "rental_uris": {"ios": "https://dc.lft.to/lastmile_qr_scan", "android": "https://dc.lft.to/lastmile_qr_scan"}, "is_reserved": 0, "fusion_lon": 0.0, "fusion_lat": 0.0, "lon": -77.059363, "name": "3fe037e20a11331fcbe4079c342cbdad"}, {"bike_id": "eea3eb3376a24535070f836ac0fd0132", "type": "electric_scooter", "is_disabled": 0, "lat": 38.916877666666664, "rental_uris": {"ios": "https://dc.lft.to/lastmile_qr_scan", "android": "https://dc.lft.to/lastmile_qr_scan"}, "is_reserved": 0, "fusion_lon": 0.0, "fusion_lat": 0.0, "lon": -77.02953316666667, "name": "eea3eb3376a24535070f836ac0fd0132"}, {"bike_id": "189de937d79869ac720084bd60bff7f3", "type": "electric_scooter", "is_disabled": 0, "lat": 38.8621675, "rental_uris": {"ios": "https://dc.lft.to/lastmile_qr_scan", "android": "https://dc.lft.to/lastmile_qr_scan"}, "is_reserved": 0, "fusion_lon": 0.0, "fusion_lat": 0.0, "lon": -76.99485083333333, "name": "189de937d79869ac720084bd60bff7f3"}, {"bike_id": "bb97fe85967478eaa10bf34e9f57d06d", "type": "electric_scooter", "is_disabled": 0, "lat": 38.87200633333333, "rental_uris": {"ios": "https://dc.lft.to/lastmile_qr_scan", "android": "https://dc.lft.to/lastmile_qr_scan"}, "is_reserved": 0, "fusion_lon": 0.0, "fusion_lat": 0.0, "lon": -77.00932616666667, "name": "bb97fe85967478eaa10bf34e9f57d06d"}, {"bike_id": "460517b461d2bea4509dad3b0a66cc1a", "type": "electric_scooter", "is_disabled": 0, "lat": 38.90150283333333, "rental_uris": {"ios": "https://dc.lft.to/lastmile_qr_scan", "android": "https://dc.lft.to/lastmile_qr_scan"}, "is_reserved": 0, "fusion_lon": 0.0, "fusion_lat": 0.0, "lon": -76.93060883333334, "name": "460517b461d2bea4509dad3b0a66cc1a"}, {"bike_id": "a1cb69cf3a671d0f799e19fb42025de6", "type": "electric_scooter", "is_disabled": 0, "lat": 38.9389025, "rental_uris": {"ios": "https://dc.lft.to/lastmile_qr_scan", "android": "https://dc.lft.to/lastmile_qr_scan"}, "is_reserved": 0, "fusion_lon": 0.0, "fusion_lat": 0.0, "lon": -77.02492133333334, "name": "a1cb69cf3a671d0f799e19fb42025de6"}, {"bike_id": "fb8565c4cb07f94a3ea647e219b9cc48", "type": "electric_bike", "is_disabled": 0, "lat": 39.06294, "rental_uris": {"ios": "https://dc.lft.to/lastmile_qr_scan", "android": "https://dc.lft.to/lastmile_qr_scan"}, "is_reserved": 0, "fusion_lon": 0.0, "fusion_lat": 0.0, "lon": -77.0497795, "name": "fb8565c4cb07f94a3ea647e219b9cc48"}, {"bike_id": "bc226242ab0e9e9c287a43efe151ea2a", "type": "electric_scooter", "is_disabled": 0, "lat": 38.93846883333333, "rental_uris": {"ios": "https://dc.lft.to/lastmile_qr_scan", "android": "https://dc.lft.to/lastmile_qr_scan"}, "is_reserved": 0, "fusion_lon": 0.0, "fusion_lat": 0.0, "lon": -77.07232166666667, "name": "bc226242ab0e9e9c287a43efe151ea2a"}, {"bike_id": "6c668a971ab49cec5c3e11e8e0fff999", "type": "electric_scooter", "is_disabled": 0, "lat": 38.892263, "rental_uris": {"ios": "https://dc.lft.to/lastmile_qr_scan", "android": "https://dc.lft.to/lastmile_qr_scan"}, "is_reserved": 0, "fusion_lon": 0.0, "fusion_lat": 0.0, "lon": -77.02575616666667, "name": "6c668a971ab49cec5c3e11e8e0fff999"}, {"bike_id": "aaa006b7ed7ae91f700ead2ee8b455a6", "type": "electric_scooter", "is_disabled": 0, "lat": 38.90269333333333, "rental_uris": {"ios": "https://dc.lft.to/lastmile_qr_scan", "android": "https://dc.lft.to/lastmile_qr_scan"}, "is_reserved": 0, "fusion_lon": 0.0, "fusion_lat": 0.0, "lon": -77.0383435, "name": "aaa006b7ed7ae91f700ead2ee8b455a6"}, {"bike_id": "d3ba6094ce5219b3d0767fb8fab3407d", "type": "electric_scooter", "is_disabled": 0, "lat": 38.92324716666667, "rental_uris": {"ios": "https://dc.lft.to/lastmile_qr_scan", "android": "https://dc.lft.to/lastmile_qr_scan"}, "is_reserved": 0, "fusion_lon": 0.0, "fusion_lat": 0.0, "lon": -77.03780233333333, "name": "d3ba6094ce5219b3d0767fb8fab3407d"}, {"bike_id": "af36262aca628e831cc30fb27fa300d0", "type": "electric_scooter", "is_disabled": 0, "lat": 38.90119716666667, "rental_uris": {"ios": "https://dc.lft.to/lastmile_qr_scan", "android": "https://dc.lft.to/lastmile_qr_scan"}, "is_reserved": 0, "fusion_lon": 0.0, "fusion_lat": 0.0, "lon": -76.92954766666666, "name": "af36262aca628e831cc30fb27fa300d0"}, {"bike_id": "a94433d5c8381b0b54d234bac140b172", "type": "electric_scooter", "is_disabled": 0, "lat": 38.902864, "rental_uris": {"ios": "https://dc.lft.to/lastmile_qr_scan", "android": "https://dc.lft.to/lastmile_qr_scan"}, "is_reserved": 0, "fusion_lon": 0.0, "fusion_lat": 0.0, "lon": -77.00334183333334, "name": "a94433d5c8381b0b54d234bac140b172"}, {"bike_id": "65efad189f961148fdb47666559e356d", "type": "electric_scooter", "is_disabled": 0, "lat": 38.873381333333334, "rental_uris": {"ios": "https://dc.lft.to/lastmile_qr_scan", "android": "https://dc.lft.to/lastmile_qr_scan"}, "is_reserved": 0, "fusion_lon": 0.0, "fusion_lat": 0.0, "lon": -76.96787416666666, "name": "65efad189f961148fdb47666559e356d"}, {"bike_id": "5100cdd616a97cf1eb08de330120cb2e", "type": "electric_bike", "is_disabled": 0, "lat": 38.973981333333334, "rental_uris": {"ios": "https://dc.lft.to/lastmile_qr_scan", "android": "https://dc.lft.to/lastmile_qr_scan"}, "is_reserved": 0, "fusion_lon": 0.0, "fusion_lat": 0.0, "lon": -77.06451233333334, "name": "5100cdd616a97cf1eb08de330120cb2e"}, {"bike_id": "78d580345dd3c74146a09614c016bd2b", "type": "electric_scooter", "is_disabled": 0, "lat": 38.91421066666667, "rental_uris": {"ios": "https://dc.lft.to/lastmile_qr_scan", "android": "https://dc.lft.to/lastmile_qr_scan"}, "is_reserved": 0, "fusion_lon": 0.0, "fusion_lat": 0.0, "lon": -77.01726616666667, "name": "78d580345dd3c74146a09614c016bd2b"}, {"bike_id": "6280afa35c6a76abed50bad839ca7ca2", "type": "electric_scooter", "is_disabled": 0, "lat": 38.956249166666666, "rental_uris": {"ios": "https://dc.lft.to/lastmile_qr_scan", "android": "https://dc.lft.to/lastmile_qr_scan"}, "is_reserved": 0, "fusion_lon": 0.0, "fusion_lat": 0.0, "lon": -77.03619416666666, "name": "6280afa35c6a76abed50bad839ca7ca2"}, {"bike_id": "26f8470aebb2fffb509a19dcca3eabbc", "type": "electric_scooter", "is_disabled": 0, "lat": 38.898901, "rental_uris": {"ios": "https://dc.lft.to/lastmile_qr_scan", "android": "https://dc.lft.to/lastmile_qr_scan"}, "is_reserved": 0, "fusion_lon": 0.0, "fusion_lat": 0.0, "lon": -77.03919883333333, "name": "26f8470aebb2fffb509a19dcca3eabbc"}, {"bike_id": "1d09de33dcba835e12038eca93b90ff2", "type": "electric_bike", "is_disabled": 0, "lat": 38.857629833333334, "rental_uris": {"ios": "https://dc.lft.to/lastmile_qr_scan", "android": "https://dc.lft.to/lastmile_qr_scan"}, "is_reserved": 0, "fusion_lon": 0.0, "fusion_lat": 0.0, "lon": -77.02181483333334, "name": "1d09de33dcba835e12038eca93b90ff2"}, {"bike_id": "ee3770fa4284f5875813a5936bb45b6c", "type": "electric_scooter", "is_disabled": 0, "lat": 38.910513333333334, "rental_uris": {"ios": "https://dc.lft.to/lastmile_qr_scan", "android": "https://dc.lft.to/lastmile_qr_scan"}, "is_reserved": 0, "fusion_lon": 0.0, "fusion_lat": 0.0, "lon": -77.04342033333333, "name": "ee3770fa4284f5875813a5936bb45b6c"}, {"bike_id": "e6bd5c9d242e8fdeb20c6b8f5d780b24", "type": "electric_scooter", "is_disabled": 0, "lat": 38.8717795, "rental_uris": {"ios": "https://dc.lft.to/lastmile_qr_scan", "android": "https://dc.lft.to/lastmile_qr_scan"}, "is_reserved": 0, "fusion_lon": 0.0, "fusion_lat": 0.0, "lon": -77.00608316666667, "name": "e6bd5c9d242e8fdeb20c6b8f5d780b24"}, {"bike_id": "fb2f5c9e6077b7a2b845f68c74fc98b0", "type": "electric_scooter", "is_disabled": 0, "lat": 38.937588166666664, "rental_uris": {"ios": "https://dc.lft.to/lastmile_qr_scan", "android": "https://dc.lft.to/lastmile_qr_scan"}, "is_reserved": 0, "fusion_lon": 0.0, "fusion_lat": 0.0, "lon": -77.0247865, "name": "fb2f5c9e6077b7a2b845f68c74fc98b0"}, {"bike_id": "2d289730b0180139b149918a339ab979", "type": "electric_scooter", "is_disabled": 0, "lat": 38.87918116666667, "rental_uris": {"ios": "https://dc.lft.to/lastmile_qr_scan", "android": "https://dc.lft.to/lastmile_qr_scan"}, "is_reserved": 0, "fusion_lon": 0.0, "fusion_lat": 0.0, "lon": -77.0088385, "name": "2d289730b0180139b149918a339ab979"}, {"bike_id": "6992829a3d5b03e08d66dfeaa69b7d77", "type": "electric_scooter", "is_disabled": 0, "lat": 38.92366766666667, "rental_uris": {"ios": "https://dc.lft.to/lastmile_qr_scan", "android": "https://dc.lft.to/lastmile_qr_scan"}, "is_reserved": 0, "fusion_lon": 0.0, "fusion_lat": 0.0, "lon": -77.051299, "name": "6992829a3d5b03e08d66dfeaa69b7d77"}, {"bike_id": "0afff3d969c0b7d3c56ad613148277f2", "type": "electric_scooter", "is_disabled": 0, "lat": 38.90541316666667, "rental_uris": {"ios": "https://dc.lft.to/lastmile_qr_scan", "android": "https://dc.lft.to/lastmile_qr_scan"}, "is_reserved": 0, "fusion_lon": 0.0, "fusion_lat": 0.0, "lon": -77.05697683333334, "name": "0afff3d969c0b7d3c56ad613148277f2"}, {"bike_id": "184224910b6bde37006b1da55a810237", "type": "electric_scooter", "is_disabled": 0, "lat": 38.950184666666665, "rental_uris": {"ios": "https://dc.lft.to/lastmile_qr_scan", "android": "https://dc.lft.to/lastmile_qr_scan"}, "is_reserved": 0, "fusion_lon": 0.0, "fusion_lat": 0.0, "lon": -77.008775, "name": "184224910b6bde37006b1da55a810237"}, {"bike_id": "462ef80e6c084e76976c323aa03fbcdb", "type": "electric_bike", "is_disabled": 0, "lat": 38.84528383333333, "rental_uris": {"ios": "https://dc.lft.to/lastmile_qr_scan", "android": "https://dc.lft.to/lastmile_qr_scan"}, "is_reserved": 0, "fusion_lon": 0.0, "fusion_lat": 0.0, "lon": -76.97399233333333, "name": "462ef80e6c084e76976c323aa03fbcdb"}, {"bike_id": "2179b62f7bcee05d82825509b631216e", "type": "electric_scooter", "is_disabled": 0, "lat": 38.92393966666667, "rental_uris": {"ios": "https://dc.lft.to/lastmile_qr_scan", "android": "https://dc.lft.to/lastmile_qr_scan"}, "is_reserved": 0, "fusion_lon": 0.0, "fusion_lat": 0.0, "lon": -77.04093333333333, "name": "2179b62f7bcee05d82825509b631216e"}, {"bike_id": "8c3182bc5d6b4f1743f908d2b158c399", "type": "electric_scooter", "is_disabled": 0, "lat": 38.92320566666667, "rental_uris": {"ios": "https://dc.lft.to/lastmile_qr_scan", "android": "https://dc.lft.to/lastmile_qr_scan"}, "is_reserved": 0, "fusion_lon": 0.0, "fusion_lat": 0.0, "lon": -77.02144516666667, "name": "8c3182bc5d6b4f1743f908d2b158c399"}, {"bike_id": "d209df9a3864914d1a425dad9bbba8d9", "type": "electric_scooter", "is_disabled": 0, "lat": 38.932139166666666, "rental_uris": {"ios": "https://dc.lft.to/lastmile_qr_scan", "android": "https://dc.lft.to/lastmile_qr_scan"}, "is_reserved": 0, "fusion_lon": 0.0, "fusion_lat": 0.0, "lon": -77.035136, "name": "d209df9a3864914d1a425dad9bbba8d9"}, {"bike_id": "5c7224c0c0596ee4c2fedc9d459ca8d4", "type": "electric_scooter", "is_disabled": 0, "lat": 38.898526833333335, "rental_uris": {"ios": "https://dc.lft.to/lastmile_qr_scan", "android": "https://dc.lft.to/lastmile_qr_scan"}, "is_reserved": 0, "fusion_lon": 0.0, "fusion_lat": 0.0, "lon": -77.04078633333333, "name": "5c7224c0c0596ee4c2fedc9d459ca8d4"}, {"bike_id": "05563149921f6bdef65a6c05c774b778", "type": "electric_scooter", "is_disabled": 0, "lat": 38.92876966666667, "rental_uris": {"ios": "https://dc.lft.to/lastmile_qr_scan", "android": "https://dc.lft.to/lastmile_qr_scan"}, "is_reserved": 0, "fusion_lon": 0.0, "fusion_lat": 0.0, "lon": -77.0327855, "name": "05563149921f6bdef65a6c05c774b778"}, {"bike_id": "70c4cdc73f46a4e2fd57f855af656bc6", "type": "electric_scooter", "is_disabled": 0, "lat": 38.887639, "rental_uris": {"ios": "https://dc.lft.to/lastmile_qr_scan", "android": "https://dc.lft.to/lastmile_qr_scan"}, "is_reserved": 0, "fusion_lon": 0.0, "fusion_lat": 0.0, "lon": -76.95598166666667, "name": "70c4cdc73f46a4e2fd57f855af656bc6"}, {"bike_id": "dbd7aab8687a1a21c9df2c8c43716650", "type": "electric_scooter", "is_disabled": 0, "lat": 38.892207, "rental_uris": {"ios": "https://dc.lft.to/lastmile_qr_scan", "android": "https://dc.lft.to/lastmile_qr_scan"}, "is_reserved": 0, "fusion_lon": 0.0, "fusion_lat": 0.0, "lon": -77.017292, "name": "dbd7aab8687a1a21c9df2c8c43716650"}, {"bike_id": "d805e17d7d944ea154286498155537ce", "type": "electric_scooter", "is_disabled": 0, "lat": 38.910352, "rental_uris": {"ios": "https://dc.lft.to/lastmile_qr_scan", "android": "https://dc.lft.to/lastmile_qr_scan"}, "is_reserved": 0, "fusion_lon": 0.0, "fusion_lat": 0.0, "lon": -77.0380065, "name": "d805e17d7d944ea154286498155537ce"}, {"bike_id": "c0815fc54f623315ebf33aeda4b6798d", "type": "electric_bike", "is_disabled": 0, "lat": 38.924555166666664, "rental_uris": {"ios": "https://dc.lft.to/lastmile_qr_scan", "android": "https://dc.lft.to/lastmile_qr_scan"}, "is_reserved": 0, "fusion_lon": 0.0, "fusion_lat": 0.0, "lon": -77.2256235, "name": "c0815fc54f623315ebf33aeda4b6798d"}, {"bike_id": "9c5a2f3b544734311a16316328fd76a4", "type": "electric_scooter", "is_disabled": 0, "lat": 38.935434666666666, "rental_uris": {"ios": "https://dc.lft.to/lastmile_qr_scan", "android": "https://dc.lft.to/lastmile_qr_scan"}, "is_reserved": 0, "fusion_lon": 0.0, "fusion_lat": 0.0, "lon": -77.05821283333333, "name": "9c5a2f3b544734311a16316328fd76a4"}, {"bike_id": "6a047cb9e1ee58400854d5823f662fd1", "type": "electric_bike", "is_disabled": 0, "lat": 38.836700666666665, "rental_uris": {"ios": "https://dc.lft.to/lastmile_qr_scan", "android": "https://dc.lft.to/lastmile_qr_scan"}, "is_reserved": 0, "fusion_lon": 0.0, "fusion_lat": 0.0, "lon": -76.99360533333333, "name": "6a047cb9e1ee58400854d5823f662fd1"}, {"bike_id": "6f7b5b35c603cd2577689873c5041eb9", "type": "electric_scooter", "is_disabled": 0, "lat": 38.90136183333333, "rental_uris": {"ios": "https://dc.lft.to/lastmile_qr_scan", "android": "https://dc.lft.to/lastmile_qr_scan"}, "is_reserved": 0, "fusion_lon": 0.0, "fusion_lat": 0.0, "lon": -77.02863, "name": "6f7b5b35c603cd2577689873c5041eb9"}, {"bike_id": "ead77456343171d208fd79719489cdd2", "type": "electric_scooter", "is_disabled": 0, "lat": 38.90278333333333, "rental_uris": {"ios": "https://dc.lft.to/lastmile_qr_scan", "android": "https://dc.lft.to/lastmile_qr_scan"}, "is_reserved": 0, "fusion_lon": 0.0, "fusion_lat": 0.0, "lon": -77.03463433333333, "name": "ead77456343171d208fd79719489cdd2"}, {"bike_id": "22c9de9c255d5b2df008046be17b88e4", "type": "electric_scooter", "is_disabled": 0, "lat": 38.934775333333334, "rental_uris": {"ios": "https://dc.lft.to/lastmile_qr_scan", "android": "https://dc.lft.to/lastmile_qr_scan"}, "is_reserved": 0, "fusion_lon": 0.0, "fusion_lat": 0.0, "lon": -77.0261005, "name": "22c9de9c255d5b2df008046be17b88e4"}, {"bike_id": "48679ceb32a0412752b50df7f2db8a6f", "type": "electric_scooter", "is_disabled": 0, "lat": 38.90077216666667, "rental_uris": {"ios": "https://dc.lft.to/lastmile_qr_scan", "android": "https://dc.lft.to/lastmile_qr_scan"}, "is_reserved": 0, "fusion_lon": 0.0, "fusion_lat": 0.0, "lon": -77.03092683333334, "name": "48679ceb32a0412752b50df7f2db8a6f"}, {"bike_id": "36619e191c2b23727971a2d7ec2f2b3f", "type": "electric_scooter", "is_disabled": 0, "lat": 38.914031, "rental_uris": {"ios": "https://dc.lft.to/lastmile_qr_scan", "android": "https://dc.lft.to/lastmile_qr_scan"}, "is_reserved": 0, "fusion_lon": 0.0, "fusion_lat": 0.0, "lon": -77.03144033333334, "name": "36619e191c2b23727971a2d7ec2f2b3f"}, {"bike_id": "57edf95a8da47a23ad40b33ee3876e96", "type": "electric_scooter", "is_disabled": 0, "lat": 38.912439, "rental_uris": {"ios": "https://dc.lft.to/lastmile_qr_scan", "android": "https://dc.lft.to/lastmile_qr_scan"}, "is_reserved": 0, "fusion_lon": 0.0, "fusion_lat": 0.0, "lon": -77.03859533333333, "name": "57edf95a8da47a23ad40b33ee3876e96"}, {"bike_id": "0402d9a3d0cbb57ad9bb266709982b62", "type": "electric_scooter", "is_disabled": 0, "lat": 38.92745583333333, "rental_uris": {"ios": "https://dc.lft.to/lastmile_qr_scan", "android": "https://dc.lft.to/lastmile_qr_scan"}, "is_reserved": 0, "fusion_lon": 0.0, "fusion_lat": 0.0, "lon": -77.03395783333333, "name": "0402d9a3d0cbb57ad9bb266709982b62"}, {"bike_id": "1429efded2fb7439a2d846280ba77862", "type": "electric_scooter", "is_disabled": 0, "lat": 38.89931766666667, "rental_uris": {"ios": "https://dc.lft.to/lastmile_qr_scan", "android": "https://dc.lft.to/lastmile_qr_scan"}, "is_reserved": 0, "fusion_lon": 0.0, "fusion_lat": 0.0, "lon": -77.04772766666666, "name": "1429efded2fb7439a2d846280ba77862"}, {"bike_id": "3cbe90f4b50e44850ab41cf3d1481bae", "type": "electric_scooter", "is_disabled": 0, "lat": 38.935242, "rental_uris": {"ios": "https://dc.lft.to/lastmile_qr_scan", "android": "https://dc.lft.to/lastmile_qr_scan"}, "is_reserved": 0, "fusion_lon": 0.0, "fusion_lat": 0.0, "lon": -77.03081133333333, "name": "3cbe90f4b50e44850ab41cf3d1481bae"}, {"bike_id": "46c6c80b6771af5be273778429a4c03b", "type": "electric_scooter", "is_disabled": 0, "lat": 38.9191245, "rental_uris": {"ios": "https://dc.lft.to/lastmile_qr_scan", "android": "https://dc.lft.to/lastmile_qr_scan"}, "is_reserved": 0, "fusion_lon": 0.0, "fusion_lat": 0.0, "lon": -77.031777, "name": "46c6c80b6771af5be273778429a4c03b"}, {"bike_id": "4e89b365ed059b4d6c8c72c93e6d5b5b", "type": "electric_scooter", "is_disabled": 0, "lat": 38.902731833333334, "rental_uris": {"ios": "https://dc.lft.to/lastmile_qr_scan", "android": "https://dc.lft.to/lastmile_qr_scan"}, "is_reserved": 0, "fusion_lon": 0.0, "fusion_lat": 0.0, "lon": -77.05804966666666, "name": "4e89b365ed059b4d6c8c72c93e6d5b5b"}, {"bike_id": "410d162112f41ba8385667265090a954", "type": "electric_scooter", "is_disabled": 0, "lat": 38.9363735, "rental_uris": {"ios": "https://dc.lft.to/lastmile_qr_scan", "android": "https://dc.lft.to/lastmile_qr_scan"}, "is_reserved": 0, "fusion_lon": 0.0, "fusion_lat": 0.0, "lon": -77.05884616666667, "name": "410d162112f41ba8385667265090a954"}, {"bike_id": "56de7ae5240b7da789a622b6b6a9c35a", "type": "electric_scooter", "is_disabled": 0, "lat": 38.87070116666666, "rental_uris": {"ios": "https://dc.lft.to/lastmile_qr_scan", "android": "https://dc.lft.to/lastmile_qr_scan"}, "is_reserved": 0, "fusion_lon": 0.0, "fusion_lat": 0.0, "lon": -76.98132466666667, "name": "56de7ae5240b7da789a622b6b6a9c35a"}, {"bike_id": "59b5af84478414483f1ec85763b4983b", "type": "electric_scooter", "is_disabled": 0, "lat": 38.93252366666667, "rental_uris": {"ios": "https://dc.lft.to/lastmile_qr_scan", "android": "https://dc.lft.to/lastmile_qr_scan"}, "is_reserved": 0, "fusion_lon": 0.0, "fusion_lat": 0.0, "lon": -77.02004166666667, "name": "59b5af84478414483f1ec85763b4983b"}, {"bike_id": "30312d7730a519966b377bcb5869ce55", "type": "electric_scooter", "is_disabled": 0, "lat": 38.92612316666667, "rental_uris": {"ios": "https://dc.lft.to/lastmile_qr_scan", "android": "https://dc.lft.to/lastmile_qr_scan"}, "is_reserved": 0, "fusion_lon": 0.0, "fusion_lat": 0.0, "lon": -77.02163166666666, "name": "30312d7730a519966b377bcb5869ce55"}, {"bike_id": "f26b4218ebb3acd8bfbd92263f731322", "type": "electric_scooter", "is_disabled": 0, "lat": 38.93310366666667, "rental_uris": {"ios": "https://dc.lft.to/lastmile_qr_scan", "android": "https://dc.lft.to/lastmile_qr_scan"}, "is_reserved": 0, "fusion_lon": 0.0, "fusion_lat": 0.0, "lon": -77.07238916666667, "name": "f26b4218ebb3acd8bfbd92263f731322"}, {"bike_id": "287d11203c29a01c8c05a3a44ecc0c89", "type": "electric_scooter", "is_disabled": 0, "lat": 38.9059435, "rental_uris": {"ios": "https://dc.lft.to/lastmile_qr_scan", "android": "https://dc.lft.to/lastmile_qr_scan"}, "is_reserved": 0, "fusion_lon": 0.0, "fusion_lat": 0.0, "lon": -77.04022283333333, "name": "287d11203c29a01c8c05a3a44ecc0c89"}, {"bike_id": "fe9057dd2b656a5afe5d2c71e761dd6b", "type": "electric_bike", "is_disabled": 0, "lat": 39.055033, "rental_uris": {"ios": "https://dc.lft.to/lastmile_qr_scan", "android": "https://dc.lft.to/lastmile_qr_scan"}, "is_reserved": 0, "fusion_lon": 0.0, "fusion_lat": 0.0, "lon": -77.04646116666666, "name": "fe9057dd2b656a5afe5d2c71e761dd6b"}, {"bike_id": "3b8f68cd538a02b378094bf40d71755a", "type": "electric_bike", "is_disabled": 0, "lat": 38.92966966666667, "rental_uris": {"ios": "https://dc.lft.to/lastmile_qr_scan", "android": "https://dc.lft.to/lastmile_qr_scan"}, "is_reserved": 0, "fusion_lon": 0.0, "fusion_lat": 0.0, "lon": -77.18564933333333, "name": "3b8f68cd538a02b378094bf40d71755a"}, {"bike_id": "e9ca612c27cf4cff90f56b4a34f0005d", "type": "electric_scooter", "is_disabled": 0, "lat": 38.909470166666665, "rental_uris": {"ios": "https://dc.lft.to/lastmile_qr_scan", "android": "https://dc.lft.to/lastmile_qr_scan"}, "is_reserved": 0, "fusion_lon": 0.0, "fusion_lat": 0.0, "lon": -77.03446, "name": "e9ca612c27cf4cff90f56b4a34f0005d"}, {"bike_id": "adcd343ad7aed9a1bec8d339fe1f6e50", "type": "electric_scooter", "is_disabled": 0, "lat": 38.900401, "rental_uris": {"ios": "https://dc.lft.to/lastmile_qr_scan", "android": "https://dc.lft.to/lastmile_qr_scan"}, "is_reserved": 0, "fusion_lon": 0.0, "fusion_lat": 0.0, "lon": -77.03660733333334, "name": "adcd343ad7aed9a1bec8d339fe1f6e50"}, {"bike_id": "60baffc82c88aa80ea46066ebba6f143", "type": "electric_scooter", "is_disabled": 0, "lat": 38.91074666666667, "rental_uris": {"ios": "https://dc.lft.to/lastmile_qr_scan", "android": "https://dc.lft.to/lastmile_qr_scan"}, "is_reserved": 0, "fusion_lon": 0.0, "fusion_lat": 0.0, "lon": -77.03853366666667, "name": "60baffc82c88aa80ea46066ebba6f143"}, {"bike_id": "ed2c7dceff428ef76847447e7fef6e1b", "type": "electric_scooter", "is_disabled": 0, "lat": 38.866845166666664, "rental_uris": {"ios": "https://dc.lft.to/lastmile_qr_scan", "android": "https://dc.lft.to/lastmile_qr_scan"}, "is_reserved": 0, "fusion_lon": 0.0, "fusion_lat": 0.0, "lon": -76.98576933333334, "name": "ed2c7dceff428ef76847447e7fef6e1b"}, {"bike_id": "0638ea41e8e94e323c933d4b8c054772", "type": "electric_scooter", "is_disabled": 0, "lat": 38.90564966666667, "rental_uris": {"ios": "https://dc.lft.to/lastmile_qr_scan", "android": "https://dc.lft.to/lastmile_qr_scan"}, "is_reserved": 0, "fusion_lon": 0.0, "fusion_lat": 0.0, "lon": -77.02835283333333, "name": "0638ea41e8e94e323c933d4b8c054772"}, {"bike_id": "09f6cbba57b2bd958e94ea072a2c4754", "type": "electric_scooter", "is_disabled": 0, "lat": 38.9246685, "rental_uris": {"ios": "https://dc.lft.to/lastmile_qr_scan", "android": "https://dc.lft.to/lastmile_qr_scan"}, "is_reserved": 0, "fusion_lon": 0.0, "fusion_lat": 0.0, "lon": -77.05206583333333, "name": "09f6cbba57b2bd958e94ea072a2c4754"}, {"bike_id": "3f2ddd8cf1caa0bb6d7cd4a581d921a4", "type": "electric_scooter", "is_disabled": 0, "lat": 38.87383066666666, "rental_uris": {"ios": "https://dc.lft.to/lastmile_qr_scan", "android": "https://dc.lft.to/lastmile_qr_scan"}, "is_reserved": 0, "fusion_lon": 0.0, "fusion_lat": 0.0, "lon": -77.0433375, "name": "3f2ddd8cf1caa0bb6d7cd4a581d921a4"}, {"bike_id": "d98420e314ae7a702a2545e64cc4a43a", "type": "electric_scooter", "is_disabled": 0, "lat": 38.88502016666666, "rental_uris": {"ios": "https://dc.lft.to/lastmile_qr_scan", "android": "https://dc.lft.to/lastmile_qr_scan"}, "is_reserved": 0, "fusion_lon": 0.0, "fusion_lat": 0.0, "lon": -77.0172875, "name": "d98420e314ae7a702a2545e64cc4a43a"}, {"bike_id": "d20a1cb413422e7badfe1fc8bc0f3f4d", "type": "electric_scooter", "is_disabled": 0, "lat": 38.866892666666665, "rental_uris": {"ios": "https://dc.lft.to/lastmile_qr_scan", "android": "https://dc.lft.to/lastmile_qr_scan"}, "is_reserved": 0, "fusion_lon": 0.0, "fusion_lat": 0.0, "lon": -76.98563416666667, "name": "d20a1cb413422e7badfe1fc8bc0f3f4d"}, {"bike_id": "dfbecb45ccbe99c9ee97ac1611b42363", "type": "electric_scooter", "is_disabled": 0, "lat": 38.88377766666667, "rental_uris": {"ios": "https://dc.lft.to/lastmile_qr_scan", "android": "https://dc.lft.to/lastmile_qr_scan"}, "is_reserved": 0, "fusion_lon": 0.0, "fusion_lat": 0.0, "lon": -77.02628083333333, "name": "dfbecb45ccbe99c9ee97ac1611b42363"}, {"bike_id": "34817f43f9aa62d8e04867bf34eeaa2f", "type": "electric_scooter", "is_disabled": 0, "lat": 38.87874766666667, "rental_uris": {"ios": "https://dc.lft.to/lastmile_qr_scan", "android": "https://dc.lft.to/lastmile_qr_scan"}, "is_reserved": 0, "fusion_lon": 0.0, "fusion_lat": 0.0, "lon": -77.00586733333333, "name": "34817f43f9aa62d8e04867bf34eeaa2f"}, {"bike_id": "2b3cec3199c199c6653777d96c85e1a5", "type": "electric_scooter", "is_disabled": 0, "lat": 38.90531433333334, "rental_uris": {"ios": "https://dc.lft.to/lastmile_qr_scan", "android": "https://dc.lft.to/lastmile_qr_scan"}, "is_reserved": 0, "fusion_lon": 0.0, "fusion_lat": 0.0, "lon": -77.05935816666667, "name": "2b3cec3199c199c6653777d96c85e1a5"}, {"bike_id": "ee83f5ee4be15eec6657545b8ff691f4", "type": "electric_scooter", "is_disabled": 0, "lat": 38.92025666666667, "rental_uris": {"ios": "https://dc.lft.to/lastmile_qr_scan", "android": "https://dc.lft.to/lastmile_qr_scan"}, "is_reserved": 0, "fusion_lon": 0.0, "fusion_lat": 0.0, "lon": -77.03124716666666, "name": "ee83f5ee4be15eec6657545b8ff691f4"}, {"bike_id": "6f2197c76c7ba34bbc6d06825e919c50", "type": "electric_scooter", "is_disabled": 0, "lat": 38.908484333333334, "rental_uris": {"ios": "https://dc.lft.to/lastmile_qr_scan", "android": "https://dc.lft.to/lastmile_qr_scan"}, "is_reserved": 0, "fusion_lon": 0.0, "fusion_lat": 0.0, "lon": -76.99797683333334, "name": "6f2197c76c7ba34bbc6d06825e919c50"}, {"bike_id": "0be8499007886cf5dcbb6a93a125ef6f", "type": "electric_scooter", "is_disabled": 0, "lat": 38.86373116666667, "rental_uris": {"ios": "https://dc.lft.to/lastmile_qr_scan", "android": "https://dc.lft.to/lastmile_qr_scan"}, "is_reserved": 0, "fusion_lon": 0.0, "fusion_lat": 0.0, "lon": -76.9906295, "name": "0be8499007886cf5dcbb6a93a125ef6f"}, {"bike_id": "458d00a65806b33f1558afef27817d4d", "type": "electric_scooter", "is_disabled": 0, "lat": 38.898436333333336, "rental_uris": {"ios": "https://dc.lft.to/lastmile_qr_scan", "android": "https://dc.lft.to/lastmile_qr_scan"}, "is_reserved": 0, "fusion_lon": 0.0, "fusion_lat": 0.0, "lon": -76.94632066666667, "name": "458d00a65806b33f1558afef27817d4d"}, {"bike_id": "678985661b29267f99b4d17427bb69d7", "type": "electric_scooter", "is_disabled": 0, "lat": 38.90352033333333, "rental_uris": {"ios": "https://dc.lft.to/lastmile_qr_scan", "android": "https://dc.lft.to/lastmile_qr_scan"}, "is_reserved": 0, "fusion_lon": 0.0, "fusion_lat": 0.0, "lon": -77.06026033333333, "name": "678985661b29267f99b4d17427bb69d7"}, {"bike_id": "7c3a45738081080af2fa30e9924be059", "type": "electric_scooter", "is_disabled": 0, "lat": 38.9284565, "rental_uris": {"ios": "https://dc.lft.to/lastmile_qr_scan", "android": "https://dc.lft.to/lastmile_qr_scan"}, "is_reserved": 0, "fusion_lon": 0.0, "fusion_lat": 0.0, "lon": -77.03291666666667, "name": "7c3a45738081080af2fa30e9924be059"}, {"bike_id": "9ef3c233e131f1c52074c7eac9315162", "type": "electric_bike", "is_disabled": 0, "lat": 38.8535935, "rental_uris": {"ios": "https://dc.lft.to/lastmile_qr_scan", "android": "https://dc.lft.to/lastmile_qr_scan"}, "is_reserved": 0, "fusion_lon": 0.0, "fusion_lat": 0.0, "lon": -77.134642, "name": "9ef3c233e131f1c52074c7eac9315162"}, {"bike_id": "8ee0dcfe946cfbc296fad9349c3a8395", "type": "electric_scooter", "is_disabled": 0, "lat": 38.89589483333334, "rental_uris": {"ios": "https://dc.lft.to/lastmile_qr_scan", "android": "https://dc.lft.to/lastmile_qr_scan"}, "is_reserved": 0, "fusion_lon": 0.0, "fusion_lat": 0.0, "lon": -77.00501133333333, "name": "8ee0dcfe946cfbc296fad9349c3a8395"}, {"bike_id": "0611bdf68d32be09ca1565be344bdb3c", "type": "electric_scooter", "is_disabled": 0, "lat": 38.91158083333333, "rental_uris": {"ios": "https://dc.lft.to/lastmile_qr_scan", "android": "https://dc.lft.to/lastmile_qr_scan"}, "is_reserved": 0, "fusion_lon": 0.0, "fusion_lat": 0.0, "lon": -77.02385183333334, "name": "0611bdf68d32be09ca1565be344bdb3c"}, {"bike_id": "5ac2c708c0fda366488a190e9bfb4a06", "type": "electric_scooter", "is_disabled": 0, "lat": 38.9429145, "rental_uris": {"ios": "https://dc.lft.to/lastmile_qr_scan", "android": "https://dc.lft.to/lastmile_qr_scan"}, "is_reserved": 0, "fusion_lon": 0.0, "fusion_lat": 0.0, "lon": -77.02164683333334, "name": "5ac2c708c0fda366488a190e9bfb4a06"}, {"bike_id": "1fbfe9509f9f028f9685faa474c9ce32", "type": "electric_scooter", "is_disabled": 0, "lat": 38.908699666666664, "rental_uris": {"ios": "https://dc.lft.to/lastmile_qr_scan", "android": "https://dc.lft.to/lastmile_qr_scan"}, "is_reserved": 0, "fusion_lon": 0.0, "fusion_lat": 0.0, "lon": -77.00263433333333, "name": "1fbfe9509f9f028f9685faa474c9ce32"}, {"bike_id": "9dcb146099c0d49d2626a393290e1234", "type": "electric_scooter", "is_disabled": 0, "lat": 38.90667933333334, "rental_uris": {"ios": "https://dc.lft.to/lastmile_qr_scan", "android": "https://dc.lft.to/lastmile_qr_scan"}, "is_reserved": 0, "fusion_lon": 0.0, "fusion_lat": 0.0, "lon": -77.02710916666666, "name": "9dcb146099c0d49d2626a393290e1234"}, {"bike_id": "c894b230fdced998afdcf819992d7009", "type": "electric_scooter", "is_disabled": 0, "lat": 38.91402983333333, "rental_uris": {"ios": "https://dc.lft.to/lastmile_qr_scan", "android": "https://dc.lft.to/lastmile_qr_scan"}, "is_reserved": 0, "fusion_lon": 0.0, "fusion_lat": 0.0, "lon": -77.03029166666667, "name": "c894b230fdced998afdcf819992d7009"}, {"bike_id": "b3026c4cd807bb505695bae9a24116ae", "type": "electric_scooter", "is_disabled": 0, "lat": 38.898491, "rental_uris": {"ios": "https://dc.lft.to/lastmile_qr_scan", "android": "https://dc.lft.to/lastmile_qr_scan"}, "is_reserved": 0, "fusion_lon": 0.0, "fusion_lat": 0.0, "lon": -77.0394015, "name": "b3026c4cd807bb505695bae9a24116ae"}, {"bike_id": "a3007027b1a96cd748f81ae49f3a050e", "type": "electric_scooter", "is_disabled": 0, "lat": 38.907730666666666, "rental_uris": {"ios": "https://dc.lft.to/lastmile_qr_scan", "android": "https://dc.lft.to/lastmile_qr_scan"}, "is_reserved": 0, "fusion_lon": 0.0, "fusion_lat": 0.0, "lon": -77.07130683333334, "name": "a3007027b1a96cd748f81ae49f3a050e"}, {"bike_id": "46b4b0c1277da5189736f534e85b9d6b", "type": "electric_scooter", "is_disabled": 0, "lat": 38.91691483333334, "rental_uris": {"ios": "https://dc.lft.to/lastmile_qr_scan", "android": "https://dc.lft.to/lastmile_qr_scan"}, "is_reserved": 0, "fusion_lon": 0.0, "fusion_lat": 0.0, "lon": -77.0377475, "name": "46b4b0c1277da5189736f534e85b9d6b"}, {"bike_id": "eaf8a811b28d8f7e33fe76c176bbe8a4", "type": "electric_scooter", "is_disabled": 0, "lat": 38.8922135, "rental_uris": {"ios": "https://dc.lft.to/lastmile_qr_scan", "android": "https://dc.lft.to/lastmile_qr_scan"}, "is_reserved": 0, "fusion_lon": 0.0, "fusion_lat": 0.0, "lon": -77.026309, "name": "eaf8a811b28d8f7e33fe76c176bbe8a4"}, {"bike_id": "421d1de1ce1c37005567ce95931d34b0", "type": "electric_scooter", "is_disabled": 0, "lat": 38.927468833333336, "rental_uris": {"ios": "https://dc.lft.to/lastmile_qr_scan", "android": "https://dc.lft.to/lastmile_qr_scan"}, "is_reserved": 0, "fusion_lon": 0.0, "fusion_lat": 0.0, "lon": -77.02532866666667, "name": "421d1de1ce1c37005567ce95931d34b0"}, {"bike_id": "8fb798638888451716382377409f39af", "type": "electric_scooter", "is_disabled": 0, "lat": 38.8800465, "rental_uris": {"ios": "https://dc.lft.to/lastmile_qr_scan", "android": "https://dc.lft.to/lastmile_qr_scan"}, "is_reserved": 0, "fusion_lon": 0.0, "fusion_lat": 0.0, "lon": -76.996121, "name": "8fb798638888451716382377409f39af"}, {"bike_id": "4a414c522a4abaf70c33c4b9f2c82b43", "type": "electric_scooter", "is_disabled": 0, "lat": 38.876578, "rental_uris": {"ios": "https://dc.lft.to/lastmile_qr_scan", "android": "https://dc.lft.to/lastmile_qr_scan"}, "is_reserved": 0, "fusion_lon": 0.0, "fusion_lat": 0.0, "lon": -76.99640366666667, "name": "4a414c522a4abaf70c33c4b9f2c82b43"}, {"bike_id": "0456db05782e43b8819d0a5a35dc3638", "type": "electric_scooter", "is_disabled": 0, "lat": 38.9196055, "rental_uris": {"ios": "https://dc.lft.to/lastmile_qr_scan", "android": "https://dc.lft.to/lastmile_qr_scan"}, "is_reserved": 0, "fusion_lon": 0.0, "fusion_lat": 0.0, "lon": -77.04238766666667, "name": "0456db05782e43b8819d0a5a35dc3638"}, {"bike_id": "d25970467820c36c5cfe2f987fb61022", "type": "electric_scooter", "is_disabled": 0, "lat": 38.93319266666666, "rental_uris": {"ios": "https://dc.lft.to/lastmile_qr_scan", "android": "https://dc.lft.to/lastmile_qr_scan"}, "is_reserved": 0, "fusion_lon": 0.0, "fusion_lat": 0.0, "lon": -77.02751283333333, "name": "d25970467820c36c5cfe2f987fb61022"}, {"bike_id": "e65184b41b1293be92da2c75c1115939", "type": "electric_scooter", "is_disabled": 0, "lat": 38.8874485, "rental_uris": {"ios": "https://dc.lft.to/lastmile_qr_scan", "android": "https://dc.lft.to/lastmile_qr_scan"}, "is_reserved": 0, "fusion_lon": 0.0, "fusion_lat": 0.0, "lon": -77.025724, "name": "e65184b41b1293be92da2c75c1115939"}, {"bike_id": "c03b5d136cd939d3cda87116d19d52f7", "type": "electric_scooter", "is_disabled": 0, "lat": 38.92079783333333, "rental_uris": {"ios": "https://dc.lft.to/lastmile_qr_scan", "android": "https://dc.lft.to/lastmile_qr_scan"}, "is_reserved": 0, "fusion_lon": 0.0, "fusion_lat": 0.0, "lon": -77.01674833333334, "name": "c03b5d136cd939d3cda87116d19d52f7"}, {"bike_id": "2c10b791b8257a20b60d9f22fe7fb743", "type": "electric_scooter", "is_disabled": 0, "lat": 38.899908333333336, "rental_uris": {"ios": "https://dc.lft.to/lastmile_qr_scan", "android": "https://dc.lft.to/lastmile_qr_scan"}, "is_reserved": 0, "fusion_lon": 0.0, "fusion_lat": 0.0, "lon": -77.02094666666666, "name": "2c10b791b8257a20b60d9f22fe7fb743"}, {"bike_id": "e98bda2bb4219fe163183a7a8fedd175", "type": "electric_bike", "is_disabled": 0, "lat": 39.05104033333333, "rental_uris": {"ios": "https://dc.lft.to/lastmile_qr_scan", "android": "https://dc.lft.to/lastmile_qr_scan"}, "is_reserved": 0, "fusion_lon": 0.0, "fusion_lat": 0.0, "lon": -77.117372, "name": "e98bda2bb4219fe163183a7a8fedd175"}, {"bike_id": "78d8a585c0d4ff598a094276d42501cc", "type": "electric_scooter", "is_disabled": 0, "lat": 38.92231316666667, "rental_uris": {"ios": "https://dc.lft.to/lastmile_qr_scan", "android": "https://dc.lft.to/lastmile_qr_scan"}, "is_reserved": 0, "fusion_lon": 0.0, "fusion_lat": 0.0, "lon": -76.97532083333333, "name": "78d8a585c0d4ff598a094276d42501cc"}, {"bike_id": "b4a7455692a51d95e726c5b4e7d03177", "type": "electric_scooter", "is_disabled": 0, "lat": 38.903905, "rental_uris": {"ios": "https://dc.lft.to/lastmile_qr_scan", "android": "https://dc.lft.to/lastmile_qr_scan"}, "is_reserved": 0, "fusion_lon": 0.0, "fusion_lat": 0.0, "lon": -77.04033233333334, "name": "b4a7455692a51d95e726c5b4e7d03177"}, {"bike_id": "63ff3fb10c7ff91d28558e78cf108480", "type": "electric_scooter", "is_disabled": 0, "lat": 38.889178666666666, "rental_uris": {"ios": "https://dc.lft.to/lastmile_qr_scan", "android": "https://dc.lft.to/lastmile_qr_scan"}, "is_reserved": 0, "fusion_lon": 0.0, "fusion_lat": 0.0, "lon": -76.99133833333333, "name": "63ff3fb10c7ff91d28558e78cf108480"}, {"bike_id": "d0aba3916d6385743e487fa42c2342e2", "type": "electric_scooter", "is_disabled": 0, "lat": 38.917186, "rental_uris": {"ios": "https://dc.lft.to/lastmile_qr_scan", "android": "https://dc.lft.to/lastmile_qr_scan"}, "is_reserved": 0, "fusion_lon": 0.0, "fusion_lat": 0.0, "lon": -77.041537, "name": "d0aba3916d6385743e487fa42c2342e2"}, {"bike_id": "20579c220048f939203f901813412003", "type": "electric_scooter", "is_disabled": 0, "lat": 38.928967166666666, "rental_uris": {"ios": "https://dc.lft.to/lastmile_qr_scan", "android": "https://dc.lft.to/lastmile_qr_scan"}, "is_reserved": 0, "fusion_lon": 0.0, "fusion_lat": 0.0, "lon": -77.0327705, "name": "20579c220048f939203f901813412003"}, {"bike_id": "6d146409ce1e2500a5d4e8c812bb6f78", "type": "electric_scooter", "is_disabled": 0, "lat": 38.907784, "rental_uris": {"ios": "https://dc.lft.to/lastmile_qr_scan", "android": "https://dc.lft.to/lastmile_qr_scan"}, "is_reserved": 0, "fusion_lon": 0.0, "fusion_lat": 0.0, "lon": -77.07133133333333, "name": "6d146409ce1e2500a5d4e8c812bb6f78"}, {"bike_id": "c6bff958b3304e54430f5a77ca0240bb", "type": "electric_bike", "is_disabled": 0, "lat": 38.83817483333333, "rental_uris": {"ios": "https://dc.lft.to/lastmile_qr_scan", "android": "https://dc.lft.to/lastmile_qr_scan"}, "is_reserved": 0, "fusion_lon": 0.0, "fusion_lat": 0.0, "lon": -77.00279316666666, "name": "c6bff958b3304e54430f5a77ca0240bb"}, {"bike_id": "246e454760533aaec80b6e2965a6af26", "type": "electric_scooter", "is_disabled": 0, "lat": 38.9060335, "rental_uris": {"ios": "https://dc.lft.to/lastmile_qr_scan", "android": "https://dc.lft.to/lastmile_qr_scan"}, "is_reserved": 0, "fusion_lon": 0.0, "fusion_lat": 0.0, "lon": -77.02109416666667, "name": "246e454760533aaec80b6e2965a6af26"}, {"bike_id": "1c06bb3f137c64eeaf94795ed8813de9", "type": "electric_scooter", "is_disabled": 0, "lat": 38.925464166666664, "rental_uris": {"ios": "https://dc.lft.to/lastmile_qr_scan", "android": "https://dc.lft.to/lastmile_qr_scan"}, "is_reserved": 0, "fusion_lon": 0.0, "fusion_lat": 0.0, "lon": -77.04119966666667, "name": "1c06bb3f137c64eeaf94795ed8813de9"}, {"bike_id": "90eb2f363d5ebfe3d01e04f3a764798f", "type": "electric_scooter", "is_disabled": 0, "lat": 38.89878866666667, "rental_uris": {"ios": "https://dc.lft.to/lastmile_qr_scan", "android": "https://dc.lft.to/lastmile_qr_scan"}, "is_reserved": 0, "fusion_lon": 0.0, "fusion_lat": 0.0, "lon": -76.9769545, "name": "90eb2f363d5ebfe3d01e04f3a764798f"}, {"bike_id": "f8fa07401ece9b1906b674247b993274", "type": "electric_scooter", "is_disabled": 0, "lat": 38.88402716666667, "rental_uris": {"ios": "https://dc.lft.to/lastmile_qr_scan", "android": "https://dc.lft.to/lastmile_qr_scan"}, "is_reserved": 0, "fusion_lon": 0.0, "fusion_lat": 0.0, "lon": -77.02611733333333, "name": "f8fa07401ece9b1906b674247b993274"}, {"bike_id": "70a8ac80492d9701fe8fd5dd9df1542e", "type": "electric_scooter", "is_disabled": 0, "lat": 38.905747166666664, "rental_uris": {"ios": "https://dc.lft.to/lastmile_qr_scan", "android": "https://dc.lft.to/lastmile_qr_scan"}, "is_reserved": 0, "fusion_lon": 0.0, "fusion_lat": 0.0, "lon": -77.02606216666666, "name": "70a8ac80492d9701fe8fd5dd9df1542e"}, {"bike_id": "fc551d98b8a0e1325f81d58e07bd0e73", "type": "electric_scooter", "is_disabled": 0, "lat": 38.91344483333334, "rental_uris": {"ios": "https://dc.lft.to/lastmile_qr_scan", "android": "https://dc.lft.to/lastmile_qr_scan"}, "is_reserved": 0, "fusion_lon": 0.0, "fusion_lat": 0.0, "lon": -77.03175466666667, "name": "fc551d98b8a0e1325f81d58e07bd0e73"}, {"bike_id": "5066dad6ae986d8da84487fb3352e3f4", "type": "electric_bike", "is_disabled": 0, "lat": 38.95105066666667, "rental_uris": {"ios": "https://dc.lft.to/lastmile_qr_scan", "android": "https://dc.lft.to/lastmile_qr_scan"}, "is_reserved": 0, "fusion_lon": 0.0, "fusion_lat": 0.0, "lon": -77.05515166666666, "name": "5066dad6ae986d8da84487fb3352e3f4"}, {"bike_id": "95c8f03dddef2a8984cda79d00e02a02", "type": "electric_scooter", "is_disabled": 0, "lat": 38.90726216666667, "rental_uris": {"ios": "https://dc.lft.to/lastmile_qr_scan", "android": "https://dc.lft.to/lastmile_qr_scan"}, "is_reserved": 0, "fusion_lon": 0.0, "fusion_lat": 0.0, "lon": -77.024959, "name": "95c8f03dddef2a8984cda79d00e02a02"}, {"bike_id": "025b6e6b162efb3ebb02d05461c41699", "type": "electric_scooter", "is_disabled": 0, "lat": 38.92345266666667, "rental_uris": {"ios": "https://dc.lft.to/lastmile_qr_scan", "android": "https://dc.lft.to/lastmile_qr_scan"}, "is_reserved": 0, "fusion_lon": 0.0, "fusion_lat": 0.0, "lon": -77.04195333333334, "name": "025b6e6b162efb3ebb02d05461c41699"}, {"bike_id": "00a120bbc3bbac9aa4f5817c1554af85", "type": "electric_scooter", "is_disabled": 0, "lat": 38.93246233333333, "rental_uris": {"ios": "https://dc.lft.to/lastmile_qr_scan", "android": "https://dc.lft.to/lastmile_qr_scan"}, "is_reserved": 0, "fusion_lon": 0.0, "fusion_lat": 0.0, "lon": -77.03852466666666, "name": "00a120bbc3bbac9aa4f5817c1554af85"}, {"bike_id": "de08b50dec5e2800e036ed392f898c66", "type": "electric_bike", "is_disabled": 0, "lat": 38.92547033333334, "rental_uris": {"ios": "https://dc.lft.to/lastmile_qr_scan", "android": "https://dc.lft.to/lastmile_qr_scan"}, "is_reserved": 0, "fusion_lon": 0.0, "fusion_lat": 0.0, "lon": -77.05754633333333, "name": "de08b50dec5e2800e036ed392f898c66"}, {"bike_id": "81e2ddb12b6f94b66bf3e9fa57c05c7d", "type": "electric_bike", "is_disabled": 0, "lat": 38.95406533333333, "rental_uris": {"ios": "https://dc.lft.to/lastmile_qr_scan", "android": "https://dc.lft.to/lastmile_qr_scan"}, "is_reserved": 0, "fusion_lon": 0.0, "fusion_lat": 0.0, "lon": -76.980466, "name": "81e2ddb12b6f94b66bf3e9fa57c05c7d"}, {"bike_id": "687cfd6d7d660eaa1dc7b47139249a62", "type": "electric_scooter", "is_disabled": 0, "lat": 38.9241495, "rental_uris": {"ios": "https://dc.lft.to/lastmile_qr_scan", "android": "https://dc.lft.to/lastmile_qr_scan"}, "is_reserved": 0, "fusion_lon": 0.0, "fusion_lat": 0.0, "lon": -77.04461983333333, "name": "687cfd6d7d660eaa1dc7b47139249a62"}, {"bike_id": "c35ad0ea5e96d22ac38d68752f95f3f2", "type": "electric_scooter", "is_disabled": 0, "lat": 38.910320166666665, "rental_uris": {"ios": "https://dc.lft.to/lastmile_qr_scan", "android": "https://dc.lft.to/lastmile_qr_scan"}, "is_reserved": 0, "fusion_lon": 0.0, "fusion_lat": 0.0, "lon": -77.03836966666667, "name": "c35ad0ea5e96d22ac38d68752f95f3f2"}, {"bike_id": "17177cb0f484ba3bdf569ba0037bd104", "type": "electric_scooter", "is_disabled": 0, "lat": 38.929028833333334, "rental_uris": {"ios": "https://dc.lft.to/lastmile_qr_scan", "android": "https://dc.lft.to/lastmile_qr_scan"}, "is_reserved": 0, "fusion_lon": 0.0, "fusion_lat": 0.0, "lon": -77.03254333333334, "name": "17177cb0f484ba3bdf569ba0037bd104"}, {"bike_id": "95390b2b741e5dde07eef2380cabe1b1", "type": "electric_scooter", "is_disabled": 0, "lat": 38.9176065, "rental_uris": {"ios": "https://dc.lft.to/lastmile_qr_scan", "android": "https://dc.lft.to/lastmile_qr_scan"}, "is_reserved": 0, "fusion_lon": 0.0, "fusion_lat": 0.0, "lon": -77.02810066666666, "name": "95390b2b741e5dde07eef2380cabe1b1"}, {"bike_id": "57e160b5643194a2096cf6082b6344d6", "type": "electric_bike", "is_disabled": 0, "lat": 38.87882233333333, "rental_uris": {"ios": "https://dc.lft.to/lastmile_qr_scan", "android": "https://dc.lft.to/lastmile_qr_scan"}, "is_reserved": 0, "fusion_lon": 0.0, "fusion_lat": 0.0, "lon": -77.09616216666667, "name": "57e160b5643194a2096cf6082b6344d6"}, {"bike_id": "fe9661dc98f10d490b33899c17fb939e", "type": "electric_scooter", "is_disabled": 0, "lat": 38.9049895, "rental_uris": {"ios": "https://dc.lft.to/lastmile_qr_scan", "android": "https://dc.lft.to/lastmile_qr_scan"}, "is_reserved": 0, "fusion_lon": 0.0, "fusion_lat": 0.0, "lon": -77.02002616666667, "name": "fe9661dc98f10d490b33899c17fb939e"}, {"bike_id": "7791c9536b6f016bcac2c53264ea9e51", "type": "electric_scooter", "is_disabled": 0, "lat": 38.927781333333336, "rental_uris": {"ios": "https://dc.lft.to/lastmile_qr_scan", "android": "https://dc.lft.to/lastmile_qr_scan"}, "is_reserved": 0, "fusion_lon": 0.0, "fusion_lat": 0.0, "lon": -77.02851433333333, "name": "7791c9536b6f016bcac2c53264ea9e51"}, {"bike_id": "99fb672b29294a9378b3df45c8ec039d", "type": "electric_scooter", "is_disabled": 0, "lat": 38.897906666666664, "rental_uris": {"ios": "https://dc.lft.to/lastmile_qr_scan", "android": "https://dc.lft.to/lastmile_qr_scan"}, "is_reserved": 0, "fusion_lon": 0.0, "fusion_lat": 0.0, "lon": -77.03343766666667, "name": "99fb672b29294a9378b3df45c8ec039d"}, {"bike_id": "b202761df92b077260fcd962c01248bf", "type": "electric_scooter", "is_disabled": 0, "lat": 38.906841666666665, "rental_uris": {"ios": "https://dc.lft.to/lastmile_qr_scan", "android": "https://dc.lft.to/lastmile_qr_scan"}, "is_reserved": 0, "fusion_lon": 0.0, "fusion_lat": 0.0, "lon": -77.02695133333333, "name": "b202761df92b077260fcd962c01248bf"}, {"bike_id": "21d90e2bc592470ec8f5bf67a2fe830c", "type": "electric_scooter", "is_disabled": 0, "lat": 38.91572383333333, "rental_uris": {"ios": "https://dc.lft.to/lastmile_qr_scan", "android": "https://dc.lft.to/lastmile_qr_scan"}, "is_reserved": 0, "fusion_lon": 0.0, "fusion_lat": 0.0, "lon": -77.01999533333333, "name": "21d90e2bc592470ec8f5bf67a2fe830c"}, {"bike_id": "8da5441334c1e3478086b19646b6ddff", "type": "electric_scooter", "is_disabled": 0, "lat": 38.923632833333336, "rental_uris": {"ios": "https://dc.lft.to/lastmile_qr_scan", "android": "https://dc.lft.to/lastmile_qr_scan"}, "is_reserved": 0, "fusion_lon": 0.0, "fusion_lat": 0.0, "lon": -77.02537, "name": "8da5441334c1e3478086b19646b6ddff"}, {"bike_id": "115ceab738bce01f11fe53704dcd6d1f", "type": "electric_scooter", "is_disabled": 0, "lat": 38.951508, "rental_uris": {"ios": "https://dc.lft.to/lastmile_qr_scan", "android": "https://dc.lft.to/lastmile_qr_scan"}, "is_reserved": 0, "fusion_lon": 0.0, "fusion_lat": 0.0, "lon": -77.01868183333333, "name": "115ceab738bce01f11fe53704dcd6d1f"}, {"bike_id": "eaf61c1922488aaf34231b24935a45f5", "type": "electric_scooter", "is_disabled": 0, "lat": 38.904146833333336, "rental_uris": {"ios": "https://dc.lft.to/lastmile_qr_scan", "android": "https://dc.lft.to/lastmile_qr_scan"}, "is_reserved": 0, "fusion_lon": 0.0, "fusion_lat": 0.0, "lon": -76.97331433333333, "name": "eaf61c1922488aaf34231b24935a45f5"}, {"bike_id": "a4a510375a6a602fbbc61e1dc632e0a2", "type": "electric_scooter", "is_disabled": 0, "lat": 38.906495, "rental_uris": {"ios": "https://dc.lft.to/lastmile_qr_scan", "android": "https://dc.lft.to/lastmile_qr_scan"}, "is_reserved": 0, "fusion_lon": 0.0, "fusion_lat": 0.0, "lon": -77.024994, "name": "a4a510375a6a602fbbc61e1dc632e0a2"}, {"bike_id": "9e7df2474dd5de7b9410d044a24e331b", "type": "electric_bike", "is_disabled": 0, "lat": 38.8961385, "rental_uris": {"ios": "https://dc.lft.to/lastmile_qr_scan", "android": "https://dc.lft.to/lastmile_qr_scan"}, "is_reserved": 0, "fusion_lon": 0.0, "fusion_lat": 0.0, "lon": -77.02935333333333, "name": "9e7df2474dd5de7b9410d044a24e331b"}, {"bike_id": "53f1e9d8ec530c83555e7d6b9295babe", "type": "electric_scooter", "is_disabled": 0, "lat": 38.9181815, "rental_uris": {"ios": "https://dc.lft.to/lastmile_qr_scan", "android": "https://dc.lft.to/lastmile_qr_scan"}, "is_reserved": 0, "fusion_lon": 0.0, "fusion_lat": 0.0, "lon": -77.04000266666667, "name": "53f1e9d8ec530c83555e7d6b9295babe"}, {"bike_id": "10060943f16cd12b02e26084a5a6790a", "type": "electric_scooter", "is_disabled": 0, "lat": 38.905591333333334, "rental_uris": {"ios": "https://dc.lft.to/lastmile_qr_scan", "android": "https://dc.lft.to/lastmile_qr_scan"}, "is_reserved": 0, "fusion_lon": 0.0, "fusion_lat": 0.0, "lon": -77.02212333333334, "name": "10060943f16cd12b02e26084a5a6790a"}, {"bike_id": "a01e8e9bcef5318ca3a5941409b31434", "type": "electric_scooter", "is_disabled": 0, "lat": 38.921675666666665, "rental_uris": {"ios": "https://dc.lft.to/lastmile_qr_scan", "android": "https://dc.lft.to/lastmile_qr_scan"}, "is_reserved": 0, "fusion_lon": 0.0, "fusion_lat": 0.0, "lon": -77.01930433333334, "name": "a01e8e9bcef5318ca3a5941409b31434"}, {"bike_id": "51809e3ad010368db731f99592070006", "type": "electric_scooter", "is_disabled": 0, "lat": 38.91708116666667, "rental_uris": {"ios": "https://dc.lft.to/lastmile_qr_scan", "android": "https://dc.lft.to/lastmile_qr_scan"}, "is_reserved": 0, "fusion_lon": 0.0, "fusion_lat": 0.0, "lon": -77.09576866666667, "name": "51809e3ad010368db731f99592070006"}, {"bike_id": "08491bb25ef1294fcab3cff80ecf77c4", "type": "electric_scooter", "is_disabled": 0, "lat": 38.92654433333333, "rental_uris": {"ios": "https://dc.lft.to/lastmile_qr_scan", "android": "https://dc.lft.to/lastmile_qr_scan"}, "is_reserved": 0, "fusion_lon": 0.0, "fusion_lat": 0.0, "lon": -76.99290316666666, "name": "08491bb25ef1294fcab3cff80ecf77c4"}, {"bike_id": "025cea0af1e9eab749e84793cd931a64", "type": "electric_scooter", "is_disabled": 0, "lat": 38.910358333333335, "rental_uris": {"ios": "https://dc.lft.to/lastmile_qr_scan", "android": "https://dc.lft.to/lastmile_qr_scan"}, "is_reserved": 0, "fusion_lon": 0.0, "fusion_lat": 0.0, "lon": -77.038387, "name": "025cea0af1e9eab749e84793cd931a64"}, {"bike_id": "5e998d20f8f540d027e22f14bfd9b866", "type": "electric_scooter", "is_disabled": 0, "lat": 38.923218, "rental_uris": {"ios": "https://dc.lft.to/lastmile_qr_scan", "android": "https://dc.lft.to/lastmile_qr_scan"}, "is_reserved": 0, "fusion_lon": 0.0, "fusion_lat": 0.0, "lon": -77.02139533333333, "name": "5e998d20f8f540d027e22f14bfd9b866"}, {"bike_id": "fac39e912054faafe16f5e317d6ea982", "type": "electric_scooter", "is_disabled": 0, "lat": 38.871412166666666, "rental_uris": {"ios": "https://dc.lft.to/lastmile_qr_scan", "android": "https://dc.lft.to/lastmile_qr_scan"}, "is_reserved": 0, "fusion_lon": 0.0, "fusion_lat": 0.0, "lon": -77.0070235, "name": "fac39e912054faafe16f5e317d6ea982"}, {"bike_id": "645affd56a5781cd38ec8496695ab299", "type": "electric_scooter", "is_disabled": 0, "lat": 38.957366666666665, "rental_uris": {"ios": "https://dc.lft.to/lastmile_qr_scan", "android": "https://dc.lft.to/lastmile_qr_scan"}, "is_reserved": 0, "fusion_lon": 0.0, "fusion_lat": 0.0, "lon": -77.02404566666667, "name": "645affd56a5781cd38ec8496695ab299"}, {"bike_id": "5365af7044dbe4c67fd7af97febb938a", "type": "electric_scooter", "is_disabled": 0, "lat": 38.93918383333333, "rental_uris": {"ios": "https://dc.lft.to/lastmile_qr_scan", "android": "https://dc.lft.to/lastmile_qr_scan"}, "is_reserved": 0, "fusion_lon": 0.0, "fusion_lat": 0.0, "lon": -77.03260283333333, "name": "5365af7044dbe4c67fd7af97febb938a"}, {"bike_id": "d3871375c977f08d8f5a17201d9acaf3", "type": "electric_scooter", "is_disabled": 0, "lat": 38.92190183333334, "rental_uris": {"ios": "https://dc.lft.to/lastmile_qr_scan", "android": "https://dc.lft.to/lastmile_qr_scan"}, "is_reserved": 0, "fusion_lon": 0.0, "fusion_lat": 0.0, "lon": -77.02409716666666, "name": "d3871375c977f08d8f5a17201d9acaf3"}, {"bike_id": "bdf441a4e3c16619b33457f0303f86c9", "type": "electric_scooter", "is_disabled": 0, "lat": 38.892193, "rental_uris": {"ios": "https://dc.lft.to/lastmile_qr_scan", "android": "https://dc.lft.to/lastmile_qr_scan"}, "is_reserved": 0, "fusion_lon": 0.0, "fusion_lat": 0.0, "lon": -77.0244385, "name": "bdf441a4e3c16619b33457f0303f86c9"}, {"bike_id": "2e80d58f89797ce714c78d136097807c", "type": "electric_scooter", "is_disabled": 0, "lat": 38.9332215, "rental_uris": {"ios": "https://dc.lft.to/lastmile_qr_scan", "android": "https://dc.lft.to/lastmile_qr_scan"}, "is_reserved": 0, "fusion_lon": 0.0, "fusion_lat": 0.0, "lon": -77.032711, "name": "2e80d58f89797ce714c78d136097807c"}, {"bike_id": "ffbca7d03d5d0373ebc49a11f6a7e016", "type": "electric_scooter", "is_disabled": 0, "lat": 38.922748666666664, "rental_uris": {"ios": "https://dc.lft.to/lastmile_qr_scan", "android": "https://dc.lft.to/lastmile_qr_scan"}, "is_reserved": 0, "fusion_lon": 0.0, "fusion_lat": 0.0, "lon": -76.9945795, "name": "ffbca7d03d5d0373ebc49a11f6a7e016"}, {"bike_id": "bd15385f160a9b2234424a31b370e1b8", "type": "electric_scooter", "is_disabled": 0, "lat": 38.9066985, "rental_uris": {"ios": "https://dc.lft.to/lastmile_qr_scan", "android": "https://dc.lft.to/lastmile_qr_scan"}, "is_reserved": 0, "fusion_lon": 0.0, "fusion_lat": 0.0, "lon": -77.03643566666666, "name": "bd15385f160a9b2234424a31b370e1b8"}, {"bike_id": "35aa3132e2743ec4562feb99aa5e1b5d", "type": "electric_scooter", "is_disabled": 0, "lat": 38.90269216666667, "rental_uris": {"ios": "https://dc.lft.to/lastmile_qr_scan", "android": "https://dc.lft.to/lastmile_qr_scan"}, "is_reserved": 0, "fusion_lon": 0.0, "fusion_lat": 0.0, "lon": -77.01758733333334, "name": "35aa3132e2743ec4562feb99aa5e1b5d"}, {"bike_id": "7f5dc5d5530963e3087c99a945cc291b", "type": "electric_scooter", "is_disabled": 0, "lat": 38.8669795, "rental_uris": {"ios": "https://dc.lft.to/lastmile_qr_scan", "android": "https://dc.lft.to/lastmile_qr_scan"}, "is_reserved": 0, "fusion_lon": 0.0, "fusion_lat": 0.0, "lon": -76.98715783333333, "name": "7f5dc5d5530963e3087c99a945cc291b"}, {"bike_id": "8a0e57709f57481f7f8e2cb10a4d4a71", "type": "electric_scooter", "is_disabled": 0, "lat": 38.90395683333333, "rental_uris": {"ios": "https://dc.lft.to/lastmile_qr_scan", "android": "https://dc.lft.to/lastmile_qr_scan"}, "is_reserved": 0, "fusion_lon": 0.0, "fusion_lat": 0.0, "lon": -77.06359166666667, "name": "8a0e57709f57481f7f8e2cb10a4d4a71"}, {"bike_id": "ed3db4a0129c562d3b39e6dd358a77ca", "type": "electric_scooter", "is_disabled": 0, "lat": 38.87829466666667, "rental_uris": {"ios": "https://dc.lft.to/lastmile_qr_scan", "android": "https://dc.lft.to/lastmile_qr_scan"}, "is_reserved": 0, "fusion_lon": 0.0, "fusion_lat": 0.0, "lon": -76.96306483333333, "name": "ed3db4a0129c562d3b39e6dd358a77ca"}, {"bike_id": "e9528fa2130cf4f0313929dbe9f111b5", "type": "electric_bike", "is_disabled": 0, "lat": 39.05279983333333, "rental_uris": {"ios": "https://dc.lft.to/lastmile_qr_scan", "android": "https://dc.lft.to/lastmile_qr_scan"}, "is_reserved": 0, "fusion_lon": 0.0, "fusion_lat": 0.0, "lon": -77.08071033333333, "name": "e9528fa2130cf4f0313929dbe9f111b5"}, {"bike_id": "764ebf42fe3c797d92c2da6a20f60437", "type": "electric_scooter", "is_disabled": 0, "lat": 38.910514666666664, "rental_uris": {"ios": "https://dc.lft.to/lastmile_qr_scan", "android": "https://dc.lft.to/lastmile_qr_scan"}, "is_reserved": 0, "fusion_lon": 0.0, "fusion_lat": 0.0, "lon": -77.02684083333334, "name": "764ebf42fe3c797d92c2da6a20f60437"}, {"bike_id": "961561891fb7a3b1e9970d4420b64447", "type": "electric_scooter", "is_disabled": 0, "lat": 38.94086183333334, "rental_uris": {"ios": "https://dc.lft.to/lastmile_qr_scan", "android": "https://dc.lft.to/lastmile_qr_scan"}, "is_reserved": 0, "fusion_lon": 0.0, "fusion_lat": 0.0, "lon": -77.02723633333333, "name": "961561891fb7a3b1e9970d4420b64447"}, {"bike_id": "400fd50477eb248c1764dd1c363cd18f", "type": "electric_scooter", "is_disabled": 0, "lat": 38.91823016666667, "rental_uris": {"ios": "https://dc.lft.to/lastmile_qr_scan", "android": "https://dc.lft.to/lastmile_qr_scan"}, "is_reserved": 0, "fusion_lon": 0.0, "fusion_lat": 0.0, "lon": -77.049436, "name": "400fd50477eb248c1764dd1c363cd18f"}, {"bike_id": "dd08e387a6c385b4e618c6f3b6985dac", "type": "electric_scooter", "is_disabled": 0, "lat": 38.905295, "rental_uris": {"ios": "https://dc.lft.to/lastmile_qr_scan", "android": "https://dc.lft.to/lastmile_qr_scan"}, "is_reserved": 0, "fusion_lon": 0.0, "fusion_lat": 0.0, "lon": -77.05680316666667, "name": "dd08e387a6c385b4e618c6f3b6985dac"}, {"bike_id": "6a757077dabb991d57f73a6f7d64fa77", "type": "electric_scooter", "is_disabled": 0, "lat": 38.870912, "rental_uris": {"ios": "https://dc.lft.to/lastmile_qr_scan", "android": "https://dc.lft.to/lastmile_qr_scan"}, "is_reserved": 0, "fusion_lon": 0.0, "fusion_lat": 0.0, "lon": -76.965849, "name": "6a757077dabb991d57f73a6f7d64fa77"}, {"bike_id": "6dcb934c55517e86a5c163db92167a64", "type": "electric_scooter", "is_disabled": 0, "lat": 38.9003, "rental_uris": {"ios": "https://dc.lft.to/lastmile_qr_scan", "android": "https://dc.lft.to/lastmile_qr_scan"}, "is_reserved": 0, "fusion_lon": 0.0, "fusion_lat": 0.0, "lon": -77.04179433333333, "name": "6dcb934c55517e86a5c163db92167a64"}, {"bike_id": "1b75f98182e6b85728eea7f38db3edc9", "type": "electric_scooter", "is_disabled": 0, "lat": 38.917009666666665, "rental_uris": {"ios": "https://dc.lft.to/lastmile_qr_scan", "android": "https://dc.lft.to/lastmile_qr_scan"}, "is_reserved": 0, "fusion_lon": 0.0, "fusion_lat": 0.0, "lon": -77.00655933333333, "name": "1b75f98182e6b85728eea7f38db3edc9"}, {"bike_id": "0420b122d177da532bed8915356882cf", "type": "electric_scooter", "is_disabled": 0, "lat": 38.92061666666667, "rental_uris": {"ios": "https://dc.lft.to/lastmile_qr_scan", "android": "https://dc.lft.to/lastmile_qr_scan"}, "is_reserved": 0, "fusion_lon": 0.0, "fusion_lat": 0.0, "lon": -77.03465316666667, "name": "0420b122d177da532bed8915356882cf"}, {"bike_id": "1489ea541b309365826ca04963004928", "type": "electric_scooter", "is_disabled": 0, "lat": 38.9111055, "rental_uris": {"ios": "https://dc.lft.to/lastmile_qr_scan", "android": "https://dc.lft.to/lastmile_qr_scan"}, "is_reserved": 0, "fusion_lon": 0.0, "fusion_lat": 0.0, "lon": -77.04479666666667, "name": "1489ea541b309365826ca04963004928"}, {"bike_id": "979af8155aa507d3348237c8dbfea534", "type": "electric_scooter", "is_disabled": 0, "lat": 38.91573183333333, "rental_uris": {"ios": "https://dc.lft.to/lastmile_qr_scan", "android": "https://dc.lft.to/lastmile_qr_scan"}, "is_reserved": 0, "fusion_lon": 0.0, "fusion_lat": 0.0, "lon": -77.031885, "name": "979af8155aa507d3348237c8dbfea534"}, {"bike_id": "90f94fecef83748fa04c31b4fe15a5bf", "type": "electric_scooter", "is_disabled": 0, "lat": 38.9163185, "rental_uris": {"ios": "https://dc.lft.to/lastmile_qr_scan", "android": "https://dc.lft.to/lastmile_qr_scan"}, "is_reserved": 0, "fusion_lon": 0.0, "fusion_lat": 0.0, "lon": -77.03175633333333, "name": "90f94fecef83748fa04c31b4fe15a5bf"}, {"bike_id": "a2fd968ade5732f936f75d474cd302f0", "type": "electric_scooter", "is_disabled": 0, "lat": 38.884770333333336, "rental_uris": {"ios": "https://dc.lft.to/lastmile_qr_scan", "android": "https://dc.lft.to/lastmile_qr_scan"}, "is_reserved": 0, "fusion_lon": 0.0, "fusion_lat": 0.0, "lon": -77.01501033333334, "name": "a2fd968ade5732f936f75d474cd302f0"}, {"bike_id": "cf61ec18e77a992c6a9b4d74e9432ea2", "type": "electric_scooter", "is_disabled": 0, "lat": 38.91710116666667, "rental_uris": {"ios": "https://dc.lft.to/lastmile_qr_scan", "android": "https://dc.lft.to/lastmile_qr_scan"}, "is_reserved": 0, "fusion_lon": 0.0, "fusion_lat": 0.0, "lon": -77.0412385, "name": "cf61ec18e77a992c6a9b4d74e9432ea2"}, {"bike_id": "4c81429908632083cdfcad2ff5d385d0", "type": "electric_scooter", "is_disabled": 0, "lat": 38.916620333333334, "rental_uris": {"ios": "https://dc.lft.to/lastmile_qr_scan", "android": "https://dc.lft.to/lastmile_qr_scan"}, "is_reserved": 0, "fusion_lon": 0.0, "fusion_lat": 0.0, "lon": -77.0385065, "name": "4c81429908632083cdfcad2ff5d385d0"}, {"bike_id": "1a28564ce25bc5d9826e3c4e8dcb3dbb", "type": "electric_scooter", "is_disabled": 0, "lat": 38.95684416666667, "rental_uris": {"ios": "https://dc.lft.to/lastmile_qr_scan", "android": "https://dc.lft.to/lastmile_qr_scan"}, "is_reserved": 0, "fusion_lon": 0.0, "fusion_lat": 0.0, "lon": -77.02401, "name": "1a28564ce25bc5d9826e3c4e8dcb3dbb"}, {"bike_id": "7a3cb55bc4170b4e0844bd89a1e626c6", "type": "electric_scooter", "is_disabled": 0, "lat": 38.907244, "rental_uris": {"ios": "https://dc.lft.to/lastmile_qr_scan", "android": "https://dc.lft.to/lastmile_qr_scan"}, "is_reserved": 0, "fusion_lon": 0.0, "fusion_lat": 0.0, "lon": -77.05321083333334, "name": "7a3cb55bc4170b4e0844bd89a1e626c6"}, {"bike_id": "9aecefd0ce613d429f79007c7d77a98e", "type": "electric_scooter", "is_disabled": 0, "lat": 38.9268795, "rental_uris": {"ios": "https://dc.lft.to/lastmile_qr_scan", "android": "https://dc.lft.to/lastmile_qr_scan"}, "is_reserved": 0, "fusion_lon": 0.0, "fusion_lat": 0.0, "lon": -77.02159383333333, "name": "9aecefd0ce613d429f79007c7d77a98e"}, {"bike_id": "832dac0ced5bcf4cf65efd5b604a7b0c", "type": "electric_scooter", "is_disabled": 0, "lat": 38.93194283333333, "rental_uris": {"ios": "https://dc.lft.to/lastmile_qr_scan", "android": "https://dc.lft.to/lastmile_qr_scan"}, "is_reserved": 0, "fusion_lon": 0.0, "fusion_lat": 0.0, "lon": -77.02019133333333, "name": "832dac0ced5bcf4cf65efd5b604a7b0c"}, {"bike_id": "7166895648aada67326364c115c3e8cf", "type": "electric_scooter", "is_disabled": 0, "lat": 38.90397933333333, "rental_uris": {"ios": "https://dc.lft.to/lastmile_qr_scan", "android": "https://dc.lft.to/lastmile_qr_scan"}, "is_reserved": 0, "fusion_lon": 0.0, "fusion_lat": 0.0, "lon": -77.06514966666667, "name": "7166895648aada67326364c115c3e8cf"}, {"bike_id": "76ab5526acaba560b32c7fb30bd7cd30", "type": "electric_scooter", "is_disabled": 0, "lat": 38.942919, "rental_uris": {"ios": "https://dc.lft.to/lastmile_qr_scan", "android": "https://dc.lft.to/lastmile_qr_scan"}, "is_reserved": 0, "fusion_lon": 0.0, "fusion_lat": 0.0, "lon": -77.00486166666667, "name": "76ab5526acaba560b32c7fb30bd7cd30"}, {"bike_id": "ff10ea21701ae40dc5fcd760106bf631", "type": "electric_scooter", "is_disabled": 0, "lat": 38.908538666666665, "rental_uris": {"ios": "https://dc.lft.to/lastmile_qr_scan", "android": "https://dc.lft.to/lastmile_qr_scan"}, "is_reserved": 0, "fusion_lon": 0.0, "fusion_lat": 0.0, "lon": -77.02652683333334, "name": "ff10ea21701ae40dc5fcd760106bf631"}, {"bike_id": "51cd791c26b82e337d1fd44b0f6fc286", "type": "electric_scooter", "is_disabled": 0, "lat": 38.910160833333336, "rental_uris": {"ios": "https://dc.lft.to/lastmile_qr_scan", "android": "https://dc.lft.to/lastmile_qr_scan"}, "is_reserved": 0, "fusion_lon": 0.0, "fusion_lat": 0.0, "lon": -77.05270416666667, "name": "51cd791c26b82e337d1fd44b0f6fc286"}, {"bike_id": "a2f15996eaca5369e450813041d6b462", "type": "electric_scooter", "is_disabled": 0, "lat": 38.893240166666665, "rental_uris": {"ios": "https://dc.lft.to/lastmile_qr_scan", "android": "https://dc.lft.to/lastmile_qr_scan"}, "is_reserved": 0, "fusion_lon": 0.0, "fusion_lat": 0.0, "lon": -77.04874116666667, "name": "a2f15996eaca5369e450813041d6b462"}, {"bike_id": "a635e955584ba9c87854f91b0293bbf3", "type": "electric_scooter", "is_disabled": 0, "lat": 38.9148875, "rental_uris": {"ios": "https://dc.lft.to/lastmile_qr_scan", "android": "https://dc.lft.to/lastmile_qr_scan"}, "is_reserved": 0, "fusion_lon": 0.0, "fusion_lat": 0.0, "lon": -77.01851416666666, "name": "a635e955584ba9c87854f91b0293bbf3"}, {"bike_id": "5958cede08670c495ecf005aa6bf25eb", "type": "electric_scooter", "is_disabled": 0, "lat": 38.87345883333333, "rental_uris": {"ios": "https://dc.lft.to/lastmile_qr_scan", "android": "https://dc.lft.to/lastmile_qr_scan"}, "is_reserved": 0, "fusion_lon": 0.0, "fusion_lat": 0.0, "lon": -77.0005195, "name": "5958cede08670c495ecf005aa6bf25eb"}, {"bike_id": "a0d59111f14b18ffa8e54f2b268a2fe4", "type": "electric_scooter", "is_disabled": 0, "lat": 38.89343816666667, "rental_uris": {"ios": "https://dc.lft.to/lastmile_qr_scan", "android": "https://dc.lft.to/lastmile_qr_scan"}, "is_reserved": 0, "fusion_lon": 0.0, "fusion_lat": 0.0, "lon": -76.99383316666666, "name": "a0d59111f14b18ffa8e54f2b268a2fe4"}, {"bike_id": "b6692bae404e58e9176dfa85c22b889d", "type": "electric_scooter", "is_disabled": 0, "lat": 38.899817, "rental_uris": {"ios": "https://dc.lft.to/lastmile_qr_scan", "android": "https://dc.lft.to/lastmile_qr_scan"}, "is_reserved": 0, "fusion_lon": 0.0, "fusion_lat": 0.0, "lon": -76.95001616666667, "name": "b6692bae404e58e9176dfa85c22b889d"}, {"bike_id": "ee5c54977c0daf633a9595719ff0cb32", "type": "electric_scooter", "is_disabled": 0, "lat": 38.918224333333335, "rental_uris": {"ios": "https://dc.lft.to/lastmile_qr_scan", "android": "https://dc.lft.to/lastmile_qr_scan"}, "is_reserved": 0, "fusion_lon": 0.0, "fusion_lat": 0.0, "lon": -77.02419916666666, "name": "ee5c54977c0daf633a9595719ff0cb32"}, {"bike_id": "b46d24f3c0e2996898654855a338d58f", "type": "electric_scooter", "is_disabled": 0, "lat": 38.907571833333336, "rental_uris": {"ios": "https://dc.lft.to/lastmile_qr_scan", "android": "https://dc.lft.to/lastmile_qr_scan"}, "is_reserved": 0, "fusion_lon": 0.0, "fusion_lat": 0.0, "lon": -77.03074666666667, "name": "b46d24f3c0e2996898654855a338d58f"}, {"bike_id": "0ee4ee1222d1196652f00d215b5bf407", "type": "electric_bike", "is_disabled": 0, "lat": 38.863353833333335, "rental_uris": {"ios": "https://dc.lft.to/lastmile_qr_scan", "android": "https://dc.lft.to/lastmile_qr_scan"}, "is_reserved": 0, "fusion_lon": 0.0, "fusion_lat": 0.0, "lon": -76.98725316666666, "name": "0ee4ee1222d1196652f00d215b5bf407"}, {"bike_id": "7d2f9201863728f5568f5a9a34b4f40a", "type": "electric_scooter", "is_disabled": 0, "lat": 38.93771316666667, "rental_uris": {"ios": "https://dc.lft.to/lastmile_qr_scan", "android": "https://dc.lft.to/lastmile_qr_scan"}, "is_reserved": 0, "fusion_lon": 0.0, "fusion_lat": 0.0, "lon": -77.01973516666666, "name": "7d2f9201863728f5568f5a9a34b4f40a"}, {"bike_id": "7cf07c2613576a5876d71e4be0c062aa", "type": "electric_scooter", "is_disabled": 0, "lat": 38.91635133333333, "rental_uris": {"ios": "https://dc.lft.to/lastmile_qr_scan", "android": "https://dc.lft.to/lastmile_qr_scan"}, "is_reserved": 0, "fusion_lon": 0.0, "fusion_lat": 0.0, "lon": -77.02957283333333, "name": "7cf07c2613576a5876d71e4be0c062aa"}, {"bike_id": "b295fc3170910675a441af2ebdf4ff09", "type": "electric_scooter", "is_disabled": 0, "lat": 38.902842666666665, "rental_uris": {"ios": "https://dc.lft.to/lastmile_qr_scan", "android": "https://dc.lft.to/lastmile_qr_scan"}, "is_reserved": 0, "fusion_lon": 0.0, "fusion_lat": 0.0, "lon": -77.0033985, "name": "b295fc3170910675a441af2ebdf4ff09"}, {"bike_id": "10eb1084d4b0d0a263485a3cece9cc20", "type": "electric_scooter", "is_disabled": 0, "lat": 38.9317215, "rental_uris": {"ios": "https://dc.lft.to/lastmile_qr_scan", "android": "https://dc.lft.to/lastmile_qr_scan"}, "is_reserved": 0, "fusion_lon": 0.0, "fusion_lat": 0.0, "lon": -77.028155, "name": "10eb1084d4b0d0a263485a3cece9cc20"}, {"bike_id": "26b9e4925dd5a2807b24513104676de2", "type": "electric_scooter", "is_disabled": 0, "lat": 38.9097475, "rental_uris": {"ios": "https://dc.lft.to/lastmile_qr_scan", "android": "https://dc.lft.to/lastmile_qr_scan"}, "is_reserved": 0, "fusion_lon": 0.0, "fusion_lat": 0.0, "lon": -77.021827, "name": "26b9e4925dd5a2807b24513104676de2"}, {"bike_id": "9cca66a31a9616897eed17bfb9160154", "type": "electric_scooter", "is_disabled": 0, "lat": 38.858922, "rental_uris": {"ios": "https://dc.lft.to/lastmile_qr_scan", "android": "https://dc.lft.to/lastmile_qr_scan"}, "is_reserved": 0, "fusion_lon": 0.0, "fusion_lat": 0.0, "lon": -76.99722716666666, "name": "9cca66a31a9616897eed17bfb9160154"}, {"bike_id": "8c1b2e23746ca7af2f5824ca29ff550c", "type": "electric_scooter", "is_disabled": 0, "lat": 38.92268516666667, "rental_uris": {"ios": "https://dc.lft.to/lastmile_qr_scan", "android": "https://dc.lft.to/lastmile_qr_scan"}, "is_reserved": 0, "fusion_lon": 0.0, "fusion_lat": 0.0, "lon": -76.986338, "name": "8c1b2e23746ca7af2f5824ca29ff550c"}, {"bike_id": "80f0c825ac2367c33dad82fd1715c59e", "type": "electric_scooter", "is_disabled": 0, "lat": 38.9560805, "rental_uris": {"ios": "https://dc.lft.to/lastmile_qr_scan", "android": "https://dc.lft.to/lastmile_qr_scan"}, "is_reserved": 0, "fusion_lon": 0.0, "fusion_lat": 0.0, "lon": -77.00089866666667, "name": "80f0c825ac2367c33dad82fd1715c59e"}, {"bike_id": "4377a41dca69d9ddede7ed761632dede", "type": "electric_scooter", "is_disabled": 0, "lat": 38.92659916666667, "rental_uris": {"ios": "https://dc.lft.to/lastmile_qr_scan", "android": "https://dc.lft.to/lastmile_qr_scan"}, "is_reserved": 0, "fusion_lon": 0.0, "fusion_lat": 0.0, "lon": -77.0373115, "name": "4377a41dca69d9ddede7ed761632dede"}, {"bike_id": "24e97cbd8cec75a8972a854fb04ccf3a", "type": "electric_scooter", "is_disabled": 0, "lat": 38.920149, "rental_uris": {"ios": "https://dc.lft.to/lastmile_qr_scan", "android": "https://dc.lft.to/lastmile_qr_scan"}, "is_reserved": 0, "fusion_lon": 0.0, "fusion_lat": 0.0, "lon": -77.02807333333334, "name": "24e97cbd8cec75a8972a854fb04ccf3a"}, {"bike_id": "87849f0e3f7d5d54e8cb54d69cf224af", "type": "electric_scooter", "is_disabled": 0, "lat": 38.91793, "rental_uris": {"ios": "https://dc.lft.to/lastmile_qr_scan", "android": "https://dc.lft.to/lastmile_qr_scan"}, "is_reserved": 0, "fusion_lon": 0.0, "fusion_lat": 0.0, "lon": -77.0365735, "name": "87849f0e3f7d5d54e8cb54d69cf224af"}, {"bike_id": "6a09f4a759b82a12141a30a04f9429ca", "type": "electric_scooter", "is_disabled": 0, "lat": 38.86246366666666, "rental_uris": {"ios": "https://dc.lft.to/lastmile_qr_scan", "android": "https://dc.lft.to/lastmile_qr_scan"}, "is_reserved": 0, "fusion_lon": 0.0, "fusion_lat": 0.0, "lon": -76.99501516666666, "name": "6a09f4a759b82a12141a30a04f9429ca"}, {"bike_id": "968b98e2fb7e3213f2ca4b502605542c", "type": "electric_scooter", "is_disabled": 0, "lat": 38.905908833333335, "rental_uris": {"ios": "https://dc.lft.to/lastmile_qr_scan", "android": "https://dc.lft.to/lastmile_qr_scan"}, "is_reserved": 0, "fusion_lon": 0.0, "fusion_lat": 0.0, "lon": -77.07007083333333, "name": "968b98e2fb7e3213f2ca4b502605542c"}, {"bike_id": "6eb7b22e8d5b37f002f73f72f5ede60c", "type": "electric_scooter", "is_disabled": 0, "lat": 38.8805805, "rental_uris": {"ios": "https://dc.lft.to/lastmile_qr_scan", "android": "https://dc.lft.to/lastmile_qr_scan"}, "is_reserved": 0, "fusion_lon": 0.0, "fusion_lat": 0.0, "lon": -76.932219, "name": "6eb7b22e8d5b37f002f73f72f5ede60c"}, {"bike_id": "0123182ad8f1e57c93ebedfffb440e92", "type": "electric_scooter", "is_disabled": 0, "lat": 38.906619166666665, "rental_uris": {"ios": "https://dc.lft.to/lastmile_qr_scan", "android": "https://dc.lft.to/lastmile_qr_scan"}, "is_reserved": 0, "fusion_lon": 0.0, "fusion_lat": 0.0, "lon": -77.07201966666666, "name": "0123182ad8f1e57c93ebedfffb440e92"}, {"bike_id": "c8706ffc892afe105b5c770ce6af75da", "type": "electric_scooter", "is_disabled": 0, "lat": 38.917049, "rental_uris": {"ios": "https://dc.lft.to/lastmile_qr_scan", "android": "https://dc.lft.to/lastmile_qr_scan"}, "is_reserved": 0, "fusion_lon": 0.0, "fusion_lat": 0.0, "lon": -77.01072016666667, "name": "c8706ffc892afe105b5c770ce6af75da"}, {"bike_id": "58189b6fa4d22005f7ae68793dfaf909", "type": "electric_scooter", "is_disabled": 0, "lat": 38.91564283333334, "rental_uris": {"ios": "https://dc.lft.to/lastmile_qr_scan", "android": "https://dc.lft.to/lastmile_qr_scan"}, "is_reserved": 0, "fusion_lon": 0.0, "fusion_lat": 0.0, "lon": -77.04281683333333, "name": "58189b6fa4d22005f7ae68793dfaf909"}, {"bike_id": "b2205204157f143042a67d614df460ac", "type": "electric_scooter", "is_disabled": 0, "lat": 38.912599166666666, "rental_uris": {"ios": "https://dc.lft.to/lastmile_qr_scan", "android": "https://dc.lft.to/lastmile_qr_scan"}, "is_reserved": 0, "fusion_lon": 0.0, "fusion_lat": 0.0, "lon": -77.06793883333333, "name": "b2205204157f143042a67d614df460ac"}, {"bike_id": "4643495b3934f20a4048c088b48d02ba", "type": "electric_scooter", "is_disabled": 0, "lat": 38.88057633333333, "rental_uris": {"ios": "https://dc.lft.to/lastmile_qr_scan", "android": "https://dc.lft.to/lastmile_qr_scan"}, "is_reserved": 0, "fusion_lon": 0.0, "fusion_lat": 0.0, "lon": -76.93221166666666, "name": "4643495b3934f20a4048c088b48d02ba"}, {"bike_id": "8da4bc7fcbb528b9aabd05d1485b102a", "type": "electric_scooter", "is_disabled": 0, "lat": 38.89237933333333, "rental_uris": {"ios": "https://dc.lft.to/lastmile_qr_scan", "android": "https://dc.lft.to/lastmile_qr_scan"}, "is_reserved": 0, "fusion_lon": 0.0, "fusion_lat": 0.0, "lon": -77.03172, "name": "8da4bc7fcbb528b9aabd05d1485b102a"}, {"bike_id": "7023d155e5953e38c6d6ec45ba0a5708", "type": "electric_scooter", "is_disabled": 0, "lat": 38.916557166666664, "rental_uris": {"ios": "https://dc.lft.to/lastmile_qr_scan", "android": "https://dc.lft.to/lastmile_qr_scan"}, "is_reserved": 0, "fusion_lon": 0.0, "fusion_lat": 0.0, "lon": -77.02892033333333, "name": "7023d155e5953e38c6d6ec45ba0a5708"}, {"bike_id": "1b216c8af00ed16aab1c99ad51df5edb", "type": "electric_scooter", "is_disabled": 0, "lat": 38.88853566666667, "rental_uris": {"ios": "https://dc.lft.to/lastmile_qr_scan", "android": "https://dc.lft.to/lastmile_qr_scan"}, "is_reserved": 0, "fusion_lon": 0.0, "fusion_lat": 0.0, "lon": -77.000496, "name": "1b216c8af00ed16aab1c99ad51df5edb"}, {"bike_id": "6e5e38c356be0120d30bb51d7581d1d7", "type": "electric_scooter", "is_disabled": 0, "lat": 38.92432683333333, "rental_uris": {"ios": "https://dc.lft.to/lastmile_qr_scan", "android": "https://dc.lft.to/lastmile_qr_scan"}, "is_reserved": 0, "fusion_lon": 0.0, "fusion_lat": 0.0, "lon": -77.05211633333333, "name": "6e5e38c356be0120d30bb51d7581d1d7"}, {"bike_id": "029a8a014bde832fb7a1a799bd42e0e7", "type": "electric_scooter", "is_disabled": 0, "lat": 38.913180833333335, "rental_uris": {"ios": "https://dc.lft.to/lastmile_qr_scan", "android": "https://dc.lft.to/lastmile_qr_scan"}, "is_reserved": 0, "fusion_lon": 0.0, "fusion_lat": 0.0, "lon": -77.03653766666666, "name": "029a8a014bde832fb7a1a799bd42e0e7"}, {"bike_id": "dc935cf73d26ad54b28c0c179ae2749c", "type": "electric_bike", "is_disabled": 0, "lat": 38.891020833333336, "rental_uris": {"ios": "https://dc.lft.to/lastmile_qr_scan", "android": "https://dc.lft.to/lastmile_qr_scan"}, "is_reserved": 0, "fusion_lon": 0.0, "fusion_lat": 0.0, "lon": -76.93480616666666, "name": "dc935cf73d26ad54b28c0c179ae2749c"}, {"bike_id": "eb7017939d0132b30de11a7cdd4a3279", "type": "electric_scooter", "is_disabled": 0, "lat": 38.922702, "rental_uris": {"ios": "https://dc.lft.to/lastmile_qr_scan", "android": "https://dc.lft.to/lastmile_qr_scan"}, "is_reserved": 0, "fusion_lon": 0.0, "fusion_lat": 0.0, "lon": -77.04199416666667, "name": "eb7017939d0132b30de11a7cdd4a3279"}, {"bike_id": "b8e753ec106b5f861ae847da6b896ede", "type": "electric_scooter", "is_disabled": 0, "lat": 38.922699333333334, "rental_uris": {"ios": "https://dc.lft.to/lastmile_qr_scan", "android": "https://dc.lft.to/lastmile_qr_scan"}, "is_reserved": 0, "fusion_lon": 0.0, "fusion_lat": 0.0, "lon": -77.022411, "name": "b8e753ec106b5f861ae847da6b896ede"}, {"bike_id": "c060cc68f576860dc071e0f1ebe2a3c6", "type": "electric_scooter", "is_disabled": 0, "lat": 38.915735833333336, "rental_uris": {"ios": "https://dc.lft.to/lastmile_qr_scan", "android": "https://dc.lft.to/lastmile_qr_scan"}, "is_reserved": 0, "fusion_lon": 0.0, "fusion_lat": 0.0, "lon": -77.01995966666667, "name": "c060cc68f576860dc071e0f1ebe2a3c6"}, {"bike_id": "a60344b1f1533b2f23d399968725d6e7", "type": "electric_scooter", "is_disabled": 0, "lat": 38.90056916666666, "rental_uris": {"ios": "https://dc.lft.to/lastmile_qr_scan", "android": "https://dc.lft.to/lastmile_qr_scan"}, "is_reserved": 0, "fusion_lon": 0.0, "fusion_lat": 0.0, "lon": -76.934724, "name": "a60344b1f1533b2f23d399968725d6e7"}, {"bike_id": "ca975a871aa7646d6dbc4a3b3bd83bda", "type": "electric_scooter", "is_disabled": 0, "lat": 38.857027, "rental_uris": {"ios": "https://dc.lft.to/lastmile_qr_scan", "android": "https://dc.lft.to/lastmile_qr_scan"}, "is_reserved": 0, "fusion_lon": 0.0, "fusion_lat": 0.0, "lon": -76.9896675, "name": "ca975a871aa7646d6dbc4a3b3bd83bda"}, {"bike_id": "d5a46bc53df1111682274ebc5e7f61ca", "type": "electric_scooter", "is_disabled": 0, "lat": 38.84439316666667, "rental_uris": {"ios": "https://dc.lft.to/lastmile_qr_scan", "android": "https://dc.lft.to/lastmile_qr_scan"}, "is_reserved": 0, "fusion_lon": 0.0, "fusion_lat": 0.0, "lon": -76.987431, "name": "d5a46bc53df1111682274ebc5e7f61ca"}, {"bike_id": "9b48bc2f8ca63029d62d4402f0026699", "type": "electric_bike", "is_disabled": 0, "lat": 38.89603666666667, "rental_uris": {"ios": "https://dc.lft.to/lastmile_qr_scan", "android": "https://dc.lft.to/lastmile_qr_scan"}, "is_reserved": 0, "fusion_lon": 0.0, "fusion_lat": 0.0, "lon": -77.02214633333334, "name": "9b48bc2f8ca63029d62d4402f0026699"}, {"bike_id": "ac90c35a2f8e862bc4f909dd45cbe807", "type": "electric_scooter", "is_disabled": 0, "lat": 38.916578666666666, "rental_uris": {"ios": "https://dc.lft.to/lastmile_qr_scan", "android": "https://dc.lft.to/lastmile_qr_scan"}, "is_reserved": 0, "fusion_lon": 0.0, "fusion_lat": 0.0, "lon": -76.98235866666667, "name": "ac90c35a2f8e862bc4f909dd45cbe807"}, {"bike_id": "f353122375f91c9df81d24c3bee7f594", "type": "electric_bike", "is_disabled": 0, "lat": 39.05786283333333, "rental_uris": {"ios": "https://dc.lft.to/lastmile_qr_scan", "android": "https://dc.lft.to/lastmile_qr_scan"}, "is_reserved": 0, "fusion_lon": 0.0, "fusion_lat": 0.0, "lon": -77.15020983333334, "name": "f353122375f91c9df81d24c3bee7f594"}, {"bike_id": "60c5b948cca20c76288b546d8b3d7e87", "type": "electric_scooter", "is_disabled": 0, "lat": 38.89010916666667, "rental_uris": {"ios": "https://dc.lft.to/lastmile_qr_scan", "android": "https://dc.lft.to/lastmile_qr_scan"}, "is_reserved": 0, "fusion_lon": 0.0, "fusion_lat": 0.0, "lon": -76.937503, "name": "60c5b948cca20c76288b546d8b3d7e87"}, {"bike_id": "4ddbb6eacf1b2b758b3db301fec0725b", "type": "electric_scooter", "is_disabled": 0, "lat": 38.917047833333335, "rental_uris": {"ios": "https://dc.lft.to/lastmile_qr_scan", "android": "https://dc.lft.to/lastmile_qr_scan"}, "is_reserved": 0, "fusion_lon": 0.0, "fusion_lat": 0.0, "lon": -77.02410183333333, "name": "4ddbb6eacf1b2b758b3db301fec0725b"}, {"bike_id": "1c9a5e7cff2adfb877ddf57763c34f9a", "type": "electric_scooter", "is_disabled": 0, "lat": 38.93009983333334, "rental_uris": {"ios": "https://dc.lft.to/lastmile_qr_scan", "android": "https://dc.lft.to/lastmile_qr_scan"}, "is_reserved": 0, "fusion_lon": 0.0, "fusion_lat": 0.0, "lon": -77.01432883333334, "name": "1c9a5e7cff2adfb877ddf57763c34f9a"}, {"bike_id": "6561e2a5cc1d5e2aab0dc93a69d01af6", "type": "electric_scooter", "is_disabled": 0, "lat": 38.91276333333333, "rental_uris": {"ios": "https://dc.lft.to/lastmile_qr_scan", "android": "https://dc.lft.to/lastmile_qr_scan"}, "is_reserved": 0, "fusion_lon": 0.0, "fusion_lat": 0.0, "lon": -77.04733766666666, "name": "6561e2a5cc1d5e2aab0dc93a69d01af6"}, {"bike_id": "253350c0c0c3c468544024f9d190867d", "type": "electric_scooter", "is_disabled": 0, "lat": 38.93247433333333, "rental_uris": {"ios": "https://dc.lft.to/lastmile_qr_scan", "android": "https://dc.lft.to/lastmile_qr_scan"}, "is_reserved": 0, "fusion_lon": 0.0, "fusion_lat": 0.0, "lon": -77.029518, "name": "253350c0c0c3c468544024f9d190867d"}, {"bike_id": "9cc6d806f8e9839025322cab4568dc54", "type": "electric_scooter", "is_disabled": 0, "lat": 38.9353365, "rental_uris": {"ios": "https://dc.lft.to/lastmile_qr_scan", "android": "https://dc.lft.to/lastmile_qr_scan"}, "is_reserved": 0, "fusion_lon": 0.0, "fusion_lat": 0.0, "lon": -77.0234875, "name": "9cc6d806f8e9839025322cab4568dc54"}, {"bike_id": "2762024e752a06211a8c25676330c51d", "type": "electric_bike", "is_disabled": 0, "lat": 38.897405, "rental_uris": {"ios": "https://dc.lft.to/lastmile_qr_scan", "android": "https://dc.lft.to/lastmile_qr_scan"}, "is_reserved": 0, "fusion_lon": 0.0, "fusion_lat": 0.0, "lon": -76.9425365, "name": "2762024e752a06211a8c25676330c51d"}, {"bike_id": "10710cc291af86f68dc2a1d4f386917f", "type": "electric_scooter", "is_disabled": 0, "lat": 38.89800066666667, "rental_uris": {"ios": "https://dc.lft.to/lastmile_qr_scan", "android": "https://dc.lft.to/lastmile_qr_scan"}, "is_reserved": 0, "fusion_lon": 0.0, "fusion_lat": 0.0, "lon": -77.01903133333333, "name": "10710cc291af86f68dc2a1d4f386917f"}, {"bike_id": "95be4408e82418c265b6d147cff00466", "type": "electric_scooter", "is_disabled": 0, "lat": 38.86503866666666, "rental_uris": {"ios": "https://dc.lft.to/lastmile_qr_scan", "android": "https://dc.lft.to/lastmile_qr_scan"}, "is_reserved": 0, "fusion_lon": 0.0, "fusion_lat": 0.0, "lon": -76.99004016666666, "name": "95be4408e82418c265b6d147cff00466"}, {"bike_id": "a7e732df630076675704b8ea37c3783a", "type": "electric_scooter", "is_disabled": 0, "lat": 38.89869316666667, "rental_uris": {"ios": "https://dc.lft.to/lastmile_qr_scan", "android": "https://dc.lft.to/lastmile_qr_scan"}, "is_reserved": 0, "fusion_lon": 0.0, "fusion_lat": 0.0, "lon": -76.94664833333333, "name": "a7e732df630076675704b8ea37c3783a"}, {"bike_id": "3fdc1faf5714059278c67b9fc0fa3668", "type": "electric_scooter", "is_disabled": 0, "lat": 38.917760666666666, "rental_uris": {"ios": "https://dc.lft.to/lastmile_qr_scan", "android": "https://dc.lft.to/lastmile_qr_scan"}, "is_reserved": 0, "fusion_lon": 0.0, "fusion_lat": 0.0, "lon": -77.03656316666667, "name": "3fdc1faf5714059278c67b9fc0fa3668"}, {"bike_id": "5a0c6753bfd30997966a2529e65d8391", "type": "electric_scooter", "is_disabled": 0, "lat": 38.919152, "rental_uris": {"ios": "https://dc.lft.to/lastmile_qr_scan", "android": "https://dc.lft.to/lastmile_qr_scan"}, "is_reserved": 0, "fusion_lon": 0.0, "fusion_lat": 0.0, "lon": -77.03417333333333, "name": "5a0c6753bfd30997966a2529e65d8391"}, {"bike_id": "c702a0b84a198e5823a7afd68b16a7a1", "type": "electric_scooter", "is_disabled": 0, "lat": 38.889908166666665, "rental_uris": {"ios": "https://dc.lft.to/lastmile_qr_scan", "android": "https://dc.lft.to/lastmile_qr_scan"}, "is_reserved": 0, "fusion_lon": 0.0, "fusion_lat": 0.0, "lon": -77.000408, "name": "c702a0b84a198e5823a7afd68b16a7a1"}, {"bike_id": "3849fab74607deec5130cf500a7e4f26", "type": "electric_bike", "is_disabled": 0, "lat": 38.853555, "rental_uris": {"ios": "https://dc.lft.to/lastmile_qr_scan", "android": "https://dc.lft.to/lastmile_qr_scan"}, "is_reserved": 0, "fusion_lon": 0.0, "fusion_lat": 0.0, "lon": -77.08681916666667, "name": "3849fab74607deec5130cf500a7e4f26"}, {"bike_id": "804d03d86fa000ad5dd366782919a7ee", "type": "electric_scooter", "is_disabled": 0, "lat": 38.9500285, "rental_uris": {"ios": "https://dc.lft.to/lastmile_qr_scan", "android": "https://dc.lft.to/lastmile_qr_scan"}, "is_reserved": 0, "fusion_lon": 0.0, "fusion_lat": 0.0, "lon": -77.01559516666667, "name": "804d03d86fa000ad5dd366782919a7ee"}, {"bike_id": "244ae31dd02912fbc1eeef7b13211183", "type": "electric_scooter", "is_disabled": 0, "lat": 38.90130816666667, "rental_uris": {"ios": "https://dc.lft.to/lastmile_qr_scan", "android": "https://dc.lft.to/lastmile_qr_scan"}, "is_reserved": 0, "fusion_lon": 0.0, "fusion_lat": 0.0, "lon": -77.018353, "name": "244ae31dd02912fbc1eeef7b13211183"}, {"bike_id": "47297cabd3ce025cf824b3ab913408e4", "type": "electric_scooter", "is_disabled": 0, "lat": 38.9047735, "rental_uris": {"ios": "https://dc.lft.to/lastmile_qr_scan", "android": "https://dc.lft.to/lastmile_qr_scan"}, "is_reserved": 0, "fusion_lon": 0.0, "fusion_lat": 0.0, "lon": -77.06619816666667, "name": "47297cabd3ce025cf824b3ab913408e4"}, {"bike_id": "7b13f35b46abf1d398322a7beadf1b51", "type": "electric_scooter", "is_disabled": 0, "lat": 38.923207, "rental_uris": {"ios": "https://dc.lft.to/lastmile_qr_scan", "android": "https://dc.lft.to/lastmile_qr_scan"}, "is_reserved": 0, "fusion_lon": 0.0, "fusion_lat": 0.0, "lon": -77.0388735, "name": "7b13f35b46abf1d398322a7beadf1b51"}, {"bike_id": "3f472f73dd1e6c52ef667ca9cbd02e2d", "type": "electric_scooter", "is_disabled": 0, "lat": 38.89006783333333, "rental_uris": {"ios": "https://dc.lft.to/lastmile_qr_scan", "android": "https://dc.lft.to/lastmile_qr_scan"}, "is_reserved": 0, "fusion_lon": 0.0, "fusion_lat": 0.0, "lon": -76.93744016666666, "name": "3f472f73dd1e6c52ef667ca9cbd02e2d"}, {"bike_id": "97d974362f26c349fd1d6a787bfcebda", "type": "electric_scooter", "is_disabled": 0, "lat": 38.885328333333334, "rental_uris": {"ios": "https://dc.lft.to/lastmile_qr_scan", "android": "https://dc.lft.to/lastmile_qr_scan"}, "is_reserved": 0, "fusion_lon": 0.0, "fusion_lat": 0.0, "lon": -76.99828333333333, "name": "97d974362f26c349fd1d6a787bfcebda"}, {"bike_id": "7c60528a5e0b813f4264ee407c002adc", "type": "electric_scooter", "is_disabled": 0, "lat": 38.92320183333333, "rental_uris": {"ios": "https://dc.lft.to/lastmile_qr_scan", "android": "https://dc.lft.to/lastmile_qr_scan"}, "is_reserved": 0, "fusion_lon": 0.0, "fusion_lat": 0.0, "lon": -77.03910533333334, "name": "7c60528a5e0b813f4264ee407c002adc"}, {"bike_id": "2165bef03b581ff63f8244d6f42607e1", "type": "electric_scooter", "is_disabled": 0, "lat": 38.86243833333333, "rental_uris": {"ios": "https://dc.lft.to/lastmile_qr_scan", "android": "https://dc.lft.to/lastmile_qr_scan"}, "is_reserved": 0, "fusion_lon": 0.0, "fusion_lat": 0.0, "lon": -76.99499916666667, "name": "2165bef03b581ff63f8244d6f42607e1"}, {"bike_id": "9c9ba1f438d0cb5cfc036ea40610e89f", "type": "electric_scooter", "is_disabled": 0, "lat": 38.886242833333334, "rental_uris": {"ios": "https://dc.lft.to/lastmile_qr_scan", "android": "https://dc.lft.to/lastmile_qr_scan"}, "is_reserved": 0, "fusion_lon": 0.0, "fusion_lat": 0.0, "lon": -76.996129, "name": "9c9ba1f438d0cb5cfc036ea40610e89f"}, {"bike_id": "ecf5ab255037d60d13a909eab2d72ee9", "type": "electric_scooter", "is_disabled": 0, "lat": 38.915544833333335, "rental_uris": {"ios": "https://dc.lft.to/lastmile_qr_scan", "android": "https://dc.lft.to/lastmile_qr_scan"}, "is_reserved": 0, "fusion_lon": 0.0, "fusion_lat": 0.0, "lon": -77.03436866666667, "name": "ecf5ab255037d60d13a909eab2d72ee9"}, {"bike_id": "f6ddb6a6d07490637eaa9fce6f38f600", "type": "electric_scooter", "is_disabled": 0, "lat": 38.95663016666666, "rental_uris": {"ios": "https://dc.lft.to/lastmile_qr_scan", "android": "https://dc.lft.to/lastmile_qr_scan"}, "is_reserved": 0, "fusion_lon": 0.0, "fusion_lat": 0.0, "lon": -77.0239905, "name": "f6ddb6a6d07490637eaa9fce6f38f600"}, {"bike_id": "371df80173883f979628cfbc8448b159", "type": "electric_scooter", "is_disabled": 0, "lat": 38.90237, "rental_uris": {"ios": "https://dc.lft.to/lastmile_qr_scan", "android": "https://dc.lft.to/lastmile_qr_scan"}, "is_reserved": 0, "fusion_lon": 0.0, "fusion_lat": 0.0, "lon": -77.04141766666666, "name": "371df80173883f979628cfbc8448b159"}, {"bike_id": "b89ea03992856b2d94143fd98d2ff457", "type": "electric_scooter", "is_disabled": 0, "lat": 38.90034133333333, "rental_uris": {"ios": "https://dc.lft.to/lastmile_qr_scan", "android": "https://dc.lft.to/lastmile_qr_scan"}, "is_reserved": 0, "fusion_lon": 0.0, "fusion_lat": 0.0, "lon": -76.99811583333333, "name": "b89ea03992856b2d94143fd98d2ff457"}, {"bike_id": "b597abf6fade53247491627477c5cf25", "type": "electric_scooter", "is_disabled": 0, "lat": 38.92385683333333, "rental_uris": {"ios": "https://dc.lft.to/lastmile_qr_scan", "android": "https://dc.lft.to/lastmile_qr_scan"}, "is_reserved": 0, "fusion_lon": 0.0, "fusion_lat": 0.0, "lon": -77.04083783333333, "name": "b597abf6fade53247491627477c5cf25"}, {"bike_id": "9226aa1c54b0eb311bc66f3fea712b10", "type": "electric_scooter", "is_disabled": 0, "lat": 38.904060666666666, "rental_uris": {"ios": "https://dc.lft.to/lastmile_qr_scan", "android": "https://dc.lft.to/lastmile_qr_scan"}, "is_reserved": 0, "fusion_lon": 0.0, "fusion_lat": 0.0, "lon": -77.06766033333334, "name": "9226aa1c54b0eb311bc66f3fea712b10"}, {"bike_id": "8676ae36b3f012fed278ddad5cc9f337", "type": "electric_scooter", "is_disabled": 0, "lat": 38.914012166666666, "rental_uris": {"ios": "https://dc.lft.to/lastmile_qr_scan", "android": "https://dc.lft.to/lastmile_qr_scan"}, "is_reserved": 0, "fusion_lon": 0.0, "fusion_lat": 0.0, "lon": -77.02095716666666, "name": "8676ae36b3f012fed278ddad5cc9f337"}, {"bike_id": "3d6f22d78751bfa6f0c442ccf7bbdfbb", "type": "electric_scooter", "is_disabled": 0, "lat": 38.91910283333333, "rental_uris": {"ios": "https://dc.lft.to/lastmile_qr_scan", "android": "https://dc.lft.to/lastmile_qr_scan"}, "is_reserved": 0, "fusion_lon": 0.0, "fusion_lat": 0.0, "lon": -77.034174, "name": "3d6f22d78751bfa6f0c442ccf7bbdfbb"}, {"bike_id": "4f89f4af4f06e5d209d90a97aa358448", "type": "electric_scooter", "is_disabled": 0, "lat": 38.9037725, "rental_uris": {"ios": "https://dc.lft.to/lastmile_qr_scan", "android": "https://dc.lft.to/lastmile_qr_scan"}, "is_reserved": 0, "fusion_lon": 0.0, "fusion_lat": 0.0, "lon": -77.00755616666666, "name": "4f89f4af4f06e5d209d90a97aa358448"}, {"bike_id": "feb20e55761bb537efd3eb1c845b1dd6", "type": "electric_scooter", "is_disabled": 0, "lat": 38.905128500000004, "rental_uris": {"ios": "https://dc.lft.to/lastmile_qr_scan", "android": "https://dc.lft.to/lastmile_qr_scan"}, "is_reserved": 0, "fusion_lon": 0.0, "fusion_lat": 0.0, "lon": -77.06379716666666, "name": "feb20e55761bb537efd3eb1c845b1dd6"}, {"bike_id": "ff138716cd673af3562d57bc23f9d4a0", "type": "electric_scooter", "is_disabled": 0, "lat": 38.882703666666664, "rental_uris": {"ios": "https://dc.lft.to/lastmile_qr_scan", "android": "https://dc.lft.to/lastmile_qr_scan"}, "is_reserved": 0, "fusion_lon": 0.0, "fusion_lat": 0.0, "lon": -76.99253716666666, "name": "ff138716cd673af3562d57bc23f9d4a0"}, {"bike_id": "94fad7f50870b5192e447cae5be2d24f", "type": "electric_scooter", "is_disabled": 0, "lat": 38.906849333333334, "rental_uris": {"ios": "https://dc.lft.to/lastmile_qr_scan", "android": "https://dc.lft.to/lastmile_qr_scan"}, "is_reserved": 0, "fusion_lon": 0.0, "fusion_lat": 0.0, "lon": -77.0634025, "name": "94fad7f50870b5192e447cae5be2d24f"}, {"bike_id": "d72cb6c5031efd787735cb5945b5bece", "type": "electric_scooter", "is_disabled": 0, "lat": 38.90852816666667, "rental_uris": {"ios": "https://dc.lft.to/lastmile_qr_scan", "android": "https://dc.lft.to/lastmile_qr_scan"}, "is_reserved": 0, "fusion_lon": 0.0, "fusion_lat": 0.0, "lon": -77.05568033333333, "name": "d72cb6c5031efd787735cb5945b5bece"}, {"bike_id": "5a0454890715b5dee17031d54740a0b3", "type": "electric_scooter", "is_disabled": 0, "lat": 38.94327333333333, "rental_uris": {"ios": "https://dc.lft.to/lastmile_qr_scan", "android": "https://dc.lft.to/lastmile_qr_scan"}, "is_reserved": 0, "fusion_lon": 0.0, "fusion_lat": 0.0, "lon": -77.01483316666666, "name": "5a0454890715b5dee17031d54740a0b3"}, {"bike_id": "a53e82fe25b7468652787171d42340b3", "type": "electric_scooter", "is_disabled": 0, "lat": 38.905896, "rental_uris": {"ios": "https://dc.lft.to/lastmile_qr_scan", "android": "https://dc.lft.to/lastmile_qr_scan"},