{"data": {"bikes": [{"lon": -76.980609, "bike_id": "eafd1ccff6cbe14c538f623d49ffc80c", "lat": 38.8849515, "fusion_lon": 0.0, "fusion_lat": 0.0, "type": "electric_scooter", "name": "eafd1ccff6cbe14c538f623d49ffc80c", "is_disabled": 0, "rental_uris": {"ios": "https://dc.lft.to/lastmile_qr_scan", "android": "https://dc.lft.to/lastmile_qr_scan"}, "is_reserved": 0}, {"lon": -77.03935383333334, "bike_id": "962d74797675498724c2e2a77815b118", "lat": 38.91564183333333, "fusion_lon": 0.0, "fusion_lat": 0.0, "type": "electric_scooter", "name": "962d74797675498724c2e2a77815b118", "is_disabled": 0, "rental_uris": {"ios": "https://dc.lft.to/lastmile_qr_scan", "android": "https://dc.lft.to/lastmile_qr_scan"}, "is_reserved": 0}, {"lon": -76.99508866666666, "bike_id": "3f86a8e3c09be870a641ac843de48d01", "lat": 38.88257983333333, "fusion_lon": 0.0, "fusion_lat": 0.0, "type": "electric_scooter", "name": "3f86a8e3c09be870a641ac843de48d01", "is_disabled": 0, "rental_uris": {"ios": "https://dc.lft.to/lastmile_qr_scan", "android": "https://dc.lft.to/lastmile_qr_scan"}, "is_reserved": 0}, {"lon": -77.03230383333333, "bike_id": "8c13fe940f33c6b1691caa33f4736f0e", "lat": 38.927497, "fusion_lon": 0.0, "fusion_lat": 0.0, "type": "electric_scooter", "name": "8c13fe940f33c6b1691caa33f4736f0e", "is_disabled": 0, "rental_uris": {"ios": "https://dc.lft.to/lastmile_qr_scan", "android": "https://dc.lft.to/lastmile_qr_scan"}, "is_reserved": 0}, {"lon": -77.088118, "bike_id": "c901f98d99d8f285f5f40a787a0c8bb8", "lat": 38.91181233333333, "fusion_lon": 0.0, "fusion_lat": 0.0, "type": "electric_scooter", "name": "c901f98d99d8f285f5f40a787a0c8bb8", "is_disabled": 0, "rental_uris": {"ios": "https://dc.lft.to/lastmile_qr_scan", "android": "https://dc.lft.to/lastmile_qr_scan"}, "is_reserved": 0}, {"lon": -77.03678983333333, "bike_id": "794590422103137aec87318017a3c806", "lat": 38.91712, "fusion_lon": 0.0, "fusion_lat": 0.0, "type": "electric_scooter", "name": "794590422103137aec87318017a3c806", "is_disabled": 0, "rental_uris": {"ios": "https://dc.lft.to/lastmile_qr_scan", "android": "https://dc.lft.to/lastmile_qr_scan"}, "is_reserved": 0}, {"lon": -76.94593433333333, "bike_id": "f69e30607702fa71c82753fe9ef1927f", "lat": 38.90151633333333, "fusion_lon": 0.0, "fusion_lat": 0.0, "type": "electric_scooter", "name": "f69e30607702fa71c82753fe9ef1927f", "is_disabled": 0, "rental_uris": {"ios": "https://dc.lft.to/lastmile_qr_scan", "android": "https://dc.lft.to/lastmile_qr_scan"}, "is_reserved": 0}, {"lon": -76.98923466666666, "bike_id": "196cb37222950d5078cb40af7666e111", "lat": 38.864944666666666, "fusion_lon": 0.0, "fusion_lat": 0.0, "type": "electric_scooter", "name": "196cb37222950d5078cb40af7666e111", "is_disabled": 0, "rental_uris": {"ios": "https://dc.lft.to/lastmile_qr_scan", "android": "https://dc.lft.to/lastmile_qr_scan"}, "is_reserved": 0}, {"lon": -77.00297433333333, "bike_id": "0f0d10dceb28f5ff06fae4183430f737", "lat": 38.90930683333333, "fusion_lon": 0.0, "fusion_lat": 0.0, "type": "electric_scooter", "name": "0f0d10dceb28f5ff06fae4183430f737", "is_disabled": 0, "rental_uris": {"ios": "https://dc.lft.to/lastmile_qr_scan", "android": "https://dc.lft.to/lastmile_qr_scan"}, "is_reserved": 0}, {"lon": -76.97394966666667, "bike_id": "7e51c6cde1e2f8bda15c61ffb62d24d9", "lat": 38.902951, "fusion_lon": 0.0, "fusion_lat": 0.0, "type": "electric_scooter", "name": "7e51c6cde1e2f8bda15c61ffb62d24d9", "is_disabled": 0, "rental_uris": {"ios": "https://dc.lft.to/lastmile_qr_scan", "android": "https://dc.lft.to/lastmile_qr_scan"}, "is_reserved": 0}, {"lon": -77.03028083333334, "bike_id": "1fa29152ead533720f0f7c65d6b04c68", "lat": 38.884053333333334, "fusion_lon": 0.0, "fusion_lat": 0.0, "type": "electric_scooter", "name": "1fa29152ead533720f0f7c65d6b04c68", "is_disabled": 0, "rental_uris": {"ios": "https://dc.lft.to/lastmile_qr_scan", "android": "https://dc.lft.to/lastmile_qr_scan"}, "is_reserved": 0}, {"lon": -77.03999883333333, "bike_id": "3924a3021163af01265ca23545991eac", "lat": 38.934361, "fusion_lon": 0.0, "fusion_lat": 0.0, "type": "electric_scooter", "name": "3924a3021163af01265ca23545991eac", "is_disabled": 0, "rental_uris": {"ios": "https://dc.lft.to/lastmile_qr_scan", "android": "https://dc.lft.to/lastmile_qr_scan"}, "is_reserved": 0}, {"lon": -77.03039316666667, "bike_id": "26bc603598f5008bdffde1fd33a9cdd4", "lat": 38.937193666666666, "fusion_lon": 0.0, "fusion_lat": 0.0, "type": "electric_scooter", "name": "26bc603598f5008bdffde1fd33a9cdd4", "is_disabled": 0, "rental_uris": {"ios": "https://dc.lft.to/lastmile_qr_scan", "android": "https://dc.lft.to/lastmile_qr_scan"}, "is_reserved": 0}, {"lon": -77.07417116666667, "bike_id": "1c2565aeddbb6a140562aeab8021fc45", "lat": 38.92887116666667, "fusion_lon": 0.0, "fusion_lat": 0.0, "type": "electric_scooter", "name": "1c2565aeddbb6a140562aeab8021fc45", "is_disabled": 0, "rental_uris": {"ios": "https://dc.lft.to/lastmile_qr_scan", "android": "https://dc.lft.to/lastmile_qr_scan"}, "is_reserved": 0}, {"lon": -77.08493516666667, "bike_id": "46e66de08207d782d93cd5b4b6160e3d", "lat": 38.848528, "fusion_lon": 0.0, "fusion_lat": 0.0, "type": "electric_bike", "name": "46e66de08207d782d93cd5b4b6160e3d", "is_disabled": 0, "rental_uris": {"ios": "https://dc.lft.to/lastmile_qr_scan", "android": "https://dc.lft.to/lastmile_qr_scan"}, "is_reserved": 0}, {"lon": -77.0235895, "bike_id": "5d9dcc4a50877a228119320e7fad7282", "lat": 38.9332255, "fusion_lon": 0.0, "fusion_lat": 0.0, "type": "electric_scooter", "name": "5d9dcc4a50877a228119320e7fad7282", "is_disabled": 0, "rental_uris": {"ios": "https://dc.lft.to/lastmile_qr_scan", "android": "https://dc.lft.to/lastmile_qr_scan"}, "is_reserved": 0}, {"lon": -77.02263733333334, "bike_id": "1ff71a6347237fd2e1a4fa0358a80414", "lat": 38.927408166666666, "fusion_lon": 0.0, "fusion_lat": 0.0, "type": "electric_scooter", "name": "1ff71a6347237fd2e1a4fa0358a80414", "is_disabled": 0, "rental_uris": {"ios": "https://dc.lft.to/lastmile_qr_scan", "android": "https://dc.lft.to/lastmile_qr_scan"}, "is_reserved": 0}, {"lon": -77.01024833333334, "bike_id": "d458a41d143b450c1de9d907bb462ad1", "lat": 38.9085495, "fusion_lon": 0.0, "fusion_lat": 0.0, "type": "electric_scooter", "name": "d458a41d143b450c1de9d907bb462ad1", "is_disabled": 0, "rental_uris": {"ios": "https://dc.lft.to/lastmile_qr_scan", "android": "https://dc.lft.to/lastmile_qr_scan"}, "is_reserved": 0}, {"lon": -77.02472883333333, "bike_id": "7cf8e50d226a82a0e90753ce74b3fb01", "lat": 38.90396533333333, "fusion_lon": 0.0, "fusion_lat": 0.0, "type": "electric_scooter", "name": "7cf8e50d226a82a0e90753ce74b3fb01", "is_disabled": 0, "rental_uris": {"ios": "https://dc.lft.to/lastmile_qr_scan", "android": "https://dc.lft.to/lastmile_qr_scan"}, "is_reserved": 0}, {"lon": -77.0586695, "bike_id": "c6027832e04ced79c57e1e3da7f70a4a", "lat": 38.9360685, "fusion_lon": 0.0, "fusion_lat": 0.0, "type": "electric_scooter", "name": "c6027832e04ced79c57e1e3da7f70a4a", "is_disabled": 0, "rental_uris": {"ios": "https://dc.lft.to/lastmile_qr_scan", "android": "https://dc.lft.to/lastmile_qr_scan"}, "is_reserved": 0}, {"lon": -77.050444, "bike_id": "464302313b339d3c0c5b357d972ea4c8", "lat": 38.9236215, "fusion_lon": 0.0, "fusion_lat": 0.0, "type": "electric_scooter", "name": "464302313b339d3c0c5b357d972ea4c8", "is_disabled": 0, "rental_uris": {"ios": "https://dc.lft.to/lastmile_qr_scan", "android": "https://dc.lft.to/lastmile_qr_scan"}, "is_reserved": 0}, {"lon": -77.01859683333333, "bike_id": "9c53438c3febd84ce253aec34bbfc365", "lat": 38.914948333333335, "fusion_lon": 0.0, "fusion_lat": 0.0, "type": "electric_scooter", "name": "9c53438c3febd84ce253aec34bbfc365", "is_disabled": 0, "rental_uris": {"ios": "https://dc.lft.to/lastmile_qr_scan", "android": "https://dc.lft.to/lastmile_qr_scan"}, "is_reserved": 0}, {"lon": -76.99047683333333, "bike_id": "e644bba355ef6f925103ab83ff6d1c85", "lat": 38.884207, "fusion_lon": 0.0, "fusion_lat": 0.0, "type": "electric_scooter", "name": "e644bba355ef6f925103ab83ff6d1c85", "is_disabled": 0, "rental_uris": {"ios": "https://dc.lft.to/lastmile_qr_scan", "android": "https://dc.lft.to/lastmile_qr_scan"}, "is_reserved": 0}, {"lon": -77.0294445, "bike_id": "f708fd06bdb040b4c9bc2d9699182d8f", "lat": 38.90730716666667, "fusion_lon": 0.0, "fusion_lat": 0.0, "type": "electric_scooter", "name": "f708fd06bdb040b4c9bc2d9699182d8f", "is_disabled": 0, "rental_uris": {"ios": "https://dc.lft.to/lastmile_qr_scan", "android": "https://dc.lft.to/lastmile_qr_scan"}, "is_reserved": 0}, {"lon": -77.022772, "bike_id": "f13ca4bdad29363882489c448986bf95", "lat": 38.87833716666667, "fusion_lon": 0.0, "fusion_lat": 0.0, "type": "electric_scooter", "name": "f13ca4bdad29363882489c448986bf95", "is_disabled": 0, "rental_uris": {"ios": "https://dc.lft.to/lastmile_qr_scan", "android": "https://dc.lft.to/lastmile_qr_scan"}, "is_reserved": 0}, {"lon": -77.02601233333333, "bike_id": "ce641db5e04e79caee55be4bc89696c2", "lat": 38.90530016666666, "fusion_lon": 0.0, "fusion_lat": 0.0, "type": "electric_scooter", "name": "ce641db5e04e79caee55be4bc89696c2", "is_disabled": 0, "rental_uris": {"ios": "https://dc.lft.to/lastmile_qr_scan", "android": "https://dc.lft.to/lastmile_qr_scan"}, "is_reserved": 0}, {"lon": -77.000055, "bike_id": "d256b50555f3b990744ba6c6fbc2707a", "lat": 38.875049, "fusion_lon": 0.0, "fusion_lat": 0.0, "type": "electric_scooter", "name": "d256b50555f3b990744ba6c6fbc2707a", "is_disabled": 0, "rental_uris": {"ios": "https://dc.lft.to/lastmile_qr_scan", "android": "https://dc.lft.to/lastmile_qr_scan"}, "is_reserved": 0}, {"lon": -76.99846333333333, "bike_id": "b13c0b7ed15b4fa2a2b50a95bcd25252", "lat": 38.907322, "fusion_lon": 0.0, "fusion_lat": 0.0, "type": "electric_scooter", "name": "b13c0b7ed15b4fa2a2b50a95bcd25252", "is_disabled": 0, "rental_uris": {"ios": "https://dc.lft.to/lastmile_qr_scan", "android": "https://dc.lft.to/lastmile_qr_scan"}, "is_reserved": 0}, {"lon": -77.07348183333333, "bike_id": "f93c39f312b163642d9c69a0e6da758a", "lat": 38.911043666666664, "fusion_lon": 0.0, "fusion_lat": 0.0, "type": "electric_scooter", "name": "f93c39f312b163642d9c69a0e6da758a", "is_disabled": 0, "rental_uris": {"ios": "https://dc.lft.to/lastmile_qr_scan", "android": "https://dc.lft.to/lastmile_qr_scan"}, "is_reserved": 0}, {"lon": -77.02349716666667, "bike_id": "d6e3ddd6702739ced2f90c238da74dc9", "lat": 38.8922705, "fusion_lon": 0.0, "fusion_lat": 0.0, "type": "electric_scooter", "name": "d6e3ddd6702739ced2f90c238da74dc9", "is_disabled": 0, "rental_uris": {"ios": "https://dc.lft.to/lastmile_qr_scan", "android": "https://dc.lft.to/lastmile_qr_scan"}, "is_reserved": 0}, {"lon": -76.98220683333334, "bike_id": "806d02de6ead96f0984d9a4e94eb4747", "lat": 38.86616733333334, "fusion_lon": 0.0, "fusion_lat": 0.0, "type": "electric_scooter", "name": "806d02de6ead96f0984d9a4e94eb4747", "is_disabled": 0, "rental_uris": {"ios": "https://dc.lft.to/lastmile_qr_scan", "android": "https://dc.lft.to/lastmile_qr_scan"}, "is_reserved": 0}, {"lon": -77.02591766666667, "bike_id": "43c04bbec0afe7c91d138ad775b95da6", "lat": 38.963983, "fusion_lon": 0.0, "fusion_lat": 0.0, "type": "electric_scooter", "name": "43c04bbec0afe7c91d138ad775b95da6", "is_disabled": 0, "rental_uris": {"ios": "https://dc.lft.to/lastmile_qr_scan", "android": "https://dc.lft.to/lastmile_qr_scan"}, "is_reserved": 0}, {"lon": -76.93175616666667, "bike_id": "b8f0d66e8ec88fe37f1ba568eeebfe52", "lat": 38.898836, "fusion_lon": 0.0, "fusion_lat": 0.0, "type": "electric_scooter", "name": "b8f0d66e8ec88fe37f1ba568eeebfe52", "is_disabled": 0, "rental_uris": {"ios": "https://dc.lft.to/lastmile_qr_scan", "android": "https://dc.lft.to/lastmile_qr_scan"}, "is_reserved": 0}, {"lon": -77.032063, "bike_id": "f934c42aeab19073ed7f899112f3fd95", "lat": 38.89658166666667, "fusion_lon": 0.0, "fusion_lat": 0.0, "type": "electric_bike", "name": "f934c42aeab19073ed7f899112f3fd95", "is_disabled": 0, "rental_uris": {"ios": "https://dc.lft.to/lastmile_qr_scan", "android": "https://dc.lft.to/lastmile_qr_scan"}, "is_reserved": 0}, {"lon": -76.930103, "bike_id": "50956f2b01e50866a09908d94fb0a48b", "lat": 38.89654183333333, "fusion_lon": 0.0, "fusion_lat": 0.0, "type": "electric_bike", "name": "50956f2b01e50866a09908d94fb0a48b", "is_disabled": 0, "rental_uris": {"ios": "https://dc.lft.to/lastmile_qr_scan", "android": "https://dc.lft.to/lastmile_qr_scan"}, "is_reserved": 0}, {"lon": -77.03833333333333, "bike_id": "17d5934b5c69df9545b505f86b6f5842", "lat": 38.911198, "fusion_lon": 0.0, "fusion_lat": 0.0, "type": "electric_scooter", "name": "17d5934b5c69df9545b505f86b6f5842", "is_disabled": 0, "rental_uris": {"ios": "https://dc.lft.to/lastmile_qr_scan", "android": "https://dc.lft.to/lastmile_qr_scan"}, "is_reserved": 0}, {"lon": -77.03807833333333, "bike_id": "fbda9b68de9764820c52fb12f3df1d3f", "lat": 38.920611666666666, "fusion_lon": 0.0, "fusion_lat": 0.0, "type": "electric_scooter", "name": "fbda9b68de9764820c52fb12f3df1d3f", "is_disabled": 0, "rental_uris": {"ios": "https://dc.lft.to/lastmile_qr_scan", "android": "https://dc.lft.to/lastmile_qr_scan"}, "is_reserved": 0}, {"lon": -77.04382433333333, "bike_id": "ffea0cd4b8d90a793bcb71c2867638c2", "lat": 38.902439666666666, "fusion_lon": 0.0, "fusion_lat": 0.0, "type": "electric_scooter", "name": "ffea0cd4b8d90a793bcb71c2867638c2", "is_disabled": 0, "rental_uris": {"ios": "https://dc.lft.to/lastmile_qr_scan", "android": "https://dc.lft.to/lastmile_qr_scan"}, "is_reserved": 0}, {"lon": -77.03289583333333, "bike_id": "639ee7baad2f3470dd1a05947ded45c7", "lat": 38.956479333333334, "fusion_lon": 0.0, "fusion_lat": 0.0, "type": "electric_scooter", "name": "639ee7baad2f3470dd1a05947ded45c7", "is_disabled": 0, "rental_uris": {"ios": "https://dc.lft.to/lastmile_qr_scan", "android": "https://dc.lft.to/lastmile_qr_scan"}, "is_reserved": 0}, {"lon": -77.024937, "bike_id": "f8fbdec32b739dec820f69c277a08d17", "lat": 38.90501183333333, "fusion_lon": 0.0, "fusion_lat": 0.0, "type": "electric_scooter", "name": "f8fbdec32b739dec820f69c277a08d17", "is_disabled": 0, "rental_uris": {"ios": "https://dc.lft.to/lastmile_qr_scan", "android": "https://dc.lft.to/lastmile_qr_scan"}, "is_reserved": 0}, {"lon": -76.93645183333334, "bike_id": "2dcca6b1833a230bfc7c28360c912314", "lat": 38.90063466666667, "fusion_lon": 0.0, "fusion_lat": 0.0, "type": "electric_scooter", "name": "2dcca6b1833a230bfc7c28360c912314", "is_disabled": 0, "rental_uris": {"ios": "https://dc.lft.to/lastmile_qr_scan", "android": "https://dc.lft.to/lastmile_qr_scan"}, "is_reserved": 0}, {"lon": -76.98756383333334, "bike_id": "efdc11c0afc0fe6464866a14f29a8a37", "lat": 38.90382566666667, "fusion_lon": 0.0, "fusion_lat": 0.0, "type": "electric_scooter", "name": "efdc11c0afc0fe6464866a14f29a8a37", "is_disabled": 0, "rental_uris": {"ios": "https://dc.lft.to/lastmile_qr_scan", "android": "https://dc.lft.to/lastmile_qr_scan"}, "is_reserved": 0}, {"lon": -77.06870216666667, "bike_id": "1a045ac5ff682b9d56185c662310eff1", "lat": 38.95292516666667, "fusion_lon": 0.0, "fusion_lat": 0.0, "type": "electric_scooter", "name": "1a045ac5ff682b9d56185c662310eff1", "is_disabled": 0, "rental_uris": {"ios": "https://dc.lft.to/lastmile_qr_scan", "android": "https://dc.lft.to/lastmile_qr_scan"}, "is_reserved": 0}, {"lon": -77.02155133333333, "bike_id": "f4e421df06a98fd54994ca6773d16a92", "lat": 38.92601883333333, "fusion_lon": 0.0, "fusion_lat": 0.0, "type": "electric_scooter", "name": "f4e421df06a98fd54994ca6773d16a92", "is_disabled": 0, "rental_uris": {"ios": "https://dc.lft.to/lastmile_qr_scan", "android": "https://dc.lft.to/lastmile_qr_scan"}, "is_reserved": 0}, {"lon": -77.00139583333333, "bike_id": "e6f768339120cc1017dcb9ccddb32a3c", "lat": 38.84284566666667, "fusion_lon": 0.0, "fusion_lat": 0.0, "type": "electric_scooter", "name": "e6f768339120cc1017dcb9ccddb32a3c", "is_disabled": 0, "rental_uris": {"ios": "https://dc.lft.to/lastmile_qr_scan", "android": "https://dc.lft.to/lastmile_qr_scan"}, "is_reserved": 0}, {"lon": -77.03224533333334, "bike_id": "bce220c158470120cfd89d09693d57d3", "lat": 38.9141115, "fusion_lon": 0.0, "fusion_lat": 0.0, "type": "electric_scooter", "name": "bce220c158470120cfd89d09693d57d3", "is_disabled": 0, "rental_uris": {"ios": "https://dc.lft.to/lastmile_qr_scan", "android": "https://dc.lft.to/lastmile_qr_scan"}, "is_reserved": 0}, {"lon": -77.0433145, "bike_id": "93ac19ea51f66ffc79e2b225418bca5d", "lat": 38.91882733333333, "fusion_lon": 0.0, "fusion_lat": 0.0, "type": "electric_scooter", "name": "93ac19ea51f66ffc79e2b225418bca5d", "is_disabled": 0, "rental_uris": {"ios": "https://dc.lft.to/lastmile_qr_scan", "android": "https://dc.lft.to/lastmile_qr_scan"}, "is_reserved": 0}, {"lon": -76.93175933333333, "bike_id": "1160f2e3ea0d8827653f9e0ed3dc04d8", "lat": 38.89885533333333, "fusion_lon": 0.0, "fusion_lat": 0.0, "type": "electric_scooter", "name": "1160f2e3ea0d8827653f9e0ed3dc04d8", "is_disabled": 0, "rental_uris": {"ios": "https://dc.lft.to/lastmile_qr_scan", "android": "https://dc.lft.to/lastmile_qr_scan"}, "is_reserved": 0}, {"lon": -77.03269983333334, "bike_id": "acc293e1464350e254e4403475f69853", "lat": 38.934463666666666, "fusion_lon": 0.0, "fusion_lat": 0.0, "type": "electric_scooter", "name": "acc293e1464350e254e4403475f69853", "is_disabled": 0, "rental_uris": {"ios": "https://dc.lft.to/lastmile_qr_scan", "android": "https://dc.lft.to/lastmile_qr_scan"}, "is_reserved": 0}, {"lon": -77.0446765, "bike_id": "2f5c8fae6c519b1744314347e863ee64", "lat": 38.90062533333333, "fusion_lon": 0.0, "fusion_lat": 0.0, "type": "electric_scooter", "name": "2f5c8fae6c519b1744314347e863ee64", "is_disabled": 0, "rental_uris": {"ios": "https://dc.lft.to/lastmile_qr_scan", "android": "https://dc.lft.to/lastmile_qr_scan"}, "is_reserved": 0}, {"lon": -76.95015083333334, "bike_id": "86925c40a5de6f6cfc1402806d7f9208", "lat": 38.89396766666667, "fusion_lon": 0.0, "fusion_lat": 0.0, "type": "electric_scooter", "name": "86925c40a5de6f6cfc1402806d7f9208", "is_disabled": 0, "rental_uris": {"ios": "https://dc.lft.to/lastmile_qr_scan", "android": "https://dc.lft.to/lastmile_qr_scan"}, "is_reserved": 0}, {"lon": -77.03191716666667, "bike_id": "c581ea5d1d2fd42e93fbc200ef2ba43e", "lat": 38.884158166666666, "fusion_lon": 0.0, "fusion_lat": 0.0, "type": "electric_scooter", "name": "c581ea5d1d2fd42e93fbc200ef2ba43e", "is_disabled": 0, "rental_uris": {"ios": "https://dc.lft.to/lastmile_qr_scan", "android": "https://dc.lft.to/lastmile_qr_scan"}, "is_reserved": 0}, {"lon": -77.01392616666666, "bike_id": "e84bec0c3522c5ec4fca742df3c7ad66", "lat": 38.9287745, "fusion_lon": 0.0, "fusion_lat": 0.0, "type": "electric_scooter", "name": "e84bec0c3522c5ec4fca742df3c7ad66", "is_disabled": 0, "rental_uris": {"ios": "https://dc.lft.to/lastmile_qr_scan", "android": "https://dc.lft.to/lastmile_qr_scan"}, "is_reserved": 0}, {"lon": -77.04318116666667, "bike_id": "1fa6a0dcf565b59d1e0b43d4f093c5bd", "lat": 38.908924166666665, "fusion_lon": 0.0, "fusion_lat": 0.0, "type": "electric_scooter", "name": "1fa6a0dcf565b59d1e0b43d4f093c5bd", "is_disabled": 0, "rental_uris": {"ios": "https://dc.lft.to/lastmile_qr_scan", "android": "https://dc.lft.to/lastmile_qr_scan"}, "is_reserved": 0}, {"lon": -77.02167583333333, "bike_id": "bb18924337890acb88764eba22889e7c", "lat": 38.942923, "fusion_lon": 0.0, "fusion_lat": 0.0, "type": "electric_scooter", "name": "bb18924337890acb88764eba22889e7c", "is_disabled": 0, "rental_uris": {"ios": "https://dc.lft.to/lastmile_qr_scan", "android": "https://dc.lft.to/lastmile_qr_scan"}, "is_reserved": 0}, {"lon": -77.0154275, "bike_id": "929bf42a56cd94d5d246db2bab223ae9", "lat": 38.883158, "fusion_lon": 0.0, "fusion_lat": 0.0, "type": "electric_scooter", "name": "929bf42a56cd94d5d246db2bab223ae9", "is_disabled": 0, "rental_uris": {"ios": "https://dc.lft.to/lastmile_qr_scan", "android": "https://dc.lft.to/lastmile_qr_scan"}, "is_reserved": 0}, {"lon": -77.02690416666667, "bike_id": "43d2d6a6fb2a125e491e344217962239", "lat": 38.94887666666666, "fusion_lon": 0.0, "fusion_lat": 0.0, "type": "electric_scooter", "name": "43d2d6a6fb2a125e491e344217962239", "is_disabled": 0, "rental_uris": {"ios": "https://dc.lft.to/lastmile_qr_scan", "android": "https://dc.lft.to/lastmile_qr_scan"}, "is_reserved": 0}, {"lon": -76.98534683333334, "bike_id": "40a32a8a6b9a492456c6929bf61dfdac", "lat": 38.91027966666667, "fusion_lon": 0.0, "fusion_lat": 0.0, "type": "electric_scooter", "name": "40a32a8a6b9a492456c6929bf61dfdac", "is_disabled": 0, "rental_uris": {"ios": "https://dc.lft.to/lastmile_qr_scan", "android": "https://dc.lft.to/lastmile_qr_scan"}, "is_reserved": 0}, {"lon": -77.02681716666666, "bike_id": "193100fa665915a3c378baa1a8bae0a7", "lat": 38.9849025, "fusion_lon": 0.0, "fusion_lat": 0.0, "type": "electric_scooter", "name": "193100fa665915a3c378baa1a8bae0a7", "is_disabled": 0, "rental_uris": {"ios": "https://dc.lft.to/lastmile_qr_scan", "android": "https://dc.lft.to/lastmile_qr_scan"}, "is_reserved": 0}, {"lon": -77.0151935, "bike_id": "6281f967e277d284242442c82da829c2", "lat": 38.9269615, "fusion_lon": 0.0, "fusion_lat": 0.0, "type": "electric_scooter", "name": "6281f967e277d284242442c82da829c2", "is_disabled": 0, "rental_uris": {"ios": "https://dc.lft.to/lastmile_qr_scan", "android": "https://dc.lft.to/lastmile_qr_scan"}, "is_reserved": 0}, {"lon": -76.96153666666666, "bike_id": "f6fd42b595a986f92b58f5f97ffe80e7", "lat": 38.88361833333333, "fusion_lon": 0.0, "fusion_lat": 0.0, "type": "electric_scooter", "name": "f6fd42b595a986f92b58f5f97ffe80e7", "is_disabled": 0, "rental_uris": {"ios": "https://dc.lft.to/lastmile_qr_scan", "android": "https://dc.lft.to/lastmile_qr_scan"}, "is_reserved": 0}, {"lon": -77.04206833333333, "bike_id": "0785726aa342716a4dd65df9d9f83181", "lat": 38.91266616666667, "fusion_lon": 0.0, "fusion_lat": 0.0, "type": "electric_scooter", "name": "0785726aa342716a4dd65df9d9f83181", "is_disabled": 0, "rental_uris": {"ios": "https://dc.lft.to/lastmile_qr_scan", "android": "https://dc.lft.to/lastmile_qr_scan"}, "is_reserved": 0}, {"lon": -77.045828, "bike_id": "a92fa5ad5bf3a8a7e3ff6e92c328b50c", "lat": 38.90376633333333, "fusion_lon": 0.0, "fusion_lat": 0.0, "type": "electric_scooter", "name": "a92fa5ad5bf3a8a7e3ff6e92c328b50c", "is_disabled": 0, "rental_uris": {"ios": "https://dc.lft.to/lastmile_qr_scan", "android": "https://dc.lft.to/lastmile_qr_scan"}, "is_reserved": 0}, {"lon": -77.03867833333334, "bike_id": "a9bdbf356ad8d1e6ee2bd619eb55a7bf", "lat": 38.94505616666667, "fusion_lon": 0.0, "fusion_lat": 0.0, "type": "electric_scooter", "name": "a9bdbf356ad8d1e6ee2bd619eb55a7bf", "is_disabled": 0, "rental_uris": {"ios": "https://dc.lft.to/lastmile_qr_scan", "android": "https://dc.lft.to/lastmile_qr_scan"}, "is_reserved": 0}, {"lon": -76.9678915, "bike_id": "6ee1b6c64484a695c764fed3d6c2f21b", "lat": 38.868575, "fusion_lon": 0.0, "fusion_lat": 0.0, "type": "electric_scooter", "name": "6ee1b6c64484a695c764fed3d6c2f21b", "is_disabled": 0, "rental_uris": {"ios": "https://dc.lft.to/lastmile_qr_scan", "android": "https://dc.lft.to/lastmile_qr_scan"}, "is_reserved": 0}, {"lon": -77.00583883333333, "bike_id": "0bd03eebffa8fcd88e2ea09bf2a8ddc9", "lat": 38.88443383333333, "fusion_lon": 0.0, "fusion_lat": 0.0, "type": "electric_scooter", "name": "0bd03eebffa8fcd88e2ea09bf2a8ddc9", "is_disabled": 0, "rental_uris": {"ios": "https://dc.lft.to/lastmile_qr_scan", "android": "https://dc.lft.to/lastmile_qr_scan"}, "is_reserved": 0}, {"lon": -76.98098866666666, "bike_id": "b5e925f9347aca609ec82c1d3c79fe9f", "lat": 38.895505, "fusion_lon": 0.0, "fusion_lat": 0.0, "type": "electric_scooter", "name": "b5e925f9347aca609ec82c1d3c79fe9f", "is_disabled": 0, "rental_uris": {"ios": "https://dc.lft.to/lastmile_qr_scan", "android": "https://dc.lft.to/lastmile_qr_scan"}, "is_reserved": 0}, {"lon": -76.9985175, "bike_id": "613292cceb3ec0cdf984c937d98a09ba", "lat": 38.90215533333333, "fusion_lon": 0.0, "fusion_lat": 0.0, "type": "electric_scooter", "name": "613292cceb3ec0cdf984c937d98a09ba", "is_disabled": 0, "rental_uris": {"ios": "https://dc.lft.to/lastmile_qr_scan", "android": "https://dc.lft.to/lastmile_qr_scan"}, "is_reserved": 0}, {"lon": -77.03481166666667, "bike_id": "82380e22da4602a613ded8062eadf56b", "lat": 38.92874583333333, "fusion_lon": 0.0, "fusion_lat": 0.0, "type": "electric_scooter", "name": "82380e22da4602a613ded8062eadf56b", "is_disabled": 0, "rental_uris": {"ios": "https://dc.lft.to/lastmile_qr_scan", "android": "https://dc.lft.to/lastmile_qr_scan"}, "is_reserved": 0}, {"lon": -77.03886266666666, "bike_id": "db890728fb2040f05211ee6e268aa0a2", "lat": 38.910035, "fusion_lon": 0.0, "fusion_lat": 0.0, "type": "electric_scooter", "name": "db890728fb2040f05211ee6e268aa0a2", "is_disabled": 0, "rental_uris": {"ios": "https://dc.lft.to/lastmile_qr_scan", "android": "https://dc.lft.to/lastmile_qr_scan"}, "is_reserved": 0}, {"lon": -76.9985945, "bike_id": "ede73871d30748ba4e943d45d257e7af", "lat": 38.900285833333335, "fusion_lon": 0.0, "fusion_lat": 0.0, "type": "electric_scooter", "name": "ede73871d30748ba4e943d45d257e7af", "is_disabled": 0, "rental_uris": {"ios": "https://dc.lft.to/lastmile_qr_scan", "android": "https://dc.lft.to/lastmile_qr_scan"}, "is_reserved": 0}, {"lon": -76.953696, "bike_id": "3bd3b4515a2c1b6f50af86a2e394dfc9", "lat": 38.891973166666666, "fusion_lon": 0.0, "fusion_lat": 0.0, "type": "electric_scooter", "name": "3bd3b4515a2c1b6f50af86a2e394dfc9", "is_disabled": 0, "rental_uris": {"ios": "https://dc.lft.to/lastmile_qr_scan", "android": "https://dc.lft.to/lastmile_qr_scan"}, "is_reserved": 0}, {"lon": -77.02489233333333, "bike_id": "b803dffeab76311d22f828bdb8e42fbf", "lat": 38.938623666666665, "fusion_lon": 0.0, "fusion_lat": 0.0, "type": "electric_scooter", "name": "b803dffeab76311d22f828bdb8e42fbf", "is_disabled": 0, "rental_uris": {"ios": "https://dc.lft.to/lastmile_qr_scan", "android": "https://dc.lft.to/lastmile_qr_scan"}, "is_reserved": 0}, {"lon": -77.04165983333333, "bike_id": "e6a0fff0a361791fe16adfe5702552f7", "lat": 38.9036715, "fusion_lon": 0.0, "fusion_lat": 0.0, "type": "electric_scooter", "name": "e6a0fff0a361791fe16adfe5702552f7", "is_disabled": 0, "rental_uris": {"ios": "https://dc.lft.to/lastmile_qr_scan", "android": "https://dc.lft.to/lastmile_qr_scan"}, "is_reserved": 0}, {"lon": -76.99020266666666, "bike_id": "ced1e2e146e34e6d7745858403255da6", "lat": 38.89418716666667, "fusion_lon": 0.0, "fusion_lat": 0.0, "type": "electric_scooter", "name": "ced1e2e146e34e6d7745858403255da6", "is_disabled": 0, "rental_uris": {"ios": "https://dc.lft.to/lastmile_qr_scan", "android": "https://dc.lft.to/lastmile_qr_scan"}, "is_reserved": 0}, {"lon": -77.02614666666666, "bike_id": "3a329b4d4eec3bdf003b0efc0b07941e", "lat": 38.905603, "fusion_lon": 0.0, "fusion_lat": 0.0, "type": "electric_scooter", "name": "3a329b4d4eec3bdf003b0efc0b07941e", "is_disabled": 0, "rental_uris": {"ios": "https://dc.lft.to/lastmile_qr_scan", "android": "https://dc.lft.to/lastmile_qr_scan"}, "is_reserved": 0}, {"lon": -76.97425366666667, "bike_id": "b60417bc06927f97dbd176bf3826b374", "lat": 38.9324295, "fusion_lon": 0.0, "fusion_lat": 0.0, "type": "electric_bike", "name": "b60417bc06927f97dbd176bf3826b374", "is_disabled": 0, "rental_uris": {"ios": "https://dc.lft.to/lastmile_qr_scan", "android": "https://dc.lft.to/lastmile_qr_scan"}, "is_reserved": 0}, {"lon": -77.04194266666667, "bike_id": "3f9d66abe1fc195f4b0f7bea2e4dca2f", "lat": 38.92068866666666, "fusion_lon": 0.0, "fusion_lat": 0.0, "type": "electric_scooter", "name": "3f9d66abe1fc195f4b0f7bea2e4dca2f", "is_disabled": 0, "rental_uris": {"ios": "https://dc.lft.to/lastmile_qr_scan", "android": "https://dc.lft.to/lastmile_qr_scan"}, "is_reserved": 0}, {"lon": -77.007315, "bike_id": "31cb7aa69dcbcec2a9e450c4aacaccc3", "lat": 38.9596175, "fusion_lon": 0.0, "fusion_lat": 0.0, "type": "electric_scooter", "name": "31cb7aa69dcbcec2a9e450c4aacaccc3", "is_disabled": 0, "rental_uris": {"ios": "https://dc.lft.to/lastmile_qr_scan", "android": "https://dc.lft.to/lastmile_qr_scan"}, "is_reserved": 0}, {"lon": -77.04631833333333, "bike_id": "fd37508e038525d8fdc2ee7cd5045e17", "lat": 38.91908983333333, "fusion_lon": 0.0, "fusion_lat": 0.0, "type": "electric_scooter", "name": "fd37508e038525d8fdc2ee7cd5045e17", "is_disabled": 0, "rental_uris": {"ios": "https://dc.lft.to/lastmile_qr_scan", "android": "https://dc.lft.to/lastmile_qr_scan"}, "is_reserved": 0}, {"lon": -77.0162465, "bike_id": "dbc87a674e62b5cd3eb43fab739a9bd4", "lat": 38.9071355, "fusion_lon": 0.0, "fusion_lat": 0.0, "type": "electric_scooter", "name": "dbc87a674e62b5cd3eb43fab739a9bd4", "is_disabled": 0, "rental_uris": {"ios": "https://dc.lft.to/lastmile_qr_scan", "android": "https://dc.lft.to/lastmile_qr_scan"}, "is_reserved": 0}, {"lon": -77.02274266666667, "bike_id": "0f23ec39d9fe8d36c24cb2e23b3d526d", "lat": 38.927261, "fusion_lon": 0.0, "fusion_lat": 0.0, "type": "electric_scooter", "name": "0f23ec39d9fe8d36c24cb2e23b3d526d", "is_disabled": 0, "rental_uris": {"ios": "https://dc.lft.to/lastmile_qr_scan", "android": "https://dc.lft.to/lastmile_qr_scan"}, "is_reserved": 0}, {"lon": -77.02197816666667, "bike_id": "c76407dfa4b1401b86c394f5e381122f", "lat": 38.90004483333333, "fusion_lon": 0.0, "fusion_lat": 0.0, "type": "electric_scooter", "name": "c76407dfa4b1401b86c394f5e381122f", "is_disabled": 0, "rental_uris": {"ios": "https://dc.lft.to/lastmile_qr_scan", "android": "https://dc.lft.to/lastmile_qr_scan"}, "is_reserved": 0}, {"lon": -76.99353933333333, "bike_id": "44783942ba439a279df3e32d1d4e49d7", "lat": 38.84506833333333, "fusion_lon": 0.0, "fusion_lat": 0.0, "type": "electric_bike", "name": "44783942ba439a279df3e32d1d4e49d7", "is_disabled": 0, "rental_uris": {"ios": "https://dc.lft.to/lastmile_qr_scan", "android": "https://dc.lft.to/lastmile_qr_scan"}, "is_reserved": 0}, {"lon": -77.045823, "bike_id": "6c6642beb0bf36912f13d48f58c7ebc2", "lat": 38.9212555, "fusion_lon": 0.0, "fusion_lat": 0.0, "type": "electric_scooter", "name": "6c6642beb0bf36912f13d48f58c7ebc2", "is_disabled": 0, "rental_uris": {"ios": "https://dc.lft.to/lastmile_qr_scan", "android": "https://dc.lft.to/lastmile_qr_scan"}, "is_reserved": 0}, {"lon": -76.94403166666666, "bike_id": "0b5c1dc75d76c4ee9c97c9046e6767f3", "lat": 38.88143016666667, "fusion_lon": 0.0, "fusion_lat": 0.0, "type": "electric_scooter", "name": "0b5c1dc75d76c4ee9c97c9046e6767f3", "is_disabled": 0, "rental_uris": {"ios": "https://dc.lft.to/lastmile_qr_scan", "android": "https://dc.lft.to/lastmile_qr_scan"}, "is_reserved": 0}, {"lon": -77.0327965, "bike_id": "309f15eebe7509eeea66f838f755dd1c", "lat": 38.923527166666666, "fusion_lon": 0.0, "fusion_lat": 0.0, "type": "electric_scooter", "name": "309f15eebe7509eeea66f838f755dd1c", "is_disabled": 0, "rental_uris": {"ios": "https://dc.lft.to/lastmile_qr_scan", "android": "https://dc.lft.to/lastmile_qr_scan"}, "is_reserved": 0}, {"lon": -77.06295183333333, "bike_id": "8b5f1dc4539342031a1405b29f7dc4de", "lat": 38.903984, "fusion_lon": 0.0, "fusion_lat": 0.0, "type": "electric_scooter", "name": "8b5f1dc4539342031a1405b29f7dc4de", "is_disabled": 0, "rental_uris": {"ios": "https://dc.lft.to/lastmile_qr_scan", "android": "https://dc.lft.to/lastmile_qr_scan"}, "is_reserved": 0}, {"lon": -76.97497116666666, "bike_id": "ba376fedc7f3cdb3b9f37d750266ea2e", "lat": 38.919253, "fusion_lon": 0.0, "fusion_lat": 0.0, "type": "electric_scooter", "name": "ba376fedc7f3cdb3b9f37d750266ea2e", "is_disabled": 0, "rental_uris": {"ios": "https://dc.lft.to/lastmile_qr_scan", "android": "https://dc.lft.to/lastmile_qr_scan"}, "is_reserved": 0}, {"lon": -77.025448, "bike_id": "1caa03022fa64ea01cd1fc18a787bd50", "lat": 38.9208595, "fusion_lon": 0.0, "fusion_lat": 0.0, "type": "electric_scooter", "name": "1caa03022fa64ea01cd1fc18a787bd50", "is_disabled": 0, "rental_uris": {"ios": "https://dc.lft.to/lastmile_qr_scan", "android": "https://dc.lft.to/lastmile_qr_scan"}, "is_reserved": 0}, {"lon": -77.050423, "bike_id": "9935973223b8e0249fa50a3437169c34", "lat": 38.923699166666665, "fusion_lon": 0.0, "fusion_lat": 0.0, "type": "electric_scooter", "name": "9935973223b8e0249fa50a3437169c34", "is_disabled": 0, "rental_uris": {"ios": "https://dc.lft.to/lastmile_qr_scan", "android": "https://dc.lft.to/lastmile_qr_scan"}, "is_reserved": 0}, {"lon": -77.054642, "bike_id": "df5f1f7019e05be51a483afa72120a37", "lat": 38.855591, "fusion_lon": 0.0, "fusion_lat": 0.0, "type": "electric_bike", "name": "df5f1f7019e05be51a483afa72120a37", "is_disabled": 0, "rental_uris": {"ios": "https://dc.lft.to/lastmile_qr_scan", "android": "https://dc.lft.to/lastmile_qr_scan"}, "is_reserved": 0}, {"lon": -77.00677016666667, "bike_id": "d5e225e2b8ebc00835a25f6dda840bbe", "lat": 38.90014333333333, "fusion_lon": 0.0, "fusion_lat": 0.0, "type": "electric_scooter", "name": "d5e225e2b8ebc00835a25f6dda840bbe", "is_disabled": 0, "rental_uris": {"ios": "https://dc.lft.to/lastmile_qr_scan", "android": "https://dc.lft.to/lastmile_qr_scan"}, "is_reserved": 0}, {"lon": -77.129793, "bike_id": "c69443a5c5654903c75b863a608ee7aa", "lat": 38.799886666666666, "fusion_lon": 0.0, "fusion_lat": 0.0, "type": "electric_bike", "name": "c69443a5c5654903c75b863a608ee7aa", "is_disabled": 0, "rental_uris": {"ios": "https://dc.lft.to/lastmile_qr_scan", "android": "https://dc.lft.to/lastmile_qr_scan"}, "is_reserved": 0}, {"lon": -77.0287685, "bike_id": "def7fdffcbc0d079c4d019c59277fe78", "lat": 38.88495433333333, "fusion_lon": 0.0, "fusion_lat": 0.0, "type": "electric_scooter", "name": "def7fdffcbc0d079c4d019c59277fe78", "is_disabled": 0, "rental_uris": {"ios": "https://dc.lft.to/lastmile_qr_scan", "android": "https://dc.lft.to/lastmile_qr_scan"}, "is_reserved": 0}, {"lon": -77.00658, "bike_id": "8c0cccb5c5a32ea5cef29ddc555343db", "lat": 38.94464116666666, "fusion_lon": 0.0, "fusion_lat": 0.0, "type": "electric_scooter", "name": "8c0cccb5c5a32ea5cef29ddc555343db", "is_disabled": 0, "rental_uris": {"ios": "https://dc.lft.to/lastmile_qr_scan", "android": "https://dc.lft.to/lastmile_qr_scan"}, "is_reserved": 0}, {"lon": -77.02636, "bike_id": "a18c91fea3d36a01dc1e2d973b760e1b", "lat": 38.9170205, "fusion_lon": 0.0, "fusion_lat": 0.0, "type": "electric_scooter", "name": "a18c91fea3d36a01dc1e2d973b760e1b", "is_disabled": 0, "rental_uris": {"ios": "https://dc.lft.to/lastmile_qr_scan", "android": "https://dc.lft.to/lastmile_qr_scan"}, "is_reserved": 0}, {"lon": -77.02983233333333, "bike_id": "e465f87a34cce82e2e2657fab3c3219f", "lat": 38.93566283333333, "fusion_lon": 0.0, "fusion_lat": 0.0, "type": "electric_scooter", "name": "e465f87a34cce82e2e2657fab3c3219f", "is_disabled": 0, "rental_uris": {"ios": "https://dc.lft.to/lastmile_qr_scan", "android": "https://dc.lft.to/lastmile_qr_scan"}, "is_reserved": 0}, {"lon": -77.0364205, "bike_id": "7a61c8f2ca92f244dc3ab4850a43b9fe", "lat": 38.9038875, "fusion_lon": 0.0, "fusion_lat": 0.0, "type": "electric_scooter", "name": "7a61c8f2ca92f244dc3ab4850a43b9fe", "is_disabled": 0, "rental_uris": {"ios": "https://dc.lft.to/lastmile_qr_scan", "android": "https://dc.lft.to/lastmile_qr_scan"}, "is_reserved": 0}, {"lon": -77.038633, "bike_id": "cff5e4d2101fd519b4ed8e7104f7a277", "lat": 38.932523333333336, "fusion_lon": 0.0, "fusion_lat": 0.0, "type": "electric_scooter", "name": "cff5e4d2101fd519b4ed8e7104f7a277", "is_disabled": 0, "rental_uris": {"ios": "https://dc.lft.to/lastmile_qr_scan", "android": "https://dc.lft.to/lastmile_qr_scan"}, "is_reserved": 0}, {"lon": -77.05147683333334, "bike_id": "cf1f3a80c3da0070844551dbd593292e", "lat": 38.898682666666666, "fusion_lon": 0.0, "fusion_lat": 0.0, "type": "electric_scooter", "name": "cf1f3a80c3da0070844551dbd593292e", "is_disabled": 0, "rental_uris": {"ios": "https://dc.lft.to/lastmile_qr_scan", "android": "https://dc.lft.to/lastmile_qr_scan"}, "is_reserved": 0}, {"lon": -77.038635, "bike_id": "f3dc9a27364a060da73236de8df815f2", "lat": 38.9201645, "fusion_lon": 0.0, "fusion_lat": 0.0, "type": "electric_scooter", "name": "f3dc9a27364a060da73236de8df815f2", "is_disabled": 0, "rental_uris": {"ios": "https://dc.lft.to/lastmile_qr_scan", "android": "https://dc.lft.to/lastmile_qr_scan"}, "is_reserved": 0}, {"lon": -76.99014033333333, "bike_id": "04177e6dc993a34225494a236cdc4e0a", "lat": 38.94601316666667, "fusion_lon": 0.0, "fusion_lat": 0.0, "type": "electric_scooter", "name": "04177e6dc993a34225494a236cdc4e0a", "is_disabled": 0, "rental_uris": {"ios": "https://dc.lft.to/lastmile_qr_scan", "android": "https://dc.lft.to/lastmile_qr_scan"}, "is_reserved": 0}, {"lon": -77.0498125, "bike_id": "e43e54f9aba2c8dbfb3a68ae4f905e23", "lat": 39.062963833333335, "fusion_lon": 0.0, "fusion_lat": 0.0, "type": "electric_bike", "name": "e43e54f9aba2c8dbfb3a68ae4f905e23", "is_disabled": 0, "rental_uris": {"ios": "https://dc.lft.to/lastmile_qr_scan", "android": "https://dc.lft.to/lastmile_qr_scan"}, "is_reserved": 0}, {"lon": -76.991, "bike_id": "9a987725a1839bbb97e97098cb5072a6", "lat": 38.857378833333335, "fusion_lon": 0.0, "fusion_lat": 0.0, "type": "electric_scooter", "name": "9a987725a1839bbb97e97098cb5072a6", "is_disabled": 0, "rental_uris": {"ios": "https://dc.lft.to/lastmile_qr_scan", "android": "https://dc.lft.to/lastmile_qr_scan"}, "is_reserved": 0}, {"lon": -77.0321665, "bike_id": "0315a4a33ec8d7bc4ea2aed045a05aa6", "lat": 38.92172983333333, "fusion_lon": 0.0, "fusion_lat": 0.0, "type": "electric_scooter", "name": "0315a4a33ec8d7bc4ea2aed045a05aa6", "is_disabled": 0, "rental_uris": {"ios": "https://dc.lft.to/lastmile_qr_scan", "android": "https://dc.lft.to/lastmile_qr_scan"}, "is_reserved": 0}, {"lon": -76.99370133333333, "bike_id": "35620a82fc083f77ea5ee243e9d138dc", "lat": 38.940244, "fusion_lon": 0.0, "fusion_lat": 0.0, "type": "electric_scooter", "name": "35620a82fc083f77ea5ee243e9d138dc", "is_disabled": 0, "rental_uris": {"ios": "https://dc.lft.to/lastmile_qr_scan", "android": "https://dc.lft.to/lastmile_qr_scan"}, "is_reserved": 0}, {"lon": -77.03295983333334, "bike_id": "6ded08b7d34aa8cafc2ef5c8e6af7993", "lat": 38.95654433333333, "fusion_lon": 0.0, "fusion_lat": 0.0, "type": "electric_scooter", "name": "6ded08b7d34aa8cafc2ef5c8e6af7993", "is_disabled": 0, "rental_uris": {"ios": "https://dc.lft.to/lastmile_qr_scan", "android": "https://dc.lft.to/lastmile_qr_scan"}, "is_reserved": 0}, {"lon": -77.02979766666667, "bike_id": "30f91a4e9f857f287e3d01c0e0c338fe", "lat": 38.906545666666666, "fusion_lon": 0.0, "fusion_lat": 0.0, "type": "electric_scooter", "name": "30f91a4e9f857f287e3d01c0e0c338fe", "is_disabled": 0, "rental_uris": {"ios": "https://dc.lft.to/lastmile_qr_scan", "android": "https://dc.lft.to/lastmile_qr_scan"}, "is_reserved": 0}, {"lon": -76.93767683333333, "bike_id": "62a1937320857bad145bede22f5a6446", "lat": 38.89966483333333, "fusion_lon": 0.0, "fusion_lat": 0.0, "type": "electric_scooter", "name": "62a1937320857bad145bede22f5a6446", "is_disabled": 0, "rental_uris": {"ios": "https://dc.lft.to/lastmile_qr_scan", "android": "https://dc.lft.to/lastmile_qr_scan"}, "is_reserved": 0}, {"lon": -76.99852783333333, "bike_id": "ff4db6dfe3de32bf8ed94c27ddedbcbd", "lat": 38.901028, "fusion_lon": 0.0, "fusion_lat": 0.0, "type": "electric_scooter", "name": "ff4db6dfe3de32bf8ed94c27ddedbcbd", "is_disabled": 0, "rental_uris": {"ios": "https://dc.lft.to/lastmile_qr_scan", "android": "https://dc.lft.to/lastmile_qr_scan"}, "is_reserved": 0}, {"lon": -76.94505066666666, "bike_id": "09d686f131036942091bd720b9302f5d", "lat": 38.86482566666667, "fusion_lon": 0.0, "fusion_lat": 0.0, "type": "electric_bike", "name": "09d686f131036942091bd720b9302f5d", "is_disabled": 0, "rental_uris": {"ios": "https://dc.lft.to/lastmile_qr_scan", "android": "https://dc.lft.to/lastmile_qr_scan"}, "is_reserved": 0}, {"lon": -76.9986055, "bike_id": "ed061b73c7beeacc9ad30bb15e50991a", "lat": 38.8941655, "fusion_lon": 0.0, "fusion_lat": 0.0, "type": "electric_scooter", "name": "ed061b73c7beeacc9ad30bb15e50991a", "is_disabled": 0, "rental_uris": {"ios": "https://dc.lft.to/lastmile_qr_scan", "android": "https://dc.lft.to/lastmile_qr_scan"}, "is_reserved": 0}, {"lon": -77.08071633333333, "bike_id": "d99f4a42030625769fd736b05cf37d68", "lat": 38.963168333333336, "fusion_lon": 0.0, "fusion_lat": 0.0, "type": "electric_bike", "name": "d99f4a42030625769fd736b05cf37d68", "is_disabled": 0, "rental_uris": {"ios": "https://dc.lft.to/lastmile_qr_scan", "android": "https://dc.lft.to/lastmile_qr_scan"}, "is_reserved": 0}, {"lon": -77.02436733333333, "bike_id": "2ac220562b9304d63700df75b3e27563", "lat": 38.916949, "fusion_lon": 0.0, "fusion_lat": 0.0, "type": "electric_scooter", "name": "2ac220562b9304d63700df75b3e27563", "is_disabled": 0, "rental_uris": {"ios": "https://dc.lft.to/lastmile_qr_scan", "android": "https://dc.lft.to/lastmile_qr_scan"}, "is_reserved": 0}, {"lon": -77.00337416666666, "bike_id": "a8e10d9877a1e0931a3ddcf59820f52f", "lat": 38.8952805, "fusion_lon": 0.0, "fusion_lat": 0.0, "type": "electric_scooter", "name": "a8e10d9877a1e0931a3ddcf59820f52f", "is_disabled": 0, "rental_uris": {"ios": "https://dc.lft.to/lastmile_qr_scan", "android": "https://dc.lft.to/lastmile_qr_scan"}, "is_reserved": 0}, {"lon": -76.97856383333334, "bike_id": "49f9ea93fc7618395787e5c50d6a5f29", "lat": 38.925597, "fusion_lon": 0.0, "fusion_lat": 0.0, "type": "electric_bike", "name": "49f9ea93fc7618395787e5c50d6a5f29", "is_disabled": 0, "rental_uris": {"ios": "https://dc.lft.to/lastmile_qr_scan", "android": "https://dc.lft.to/lastmile_qr_scan"}, "is_reserved": 0}, {"lon": -76.94877233333334, "bike_id": "d8b7a6cde515920724a1884670e225c0", "lat": 38.89548933333333, "fusion_lon": 0.0, "fusion_lat": 0.0, "type": "electric_scooter", "name": "d8b7a6cde515920724a1884670e225c0", "is_disabled": 0, "rental_uris": {"ios": "https://dc.lft.to/lastmile_qr_scan", "android": "https://dc.lft.to/lastmile_qr_scan"}, "is_reserved": 0}, {"lon": -77.07009333333333, "bike_id": "dfc2225ae85abad14bd156431ff20464", "lat": 38.95853666666667, "fusion_lon": 0.0, "fusion_lat": 0.0, "type": "electric_scooter", "name": "dfc2225ae85abad14bd156431ff20464", "is_disabled": 0, "rental_uris": {"ios": "https://dc.lft.to/lastmile_qr_scan", "android": "https://dc.lft.to/lastmile_qr_scan"}, "is_reserved": 0}, {"lon": -77.04152883333333, "bike_id": "a0efe68402eb63cb67c448d2475ef0ed", "lat": 38.9155275, "fusion_lon": 0.0, "fusion_lat": 0.0, "type": "electric_scooter", "name": "a0efe68402eb63cb67c448d2475ef0ed", "is_disabled": 0, "rental_uris": {"ios": "https://dc.lft.to/lastmile_qr_scan", "android": "https://dc.lft.to/lastmile_qr_scan"}, "is_reserved": 0}, {"lon": -76.99935433333333, "bike_id": "0e27be5cad8fda56c515df0c706f89f1", "lat": 38.843049, "fusion_lon": 0.0, "fusion_lat": 0.0, "type": "electric_scooter", "name": "0e27be5cad8fda56c515df0c706f89f1", "is_disabled": 0, "rental_uris": {"ios": "https://dc.lft.to/lastmile_qr_scan", "android": "https://dc.lft.to/lastmile_qr_scan"}, "is_reserved": 0}, {"lon": -77.052531, "bike_id": "b5ac93d048346b16ea1220c9aac9101c", "lat": 38.92380333333333, "fusion_lon": 0.0, "fusion_lat": 0.0, "type": "electric_scooter", "name": "b5ac93d048346b16ea1220c9aac9101c", "is_disabled": 0, "rental_uris": {"ios": "https://dc.lft.to/lastmile_qr_scan", "android": "https://dc.lft.to/lastmile_qr_scan"}, "is_reserved": 0}, {"lon": -77.0208855, "bike_id": "ce1cc82b8f210872e045bd011ff1fff7", "lat": 38.94524366666667, "fusion_lon": 0.0, "fusion_lat": 0.0, "type": "electric_scooter", "name": "ce1cc82b8f210872e045bd011ff1fff7", "is_disabled": 0, "rental_uris": {"ios": "https://dc.lft.to/lastmile_qr_scan", "android": "https://dc.lft.to/lastmile_qr_scan"}, "is_reserved": 0}, {"lon": -77.039543, "bike_id": "2f3bb2e37f5d9145070f17828cc0a84f", "lat": 38.900958833333334, "fusion_lon": 0.0, "fusion_lat": 0.0, "type": "electric_scooter", "name": "2f3bb2e37f5d9145070f17828cc0a84f", "is_disabled": 0, "rental_uris": {"ios": "https://dc.lft.to/lastmile_qr_scan", "android": "https://dc.lft.to/lastmile_qr_scan"}, "is_reserved": 0}, {"lon": -76.993754, "bike_id": "48535c9de7394529f0198dd91ccf47dc", "lat": 38.971873333333335, "fusion_lon": 0.0, "fusion_lat": 0.0, "type": "electric_bike", "name": "48535c9de7394529f0198dd91ccf47dc", "is_disabled": 0, "rental_uris": {"ios": "https://dc.lft.to/lastmile_qr_scan", "android": "https://dc.lft.to/lastmile_qr_scan"}, "is_reserved": 0}, {"lon": -77.06733, "bike_id": "054f50bd62de834b7a4fa09a75af3df8", "lat": 38.90354966666666, "fusion_lon": 0.0, "fusion_lat": 0.0, "type": "electric_scooter", "name": "054f50bd62de834b7a4fa09a75af3df8", "is_disabled": 0, "rental_uris": {"ios": "https://dc.lft.to/lastmile_qr_scan", "android": "https://dc.lft.to/lastmile_qr_scan"}, "is_reserved": 0}, {"lon": -77.02756016666666, "bike_id": "f40f15fe81cb026b2e9f826910580acc", "lat": 38.89223466666667, "fusion_lon": 0.0, "fusion_lat": 0.0, "type": "electric_scooter", "name": "f40f15fe81cb026b2e9f826910580acc", "is_disabled": 0, "rental_uris": {"ios": "https://dc.lft.to/lastmile_qr_scan", "android": "https://dc.lft.to/lastmile_qr_scan"}, "is_reserved": 0}, {"lon": -77.04381083333334, "bike_id": "2bd2b64e4f9e16dacd78a5b17c1b8ebb", "lat": 38.9211245, "fusion_lon": 0.0, "fusion_lat": 0.0, "type": "electric_scooter", "name": "2bd2b64e4f9e16dacd78a5b17c1b8ebb", "is_disabled": 0, "rental_uris": {"ios": "https://dc.lft.to/lastmile_qr_scan", "android": "https://dc.lft.to/lastmile_qr_scan"}, "is_reserved": 0}, {"lon": -77.0309465, "bike_id": "09e6822ad40ee00221da22d472996469", "lat": 38.9339295, "fusion_lon": 0.0, "fusion_lat": 0.0, "type": "electric_scooter", "name": "09e6822ad40ee00221da22d472996469", "is_disabled": 0, "rental_uris": {"ios": "https://dc.lft.to/lastmile_qr_scan", "android": "https://dc.lft.to/lastmile_qr_scan"}, "is_reserved": 0}, {"lon": -77.03352433333333, "bike_id": "ea15fe224015126127b946f27c1413a9", "lat": 38.962481833333335, "fusion_lon": 0.0, "fusion_lat": 0.0, "type": "electric_scooter", "name": "ea15fe224015126127b946f27c1413a9", "is_disabled": 0, "rental_uris": {"ios": "https://dc.lft.to/lastmile_qr_scan", "android": "https://dc.lft.to/lastmile_qr_scan"}, "is_reserved": 0}, {"lon": -77.0085725, "bike_id": "1043e6e91972bb3f077368f3fa6697a4", "lat": 38.912571166666666, "fusion_lon": 0.0, "fusion_lat": 0.0, "type": "electric_scooter", "name": "1043e6e91972bb3f077368f3fa6697a4", "is_disabled": 0, "rental_uris": {"ios": "https://dc.lft.to/lastmile_qr_scan", "android": "https://dc.lft.to/lastmile_qr_scan"}, "is_reserved": 0}, {"lon": -77.01758766666667, "bike_id": "179658d2cd3002104d346d4e2b0d3f1f", "lat": 38.88585666666667, "fusion_lon": 0.0, "fusion_lat": 0.0, "type": "electric_scooter", "name": "179658d2cd3002104d346d4e2b0d3f1f", "is_disabled": 0, "rental_uris": {"ios": "https://dc.lft.to/lastmile_qr_scan", "android": "https://dc.lft.to/lastmile_qr_scan"}, "is_reserved": 0}, {"lon": -77.03423516666666, "bike_id": "642ad468084c5e33894a12340ba6f945", "lat": 38.92740933333333, "fusion_lon": 0.0, "fusion_lat": 0.0, "type": "electric_scooter", "name": "642ad468084c5e33894a12340ba6f945", "is_disabled": 0, "rental_uris": {"ios": "https://dc.lft.to/lastmile_qr_scan", "android": "https://dc.lft.to/lastmile_qr_scan"}, "is_reserved": 0}, {"lon": -77.02655616666667, "bike_id": "b49c1f1960293ed3d4e58c88b59f2bd0", "lat": 38.89825333333334, "fusion_lon": 0.0, "fusion_lat": 0.0, "type": "electric_scooter", "name": "b49c1f1960293ed3d4e58c88b59f2bd0", "is_disabled": 0, "rental_uris": {"ios": "https://dc.lft.to/lastmile_qr_scan", "android": "https://dc.lft.to/lastmile_qr_scan"}, "is_reserved": 0}, {"lon": -77.03631583333333, "bike_id": "59fe751a398845a1551191b595965de7", "lat": 38.923291166666665, "fusion_lon": 0.0, "fusion_lat": 0.0, "type": "electric_scooter", "name": "59fe751a398845a1551191b595965de7", "is_disabled": 0, "rental_uris": {"ios": "https://dc.lft.to/lastmile_qr_scan", "android": "https://dc.lft.to/lastmile_qr_scan"}, "is_reserved": 0}, {"lon": -77.027932, "bike_id": "134ea5fd9630d4587e4acfd8e6c0020d", "lat": 38.95411633333333, "fusion_lon": 0.0, "fusion_lat": 0.0, "type": "electric_scooter", "name": "134ea5fd9630d4587e4acfd8e6c0020d", "is_disabled": 0, "rental_uris": {"ios": "https://dc.lft.to/lastmile_qr_scan", "android": "https://dc.lft.to/lastmile_qr_scan"}, "is_reserved": 0}, {"lon": -77.038699, "bike_id": "97c098e59907a62295d4ec6ec50b73a1", "lat": 38.91415166666667, "fusion_lon": 0.0, "fusion_lat": 0.0, "type": "electric_scooter", "name": "97c098e59907a62295d4ec6ec50b73a1", "is_disabled": 0, "rental_uris": {"ios": "https://dc.lft.to/lastmile_qr_scan", "android": "https://dc.lft.to/lastmile_qr_scan"}, "is_reserved": 0}, {"lon": -76.99128233333333, "bike_id": "a3ec528c5eaa72004f36530cdb9f5d07", "lat": 38.922738833333334, "fusion_lon": 0.0, "fusion_lat": 0.0, "type": "electric_scooter", "name": "a3ec528c5eaa72004f36530cdb9f5d07", "is_disabled": 0, "rental_uris": {"ios": "https://dc.lft.to/lastmile_qr_scan", "android": "https://dc.lft.to/lastmile_qr_scan"}, "is_reserved": 0}, {"lon": -77.02657383333333, "bike_id": "7cfca7557746ebd185007e084519d90a", "lat": 38.9846175, "fusion_lon": 0.0, "fusion_lat": 0.0, "type": "electric_scooter", "name": "7cfca7557746ebd185007e084519d90a", "is_disabled": 0, "rental_uris": {"ios": "https://dc.lft.to/lastmile_qr_scan", "android": "https://dc.lft.to/lastmile_qr_scan"}, "is_reserved": 0}, {"lon": -77.01999166666667, "bike_id": "62f199c4452ed5a73e7f8c8a2724d299", "lat": 38.90449983333333, "fusion_lon": 0.0, "fusion_lat": 0.0, "type": "electric_scooter", "name": "62f199c4452ed5a73e7f8c8a2724d299", "is_disabled": 0, "rental_uris": {"ios": "https://dc.lft.to/lastmile_qr_scan", "android": "https://dc.lft.to/lastmile_qr_scan"}, "is_reserved": 0}, {"lon": -77.02812, "bike_id": "00bf617b80052fef83b0c60734101b9a", "lat": 38.881791666666665, "fusion_lon": 0.0, "fusion_lat": 0.0, "type": "electric_scooter", "name": "00bf617b80052fef83b0c60734101b9a", "is_disabled": 0, "rental_uris": {"ios": "https://dc.lft.to/lastmile_qr_scan", "android": "https://dc.lft.to/lastmile_qr_scan"}, "is_reserved": 0}, {"lon": -77.037218, "bike_id": "46e95df24400d75eb51c1a6f1e4c599b", "lat": 38.926392, "fusion_lon": 0.0, "fusion_lat": 0.0, "type": "electric_scooter", "name": "46e95df24400d75eb51c1a6f1e4c599b", "is_disabled": 0, "rental_uris": {"ios": "https://dc.lft.to/lastmile_qr_scan", "android": "https://dc.lft.to/lastmile_qr_scan"}, "is_reserved": 0}, {"lon": -77.02978, "bike_id": "9d8051979d7acfedc099f9f8afe60b74", "lat": 38.921968666666665, "fusion_lon": 0.0, "fusion_lat": 0.0, "type": "electric_scooter", "name": "9d8051979d7acfedc099f9f8afe60b74", "is_disabled": 0, "rental_uris": {"ios": "https://dc.lft.to/lastmile_qr_scan", "android": "https://dc.lft.to/lastmile_qr_scan"}, "is_reserved": 0}, {"lon": -77.0243965, "bike_id": "3e55ac104443d1d45b217917c2bc9fa6", "lat": 38.92499383333333, "fusion_lon": 0.0, "fusion_lat": 0.0, "type": "electric_scooter", "name": "3e55ac104443d1d45b217917c2bc9fa6", "is_disabled": 0, "rental_uris": {"ios": "https://dc.lft.to/lastmile_qr_scan", "android": "https://dc.lft.to/lastmile_qr_scan"}, "is_reserved": 0}, {"lon": -77.02098883333333, "bike_id": "10bf53d34f92b15af6df209757e857f2", "lat": 38.90975183333333, "fusion_lon": 0.0, "fusion_lat": 0.0, "type": "electric_scooter", "name": "10bf53d34f92b15af6df209757e857f2", "is_disabled": 0, "rental_uris": {"ios": "https://dc.lft.to/lastmile_qr_scan", "android": "https://dc.lft.to/lastmile_qr_scan"}, "is_reserved": 0}, {"lon": -76.9954255, "bike_id": "241b0ca95fb9a5445c35c95a08091494", "lat": 38.862608333333334, "fusion_lon": 0.0, "fusion_lat": 0.0, "type": "electric_scooter", "name": "241b0ca95fb9a5445c35c95a08091494", "is_disabled": 0, "rental_uris": {"ios": "https://dc.lft.to/lastmile_qr_scan", "android": "https://dc.lft.to/lastmile_qr_scan"}, "is_reserved": 0}, {"lon": -77.016238, "bike_id": "e9589e311b7d4f3ee770ec7df3f75ff5", "lat": 38.9006605, "fusion_lon": 0.0, "fusion_lat": 0.0, "type": "electric_scooter", "name": "e9589e311b7d4f3ee770ec7df3f75ff5", "is_disabled": 0, "rental_uris": {"ios": "https://dc.lft.to/lastmile_qr_scan", "android": "https://dc.lft.to/lastmile_qr_scan"}, "is_reserved": 0}, {"lon": -76.96386, "bike_id": "e57cbc1c49aec3064ed5f009b960fdc3", "lat": 38.95183133333333, "fusion_lon": 0.0, "fusion_lat": 0.0, "type": "electric_bike", "name": "e57cbc1c49aec3064ed5f009b960fdc3", "is_disabled": 0, "rental_uris": {"ios": "https://dc.lft.to/lastmile_qr_scan", "android": "https://dc.lft.to/lastmile_qr_scan"}, "is_reserved": 0}, {"lon": -77.02146766666667, "bike_id": "5e327bdc54b6e34fd54f568eab2b601d", "lat": 38.904181, "fusion_lon": 0.0, "fusion_lat": 0.0, "type": "electric_scooter", "name": "5e327bdc54b6e34fd54f568eab2b601d", "is_disabled": 0, "rental_uris": {"ios": "https://dc.lft.to/lastmile_qr_scan", "android": "https://dc.lft.to/lastmile_qr_scan"}, "is_reserved": 0}, {"lon": -77.0333235, "bike_id": "80f5cdd4cb504bf3da395d1579b79cb6", "lat": 38.96051, "fusion_lon": 0.0, "fusion_lat": 0.0, "type": "electric_scooter", "name": "80f5cdd4cb504bf3da395d1579b79cb6", "is_disabled": 0, "rental_uris": {"ios": "https://dc.lft.to/lastmile_qr_scan", "android": "https://dc.lft.to/lastmile_qr_scan"}, "is_reserved": 0}, {"lon": -77.00552616666667, "bike_id": "edcfe0fa20f1d6d241928e5621b31e01", "lat": 38.911793833333334, "fusion_lon": 0.0, "fusion_lat": 0.0, "type": "electric_scooter", "name": "edcfe0fa20f1d6d241928e5621b31e01", "is_disabled": 0, "rental_uris": {"ios": "https://dc.lft.to/lastmile_qr_scan", "android": "https://dc.lft.to/lastmile_qr_scan"}, "is_reserved": 0}, {"lon": -77.03439966666667, "bike_id": "fdf5532f30f9c4c8509b30b73f753301", "lat": 38.90312816666667, "fusion_lon": 0.0, "fusion_lat": 0.0, "type": "electric_scooter", "name": "fdf5532f30f9c4c8509b30b73f753301", "is_disabled": 0, "rental_uris": {"ios": "https://dc.lft.to/lastmile_qr_scan", "android": "https://dc.lft.to/lastmile_qr_scan"}, "is_reserved": 0}, {"lon": -77.04815916666666, "bike_id": "8f06fb1aff5e4754a218107815c1ba64", "lat": 38.9164, "fusion_lon": 0.0, "fusion_lat": 0.0, "type": "electric_scooter", "name": "8f06fb1aff5e4754a218107815c1ba64", "is_disabled": 0, "rental_uris": {"ios": "https://dc.lft.to/lastmile_qr_scan", "android": "https://dc.lft.to/lastmile_qr_scan"}, "is_reserved": 0}, {"lon": -77.0289675, "bike_id": "976677742d19739b71b822b02c22fec0", "lat": 38.90376, "fusion_lon": 0.0, "fusion_lat": 0.0, "type": "electric_scooter", "name": "976677742d19739b71b822b02c22fec0", "is_disabled": 0, "rental_uris": {"ios": "https://dc.lft.to/lastmile_qr_scan", "android": "https://dc.lft.to/lastmile_qr_scan"}, "is_reserved": 0}, {"lon": -76.999569, "bike_id": "e266b5ea1930c973f08e45dbe845700d", "lat": 38.908668, "fusion_lon": 0.0, "fusion_lat": 0.0, "type": "electric_scooter", "name": "e266b5ea1930c973f08e45dbe845700d", "is_disabled": 0, "rental_uris": {"ios": "https://dc.lft.to/lastmile_qr_scan", "android": "https://dc.lft.to/lastmile_qr_scan"}, "is_reserved": 0}, {"lon": -76.97619916666666, "bike_id": "98e5d63c0e25cd6a117c5489bb4df6b0", "lat": 38.90384983333333, "fusion_lon": 0.0, "fusion_lat": 0.0, "type": "electric_scooter", "name": "98e5d63c0e25cd6a117c5489bb4df6b0", "is_disabled": 0, "rental_uris": {"ios": "https://dc.lft.to/lastmile_qr_scan", "android": "https://dc.lft.to/lastmile_qr_scan"}, "is_reserved": 0}, {"lon": -77.025414, "bike_id": "870d3fc3cc84d442610f73a8bb4d60fa", "lat": 38.91996316666667, "fusion_lon": 0.0, "fusion_lat": 0.0, "type": "electric_scooter", "name": "870d3fc3cc84d442610f73a8bb4d60fa", "is_disabled": 0, "rental_uris": {"ios": "https://dc.lft.to/lastmile_qr_scan", "android": "https://dc.lft.to/lastmile_qr_scan"}, "is_reserved": 0}, {"lon": -77.00917183333334, "bike_id": "aec9676ab97583a946733ad5dfccf87b", "lat": 38.82784733333333, "fusion_lon": 0.0, "fusion_lat": 0.0, "type": "electric_bike", "name": "aec9676ab97583a946733ad5dfccf87b", "is_disabled": 0, "rental_uris": {"ios": "https://dc.lft.to/lastmile_qr_scan", "android": "https://dc.lft.to/lastmile_qr_scan"}, "is_reserved": 0}, {"lon": -76.98668166666667, "bike_id": "683d1798ac817cc01b0dd6825acb705b", "lat": 38.90249133333333, "fusion_lon": 0.0, "fusion_lat": 0.0, "type": "electric_scooter", "name": "683d1798ac817cc01b0dd6825acb705b", "is_disabled": 0, "rental_uris": {"ios": "https://dc.lft.to/lastmile_qr_scan", "android": "https://dc.lft.to/lastmile_qr_scan"}, "is_reserved": 0}, {"lon": -77.02976516666666, "bike_id": "173eaf33a1f1563b4cb046cc4cbbf31d", "lat": 38.923911, "fusion_lon": 0.0, "fusion_lat": 0.0, "type": "electric_scooter", "name": "173eaf33a1f1563b4cb046cc4cbbf31d", "is_disabled": 0, "rental_uris": {"ios": "https://dc.lft.to/lastmile_qr_scan", "android": "https://dc.lft.to/lastmile_qr_scan"}, "is_reserved": 0}, {"lon": -77.04716616666667, "bike_id": "04da07c073b59a14d080aaa3125f6c0b", "lat": 38.9223595, "fusion_lon": 0.0, "fusion_lat": 0.0, "type": "electric_scooter", "name": "04da07c073b59a14d080aaa3125f6c0b", "is_disabled": 0, "rental_uris": {"ios": "https://dc.lft.to/lastmile_qr_scan", "android": "https://dc.lft.to/lastmile_qr_scan"}, "is_reserved": 0}, {"lon": -77.03853566666666, "bike_id": "34fc51b760e666440680e57ca0c5bf39", "lat": 38.9068305, "fusion_lon": 0.0, "fusion_lat": 0.0, "type": "electric_scooter", "name": "34fc51b760e666440680e57ca0c5bf39", "is_disabled": 0, "rental_uris": {"ios": "https://dc.lft.to/lastmile_qr_scan", "android": "https://dc.lft.to/lastmile_qr_scan"}, "is_reserved": 0}, {"lon": -77.06914616666667, "bike_id": "961c6ed18b2bc603b1100cd824b0d1c8", "lat": 38.904369833333334, "fusion_lon": 0.0, "fusion_lat": 0.0, "type": "electric_bike", "name": "961c6ed18b2bc603b1100cd824b0d1c8", "is_disabled": 0, "rental_uris": {"ios": "https://dc.lft.to/lastmile_qr_scan", "android": "https://dc.lft.to/lastmile_qr_scan"}, "is_reserved": 0}, {"lon": -77.028068, "bike_id": "15f5c9cb94f362743d94dfb604a29c76", "lat": 38.92014866666667, "fusion_lon": 0.0, "fusion_lat": 0.0, "type": "electric_scooter", "name": "15f5c9cb94f362743d94dfb604a29c76", "is_disabled": 0, "rental_uris": {"ios": "https://dc.lft.to/lastmile_qr_scan", "android": "https://dc.lft.to/lastmile_qr_scan"}, "is_reserved": 0}, {"lon": -76.93609533333333, "bike_id": "4ad82bd67d272d78608635020518e80a", "lat": 38.89681433333333, "fusion_lon": 0.0, "fusion_lat": 0.0, "type": "electric_scooter", "name": "4ad82bd67d272d78608635020518e80a", "is_disabled": 0, "rental_uris": {"ios": "https://dc.lft.to/lastmile_qr_scan", "android": "https://dc.lft.to/lastmile_qr_scan"}, "is_reserved": 0}, {"lon": -76.98232966666667, "bike_id": "8f584124f81842fe35033bb85ae096e8", "lat": 38.9165295, "fusion_lon": 0.0, "fusion_lat": 0.0, "type": "electric_scooter", "name": "8f584124f81842fe35033bb85ae096e8", "is_disabled": 0, "rental_uris": {"ios": "https://dc.lft.to/lastmile_qr_scan", "android": "https://dc.lft.to/lastmile_qr_scan"}, "is_reserved": 0}, {"lon": -77.00066233333334, "bike_id": "b6528fc94dd24d204d40199c244bd1b4", "lat": 38.92435783333333, "fusion_lon": 0.0, "fusion_lat": 0.0, "type": "electric_scooter", "name": "b6528fc94dd24d204d40199c244bd1b4", "is_disabled": 0, "rental_uris": {"ios": "https://dc.lft.to/lastmile_qr_scan", "android": "https://dc.lft.to/lastmile_qr_scan"}, "is_reserved": 0}, {"lon": -77.04270083333333, "bike_id": "d8a0ee14a9360f1a1ce3d898e10122fe", "lat": 38.91781783333333, "fusion_lon": 0.0, "fusion_lat": 0.0, "type": "electric_scooter", "name": "d8a0ee14a9360f1a1ce3d898e10122fe", "is_disabled": 0, "rental_uris": {"ios": "https://dc.lft.to/lastmile_qr_scan", "android": "https://dc.lft.to/lastmile_qr_scan"}, "is_reserved": 0}, {"lon": -77.06261733333334, "bike_id": "53d376fa30fa28308a88aff1020bc490", "lat": 38.90531283333333, "fusion_lon": 0.0, "fusion_lat": 0.0, "type": "electric_scooter", "name": "53d376fa30fa28308a88aff1020bc490", "is_disabled": 0, "rental_uris": {"ios": "https://dc.lft.to/lastmile_qr_scan", "android": "https://dc.lft.to/lastmile_qr_scan"}, "is_reserved": 0}, {"lon": -77.03190583333334, "bike_id": "39773f5d2f05c0ece6af736c141584a2", "lat": 38.91687616666667, "fusion_lon": 0.0, "fusion_lat": 0.0, "type": "electric_scooter", "name": "39773f5d2f05c0ece6af736c141584a2", "is_disabled": 0, "rental_uris": {"ios": "https://dc.lft.to/lastmile_qr_scan", "android": "https://dc.lft.to/lastmile_qr_scan"}, "is_reserved": 0}, {"lon": -77.00205133333333, "bike_id": "ab672b76ff34e7063e5a4e6a669c097a", "lat": 38.902462, "fusion_lon": 0.0, "fusion_lat": 0.0, "type": "electric_scooter", "name": "ab672b76ff34e7063e5a4e6a669c097a", "is_disabled": 0, "rental_uris": {"ios": "https://dc.lft.to/lastmile_qr_scan", "android": "https://dc.lft.to/lastmile_qr_scan"}, "is_reserved": 0}, {"lon": -77.04391266666667, "bike_id": "13e6028dd70cc7e6301e8ec79758055a", "lat": 39.04715733333333, "fusion_lon": 0.0, "fusion_lat": 0.0, "type": "electric_bike", "name": "13e6028dd70cc7e6301e8ec79758055a", "is_disabled": 0, "rental_uris": {"ios": "https://dc.lft.to/lastmile_qr_scan", "android": "https://dc.lft.to/lastmile_qr_scan"}, "is_reserved": 0}, {"lon": -77.050004, "bike_id": "2af50d432ff99fb6ad99882299346ad7", "lat": 38.892345, "fusion_lon": 0.0, "fusion_lat": 0.0, "type": "electric_scooter", "name": "2af50d432ff99fb6ad99882299346ad7", "is_disabled": 0, "rental_uris": {"ios": "https://dc.lft.to/lastmile_qr_scan", "android": "https://dc.lft.to/lastmile_qr_scan"}, "is_reserved": 0}, {"lon": -77.03970433333333, "bike_id": "a12a98ddc3c574d2d3ce06b2a202bf8f", "lat": 38.90268733333333, "fusion_lon": 0.0, "fusion_lat": 0.0, "type": "electric_scooter", "name": "a12a98ddc3c574d2d3ce06b2a202bf8f", "is_disabled": 0, "rental_uris": {"ios": "https://dc.lft.to/lastmile_qr_scan", "android": "https://dc.lft.to/lastmile_qr_scan"}, "is_reserved": 0}, {"lon": -77.044002, "bike_id": "cefba89294fcf43212f74173c9c77647", "lat": 38.92447683333333, "fusion_lon": 0.0, "fusion_lat": 0.0, "type": "electric_scooter", "name": "cefba89294fcf43212f74173c9c77647", "is_disabled": 0, "rental_uris": {"ios": "https://dc.lft.to/lastmile_qr_scan", "android": "https://dc.lft.to/lastmile_qr_scan"}, "is_reserved": 0}, {"lon": -77.022263, "bike_id": "6fd3887a29ad2c14cd1c60e2e81cabfc", "lat": 38.92615133333334, "fusion_lon": 0.0, "fusion_lat": 0.0, "type": "electric_scooter", "name": "6fd3887a29ad2c14cd1c60e2e81cabfc", "is_disabled": 0, "rental_uris": {"ios": "https://dc.lft.to/lastmile_qr_scan", "android": "https://dc.lft.to/lastmile_qr_scan"}, "is_reserved": 0}, {"lon": -77.02183966666666, "bike_id": "78b0ec8167550836ae82e2ecb5bcb39a", "lat": 38.9394755, "fusion_lon": 0.0, "fusion_lat": 0.0, "type": "electric_scooter", "name": "78b0ec8167550836ae82e2ecb5bcb39a", "is_disabled": 0, "rental_uris": {"ios": "https://dc.lft.to/lastmile_qr_scan", "android": "https://dc.lft.to/lastmile_qr_scan"}, "is_reserved": 0}, {"lon": -77.0421235, "bike_id": "1838990f7a773f930585532943bd966e", "lat": 38.921293666666664, "fusion_lon": 0.0, "fusion_lat": 0.0, "type": "electric_scooter", "name": "1838990f7a773f930585532943bd966e", "is_disabled": 0, "rental_uris": {"ios": "https://dc.lft.to/lastmile_qr_scan", "android": "https://dc.lft.to/lastmile_qr_scan"}, "is_reserved": 0}, {"lon": -77.0210975, "bike_id": "b0b37880f59807b1616f26bc195ec415", "lat": 38.9060385, "fusion_lon": 0.0, "fusion_lat": 0.0, "type": "electric_scooter", "name": "b0b37880f59807b1616f26bc195ec415", "is_disabled": 0, "rental_uris": {"ios": "https://dc.lft.to/lastmile_qr_scan", "android": "https://dc.lft.to/lastmile_qr_scan"}, "is_reserved": 0}, {"lon": -76.98920716666666, "bike_id": "a446bb1e96849730e5b450e4848fea5b", "lat": 38.85808816666667, "fusion_lon": 0.0, "fusion_lat": 0.0, "type": "electric_scooter", "name": "a446bb1e96849730e5b450e4848fea5b", "is_disabled": 0, "rental_uris": {"ios": "https://dc.lft.to/lastmile_qr_scan", "android": "https://dc.lft.to/lastmile_qr_scan"}, "is_reserved": 0}, {"lon": -77.0020325, "bike_id": "f8da9a026cac4ffc218cd80f84078451", "lat": 38.902426, "fusion_lon": 0.0, "fusion_lat": 0.0, "type": "electric_scooter", "name": "f8da9a026cac4ffc218cd80f84078451", "is_disabled": 0, "rental_uris": {"ios": "https://dc.lft.to/lastmile_qr_scan", "android": "https://dc.lft.to/lastmile_qr_scan"}, "is_reserved": 0}, {"lon": -77.05923166666666, "bike_id": "43b1f9231cb2f016ca153687c2a2df22", "lat": 38.86244333333333, "fusion_lon": 0.0, "fusion_lat": 0.0, "type": "electric_scooter", "name": "43b1f9231cb2f016ca153687c2a2df22", "is_disabled": 0, "rental_uris": {"ios": "https://dc.lft.to/lastmile_qr_scan", "android": "https://dc.lft.to/lastmile_qr_scan"}, "is_reserved": 0}, {"lon": -77.00843833333333, "bike_id": "e4f0dbcfe6fcddc34906f2e3ed2c1490", "lat": 38.9162625, "fusion_lon": 0.0, "fusion_lat": 0.0, "type": "electric_scooter", "name": "e4f0dbcfe6fcddc34906f2e3ed2c1490", "is_disabled": 0, "rental_uris": {"ios": "https://dc.lft.to/lastmile_qr_scan", "android": "https://dc.lft.to/lastmile_qr_scan"}, "is_reserved": 0}, {"lon": -77.029718, "bike_id": "a91589a2387fea8b7f62890b47f05126", "lat": 38.896414, "fusion_lon": 0.0, "fusion_lat": 0.0, "type": "electric_scooter", "name": "a91589a2387fea8b7f62890b47f05126", "is_disabled": 0, "rental_uris": {"ios": "https://dc.lft.to/lastmile_qr_scan", "android": "https://dc.lft.to/lastmile_qr_scan"}, "is_reserved": 0}, {"lon": -77.041956, "bike_id": "83b634a90d6d54f19c485b1fb6e69895", "lat": 38.9206975, "fusion_lon": 0.0, "fusion_lat": 0.0, "type": "electric_scooter", "name": "83b634a90d6d54f19c485b1fb6e69895", "is_disabled": 0, "rental_uris": {"ios": "https://dc.lft.to/lastmile_qr_scan", "android": "https://dc.lft.to/lastmile_qr_scan"}, "is_reserved": 0}, {"lon": -77.0418365, "bike_id": "0163df2e3712b7a5327cb5837cc4b1ea", "lat": 38.90371066666667, "fusion_lon": 0.0, "fusion_lat": 0.0, "type": "electric_scooter", "name": "0163df2e3712b7a5327cb5837cc4b1ea", "is_disabled": 0, "rental_uris": {"ios": "https://dc.lft.to/lastmile_qr_scan", "android": "https://dc.lft.to/lastmile_qr_scan"}, "is_reserved": 0}, {"lon": -77.03667716666666, "bike_id": "b5d51f37e54569a640dae0efae740202", "lat": 38.920907666666665, "fusion_lon": 0.0, "fusion_lat": 0.0, "type": "electric_scooter", "name": "b5d51f37e54569a640dae0efae740202", "is_disabled": 0, "rental_uris": {"ios": "https://dc.lft.to/lastmile_qr_scan", "android": "https://dc.lft.to/lastmile_qr_scan"}, "is_reserved": 0}, {"lon": -77.02940783333334, "bike_id": "dfde3aa397fd6fa40bca55b7c8124f01", "lat": 38.9172015, "fusion_lon": 0.0, "fusion_lat": 0.0, "type": "electric_scooter", "name": "dfde3aa397fd6fa40bca55b7c8124f01", "is_disabled": 0, "rental_uris": {"ios": "https://dc.lft.to/lastmile_qr_scan", "android": "https://dc.lft.to/lastmile_qr_scan"}, "is_reserved": 0}, {"lon": -77.04253983333334, "bike_id": "78b1916dcd8fcb30dd7fa2baa89c7585", "lat": 38.9225355, "fusion_lon": 0.0, "fusion_lat": 0.0, "type": "electric_scooter", "name": "78b1916dcd8fcb30dd7fa2baa89c7585", "is_disabled": 0, "rental_uris": {"ios": "https://dc.lft.to/lastmile_qr_scan", "android": "https://dc.lft.to/lastmile_qr_scan"}, "is_reserved": 0}, {"lon": -77.03086066666667, "bike_id": "94d305ac1201c0d43ab788321d1b00e7", "lat": 38.9075765, "fusion_lon": 0.0, "fusion_lat": 0.0, "type": "electric_scooter", "name": "94d305ac1201c0d43ab788321d1b00e7", "is_disabled": 0, "rental_uris": {"ios": "https://dc.lft.to/lastmile_qr_scan", "android": "https://dc.lft.to/lastmile_qr_scan"}, "is_reserved": 0}, {"lon": -77.0338505, "bike_id": "28d82eabd3798403d08ec11a904930ea", "lat": 38.9015845, "fusion_lon": 0.0, "fusion_lat": 0.0, "type": "electric_scooter", "name": "28d82eabd3798403d08ec11a904930ea", "is_disabled": 0, "rental_uris": {"ios": "https://dc.lft.to/lastmile_qr_scan", "android": "https://dc.lft.to/lastmile_qr_scan"}, "is_reserved": 0}, {"lon": -77.03526166666667, "bike_id": "abebc78cd108e48e1d541781c9aad172", "lat": 38.923483833333336, "fusion_lon": 0.0, "fusion_lat": 0.0, "type": "electric_scooter", "name": "abebc78cd108e48e1d541781c9aad172", "is_disabled": 0, "rental_uris": {"ios": "https://dc.lft.to/lastmile_qr_scan", "android": "https://dc.lft.to/lastmile_qr_scan"}, "is_reserved": 0}, {"lon": -77.02724616666667, "bike_id": "de2eb14693a850e01711a1e56fb61ac2", "lat": 38.93377233333333, "fusion_lon": 0.0, "fusion_lat": 0.0, "type": "electric_scooter", "name": "de2eb14693a850e01711a1e56fb61ac2", "is_disabled": 0, "rental_uris": {"ios": "https://dc.lft.to/lastmile_qr_scan", "android": "https://dc.lft.to/lastmile_qr_scan"}, "is_reserved": 0}, {"lon": -77.019716, "bike_id": "8d1080aad40eacf154abd3c32c7d9dec", "lat": 38.97744433333333, "fusion_lon": 0.0, "fusion_lat": 0.0, "type": "electric_scooter", "name": "8d1080aad40eacf154abd3c32c7d9dec", "is_disabled": 0, "rental_uris": {"ios": "https://dc.lft.to/lastmile_qr_scan", "android": "https://dc.lft.to/lastmile_qr_scan"}, "is_reserved": 0}, {"lon": -77.012195, "bike_id": "3b3470c26dd79d9ab7e3e06fc9258704", "lat": 38.916904333333335, "fusion_lon": 0.0, "fusion_lat": 0.0, "type": "electric_scooter", "name": "3b3470c26dd79d9ab7e3e06fc9258704", "is_disabled": 0, "rental_uris": {"ios": "https://dc.lft.to/lastmile_qr_scan", "android": "https://dc.lft.to/lastmile_qr_scan"}, "is_reserved": 0}, {"lon": -77.0366545, "bike_id": "cbe063daf51b035a6c24d6097721eb85", "lat": 38.9129, "fusion_lon": 0.0, "fusion_lat": 0.0, "type": "electric_scooter", "name": "cbe063daf51b035a6c24d6097721eb85", "is_disabled": 0, "rental_uris": {"ios": "https://dc.lft.to/lastmile_qr_scan", "android": "https://dc.lft.to/lastmile_qr_scan"}, "is_reserved": 0}, {"lon": -77.03031483333334, "bike_id": "5b852ddbe8e707826c006ad77df61df9", "lat": 38.93115433333333, "fusion_lon": 0.0, "fusion_lat": 0.0, "type": "electric_scooter", "name": "5b852ddbe8e707826c006ad77df61df9", "is_disabled": 0, "rental_uris": {"ios": "https://dc.lft.to/lastmile_qr_scan", "android": "https://dc.lft.to/lastmile_qr_scan"}, "is_reserved": 0}, {"lon": -77.04382716666667, "bike_id": "d0f5bcb615ca3423cb2cf10ba60bb9d8", "lat": 38.90241016666667, "fusion_lon": 0.0, "fusion_lat": 0.0, "type": "electric_scooter", "name": "d0f5bcb615ca3423cb2cf10ba60bb9d8", "is_disabled": 0, "rental_uris": {"ios": "https://dc.lft.to/lastmile_qr_scan", "android": "https://dc.lft.to/lastmile_qr_scan"}, "is_reserved": 0}, {"lon": -77.02366616666667, "bike_id": "ce6011736dc02e00d45f86c429288a99", "lat": 38.892223666666666, "fusion_lon": 0.0, "fusion_lat": 0.0, "type": "electric_scooter", "name": "ce6011736dc02e00d45f86c429288a99", "is_disabled": 0, "rental_uris": {"ios": "https://dc.lft.to/lastmile_qr_scan", "android": "https://dc.lft.to/lastmile_qr_scan"}, "is_reserved": 0}, {"lon": -77.03654183333333, "bike_id": "e6be0a3293b63bd07320b190050c19d7", "lat": 38.94092583333333, "fusion_lon": 0.0, "fusion_lat": 0.0, "type": "electric_scooter", "name": "e6be0a3293b63bd07320b190050c19d7", "is_disabled": 0, "rental_uris": {"ios": "https://dc.lft.to/lastmile_qr_scan", "android": "https://dc.lft.to/lastmile_qr_scan"}, "is_reserved": 0}, {"lon": -77.02872433333333, "bike_id": "b298c57caa848ac7fac22ef9e490303f", "lat": 38.92815366666667, "fusion_lon": 0.0, "fusion_lat": 0.0, "type": "electric_scooter", "name": "b298c57caa848ac7fac22ef9e490303f", "is_disabled": 0, "rental_uris": {"ios": "https://dc.lft.to/lastmile_qr_scan", "android": "https://dc.lft.to/lastmile_qr_scan"}, "is_reserved": 0}, {"lon": -77.0433685, "bike_id": "44b16defad87716108340a3b8c0e963e", "lat": 38.91778266666667, "fusion_lon": 0.0, "fusion_lat": 0.0, "type": "electric_scooter", "name": "44b16defad87716108340a3b8c0e963e", "is_disabled": 0, "rental_uris": {"ios": "https://dc.lft.to/lastmile_qr_scan", "android": "https://dc.lft.to/lastmile_qr_scan"}, "is_reserved": 0}, {"lon": -76.99684883333333, "bike_id": "b3ec0768cbd54392baa10437fa704424", "lat": 38.8602855, "fusion_lon": 0.0, "fusion_lat": 0.0, "type": "electric_scooter", "name": "b3ec0768cbd54392baa10437fa704424", "is_disabled": 0, "rental_uris": {"ios": "https://dc.lft.to/lastmile_qr_scan", "android": "https://dc.lft.to/lastmile_qr_scan"}, "is_reserved": 0}, {"lon": -77.0211905, "bike_id": "67662804517029eaa6fbbdf4b34c6128", "lat": 38.89737183333333, "fusion_lon": 0.0, "fusion_lat": 0.0, "type": "electric_scooter", "name": "67662804517029eaa6fbbdf4b34c6128", "is_disabled": 0, "rental_uris": {"ios": "https://dc.lft.to/lastmile_qr_scan", "android": "https://dc.lft.to/lastmile_qr_scan"}, "is_reserved": 0}, {"lon": -77.00745116666667, "bike_id": "1c84b2a324570b2e217d4bc0b6f3429f", "lat": 38.983965166666664, "fusion_lon": 0.0, "fusion_lat": 0.0, "type": "electric_bike", "name": "1c84b2a324570b2e217d4bc0b6f3429f", "is_disabled": 0, "rental_uris": {"ios": "https://dc.lft.to/lastmile_qr_scan", "android": "https://dc.lft.to/lastmile_qr_scan"}, "is_reserved": 0}, {"lon": -77.06272916666667, "bike_id": "16afe8a97414aed1f513cef4c1a97767", "lat": 38.904477166666666, "fusion_lon": 0.0, "fusion_lat": 0.0, "type": "electric_scooter", "name": "16afe8a97414aed1f513cef4c1a97767", "is_disabled": 0, "rental_uris": {"ios": "https://dc.lft.to/lastmile_qr_scan", "android": "https://dc.lft.to/lastmile_qr_scan"}, "is_reserved": 0}, {"lon": -77.02384033333334, "bike_id": "55f3795e7ad05e669404b4ed6b3c1615", "lat": 38.90959866666667, "fusion_lon": 0.0, "fusion_lat": 0.0, "type": "electric_scooter", "name": "55f3795e7ad05e669404b4ed6b3c1615", "is_disabled": 0, "rental_uris": {"ios": "https://dc.lft.to/lastmile_qr_scan", "android": "https://dc.lft.to/lastmile_qr_scan"}, "is_reserved": 0}, {"lon": -76.97298283333333, "bike_id": "d66247e52eff90b125e393b1c027fa52", "lat": 38.91644616666667, "fusion_lon": 0.0, "fusion_lat": 0.0, "type": "electric_bike", "name": "d66247e52eff90b125e393b1c027fa52", "is_disabled": 0, "rental_uris": {"ios": "https://dc.lft.to/lastmile_qr_scan", "android": "https://dc.lft.to/lastmile_qr_scan"}, "is_reserved": 0}, {"lon": -77.2333255, "bike_id": "31e8b3540815aadd8f4362e20dc1b9f1", "lat": 38.872805666666665, "fusion_lon": 0.0, "fusion_lat": 0.0, "type": "electric_bike", "name": "31e8b3540815aadd8f4362e20dc1b9f1", "is_disabled": 0, "rental_uris": {"ios": "https://dc.lft.to/lastmile_qr_scan", "android": "https://dc.lft.to/lastmile_qr_scan"}, "is_reserved": 0}, {"lon": -76.96539966666667, "bike_id": "386be1752d51448dc9487df01ef61ebd", "lat": 38.918397166666665, "fusion_lon": 0.0, "fusion_lat": 0.0, "type": "electric_scooter", "name": "386be1752d51448dc9487df01ef61ebd", "is_disabled": 0, "rental_uris": {"ios": "https://dc.lft.to/lastmile_qr_scan", "android": "https://dc.lft.to/lastmile_qr_scan"}, "is_reserved": 0}, {"lon": -76.988786, "bike_id": "93b5e196c3a521c03826e0ec2f50f3e3", "lat": 38.866497333333335, "fusion_lon": 0.0, "fusion_lat": 0.0, "type": "electric_scooter", "name": "93b5e196c3a521c03826e0ec2f50f3e3", "is_disabled": 0, "rental_uris": {"ios": "https://dc.lft.to/lastmile_qr_scan", "android": "https://dc.lft.to/lastmile_qr_scan"}, "is_reserved": 0}, {"lon": -77.04400716666666, "bike_id": "c5fb9904cf764b04a9955d5bfc003d0c", "lat": 38.910217833333334, "fusion_lon": 0.0, "fusion_lat": 0.0, "type": "electric_scooter", "name": "c5fb9904cf764b04a9955d5bfc003d0c", "is_disabled": 0, "rental_uris": {"ios": "https://dc.lft.to/lastmile_qr_scan", "android": "https://dc.lft.to/lastmile_qr_scan"}, "is_reserved": 0}, {"lon": -77.02155966666666, "bike_id": "1d2cf83d8e955d9b591a3a2b1ae95ed1", "lat": 38.92602633333333, "fusion_lon": 0.0, "fusion_lat": 0.0, "type": "electric_scooter", "name": "1d2cf83d8e955d9b591a3a2b1ae95ed1", "is_disabled": 0, "rental_uris": {"ios": "https://dc.lft.to/lastmile_qr_scan", "android": "https://dc.lft.to/lastmile_qr_scan"}, "is_reserved": 0}, {"lon": -77.00889533333333, "bike_id": "e1eed691a712e871aa2165ca2b7cc19e", "lat": 38.922794333333336, "fusion_lon": 0.0, "fusion_lat": 0.0, "type": "electric_scooter", "name": "e1eed691a712e871aa2165ca2b7cc19e", "is_disabled": 0, "rental_uris": {"ios": "https://dc.lft.to/lastmile_qr_scan", "android": "https://dc.lft.to/lastmile_qr_scan"}, "is_reserved": 0}, {"lon": -77.00212166666667, "bike_id": "569c372efa648355b189a271b931b53d", "lat": 38.9243555, "fusion_lon": 0.0, "fusion_lat": 0.0, "type": "electric_scooter", "name": "569c372efa648355b189a271b931b53d", "is_disabled": 0, "rental_uris": {"ios": "https://dc.lft.to/lastmile_qr_scan", "android": "https://dc.lft.to/lastmile_qr_scan"}, "is_reserved": 0}, {"lon": -77.23319416666666, "bike_id": "fe2702cad7359938856c99ff69f239ff", "lat": 38.87282166666667, "fusion_lon": 0.0, "fusion_lat": 0.0, "type": "electric_bike", "name": "fe2702cad7359938856c99ff69f239ff", "is_disabled": 0, "rental_uris": {"ios": "https://dc.lft.to/lastmile_qr_scan", "android": "https://dc.lft.to/lastmile_qr_scan"}, "is_reserved": 0}, {"lon": -77.02886, "bike_id": "64189c74461fba93ad72761141078aae", "lat": 38.904249166666666, "fusion_lon": 0.0, "fusion_lat": 0.0, "type": "electric_scooter", "name": "64189c74461fba93ad72761141078aae", "is_disabled": 0, "rental_uris": {"ios": "https://dc.lft.to/lastmile_qr_scan", "android": "https://dc.lft.to/lastmile_qr_scan"}, "is_reserved": 0}, {"lon": -76.9499725, "bike_id": "8f31676052169decab5b359b57a477a6", "lat": 38.89378983333334, "fusion_lon": 0.0, "fusion_lat": 0.0, "type": "electric_scooter", "name": "8f31676052169decab5b359b57a477a6", "is_disabled": 0, "rental_uris": {"ios": "https://dc.lft.to/lastmile_qr_scan", "android": "https://dc.lft.to/lastmile_qr_scan"}, "is_reserved": 0}, {"lon": -77.029821, "bike_id": "79334e0073f962af693edcc319650c56", "lat": 38.90720916666667, "fusion_lon": 0.0, "fusion_lat": 0.0, "type": "electric_scooter", "name": "79334e0073f962af693edcc319650c56", "is_disabled": 0, "rental_uris": {"ios": "https://dc.lft.to/lastmile_qr_scan", "android": "https://dc.lft.to/lastmile_qr_scan"}, "is_reserved": 0}, {"lon": -77.02705233333333, "bike_id": "d83ee76a7d080cf471a2a2df97e790ac", "lat": 38.92778766666667, "fusion_lon": 0.0, "fusion_lat": 0.0, "type": "electric_scooter", "name": "d83ee76a7d080cf471a2a2df97e790ac", "is_disabled": 0, "rental_uris": {"ios": "https://dc.lft.to/lastmile_qr_scan", "android": "https://dc.lft.to/lastmile_qr_scan"}, "is_reserved": 0}, {"lon": -77.03288066666667, "bike_id": "649752a346fcc343179e8a538010f6b4", "lat": 38.90376633333333, "fusion_lon": 0.0, "fusion_lat": 0.0, "type": "electric_scooter", "name": "649752a346fcc343179e8a538010f6b4", "is_disabled": 0, "rental_uris": {"ios": "https://dc.lft.to/lastmile_qr_scan", "android": "https://dc.lft.to/lastmile_qr_scan"}, "is_reserved": 0}, {"lon": -77.05895516666666, "bike_id": "3e3b1fff63b2817994c0c188e6a35879", "lat": 38.93609566666667, "fusion_lon": 0.0, "fusion_lat": 0.0, "type": "electric_scooter", "name": "3e3b1fff63b2817994c0c188e6a35879", "is_disabled": 0, "rental_uris": {"ios": "https://dc.lft.to/lastmile_qr_scan", "android": "https://dc.lft.to/lastmile_qr_scan"}, "is_reserved": 0}, {"lon": -77.03200583333333, "bike_id": "6a4443e60e539119a75ce2102bf933ab", "lat": 38.91262666666667, "fusion_lon": 0.0, "fusion_lat": 0.0, "type": "electric_scooter", "name": "6a4443e60e539119a75ce2102bf933ab", "is_disabled": 0, "rental_uris": {"ios": "https://dc.lft.to/lastmile_qr_scan", "android": "https://dc.lft.to/lastmile_qr_scan"}, "is_reserved": 0}, {"lon": -76.99726183333334, "bike_id": "d573b196b9c015fde5d28af6c6cf59bd", "lat": 38.911044, "fusion_lon": 0.0, "fusion_lat": 0.0, "type": "electric_scooter", "name": "d573b196b9c015fde5d28af6c6cf59bd", "is_disabled": 0, "rental_uris": {"ios": "https://dc.lft.to/lastmile_qr_scan", "android": "https://dc.lft.to/lastmile_qr_scan"}, "is_reserved": 0}, {"lon": -77.038311, "bike_id": "a4641adcc79be47808d8e8489ca56d3b", "lat": 38.91123233333333, "fusion_lon": 0.0, "fusion_lat": 0.0, "type": "electric_scooter", "name": "a4641adcc79be47808d8e8489ca56d3b", "is_disabled": 0, "rental_uris": {"ios": "https://dc.lft.to/lastmile_qr_scan", "android": "https://dc.lft.to/lastmile_qr_scan"}, "is_reserved": 0}, {"lon": -77.0420405, "bike_id": "64a3677fd7a4ad07f2b264f9c0be0e39", "lat": 38.91252266666667, "fusion_lon": 0.0, "fusion_lat": 0.0, "type": "electric_scooter", "name": "64a3677fd7a4ad07f2b264f9c0be0e39", "is_disabled": 0, "rental_uris": {"ios": "https://dc.lft.to/lastmile_qr_scan", "android": "https://dc.lft.to/lastmile_qr_scan"}, "is_reserved": 0}, {"lon": -77.1091355, "bike_id": "ede697a746c1cc5cb63f6c841dd7d6fd", "lat": 39.0520795, "fusion_lon": 0.0, "fusion_lat": 0.0, "type": "electric_bike", "name": "ede697a746c1cc5cb63f6c841dd7d6fd", "is_disabled": 0, "rental_uris": {"ios": "https://dc.lft.to/lastmile_qr_scan", "android": "https://dc.lft.to/lastmile_qr_scan"}, "is_reserved": 0}, {"lon": -77.02810566666666, "bike_id": "5ac41eb7335aae6e21b9079e73cd8bb4", "lat": 38.88181066666667, "fusion_lon": 0.0, "fusion_lat": 0.0, "type": "electric_scooter", "name": "5ac41eb7335aae6e21b9079e73cd8bb4", "is_disabled": 0, "rental_uris": {"ios": "https://dc.lft.to/lastmile_qr_scan", "android": "https://dc.lft.to/lastmile_qr_scan"}, "is_reserved": 0}, {"lon": -77.014151, "bike_id": "b6363ee43c099811cd21bb9164deff82", "lat": 38.92887566666667, "fusion_lon": 0.0, "fusion_lat": 0.0, "type": "electric_scooter", "name": "b6363ee43c099811cd21bb9164deff82", "is_disabled": 0, "rental_uris": {"ios": "https://dc.lft.to/lastmile_qr_scan", "android": "https://dc.lft.to/lastmile_qr_scan"}, "is_reserved": 0}, {"lon": -77.03664833333333, "bike_id": "6cef398fdc09bbdd998fbfef30657ea4", "lat": 38.9028945, "fusion_lon": 0.0, "fusion_lat": 0.0, "type": "electric_scooter", "name": "6cef398fdc09bbdd998fbfef30657ea4", "is_disabled": 0, "rental_uris": {"ios": "https://dc.lft.to/lastmile_qr_scan", "android": "https://dc.lft.to/lastmile_qr_scan"}, "is_reserved": 0}, {"lon": -77.0857485, "bike_id": "8a8b4521be9c4d50dd76541ca82e46fe", "lat": 38.933552, "fusion_lon": 0.0, "fusion_lat": 0.0, "type": "electric_scooter", "name": "8a8b4521be9c4d50dd76541ca82e46fe", "is_disabled": 0, "rental_uris": {"ios": "https://dc.lft.to/lastmile_qr_scan", "android": "https://dc.lft.to/lastmile_qr_scan"}, "is_reserved": 0}, {"lon": -77.05938933333333, "bike_id": "8447a391cc23ac55928d5dd0dbf42225", "lat": 38.9124315, "fusion_lon": 0.0, "fusion_lat": 0.0, "type": "electric_scooter", "name": "8447a391cc23ac55928d5dd0dbf42225", "is_disabled": 0, "rental_uris": {"ios": "https://dc.lft.to/lastmile_qr_scan", "android": "https://dc.lft.to/lastmile_qr_scan"}, "is_reserved": 0}, {"lon": -77.021154, "bike_id": "5415af351d5ba278bdad13fddf29877f", "lat": 38.9174075, "fusion_lon": 0.0, "fusion_lat": 0.0, "type": "electric_scooter", "name": "5415af351d5ba278bdad13fddf29877f", "is_disabled": 0, "rental_uris": {"ios": "https://dc.lft.to/lastmile_qr_scan", "android": "https://dc.lft.to/lastmile_qr_scan"}, "is_reserved": 0}, {"lon": -76.92999716666667, "bike_id": "4f3ab10659fc3aa35c723b5c71275c31", "lat": 38.90189683333333, "fusion_lon": 0.0, "fusion_lat": 0.0, "type": "electric_scooter", "name": "4f3ab10659fc3aa35c723b5c71275c31", "is_disabled": 0, "rental_uris": {"ios": "https://dc.lft.to/lastmile_qr_scan", "android": "https://dc.lft.to/lastmile_qr_scan"}, "is_reserved": 0}, {"lon": -77.03888366666666, "bike_id": "3943ac30056b522b41cb4a9e348ced2a", "lat": 38.920114166666664, "fusion_lon": 0.0, "fusion_lat": 0.0, "type": "electric_scooter", "name": "3943ac30056b522b41cb4a9e348ced2a", "is_disabled": 0, "rental_uris": {"ios": "https://dc.lft.to/lastmile_qr_scan", "android": "https://dc.lft.to/lastmile_qr_scan"}, "is_reserved": 0}, {"lon": -77.01424566666667, "bike_id": "91d6414d10608b59eebd02b393348818", "lat": 38.972176, "fusion_lon": 0.0, "fusion_lat": 0.0, "type": "electric_bike", "name": "91d6414d10608b59eebd02b393348818", "is_disabled": 0, "rental_uris": {"ios": "https://dc.lft.to/lastmile_qr_scan", "android": "https://dc.lft.to/lastmile_qr_scan"}, "is_reserved": 0}, {"lon": -77.06731283333333, "bike_id": "08ef61e17674a566e178a71728f280a3", "lat": 38.90975433333333, "fusion_lon": 0.0, "fusion_lat": 0.0, "type": "electric_scooter", "name": "08ef61e17674a566e178a71728f280a3", "is_disabled": 0, "rental_uris": {"ios": "https://dc.lft.to/lastmile_qr_scan", "android": "https://dc.lft.to/lastmile_qr_scan"}, "is_reserved": 0}, {"lon": -77.03458016666667, "bike_id": "b8cea3f28749a4176dff66b8354fc866", "lat": 38.9086815, "fusion_lon": 0.0, "fusion_lat": 0.0, "type": "electric_scooter", "name": "b8cea3f28749a4176dff66b8354fc866", "is_disabled": 0, "rental_uris": {"ios": "https://dc.lft.to/lastmile_qr_scan", "android": "https://dc.lft.to/lastmile_qr_scan"}, "is_reserved": 0}, {"lon": -77.03461433333334, "bike_id": "646beed4cc0a6d2684f72883ea60e580", "lat": 38.908382333333336, "fusion_lon": 0.0, "fusion_lat": 0.0, "type": "electric_scooter", "name": "646beed4cc0a6d2684f72883ea60e580", "is_disabled": 0, "rental_uris": {"ios": "https://dc.lft.to/lastmile_qr_scan", "android": "https://dc.lft.to/lastmile_qr_scan"}, "is_reserved": 0}, {"lon": -77.0482805, "bike_id": "7eae0fa2665364e0a27961f70d79f2a7", "lat": 38.89751433333333, "fusion_lon": 0.0, "fusion_lat": 0.0, "type": "electric_scooter", "name": "7eae0fa2665364e0a27961f70d79f2a7", "is_disabled": 0, "rental_uris": {"ios": "https://dc.lft.to/lastmile_qr_scan", "android": "https://dc.lft.to/lastmile_qr_scan"}, "is_reserved": 0}, {"lon": -76.98228016666667, "bike_id": "ccb41099e92ddc0323d7f75caa6c8244", "lat": 38.91654066666667, "fusion_lon": 0.0, "fusion_lat": 0.0, "type": "electric_scooter", "name": "ccb41099e92ddc0323d7f75caa6c8244", "is_disabled": 0, "rental_uris": {"ios": "https://dc.lft.to/lastmile_qr_scan", "android": "https://dc.lft.to/lastmile_qr_scan"}, "is_reserved": 0}, {"lon": -77.0318475, "bike_id": "926c5794a097621acb549fdd194223aa", "lat": 38.9167985, "fusion_lon": 0.0, "fusion_lat": 0.0, "type": "electric_scooter", "name": "926c5794a097621acb549fdd194223aa", "is_disabled": 0, "rental_uris": {"ios": "https://dc.lft.to/lastmile_qr_scan", "android": "https://dc.lft.to/lastmile_qr_scan"}, "is_reserved": 0}, {"lon": -77.0450415, "bike_id": "cb02ba170ab9f5091034412598f86cde", "lat": 38.91111133333333, "fusion_lon": 0.0, "fusion_lat": 0.0, "type": "electric_scooter", "name": "cb02ba170ab9f5091034412598f86cde", "is_disabled": 0, "rental_uris": {"ios": "https://dc.lft.to/lastmile_qr_scan", "android": "https://dc.lft.to/lastmile_qr_scan"}, "is_reserved": 0}, {"lon": -77.022099, "bike_id": "8b47a5e4f4779326ffef7044adad0105", "lat": 38.90002716666667, "fusion_lon": 0.0, "fusion_lat": 0.0, "type": "electric_scooter", "name": "8b47a5e4f4779326ffef7044adad0105", "is_disabled": 0, "rental_uris": {"ios": "https://dc.lft.to/lastmile_qr_scan", "android": "https://dc.lft.to/lastmile_qr_scan"}, "is_reserved": 0}, {"lon": -77.03186983333333, "bike_id": "d1c66cef18f4a4eb22a85885a1049005", "lat": 38.916812166666666, "fusion_lon": 0.0, "fusion_lat": 0.0, "type": "electric_scooter", "name": "d1c66cef18f4a4eb22a85885a1049005", "is_disabled": 0, "rental_uris": {"ios": "https://dc.lft.to/lastmile_qr_scan", "android": "https://dc.lft.to/lastmile_qr_scan"}, "is_reserved": 0}, {"lon": -77.02202866666667, "bike_id": "67533196d9f0452ebd25ab52573c93b9", "lat": 38.910513, "fusion_lon": 0.0, "fusion_lat": 0.0, "type": "electric_scooter", "name": "67533196d9f0452ebd25ab52573c93b9", "is_disabled": 0, "rental_uris": {"ios": "https://dc.lft.to/lastmile_qr_scan", "android": "https://dc.lft.to/lastmile_qr_scan"}, "is_reserved": 0}, {"lon": -77.05908083333334, "bike_id": "54acc9af3910f412716b9c074ec7714a", "lat": 38.90543383333333, "fusion_lon": 0.0, "fusion_lat": 0.0, "type": "electric_scooter", "name": "54acc9af3910f412716b9c074ec7714a", "is_disabled": 0, "rental_uris": {"ios": "https://dc.lft.to/lastmile_qr_scan", "android": "https://dc.lft.to/lastmile_qr_scan"}, "is_reserved": 0}, {"lon": -77.03457116666667, "bike_id": "d614d9996e0778b3753876f9003cb6b7", "lat": 38.93440583333334, "fusion_lon": 0.0, "fusion_lat": 0.0, "type": "electric_scooter", "name": "d614d9996e0778b3753876f9003cb6b7", "is_disabled": 0, "rental_uris": {"ios": "https://dc.lft.to/lastmile_qr_scan", "android": "https://dc.lft.to/lastmile_qr_scan"}, "is_reserved": 0}, {"lon": -77.034429, "bike_id": "e63870c687bd2636fa309ac2ec6c567e", "lat": 38.90950333333333, "fusion_lon": 0.0, "fusion_lat": 0.0, "type": "electric_scooter", "name": "e63870c687bd2636fa309ac2ec6c567e", "is_disabled": 0, "rental_uris": {"ios": "https://dc.lft.to/lastmile_qr_scan", "android": "https://dc.lft.to/lastmile_qr_scan"}, "is_reserved": 0}, {"lon": -77.02109783333333, "bike_id": "2f86e49edec6f897fee64a9dd5eae028", "lat": 38.897473, "fusion_lon": 0.0, "fusion_lat": 0.0, "type": "electric_scooter", "name": "2f86e49edec6f897fee64a9dd5eae028", "is_disabled": 0, "rental_uris": {"ios": "https://dc.lft.to/lastmile_qr_scan", "android": "https://dc.lft.to/lastmile_qr_scan"}, "is_reserved": 0}, {"lon": -77.01523933333333, "bike_id": "975f3af8e4da95d452e244cb88cd4405", "lat": 38.88498116666667, "fusion_lon": 0.0, "fusion_lat": 0.0, "type": "electric_scooter", "name": "975f3af8e4da95d452e244cb88cd4405", "is_disabled": 0, "rental_uris": {"ios": "https://dc.lft.to/lastmile_qr_scan", "android": "https://dc.lft.to/lastmile_qr_scan"}, "is_reserved": 0}, {"lon": -76.99732966666667, "bike_id": "38894a920a244d3b3e86d46b8dd0e23a", "lat": 38.89942333333333, "fusion_lon": 0.0, "fusion_lat": 0.0, "type": "electric_scooter", "name": "38894a920a244d3b3e86d46b8dd0e23a", "is_disabled": 0, "rental_uris": {"ios": "https://dc.lft.to/lastmile_qr_scan", "android": "https://dc.lft.to/lastmile_qr_scan"}, "is_reserved": 0}, {"lon": -77.0451665, "bike_id": "b28647b00bc89e129787f7d56896ea7a", "lat": 38.919510833333334, "fusion_lon": 0.0, "fusion_lat": 0.0, "type": "electric_scooter", "name": "b28647b00bc89e129787f7d56896ea7a", "is_disabled": 0, "rental_uris": {"ios": "https://dc.lft.to/lastmile_qr_scan", "android": "https://dc.lft.to/lastmile_qr_scan"}, "is_reserved": 0}, {"lon": -77.1080415, "bike_id": "0c7e308cea7907224a35e6576099d871", "lat": 38.812058, "fusion_lon": 0.0, "fusion_lat": 0.0, "type": "electric_bike", "name": "0c7e308cea7907224a35e6576099d871", "is_disabled": 0, "rental_uris": {"ios": "https://dc.lft.to/lastmile_qr_scan", "android": "https://dc.lft.to/lastmile_qr_scan"}, "is_reserved": 0}, {"lon": -77.01649633333334, "bike_id": "6b3e2644bf1dbf52ff2f201576c86951", "lat": 38.881158666666664, "fusion_lon": 0.0, "fusion_lat": 0.0, "type": "electric_bike", "name": "6b3e2644bf1dbf52ff2f201576c86951", "is_disabled": 0, "rental_uris": {"ios": "https://dc.lft.to/lastmile_qr_scan", "android": "https://dc.lft.to/lastmile_qr_scan"}, "is_reserved": 0}, {"lon": -77.027073, "bike_id": "f6e2603b51516a025ea7578fdfe16133", "lat": 38.89770683333333, "fusion_lon": 0.0, "fusion_lat": 0.0, "type": "electric_scooter", "name": "f6e2603b51516a025ea7578fdfe16133", "is_disabled": 0, "rental_uris": {"ios": "https://dc.lft.to/lastmile_qr_scan", "android": "https://dc.lft.to/lastmile_qr_scan"}, "is_reserved": 0}, {"lon": -77.00008916666667, "bike_id": "084b422f92e340d04d8b397d49ca3527", "lat": 38.897423333333336, "fusion_lon": 0.0, "fusion_lat": 0.0, "type": "electric_scooter", "name": "084b422f92e340d04d8b397d49ca3527", "is_disabled": 0, "rental_uris": {"ios": "https://dc.lft.to/lastmile_qr_scan", "android": "https://dc.lft.to/lastmile_qr_scan"}, "is_reserved": 0}, {"lon": -76.96494216666666, "bike_id": "f9ac7eaaaf4c4224a0f1479bdb7773ba", "lat": 38.8764955, "fusion_lon": 0.0, "fusion_lat": 0.0, "type": "electric_scooter", "name": "f9ac7eaaaf4c4224a0f1479bdb7773ba", "is_disabled": 0, "rental_uris": {"ios": "https://dc.lft.to/lastmile_qr_scan", "android": "https://dc.lft.to/lastmile_qr_scan"}, "is_reserved": 0}, {"lon": -76.99871616666667, "bike_id": "76c152f5a3d750631e4f98ce83c0d6cc", "lat": 38.900257833333335, "fusion_lon": 0.0, "fusion_lat": 0.0, "type": "electric_scooter", "name": "76c152f5a3d750631e4f98ce83c0d6cc", "is_disabled": 0, "rental_uris": {"ios": "https://dc.lft.to/lastmile_qr_scan", "android": "https://dc.lft.to/lastmile_qr_scan"}, "is_reserved": 0}, {"lon": -77.0342745, "bike_id": "b5058d09124052db287c73e4dfff8c72", "lat": 38.9274245, "fusion_lon": 0.0, "fusion_lat": 0.0, "type": "electric_scooter", "name": "b5058d09124052db287c73e4dfff8c72", "is_disabled": 0, "rental_uris": {"ios": "https://dc.lft.to/lastmile_qr_scan", "android": "https://dc.lft.to/lastmile_qr_scan"}, "is_reserved": 0}, {"lon": -77.03449183333333, "bike_id": "3ea8da5fa2d7f7c2af655b5bc75a8b4d", "lat": 38.90979733333333, "fusion_lon": 0.0, "fusion_lat": 0.0, "type": "electric_scooter", "name": "3ea8da5fa2d7f7c2af655b5bc75a8b4d", "is_disabled": 0, "rental_uris": {"ios": "https://dc.lft.to/lastmile_qr_scan", "android": "https://dc.lft.to/lastmile_qr_scan"}, "is_reserved": 0}, {"lon": -76.9854465, "bike_id": "4217e2a7abd165402b412c529fc1e3ef", "lat": 38.92504783333333, "fusion_lon": 0.0, "fusion_lat": 0.0, "type": "electric_bike", "name": "4217e2a7abd165402b412c529fc1e3ef", "is_disabled": 0, "rental_uris": {"ios": "https://dc.lft.to/lastmile_qr_scan", "android": "https://dc.lft.to/lastmile_qr_scan"}, "is_reserved": 0}, {"lon": -77.031585, "bike_id": "281dd60e7d7dc4f3eb7a60fbe976ed8b", "lat": 38.89222566666667, "fusion_lon": 0.0, "fusion_lat": 0.0, "type": "electric_scooter", "name": "281dd60e7d7dc4f3eb7a60fbe976ed8b", "is_disabled": 0, "rental_uris": {"ios": "https://dc.lft.to/lastmile_qr_scan", "android": "https://dc.lft.to/lastmile_qr_scan"}, "is_reserved": 0}, {"lon": -77.03255716666666, "bike_id": "58a847e8981448b29ae487fee11d1728", "lat": 38.93444683333333, "fusion_lon": 0.0, "fusion_lat": 0.0, "type": "electric_scooter", "name": "58a847e8981448b29ae487fee11d1728", "is_disabled": 0, "rental_uris": {"ios": "https://dc.lft.to/lastmile_qr_scan", "android": "https://dc.lft.to/lastmile_qr_scan"}, "is_reserved": 0}, {"lon": -77.0447155, "bike_id": "869ad9924af7c32601ea24bda1d9451b", "lat": 38.911163, "fusion_lon": 0.0, "fusion_lat": 0.0, "type": "electric_scooter", "name": "869ad9924af7c32601ea24bda1d9451b", "is_disabled": 0, "rental_uris": {"ios": "https://dc.lft.to/lastmile_qr_scan", "android": "https://dc.lft.to/lastmile_qr_scan"}, "is_reserved": 0}, {"lon": -77.028265, "bike_id": "ff42d0fa225b7e827c41a289f81f8b79", "lat": 38.902685, "fusion_lon": 0.0, "fusion_lat": 0.0, "type": "electric_scooter", "name": "ff42d0fa225b7e827c41a289f81f8b79", "is_disabled": 0, "rental_uris": {"ios": "https://dc.lft.to/lastmile_qr_scan", "android": "https://dc.lft.to/lastmile_qr_scan"}, "is_reserved": 0}, {"lon": -76.94800966666666, "bike_id": "72bacc953c1648ea1e0195d4358e4eef", "lat": 38.8619625, "fusion_lon": 0.0, "fusion_lat": 0.0, "type": "electric_bike", "name": "72bacc953c1648ea1e0195d4358e4eef", "is_disabled": 0, "rental_uris": {"ios": "https://dc.lft.to/lastmile_qr_scan", "android": "https://dc.lft.to/lastmile_qr_scan"}, "is_reserved": 0}, {"lon": -77.02405133333333, "bike_id": "b710566e4c26371894f0091de8171bdd", "lat": 38.90048983333333, "fusion_lon": 0.0, "fusion_lat": 0.0, "type": "electric_scooter", "name": "b710566e4c26371894f0091de8171bdd", "is_disabled": 0, "rental_uris": {"ios": "https://dc.lft.to/lastmile_qr_scan", "android": "https://dc.lft.to/lastmile_qr_scan"}, "is_reserved": 0}, {"lon": -77.041064, "bike_id": "6884c664d4819bd3573b63c5c2fd4598", "lat": 38.8983765, "fusion_lon": 0.0, "fusion_lat": 0.0, "type": "electric_scooter", "name": "6884c664d4819bd3573b63c5c2fd4598", "is_disabled": 0, "rental_uris": {"ios": "https://dc.lft.to/lastmile_qr_scan", "android": "https://dc.lft.to/lastmile_qr_scan"}, "is_reserved": 0}, {"lon": -77.00340133333333, "bike_id": "fcf5b725cf18b4002886bf95bec5dd6d", "lat": 38.90366566666667, "fusion_lon": 0.0, "fusion_lat": 0.0, "type": "electric_scooter", "name": "fcf5b725cf18b4002886bf95bec5dd6d", "is_disabled": 0, "rental_uris": {"ios": "https://dc.lft.to/lastmile_qr_scan", "android": "https://dc.lft.to/lastmile_qr_scan"}, "is_reserved": 0}, {"lon": -77.04210383333333, "bike_id": "5646f923bf3cf24f5eca0462c7112ecd", "lat": 38.8926995, "fusion_lon": 0.0, "fusion_lat": 0.0, "type": "electric_scooter", "name": "5646f923bf3cf24f5eca0462c7112ecd", "is_disabled": 0, "rental_uris": {"ios": "https://dc.lft.to/lastmile_qr_scan", "android": "https://dc.lft.to/lastmile_qr_scan"}, "is_reserved": 0}, {"lon": -76.941258, "bike_id": "8ba91c67aec1195e0dd96758d1277501", "lat": 38.9082825, "fusion_lon": 0.0, "fusion_lat": 0.0, "type": "electric_scooter", "name": "8ba91c67aec1195e0dd96758d1277501", "is_disabled": 0, "rental_uris": {"ios": "https://dc.lft.to/lastmile_qr_scan", "android": "https://dc.lft.to/lastmile_qr_scan"}, "is_reserved": 0}, {"lon": -77.033899, "bike_id": "62a803387bbc203e250828951f778f4b", "lat": 38.938883833333335, "fusion_lon": 0.0, "fusion_lat": 0.0, "type": "electric_scooter", "name": "62a803387bbc203e250828951f778f4b", "is_disabled": 0, "rental_uris": {"ios": "https://dc.lft.to/lastmile_qr_scan", "android": "https://dc.lft.to/lastmile_qr_scan"}, "is_reserved": 0}, {"lon": -76.9977995, "bike_id": "b529b66e9690cb49a1bdbc44f3cf5693", "lat": 38.843051833333334, "fusion_lon": 0.0, "fusion_lat": 0.0, "type": "electric_scooter", "name": "b529b66e9690cb49a1bdbc44f3cf5693", "is_disabled": 0, "rental_uris": {"ios": "https://dc.lft.to/lastmile_qr_scan", "android": "https://dc.lft.to/lastmile_qr_scan"}, "is_reserved": 0}, {"lon": -77.007104, "bike_id": "6dc294d3fe6e57f7ceaa5e9365163ecf", "lat": 38.884919, "fusion_lon": 0.0, "fusion_lat": 0.0, "type": "electric_scooter", "name": "6dc294d3fe6e57f7ceaa5e9365163ecf", "is_disabled": 0, "rental_uris": {"ios": "https://dc.lft.to/lastmile_qr_scan", "android": "https://dc.lft.to/lastmile_qr_scan"}, "is_reserved": 0}, {"lon": -77.040718, "bike_id": "d99a69b91729893318911fd9ef7750bb", "lat": 38.91273283333334, "fusion_lon": 0.0, "fusion_lat": 0.0, "type": "electric_scooter", "name": "d99a69b91729893318911fd9ef7750bb", "is_disabled": 0, "rental_uris": {"ios": "https://dc.lft.to/lastmile_qr_scan", "android": "https://dc.lft.to/lastmile_qr_scan"}, "is_reserved": 0}, {"lon": -77.01454116666666, "bike_id": "05830a2f0f60ff20ff5cf3bdfec5574f", "lat": 38.89938016666667, "fusion_lon": 0.0, "fusion_lat": 0.0, "type": "electric_scooter", "name": "05830a2f0f60ff20ff5cf3bdfec5574f", "is_disabled": 0, "rental_uris": {"ios": "https://dc.lft.to/lastmile_qr_scan", "android": "https://dc.lft.to/lastmile_qr_scan"}, "is_reserved": 0}, {"lon": -77.02965666666667, "bike_id": "99f90996ee001e072bedb4378dc2aa89", "lat": 38.922957833333335, "fusion_lon": 0.0, "fusion_lat": 0.0, "type": "electric_scooter", "name": "99f90996ee001e072bedb4378dc2aa89", "is_disabled": 0, "rental_uris": {"ios": "https://dc.lft.to/lastmile_qr_scan", "android": "https://dc.lft.to/lastmile_qr_scan"}, "is_reserved": 0}, {"lon": -77.027054, "bike_id": "04a6220075620bacc9c1fe45b84f137d", "lat": 38.897687, "fusion_lon": 0.0, "fusion_lat": 0.0, "type": "electric_scooter", "name": "04a6220075620bacc9c1fe45b84f137d", "is_disabled": 0, "rental_uris": {"ios": "https://dc.lft.to/lastmile_qr_scan", "android": "https://dc.lft.to/lastmile_qr_scan"}, "is_reserved": 0}, {"lon": -77.027691, "bike_id": "0c3f90f6cb7231187c3b445f8888f73e", "lat": 38.954289333333335, "fusion_lon": 0.0, "fusion_lat": 0.0, "type": "electric_scooter", "name": "0c3f90f6cb7231187c3b445f8888f73e", "is_disabled": 0, "rental_uris": {"ios": "https://dc.lft.to/lastmile_qr_scan", "android": "https://dc.lft.to/lastmile_qr_scan"}, "is_reserved": 0}, {"lon": -77.02357483333333, "bike_id": "c8dc284ed1f2bf108d14da04b9d88537", "lat": 38.879159333333334, "fusion_lon": 0.0, "fusion_lat": 0.0, "type": "electric_scooter", "name": "c8dc284ed1f2bf108d14da04b9d88537", "is_disabled": 0, "rental_uris": {"ios": "https://dc.lft.to/lastmile_qr_scan", "android": "https://dc.lft.to/lastmile_qr_scan"}, "is_reserved": 0}, {"lon": -76.96602816666666, "bike_id": "9e988752f7098b1a041c415e21dd6436", "lat": 38.8711265, "fusion_lon": 0.0, "fusion_lat": 0.0, "type": "electric_scooter", "name": "9e988752f7098b1a041c415e21dd6436", "is_disabled": 0, "rental_uris": {"ios": "https://dc.lft.to/lastmile_qr_scan", "android": "https://dc.lft.to/lastmile_qr_scan"}, "is_reserved": 0},