{"data": {"bikes": [{"is_disabled": 0, "is_reserved": 0, "fusion_lat": 0.0, "lat": 38.878257833333336, "fusion_lon": 0.0, "rental_uris": {"ios": "https://dc.lft.to/lastmile_qr_scan", "android": "https://dc.lft.to/lastmile_qr_scan"}, "lon": -77.0222765, "bike_id": "b0ddf8f3f8052d1f37cc8705e7a753e2", "type": "electric_scooter", "name": "b0ddf8f3f8052d1f37cc8705e7a753e2"}, {"is_disabled": 0, "is_reserved": 0, "fusion_lat": 0.0, "lat": 38.881932166666665, "fusion_lon": 0.0, "rental_uris": {"ios": "https://dc.lft.to/lastmile_qr_scan", "android": "https://dc.lft.to/lastmile_qr_scan"}, "lon": -77.028573, "bike_id": "297e430455fc306303f876ec615d9934", "type": "electric_scooter", "name": "297e430455fc306303f876ec615d9934"}, {"is_disabled": 0, "is_reserved": 0, "fusion_lat": 0.0, "lat": 38.805582666666666, "fusion_lon": 0.0, "rental_uris": {"ios": "https://dc.lft.to/lastmile_qr_scan", "android": "https://dc.lft.to/lastmile_qr_scan"}, "lon": -77.1322385, "bike_id": "e8746bc6cc601a5b4fc36c04510b8946", "type": "electric_bike", "name": "e8746bc6cc601a5b4fc36c04510b8946"}, {"is_disabled": 0, "is_reserved": 0, "fusion_lat": 0.0, "lat": 38.92782566666666, "fusion_lon": 0.0, "rental_uris": {"ios": "https://dc.lft.to/lastmile_qr_scan", "android": "https://dc.lft.to/lastmile_qr_scan"}, "lon": -77.02740266666666, "bike_id": "8fb13a29e1e765dc66429e74d432f5a7", "type": "electric_scooter", "name": "8fb13a29e1e765dc66429e74d432f5a7"}, {"is_disabled": 0, "is_reserved": 0, "fusion_lat": 0.0, "lat": 38.90096166666667, "fusion_lon": 0.0, "rental_uris": {"ios": "https://dc.lft.to/lastmile_qr_scan", "android": "https://dc.lft.to/lastmile_qr_scan"}, "lon": -77.0073515, "bike_id": "47ece6c7881bfeaa8493e05c89d6a427", "type": "electric_scooter", "name": "47ece6c7881bfeaa8493e05c89d6a427"}, {"is_disabled": 0, "is_reserved": 0, "fusion_lat": 0.0, "lat": 38.918726, "fusion_lon": 0.0, "rental_uris": {"ios": "https://dc.lft.to/lastmile_qr_scan", "android": "https://dc.lft.to/lastmile_qr_scan"}, "lon": -77.04448516666666, "bike_id": "411ee19d5d89e842d0f5b8906f436dd8", "type": "electric_scooter", "name": "411ee19d5d89e842d0f5b8906f436dd8"}, {"is_disabled": 0, "is_reserved": 0, "fusion_lat": 0.0, "lat": 38.94940966666667, "fusion_lon": 0.0, "rental_uris": {"ios": "https://dc.lft.to/lastmile_qr_scan", "android": "https://dc.lft.to/lastmile_qr_scan"}, "lon": -77.066628, "bike_id": "4593d38e0e77b510222016c258ac8eae", "type": "electric_bike", "name": "4593d38e0e77b510222016c258ac8eae"}, {"is_disabled": 0, "is_reserved": 0, "fusion_lat": 0.0, "lat": 38.904272, "fusion_lon": 0.0, "rental_uris": {"ios": "https://dc.lft.to/lastmile_qr_scan", "android": "https://dc.lft.to/lastmile_qr_scan"}, "lon": -77.03073333333333, "bike_id": "07d4133c0462fb8ef27dc78860df435f", "type": "electric_scooter", "name": "07d4133c0462fb8ef27dc78860df435f"}, {"is_disabled": 0, "is_reserved": 0, "fusion_lat": 0.0, "lat": 38.9345405, "fusion_lon": 0.0, "rental_uris": {"ios": "https://dc.lft.to/lastmile_qr_scan", "android": "https://dc.lft.to/lastmile_qr_scan"}, "lon": -77.02404233333333, "bike_id": "5ea7833404716e62823fd35b970f3939", "type": "electric_scooter", "name": "5ea7833404716e62823fd35b970f3939"}, {"is_disabled": 0, "is_reserved": 0, "fusion_lat": 0.0, "lat": 38.9163725, "fusion_lon": 0.0, "rental_uris": {"ios": "https://dc.lft.to/lastmile_qr_scan", "android": "https://dc.lft.to/lastmile_qr_scan"}, "lon": -77.00513066666667, "bike_id": "b9a341c495bd0c9bde9140eb931227f9", "type": "electric_scooter", "name": "b9a341c495bd0c9bde9140eb931227f9"}, {"is_disabled": 0, "is_reserved": 0, "fusion_lat": 0.0, "lat": 38.91768616666667, "fusion_lon": 0.0, "rental_uris": {"ios": "https://dc.lft.to/lastmile_qr_scan", "android": "https://dc.lft.to/lastmile_qr_scan"}, "lon": -77.02341316666667, "bike_id": "c1e6ca6fd9bdcb0a85b997465962a13d", "type": "electric_scooter", "name": "c1e6ca6fd9bdcb0a85b997465962a13d"}, {"is_disabled": 0, "is_reserved": 0, "fusion_lat": 0.0, "lat": 38.87191833333333, "fusion_lon": 0.0, "rental_uris": {"ios": "https://dc.lft.to/lastmile_qr_scan", "android": "https://dc.lft.to/lastmile_qr_scan"}, "lon": -77.005862, "bike_id": "0744f3cc5975742aced14860c7eb5615", "type": "electric_scooter", "name": "0744f3cc5975742aced14860c7eb5615"}, {"is_disabled": 0, "is_reserved": 0, "fusion_lat": 0.0, "lat": 38.912214, "fusion_lon": 0.0, "rental_uris": {"ios": "https://dc.lft.to/lastmile_qr_scan", "android": "https://dc.lft.to/lastmile_qr_scan"}, "lon": -77.031969, "bike_id": "0734e0ce8043133dd5d05defa906e27c", "type": "electric_scooter", "name": "0734e0ce8043133dd5d05defa906e27c"}, {"is_disabled": 0, "is_reserved": 0, "fusion_lat": 0.0, "lat": 38.94920833333333, "fusion_lon": 0.0, "rental_uris": {"ios": "https://dc.lft.to/lastmile_qr_scan", "android": "https://dc.lft.to/lastmile_qr_scan"}, "lon": -77.01935233333333, "bike_id": "9cd7c0d1bac34b5312e12cd0ba59ee31", "type": "electric_scooter", "name": "9cd7c0d1bac34b5312e12cd0ba59ee31"}, {"is_disabled": 0, "is_reserved": 0, "fusion_lat": 0.0, "lat": 38.934439166666664, "fusion_lon": 0.0, "rental_uris": {"ios": "https://dc.lft.to/lastmile_qr_scan", "android": "https://dc.lft.to/lastmile_qr_scan"}, "lon": -77.02974633333334, "bike_id": "c8b12c96c7c792aaa473a2f030fa8165", "type": "electric_scooter", "name": "c8b12c96c7c792aaa473a2f030fa8165"}, {"is_disabled": 0, "is_reserved": 0, "fusion_lat": 0.0, "lat": 38.90100566666667, "fusion_lon": 0.0, "rental_uris": {"ios": "https://dc.lft.to/lastmile_qr_scan", "android": "https://dc.lft.to/lastmile_qr_scan"}, "lon": -77.0181535, "bike_id": "47a6f7cf42e67e6e8c5cf27302b53cd1", "type": "electric_scooter", "name": "47a6f7cf42e67e6e8c5cf27302b53cd1"}, {"is_disabled": 0, "is_reserved": 0, "fusion_lat": 0.0, "lat": 38.91055683333333, "fusion_lon": 0.0, "rental_uris": {"ios": "https://dc.lft.to/lastmile_qr_scan", "android": "https://dc.lft.to/lastmile_qr_scan"}, "lon": -77.04495233333333, "bike_id": "e40e1a4f234936f45e543a603908d7ef", "type": "electric_scooter", "name": "e40e1a4f234936f45e543a603908d7ef"}, {"is_disabled": 0, "is_reserved": 0, "fusion_lat": 0.0, "lat": 38.90594683333333, "fusion_lon": 0.0, "rental_uris": {"ios": "https://dc.lft.to/lastmile_qr_scan", "android": "https://dc.lft.to/lastmile_qr_scan"}, "lon": -77.12882633333334, "bike_id": "354140075c005b08470462c57354114c", "type": "electric_bike", "name": "354140075c005b08470462c57354114c"}, {"is_disabled": 0, "is_reserved": 0, "fusion_lat": 0.0, "lat": 38.95273666666667, "fusion_lon": 0.0, "rental_uris": {"ios": "https://dc.lft.to/lastmile_qr_scan", "android": "https://dc.lft.to/lastmile_qr_scan"}, "lon": -76.99752566666666, "bike_id": "ee4b8d5d1bbc7f08290a6158224a7424", "type": "electric_scooter", "name": "ee4b8d5d1bbc7f08290a6158224a7424"}, {"is_disabled": 0, "is_reserved": 0, "fusion_lat": 0.0, "lat": 38.90023333333333, "fusion_lon": 0.0, "rental_uris": {"ios": "https://dc.lft.to/lastmile_qr_scan", "android": "https://dc.lft.to/lastmile_qr_scan"}, "lon": -77.00373816666666, "bike_id": "ed0c0b91475f5dca9337f5d68503d95f", "type": "electric_scooter", "name": "ed0c0b91475f5dca9337f5d68503d95f"}, {"is_disabled": 0, "is_reserved": 0, "fusion_lat": 0.0, "lat": 38.933715166666666, "fusion_lon": 0.0, "rental_uris": {"ios": "https://dc.lft.to/lastmile_qr_scan", "android": "https://dc.lft.to/lastmile_qr_scan"}, "lon": -77.02726283333334, "bike_id": "9043294889fac5d66dbf3119adb46b92", "type": "electric_scooter", "name": "9043294889fac5d66dbf3119adb46b92"}, {"is_disabled": 0, "is_reserved": 0, "fusion_lat": 0.0, "lat": 38.912837333333336, "fusion_lon": 0.0, "rental_uris": {"ios": "https://dc.lft.to/lastmile_qr_scan", "android": "https://dc.lft.to/lastmile_qr_scan"}, "lon": -77.03848733333334, "bike_id": "3e1da82dccdeac02d3c1920780bbdb19", "type": "electric_scooter", "name": "3e1da82dccdeac02d3c1920780bbdb19"}, {"is_disabled": 0, "is_reserved": 0, "fusion_lat": 0.0, "lat": 38.90876566666667, "fusion_lon": 0.0, "rental_uris": {"ios": "https://dc.lft.to/lastmile_qr_scan", "android": "https://dc.lft.to/lastmile_qr_scan"}, "lon": -76.99814833333333, "bike_id": "81d65c90af4385d8188b4a9465a7402f", "type": "electric_scooter", "name": "81d65c90af4385d8188b4a9465a7402f"}, {"is_disabled": 0, "is_reserved": 0, "fusion_lat": 0.0, "lat": 38.830415333333335, "fusion_lon": 0.0, "rental_uris": {"ios": "https://dc.lft.to/lastmile_qr_scan", "android": "https://dc.lft.to/lastmile_qr_scan"}, "lon": -77.00819933333334, "bike_id": "0fa6d9398d7957d9a2e4b18af5ca62a7", "type": "electric_bike", "name": "0fa6d9398d7957d9a2e4b18af5ca62a7"}, {"is_disabled": 0, "is_reserved": 0, "fusion_lat": 0.0, "lat": 38.90486083333333, "fusion_lon": 0.0, "rental_uris": {"ios": "https://dc.lft.to/lastmile_qr_scan", "android": "https://dc.lft.to/lastmile_qr_scan"}, "lon": -77.00915333333333, "bike_id": "3ba6e74d5b7d0db8567e16149bd81651", "type": "electric_scooter", "name": "3ba6e74d5b7d0db8567e16149bd81651"}, {"is_disabled": 0, "is_reserved": 0, "fusion_lat": 0.0, "lat": 38.923694833333336, "fusion_lon": 0.0, "rental_uris": {"ios": "https://dc.lft.to/lastmile_qr_scan", "android": "https://dc.lft.to/lastmile_qr_scan"}, "lon": -77.01917816666666, "bike_id": "81eaf66e3aa9e681e6c169c477b73850", "type": "electric_scooter", "name": "81eaf66e3aa9e681e6c169c477b73850"}, {"is_disabled": 0, "is_reserved": 0, "fusion_lat": 0.0, "lat": 38.8923395, "fusion_lon": 0.0, "rental_uris": {"ios": "https://dc.lft.to/lastmile_qr_scan", "android": "https://dc.lft.to/lastmile_qr_scan"}, "lon": -77.028015, "bike_id": "84d58827b474ef6cf07c8e615b2889f2", "type": "electric_scooter", "name": "84d58827b474ef6cf07c8e615b2889f2"}, {"is_disabled": 0, "is_reserved": 0, "fusion_lat": 0.0, "lat": 38.89276983333333, "fusion_lon": 0.0, "rental_uris": {"ios": "https://dc.lft.to/lastmile_qr_scan", "android": "https://dc.lft.to/lastmile_qr_scan"}, "lon": -77.0504755, "bike_id": "83afe7b75ecc17f5d856f14e676346ee", "type": "electric_scooter", "name": "83afe7b75ecc17f5d856f14e676346ee"}, {"is_disabled": 0, "is_reserved": 0, "fusion_lat": 0.0, "lat": 38.90891716666667, "fusion_lon": 0.0, "rental_uris": {"ios": "https://dc.lft.to/lastmile_qr_scan", "android": "https://dc.lft.to/lastmile_qr_scan"}, "lon": -77.03391516666667, "bike_id": "42342d603486972d7a645c37fa112d9f", "type": "electric_scooter", "name": "42342d603486972d7a645c37fa112d9f"}, {"is_disabled": 0, "is_reserved": 0, "fusion_lat": 0.0, "lat": 38.8898845, "fusion_lon": 0.0, "rental_uris": {"ios": "https://dc.lft.to/lastmile_qr_scan", "android": "https://dc.lft.to/lastmile_qr_scan"}, "lon": -77.00341716666667, "bike_id": "da0d521d8923d5d869f9608f185714cd", "type": "electric_scooter", "name": "da0d521d8923d5d869f9608f185714cd"}, {"is_disabled": 0, "is_reserved": 0, "fusion_lat": 0.0, "lat": 38.8997495, "fusion_lon": 0.0, "rental_uris": {"ios": "https://dc.lft.to/lastmile_qr_scan", "android": "https://dc.lft.to/lastmile_qr_scan"}, "lon": -76.93765766666667, "bike_id": "1796b2bbd64c3115dd6a39617a7bbed8", "type": "electric_scooter", "name": "1796b2bbd64c3115dd6a39617a7bbed8"}, {"is_disabled": 0, "is_reserved": 0, "fusion_lat": 0.0, "lat": 38.9204255, "fusion_lon": 0.0, "rental_uris": {"ios": "https://dc.lft.to/lastmile_qr_scan", "android": "https://dc.lft.to/lastmile_qr_scan"}, "lon": -77.041925, "bike_id": "56861809b973b11dbb0864946bed46bc", "type": "electric_scooter", "name": "56861809b973b11dbb0864946bed46bc"}, {"is_disabled": 0, "is_reserved": 0, "fusion_lat": 0.0, "lat": 38.88372183333333, "fusion_lon": 0.0, "rental_uris": {"ios": "https://dc.lft.to/lastmile_qr_scan", "android": "https://dc.lft.to/lastmile_qr_scan"}, "lon": -76.99516766666666, "bike_id": "22bc0efadaf1042b8b1b9982840952d1", "type": "electric_scooter", "name": "22bc0efadaf1042b8b1b9982840952d1"}, {"is_disabled": 0, "is_reserved": 0, "fusion_lat": 0.0, "lat": 38.914742, "fusion_lon": 0.0, "rental_uris": {"ios": "https://dc.lft.to/lastmile_qr_scan", "android": "https://dc.lft.to/lastmile_qr_scan"}, "lon": -77.0388555, "bike_id": "ca5eb2519a146e71de7abdca8991e8d3", "type": "electric_scooter", "name": "ca5eb2519a146e71de7abdca8991e8d3"}, {"is_disabled": 0, "is_reserved": 0, "fusion_lat": 0.0, "lat": 38.93064866666667, "fusion_lon": 0.0, "rental_uris": {"ios": "https://dc.lft.to/lastmile_qr_scan", "android": "https://dc.lft.to/lastmile_qr_scan"}, "lon": -76.973291, "bike_id": "d5a415faeecbe1f2d0e18790291aac31", "type": "electric_scooter", "name": "d5a415faeecbe1f2d0e18790291aac31"}, {"is_disabled": 0, "is_reserved": 0, "fusion_lat": 0.0, "lat": 38.925478, "fusion_lon": 0.0, "rental_uris": {"ios": "https://dc.lft.to/lastmile_qr_scan", "android": "https://dc.lft.to/lastmile_qr_scan"}, "lon": -77.027064, "bike_id": "32daa9ab5ba934b98a51f0cd76e3780a", "type": "electric_scooter", "name": "32daa9ab5ba934b98a51f0cd76e3780a"}, {"is_disabled": 0, "is_reserved": 0, "fusion_lat": 0.0, "lat": 38.95640233333334, "fusion_lon": 0.0, "rental_uris": {"ios": "https://dc.lft.to/lastmile_qr_scan", "android": "https://dc.lft.to/lastmile_qr_scan"}, "lon": -77.03628966666666, "bike_id": "fb9df82b0c7b49353884745a58eb5b55", "type": "electric_scooter", "name": "fb9df82b0c7b49353884745a58eb5b55"}, {"is_disabled": 0, "is_reserved": 0, "fusion_lat": 0.0, "lat": 38.890709, "fusion_lon": 0.0, "rental_uris": {"ios": "https://dc.lft.to/lastmile_qr_scan", "android": "https://dc.lft.to/lastmile_qr_scan"}, "lon": -76.9547525, "bike_id": "95ee75221cdea72e17425124ca3a7e92", "type": "electric_bike", "name": "95ee75221cdea72e17425124ca3a7e92"}, {"is_disabled": 0, "is_reserved": 0, "fusion_lat": 0.0, "lat": 38.932383, "fusion_lon": 0.0, "rental_uris": {"ios": "https://dc.lft.to/lastmile_qr_scan", "android": "https://dc.lft.to/lastmile_qr_scan"}, "lon": -77.0203065, "bike_id": "f3f42db9060e2bfdfaa6fa3be80e27d2", "type": "electric_scooter", "name": "f3f42db9060e2bfdfaa6fa3be80e27d2"}, {"is_disabled": 0, "is_reserved": 0, "fusion_lat": 0.0, "lat": 38.935365166666664, "fusion_lon": 0.0, "rental_uris": {"ios": "https://dc.lft.to/lastmile_qr_scan", "android": "https://dc.lft.to/lastmile_qr_scan"}, "lon": -76.9835845, "bike_id": "cf1dd27fb2d72c9915787ebba91a7025", "type": "electric_bike", "name": "cf1dd27fb2d72c9915787ebba91a7025"}, {"is_disabled": 0, "is_reserved": 0, "fusion_lat": 0.0, "lat": 38.933402, "fusion_lon": 0.0, "rental_uris": {"ios": "https://dc.lft.to/lastmile_qr_scan", "android": "https://dc.lft.to/lastmile_qr_scan"}, "lon": -77.01934166666666, "bike_id": "257e6c6814eda7eb73e1ecff6f557991", "type": "electric_scooter", "name": "257e6c6814eda7eb73e1ecff6f557991"}, {"is_disabled": 0, "is_reserved": 0, "fusion_lat": 0.0, "lat": 38.92570633333333, "fusion_lon": 0.0, "rental_uris": {"ios": "https://dc.lft.to/lastmile_qr_scan", "android": "https://dc.lft.to/lastmile_qr_scan"}, "lon": -77.0256815, "bike_id": "b6d8a5778c561e6da96c7b948ccac1c6", "type": "electric_scooter", "name": "b6d8a5778c561e6da96c7b948ccac1c6"}, {"is_disabled": 0, "is_reserved": 0, "fusion_lat": 0.0, "lat": 39.074454, "fusion_lon": 0.0, "rental_uris": {"ios": "https://dc.lft.to/lastmile_qr_scan", "android": "https://dc.lft.to/lastmile_qr_scan"}, "lon": -77.11532566666666, "bike_id": "fafb25d0f7d512a47715ce4952206c7e", "type": "electric_bike", "name": "fafb25d0f7d512a47715ce4952206c7e"}, {"is_disabled": 0, "is_reserved": 0, "fusion_lat": 0.0, "lat": 38.90361016666667, "fusion_lon": 0.0, "rental_uris": {"ios": "https://dc.lft.to/lastmile_qr_scan", "android": "https://dc.lft.to/lastmile_qr_scan"}, "lon": -77.06018516666667, "bike_id": "842b0f021ff4ab21b1746b55dd219d32", "type": "electric_scooter", "name": "842b0f021ff4ab21b1746b55dd219d32"}, {"is_disabled": 0, "is_reserved": 0, "fusion_lat": 0.0, "lat": 38.898549333333335, "fusion_lon": 0.0, "rental_uris": {"ios": "https://dc.lft.to/lastmile_qr_scan", "android": "https://dc.lft.to/lastmile_qr_scan"}, "lon": -77.03919216666667, "bike_id": "690f694bb63df6b892d7cc9af0736e69", "type": "electric_scooter", "name": "690f694bb63df6b892d7cc9af0736e69"}, {"is_disabled": 0, "is_reserved": 0, "fusion_lat": 0.0, "lat": 38.9161085, "fusion_lon": 0.0, "rental_uris": {"ios": "https://dc.lft.to/lastmile_qr_scan", "android": "https://dc.lft.to/lastmile_qr_scan"}, "lon": -77.03204816666667, "bike_id": "26a4f178dc0281485baaec3aa5b74029", "type": "electric_scooter", "name": "26a4f178dc0281485baaec3aa5b74029"}, {"is_disabled": 0, "is_reserved": 0, "fusion_lat": 0.0, "lat": 38.94143, "fusion_lon": 0.0, "rental_uris": {"ios": "https://dc.lft.to/lastmile_qr_scan", "android": "https://dc.lft.to/lastmile_qr_scan"}, "lon": -77.02328083333333, "bike_id": "27752e707b3abeae27cb0aebad2cdd31", "type": "electric_scooter", "name": "27752e707b3abeae27cb0aebad2cdd31"}, {"is_disabled": 0, "is_reserved": 0, "fusion_lat": 0.0, "lat": 38.9475245, "fusion_lon": 0.0, "rental_uris": {"ios": "https://dc.lft.to/lastmile_qr_scan", "android": "https://dc.lft.to/lastmile_qr_scan"}, "lon": -77.023549, "bike_id": "a997a97bfb65a5d34539bc4380921175", "type": "electric_scooter", "name": "a997a97bfb65a5d34539bc4380921175"}, {"is_disabled": 0, "is_reserved": 0, "fusion_lat": 0.0, "lat": 38.856003666666666, "fusion_lon": 0.0, "rental_uris": {"ios": "https://dc.lft.to/lastmile_qr_scan", "android": "https://dc.lft.to/lastmile_qr_scan"}, "lon": -76.9728375, "bike_id": "d62f15f153dc50ddbdb6777414e4feda", "type": "electric_bike", "name": "d62f15f153dc50ddbdb6777414e4feda"}, {"is_disabled": 0, "is_reserved": 0, "fusion_lat": 0.0, "lat": 38.918166666666664, "fusion_lon": 0.0, "rental_uris": {"ios": "https://dc.lft.to/lastmile_qr_scan", "android": "https://dc.lft.to/lastmile_qr_scan"}, "lon": -77.02527583333334, "bike_id": "26725c5cb492570affe9039ab163ee68", "type": "electric_scooter", "name": "26725c5cb492570affe9039ab163ee68"}, {"is_disabled": 0, "is_reserved": 0, "fusion_lat": 0.0, "lat": 38.804101833333334, "fusion_lon": 0.0, "rental_uris": {"ios": "https://dc.lft.to/lastmile_qr_scan", "android": "https://dc.lft.to/lastmile_qr_scan"}, "lon": -77.1133205, "bike_id": "19ec7ca4073e1cc897c9961f2e3b597a", "type": "electric_bike", "name": "19ec7ca4073e1cc897c9961f2e3b597a"}, {"is_disabled": 0, "is_reserved": 0, "fusion_lat": 0.0, "lat": 38.967737666666665, "fusion_lon": 0.0, "rental_uris": {"ios": "https://dc.lft.to/lastmile_qr_scan", "android": "https://dc.lft.to/lastmile_qr_scan"}, "lon": -76.996537, "bike_id": "3a9d1c05f115a8f54e2ec7365920d9b9", "type": "electric_bike", "name": "3a9d1c05f115a8f54e2ec7365920d9b9"}, {"is_disabled": 0, "is_reserved": 0, "fusion_lat": 0.0, "lat": 38.904964666666665, "fusion_lon": 0.0, "rental_uris": {"ios": "https://dc.lft.to/lastmile_qr_scan", "android": "https://dc.lft.to/lastmile_qr_scan"}, "lon": -77.06119033333333, "bike_id": "5b030ce708e50fb6f059f6a4e6697e4e", "type": "electric_scooter", "name": "5b030ce708e50fb6f059f6a4e6697e4e"}, {"is_disabled": 0, "is_reserved": 0, "fusion_lat": 0.0, "lat": 38.91127933333333, "fusion_lon": 0.0, "rental_uris": {"ios": "https://dc.lft.to/lastmile_qr_scan", "android": "https://dc.lft.to/lastmile_qr_scan"}, "lon": -76.9974575, "bike_id": "504cd0f2c7cbb38dd6c8993999ce3796", "type": "electric_scooter", "name": "504cd0f2c7cbb38dd6c8993999ce3796"}, {"is_disabled": 0, "is_reserved": 0, "fusion_lat": 0.0, "lat": 38.91718266666667, "fusion_lon": 0.0, "rental_uris": {"ios": "https://dc.lft.to/lastmile_qr_scan", "android": "https://dc.lft.to/lastmile_qr_scan"}, "lon": -77.03857666666667, "bike_id": "5fd8846a5f5171b5d86fe6d87bce13e7", "type": "electric_scooter", "name": "5fd8846a5f5171b5d86fe6d87bce13e7"}, {"is_disabled": 0, "is_reserved": 0, "fusion_lat": 0.0, "lat": 38.91073866666667, "fusion_lon": 0.0, "rental_uris": {"ios": "https://dc.lft.to/lastmile_qr_scan", "android": "https://dc.lft.to/lastmile_qr_scan"}, "lon": -77.0218895, "bike_id": "01c1abfcb7be9deebf5a16c4324d9f46", "type": "electric_scooter", "name": "01c1abfcb7be9deebf5a16c4324d9f46"}, {"is_disabled": 0, "is_reserved": 0, "fusion_lat": 0.0, "lat": 38.92249316666667, "fusion_lon": 0.0, "rental_uris": {"ios": "https://dc.lft.to/lastmile_qr_scan", "android": "https://dc.lft.to/lastmile_qr_scan"}, "lon": -77.01947316666667, "bike_id": "757453425a652a017c2868811c34b462", "type": "electric_scooter", "name": "757453425a652a017c2868811c34b462"}, {"is_disabled": 0, "is_reserved": 0, "fusion_lat": 0.0, "lat": 38.930840333333336, "fusion_lon": 0.0, "rental_uris": {"ios": "https://dc.lft.to/lastmile_qr_scan", "android": "https://dc.lft.to/lastmile_qr_scan"}, "lon": -77.027973, "bike_id": "9deb6eb0855b9f2e900beae0d9b8fbe6", "type": "electric_scooter", "name": "9deb6eb0855b9f2e900beae0d9b8fbe6"}, {"is_disabled": 0, "is_reserved": 0, "fusion_lat": 0.0, "lat": 38.905483833333335, "fusion_lon": 0.0, "rental_uris": {"ios": "https://dc.lft.to/lastmile_qr_scan", "android": "https://dc.lft.to/lastmile_qr_scan"}, "lon": -77.06273216666666, "bike_id": "d8a30cabb5300233991ffbdc28ed6264", "type": "electric_scooter", "name": "d8a30cabb5300233991ffbdc28ed6264"}, {"is_disabled": 0, "is_reserved": 0, "fusion_lat": 0.0, "lat": 38.95592583333333, "fusion_lon": 0.0, "rental_uris": {"ios": "https://dc.lft.to/lastmile_qr_scan", "android": "https://dc.lft.to/lastmile_qr_scan"}, "lon": -77.028089, "bike_id": "3f22feee5d881ffab44724730020e278", "type": "electric_scooter", "name": "3f22feee5d881ffab44724730020e278"}, {"is_disabled": 0, "is_reserved": 0, "fusion_lat": 0.0, "lat": 38.90966366666667, "fusion_lon": 0.0, "rental_uris": {"ios": "https://dc.lft.to/lastmile_qr_scan", "android": "https://dc.lft.to/lastmile_qr_scan"}, "lon": -77.01439183333333, "bike_id": "a88eba62ffa2d702c1cdef6df535e858", "type": "electric_scooter", "name": "a88eba62ffa2d702c1cdef6df535e858"}, {"is_disabled": 0, "is_reserved": 0, "fusion_lat": 0.0, "lat": 38.90231583333333, "fusion_lon": 0.0, "rental_uris": {"ios": "https://dc.lft.to/lastmile_qr_scan", "android": "https://dc.lft.to/lastmile_qr_scan"}, "lon": -77.021636, "bike_id": "ce5e5409dfc6fc1dc8915f1ea8a287f6", "type": "electric_scooter", "name": "ce5e5409dfc6fc1dc8915f1ea8a287f6"}, {"is_disabled": 0, "is_reserved": 0, "fusion_lat": 0.0, "lat": 38.880705, "fusion_lon": 0.0, "rental_uris": {"ios": "https://dc.lft.to/lastmile_qr_scan", "android": "https://dc.lft.to/lastmile_qr_scan"}, "lon": -77.00568683333333, "bike_id": "625ab18945650c17b0fceafd4b9a41da", "type": "electric_scooter", "name": "625ab18945650c17b0fceafd4b9a41da"}, {"is_disabled": 0, "is_reserved": 0, "fusion_lat": 0.0, "lat": 38.909072333333334, "fusion_lon": 0.0, "rental_uris": {"ios": "https://dc.lft.to/lastmile_qr_scan", "android": "https://dc.lft.to/lastmile_qr_scan"}, "lon": -76.9978755, "bike_id": "dc377a7c89b830a46520c7e05d933f6c", "type": "electric_scooter", "name": "dc377a7c89b830a46520c7e05d933f6c"}, {"is_disabled": 0, "is_reserved": 0, "fusion_lat": 0.0, "lat": 38.934109166666666, "fusion_lon": 0.0, "rental_uris": {"ios": "https://dc.lft.to/lastmile_qr_scan", "android": "https://dc.lft.to/lastmile_qr_scan"}, "lon": -77.04277666666667, "bike_id": "afa670b967bea754f4815c3c7746223b", "type": "electric_scooter", "name": "afa670b967bea754f4815c3c7746223b"}, {"is_disabled": 0, "is_reserved": 0, "fusion_lat": 0.0, "lat": 38.928644166666665, "fusion_lon": 0.0, "rental_uris": {"ios": "https://dc.lft.to/lastmile_qr_scan", "android": "https://dc.lft.to/lastmile_qr_scan"}, "lon": -77.0295875, "bike_id": "00284aec414ef6fe4ec17e380d866a18", "type": "electric_scooter", "name": "00284aec414ef6fe4ec17e380d866a18"}, {"is_disabled": 0, "is_reserved": 0, "fusion_lat": 0.0, "lat": 38.91051483333333, "fusion_lon": 0.0, "rental_uris": {"ios": "https://dc.lft.to/lastmile_qr_scan", "android": "https://dc.lft.to/lastmile_qr_scan"}, "lon": -77.0432845, "bike_id": "ec126bbf854ff3703aa100bf32c5c373", "type": "electric_scooter", "name": "ec126bbf854ff3703aa100bf32c5c373"}, {"is_disabled": 0, "is_reserved": 0, "fusion_lat": 0.0, "lat": 38.929897833333335, "fusion_lon": 0.0, "rental_uris": {"ios": "https://dc.lft.to/lastmile_qr_scan", "android": "https://dc.lft.to/lastmile_qr_scan"}, "lon": -77.03474333333334, "bike_id": "4800302a9b883ce86e013699eb8194fa", "type": "electric_scooter", "name": "4800302a9b883ce86e013699eb8194fa"}, {"is_disabled": 0, "is_reserved": 0, "fusion_lat": 0.0, "lat": 38.92123866666667, "fusion_lon": 0.0, "rental_uris": {"ios": "https://dc.lft.to/lastmile_qr_scan", "android": "https://dc.lft.to/lastmile_qr_scan"}, "lon": -77.03662816666667, "bike_id": "d286abda27eb08d22b8b1126db1fb90b", "type": "electric_scooter", "name": "d286abda27eb08d22b8b1126db1fb90b"}, {"is_disabled": 0, "is_reserved": 0, "fusion_lat": 0.0, "lat": 38.88409033333333, "fusion_lon": 0.0, "rental_uris": {"ios": "https://dc.lft.to/lastmile_qr_scan", "android": "https://dc.lft.to/lastmile_qr_scan"}, "lon": -77.03043916666667, "bike_id": "653ac70f7999aa840fea90f676ba6a83", "type": "electric_scooter", "name": "653ac70f7999aa840fea90f676ba6a83"}, {"is_disabled": 0, "is_reserved": 0, "fusion_lat": 0.0, "lat": 38.900502833333334, "fusion_lon": 0.0, "rental_uris": {"ios": "https://dc.lft.to/lastmile_qr_scan", "android": "https://dc.lft.to/lastmile_qr_scan"}, "lon": -77.0172965, "bike_id": "64909bb5c385b7673e045351736a6aa6", "type": "electric_scooter", "name": "64909bb5c385b7673e045351736a6aa6"}, {"is_disabled": 0, "is_reserved": 0, "fusion_lat": 0.0, "lat": 38.90239366666667, "fusion_lon": 0.0, "rental_uris": {"ios": "https://dc.lft.to/lastmile_qr_scan", "android": "https://dc.lft.to/lastmile_qr_scan"}, "lon": -77.02696833333333, "bike_id": "3175d7a5b18083666a0d9cacba31f148", "type": "electric_scooter", "name": "3175d7a5b18083666a0d9cacba31f148"}, {"is_disabled": 0, "is_reserved": 0, "fusion_lat": 0.0, "lat": 38.90229683333333, "fusion_lon": 0.0, "rental_uris": {"ios": "https://dc.lft.to/lastmile_qr_scan", "android": "https://dc.lft.to/lastmile_qr_scan"}, "lon": -77.05337533333334, "bike_id": "7ac66fa37753cbf864b75c344dd90b7c", "type": "electric_scooter", "name": "7ac66fa37753cbf864b75c344dd90b7c"}, {"is_disabled": 0, "is_reserved": 0, "fusion_lat": 0.0, "lat": 38.93621783333333, "fusion_lon": 0.0, "rental_uris": {"ios": "https://dc.lft.to/lastmile_qr_scan", "android": "https://dc.lft.to/lastmile_qr_scan"}, "lon": -77.03880833333334, "bike_id": "0564149675fb686932c28674f3dc5f5c", "type": "electric_scooter", "name": "0564149675fb686932c28674f3dc5f5c"}, {"is_disabled": 0, "is_reserved": 0, "fusion_lat": 0.0, "lat": 38.930744, "fusion_lon": 0.0, "rental_uris": {"ios": "https://dc.lft.to/lastmile_qr_scan", "android": "https://dc.lft.to/lastmile_qr_scan"}, "lon": -77.077634, "bike_id": "e7cb4faf242ba0813e30b8c7ffc1d6ce", "type": "electric_scooter", "name": "e7cb4faf242ba0813e30b8c7ffc1d6ce"}, {"is_disabled": 0, "is_reserved": 0, "fusion_lat": 0.0, "lat": 38.89228216666667, "fusion_lon": 0.0, "rental_uris": {"ios": "https://dc.lft.to/lastmile_qr_scan", "android": "https://dc.lft.to/lastmile_qr_scan"}, "lon": -77.05004883333334, "bike_id": "fb1c9be0c64bb95e88652a5089ac07f1", "type": "electric_scooter", "name": "fb1c9be0c64bb95e88652a5089ac07f1"}, {"is_disabled": 0, "is_reserved": 0, "fusion_lat": 0.0, "lat": 38.91265083333333, "fusion_lon": 0.0, "rental_uris": {"ios": "https://dc.lft.to/lastmile_qr_scan", "android": "https://dc.lft.to/lastmile_qr_scan"}, "lon": -77.02258166666667, "bike_id": "cebf7dda75151efaa6f993d540fefc24", "type": "electric_scooter", "name": "cebf7dda75151efaa6f993d540fefc24"}, {"is_disabled": 0, "is_reserved": 0, "fusion_lat": 0.0, "lat": 38.93967283333333, "fusion_lon": 0.0, "rental_uris": {"ios": "https://dc.lft.to/lastmile_qr_scan", "android": "https://dc.lft.to/lastmile_qr_scan"}, "lon": -77.03428866666667, "bike_id": "c47e72c8ef2a90a355e902542d8a0f79", "type": "electric_scooter", "name": "c47e72c8ef2a90a355e902542d8a0f79"}, {"is_disabled": 0, "is_reserved": 0, "fusion_lat": 0.0, "lat": 38.91806366666667, "fusion_lon": 0.0, "rental_uris": {"ios": "https://dc.lft.to/lastmile_qr_scan", "android": "https://dc.lft.to/lastmile_qr_scan"}, "lon": -77.03436233333333, "bike_id": "17f3c3ce72e550fc615015eb87e61036", "type": "electric_scooter", "name": "17f3c3ce72e550fc615015eb87e61036"}, {"is_disabled": 0, "is_reserved": 0, "fusion_lat": 0.0, "lat": 39.00370083333333, "fusion_lon": 0.0, "rental_uris": {"ios": "https://dc.lft.to/lastmile_qr_scan", "android": "https://dc.lft.to/lastmile_qr_scan"}, "lon": -77.012969, "bike_id": "009289bbb7323b0edffd844cdd2708c3", "type": "electric_bike", "name": "009289bbb7323b0edffd844cdd2708c3"}, {"is_disabled": 0, "is_reserved": 0, "fusion_lat": 0.0, "lat": 38.91554416666666, "fusion_lon": 0.0, "rental_uris": {"ios": "https://dc.lft.to/lastmile_qr_scan", "android": "https://dc.lft.to/lastmile_qr_scan"}, "lon": -77.034704, "bike_id": "922378bfa03ded0f53400e071d640f21", "type": "electric_scooter", "name": "922378bfa03ded0f53400e071d640f21"}, {"is_disabled": 0, "is_reserved": 0, "fusion_lat": 0.0, "lat": 38.93563916666667, "fusion_lon": 0.0, "rental_uris": {"ios": "https://dc.lft.to/lastmile_qr_scan", "android": "https://dc.lft.to/lastmile_qr_scan"}, "lon": -76.9910455, "bike_id": "54449de257e4b584f8f41717a0cad677", "type": "electric_scooter", "name": "54449de257e4b584f8f41717a0cad677"}, {"is_disabled": 0, "is_reserved": 0, "fusion_lat": 0.0, "lat": 38.95361916666667, "fusion_lon": 0.0, "rental_uris": {"ios": "https://dc.lft.to/lastmile_qr_scan", "android": "https://dc.lft.to/lastmile_qr_scan"}, "lon": -76.94296066666666, "bike_id": "f03163a7849ec557fc77bf13058c6e29", "type": "electric_bike", "name": "f03163a7849ec557fc77bf13058c6e29"}, {"is_disabled": 0, "is_reserved": 0, "fusion_lat": 0.0, "lat": 38.92836033333333, "fusion_lon": 0.0, "rental_uris": {"ios": "https://dc.lft.to/lastmile_qr_scan", "android": "https://dc.lft.to/lastmile_qr_scan"}, "lon": -77.03273783333333, "bike_id": "b0fc949caeab36a550a59a681a896658", "type": "electric_scooter", "name": "b0fc949caeab36a550a59a681a896658"}, {"is_disabled": 0, "is_reserved": 0, "fusion_lat": 0.0, "lat": 38.90228166666667, "fusion_lon": 0.0, "rental_uris": {"ios": "https://dc.lft.to/lastmile_qr_scan", "android": "https://dc.lft.to/lastmile_qr_scan"}, "lon": -77.032005, "bike_id": "3bb1a3fc05d1aafee2e8897af8bcde85", "type": "electric_scooter", "name": "3bb1a3fc05d1aafee2e8897af8bcde85"}, {"is_disabled": 0, "is_reserved": 0, "fusion_lat": 0.0, "lat": 38.92657616666666, "fusion_lon": 0.0, "rental_uris": {"ios": "https://dc.lft.to/lastmile_qr_scan", "android": "https://dc.lft.to/lastmile_qr_scan"}, "lon": -77.02432466666667, "bike_id": "f5847b3bc65e63f7f2284a7683e93d7c", "type": "electric_scooter", "name": "f5847b3bc65e63f7f2284a7683e93d7c"}, {"is_disabled": 0, "is_reserved": 0, "fusion_lat": 0.0, "lat": 38.9019485, "fusion_lon": 0.0, "rental_uris": {"ios": "https://dc.lft.to/lastmile_qr_scan", "android": "https://dc.lft.to/lastmile_qr_scan"}, "lon": -77.0508205, "bike_id": "e4e8f0d3ea5a3070aa31cd844d0c13fb", "type": "electric_scooter", "name": "e4e8f0d3ea5a3070aa31cd844d0c13fb"}, {"is_disabled": 0, "is_reserved": 0, "fusion_lat": 0.0, "lat": 38.92382333333333, "fusion_lon": 0.0, "rental_uris": {"ios": "https://dc.lft.to/lastmile_qr_scan", "android": "https://dc.lft.to/lastmile_qr_scan"}, "lon": -77.02680916666667, "bike_id": "e5201e7cc1fec0c6d21df58239c0a63b", "type": "electric_scooter", "name": "e5201e7cc1fec0c6d21df58239c0a63b"}, {"is_disabled": 0, "is_reserved": 0, "fusion_lat": 0.0, "lat": 38.9472435, "fusion_lon": 0.0, "rental_uris": {"ios": "https://dc.lft.to/lastmile_qr_scan", "android": "https://dc.lft.to/lastmile_qr_scan"}, "lon": -77.02358566666666, "bike_id": "9934c04edf33c8b51b0ef821922fce0d", "type": "electric_scooter", "name": "9934c04edf33c8b51b0ef821922fce0d"}, {"is_disabled": 0, "is_reserved": 0, "fusion_lat": 0.0, "lat": 38.913311666666665, "fusion_lon": 0.0, "rental_uris": {"ios": "https://dc.lft.to/lastmile_qr_scan", "android": "https://dc.lft.to/lastmile_qr_scan"}, "lon": -77.031238, "bike_id": "514914d3a91ed0bf7a8174731bad9699", "type": "electric_scooter", "name": "514914d3a91ed0bf7a8174731bad9699"}, {"is_disabled": 0, "is_reserved": 0, "fusion_lat": 0.0, "lat": 38.92547316666667, "fusion_lon": 0.0, "rental_uris": {"ios": "https://dc.lft.to/lastmile_qr_scan", "android": "https://dc.lft.to/lastmile_qr_scan"}, "lon": -77.02278916666667, "bike_id": "1c4806e50fb73616010bad7d3db0004b", "type": "electric_scooter", "name": "1c4806e50fb73616010bad7d3db0004b"}, {"is_disabled": 0, "is_reserved": 0, "fusion_lat": 0.0, "lat": 38.91817733333333, "fusion_lon": 0.0, "rental_uris": {"ios": "https://dc.lft.to/lastmile_qr_scan", "android": "https://dc.lft.to/lastmile_qr_scan"}, "lon": -77.02526916666666, "bike_id": "4ca7c6d25eeef7b71112fd3a85c687ea", "type": "electric_scooter", "name": "4ca7c6d25eeef7b71112fd3a85c687ea"}, {"is_disabled": 0, "is_reserved": 0, "fusion_lat": 0.0, "lat": 38.917903833333334, "fusion_lon": 0.0, "rental_uris": {"ios": "https://dc.lft.to/lastmile_qr_scan", "android": "https://dc.lft.to/lastmile_qr_scan"}, "lon": -77.02471983333334, "bike_id": "91d1714b5d44e7aca7114b2517ffe8d0", "type": "electric_scooter", "name": "91d1714b5d44e7aca7114b2517ffe8d0"}, {"is_disabled": 0, "is_reserved": 0, "fusion_lat": 0.0, "lat": 38.91584116666667, "fusion_lon": 0.0, "rental_uris": {"ios": "https://dc.lft.to/lastmile_qr_scan", "android": "https://dc.lft.to/lastmile_qr_scan"}, "lon": -77.06785666666667, "bike_id": "a6d925e2ab01407556aff499878cf730", "type": "electric_scooter", "name": "a6d925e2ab01407556aff499878cf730"}, {"is_disabled": 0, "is_reserved": 0, "fusion_lat": 0.0, "lat": 38.89907633333333, "fusion_lon": 0.0, "rental_uris": {"ios": "https://dc.lft.to/lastmile_qr_scan", "android": "https://dc.lft.to/lastmile_qr_scan"}, "lon": -77.03966866666667, "bike_id": "e7927026a8fd7aab911b195534117a93", "type": "electric_scooter", "name": "e7927026a8fd7aab911b195534117a93"}, {"is_disabled": 0, "is_reserved": 0, "fusion_lat": 0.0, "lat": 38.9747965, "fusion_lon": 0.0, "rental_uris": {"ios": "https://dc.lft.to/lastmile_qr_scan", "android": "https://dc.lft.to/lastmile_qr_scan"}, "lon": -76.986671, "bike_id": "a7cc27a3dc8d84a22e37f7f287927fa9", "type": "electric_bike", "name": "a7cc27a3dc8d84a22e37f7f287927fa9"}, {"is_disabled": 0, "is_reserved": 0, "fusion_lat": 0.0, "lat": 38.916746833333335, "fusion_lon": 0.0, "rental_uris": {"ios": "https://dc.lft.to/lastmile_qr_scan", "android": "https://dc.lft.to/lastmile_qr_scan"}, "lon": -77.03199033333334, "bike_id": "b11f57ebe294c76d211bc8446e358a28", "type": "electric_scooter", "name": "b11f57ebe294c76d211bc8446e358a28"}, {"is_disabled": 0, "is_reserved": 0, "fusion_lat": 0.0, "lat": 38.8463235, "fusion_lon": 0.0, "rental_uris": {"ios": "https://dc.lft.to/lastmile_qr_scan", "android": "https://dc.lft.to/lastmile_qr_scan"}, "lon": -76.96904333333333, "bike_id": "34182b4580f820a976c9c14003ee0e48", "type": "electric_bike", "name": "34182b4580f820a976c9c14003ee0e48"}, {"is_disabled": 0, "is_reserved": 0, "fusion_lat": 0.0, "lat": 38.91714666666667, "fusion_lon": 0.0, "rental_uris": {"ios": "https://dc.lft.to/lastmile_qr_scan", "android": "https://dc.lft.to/lastmile_qr_scan"}, "lon": -77.04172, "bike_id": "f8a9aac9cdc57cea071c05b1f5a771c9", "type": "electric_scooter", "name": "f8a9aac9cdc57cea071c05b1f5a771c9"}, {"is_disabled": 0, "is_reserved": 0, "fusion_lat": 0.0, "lat": 38.902619, "fusion_lon": 0.0, "rental_uris": {"ios": "https://dc.lft.to/lastmile_qr_scan", "android": "https://dc.lft.to/lastmile_qr_scan"}, "lon": -77.0264475, "bike_id": "198818220afcd385cb654d0e1036f580", "type": "electric_scooter", "name": "198818220afcd385cb654d0e1036f580"}, {"is_disabled": 0, "is_reserved": 0, "fusion_lat": 0.0, "lat": 38.887186166666666, "fusion_lon": 0.0, "rental_uris": {"ios": "https://dc.lft.to/lastmile_qr_scan", "android": "https://dc.lft.to/lastmile_qr_scan"}, "lon": -76.99608783333333, "bike_id": "c8a7872e19b99dd0bb1e1bb6a50a4e82", "type": "electric_scooter", "name": "c8a7872e19b99dd0bb1e1bb6a50a4e82"}, {"is_disabled": 0, "is_reserved": 0, "fusion_lat": 0.0, "lat": 38.834887333333334, "fusion_lon": 0.0, "rental_uris": {"ios": "https://dc.lft.to/lastmile_qr_scan", "android": "https://dc.lft.to/lastmile_qr_scan"}, "lon": -77.00437783333334, "bike_id": "82cb7407212ebcb52ee65fabd3aed7da", "type": "electric_bike", "name": "82cb7407212ebcb52ee65fabd3aed7da"}, {"is_disabled": 0, "is_reserved": 0, "fusion_lat": 0.0, "lat": 39.0229545, "fusion_lon": 0.0, "rental_uris": {"ios": "https://dc.lft.to/lastmile_qr_scan", "android": "https://dc.lft.to/lastmile_qr_scan"}, "lon": -77.02102966666666, "bike_id": "b256fc265f9491ce3bf4d6a9cb05b4b3", "type": "electric_bike", "name": "b256fc265f9491ce3bf4d6a9cb05b4b3"}, {"is_disabled": 0, "is_reserved": 0, "fusion_lat": 0.0, "lat": 38.8682665, "fusion_lon": 0.0, "rental_uris": {"ios": "https://dc.lft.to/lastmile_qr_scan", "android": "https://dc.lft.to/lastmile_qr_scan"}, "lon": -76.98025766666666, "bike_id": "4e9387d1846c924d82572598581faea1", "type": "electric_bike", "name": "4e9387d1846c924d82572598581faea1"}, {"is_disabled": 0, "is_reserved": 0, "fusion_lat": 0.0, "lat": 38.920680833333336, "fusion_lon": 0.0, "rental_uris": {"ios": "https://dc.lft.to/lastmile_qr_scan", "android": "https://dc.lft.to/lastmile_qr_scan"}, "lon": -77.03299316666667, "bike_id": "692283b58a0ce29de1876929b85a5e0d", "type": "electric_scooter", "name": "692283b58a0ce29de1876929b85a5e0d"}, {"is_disabled": 0, "is_reserved": 0, "fusion_lat": 0.0, "lat": 38.901262, "fusion_lon": 0.0, "rental_uris": {"ios": "https://dc.lft.to/lastmile_qr_scan", "android": "https://dc.lft.to/lastmile_qr_scan"}, "lon": -77.03359883333333, "bike_id": "cb965e4045c716fa238eaa440719bc6f", "type": "electric_scooter", "name": "cb965e4045c716fa238eaa440719bc6f"}, {"is_disabled": 0, "is_reserved": 0, "fusion_lat": 0.0, "lat": 38.9222575, "fusion_lon": 0.0, "rental_uris": {"ios": "https://dc.lft.to/lastmile_qr_scan", "android": "https://dc.lft.to/lastmile_qr_scan"}, "lon": -77.0433575, "bike_id": "43819b234be5d140e70c9580cf9ed567", "type": "electric_scooter", "name": "43819b234be5d140e70c9580cf9ed567"}, {"is_disabled": 0, "is_reserved": 0, "fusion_lat": 0.0, "lat": 38.939133, "fusion_lon": 0.0, "rental_uris": {"ios": "https://dc.lft.to/lastmile_qr_scan", "android": "https://dc.lft.to/lastmile_qr_scan"}, "lon": -77.03258816666667, "bike_id": "dc047e7bc7bb33987b23cb6ee8e5cf74", "type": "electric_scooter", "name": "dc047e7bc7bb33987b23cb6ee8e5cf74"}, {"is_disabled": 0, "is_reserved": 0, "fusion_lat": 0.0, "lat": 38.89669766666667, "fusion_lon": 0.0, "rental_uris": {"ios": "https://dc.lft.to/lastmile_qr_scan", "android": "https://dc.lft.to/lastmile_qr_scan"}, "lon": -76.932092, "bike_id": "455a26a7cc39ca4eb24af20622971c2d", "type": "electric_scooter", "name": "455a26a7cc39ca4eb24af20622971c2d"}, {"is_disabled": 0, "is_reserved": 0, "fusion_lat": 0.0, "lat": 38.8871735, "fusion_lon": 0.0, "rental_uris": {"ios": "https://dc.lft.to/lastmile_qr_scan", "android": "https://dc.lft.to/lastmile_qr_scan"}, "lon": -76.99625183333333, "bike_id": "4ed896991a74ef83c94e30b08b1d358a", "type": "electric_scooter", "name": "4ed896991a74ef83c94e30b08b1d358a"}, {"is_disabled": 0, "is_reserved": 0, "fusion_lat": 0.0, "lat": 38.915504, "fusion_lon": 0.0, "rental_uris": {"ios": "https://dc.lft.to/lastmile_qr_scan", "android": "https://dc.lft.to/lastmile_qr_scan"}, "lon": -77.02698133333334, "bike_id": "321673d74249900bcd9d471b999ddae8", "type": "electric_scooter", "name": "321673d74249900bcd9d471b999ddae8"}, {"is_disabled": 0, "is_reserved": 0, "fusion_lat": 0.0, "lat": 38.870631, "fusion_lon": 0.0, "rental_uris": {"ios": "https://dc.lft.to/lastmile_qr_scan", "android": "https://dc.lft.to/lastmile_qr_scan"}, "lon": -77.11039366666667, "bike_id": "3a99fcededd6c06903fad8d459a68f47", "type": "electric_bike", "name": "3a99fcededd6c06903fad8d459a68f47"}, {"is_disabled": 0, "is_reserved": 0, "fusion_lat": 0.0, "lat": 38.9238915, "fusion_lon": 0.0, "rental_uris": {"ios": "https://dc.lft.to/lastmile_qr_scan", "android": "https://dc.lft.to/lastmile_qr_scan"}, "lon": -77.04303766666666, "bike_id": "4ee4320b2307a502b09fc391a2796630", "type": "electric_scooter", "name": "4ee4320b2307a502b09fc391a2796630"}, {"is_disabled": 0, "is_reserved": 0, "fusion_lat": 0.0, "lat": 38.8792785, "fusion_lon": 0.0, "rental_uris": {"ios": "https://dc.lft.to/lastmile_qr_scan", "android": "https://dc.lft.to/lastmile_qr_scan"}, "lon": -77.00873116666666, "bike_id": "224af56499bbc64af0234de29b2e493d", "type": "electric_scooter", "name": "224af56499bbc64af0234de29b2e493d"}, {"is_disabled": 0, "is_reserved": 0, "fusion_lat": 0.0, "lat": 38.923382, "fusion_lon": 0.0, "rental_uris": {"ios": "https://dc.lft.to/lastmile_qr_scan", "android": "https://dc.lft.to/lastmile_qr_scan"}, "lon": -77.05621933333333, "bike_id": "9ed637afb0101aef123683c21245dea3", "type": "electric_scooter", "name": "9ed637afb0101aef123683c21245dea3"}, {"is_disabled": 0, "is_reserved": 0, "fusion_lat": 0.0, "lat": 38.91614333333333, "fusion_lon": 0.0, "rental_uris": {"ios": "https://dc.lft.to/lastmile_qr_scan", "android": "https://dc.lft.to/lastmile_qr_scan"}, "lon": -77.02092716666667, "bike_id": "f70f67c493c195e1e9ebb499fdbb2001", "type": "electric_scooter", "name": "f70f67c493c195e1e9ebb499fdbb2001"}, {"is_disabled": 0, "is_reserved": 0, "fusion_lat": 0.0, "lat": 38.875287166666666, "fusion_lon": 0.0, "rental_uris": {"ios": "https://dc.lft.to/lastmile_qr_scan", "android": "https://dc.lft.to/lastmile_qr_scan"}, "lon": -77.012305, "bike_id": "fcab126c86de0ad03f23487c88ee0caa", "type": "electric_scooter", "name": "fcab126c86de0ad03f23487c88ee0caa"}, {"is_disabled": 0, "is_reserved": 0, "fusion_lat": 0.0, "lat": 38.9190625, "fusion_lon": 0.0, "rental_uris": {"ios": "https://dc.lft.to/lastmile_qr_scan", "android": "https://dc.lft.to/lastmile_qr_scan"}, "lon": -77.0005175, "bike_id": "d719af0e53b09de025b61f273d81b14b", "type": "electric_scooter", "name": "d719af0e53b09de025b61f273d81b14b"}, {"is_disabled": 0, "is_reserved": 0, "fusion_lat": 0.0, "lat": 38.927043833333336, "fusion_lon": 0.0, "rental_uris": {"ios": "https://dc.lft.to/lastmile_qr_scan", "android": "https://dc.lft.to/lastmile_qr_scan"}, "lon": -76.960792, "bike_id": "0476973218c31a59938117d3b05269ad", "type": "electric_scooter", "name": "0476973218c31a59938117d3b05269ad"}, {"is_disabled": 0, "is_reserved": 0, "fusion_lat": 0.0, "lat": 38.917034, "fusion_lon": 0.0, "rental_uris": {"ios": "https://dc.lft.to/lastmile_qr_scan", "android": "https://dc.lft.to/lastmile_qr_scan"}, "lon": -77.03128083333333, "bike_id": "3f4c1270b1189b256febb59fe347f7aa", "type": "electric_scooter", "name": "3f4c1270b1189b256febb59fe347f7aa"}, {"is_disabled": 0, "is_reserved": 0, "fusion_lat": 0.0, "lat": 38.879946333333336, "fusion_lon": 0.0, "rental_uris": {"ios": "https://dc.lft.to/lastmile_qr_scan", "android": "https://dc.lft.to/lastmile_qr_scan"}, "lon": -77.0374045, "bike_id": "cfe4086a0d064f890c68ba8096b6a7c0", "type": "electric_scooter", "name": "cfe4086a0d064f890c68ba8096b6a7c0"}, {"is_disabled": 0, "is_reserved": 0, "fusion_lat": 0.0, "lat": 38.9022385, "fusion_lon": 0.0, "rental_uris": {"ios": "https://dc.lft.to/lastmile_qr_scan", "android": "https://dc.lft.to/lastmile_qr_scan"}, "lon": -76.9317575, "bike_id": "393a6b2ddfde172e486aa7bdf3b49572", "type": "electric_bike", "name": "393a6b2ddfde172e486aa7bdf3b49572"}, {"is_disabled": 0, "is_reserved": 0, "fusion_lat": 0.0, "lat": 38.924135, "fusion_lon": 0.0, "rental_uris": {"ios": "https://dc.lft.to/lastmile_qr_scan", "android": "https://dc.lft.to/lastmile_qr_scan"}, "lon": -77.02129683333334, "bike_id": "8c855be7d3336f7231c15f8350e1e480", "type": "electric_scooter", "name": "8c855be7d3336f7231c15f8350e1e480"}, {"is_disabled": 0, "is_reserved": 0, "fusion_lat": 0.0, "lat": 38.912119, "fusion_lon": 0.0, "rental_uris": {"ios": "https://dc.lft.to/lastmile_qr_scan", "android": "https://dc.lft.to/lastmile_qr_scan"}, "lon": -77.0083195, "bike_id": "f6cdb8d7983e6a46d0597ad453de0642", "type": "electric_scooter", "name": "f6cdb8d7983e6a46d0597ad453de0642"}, {"is_disabled": 0, "is_reserved": 0, "fusion_lat": 0.0, "lat": 38.9231615, "fusion_lon": 0.0, "rental_uris": {"ios": "https://dc.lft.to/lastmile_qr_scan", "android": "https://dc.lft.to/lastmile_qr_scan"}, "lon": -77.039166, "bike_id": "e41d667455ceaecdae88c04a52932db2", "type": "electric_scooter", "name": "e41d667455ceaecdae88c04a52932db2"}, {"is_disabled": 0, "is_reserved": 0, "fusion_lat": 0.0, "lat": 38.898008833333336, "fusion_lon": 0.0, "rental_uris": {"ios": "https://dc.lft.to/lastmile_qr_scan", "android": "https://dc.lft.to/lastmile_qr_scan"}, "lon": -76.97166716666666, "bike_id": "45fbd8ada2d8979505853f350bdf84d8", "type": "electric_scooter", "name": "45fbd8ada2d8979505853f350bdf84d8"}, {"is_disabled": 0, "is_reserved": 0, "fusion_lat": 0.0, "lat": 38.8385665, "fusion_lon": 0.0, "rental_uris": {"ios": "https://dc.lft.to/lastmile_qr_scan", "android": "https://dc.lft.to/lastmile_qr_scan"}, "lon": -76.996991, "bike_id": "10c69b01980761568f5b4cee07a5f419", "type": "electric_bike", "name": "10c69b01980761568f5b4cee07a5f419"}, {"is_disabled": 0, "is_reserved": 0, "fusion_lat": 0.0, "lat": 38.89515083333333, "fusion_lon": 0.0, "rental_uris": {"ios": "https://dc.lft.to/lastmile_qr_scan", "android": "https://dc.lft.to/lastmile_qr_scan"}, "lon": -76.98107483333334, "bike_id": "baaa2747f47601f1c92bb1fb91a6a9d0", "type": "electric_scooter", "name": "baaa2747f47601f1c92bb1fb91a6a9d0"}, {"is_disabled": 0, "is_reserved": 0, "fusion_lat": 0.0, "lat": 38.886255, "fusion_lon": 0.0, "rental_uris": {"ios": "https://dc.lft.to/lastmile_qr_scan", "android": "https://dc.lft.to/lastmile_qr_scan"}, "lon": -76.92639183333333, "bike_id": "8b2b90107f5f41c93621e3cb1de55113", "type": "electric_scooter", "name": "8b2b90107f5f41c93621e3cb1de55113"}, {"is_disabled": 0, "is_reserved": 0, "fusion_lat": 0.0, "lat": 38.9141625, "fusion_lon": 0.0, "rental_uris": {"ios": "https://dc.lft.to/lastmile_qr_scan", "android": "https://dc.lft.to/lastmile_qr_scan"}, "lon": -77.05209383333333, "bike_id": "04aa23f79bad0bafaece2441a778a383", "type": "electric_scooter", "name": "04aa23f79bad0bafaece2441a778a383"}, {"is_disabled": 0, "is_reserved": 0, "fusion_lat": 0.0, "lat": 39.026436, "fusion_lon": 0.0, "rental_uris": {"ios": "https://dc.lft.to/lastmile_qr_scan", "android": "https://dc.lft.to/lastmile_qr_scan"}, "lon": -77.03687233333333, "bike_id": "2abdf0e5bcc04d32095f04f0fdfca11d", "type": "electric_bike", "name": "2abdf0e5bcc04d32095f04f0fdfca11d"}, {"is_disabled": 0, "is_reserved": 0, "fusion_lat": 0.0, "lat": 38.9433285, "fusion_lon": 0.0, "rental_uris": {"ios": "https://dc.lft.to/lastmile_qr_scan", "android": "https://dc.lft.to/lastmile_qr_scan"}, "lon": -77.026912, "bike_id": "7231705109d6692be3c6bd9f935bf3b6", "type": "electric_scooter", "name": "7231705109d6692be3c6bd9f935bf3b6"}, {"is_disabled": 0, "is_reserved": 0, "fusion_lat": 0.0, "lat": 38.920527, "fusion_lon": 0.0, "rental_uris": {"ios": "https://dc.lft.to/lastmile_qr_scan", "android": "https://dc.lft.to/lastmile_qr_scan"}, "lon": -77.03135983333334, "bike_id": "464f8504b921d624971684e76722589e", "type": "electric_scooter", "name": "464f8504b921d624971684e76722589e"}, {"is_disabled": 0, "is_reserved": 0, "fusion_lat": 0.0, "lat": 38.927593, "fusion_lon": 0.0, "rental_uris": {"ios": "https://dc.lft.to/lastmile_qr_scan", "android": "https://dc.lft.to/lastmile_qr_scan"}, "lon": -77.05269983333334, "bike_id": "a0bcfd942caa614c91dc9193e838fdc5", "type": "electric_scooter", "name": "a0bcfd942caa614c91dc9193e838fdc5"}, {"is_disabled": 0, "is_reserved": 0, "fusion_lat": 0.0, "lat": 38.930658666666666, "fusion_lon": 0.0, "rental_uris": {"ios": "https://dc.lft.to/lastmile_qr_scan", "android": "https://dc.lft.to/lastmile_qr_scan"}, "lon": -77.02325766666667, "bike_id": "021f2c3946b75279eb3fab73857b7c48", "type": "electric_scooter", "name": "021f2c3946b75279eb3fab73857b7c48"}, {"is_disabled": 0, "is_reserved": 0, "fusion_lat": 0.0, "lat": 38.905089, "fusion_lon": 0.0, "rental_uris": {"ios": "https://dc.lft.to/lastmile_qr_scan", "android": "https://dc.lft.to/lastmile_qr_scan"}, "lon": -76.95196933333334, "bike_id": "1f6a84b2317611750f86618f426f2886", "type": "electric_scooter", "name": "1f6a84b2317611750f86618f426f2886"}, {"is_disabled": 0, "is_reserved": 0, "fusion_lat": 0.0, "lat": 38.922009833333334, "fusion_lon": 0.0, "rental_uris": {"ios": "https://dc.lft.to/lastmile_qr_scan", "android": "https://dc.lft.to/lastmile_qr_scan"}, "lon": -77.0204075, "bike_id": "0ff7a3aec2c6a5e5d5a4a36a45f69b1a", "type": "electric_scooter", "name": "0ff7a3aec2c6a5e5d5a4a36a45f69b1a"}, {"is_disabled": 0, "is_reserved": 0, "fusion_lat": 0.0, "lat": 38.902814166666666, "fusion_lon": 0.0, "rental_uris": {"ios": "https://dc.lft.to/lastmile_qr_scan", "android": "https://dc.lft.to/lastmile_qr_scan"}, "lon": -77.0320415, "bike_id": "5588449091c37828cee4f424b9c2df01", "type": "electric_scooter", "name": "5588449091c37828cee4f424b9c2df01"}, {"is_disabled": 0, "is_reserved": 0, "fusion_lat": 0.0, "lat": 38.89968183333333, "fusion_lon": 0.0, "rental_uris": {"ios": "https://dc.lft.to/lastmile_qr_scan", "android": "https://dc.lft.to/lastmile_qr_scan"}, "lon": -76.92633616666667, "bike_id": "ad203fa78e88c27594e778a025a7bf26", "type": "electric_scooter", "name": "ad203fa78e88c27594e778a025a7bf26"}, {"is_disabled": 0, "is_reserved": 0, "fusion_lat": 0.0, "lat": 38.90950633333333, "fusion_lon": 0.0, "rental_uris": {"ios": "https://dc.lft.to/lastmile_qr_scan", "android": "https://dc.lft.to/lastmile_qr_scan"}, "lon": -77.02390383333334, "bike_id": "f5b116025de881026b96d3a20fcf263e", "type": "electric_scooter", "name": "f5b116025de881026b96d3a20fcf263e"}, {"is_disabled": 0, "is_reserved": 0, "fusion_lat": 0.0, "lat": 38.953373666666664, "fusion_lon": 0.0, "rental_uris": {"ios": "https://dc.lft.to/lastmile_qr_scan", "android": "https://dc.lft.to/lastmile_qr_scan"}, "lon": -77.08141383333333, "bike_id": "3d72d8b85d08d6f70f74e8fa95d9e06d", "type": "electric_scooter", "name": "3d72d8b85d08d6f70f74e8fa95d9e06d"}, {"is_disabled": 0, "is_reserved": 0, "fusion_lat": 0.0, "lat": 38.92164116666667, "fusion_lon": 0.0, "rental_uris": {"ios": "https://dc.lft.to/lastmile_qr_scan", "android": "https://dc.lft.to/lastmile_qr_scan"}, "lon": -77.040207, "bike_id": "f6eb9b184db0a318bb10b5144fdf16f4", "type": "electric_scooter", "name": "f6eb9b184db0a318bb10b5144fdf16f4"}, {"is_disabled": 0, "is_reserved": 0, "fusion_lat": 0.0, "lat": 38.90562666666667, "fusion_lon": 0.0, "rental_uris": {"ios": "https://dc.lft.to/lastmile_qr_scan", "android": "https://dc.lft.to/lastmile_qr_scan"}, "lon": -77.03272466666667, "bike_id": "9519c9cc5b24cb5be0d4f2bbed36da1d", "type": "electric_scooter", "name": "9519c9cc5b24cb5be0d4f2bbed36da1d"}, {"is_disabled": 0, "is_reserved": 0, "fusion_lat": 0.0, "lat": 38.923495833333334, "fusion_lon": 0.0, "rental_uris": {"ios": "https://dc.lft.to/lastmile_qr_scan", "android": "https://dc.lft.to/lastmile_qr_scan"}, "lon": -76.972053, "bike_id": "f7ac4a9739b854ce65ecdbb1edc8c663", "type": "electric_scooter", "name": "f7ac4a9739b854ce65ecdbb1edc8c663"}, {"is_disabled": 0, "is_reserved": 0, "fusion_lat": 0.0, "lat": 38.91415666666666, "fusion_lon": 0.0, "rental_uris": {"ios": "https://dc.lft.to/lastmile_qr_scan", "android": "https://dc.lft.to/lastmile_qr_scan"}, "lon": -77.0223115, "bike_id": "9c21eb0066f14b66279605a4f6beb71f", "type": "electric_scooter", "name": "9c21eb0066f14b66279605a4f6beb71f"}, {"is_disabled": 0, "is_reserved": 0, "fusion_lat": 0.0, "lat": 39.08472783333333, "fusion_lon": 0.0, "rental_uris": {"ios": "https://dc.lft.to/lastmile_qr_scan", "android": "https://dc.lft.to/lastmile_qr_scan"}, "lon": -76.950674, "bike_id": "6ce27962b0857d27ffa1829e825ecf3f", "type": "electric_bike", "name": "6ce27962b0857d27ffa1829e825ecf3f"}, {"is_disabled": 0, "is_reserved": 0, "fusion_lat": 0.0, "lat": 39.02515016666667, "fusion_lon": 0.0, "rental_uris": {"ios": "https://dc.lft.to/lastmile_qr_scan", "android": "https://dc.lft.to/lastmile_qr_scan"}, "lon": -77.0196835, "bike_id": "498f915634674c3755add51082b7b5c0", "type": "electric_bike", "name": "498f915634674c3755add51082b7b5c0"}, {"is_disabled": 0, "is_reserved": 0, "fusion_lat": 0.0, "lat": 38.91693316666667, "fusion_lon": 0.0, "rental_uris": {"ios": "https://dc.lft.to/lastmile_qr_scan", "android": "https://dc.lft.to/lastmile_qr_scan"}, "lon": -77.02308433333333, "bike_id": "6584bf5830d8526360d1bfe7ebb958b1", "type": "electric_scooter", "name": "6584bf5830d8526360d1bfe7ebb958b1"}, {"is_disabled": 0, "is_reserved": 0, "fusion_lat": 0.0, "lat": 38.850577, "fusion_lon": 0.0, "rental_uris": {"ios": "https://dc.lft.to/lastmile_qr_scan", "android": "https://dc.lft.to/lastmile_qr_scan"}, "lon": -76.98168566666666, "bike_id": "857ded3b9b1a37d9ccdcfea249b987a2", "type": "electric_bike", "name": "857ded3b9b1a37d9ccdcfea249b987a2"}, {"is_disabled": 0, "is_reserved": 0, "fusion_lat": 0.0, "lat": 38.84005, "fusion_lon": 0.0, "rental_uris": {"ios": "https://dc.lft.to/lastmile_qr_scan", "android": "https://dc.lft.to/lastmile_qr_scan"}, "lon": -76.98861383333333, "bike_id": "670a870c356031896d052838b3045c22", "type": "electric_bike", "name": "670a870c356031896d052838b3045c22"}, {"is_disabled": 0, "is_reserved": 0, "fusion_lat": 0.0, "lat": 38.894961, "fusion_lon": 0.0, "rental_uris": {"ios": "https://dc.lft.to/lastmile_qr_scan", "android": "https://dc.lft.to/lastmile_qr_scan"}, "lon": -76.97410983333333, "bike_id": "56771965c9602e189b1f08ab7c33466b", "type": "electric_scooter", "name": "56771965c9602e189b1f08ab7c33466b"}, {"is_disabled": 0, "is_reserved": 0, "fusion_lat": 0.0, "lat": 38.935996833333334, "fusion_lon": 0.0, "rental_uris": {"ios": "https://dc.lft.to/lastmile_qr_scan", "android": "https://dc.lft.to/lastmile_qr_scan"}, "lon": -77.0560005, "bike_id": "40d8b2584051091263f02614ed2e9864", "type": "electric_scooter", "name": "40d8b2584051091263f02614ed2e9864"}, {"is_disabled": 0, "is_reserved": 0, "fusion_lat": 0.0, "lat": 38.885431833333335, "fusion_lon": 0.0, "rental_uris": {"ios": "https://dc.lft.to/lastmile_qr_scan", "android": "https://dc.lft.to/lastmile_qr_scan"}, "lon": -77.1168645, "bike_id": "4d72316b8c0b34ded1aceabdd5495806", "type": "electric_bike", "name": "4d72316b8c0b34ded1aceabdd5495806"}, {"is_disabled": 0, "is_reserved": 0, "fusion_lat": 0.0, "lat": 38.878393333333335, "fusion_lon": 0.0, "rental_uris": {"ios": "https://dc.lft.to/lastmile_qr_scan", "android": "https://dc.lft.to/lastmile_qr_scan"}, "lon": -77.03024116666667, "bike_id": "c824e8ee1631ef689b06ec361c5eea02", "type": "electric_bike", "name": "c824e8ee1631ef689b06ec361c5eea02"}, {"is_disabled": 0, "is_reserved": 0, "fusion_lat": 0.0, "lat": 38.919268, "fusion_lon": 0.0, "rental_uris": {"ios": "https://dc.lft.to/lastmile_qr_scan", "android": "https://dc.lft.to/lastmile_qr_scan"}, "lon": -77.0341335, "bike_id": "4dd513026357d7a91100b55c8188d632", "type": "electric_scooter", "name": "4dd513026357d7a91100b55c8188d632"}, {"is_disabled": 0, "is_reserved": 0, "fusion_lat": 0.0, "lat": 38.89229266666667, "fusion_lon": 0.0, "rental_uris": {"ios": "https://dc.lft.to/lastmile_qr_scan", "android": "https://dc.lft.to/lastmile_qr_scan"}, "lon": -77.0450815, "bike_id": "131a591f7ea4679b8ad5d763d3bb2c5b", "type": "electric_scooter", "name": "131a591f7ea4679b8ad5d763d3bb2c5b"}, {"is_disabled": 0, "is_reserved": 0, "fusion_lat": 0.0, "lat": 38.90959266666667, "fusion_lon": 0.0, "rental_uris": {"ios": "https://dc.lft.to/lastmile_qr_scan", "android": "https://dc.lft.to/lastmile_qr_scan"}, "lon": -77.03251166666666, "bike_id": "ff5629b1cea859ee3a07ffe27f07db55", "type": "electric_scooter", "name": "ff5629b1cea859ee3a07ffe27f07db55"}, {"is_disabled": 0, "is_reserved": 0, "fusion_lat": 0.0, "lat": 38.84646733333334, "fusion_lon": 0.0, "rental_uris": {"ios": "https://dc.lft.to/lastmile_qr_scan", "android": "https://dc.lft.to/lastmile_qr_scan"}, "lon": -77.00366583333333, "bike_id": "42792c1014580d66cb5198592c42be29", "type": "electric_scooter", "name": "42792c1014580d66cb5198592c42be29"}, {"is_disabled": 0, "is_reserved": 0, "fusion_lat": 0.0, "lat": 38.90072716666667, "fusion_lon": 0.0, "rental_uris": {"ios": "https://dc.lft.to/lastmile_qr_scan", "android": "https://dc.lft.to/lastmile_qr_scan"}, "lon": -77.01734316666666, "bike_id": "3058b608a75f7ad0c666a529d4c8f492", "type": "electric_scooter", "name": "3058b608a75f7ad0c666a529d4c8f492"}, {"is_disabled": 0, "is_reserved": 0, "fusion_lat": 0.0, "lat": 38.917767833333336, "fusion_lon": 0.0, "rental_uris": {"ios": "https://dc.lft.to/lastmile_qr_scan", "android": "https://dc.lft.to/lastmile_qr_scan"}, "lon": -77.02698466666666, "bike_id": "aee39135c5ce1c7d671f53b5976dda00", "type": "electric_scooter", "name": "aee39135c5ce1c7d671f53b5976dda00"}, {"is_disabled": 0, "is_reserved": 0, "fusion_lat": 0.0, "lat": 38.8871415, "fusion_lon": 0.0, "rental_uris": {"ios": "https://dc.lft.to/lastmile_qr_scan", "android": "https://dc.lft.to/lastmile_qr_scan"}, "lon": -76.983412, "bike_id": "560b34169f8e43c5a8b2d8aa9212899f", "type": "electric_scooter", "name": "560b34169f8e43c5a8b2d8aa9212899f"}, {"is_disabled": 0, "is_reserved": 0, "fusion_lat": 0.0, "lat": 38.907769, "fusion_lon": 0.0, "rental_uris": {"ios": "https://dc.lft.to/lastmile_qr_scan", "android": "https://dc.lft.to/lastmile_qr_scan"}, "lon": -77.02401066666667, "bike_id": "327fe9e55b9a49998bf034df33ee6b6a", "type": "electric_scooter", "name": "327fe9e55b9a49998bf034df33ee6b6a"}, {"is_disabled": 0, "is_reserved": 0, "fusion_lat": 0.0, "lat": 38.9105095, "fusion_lon": 0.0, "rental_uris": {"ios": "https://dc.lft.to/lastmile_qr_scan", "android": "https://dc.lft.to/lastmile_qr_scan"}, "lon": -77.0218325, "bike_id": "c02bc9fb63705142134cec74e4bb5056", "type": "electric_scooter", "name": "c02bc9fb63705142134cec74e4bb5056"}, {"is_disabled": 0, "is_reserved": 0, "fusion_lat": 0.0, "lat": 38.81941066666667, "fusion_lon": 0.0, "rental_uris": {"ios": "https://dc.lft.to/lastmile_qr_scan", "android": "https://dc.lft.to/lastmile_qr_scan"}, "lon": -77.00202266666666, "bike_id": "4cced164c749cf7376385ccab3ad23e5", "type": "electric_bike", "name": "4cced164c749cf7376385ccab3ad23e5"}, {"is_disabled": 0, "is_reserved": 0, "fusion_lat": 0.0, "lat": 38.8708985, "fusion_lon": 0.0, "rental_uris": {"ios": "https://dc.lft.to/lastmile_qr_scan", "android": "https://dc.lft.to/lastmile_qr_scan"}, "lon": -77.13331916666667, "bike_id": "836309c29313aafc46b00b149acbc64b", "type": "electric_bike", "name": "836309c29313aafc46b00b149acbc64b"}, {"is_disabled": 0, "is_reserved": 0, "fusion_lat": 0.0, "lat": 38.8986905, "fusion_lon": 0.0, "rental_uris": {"ios": "https://dc.lft.to/lastmile_qr_scan", "android": "https://dc.lft.to/lastmile_qr_scan"}, "lon": -77.01966216666666, "bike_id": "0882f9ec75dad34ffc4f175e78d093e0", "type": "electric_scooter", "name": "0882f9ec75dad34ffc4f175e78d093e0"}, {"is_disabled": 0, "is_reserved": 0, "fusion_lat": 0.0, "lat": 38.90537, "fusion_lon": 0.0, "rental_uris": {"ios": "https://dc.lft.to/lastmile_qr_scan", "android": "https://dc.lft.to/lastmile_qr_scan"}, "lon": -77.02198066666666, "bike_id": "69c21358d1ff6d70fb32db20f11167d3", "type": "electric_scooter", "name": "69c21358d1ff6d70fb32db20f11167d3"}, {"is_disabled": 0, "is_reserved": 0, "fusion_lat": 0.0, "lat": 38.900384833333334, "fusion_lon": 0.0, "rental_uris": {"ios": "https://dc.lft.to/lastmile_qr_scan", "android": "https://dc.lft.to/lastmile_qr_scan"}, "lon": -77.01775816666667, "bike_id": "a9cd0e7f5e4c9504098898a5147d8c41", "type": "electric_scooter", "name": "a9cd0e7f5e4c9504098898a5147d8c41"}, {"is_disabled": 0, "is_reserved": 0, "fusion_lat": 0.0, "lat": 38.920942333333336, "fusion_lon": 0.0, "rental_uris": {"ios": "https://dc.lft.to/lastmile_qr_scan", "android": "https://dc.lft.to/lastmile_qr_scan"}, "lon": -77.02321533333334, "bike_id": "6105fa4d49210adcbb11306dea272b24", "type": "electric_scooter", "name": "6105fa4d49210adcbb11306dea272b24"}, {"is_disabled": 0, "is_reserved": 0, "fusion_lat": 0.0, "lat": 38.880228833333334, "fusion_lon": 0.0, "rental_uris": {"ios": "https://dc.lft.to/lastmile_qr_scan", "android": "https://dc.lft.to/lastmile_qr_scan"}, "lon": -76.94322716666667, "bike_id": "24616664f272cc20f41fa2e75609aaa8", "type": "electric_scooter", "name": "24616664f272cc20f41fa2e75609aaa8"}, {"is_disabled": 0, "is_reserved": 0, "fusion_lat": 0.0, "lat": 38.91513783333333, "fusion_lon": 0.0, "rental_uris": {"ios": "https://dc.lft.to/lastmile_qr_scan", "android": "https://dc.lft.to/lastmile_qr_scan"}, "lon": -77.01907933333334, "bike_id": "732709b2dc945557808d3bb88315fccc", "type": "electric_scooter", "name": "732709b2dc945557808d3bb88315fccc"}, {"is_disabled": 0, "is_reserved": 0, "fusion_lat": 0.0, "lat": 38.89286083333333, "fusion_lon": 0.0, "rental_uris": {"ios": "https://dc.lft.to/lastmile_qr_scan", "android": "https://dc.lft.to/lastmile_qr_scan"}, "lon": -77.04193516666666, "bike_id": "a52e9ed9b76941da0b21c24cb797c30e", "type": "electric_scooter", "name": "a52e9ed9b76941da0b21c24cb797c30e"}, {"is_disabled": 0, "is_reserved": 0, "fusion_lat": 0.0, "lat": 38.88970916666667, "fusion_lon": 0.0, "rental_uris": {"ios": "https://dc.lft.to/lastmile_qr_scan", "android": "https://dc.lft.to/lastmile_qr_scan"}, "lon": -76.980365, "bike_id": "10248ad09015e400561dd6af933987f4", "type": "electric_scooter", "name": "10248ad09015e400561dd6af933987f4"}, {"is_disabled": 0, "is_reserved": 0, "fusion_lat": 0.0, "lat": 38.84677383333333, "fusion_lon": 0.0, "rental_uris": {"ios": "https://dc.lft.to/lastmile_qr_scan", "android": "https://dc.lft.to/lastmile_qr_scan"}, "lon": -77.13936833333334, "bike_id": "e0361cf0ff955df86340afa7b8727bad", "type": "electric_bike", "name": "e0361cf0ff955df86340afa7b8727bad"}, {"is_disabled": 0, "is_reserved": 0, "fusion_lat": 0.0, "lat": 38.884869333333334, "fusion_lon": 0.0, "rental_uris": {"ios": "https://dc.lft.to/lastmile_qr_scan", "android": "https://dc.lft.to/lastmile_qr_scan"}, "lon": -77.03475466666667, "bike_id": "ae6c19286fc7ac870ef5e0884ef90302", "type": "electric_scooter", "name": "ae6c19286fc7ac870ef5e0884ef90302"}, {"is_disabled": 0, "is_reserved": 0, "fusion_lat": 0.0, "lat": 38.917878, "fusion_lon": 0.0, "rental_uris": {"ios": "https://dc.lft.to/lastmile_qr_scan", "android": "https://dc.lft.to/lastmile_qr_scan"}, "lon": -77.03201833333334, "bike_id": "d078ece5dfedb876546f36c924107fab", "type": "electric_scooter", "name": "d078ece5dfedb876546f36c924107fab"}, {"is_disabled": 0, "is_reserved": 0, "fusion_lat": 0.0, "lat": 38.911245, "fusion_lon": 0.0, "rental_uris": {"ios": "https://dc.lft.to/lastmile_qr_scan", "android": "https://dc.lft.to/lastmile_qr_scan"}, "lon": -77.021981, "bike_id": "7748d070bcb14e497fe32d27d44c5757", "type": "electric_scooter", "name": "7748d070bcb14e497fe32d27d44c5757"}, {"is_disabled": 0, "is_reserved": 0, "fusion_lat": 0.0, "lat": 38.91550483333333, "fusion_lon": 0.0, "rental_uris": {"ios": "https://dc.lft.to/lastmile_qr_scan", "android": "https://dc.lft.to/lastmile_qr_scan"}, "lon": -77.05102083333334, "bike_id": "a70e2a279b4671e51a4b36b0ed72089f", "type": "electric_scooter", "name": "a70e2a279b4671e51a4b36b0ed72089f"}, {"is_disabled": 0, "is_reserved": 0, "fusion_lat": 0.0, "lat": 38.892253333333336, "fusion_lon": 0.0, "rental_uris": {"ios": "https://dc.lft.to/lastmile_qr_scan", "android": "https://dc.lft.to/lastmile_qr_scan"}, "lon": -77.0450515, "bike_id": "b8807e9959d825e1d7361c8949314259", "type": "electric_scooter", "name": "b8807e9959d825e1d7361c8949314259"}, {"is_disabled": 0, "is_reserved": 0, "fusion_lat": 0.0, "lat": 38.948383, "fusion_lon": 0.0, "rental_uris": {"ios": "https://dc.lft.to/lastmile_qr_scan", "android": "https://dc.lft.to/lastmile_qr_scan"}, "lon": -77.079826, "bike_id": "8527574df95474e4807c9df2cd5c496d", "type": "electric_scooter", "name": "8527574df95474e4807c9df2cd5c496d"}, {"is_disabled": 0, "is_reserved": 0, "fusion_lat": 0.0, "lat": 38.89674133333333, "fusion_lon": 0.0, "rental_uris": {"ios": "https://dc.lft.to/lastmile_qr_scan", "android": "https://dc.lft.to/lastmile_qr_scan"}, "lon": -77.05129133333334, "bike_id": "272afa80345bdf664e664522ad5171d2", "type": "electric_scooter", "name": "272afa80345bdf664e664522ad5171d2"}, {"is_disabled": 0, "is_reserved": 0, "fusion_lat": 0.0, "lat": 38.94257133333333, "fusion_lon": 0.0, "rental_uris": {"ios": "https://dc.lft.to/lastmile_qr_scan", "android": "https://dc.lft.to/lastmile_qr_scan"}, "lon": -76.98451883333334, "bike_id": "da6c4c8a7c7377888c1c9ccc818fff1f", "type": "electric_scooter", "name": "da6c4c8a7c7377888c1c9ccc818fff1f"}, {"is_disabled": 0, "is_reserved": 0, "fusion_lat": 0.0, "lat": 38.905075833333335, "fusion_lon": 0.0, "rental_uris": {"ios": "https://dc.lft.to/lastmile_qr_scan", "android": "https://dc.lft.to/lastmile_qr_scan"}, "lon": -77.0602175, "bike_id": "7ceb242c1973dc04ccf9af5872fc4602", "type": "electric_scooter", "name": "7ceb242c1973dc04ccf9af5872fc4602"}, {"is_disabled": 0, "is_reserved": 0, "fusion_lat": 0.0, "lat": 38.90696833333333, "fusion_lon": 0.0, "rental_uris": {"ios": "https://dc.lft.to/lastmile_qr_scan", "android": "https://dc.lft.to/lastmile_qr_scan"}, "lon": -76.95252633333334, "bike_id": "ce0a25411f1e34de4f26d3e492a3617e", "type": "electric_bike", "name": "ce0a25411f1e34de4f26d3e492a3617e"}, {"is_disabled": 0, "is_reserved": 0, "fusion_lat": 0.0, "lat": 38.92443766666667, "fusion_lon": 0.0, "rental_uris": {"ios": "https://dc.lft.to/lastmile_qr_scan", "android": "https://dc.lft.to/lastmile_qr_scan"}, "lon": -77.03894383333333, "bike_id": "240b74604b39a9460fb21c72d0f37d98", "type": "electric_scooter", "name": "240b74604b39a9460fb21c72d0f37d98"}, {"is_disabled": 0, "is_reserved": 0, "fusion_lat": 0.0, "lat": 38.88361183333333, "fusion_lon": 0.0, "rental_uris": {"ios": "https://dc.lft.to/lastmile_qr_scan", "android": "https://dc.lft.to/lastmile_qr_scan"}, "lon": -76.95767, "bike_id": "ee38272ec8ffca2096253eeddad41104", "type": "electric_scooter", "name": "ee38272ec8ffca2096253eeddad41104"}, {"is_disabled": 0, "is_reserved": 0, "fusion_lat": 0.0, "lat": 38.93044833333333, "fusion_lon": 0.0, "rental_uris": {"ios": "https://dc.lft.to/lastmile_qr_scan", "android": "https://dc.lft.to/lastmile_qr_scan"}, "lon": -77.019455, "bike_id": "ae7d43d907484ef1a8bd9c7551aa3fe8", "type": "electric_scooter", "name": "ae7d43d907484ef1a8bd9c7551aa3fe8"}, {"is_disabled": 0, "is_reserved": 0, "fusion_lat": 0.0, "lat": 38.920038, "fusion_lon": 0.0, "rental_uris": {"ios": "https://dc.lft.to/lastmile_qr_scan", "android": "https://dc.lft.to/lastmile_qr_scan"}, "lon": -77.0474605, "bike_id": "483a4090af622a81e1b4c3be2c265021", "type": "electric_scooter", "name": "483a4090af622a81e1b4c3be2c265021"}, {"is_disabled": 0, "is_reserved": 0, "fusion_lat": 0.0, "lat": 38.892282, "fusion_lon": 0.0, "rental_uris": {"ios": "https://dc.lft.to/lastmile_qr_scan", "android": "https://dc.lft.to/lastmile_qr_scan"}, "lon": -77.05001183333333, "bike_id": "3785c27b3b0d1ce20af61ff9e1dba1b6", "type": "electric_scooter", "name": "3785c27b3b0d1ce20af61ff9e1dba1b6"}, {"is_disabled": 0, "is_reserved": 0, "fusion_lat": 0.0, "lat": 38.900526, "fusion_lon": 0.0, "rental_uris": {"ios": "https://dc.lft.to/lastmile_qr_scan", "android": "https://dc.lft.to/lastmile_qr_scan"}, "lon": -76.98691633333334, "bike_id": "e8965bf2fce95a53510ccb9ae334bb97", "type": "electric_scooter", "name": "e8965bf2fce95a53510ccb9ae334bb97"}, {"is_disabled": 0, "is_reserved": 0, "fusion_lat": 0.0, "lat": 38.905145, "fusion_lon": 0.0, "rental_uris": {"ios": "https://dc.lft.to/lastmile_qr_scan", "android": "https://dc.lft.to/lastmile_qr_scan"}, "lon": -77.0416975, "bike_id": "f42448129725def4e07ff17d4415030b", "type": "electric_scooter", "name": "f42448129725def4e07ff17d4415030b"}, {"is_disabled": 0, "is_reserved": 0, "fusion_lat": 0.0, "lat": 38.9134765, "fusion_lon": 0.0, "rental_uris": {"ios": "https://dc.lft.to/lastmile_qr_scan", "android": "https://dc.lft.to/lastmile_qr_scan"}, "lon": -77.04656816666666, "bike_id": "457aee26166f8f8b4f76487853eaceb7", "type": "electric_scooter", "name": "457aee26166f8f8b4f76487853eaceb7"}, {"is_disabled": 0, "is_reserved": 0, "fusion_lat": 0.0, "lat": 38.89914233333333, "fusion_lon": 0.0, "rental_uris": {"ios": "https://dc.lft.to/lastmile_qr_scan", "android": "https://dc.lft.to/lastmile_qr_scan"}, "lon": -77.0320145, "bike_id": "8b1b658312746d09a73f8ca9a6d6c2b5", "type": "electric_scooter", "name": "8b1b658312746d09a73f8ca9a6d6c2b5"}, {"is_disabled": 0, "is_reserved": 0, "fusion_lat": 0.0, "lat": 38.91224616666667, "fusion_lon": 0.0, "rental_uris": {"ios": "https://dc.lft.to/lastmile_qr_scan", "android": "https://dc.lft.to/lastmile_qr_scan"}, "lon": -77.00662933333334, "bike_id": "4982f31702b06a8debd1d4b6e1b91e3e", "type": "electric_scooter", "name": "4982f31702b06a8debd1d4b6e1b91e3e"}, {"is_disabled": 0, "is_reserved": 0, "fusion_lat": 0.0, "lat": 38.861763, "fusion_lon": 0.0, "rental_uris": {"ios": "https://dc.lft.to/lastmile_qr_scan", "android": "https://dc.lft.to/lastmile_qr_scan"}, "lon": -77.08812983333333, "bike_id": "12c6c0168b75ffb0f3f2b6e4b083a935", "type": "electric_bike", "name": "12c6c0168b75ffb0f3f2b6e4b083a935"}, {"is_disabled": 0, "is_reserved": 0, "fusion_lat": 0.0, "lat": 38.89650133333333, "fusion_lon": 0.0, "rental_uris": {"ios": "https://dc.lft.to/lastmile_qr_scan", "android": "https://dc.lft.to/lastmile_qr_scan"}, "lon": -77.0489485, "bike_id": "6596562ae1c66583eee62bdf7ff616b9", "type": "electric_scooter", "name": "6596562ae1c66583eee62bdf7ff616b9"}, {"is_disabled": 0, "is_reserved": 0, "fusion_lat": 0.0, "lat": 38.92574366666667, "fusion_lon": 0.0, "rental_uris": {"ios": "https://dc.lft.to/lastmile_qr_scan", "android": "https://dc.lft.to/lastmile_qr_scan"}, "lon": -77.031351, "bike_id": "f60e11d67949212c65b750ef93373cfd", "type": "electric_scooter", "name": "f60e11d67949212c65b750ef93373cfd"}, {"is_disabled": 0, "is_reserved": 0, "fusion_lat": 0.0, "lat": 38.91189033333333, "fusion_lon": 0.0, "rental_uris": {"ios": "https://dc.lft.to/lastmile_qr_scan", "android": "https://dc.lft.to/lastmile_qr_scan"}, "lon": -77.04448466666666, "bike_id": "106b554c095d36c595e4ab7d3d8d5f97", "type": "electric_scooter", "name": "106b554c095d36c595e4ab7d3d8d5f97"}, {"is_disabled": 0, "is_reserved": 0, "fusion_lat": 0.0, "lat": 38.902588333333334, "fusion_lon": 0.0, "rental_uris": {"ios": "https://dc.lft.to/lastmile_qr_scan", "android": "https://dc.lft.to/lastmile_qr_scan"}, "lon": -77.00336666666666, "bike_id": "eda022bf32f12454ea1c8f27fd594caf", "type": "electric_scooter", "name": "eda022bf32f12454ea1c8f27fd594caf"}, {"is_disabled": 0, "is_reserved": 0, "fusion_lat": 0.0, "lat": 38.84281283333333, "fusion_lon": 0.0, "rental_uris": {"ios": "https://dc.lft.to/lastmile_qr_scan", "android": "https://dc.lft.to/lastmile_qr_scan"}, "lon": -76.98845, "bike_id": "c308880ee152dbdb8a1b05d1b6eee61e", "type": "electric_scooter", "name": "c308880ee152dbdb8a1b05d1b6eee61e"}, {"is_disabled": 0, "is_reserved": 0, "fusion_lat": 0.0, "lat": 38.952162, "fusion_lon": 0.0, "rental_uris": {"ios": "https://dc.lft.to/lastmile_qr_scan", "android": "https://dc.lft.to/lastmile_qr_scan"}, "lon": -77.08867916666667, "bike_id": "4f6141e81ea3d8c09f77e5ceb13f1a1b", "type": "electric_scooter", "name": "4f6141e81ea3d8c09f77e5ceb13f1a1b"}, {"is_disabled": 0, "is_reserved": 0, "fusion_lat": 0.0, "lat": 38.914122666666664, "fusion_lon": 0.0, "rental_uris": {"ios": "https://dc.lft.to/lastmile_qr_scan", "android": "https://dc.lft.to/lastmile_qr_scan"}, "lon": -77.024263, "bike_id": "be71c6b66ced03a5ed4803263b88754b", "type": "electric_scooter", "name": "be71c6b66ced03a5ed4803263b88754b"}, {"is_disabled": 0, "is_reserved": 0, "fusion_lat": 0.0, "lat": 38.923164, "fusion_lon": 0.0, "rental_uris": {"ios": "https://dc.lft.to/lastmile_qr_scan", "android": "https://dc.lft.to/lastmile_qr_scan"}, "lon": -77.0290605, "bike_id": "e57e92959abe5caf1e4bcf4d0490d432", "type": "electric_scooter", "name": "e57e92959abe5caf1e4bcf4d0490d432"}, {"is_disabled": 0, "is_reserved": 0, "fusion_lat": 0.0, "lat": 38.91659033333333, "fusion_lon": 0.0, "rental_uris": {"ios": "https://dc.lft.to/lastmile_qr_scan", "android": "https://dc.lft.to/lastmile_qr_scan"}, "lon": -77.0317555, "bike_id": "1bdce17b21c98cd54eb1b52dfdd04636", "type": "electric_scooter", "name": "1bdce17b21c98cd54eb1b52dfdd04636"}, {"is_disabled": 0, "is_reserved": 0, "fusion_lat": 0.0, "lat": 38.8990295, "fusion_lon": 0.0, "rental_uris": {"ios": "https://dc.lft.to/lastmile_qr_scan", "android": "https://dc.lft.to/lastmile_qr_scan"}, "lon": -77.03966166666666, "bike_id": "f9886861fca2af4dcad8a8cfd8d4e1bd", "type": "electric_scooter", "name": "f9886861fca2af4dcad8a8cfd8d4e1bd"}, {"is_disabled": 0, "is_reserved": 0, "fusion_lat": 0.0, "lat": 38.852480166666666, "fusion_lon": 0.0, "rental_uris": {"ios": "https://dc.lft.to/lastmile_qr_scan", "android": "https://dc.lft.to/lastmile_qr_scan"}, "lon": -77.1141155, "bike_id": "db380bfa94b90ac8031342be9a0e8588", "type": "electric_bike", "name": "db380bfa94b90ac8031342be9a0e8588"}, {"is_disabled": 0, "is_reserved": 0, "fusion_lat": 0.0, "lat": 38.882955333333335, "fusion_lon": 0.0, "rental_uris": {"ios": "https://dc.lft.to/lastmile_qr_scan", "android": "https://dc.lft.to/lastmile_qr_scan"}, "lon": -76.93495033333333, "bike_id": "7c0c94340069673a05daef43d99d74ab", "type": "electric_scooter", "name": "7c0c94340069673a05daef43d99d74ab"}, {"is_disabled": 0, "is_reserved": 0, "fusion_lat": 0.0, "lat": 38.90150833333333, "fusion_lon": 0.0, "rental_uris": {"ios": "https://dc.lft.to/lastmile_qr_scan", "android": "https://dc.lft.to/lastmile_qr_scan"}, "lon": -76.9298165, "bike_id": "aa78399d62c63346d11b3f6423c38953", "type": "electric_scooter", "name": "aa78399d62c63346d11b3f6423c38953"}, {"is_disabled": 0, "is_reserved": 0, "fusion_lat": 0.0, "lat": 38.906858166666666, "fusion_lon": 0.0, "rental_uris": {"ios": "https://dc.lft.to/lastmile_qr_scan", "android": "https://dc.lft.to/lastmile_qr_scan"}, "lon": -77.04546466666666, "bike_id": "03daf926d0b7c784a43393516776e877", "type": "electric_scooter", "name": "03daf926d0b7c784a43393516776e877"}, {"is_disabled": 0, "is_reserved": 0, "fusion_lat": 0.0, "lat": 38.898787666666664, "fusion_lon": 0.0, "rental_uris": {"ios": "https://dc.lft.to/lastmile_qr_scan", "android": "https://dc.lft.to/lastmile_qr_scan"}, "lon": -77.05011983333333, "bike_id": "f8e32a749f385d03db2b6988f60d33e5", "type": "electric_scooter", "name": "f8e32a749f385d03db2b6988f60d33e5"}, {"is_disabled": 0, "is_reserved": 0, "fusion_lat": 0.0, "lat": 38.898011833333335, "fusion_lon": 0.0, "rental_uris": {"ios": "https://dc.lft.to/lastmile_qr_scan", "android": "https://dc.lft.to/lastmile_qr_scan"}, "lon": -77.0278985, "bike_id": "c1e13599dff079fe93c0bc6bbbd73c16", "type": "electric_scooter", "name": "c1e13599dff079fe93c0bc6bbbd73c16"}, {"is_disabled": 0, "is_reserved": 0, "fusion_lat": 0.0, "lat": 38.91405816666666, "fusion_lon": 0.0, "rental_uris": {"ios": "https://dc.lft.to/lastmile_qr_scan", "android": "https://dc.lft.to/lastmile_qr_scan"}, "lon": -77.01147266666666, "bike_id": "48f173829424b684fd63c155e673b433", "type": "electric_scooter", "name": "48f173829424b684fd63c155e673b433"}, {"is_disabled": 0, "is_reserved": 0, "fusion_lat": 0.0, "lat": 38.80986866666667, "fusion_lon": 0.0, "rental_uris": {"ios": "https://dc.lft.to/lastmile_qr_scan", "android": "https://dc.lft.to/lastmile_qr_scan"}, "lon": -77.07662433333333, "bike_id": "a27ef03c9f8c08d82b0758789fe2f731", "type": "electric_bike", "name": "a27ef03c9f8c08d82b0758789fe2f731"}, {"is_disabled": 0, "is_reserved": 0, "fusion_lat": 0.0, "lat": 38.9410145, "fusion_lon": 0.0, "rental_uris": {"ios": "https://dc.lft.to/lastmile_qr_scan", "android": "https://dc.lft.to/lastmile_qr_scan"}, "lon": -77.02507, "bike_id": "ce680ba1eb57eaf7543a9a48be86357b", "type": "electric_scooter", "name": "ce680ba1eb57eaf7543a9a48be86357b"}, {"is_disabled": 0, "is_reserved": 0, "fusion_lat": 0.0, "lat": 38.95622683333333, "fusion_lon": 0.0, "rental_uris": {"ios": "https://dc.lft.to/lastmile_qr_scan", "android": "https://dc.lft.to/lastmile_qr_scan"}, "lon": -76.961817, "bike_id": "bc3144f010ea737705fd7041db6002b3", "type": "electric_bike", "name": "bc3144f010ea737705fd7041db6002b3"}, {"is_disabled": 0, "is_reserved": 0, "fusion_lat": 0.0, "lat": 38.931756166666666, "fusion_lon": 0.0, "rental_uris": {"ios": "https://dc.lft.to/lastmile_qr_scan", "android": "https://dc.lft.to/lastmile_qr_scan"}, "lon": -77.028175, "bike_id": "0cfc1e5189106153806bb0bc02621b2e", "type": "electric_scooter", "name": "0cfc1e5189106153806bb0bc02621b2e"}, {"is_disabled": 0, "is_reserved": 0, "fusion_lat": 0.0, "lat": 38.88284266666667, "fusion_lon": 0.0, "rental_uris": {"ios": "https://dc.lft.to/lastmile_qr_scan", "android": "https://dc.lft.to/lastmile_qr_scan"}, "lon": -76.932492, "bike_id": "4bde794d25101dc80fc0b45de6e5e396", "type": "electric_bike", "name": "4bde794d25101dc80fc0b45de6e5e396"}, {"is_disabled": 0, "is_reserved": 0, "fusion_lat": 0.0, "lat": 38.924441, "fusion_lon": 0.0, "rental_uris": {"ios": "https://dc.lft.to/lastmile_qr_scan", "android": "https://dc.lft.to/lastmile_qr_scan"}, "lon": -77.040295, "bike_id": "19f4eb85f13325c2fe326995095d836e", "type": "electric_scooter", "name": "19f4eb85f13325c2fe326995095d836e"}, {"is_disabled": 0, "is_reserved": 0, "fusion_lat": 0.0, "lat": 38.9225475, "fusion_lon": 0.0, "rental_uris": {"ios": "https://dc.lft.to/lastmile_qr_scan", "android": "https://dc.lft.to/lastmile_qr_scan"}, "lon": -77.04486283333334, "bike_id": "0386ca8565517f6e706146cb2bb38028", "type": "electric_scooter", "name": "0386ca8565517f6e706146cb2bb38028"}, {"is_disabled": 0, "is_reserved": 0, "fusion_lat": 0.0, "lat": 38.901048833333334, "fusion_lon": 0.0, "rental_uris": {"ios": "https://dc.lft.to/lastmile_qr_scan", "android": "https://dc.lft.to/lastmile_qr_scan"}, "lon": -77.0490735, "bike_id": "708f19ee24c3370881e3632269db9c78", "type": "electric_scooter", "name": "708f19ee24c3370881e3632269db9c78"}, {"is_disabled": 0, "is_reserved": 0, "fusion_lat": 0.0, "lat": 38.91266266666667, "fusion_lon": 0.0, "rental_uris": {"ios": "https://dc.lft.to/lastmile_qr_scan", "android": "https://dc.lft.to/lastmile_qr_scan"}, "lon": -77.015319, "bike_id": "f8a7bca0c356257583e9146999977eb9", "type": "electric_scooter", "name": "f8a7bca0c356257583e9146999977eb9"}, {"is_disabled": 0, "is_reserved": 0, "fusion_lat": 0.0, "lat": 38.902746, "fusion_lon": 0.0, "rental_uris": {"ios": "https://dc.lft.to/lastmile_qr_scan", "android": "https://dc.lft.to/lastmile_qr_scan"}, "lon": -77.0591935, "bike_id": "fd728683ef69a95a9603e99d0cc06536", "type": "electric_scooter", "name": "fd728683ef69a95a9603e99d0cc06536"}, {"is_disabled": 0, "is_reserved": 0, "fusion_lat": 0.0, "lat": 38.84703016666667, "fusion_lon": 0.0, "rental_uris": {"ios": "https://dc.lft.to/lastmile_qr_scan", "android": "https://dc.lft.to/lastmile_qr_scan"}, "lon": -76.99619733333333, "bike_id": "acf905c6cf83a102d98ed55d013e4526", "type": "electric_bike", "name": "acf905c6cf83a102d98ed55d013e4526"}, {"is_disabled": 0, "is_reserved": 0, "fusion_lat": 0.0, "lat": 38.8718165, "fusion_lon": 0.0, "rental_uris": {"ios": "https://dc.lft.to/lastmile_qr_scan", "android": "https://dc.lft.to/lastmile_qr_scan"}, "lon": -77.00609816666666, "bike_id": "6f3ae02a2548675c401c9020196c97ba", "type": "electric_scooter", "name": "6f3ae02a2548675c401c9020196c97ba"}, {"is_disabled": 0, "is_reserved": 0, "fusion_lat": 0.0, "lat": 38.9471765, "fusion_lon": 0.0, "rental_uris": {"ios": "https://dc.lft.to/lastmile_qr_scan", "android": "https://dc.lft.to/lastmile_qr_scan"}, "lon": -77.02614133333333, "bike_id": "2c270a7b2165e19fcf15c5609009294c", "type": "electric_scooter", "name": "2c270a7b2165e19fcf15c5609009294c"}, {"is_disabled": 0, "is_reserved": 0, "fusion_lat": 0.0, "lat": 38.93871166666667, "fusion_lon": 0.0, "rental_uris": {"ios": "https://dc.lft.to/lastmile_qr_scan", "android": "https://dc.lft.to/lastmile_qr_scan"}, "lon": -77.03044666666666, "bike_id": "6fc2f3c1a2ad7bc0b6042150bcdca5bb", "type": "electric_scooter", "name": "6fc2f3c1a2ad7bc0b6042150bcdca5bb"}, {"is_disabled": 0, "is_reserved": 0, "fusion_lat": 0.0, "lat": 38.8746795, "fusion_lon": 0.0, "rental_uris": {"ios": "https://dc.lft.to/lastmile_qr_scan", "android": "https://dc.lft.to/lastmile_qr_scan"}, "lon": -77.00559666666666, "bike_id": "d653d513ceb436491d6a38b6f8e95ad4", "type": "electric_scooter", "name": "d653d513ceb436491d6a38b6f8e95ad4"}, {"is_disabled": 0, "is_reserved": 0, "fusion_lat": 0.0, "lat": 38.908624333333336, "fusion_lon": 0.0, "rental_uris": {"ios": "https://dc.lft.to/lastmile_qr_scan", "android": "https://dc.lft.to/lastmile_qr_scan"}, "lon": -77.00196783333334, "bike_id": "aff96450b041b93d6c9cb15bd8a0b376", "type": "electric_scooter", "name": "aff96450b041b93d6c9cb15bd8a0b376"}, {"is_disabled": 0, "is_reserved": 0, "fusion_lat": 0.0, "lat": 38.923782833333334, "fusion_lon": 0.0, "rental_uris": {"ios": "https://dc.lft.to/lastmile_qr_scan", "android": "https://dc.lft.to/lastmile_qr_scan"}, "lon": -77.04024716666666, "bike_id": "9a90df2896b40d1a9bd18de263fc2549", "type": "electric_scooter", "name": "9a90df2896b40d1a9bd18de263fc2549"}, {"is_disabled": 0, "is_reserved": 0, "fusion_lat": 0.0, "lat": 38.934203833333335, "fusion_lon": 0.0, "rental_uris": {"ios": "https://dc.lft.to/lastmile_qr_scan", "android": "https://dc.lft.to/lastmile_qr_scan"}, "lon": -77.0431245, "bike_id": "299e3e745cee7cd00131a2f37d59e138", "type": "electric_scooter", "name": "299e3e745cee7cd00131a2f37d59e138"}, {"is_disabled": 0, "is_reserved": 0, "fusion_lat": 0.0, "lat": 38.80679416666667, "fusion_lon": 0.0, "rental_uris": {"ios": "https://dc.lft.to/lastmile_qr_scan", "android": "https://dc.lft.to/lastmile_qr_scan"}, "lon": -77.06917566666667, "bike_id": "065036d50980c2c34616ac98602b68fd", "type": "electric_bike", "name": "065036d50980c2c34616ac98602b68fd"}, {"is_disabled": 0, "is_reserved": 0, "fusion_lat": 0.0, "lat": 38.9181955, "fusion_lon": 0.0, "rental_uris": {"ios": "https://dc.lft.to/lastmile_qr_scan", "android": "https://dc.lft.to/lastmile_qr_scan"}, "lon": -77.027091, "bike_id": "e0868d99263c35b2562cacd27c45e9e0", "type": "electric_scooter", "name": "e0868d99263c35b2562cacd27c45e9e0"}, {"is_disabled": 0, "is_reserved": 0, "fusion_lat": 0.0, "lat": 38.9067525, "fusion_lon": 0.0, "rental_uris": {"ios": "https://dc.lft.to/lastmile_qr_scan", "android": "https://dc.lft.to/lastmile_qr_scan"}, "lon": -77.04550983333333, "bike_id": "de6782b8c421443b07cae291c718a98d", "type": "electric_scooter", "name": "de6782b8c421443b07cae291c718a98d"}, {"is_disabled": 0, "is_reserved": 0, "fusion_lat": 0.0, "lat": 38.91047916666667, "fusion_lon": 0.0, "rental_uris": {"ios": "https://dc.lft.to/lastmile_qr_scan", "android": "https://dc.lft.to/lastmile_qr_scan"}, "lon": -77.01514383333334, "bike_id": "b766080407f9fb048f75508db98c9aad", "type": "electric_scooter", "name": "b766080407f9fb048f75508db98c9aad"}, {"is_disabled": 0, "is_reserved": 0, "fusion_lat": 0.0, "lat": 38.906823833333334, "fusion_lon": 0.0, "rental_uris": {"ios": "https://dc.lft.to/lastmile_qr_scan", "android": "https://dc.lft.to/lastmile_qr_scan"}, "lon": -77.06251133333333, "bike_id": "25b4a4913d2d2e164f14d99c12ee16a4", "type": "electric_scooter", "name": "25b4a4913d2d2e164f14d99c12ee16a4"}, {"is_disabled": 0, "is_reserved": 0, "fusion_lat": 0.0, "lat": 38.9459075, "fusion_lon": 0.0, "rental_uris": {"ios": "https://dc.lft.to/lastmile_qr_scan", "android": "https://dc.lft.to/lastmile_qr_scan"}, "lon": -77.0203115, "bike_id": "241815b9ec5ab7e7950e44e900b28fba", "type": "electric_scooter", "name": "241815b9ec5ab7e7950e44e900b28fba"}, {"is_disabled": 0, "is_reserved": 0, "fusion_lat": 0.0, "lat": 38.946357666666664, "fusion_lon": 0.0, "rental_uris": {"ios": "https://dc.lft.to/lastmile_qr_scan", "android": "https://dc.lft.to/lastmile_qr_scan"}, "lon": -77.018421, "bike_id": "338fe314fb6c573857f72d5933c42949", "type": "electric_scooter", "name": "338fe314fb6c573857f72d5933c42949"}, {"is_disabled": 0, "is_reserved": 0, "fusion_lat": 0.0, "lat": 38.893489833333334, "fusion_lon": 0.0, "rental_uris": {"ios": "https://dc.lft.to/lastmile_qr_scan", "android": "https://dc.lft.to/lastmile_qr_scan"}, "lon": -77.03968716666667, "bike_id": "0ad8708e7bc4028c20ab657e07ce2693", "type": "electric_scooter", "name": "0ad8708e7bc4028c20ab657e07ce2693"}, {"is_disabled": 0, "is_reserved": 0, "fusion_lat": 0.0, "lat": 38.83607416666667, "fusion_lon": 0.0, "rental_uris": {"ios": "https://dc.lft.to/lastmile_qr_scan", "android": "https://dc.lft.to/lastmile_qr_scan"}, "lon": -77.00380683333333, "bike_id": "638dd7be6add4436a51f55daa1a0bae5", "type": "electric_bike", "name": "638dd7be6add4436a51f55daa1a0bae5"}, {"is_disabled": 0, "is_reserved": 0, "fusion_lat": 0.0, "lat": 38.910386333333335, "fusion_lon": 0.0, "rental_uris": {"ios": "https://dc.lft.to/lastmile_qr_scan", "android": "https://dc.lft.to/lastmile_qr_scan"}, "lon": -77.037129, "bike_id": "e4a4a7c7f3af0e935f601466cd303cd5", "type": "electric_scooter", "name": "e4a4a7c7f3af0e935f601466cd303cd5"}, {"is_disabled": 0, "is_reserved": 0, "fusion_lat": 0.0, "lat": 38.9745085, "fusion_lon": 0.0, "rental_uris": {"ios": "https://dc.lft.to/lastmile_qr_scan", "android": "https://dc.lft.to/lastmile_qr_scan"}, "lon": -77.09585116666666, "bike_id": "d4a4350b7dcd9e83f67dcb1f63601f2a", "type": "electric_bike", "name": "d4a4350b7dcd9e83f67dcb1f63601f2a"}, {"is_disabled": 0, "is_reserved": 0, "fusion_lat": 0.0, "lat": 38.89741316666667, "fusion_lon": 0.0, "rental_uris": {"ios": "https://dc.lft.to/lastmile_qr_scan", "android": "https://dc.lft.to/lastmile_qr_scan"}, "lon": -77.007786, "bike_id": "526252a0125a6cf4b39978ee58c0f498", "type": "electric_scooter", "name": "526252a0125a6cf4b39978ee58c0f498"}, {"is_disabled": 0, "is_reserved": 0, "fusion_lat": 0.0, "lat": 38.898578, "fusion_lon": 0.0, "rental_uris": {"ios": "https://dc.lft.to/lastmile_qr_scan", "android": "https://dc.lft.to/lastmile_qr_scan"}, "lon": -77.002056, "bike_id": "d77939a1e19d43c4928eabe98df61ab7", "type": "electric_scooter", "name": "d77939a1e19d43c4928eabe98df61ab7"}, {"is_disabled": 0, "is_reserved": 0, "fusion_lat": 0.0, "lat": 38.92304633333333, "fusion_lon": 0.0, "rental_uris": {"ios": "https://dc.lft.to/lastmile_qr_scan", "android": "https://dc.lft.to/lastmile_qr_scan"}, "lon": -77.03406416666667, "bike_id": "bd4a2254fd9c4a157b351c484083f6c0", "type": "electric_scooter", "name": "bd4a2254fd9c4a157b351c484083f6c0"}, {"is_disabled": 0, "is_reserved": 0, "fusion_lat": 0.0, "lat": 38.876564, "fusion_lon": 0.0, "rental_uris": {"ios": "https://dc.lft.to/lastmile_qr_scan", "android": "https://dc.lft.to/lastmile_qr_scan"}, "lon": -77.00883183333333, "bike_id": "a230f50e9ad1206b90a0748bb75f209c", "type": "electric_scooter", "name": "a230f50e9ad1206b90a0748bb75f209c"}, {"is_disabled": 0, "is_reserved": 0, "fusion_lat": 0.0, "lat": 38.89462533333333, "fusion_lon": 0.0, "rental_uris": {"ios": "https://dc.lft.to/lastmile_qr_scan", "android": "https://dc.lft.to/lastmile_qr_scan"}, "lon": -76.936791, "bike_id": "9908fd1835c390fea688e093dd532592", "type": "electric_bike", "name": "9908fd1835c390fea688e093dd532592"}, {"is_disabled": 0, "is_reserved": 0, "fusion_lat": 0.0, "lat": 38.922168166666665, "fusion_lon": 0.0, "rental_uris": {"ios": "https://dc.lft.to/lastmile_qr_scan", "android": "https://dc.lft.to/lastmile_qr_scan"}, "lon": -77.04250883333333, "bike_id": "f82a86514f9d5e91c23219ec62b5086b", "type": "electric_scooter", "name": "f82a86514f9d5e91c23219ec62b5086b"}, {"is_disabled": 0, "is_reserved": 0, "fusion_lat": 0.0, "lat": 38.90373666666667, "fusion_lon": 0.0, "rental_uris": {"ios": "https://dc.lft.to/lastmile_qr_scan", "android": "https://dc.lft.to/lastmile_qr_scan"}, "lon": -77.0483895, "bike_id": "da698c31c61ec9fddc0834a7477b0b3e", "type": "electric_scooter", "name": "da698c31c61ec9fddc0834a7477b0b3e"}, {"is_disabled": 0, "is_reserved": 0, "fusion_lat": 0.0, "lat": 38.917097166666665, "fusion_lon": 0.0, "rental_uris": {"ios": "https://dc.lft.to/lastmile_qr_scan", "android": "https://dc.lft.to/lastmile_qr_scan"}, "lon": -77.03206566666667, "bike_id": "eaf9011ea38cbba4f5b673dcdb27d3e2", "type": "electric_scooter", "name": "eaf9011ea38cbba4f5b673dcdb27d3e2"}, {"is_disabled": 0, "is_reserved": 0, "fusion_lat": 0.0, "lat": 38.92029616666667, "fusion_lon": 0.0, "rental_uris": {"ios": "https://dc.lft.to/lastmile_qr_scan", "android": "https://dc.lft.to/lastmile_qr_scan"}, "lon": -77.03120216666667, "bike_id": "039f633306e3ecb0c2eaa9939341707f", "type": "electric_scooter", "name": "039f633306e3ecb0c2eaa9939341707f"}, {"is_disabled": 0, "is_reserved": 0, "fusion_lat": 0.0, "lat": 38.905151833333335, "fusion_lon": 0.0, "rental_uris": {"ios": "https://dc.lft.to/lastmile_qr_scan", "android": "https://dc.lft.to/lastmile_qr_scan"}, "lon": -77.00919916666666, "bike_id": "cbc7fef20facbe15f4f859f9c8b42635", "type": "electric_scooter", "name": "cbc7fef20facbe15f4f859f9c8b42635"}, {"is_disabled": 0, "is_reserved": 0, "fusion_lat": 0.0, "lat": 38.89417683333333, "fusion_lon": 0.0, "rental_uris": {"ios": "https://dc.lft.to/lastmile_qr_scan", "android": "https://dc.lft.to/lastmile_qr_scan"}, "lon": -77.02419683333333, "bike_id": "bd8e460dad53620233f1fba424e7a06d", "type": "electric_scooter", "name": "bd8e460dad53620233f1fba424e7a06d"}, {"is_disabled": 0, "is_reserved": 0, "fusion_lat": 0.0, "lat": 38.90532816666666, "fusion_lon": 0.0, "rental_uris": {"ios": "https://dc.lft.to/lastmile_qr_scan", "android": "https://dc.lft.to/lastmile_qr_scan"}, "lon": -77.05812966666667, "bike_id": "04ca886f6e45373dfe795d1d6bf9c27e", "type": "electric_scooter", "name": "04ca886f6e45373dfe795d1d6bf9c27e"}, {"is_disabled": 0, "is_reserved": 0, "fusion_lat": 0.0, "lat": 38.90413, "fusion_lon": 0.0, "rental_uris": {"ios": "https://dc.lft.to/lastmile_qr_scan", "android": "https://dc.lft.to/lastmile_qr_scan"}, "lon": -77.06128066666666, "bike_id": "2ce19c502dcde2668bb18169a5dd1492", "type": "electric_scooter", "name": "2ce19c502dcde2668bb18169a5dd1492"}, {"is_disabled": 0, "is_reserved": 0, "fusion_lat": 0.0, "lat": 38.916993166666664, "fusion_lon": 0.0, "rental_uris": {"ios": "https://dc.lft.to/lastmile_qr_scan", "android": "https://dc.lft.to/lastmile_qr_scan"}, "lon": -77.03770983333334, "bike_id": "eee1bcddbb5e8a167d856748da09d2f4", "type": "electric_scooter", "name": "eee1bcddbb5e8a167d856748da09d2f4"}, {"is_disabled": 0, "is_reserved": 0, "fusion_lat": 0.0, "lat": 38.944485, "fusion_lon": 0.0, "rental_uris": {"ios": "https://dc.lft.to/lastmile_qr_scan", "android": "https://dc.lft.to/lastmile_qr_scan"}, "lon": -77.03285816666667, "bike_id": "3b3d4bd122a75dd12a1182d89d13c1e1", "type": "electric_scooter", "name": "3b3d4bd122a75dd12a1182d89d13c1e1"}, {"is_disabled": 0, "is_reserved": 0, "fusion_lat": 0.0, "lat": 38.9287495, "fusion_lon": 0.0, "rental_uris": {"ios": "https://dc.lft.to/lastmile_qr_scan", "android": "https://dc.lft.to/lastmile_qr_scan"}, "lon": -77.0399445, "bike_id": "8f3de753b0cd12210d5a0b9a0b58fcb5", "type": "electric_scooter", "name": "8f3de753b0cd12210d5a0b9a0b58fcb5"}, {"is_disabled": 0, "is_reserved": 0, "fusion_lat": 0.0, "lat": 38.903601333333334, "fusion_lon": 0.0, "rental_uris": {"ios": "https://dc.lft.to/lastmile_qr_scan", "android": "https://dc.lft.to/lastmile_qr_scan"}, "lon": -77.04835, "bike_id": "86a8cdfc74a3432e431173747227edb9", "type": "electric_scooter", "name": "86a8cdfc74a3432e431173747227edb9"}, {"is_disabled": 0, "is_reserved": 0, "fusion_lat": 0.0, "lat": 38.919544, "fusion_lon": 0.0, "rental_uris": {"ios": "https://dc.lft.to/lastmile_qr_scan", "android": "https://dc.lft.to/lastmile_qr_scan"}, "lon": -77.0231165, "bike_id": "4c8e38ee8da31a171ad770657d78aad5", "type": "electric_scooter", "name": "4c8e38ee8da31a171ad770657d78aad5"}, {"is_disabled": 0, "is_reserved": 0, "fusion_lat": 0.0, "lat": 38.9561355, "fusion_lon": 0.0, "rental_uris": {"ios": "https://dc.lft.to/lastmile_qr_scan", "android": "https://dc.lft.to/lastmile_qr_scan"}, "lon": -77.03310466666667, "bike_id": "097420d525e65d66da1cb0a8aa02af4c", "type": "electric_scooter", "name": "097420d525e65d66da1cb0a8aa02af4c"}, {"is_disabled": 0, "is_reserved": 0, "fusion_lat": 0.0, "lat": 38.89496033333333, "fusion_lon": 0.0, "rental_uris": {"ios": "https://dc.lft.to/lastmile_qr_scan", "android": "https://dc.lft.to/lastmile_qr_scan"}, "lon": -77.02207833333334, "bike_id": "54c9e357be8d033b2c11dfa1e0dbf900", "type": "electric_scooter", "name": "54c9e357be8d033b2c11dfa1e0dbf900"}, {"is_disabled": 0, "is_reserved": 0, "fusion_lat": 0.0, "lat": 38.904025, "fusion_lon": 0.0, "rental_uris": {"ios": "https://dc.lft.to/lastmile_qr_scan", "android": "https://dc.lft.to/lastmile_qr_scan"}, "lon": -77.06298916666667, "bike_id": "0adbffc63c64320394e3c7be30c6d622", "type": "electric_scooter", "name": "0adbffc63c64320394e3c7be30c6d622"}, {"is_disabled": 0, "is_reserved": 0, "fusion_lat": 0.0, "lat": 38.93082916666667, "fusion_lon": 0.0, "rental_uris": {"ios": "https://dc.lft.to/lastmile_qr_scan", "android": "https://dc.lft.to/lastmile_qr_scan"}, "lon": -77.0280685, "bike_id": "664b144a10d614cf895831fb78bf1b5c", "type": "electric_scooter", "name": "664b144a10d614cf895831fb78bf1b5c"}, {"is_disabled": 0, "is_reserved": 0, "fusion_lat": 0.0, "lat": 38.906557666666664, "fusion_lon": 0.0, "rental_uris": {"ios": "https://dc.lft.to/lastmile_qr_scan", "android": "https://dc.lft.to/lastmile_qr_scan"}, "lon": -76.97940483333333, "bike_id": "2fc96c46bd22a7a8f438fe96e4a8943c", "type": "electric_scooter", "name": "2fc96c46bd22a7a8f438fe96e4a8943c"}, {"is_disabled": 0, "is_reserved": 0, "fusion_lat": 0.0, "lat": 38.897298166666666, "fusion_lon": 0.0, "rental_uris": {"ios": "https://dc.lft.to/lastmile_qr_scan", "android": "https://dc.lft.to/lastmile_qr_scan"}, "lon": -77.0454675, "bike_id": "8c06eece2dfbad2280f74d1ac9b77427", "type": "electric_scooter", "name": "8c06eece2dfbad2280f74d1ac9b77427"}, {"is_disabled": 0, "is_reserved": 0, "fusion_lat": 0.0, "lat": 38.950885666666665, "fusion_lon": 0.0, "rental_uris": {"ios": "https://dc.lft.to/lastmile_qr_scan", "android": "https://dc.lft.to/lastmile_qr_scan"}, "lon": -77.012561, "bike_id": "cf7a99793110f29f6cab53c9e0149277", "type": "electric_bike", "name": "cf7a99793110f29f6cab53c9e0149277"}, {"is_disabled": 0, "is_reserved": 0, "fusion_lat": 0.0, "lat": 38.842916833333334, "fusion_lon": 0.0, "rental_uris": {"ios": "https://dc.lft.to/lastmile_qr_scan", "android": "https://dc.lft.to/lastmile_qr_scan"}, "lon": -77.06380083333333, "bike_id": "475184a1c503ad5e2f20829e3efd2168", "type": "electric_bike", "name": "475184a1c503ad5e2f20829e3efd2168"}, {"is_disabled": 0, "is_reserved": 0, "fusion_lat": 0.0, "lat": 38.952497, "fusion_lon": 0.0, "rental_uris": {"ios": "https://dc.lft.to/lastmile_qr_scan", "android": "https://dc.lft.to/lastmile_qr_scan"}, "lon": -77.096262, "bike_id": "9f847000943b2819cd6da55981db4c34", "type": "electric_bike", "name": "9f847000943b2819cd6da55981db4c34"}, {"is_disabled": 0, "is_reserved": 0, "fusion_lat": 0.0, "lat": 38.987181, "fusion_lon": 0.0, "rental_uris": {"ios": "https://dc.lft.to/lastmile_qr_scan", "android": "https://dc.lft.to/lastmile_qr_scan"}, "lon": -77.0376695, "bike_id": "3dd22f03997e7ab1fcc73b1a4250af84", "type": "electric_bike", "name": "3dd22f03997e7ab1fcc73b1a4250af84"}, {"is_disabled": 0, "is_reserved": 0, "fusion_lat": 0.0, "lat": 38.97597666666667, "fusion_lon": 0.0, "rental_uris": {"ios": "https://dc.lft.to/lastmile_qr_scan", "android": "https://dc.lft.to/lastmile_qr_scan"}, "lon": -77.01871083333333, "bike_id": "24d1116a3730b1a886b26733b9868710", "type": "electric_scooter", "name": "24d1116a3730b1a886b26733b9868710"}, {"is_disabled": 0, "is_reserved": 0, "fusion_lat": 0.0, "lat": 38.89606716666667, "fusion_lon": 0.0, "rental_uris": {"ios": "https://dc.lft.to/lastmile_qr_scan", "android": "https://dc.lft.to/lastmile_qr_scan"}, "lon": -77.02675266666667, "bike_id": "c66b5a1389beaa37212f0627b8e389eb", "type": "electric_scooter", "name": "c66b5a1389beaa37212f0627b8e389eb"}, {"is_disabled": 0, "is_reserved": 0, "fusion_lat": 0.0, "lat": 38.92203166666667, "fusion_lon": 0.0, "rental_uris": {"ios": "https://dc.lft.to/lastmile_qr_scan", "android": "https://dc.lft.to/lastmile_qr_scan"}, "lon": -77.0388755, "bike_id": "4ced59656b656c77c3671650fee2553c", "type": "electric_scooter", "name": "4ced59656b656c77c3671650fee2553c"}, {"is_disabled": 0, "is_reserved": 0, "fusion_lat": 0.0, "lat": 38.92037466666667, "fusion_lon": 0.0, "rental_uris": {"ios": "https://dc.lft.to/lastmile_qr_scan", "android": "https://dc.lft.to/lastmile_qr_scan"}, "lon": -77.0235945, "bike_id": "9c07e166ec718afab413f7832137af4b", "type": "electric_scooter", "name": "9c07e166ec718afab413f7832137af4b"}, {"is_disabled": 0, "is_reserved": 0, "fusion_lat": 0.0, "lat": 38.87896, "fusion_lon": 0.0, "rental_uris": {"ios": "https://dc.lft.to/lastmile_qr_scan", "android": "https://dc.lft.to/lastmile_qr_scan"}, "lon": -76.935304, "bike_id": "ce0fcba6187b7a0e5c6307fae2e7f819", "type": "electric_scooter", "name": "ce0fcba6187b7a0e5c6307fae2e7f819"}, {"is_disabled": 0, "is_reserved": 0, "fusion_lat": 0.0, "lat": 38.91465016666667, "fusion_lon": 0.0, "rental_uris": {"ios": "https://dc.lft.to/lastmile_qr_scan", "android": "https://dc.lft.to/lastmile_qr_scan"}, "lon": -77.0318305, "bike_id": "ccfdecc600ab80d9a9d94716888ba961", "type": "electric_scooter", "name": "ccfdecc600ab80d9a9d94716888ba961"}, {"is_disabled": 0, "is_reserved": 0, "fusion_lat": 0.0, "lat": 38.89482133333333, "fusion_lon": 0.0, "rental_uris": {"ios": "https://dc.lft.to/lastmile_qr_scan", "android": "https://dc.lft.to/lastmile_qr_scan"}, "lon": -77.02283133333333, "bike_id": "37413bbbbc99cf41e03fcce21f78c197", "type": "electric_scooter", "name": "37413bbbbc99cf41e03fcce21f78c197"}, {"is_disabled": 0, "is_reserved": 0, "fusion_lat": 0.0, "lat": 38.864949833333334, "fusion_lon": 0.0, "rental_uris": {"ios": "https://dc.lft.to/lastmile_qr_scan", "android": "https://dc.lft.to/lastmile_qr_scan"}, "lon": -76.96979866666666, "bike_id": "469b0a7b82cea9b507f01e8c7434327a", "type": "electric_bike", "name": "469b0a7b82cea9b507f01e8c7434327a"}, {"is_disabled": 0, "is_reserved": 0, "fusion_lat": 0.0, "lat": 38.8974265, "fusion_lon": 0.0, "rental_uris": {"ios": "https://dc.lft.to/lastmile_qr_scan", "android": "https://dc.lft.to/lastmile_qr_scan"}, "lon": -77.01759533333333, "bike_id": "e0895cad5c6c569e93d60d23f1d370bb", "type": "electric_scooter", "name": "e0895cad5c6c569e93d60d23f1d370bb"}, {"is_disabled": 0, "is_reserved": 0, "fusion_lat": 0.0, "lat": 38.98215716666667, "fusion_lon": 0.0, "rental_uris": {"ios": "https://dc.lft.to/lastmile_qr_scan", "android": "https://dc.lft.to/lastmile_qr_scan"}, "lon": -76.978126, "bike_id": "095e195a85cac4adcac0c303214ccb21", "type": "electric_bike", "name": "095e195a85cac4adcac0c303214ccb21"}, {"is_disabled": 0, "is_reserved": 0, "fusion_lat": 0.0, "lat": 38.92783383333333, "fusion_lon": 0.0, "rental_uris": {"ios": "https://dc.lft.to/lastmile_qr_scan", "android": "https://dc.lft.to/lastmile_qr_scan"}, "lon": -77.05261216666666, "bike_id": "efd76960f54c0b6ee98aceccdaae1a46", "type": "electric_scooter", "name": "efd76960f54c0b6ee98aceccdaae1a46"}, {"is_disabled": 0, "is_reserved": 0, "fusion_lat": 0.0, "lat": 38.8784845, "fusion_lon": 0.0, "rental_uris": {"ios": "https://dc.lft.to/lastmile_qr_scan", "android": "https://dc.lft.to/lastmile_qr_scan"}, "lon": -76.98609666666667, "bike_id": "f3eb0650f7981d689689e03c18467909", "type": "electric_scooter", "name": "f3eb0650f7981d689689e03c18467909"}, {"is_disabled": 0, "is_reserved": 0, "fusion_lat": 0.0, "lat": 38.89368, "fusion_lon": 0.0, "rental_uris": {"ios": "https://dc.lft.to/lastmile_qr_scan", "android": "https://dc.lft.to/lastmile_qr_scan"}, "lon": -77.04291433333333, "bike_id": "a16642d5fbb93b9ab16bade512a88ef3", "type": "electric_scooter", "name": "a16642d5fbb93b9ab16bade512a88ef3"}, {"is_disabled": 0, "is_reserved": 0, "fusion_lat": 0.0, "lat": 38.951122833333336, "fusion_lon": 0.0, "rental_uris": {"ios": "https://dc.lft.to/lastmile_qr_scan", "android": "https://dc.lft.to/lastmile_qr_scan"}, "lon": -77.01889366666667, "bike_id": "504bf2819542f235902fc1165ea40927", "type": "electric_scooter", "name": "504bf2819542f235902fc1165ea40927"},