{"data": {"bikes": [{"name": "67f025bd2ff1bd01538b284ad14612dc", "type": "electric_scooter", "lat": 38.90407283333333, "is_reserved": 0, "lon": -76.97326866666667, "fusion_lon": 0.0, "is_disabled": 0, "fusion_lat": 0.0, "bike_id": "67f025bd2ff1bd01538b284ad14612dc", "rental_uris": {"ios": "https://dc.lft.to/lastmile_qr_scan", "android": "https://dc.lft.to/lastmile_qr_scan"}}, {"name": "7bd0c51b9375a3e24e1193a1b3c20bfd", "type": "electric_scooter", "lat": 38.92245583333333, "is_reserved": 0, "lon": -77.03082083333334, "fusion_lon": 0.0, "is_disabled": 0, "fusion_lat": 0.0, "bike_id": "7bd0c51b9375a3e24e1193a1b3c20bfd", "rental_uris": {"ios": "https://dc.lft.to/lastmile_qr_scan", "android": "https://dc.lft.to/lastmile_qr_scan"}}, {"name": "33ee64ed2852b9f69ef6da965d05bf8d", "type": "electric_scooter", "lat": 38.88512633333333, "is_reserved": 0, "lon": -77.0336045, "fusion_lon": 0.0, "is_disabled": 0, "fusion_lat": 0.0, "bike_id": "33ee64ed2852b9f69ef6da965d05bf8d", "rental_uris": {"ios": "https://dc.lft.to/lastmile_qr_scan", "android": "https://dc.lft.to/lastmile_qr_scan"}}, {"name": "d71ae0559b9189409e51897cb18ae7a3", "type": "electric_scooter", "lat": 38.90438233333333, "is_reserved": 0, "lon": -76.98487, "fusion_lon": 0.0, "is_disabled": 0, "fusion_lat": 0.0, "bike_id": "d71ae0559b9189409e51897cb18ae7a3", "rental_uris": {"ios": "https://dc.lft.to/lastmile_qr_scan", "android": "https://dc.lft.to/lastmile_qr_scan"}}, {"name": "84153d67a03d564f3f372dcae851e44b", "type": "electric_scooter", "lat": 38.885233166666666, "is_reserved": 0, "lon": -76.97708366666667, "fusion_lon": 0.0, "is_disabled": 0, "fusion_lat": 0.0, "bike_id": "84153d67a03d564f3f372dcae851e44b", "rental_uris": {"ios": "https://dc.lft.to/lastmile_qr_scan", "android": "https://dc.lft.to/lastmile_qr_scan"}}, {"name": "d273b861174a8a2dce4e55df81007803", "type": "electric_bike", "lat": 38.88265766666667, "is_reserved": 0, "lon": -76.999377, "fusion_lon": 0.0, "is_disabled": 0, "fusion_lat": 0.0, "bike_id": "d273b861174a8a2dce4e55df81007803", "rental_uris": {"ios": "https://dc.lft.to/lastmile_qr_scan", "android": "https://dc.lft.to/lastmile_qr_scan"}}, {"name": "0db5661cb990fcaf9d92cb8ecddee212", "type": "electric_scooter", "lat": 38.910101833333336, "is_reserved": 0, "lon": -77.02207716666666, "fusion_lon": 0.0, "is_disabled": 0, "fusion_lat": 0.0, "bike_id": "0db5661cb990fcaf9d92cb8ecddee212", "rental_uris": {"ios": "https://dc.lft.to/lastmile_qr_scan", "android": "https://dc.lft.to/lastmile_qr_scan"}}, {"name": "5504874e9af026457238bb4021e7d275", "type": "electric_scooter", "lat": 38.918082, "is_reserved": 0, "lon": -77.02785183333333, "fusion_lon": 0.0, "is_disabled": 0, "fusion_lat": 0.0, "bike_id": "5504874e9af026457238bb4021e7d275", "rental_uris": {"ios": "https://dc.lft.to/lastmile_qr_scan", "android": "https://dc.lft.to/lastmile_qr_scan"}}, {"name": "f6a14b539cd815212babd758a59333a5", "type": "electric_scooter", "lat": 38.931720166666665, "is_reserved": 0, "lon": -77.02849316666666, "fusion_lon": 0.0, "is_disabled": 0, "fusion_lat": 0.0, "bike_id": "f6a14b539cd815212babd758a59333a5", "rental_uris": {"ios": "https://dc.lft.to/lastmile_qr_scan", "android": "https://dc.lft.to/lastmile_qr_scan"}}, {"name": "a9f8dcf625f27d5ace9cb8e6b2478142", "type": "electric_scooter", "lat": 38.905788666666666, "is_reserved": 0, "lon": -77.03455816666667, "fusion_lon": 0.0, "is_disabled": 0, "fusion_lat": 0.0, "bike_id": "a9f8dcf625f27d5ace9cb8e6b2478142", "rental_uris": {"ios": "https://dc.lft.to/lastmile_qr_scan", "android": "https://dc.lft.to/lastmile_qr_scan"}}, {"name": "b60a65ae0095c61b709834d31f4dc74a", "type": "electric_scooter", "lat": 38.94012016666667, "is_reserved": 0, "lon": -77.07173966666667, "fusion_lon": 0.0, "is_disabled": 0, "fusion_lat": 0.0, "bike_id": "b60a65ae0095c61b709834d31f4dc74a", "rental_uris": {"ios": "https://dc.lft.to/lastmile_qr_scan", "android": "https://dc.lft.to/lastmile_qr_scan"}}, {"name": "f869a4e633ba2608f504e4a8ae36196a", "type": "electric_scooter", "lat": 38.9169275, "is_reserved": 0, "lon": -77.012287, "fusion_lon": 0.0, "is_disabled": 0, "fusion_lat": 0.0, "bike_id": "f869a4e633ba2608f504e4a8ae36196a", "rental_uris": {"ios": "https://dc.lft.to/lastmile_qr_scan", "android": "https://dc.lft.to/lastmile_qr_scan"}}, {"name": "6e12a8f7c25818aba5a5f8d522fdf6a9", "type": "electric_scooter", "lat": 38.91920316666667, "is_reserved": 0, "lon": -77.0342305, "fusion_lon": 0.0, "is_disabled": 0, "fusion_lat": 0.0, "bike_id": "6e12a8f7c25818aba5a5f8d522fdf6a9", "rental_uris": {"ios": "https://dc.lft.to/lastmile_qr_scan", "android": "https://dc.lft.to/lastmile_qr_scan"}}, {"name": "259a12fe3fa82969b9ec79f8dc895961", "type": "electric_scooter", "lat": 38.9088985, "is_reserved": 0, "lon": -77.03147566666667, "fusion_lon": 0.0, "is_disabled": 0, "fusion_lat": 0.0, "bike_id": "259a12fe3fa82969b9ec79f8dc895961", "rental_uris": {"ios": "https://dc.lft.to/lastmile_qr_scan", "android": "https://dc.lft.to/lastmile_qr_scan"}}, {"name": "4e83a2bd87f9564453cba3da7e3bde5b", "type": "electric_scooter", "lat": 38.92016566666667, "is_reserved": 0, "lon": -77.03863433333333, "fusion_lon": 0.0, "is_disabled": 0, "fusion_lat": 0.0, "bike_id": "4e83a2bd87f9564453cba3da7e3bde5b", "rental_uris": {"ios": "https://dc.lft.to/lastmile_qr_scan", "android": "https://dc.lft.to/lastmile_qr_scan"}}, {"name": "c9a2819ba0d668290c913708e91f2431", "type": "electric_bike", "lat": 38.9086505, "is_reserved": 0, "lon": -77.005678, "fusion_lon": 0.0, "is_disabled": 0, "fusion_lat": 0.0, "bike_id": "c9a2819ba0d668290c913708e91f2431", "rental_uris": {"ios": "https://dc.lft.to/lastmile_qr_scan", "android": "https://dc.lft.to/lastmile_qr_scan"}}, {"name": "4b4cd51c3f45307bc66bfaa57fc27919", "type": "electric_bike", "lat": 38.973237166666664, "is_reserved": 0, "lon": -77.02145583333333, "fusion_lon": 0.0, "is_disabled": 0, "fusion_lat": 0.0, "bike_id": "4b4cd51c3f45307bc66bfaa57fc27919", "rental_uris": {"ios": "https://dc.lft.to/lastmile_qr_scan", "android": "https://dc.lft.to/lastmile_qr_scan"}}, {"name": "fa67505663ac17bd697cbd378b79acb4", "type": "electric_scooter", "lat": 38.844248, "is_reserved": 0, "lon": -76.99779716666667, "fusion_lon": 0.0, "is_disabled": 0, "fusion_lat": 0.0, "bike_id": "fa67505663ac17bd697cbd378b79acb4", "rental_uris": {"ios": "https://dc.lft.to/lastmile_qr_scan", "android": "https://dc.lft.to/lastmile_qr_scan"}}, {"name": "48d33947c378c21c6c15395e24b03ebd", "type": "electric_scooter", "lat": 38.925694166666666, "is_reserved": 0, "lon": -77.0271785, "fusion_lon": 0.0, "is_disabled": 0, "fusion_lat": 0.0, "bike_id": "48d33947c378c21c6c15395e24b03ebd", "rental_uris": {"ios": "https://dc.lft.to/lastmile_qr_scan", "android": "https://dc.lft.to/lastmile_qr_scan"}}, {"name": "8e5f4e5ef0ad59897590e2477f120de0", "type": "electric_scooter", "lat": 38.9325345, "is_reserved": 0, "lon": -77.040035, "fusion_lon": 0.0, "is_disabled": 0, "fusion_lat": 0.0, "bike_id": "8e5f4e5ef0ad59897590e2477f120de0", "rental_uris": {"ios": "https://dc.lft.to/lastmile_qr_scan", "android": "https://dc.lft.to/lastmile_qr_scan"}}, {"name": "84a57f1a5b7331606fada0cc71581f7f", "type": "electric_scooter", "lat": 38.88383616666667, "is_reserved": 0, "lon": -76.93047766666666, "fusion_lon": 0.0, "is_disabled": 0, "fusion_lat": 0.0, "bike_id": "84a57f1a5b7331606fada0cc71581f7f", "rental_uris": {"ios": "https://dc.lft.to/lastmile_qr_scan", "android": "https://dc.lft.to/lastmile_qr_scan"}}, {"name": "944d713b7b64fb29caa3316512e8a943", "type": "electric_scooter", "lat": 38.912750333333335, "is_reserved": 0, "lon": -77.026904, "fusion_lon": 0.0, "is_disabled": 0, "fusion_lat": 0.0, "bike_id": "944d713b7b64fb29caa3316512e8a943", "rental_uris": {"ios": "https://dc.lft.to/lastmile_qr_scan", "android": "https://dc.lft.to/lastmile_qr_scan"}}, {"name": "495472e4a13f3514a2e00414b1918696", "type": "electric_bike", "lat": 38.945538166666665, "is_reserved": 0, "lon": -76.89536466666667, "fusion_lon": 0.0, "is_disabled": 0, "fusion_lat": 0.0, "bike_id": "495472e4a13f3514a2e00414b1918696", "rental_uris": {"ios": "https://dc.lft.to/lastmile_qr_scan", "android": "https://dc.lft.to/lastmile_qr_scan"}}, {"name": "adce9a4da31d1bb4d6648ade80956f42", "type": "electric_scooter", "lat": 38.91713, "is_reserved": 0, "lon": -77.02222366666666, "fusion_lon": 0.0, "is_disabled": 0, "fusion_lat": 0.0, "bike_id": "adce9a4da31d1bb4d6648ade80956f42", "rental_uris": {"ios": "https://dc.lft.to/lastmile_qr_scan", "android": "https://dc.lft.to/lastmile_qr_scan"}}, {"name": "380b908059aa2d3e05a005d266fa18b4", "type": "electric_scooter", "lat": 38.93235883333333, "is_reserved": 0, "lon": -77.03088566666666, "fusion_lon": 0.0, "is_disabled": 0, "fusion_lat": 0.0, "bike_id": "380b908059aa2d3e05a005d266fa18b4", "rental_uris": {"ios": "https://dc.lft.to/lastmile_qr_scan", "android": "https://dc.lft.to/lastmile_qr_scan"}}, {"name": "2d9ede638707b50862a360fec2b7ee1f", "type": "electric_scooter", "lat": 38.92709683333333, "is_reserved": 0, "lon": -77.02085216666667, "fusion_lon": 0.0, "is_disabled": 0, "fusion_lat": 0.0, "bike_id": "2d9ede638707b50862a360fec2b7ee1f", "rental_uris": {"ios": "https://dc.lft.to/lastmile_qr_scan", "android": "https://dc.lft.to/lastmile_qr_scan"}}, {"name": "6caf340a223a64843e5ea1f6382367b2", "type": "electric_scooter", "lat": 38.922532833333335, "is_reserved": 0, "lon": -77.0307365, "fusion_lon": 0.0, "is_disabled": 0, "fusion_lat": 0.0, "bike_id": "6caf340a223a64843e5ea1f6382367b2", "rental_uris": {"ios": "https://dc.lft.to/lastmile_qr_scan", "android": "https://dc.lft.to/lastmile_qr_scan"}}, {"name": "f731235f144e158feaa01726058445e7", "type": "electric_scooter", "lat": 38.895065833333334, "is_reserved": 0, "lon": -77.016111, "fusion_lon": 0.0, "is_disabled": 0, "fusion_lat": 0.0, "bike_id": "f731235f144e158feaa01726058445e7", "rental_uris": {"ios": "https://dc.lft.to/lastmile_qr_scan", "android": "https://dc.lft.to/lastmile_qr_scan"}}, {"name": "81ed156051eeec235cb0feeedc34925a", "type": "electric_scooter", "lat": 38.92056633333333, "is_reserved": 0, "lon": -76.99883033333333, "fusion_lon": 0.0, "is_disabled": 0, "fusion_lat": 0.0, "bike_id": "81ed156051eeec235cb0feeedc34925a", "rental_uris": {"ios": "https://dc.lft.to/lastmile_qr_scan", "android": "https://dc.lft.to/lastmile_qr_scan"}}, {"name": "f33a9faaa622103722d18439f80a53c4", "type": "electric_scooter", "lat": 38.89372016666667, "is_reserved": 0, "lon": -76.94991016666667, "fusion_lon": 0.0, "is_disabled": 0, "fusion_lat": 0.0, "bike_id": "f33a9faaa622103722d18439f80a53c4", "rental_uris": {"ios": "https://dc.lft.to/lastmile_qr_scan", "android": "https://dc.lft.to/lastmile_qr_scan"}}, {"name": "8d22a421b9061263d3b6980d770f0e9f", "type": "electric_scooter", "lat": 38.89830466666667, "is_reserved": 0, "lon": -76.9463305, "fusion_lon": 0.0, "is_disabled": 0, "fusion_lat": 0.0, "bike_id": "8d22a421b9061263d3b6980d770f0e9f", "rental_uris": {"ios": "https://dc.lft.to/lastmile_qr_scan", "android": "https://dc.lft.to/lastmile_qr_scan"}}, {"name": "c22b768c1b9545e7da551d45a1fa9a9e", "type": "electric_scooter", "lat": 38.93632383333333, "is_reserved": 0, "lon": -77.03658933333334, "fusion_lon": 0.0, "is_disabled": 0, "fusion_lat": 0.0, "bike_id": "c22b768c1b9545e7da551d45a1fa9a9e", "rental_uris": {"ios": "https://dc.lft.to/lastmile_qr_scan", "android": "https://dc.lft.to/lastmile_qr_scan"}}, {"name": "39f0f342a83f81f8eab5be49bcfe3dfe", "type": "electric_scooter", "lat": 38.9292615, "is_reserved": 0, "lon": -77.03290933333334, "fusion_lon": 0.0, "is_disabled": 0, "fusion_lat": 0.0, "bike_id": "39f0f342a83f81f8eab5be49bcfe3dfe", "rental_uris": {"ios": "https://dc.lft.to/lastmile_qr_scan", "android": "https://dc.lft.to/lastmile_qr_scan"}}, {"name": "a5c5c7908f15f76faa68bda2ddc3ba56", "type": "electric_scooter", "lat": 38.8923625, "is_reserved": 0, "lon": -77.03179233333333, "fusion_lon": 0.0, "is_disabled": 0, "fusion_lat": 0.0, "bike_id": "a5c5c7908f15f76faa68bda2ddc3ba56", "rental_uris": {"ios": "https://dc.lft.to/lastmile_qr_scan", "android": "https://dc.lft.to/lastmile_qr_scan"}}, {"name": "e2ecf73034a627b454338396cd065153", "type": "electric_scooter", "lat": 38.902764833333336, "is_reserved": 0, "lon": -77.03651033333334, "fusion_lon": 0.0, "is_disabled": 0, "fusion_lat": 0.0, "bike_id": "e2ecf73034a627b454338396cd065153", "rental_uris": {"ios": "https://dc.lft.to/lastmile_qr_scan", "android": "https://dc.lft.to/lastmile_qr_scan"}}, {"name": "469b6e021cdec1ae436d1d67dbd8b7a6", "type": "electric_scooter", "lat": 38.9312155, "is_reserved": 0, "lon": -77.03599983333334, "fusion_lon": 0.0, "is_disabled": 0, "fusion_lat": 0.0, "bike_id": "469b6e021cdec1ae436d1d67dbd8b7a6", "rental_uris": {"ios": "https://dc.lft.to/lastmile_qr_scan", "android": "https://dc.lft.to/lastmile_qr_scan"}}, {"name": "53f9661566702eb6ce57817cd58aa868", "type": "electric_scooter", "lat": 38.86699933333333, "is_reserved": 0, "lon": -76.98716766666666, "fusion_lon": 0.0, "is_disabled": 0, "fusion_lat": 0.0, "bike_id": "53f9661566702eb6ce57817cd58aa868", "rental_uris": {"ios": "https://dc.lft.to/lastmile_qr_scan", "android": "https://dc.lft.to/lastmile_qr_scan"}}, {"name": "92c8261ea7925a7b19af302b36b80064", "type": "electric_scooter", "lat": 38.86357066666667, "is_reserved": 0, "lon": -76.99068716666666, "fusion_lon": 0.0, "is_disabled": 0, "fusion_lat": 0.0, "bike_id": "92c8261ea7925a7b19af302b36b80064", "rental_uris": {"ios": "https://dc.lft.to/lastmile_qr_scan", "android": "https://dc.lft.to/lastmile_qr_scan"}}, {"name": "e9c352ff019f16fe422142c75ebd98ee", "type": "electric_scooter", "lat": 38.901680166666665, "is_reserved": 0, "lon": -77.00012333333333, "fusion_lon": 0.0, "is_disabled": 0, "fusion_lat": 0.0, "bike_id": "e9c352ff019f16fe422142c75ebd98ee", "rental_uris": {"ios": "https://dc.lft.to/lastmile_qr_scan", "android": "https://dc.lft.to/lastmile_qr_scan"}}, {"name": "63a003ba4751d564eb632db8ae1950bc", "type": "electric_scooter", "lat": 38.905475833333334, "is_reserved": 0, "lon": -77.04646533333333, "fusion_lon": 0.0, "is_disabled": 0, "fusion_lat": 0.0, "bike_id": "63a003ba4751d564eb632db8ae1950bc", "rental_uris": {"ios": "https://dc.lft.to/lastmile_qr_scan", "android": "https://dc.lft.to/lastmile_qr_scan"}}, {"name": "a43a2cd94c980a6c171792d794503bcf", "type": "electric_scooter", "lat": 38.9036515, "is_reserved": 0, "lon": -77.0448125, "fusion_lon": 0.0, "is_disabled": 0, "fusion_lat": 0.0, "bike_id": "a43a2cd94c980a6c171792d794503bcf", "rental_uris": {"ios": "https://dc.lft.to/lastmile_qr_scan", "android": "https://dc.lft.to/lastmile_qr_scan"}}, {"name": "1dc58656aab8371cd013f9b726559012", "type": "electric_scooter", "lat": 38.941116, "is_reserved": 0, "lon": -77.0265525, "fusion_lon": 0.0, "is_disabled": 0, "fusion_lat": 0.0, "bike_id": "1dc58656aab8371cd013f9b726559012", "rental_uris": {"ios": "https://dc.lft.to/lastmile_qr_scan", "android": "https://dc.lft.to/lastmile_qr_scan"}}, {"name": "a46c51220ffe2c715049519a10b49ee6", "type": "electric_scooter", "lat": 38.88490866666667, "is_reserved": 0, "lon": -77.028562, "fusion_lon": 0.0, "is_disabled": 0, "fusion_lat": 0.0, "bike_id": "a46c51220ffe2c715049519a10b49ee6", "rental_uris": {"ios": "https://dc.lft.to/lastmile_qr_scan", "android": "https://dc.lft.to/lastmile_qr_scan"}}, {"name": "b9a95f81b58ae68d72d480ea064255d2", "type": "electric_scooter", "lat": 38.908629166666664, "is_reserved": 0, "lon": -76.98616416666667, "fusion_lon": 0.0, "is_disabled": 0, "fusion_lat": 0.0, "bike_id": "b9a95f81b58ae68d72d480ea064255d2", "rental_uris": {"ios": "https://dc.lft.to/lastmile_qr_scan", "android": "https://dc.lft.to/lastmile_qr_scan"}}, {"name": "8fd8999ebf700bffd91c7f5f56db9ba0", "type": "electric_scooter", "lat": 38.900347833333335, "is_reserved": 0, "lon": -76.98835866666667, "fusion_lon": 0.0, "is_disabled": 0, "fusion_lat": 0.0, "bike_id": "8fd8999ebf700bffd91c7f5f56db9ba0", "rental_uris": {"ios": "https://dc.lft.to/lastmile_qr_scan", "android": "https://dc.lft.to/lastmile_qr_scan"}}, {"name": "e01c55f85761210ece59e1980d127d41", "type": "electric_bike", "lat": 38.903649, "is_reserved": 0, "lon": -76.983226, "fusion_lon": 0.0, "is_disabled": 0, "fusion_lat": 0.0, "bike_id": "e01c55f85761210ece59e1980d127d41", "rental_uris": {"ios": "https://dc.lft.to/lastmile_qr_scan", "android": "https://dc.lft.to/lastmile_qr_scan"}}, {"name": "8d495e3c9431a6b67f79ff31e95f6dce", "type": "electric_scooter", "lat": 38.905192166666666, "is_reserved": 0, "lon": -77.065868, "fusion_lon": 0.0, "is_disabled": 0, "fusion_lat": 0.0, "bike_id": "8d495e3c9431a6b67f79ff31e95f6dce", "rental_uris": {"ios": "https://dc.lft.to/lastmile_qr_scan", "android": "https://dc.lft.to/lastmile_qr_scan"}}, {"name": "66afe11c0373a2432a7a7c0ea0958ef5", "type": "electric_scooter", "lat": 38.89775433333333, "is_reserved": 0, "lon": -77.051109, "fusion_lon": 0.0, "is_disabled": 0, "fusion_lat": 0.0, "bike_id": "66afe11c0373a2432a7a7c0ea0958ef5", "rental_uris": {"ios": "https://dc.lft.to/lastmile_qr_scan", "android": "https://dc.lft.to/lastmile_qr_scan"}}, {"name": "4d598c5457d59d9cd60677bde8446953", "type": "electric_scooter", "lat": 38.952883, "is_reserved": 0, "lon": -77.06829783333333, "fusion_lon": 0.0, "is_disabled": 0, "fusion_lat": 0.0, "bike_id": "4d598c5457d59d9cd60677bde8446953", "rental_uris": {"ios": "https://dc.lft.to/lastmile_qr_scan", "android": "https://dc.lft.to/lastmile_qr_scan"}}, {"name": "066f2d51e285f8f0c9ffdf3e08ff5993", "type": "electric_scooter", "lat": 38.9181975, "is_reserved": 0, "lon": -77.0344155, "fusion_lon": 0.0, "is_disabled": 0, "fusion_lat": 0.0, "bike_id": "066f2d51e285f8f0c9ffdf3e08ff5993", "rental_uris": {"ios": "https://dc.lft.to/lastmile_qr_scan", "android": "https://dc.lft.to/lastmile_qr_scan"}}, {"name": "bad455e2ca6c05c8b46f938a448b0bdf", "type": "electric_scooter", "lat": 38.932924666666665, "is_reserved": 0, "lon": -77.0280795, "fusion_lon": 0.0, "is_disabled": 0, "fusion_lat": 0.0, "bike_id": "bad455e2ca6c05c8b46f938a448b0bdf", "rental_uris": {"ios": "https://dc.lft.to/lastmile_qr_scan", "android": "https://dc.lft.to/lastmile_qr_scan"}}, {"name": "6e85ca5eab5836583f72478784cea228", "type": "electric_scooter", "lat": 38.90393683333333, "is_reserved": 0, "lon": -77.04039866666666, "fusion_lon": 0.0, "is_disabled": 0, "fusion_lat": 0.0, "bike_id": "6e85ca5eab5836583f72478784cea228", "rental_uris": {"ios": "https://dc.lft.to/lastmile_qr_scan", "android": "https://dc.lft.to/lastmile_qr_scan"}}, {"name": "3f14f970579d2919b0879e001e1a4d7e", "type": "electric_scooter", "lat": 38.92035283333333, "is_reserved": 0, "lon": -77.01119233333333, "fusion_lon": 0.0, "is_disabled": 0, "fusion_lat": 0.0, "bike_id": "3f14f970579d2919b0879e001e1a4d7e", "rental_uris": {"ios": "https://dc.lft.to/lastmile_qr_scan", "android": "https://dc.lft.to/lastmile_qr_scan"}}, {"name": "6a55d82db0e6e68b14c53cd97903680d", "type": "electric_scooter", "lat": 38.84290166666667, "is_reserved": 0, "lon": -76.99943916666666, "fusion_lon": 0.0, "is_disabled": 0, "fusion_lat": 0.0, "bike_id": "6a55d82db0e6e68b14c53cd97903680d", "rental_uris": {"ios": "https://dc.lft.to/lastmile_qr_scan", "android": "https://dc.lft.to/lastmile_qr_scan"}}, {"name": "e4d1026b94ca11b8859d49a0aec0240d", "type": "electric_bike", "lat": 38.85803716666667, "is_reserved": 0, "lon": -76.987546, "fusion_lon": 0.0, "is_disabled": 0, "fusion_lat": 0.0, "bike_id": "e4d1026b94ca11b8859d49a0aec0240d", "rental_uris": {"ios": "https://dc.lft.to/lastmile_qr_scan", "android": "https://dc.lft.to/lastmile_qr_scan"}}, {"name": "403ef75eb2f99ee99b4015b542e12b6c", "type": "electric_scooter", "lat": 38.915557166666666, "is_reserved": 0, "lon": -77.07273516666666, "fusion_lon": 0.0, "is_disabled": 0, "fusion_lat": 0.0, "bike_id": "403ef75eb2f99ee99b4015b542e12b6c", "rental_uris": {"ios": "https://dc.lft.to/lastmile_qr_scan", "android": "https://dc.lft.to/lastmile_qr_scan"}}, {"name": "954c179c721eb7a16d954d104c346ae5", "type": "electric_scooter", "lat": 38.89735483333333, "is_reserved": 0, "lon": -76.94727516666667, "fusion_lon": 0.0, "is_disabled": 0, "fusion_lat": 0.0, "bike_id": "954c179c721eb7a16d954d104c346ae5", "rental_uris": {"ios": "https://dc.lft.to/lastmile_qr_scan", "android": "https://dc.lft.to/lastmile_qr_scan"}}, {"name": "b577268f3b0f466a5c3be58311451571", "type": "electric_scooter", "lat": 38.974756166666666, "is_reserved": 0, "lon": -77.01899016666667, "fusion_lon": 0.0, "is_disabled": 0, "fusion_lat": 0.0, "bike_id": "b577268f3b0f466a5c3be58311451571", "rental_uris": {"ios": "https://dc.lft.to/lastmile_qr_scan", "android": "https://dc.lft.to/lastmile_qr_scan"}}, {"name": "d15336ddba5afcc2c0701e69d1e2c7fc", "type": "electric_scooter", "lat": 38.90140183333333, "is_reserved": 0, "lon": -77.044378, "fusion_lon": 0.0, "is_disabled": 0, "fusion_lat": 0.0, "bike_id": "d15336ddba5afcc2c0701e69d1e2c7fc", "rental_uris": {"ios": "https://dc.lft.to/lastmile_qr_scan", "android": "https://dc.lft.to/lastmile_qr_scan"}}, {"name": "b609070577f323da799aa44efb103c56", "type": "electric_scooter", "lat": 38.9060365, "is_reserved": 0, "lon": -77.05126783333333, "fusion_lon": 0.0, "is_disabled": 0, "fusion_lat": 0.0, "bike_id": "b609070577f323da799aa44efb103c56", "rental_uris": {"ios": "https://dc.lft.to/lastmile_qr_scan", "android": "https://dc.lft.to/lastmile_qr_scan"}}, {"name": "3c3a67d8ce2f739fa1069c3d28392046", "type": "electric_scooter", "lat": 38.897298666666664, "is_reserved": 0, "lon": -77.00149566666667, "fusion_lon": 0.0, "is_disabled": 0, "fusion_lat": 0.0, "bike_id": "3c3a67d8ce2f739fa1069c3d28392046", "rental_uris": {"ios": "https://dc.lft.to/lastmile_qr_scan", "android": "https://dc.lft.to/lastmile_qr_scan"}}, {"name": "3b42d3bc571d22256c744ef486825879", "type": "electric_scooter", "lat": 38.9298335, "is_reserved": 0, "lon": -77.03472116666667, "fusion_lon": 0.0, "is_disabled": 0, "fusion_lat": 0.0, "bike_id": "3b42d3bc571d22256c744ef486825879", "rental_uris": {"ios": "https://dc.lft.to/lastmile_qr_scan", "android": "https://dc.lft.to/lastmile_qr_scan"}}, {"name": "b1db8d11690e1a2a70556ce7b4baa417", "type": "electric_bike", "lat": 38.877339, "is_reserved": 0, "lon": -77.1184135, "fusion_lon": 0.0, "is_disabled": 0, "fusion_lat": 0.0, "bike_id": "b1db8d11690e1a2a70556ce7b4baa417", "rental_uris": {"ios": "https://dc.lft.to/lastmile_qr_scan", "android": "https://dc.lft.to/lastmile_qr_scan"}}, {"name": "40b5c3b761c4de70510a5ab42a14eac2", "type": "electric_scooter", "lat": 38.9306195, "is_reserved": 0, "lon": -77.0379865, "fusion_lon": 0.0, "is_disabled": 0, "fusion_lat": 0.0, "bike_id": "40b5c3b761c4de70510a5ab42a14eac2", "rental_uris": {"ios": "https://dc.lft.to/lastmile_qr_scan", "android": "https://dc.lft.to/lastmile_qr_scan"}}, {"name": "a828575d159ece35b9f338413b4197c1", "type": "electric_scooter", "lat": 38.91216083333333, "is_reserved": 0, "lon": -77.028033, "fusion_lon": 0.0, "is_disabled": 0, "fusion_lat": 0.0, "bike_id": "a828575d159ece35b9f338413b4197c1", "rental_uris": {"ios": "https://dc.lft.to/lastmile_qr_scan", "android": "https://dc.lft.to/lastmile_qr_scan"}}, {"name": "671b37ab12dfa91ce5d5a05d93458acb", "type": "electric_scooter", "lat": 38.90307033333333, "is_reserved": 0, "lon": -77.06035266666666, "fusion_lon": 0.0, "is_disabled": 0, "fusion_lat": 0.0, "bike_id": "671b37ab12dfa91ce5d5a05d93458acb", "rental_uris": {"ios": "https://dc.lft.to/lastmile_qr_scan", "android": "https://dc.lft.to/lastmile_qr_scan"}}, {"name": "84d1ea4ca96e648a8ee04b5eb3bed7d5", "type": "electric_scooter", "lat": 38.9111335, "is_reserved": 0, "lon": -77.002431, "fusion_lon": 0.0, "is_disabled": 0, "fusion_lat": 0.0, "bike_id": "84d1ea4ca96e648a8ee04b5eb3bed7d5", "rental_uris": {"ios": "https://dc.lft.to/lastmile_qr_scan", "android": "https://dc.lft.to/lastmile_qr_scan"}}, {"name": "c33ec11867b446f95571c7bfe56d7a49", "type": "electric_scooter", "lat": 38.93211083333333, "is_reserved": 0, "lon": -77.02384333333333, "fusion_lon": 0.0, "is_disabled": 0, "fusion_lat": 0.0, "bike_id": "c33ec11867b446f95571c7bfe56d7a49", "rental_uris": {"ios": "https://dc.lft.to/lastmile_qr_scan", "android": "https://dc.lft.to/lastmile_qr_scan"}}, {"name": "39fe7a2e4ea7c1d605827936ca83711b", "type": "electric_scooter", "lat": 38.883506833333335, "is_reserved": 0, "lon": -76.9856105, "fusion_lon": 0.0, "is_disabled": 0, "fusion_lat": 0.0, "bike_id": "39fe7a2e4ea7c1d605827936ca83711b", "rental_uris": {"ios": "https://dc.lft.to/lastmile_qr_scan", "android": "https://dc.lft.to/lastmile_qr_scan"}}, {"name": "0c78577d0ac0929c84ace23fd1737c35", "type": "electric_scooter", "lat": 38.87885566666667, "is_reserved": 0, "lon": -77.02279733333333, "fusion_lon": 0.0, "is_disabled": 0, "fusion_lat": 0.0, "bike_id": "0c78577d0ac0929c84ace23fd1737c35", "rental_uris": {"ios": "https://dc.lft.to/lastmile_qr_scan", "android": "https://dc.lft.to/lastmile_qr_scan"}}, {"name": "a956f6729bd595bc388f1491c5c1088b", "type": "electric_scooter", "lat": 38.9396645, "is_reserved": 0, "lon": -77.053194, "fusion_lon": 0.0, "is_disabled": 0, "fusion_lat": 0.0, "bike_id": "a956f6729bd595bc388f1491c5c1088b", "rental_uris": {"ios": "https://dc.lft.to/lastmile_qr_scan", "android": "https://dc.lft.to/lastmile_qr_scan"}}, {"name": "565472d297df3337ebb1578ecb997748", "type": "electric_scooter", "lat": 38.938933166666665, "is_reserved": 0, "lon": -77.01761216666667, "fusion_lon": 0.0, "is_disabled": 0, "fusion_lat": 0.0, "bike_id": "565472d297df3337ebb1578ecb997748", "rental_uris": {"ios": "https://dc.lft.to/lastmile_qr_scan", "android": "https://dc.lft.to/lastmile_qr_scan"}}, {"name": "e26da608b596f2617634ce0a17a58f02", "type": "electric_bike", "lat": 38.8775495, "is_reserved": 0, "lon": -76.97992816666667, "fusion_lon": 0.0, "is_disabled": 0, "fusion_lat": 0.0, "bike_id": "e26da608b596f2617634ce0a17a58f02", "rental_uris": {"ios": "https://dc.lft.to/lastmile_qr_scan", "android": "https://dc.lft.to/lastmile_qr_scan"}}, {"name": "67156be37938c5b35205a6958a8421bc", "type": "electric_bike", "lat": 38.953392, "is_reserved": 0, "lon": -76.98254666666666, "fusion_lon": 0.0, "is_disabled": 0, "fusion_lat": 0.0, "bike_id": "67156be37938c5b35205a6958a8421bc", "rental_uris": {"ios": "https://dc.lft.to/lastmile_qr_scan", "android": "https://dc.lft.to/lastmile_qr_scan"}}, {"name": "9b28aff32167486f83305220537657f1", "type": "electric_scooter", "lat": 38.86961, "is_reserved": 0, "lon": -77.01374766666666, "fusion_lon": 0.0, "is_disabled": 0, "fusion_lat": 0.0, "bike_id": "9b28aff32167486f83305220537657f1", "rental_uris": {"ios": "https://dc.lft.to/lastmile_qr_scan", "android": "https://dc.lft.to/lastmile_qr_scan"}}, {"name": "51a65be1faf0fc454ded4cf188d8dbd9", "type": "electric_bike", "lat": 38.959318333333336, "is_reserved": 0, "lon": -76.92536283333334, "fusion_lon": 0.0, "is_disabled": 0, "fusion_lat": 0.0, "bike_id": "51a65be1faf0fc454ded4cf188d8dbd9", "rental_uris": {"ios": "https://dc.lft.to/lastmile_qr_scan", "android": "https://dc.lft.to/lastmile_qr_scan"}}, {"name": "dc6722cb36b6dca0e08bbab736d9bb8f", "type": "electric_scooter", "lat": 38.90279783333333, "is_reserved": 0, "lon": -77.03835433333333, "fusion_lon": 0.0, "is_disabled": 0, "fusion_lat": 0.0, "bike_id": "dc6722cb36b6dca0e08bbab736d9bb8f", "rental_uris": {"ios": "https://dc.lft.to/lastmile_qr_scan", "android": "https://dc.lft.to/lastmile_qr_scan"}}, {"name": "0e3f920045af9c640786b783c41ad6bd", "type": "electric_scooter", "lat": 38.97495083333333, "is_reserved": 0, "lon": -77.016895, "fusion_lon": 0.0, "is_disabled": 0, "fusion_lat": 0.0, "bike_id": "0e3f920045af9c640786b783c41ad6bd", "rental_uris": {"ios": "https://dc.lft.to/lastmile_qr_scan", "android": "https://dc.lft.to/lastmile_qr_scan"}}, {"name": "4448aaa8d7da5557b80c5e6ddc660d48", "type": "electric_scooter", "lat": 38.90662916666667, "is_reserved": 0, "lon": -77.0269005, "fusion_lon": 0.0, "is_disabled": 0, "fusion_lat": 0.0, "bike_id": "4448aaa8d7da5557b80c5e6ddc660d48", "rental_uris": {"ios": "https://dc.lft.to/lastmile_qr_scan", "android": "https://dc.lft.to/lastmile_qr_scan"}}, {"name": "2ef4a8957f74860c6f1c4b0200f3a59c", "type": "electric_scooter", "lat": 38.91241766666667, "is_reserved": 0, "lon": -77.04875166666666, "fusion_lon": 0.0, "is_disabled": 0, "fusion_lat": 0.0, "bike_id": "2ef4a8957f74860c6f1c4b0200f3a59c", "rental_uris": {"ios": "https://dc.lft.to/lastmile_qr_scan", "android": "https://dc.lft.to/lastmile_qr_scan"}}, {"name": "44e0de4be7e83332670b3cf6a5a7917c", "type": "electric_bike", "lat": 38.93957566666667, "is_reserved": 0, "lon": -77.36085983333334, "fusion_lon": 0.0, "is_disabled": 0, "fusion_lat": 0.0, "bike_id": "44e0de4be7e83332670b3cf6a5a7917c", "rental_uris": {"ios": "https://dc.lft.to/lastmile_qr_scan", "android": "https://dc.lft.to/lastmile_qr_scan"}}, {"name": "68613e2d22886577d22788f8a137b2c1", "type": "electric_scooter", "lat": 38.90970866666667, "is_reserved": 0, "lon": -77.01121266666667, "fusion_lon": 0.0, "is_disabled": 0, "fusion_lat": 0.0, "bike_id": "68613e2d22886577d22788f8a137b2c1", "rental_uris": {"ios": "https://dc.lft.to/lastmile_qr_scan", "android": "https://dc.lft.to/lastmile_qr_scan"}}, {"name": "41be54567be8b393e7b5caae8f351fad", "type": "electric_scooter", "lat": 38.924357666666666, "is_reserved": 0, "lon": -77.042591, "fusion_lon": 0.0, "is_disabled": 0, "fusion_lat": 0.0, "bike_id": "41be54567be8b393e7b5caae8f351fad", "rental_uris": {"ios": "https://dc.lft.to/lastmile_qr_scan", "android": "https://dc.lft.to/lastmile_qr_scan"}}, {"name": "605f7da562b501f2450a57e907dc120e", "type": "electric_scooter", "lat": 38.8923405, "is_reserved": 0, "lon": -77.0321615, "fusion_lon": 0.0, "is_disabled": 0, "fusion_lat": 0.0, "bike_id": "605f7da562b501f2450a57e907dc120e", "rental_uris": {"ios": "https://dc.lft.to/lastmile_qr_scan", "android": "https://dc.lft.to/lastmile_qr_scan"}}, {"name": "5d41d5ac7d67ae183f2699b99d37dbfd", "type": "electric_scooter", "lat": 38.908962333333335, "is_reserved": 0, "lon": -77.08666033333333, "fusion_lon": 0.0, "is_disabled": 0, "fusion_lat": 0.0, "bike_id": "5d41d5ac7d67ae183f2699b99d37dbfd", "rental_uris": {"ios": "https://dc.lft.to/lastmile_qr_scan", "android": "https://dc.lft.to/lastmile_qr_scan"}}, {"name": "0a6db1b0ad90920107f141a1a6e0f277", "type": "electric_bike", "lat": 38.8798145, "is_reserved": 0, "lon": -76.91601616666667, "fusion_lon": 0.0, "is_disabled": 0, "fusion_lat": 0.0, "bike_id": "0a6db1b0ad90920107f141a1a6e0f277", "rental_uris": {"ios": "https://dc.lft.to/lastmile_qr_scan", "android": "https://dc.lft.to/lastmile_qr_scan"}}, {"name": "f7827894886d2cd3d06d83cd678cc37a", "type": "electric_scooter", "lat": 38.91706583333333, "is_reserved": 0, "lon": -77.02295133333334, "fusion_lon": 0.0, "is_disabled": 0, "fusion_lat": 0.0, "bike_id": "f7827894886d2cd3d06d83cd678cc37a", "rental_uris": {"ios": "https://dc.lft.to/lastmile_qr_scan", "android": "https://dc.lft.to/lastmile_qr_scan"}}, {"name": "d95a6a9f6e65c53c058887bb5e79766c", "type": "electric_bike", "lat": 38.824439166666664, "is_reserved": 0, "lon": -77.0703995, "fusion_lon": 0.0, "is_disabled": 0, "fusion_lat": 0.0, "bike_id": "d95a6a9f6e65c53c058887bb5e79766c", "rental_uris": {"ios": "https://dc.lft.to/lastmile_qr_scan", "android": "https://dc.lft.to/lastmile_qr_scan"}}, {"name": "a8527dbb558b3b9d2e385568167a9fa2", "type": "electric_scooter", "lat": 38.90364983333333, "is_reserved": 0, "lon": -77.01618366666666, "fusion_lon": 0.0, "is_disabled": 0, "fusion_lat": 0.0, "bike_id": "a8527dbb558b3b9d2e385568167a9fa2", "rental_uris": {"ios": "https://dc.lft.to/lastmile_qr_scan", "android": "https://dc.lft.to/lastmile_qr_scan"}}, {"name": "d95629ef6b476584a266a57938e4ac96", "type": "electric_bike", "lat": 38.9185365, "is_reserved": 0, "lon": -76.9609105, "fusion_lon": 0.0, "is_disabled": 0, "fusion_lat": 0.0, "bike_id": "d95629ef6b476584a266a57938e4ac96", "rental_uris": {"ios": "https://dc.lft.to/lastmile_qr_scan", "android": "https://dc.lft.to/lastmile_qr_scan"}}, {"name": "b94f4b60693208f38e9c0d05366d4368", "type": "electric_scooter", "lat": 38.89917466666667, "is_reserved": 0, "lon": -76.9338395, "fusion_lon": 0.0, "is_disabled": 0, "fusion_lat": 0.0, "bike_id": "b94f4b60693208f38e9c0d05366d4368", "rental_uris": {"ios": "https://dc.lft.to/lastmile_qr_scan", "android": "https://dc.lft.to/lastmile_qr_scan"}}, {"name": "aa6bb559cb80809930d3d08bfac7e60a", "type": "electric_bike", "lat": 38.90667066666666, "is_reserved": 0, "lon": -76.99963833333334, "fusion_lon": 0.0, "is_disabled": 0, "fusion_lat": 0.0, "bike_id": "aa6bb559cb80809930d3d08bfac7e60a", "rental_uris": {"ios": "https://dc.lft.to/lastmile_qr_scan", "android": "https://dc.lft.to/lastmile_qr_scan"}}, {"name": "caad74e241966889340fb76996899743", "type": "electric_bike", "lat": 38.921535, "is_reserved": 0, "lon": -77.03496683333333, "fusion_lon": 0.0, "is_disabled": 0, "fusion_lat": 0.0, "bike_id": "caad74e241966889340fb76996899743", "rental_uris": {"ios": "https://dc.lft.to/lastmile_qr_scan", "android": "https://dc.lft.to/lastmile_qr_scan"}}, {"name": "6bbcccfa97241c7510112ecceb2e8ab7", "type": "electric_scooter", "lat": 38.923205333333335, "is_reserved": 0, "lon": -77.04484833333333, "fusion_lon": 0.0, "is_disabled": 0, "fusion_lat": 0.0, "bike_id": "6bbcccfa97241c7510112ecceb2e8ab7", "rental_uris": {"ios": "https://dc.lft.to/lastmile_qr_scan", "android": "https://dc.lft.to/lastmile_qr_scan"}}, {"name": "090559f143ea9e9951e0c36f890048d4", "type": "electric_scooter", "lat": 38.92234783333333, "is_reserved": 0, "lon": -77.04142116666667, "fusion_lon": 0.0, "is_disabled": 0, "fusion_lat": 0.0, "bike_id": "090559f143ea9e9951e0c36f890048d4", "rental_uris": {"ios": "https://dc.lft.to/lastmile_qr_scan", "android": "https://dc.lft.to/lastmile_qr_scan"}}, {"name": "5b54c892df14eafdd92fd7354616e63d", "type": "electric_scooter", "lat": 38.9149585, "is_reserved": 0, "lon": -77.018515, "fusion_lon": 0.0, "is_disabled": 0, "fusion_lat": 0.0, "bike_id": "5b54c892df14eafdd92fd7354616e63d", "rental_uris": {"ios": "https://dc.lft.to/lastmile_qr_scan", "android": "https://dc.lft.to/lastmile_qr_scan"}}, {"name": "7d68958a59ad5a1b7a4ff91f02c070ae", "type": "electric_scooter", "lat": 38.959086, "is_reserved": 0, "lon": -77.0808105, "fusion_lon": 0.0, "is_disabled": 0, "fusion_lat": 0.0, "bike_id": "7d68958a59ad5a1b7a4ff91f02c070ae", "rental_uris": {"ios": "https://dc.lft.to/lastmile_qr_scan", "android": "https://dc.lft.to/lastmile_qr_scan"}}, {"name": "f9f1969833e26951467b3ceb5b5985f4", "type": "electric_scooter", "lat": 38.892338, "is_reserved": 0, "lon": -77.01279483333333, "fusion_lon": 0.0, "is_disabled": 0, "fusion_lat": 0.0, "bike_id": "f9f1969833e26951467b3ceb5b5985f4", "rental_uris": {"ios": "https://dc.lft.to/lastmile_qr_scan", "android": "https://dc.lft.to/lastmile_qr_scan"}}, {"name": "78b8022414ce487e93a753e7d4a37e13", "type": "electric_scooter", "lat": 38.88026966666666, "is_reserved": 0, "lon": -76.98833816666667, "fusion_lon": 0.0, "is_disabled": 0, "fusion_lat": 0.0, "bike_id": "78b8022414ce487e93a753e7d4a37e13", "rental_uris": {"ios": "https://dc.lft.to/lastmile_qr_scan", "android": "https://dc.lft.to/lastmile_qr_scan"}}, {"name": "26901ec1c8fff2466ea21c8647dddc55", "type": "electric_scooter", "lat": 38.93398166666667, "is_reserved": 0, "lon": -77.03884733333334, "fusion_lon": 0.0, "is_disabled": 0, "fusion_lat": 0.0, "bike_id": "26901ec1c8fff2466ea21c8647dddc55", "rental_uris": {"ios": "https://dc.lft.to/lastmile_qr_scan", "android": "https://dc.lft.to/lastmile_qr_scan"}}, {"name": "7a6b501f5f18a3afc893eb1e704a4792", "type": "electric_scooter", "lat": 38.877025333333336, "is_reserved": 0, "lon": -77.00563033333333, "fusion_lon": 0.0, "is_disabled": 0, "fusion_lat": 0.0, "bike_id": "7a6b501f5f18a3afc893eb1e704a4792", "rental_uris": {"ios": "https://dc.lft.to/lastmile_qr_scan", "android": "https://dc.lft.to/lastmile_qr_scan"}}, {"name": "77b25b8656052acdbf3350d03eb67d91", "type": "electric_scooter", "lat": 38.90527633333333, "is_reserved": 0, "lon": -77.053254, "fusion_lon": 0.0, "is_disabled": 0, "fusion_lat": 0.0, "bike_id": "77b25b8656052acdbf3350d03eb67d91", "rental_uris": {"ios": "https://dc.lft.to/lastmile_qr_scan", "android": "https://dc.lft.to/lastmile_qr_scan"}}, {"name": "7dd88fef3af77f782837f389e352e85a", "type": "electric_scooter", "lat": 38.87126516666667, "is_reserved": 0, "lon": -77.005992, "fusion_lon": 0.0, "is_disabled": 0, "fusion_lat": 0.0, "bike_id": "7dd88fef3af77f782837f389e352e85a", "rental_uris": {"ios": "https://dc.lft.to/lastmile_qr_scan", "android": "https://dc.lft.to/lastmile_qr_scan"}}, {"name": "5d73fe6724a0db99ea6db62ebdeefce7", "type": "electric_bike", "lat": 38.902954666666666, "is_reserved": 0, "lon": -76.94443, "fusion_lon": 0.0, "is_disabled": 0, "fusion_lat": 0.0, "bike_id": "5d73fe6724a0db99ea6db62ebdeefce7", "rental_uris": {"ios": "https://dc.lft.to/lastmile_qr_scan", "android": "https://dc.lft.to/lastmile_qr_scan"}}, {"name": "97639f744169da75d546187aff38121f", "type": "electric_scooter", "lat": 38.905599, "is_reserved": 0, "lon": -77.02171683333333, "fusion_lon": 0.0, "is_disabled": 0, "fusion_lat": 0.0, "bike_id": "97639f744169da75d546187aff38121f", "rental_uris": {"ios": "https://dc.lft.to/lastmile_qr_scan", "android": "https://dc.lft.to/lastmile_qr_scan"}}, {"name": "58441d8eb550584f1185a66821ca7581", "type": "electric_scooter", "lat": 38.9001815, "is_reserved": 0, "lon": -76.99072383333333, "fusion_lon": 0.0, "is_disabled": 0, "fusion_lat": 0.0, "bike_id": "58441d8eb550584f1185a66821ca7581", "rental_uris": {"ios": "https://dc.lft.to/lastmile_qr_scan", "android": "https://dc.lft.to/lastmile_qr_scan"}}, {"name": "dbafa49aa8fc2a9c649a35bd032cfc58", "type": "electric_scooter", "lat": 38.9150145, "is_reserved": 0, "lon": -77.03244283333333, "fusion_lon": 0.0, "is_disabled": 0, "fusion_lat": 0.0, "bike_id": "dbafa49aa8fc2a9c649a35bd032cfc58", "rental_uris": {"ios": "https://dc.lft.to/lastmile_qr_scan", "android": "https://dc.lft.to/lastmile_qr_scan"}}, {"name": "cca75e2ad14dc80be0e5b3f1deb874d5", "type": "electric_scooter", "lat": 38.95528983333333, "is_reserved": 0, "lon": -77.02465566666666, "fusion_lon": 0.0, "is_disabled": 0, "fusion_lat": 0.0, "bike_id": "cca75e2ad14dc80be0e5b3f1deb874d5", "rental_uris": {"ios": "https://dc.lft.to/lastmile_qr_scan", "android": "https://dc.lft.to/lastmile_qr_scan"}}, {"name": "7d8c250c4f9334b9206f70fa2544b78d", "type": "electric_scooter", "lat": 38.91720633333333, "is_reserved": 0, "lon": -77.01867583333333, "fusion_lon": 0.0, "is_disabled": 0, "fusion_lat": 0.0, "bike_id": "7d8c250c4f9334b9206f70fa2544b78d", "rental_uris": {"ios": "https://dc.lft.to/lastmile_qr_scan", "android": "https://dc.lft.to/lastmile_qr_scan"}}, {"name": "019c2d0ff78fe39c542820202154517e", "type": "electric_scooter", "lat": 38.91438983333333, "is_reserved": 0, "lon": -77.00349966666667, "fusion_lon": 0.0, "is_disabled": 0, "fusion_lat": 0.0, "bike_id": "019c2d0ff78fe39c542820202154517e", "rental_uris": {"ios": "https://dc.lft.to/lastmile_qr_scan", "android": "https://dc.lft.to/lastmile_qr_scan"}}, {"name": "d9082b9d1bc4dedcdf1e3a8079578c1d", "type": "electric_scooter", "lat": 38.900313833333335, "is_reserved": 0, "lon": -76.99864033333333, "fusion_lon": 0.0, "is_disabled": 0, "fusion_lat": 0.0, "bike_id": "d9082b9d1bc4dedcdf1e3a8079578c1d", "rental_uris": {"ios": "https://dc.lft.to/lastmile_qr_scan", "android": "https://dc.lft.to/lastmile_qr_scan"}}, {"name": "a3d74049415de7af6d27096776cbbef0", "type": "electric_scooter", "lat": 38.94279516666667, "is_reserved": 0, "lon": -77.02504783333333, "fusion_lon": 0.0, "is_disabled": 0, "fusion_lat": 0.0, "bike_id": "a3d74049415de7af6d27096776cbbef0", "rental_uris": {"ios": "https://dc.lft.to/lastmile_qr_scan", "android": "https://dc.lft.to/lastmile_qr_scan"}}, {"name": "3cc478928220a20cc6adc07d53d398bb", "type": "electric_scooter", "lat": 38.90848966666667, "is_reserved": 0, "lon": -77.085288, "fusion_lon": 0.0, "is_disabled": 0, "fusion_lat": 0.0, "bike_id": "3cc478928220a20cc6adc07d53d398bb", "rental_uris": {"ios": "https://dc.lft.to/lastmile_qr_scan", "android": "https://dc.lft.to/lastmile_qr_scan"}}, {"name": "2789b34538223204c1eb002fe26dada1", "type": "electric_scooter", "lat": 38.90673483333333, "is_reserved": 0, "lon": -77.0270375, "fusion_lon": 0.0, "is_disabled": 0, "fusion_lat": 0.0, "bike_id": "2789b34538223204c1eb002fe26dada1", "rental_uris": {"ios": "https://dc.lft.to/lastmile_qr_scan", "android": "https://dc.lft.to/lastmile_qr_scan"}}, {"name": "0cdb12a1808c20f28d2db708f00eabfb", "type": "electric_scooter", "lat": 38.90565733333333, "is_reserved": 0, "lon": -76.98142983333334, "fusion_lon": 0.0, "is_disabled": 0, "fusion_lat": 0.0, "bike_id": "0cdb12a1808c20f28d2db708f00eabfb", "rental_uris": {"ios": "https://dc.lft.to/lastmile_qr_scan", "android": "https://dc.lft.to/lastmile_qr_scan"}}, {"name": "f4645137f34bc18902b32ef8debdc466", "type": "electric_scooter", "lat": 38.909845833333335, "is_reserved": 0, "lon": -77.00897716666667, "fusion_lon": 0.0, "is_disabled": 0, "fusion_lat": 0.0, "bike_id": "f4645137f34bc18902b32ef8debdc466", "rental_uris": {"ios": "https://dc.lft.to/lastmile_qr_scan", "android": "https://dc.lft.to/lastmile_qr_scan"}}, {"name": "5461926d791737290a7b9236a4279321", "type": "electric_scooter", "lat": 38.897639833333336, "is_reserved": 0, "lon": -77.029513, "fusion_lon": 0.0, "is_disabled": 0, "fusion_lat": 0.0, "bike_id": "5461926d791737290a7b9236a4279321", "rental_uris": {"ios": "https://dc.lft.to/lastmile_qr_scan", "android": "https://dc.lft.to/lastmile_qr_scan"}}, {"name": "4c5d8f37476104f1f0d068d8ee317d15", "type": "electric_scooter", "lat": 38.9288115, "is_reserved": 0, "lon": -77.05456583333333, "fusion_lon": 0.0, "is_disabled": 0, "fusion_lat": 0.0, "bike_id": "4c5d8f37476104f1f0d068d8ee317d15", "rental_uris": {"ios": "https://dc.lft.to/lastmile_qr_scan", "android": "https://dc.lft.to/lastmile_qr_scan"}}, {"name": "79858caf6fccd89d986b0df7c6700a17", "type": "electric_scooter", "lat": 38.89970483333333, "is_reserved": 0, "lon": -76.937699, "fusion_lon": 0.0, "is_disabled": 0, "fusion_lat": 0.0, "bike_id": "79858caf6fccd89d986b0df7c6700a17", "rental_uris": {"ios": "https://dc.lft.to/lastmile_qr_scan", "android": "https://dc.lft.to/lastmile_qr_scan"}}, {"name": "3bc8edefcb785b2d7a82681a3e9d3bad", "type": "electric_scooter", "lat": 38.91874516666667, "is_reserved": 0, "lon": -77.04199966666667, "fusion_lon": 0.0, "is_disabled": 0, "fusion_lat": 0.0, "bike_id": "3bc8edefcb785b2d7a82681a3e9d3bad", "rental_uris": {"ios": "https://dc.lft.to/lastmile_qr_scan", "android": "https://dc.lft.to/lastmile_qr_scan"}}, {"name": "87b4760f910332f5f2d451e0fef7175a", "type": "electric_scooter", "lat": 38.9188365, "is_reserved": 0, "lon": -77.03500483333333, "fusion_lon": 0.0, "is_disabled": 0, "fusion_lat": 0.0, "bike_id": "87b4760f910332f5f2d451e0fef7175a", "rental_uris": {"ios": "https://dc.lft.to/lastmile_qr_scan", "android": "https://dc.lft.to/lastmile_qr_scan"}}, {"name": "19aac0c1ae6382fbdbb5187ad451c1b1", "type": "electric_scooter", "lat": 38.87686383333333, "is_reserved": 0, "lon": -77.0006825, "fusion_lon": 0.0, "is_disabled": 0, "fusion_lat": 0.0, "bike_id": "19aac0c1ae6382fbdbb5187ad451c1b1", "rental_uris": {"ios": "https://dc.lft.to/lastmile_qr_scan", "android": "https://dc.lft.to/lastmile_qr_scan"}}, {"name": "8a55068f15577d3c0e3dd00aca8196e6", "type": "electric_bike", "lat": 38.95908716666667, "is_reserved": 0, "lon": -77.00154066666667, "fusion_lon": 0.0, "is_disabled": 0, "fusion_lat": 0.0, "bike_id": "8a55068f15577d3c0e3dd00aca8196e6", "rental_uris": {"ios": "https://dc.lft.to/lastmile_qr_scan", "android": "https://dc.lft.to/lastmile_qr_scan"}}, {"name": "2767e9f85cd4a03ef61bb4690e3145d6", "type": "electric_scooter", "lat": 38.87230866666667, "is_reserved": 0, "lon": -77.01178666666667, "fusion_lon": 0.0, "is_disabled": 0, "fusion_lat": 0.0, "bike_id": "2767e9f85cd4a03ef61bb4690e3145d6", "rental_uris": {"ios": "https://dc.lft.to/lastmile_qr_scan", "android": "https://dc.lft.to/lastmile_qr_scan"}}, {"name": "0f3aa26507688412def2a6a4d7203b3a", "type": "electric_scooter", "lat": 38.922440333333334, "is_reserved": 0, "lon": -77.03669433333333, "fusion_lon": 0.0, "is_disabled": 0, "fusion_lat": 0.0, "bike_id": "0f3aa26507688412def2a6a4d7203b3a", "rental_uris": {"ios": "https://dc.lft.to/lastmile_qr_scan", "android": "https://dc.lft.to/lastmile_qr_scan"}}, {"name": "0f749535c739a9c30c56f13c33795dde", "type": "electric_scooter", "lat": 38.915695, "is_reserved": 0, "lon": -77.021846, "fusion_lon": 0.0, "is_disabled": 0, "fusion_lat": 0.0, "bike_id": "0f749535c739a9c30c56f13c33795dde", "rental_uris": {"ios": "https://dc.lft.to/lastmile_qr_scan", "android": "https://dc.lft.to/lastmile_qr_scan"}}, {"name": "37c6690eed3284282412be8f0770e124", "type": "electric_scooter", "lat": 38.85449416666667, "is_reserved": 0, "lon": -76.98580433333333, "fusion_lon": 0.0, "is_disabled": 0, "fusion_lat": 0.0, "bike_id": "37c6690eed3284282412be8f0770e124", "rental_uris": {"ios": "https://dc.lft.to/lastmile_qr_scan", "android": "https://dc.lft.to/lastmile_qr_scan"}}, {"name": "8e032d4fed79422f15ab48ff582d1037", "type": "electric_scooter", "lat": 38.9188345, "is_reserved": 0, "lon": -77.043509, "fusion_lon": 0.0, "is_disabled": 0, "fusion_lat": 0.0, "bike_id": "8e032d4fed79422f15ab48ff582d1037", "rental_uris": {"ios": "https://dc.lft.to/lastmile_qr_scan", "android": "https://dc.lft.to/lastmile_qr_scan"}}, {"name": "c8d8c9efb854eb38b960a94b6b243abd", "type": "electric_scooter", "lat": 38.92880483333333, "is_reserved": 0, "lon": -77.03757183333333, "fusion_lon": 0.0, "is_disabled": 0, "fusion_lat": 0.0, "bike_id": "c8d8c9efb854eb38b960a94b6b243abd", "rental_uris": {"ios": "https://dc.lft.to/lastmile_qr_scan", "android": "https://dc.lft.to/lastmile_qr_scan"}}, {"name": "9785439edc732e052ca15d52689453f5", "type": "electric_scooter", "lat": 38.94098316666667, "is_reserved": 0, "lon": -77.02106866666666, "fusion_lon": 0.0, "is_disabled": 0, "fusion_lat": 0.0, "bike_id": "9785439edc732e052ca15d52689453f5", "rental_uris": {"ios": "https://dc.lft.to/lastmile_qr_scan", "android": "https://dc.lft.to/lastmile_qr_scan"}}, {"name": "58b694a44845d5cb592cb3b7797415a3", "type": "electric_scooter", "lat": 38.92476516666667, "is_reserved": 0, "lon": -77.028345, "fusion_lon": 0.0, "is_disabled": 0, "fusion_lat": 0.0, "bike_id": "58b694a44845d5cb592cb3b7797415a3", "rental_uris": {"ios": "https://dc.lft.to/lastmile_qr_scan", "android": "https://dc.lft.to/lastmile_qr_scan"}}, {"name": "9f5a1802d591697434080e4731df1166", "type": "electric_scooter", "lat": 38.87841016666667, "is_reserved": 0, "lon": -77.01967733333333, "fusion_lon": 0.0, "is_disabled": 0, "fusion_lat": 0.0, "bike_id": "9f5a1802d591697434080e4731df1166", "rental_uris": {"ios": "https://dc.lft.to/lastmile_qr_scan", "android": "https://dc.lft.to/lastmile_qr_scan"}}, {"name": "b8bdab317b574c2f50703e90d1519ecf", "type": "electric_scooter", "lat": 38.899303333333336, "is_reserved": 0, "lon": -77.031091, "fusion_lon": 0.0, "is_disabled": 0, "fusion_lat": 0.0, "bike_id": "b8bdab317b574c2f50703e90d1519ecf", "rental_uris": {"ios": "https://dc.lft.to/lastmile_qr_scan", "android": "https://dc.lft.to/lastmile_qr_scan"}}, {"name": "3910f7d363add835ac13b7c69dcf5a4e", "type": "electric_scooter", "lat": 38.89826166666667, "is_reserved": 0, "lon": -76.92640666666667, "fusion_lon": 0.0, "is_disabled": 0, "fusion_lat": 0.0, "bike_id": "3910f7d363add835ac13b7c69dcf5a4e", "rental_uris": {"ios": "https://dc.lft.to/lastmile_qr_scan", "android": "https://dc.lft.to/lastmile_qr_scan"}}, {"name": "5f64f54ebcea0cd4c99a459e796072c6", "type": "electric_scooter", "lat": 38.86698, "is_reserved": 0, "lon": -76.98710416666667, "fusion_lon": 0.0, "is_disabled": 0, "fusion_lat": 0.0, "bike_id": "5f64f54ebcea0cd4c99a459e796072c6", "rental_uris": {"ios": "https://dc.lft.to/lastmile_qr_scan", "android": "https://dc.lft.to/lastmile_qr_scan"}}, {"name": "b5a814c098893803ee78842d3906da69", "type": "electric_scooter", "lat": 38.9067665, "is_reserved": 0, "lon": -77.03821766666667, "fusion_lon": 0.0, "is_disabled": 0, "fusion_lat": 0.0, "bike_id": "b5a814c098893803ee78842d3906da69", "rental_uris": {"ios": "https://dc.lft.to/lastmile_qr_scan", "android": "https://dc.lft.to/lastmile_qr_scan"}}, {"name": "314671697d8faa5cdcafb99b9748cf34", "type": "electric_scooter", "lat": 38.9371655, "is_reserved": 0, "lon": -77.03652216666667, "fusion_lon": 0.0, "is_disabled": 0, "fusion_lat": 0.0, "bike_id": "314671697d8faa5cdcafb99b9748cf34", "rental_uris": {"ios": "https://dc.lft.to/lastmile_qr_scan", "android": "https://dc.lft.to/lastmile_qr_scan"}}, {"name": "7eb247280a13e399f43c2a9749b52e97", "type": "electric_scooter", "lat": 38.89670316666667, "is_reserved": 0, "lon": -77.05400566666667, "fusion_lon": 0.0, "is_disabled": 0, "fusion_lat": 0.0, "bike_id": "7eb247280a13e399f43c2a9749b52e97", "rental_uris": {"ios": "https://dc.lft.to/lastmile_qr_scan", "android": "https://dc.lft.to/lastmile_qr_scan"}}, {"name": "50067ba6e6b7fc05482ee41aae5b15fe", "type": "electric_bike", "lat": 38.990901666666666, "is_reserved": 0, "lon": -76.8749585, "fusion_lon": 0.0, "is_disabled": 0, "fusion_lat": 0.0, "bike_id": "50067ba6e6b7fc05482ee41aae5b15fe", "rental_uris": {"ios": "https://dc.lft.to/lastmile_qr_scan", "android": "https://dc.lft.to/lastmile_qr_scan"}}, {"name": "6bce9b11cc0b0193424e4fac67733eb3", "type": "electric_scooter", "lat": 38.92292033333333, "is_reserved": 0, "lon": -77.02074033333334, "fusion_lon": 0.0, "is_disabled": 0, "fusion_lat": 0.0, "bike_id": "6bce9b11cc0b0193424e4fac67733eb3", "rental_uris": {"ios": "https://dc.lft.to/lastmile_qr_scan", "android": "https://dc.lft.to/lastmile_qr_scan"}}, {"name": "b351675873d3daf684ea7c10680eafc1", "type": "electric_scooter", "lat": 38.913312, "is_reserved": 0, "lon": -77.03042533333333, "fusion_lon": 0.0, "is_disabled": 0, "fusion_lat": 0.0, "bike_id": "b351675873d3daf684ea7c10680eafc1", "rental_uris": {"ios": "https://dc.lft.to/lastmile_qr_scan", "android": "https://dc.lft.to/lastmile_qr_scan"}}, {"name": "7490ae7ee07486d26faad8bce2cc6461", "type": "electric_scooter", "lat": 38.94152483333333, "is_reserved": 0, "lon": -77.036508, "fusion_lon": 0.0, "is_disabled": 0, "fusion_lat": 0.0, "bike_id": "7490ae7ee07486d26faad8bce2cc6461", "rental_uris": {"ios": "https://dc.lft.to/lastmile_qr_scan", "android": "https://dc.lft.to/lastmile_qr_scan"}}, {"name": "678330787e23da6202b6a914159a0370", "type": "electric_scooter", "lat": 38.930960666666664, "is_reserved": 0, "lon": -77.02662883333333, "fusion_lon": 0.0, "is_disabled": 0, "fusion_lat": 0.0, "bike_id": "678330787e23da6202b6a914159a0370", "rental_uris": {"ios": "https://dc.lft.to/lastmile_qr_scan", "android": "https://dc.lft.to/lastmile_qr_scan"}}, {"name": "f6b797303deb59e3696e37a2350c9462", "type": "electric_bike", "lat": 38.905304666666666, "is_reserved": 0, "lon": -76.9981105, "fusion_lon": 0.0, "is_disabled": 0, "fusion_lat": 0.0, "bike_id": "f6b797303deb59e3696e37a2350c9462", "rental_uris": {"ios": "https://dc.lft.to/lastmile_qr_scan", "android": "https://dc.lft.to/lastmile_qr_scan"}}, {"name": "9827f034e6a0948b8eb62fa7453c58d9", "type": "electric_scooter", "lat": 38.899057166666665, "is_reserved": 0, "lon": -77.00699583333333, "fusion_lon": 0.0, "is_disabled": 0, "fusion_lat": 0.0, "bike_id": "9827f034e6a0948b8eb62fa7453c58d9", "rental_uris": {"ios": "https://dc.lft.to/lastmile_qr_scan", "android": "https://dc.lft.to/lastmile_qr_scan"}}, {"name": "e21c72cda803649eaa3b1c97d5b3665e", "type": "electric_scooter", "lat": 38.929457166666666, "is_reserved": 0, "lon": -77.02317483333333, "fusion_lon": 0.0, "is_disabled": 0, "fusion_lat": 0.0, "bike_id": "e21c72cda803649eaa3b1c97d5b3665e", "rental_uris": {"ios": "https://dc.lft.to/lastmile_qr_scan", "android": "https://dc.lft.to/lastmile_qr_scan"}}, {"name": "e7874f395983f56b22ccfb1da8f51627", "type": "electric_scooter", "lat": 38.891804666666665, "is_reserved": 0, "lon": -77.01533216666667, "fusion_lon": 0.0, "is_disabled": 0, "fusion_lat": 0.0, "bike_id": "e7874f395983f56b22ccfb1da8f51627", "rental_uris": {"ios": "https://dc.lft.to/lastmile_qr_scan", "android": "https://dc.lft.to/lastmile_qr_scan"}}, {"name": "835e1ecbfe71e1d8d8744ca6097a7b2a", "type": "electric_scooter", "lat": 38.925835, "is_reserved": 0, "lon": -77.02838883333334, "fusion_lon": 0.0, "is_disabled": 0, "fusion_lat": 0.0, "bike_id": "835e1ecbfe71e1d8d8744ca6097a7b2a", "rental_uris": {"ios": "https://dc.lft.to/lastmile_qr_scan", "android": "https://dc.lft.to/lastmile_qr_scan"}}, {"name": "3242435ede9dcbdf043c0c94b231dc6b", "type": "electric_scooter", "lat": 38.934873, "is_reserved": 0, "lon": -77.03281933333334, "fusion_lon": 0.0, "is_disabled": 0, "fusion_lat": 0.0, "bike_id": "3242435ede9dcbdf043c0c94b231dc6b", "rental_uris": {"ios": "https://dc.lft.to/lastmile_qr_scan", "android": "https://dc.lft.to/lastmile_qr_scan"}}, {"name": "fcc18326210442a298228b04598d4d18", "type": "electric_scooter", "lat": 38.91715383333333, "is_reserved": 0, "lon": -77.03857716666667, "fusion_lon": 0.0, "is_disabled": 0, "fusion_lat": 0.0, "bike_id": "fcc18326210442a298228b04598d4d18", "rental_uris": {"ios": "https://dc.lft.to/lastmile_qr_scan", "android": "https://dc.lft.to/lastmile_qr_scan"}}, {"name": "f3d327f76652b42bd79984483d18ea8b", "type": "electric_scooter", "lat": 38.91689366666667, "is_reserved": 0, "lon": -77.0092475, "fusion_lon": 0.0, "is_disabled": 0, "fusion_lat": 0.0, "bike_id": "f3d327f76652b42bd79984483d18ea8b", "rental_uris": {"ios": "https://dc.lft.to/lastmile_qr_scan", "android": "https://dc.lft.to/lastmile_qr_scan"}}, {"name": "4c889fec13f9905051c449a9a03cf228", "type": "electric_scooter", "lat": 38.91405233333333, "is_reserved": 0, "lon": -77.008055, "fusion_lon": 0.0, "is_disabled": 0, "fusion_lat": 0.0, "bike_id": "4c889fec13f9905051c449a9a03cf228", "rental_uris": {"ios": "https://dc.lft.to/lastmile_qr_scan", "android": "https://dc.lft.to/lastmile_qr_scan"}}, {"name": "c287bb0c12e66a6371f02ee7f5da1baa", "type": "electric_bike", "lat": 38.861602, "is_reserved": 0, "lon": -77.13093683333334, "fusion_lon": 0.0, "is_disabled": 0, "fusion_lat": 0.0, "bike_id": "c287bb0c12e66a6371f02ee7f5da1baa", "rental_uris": {"ios": "https://dc.lft.to/lastmile_qr_scan", "android": "https://dc.lft.to/lastmile_qr_scan"}}, {"name": "4cf6e7706af7f1a66d69e2553fd4a7e4", "type": "electric_scooter", "lat": 38.896080166666664, "is_reserved": 0, "lon": -77.027313, "fusion_lon": 0.0, "is_disabled": 0, "fusion_lat": 0.0, "bike_id": "4cf6e7706af7f1a66d69e2553fd4a7e4", "rental_uris": {"ios": "https://dc.lft.to/lastmile_qr_scan", "android": "https://dc.lft.to/lastmile_qr_scan"}}, {"name": "613748ad43ecf5b5333d131ef0adb892", "type": "electric_scooter", "lat": 38.90032033333333, "is_reserved": 0, "lon": -76.998597, "fusion_lon": 0.0, "is_disabled": 0, "fusion_lat": 0.0, "bike_id": "613748ad43ecf5b5333d131ef0adb892", "rental_uris": {"ios": "https://dc.lft.to/lastmile_qr_scan", "android": "https://dc.lft.to/lastmile_qr_scan"}}, {"name": "6bfd80c15ec874d74fd479f4c0c62c69", "type": "electric_scooter", "lat": 38.90237366666667, "is_reserved": 0, "lon": -76.97412616666666, "fusion_lon": 0.0, "is_disabled": 0, "fusion_lat": 0.0, "bike_id": "6bfd80c15ec874d74fd479f4c0c62c69", "rental_uris": {"ios": "https://dc.lft.to/lastmile_qr_scan", "android": "https://dc.lft.to/lastmile_qr_scan"}}, {"name": "4f420f882fbe6a89eb48ea36313cdb9e", "type": "electric_scooter", "lat": 38.887163, "is_reserved": 0, "lon": -77.01776783333334, "fusion_lon": 0.0, "is_disabled": 0, "fusion_lat": 0.0, "bike_id": "4f420f882fbe6a89eb48ea36313cdb9e", "rental_uris": {"ios": "https://dc.lft.to/lastmile_qr_scan", "android": "https://dc.lft.to/lastmile_qr_scan"}}, {"name": "76e3b6382646f4315513ef6d33d5e0f9", "type": "electric_scooter", "lat": 38.928599, "is_reserved": 0, "lon": -77.0260955, "fusion_lon": 0.0, "is_disabled": 0, "fusion_lat": 0.0, "bike_id": "76e3b6382646f4315513ef6d33d5e0f9", "rental_uris": {"ios": "https://dc.lft.to/lastmile_qr_scan", "android": "https://dc.lft.to/lastmile_qr_scan"}}, {"name": "e80fc56bc1158a86e72ee92645a1e0ad", "type": "electric_scooter", "lat": 38.93535883333333, "is_reserved": 0, "lon": -77.0330795, "fusion_lon": 0.0, "is_disabled": 0, "fusion_lat": 0.0, "bike_id": "e80fc56bc1158a86e72ee92645a1e0ad", "rental_uris": {"ios": "https://dc.lft.to/lastmile_qr_scan", "android": "https://dc.lft.to/lastmile_qr_scan"}}, {"name": "9be5236bf94baa2549c2da6206cef146", "type": "electric_scooter", "lat": 38.90277866666667, "is_reserved": 0, "lon": -77.03833666666667, "fusion_lon": 0.0, "is_disabled": 0, "fusion_lat": 0.0, "bike_id": "9be5236bf94baa2549c2da6206cef146", "rental_uris": {"ios": "https://dc.lft.to/lastmile_qr_scan", "android": "https://dc.lft.to/lastmile_qr_scan"}}, {"name": "e06c07a2fc0f4d46b4b268af572a7325", "type": "electric_scooter", "lat": 38.92123466666666, "is_reserved": 0, "lon": -77.036587, "fusion_lon": 0.0, "is_disabled": 0, "fusion_lat": 0.0, "bike_id": "e06c07a2fc0f4d46b4b268af572a7325", "rental_uris": {"ios": "https://dc.lft.to/lastmile_qr_scan", "android": "https://dc.lft.to/lastmile_qr_scan"}}, {"name": "27efc87f26ce6937884b6f9aeef5b765", "type": "electric_scooter", "lat": 38.901119333333334, "is_reserved": 0, "lon": -77.04987983333334, "fusion_lon": 0.0, "is_disabled": 0, "fusion_lat": 0.0, "bike_id": "27efc87f26ce6937884b6f9aeef5b765", "rental_uris": {"ios": "https://dc.lft.to/lastmile_qr_scan", "android": "https://dc.lft.to/lastmile_qr_scan"}}, {"name": "f501125160947cf9afa61966ec054078", "type": "electric_scooter", "lat": 38.8993835, "is_reserved": 0, "lon": -77.02994233333334, "fusion_lon": 0.0, "is_disabled": 0, "fusion_lat": 0.0, "bike_id": "f501125160947cf9afa61966ec054078", "rental_uris": {"ios": "https://dc.lft.to/lastmile_qr_scan", "android": "https://dc.lft.to/lastmile_qr_scan"}}, {"name": "a6ab5d6459517e58e2a7fb0cf4115975", "type": "electric_scooter", "lat": 38.91912516666667, "is_reserved": 0, "lon": -77.03008416666667, "fusion_lon": 0.0, "is_disabled": 0, "fusion_lat": 0.0, "bike_id": "a6ab5d6459517e58e2a7fb0cf4115975", "rental_uris": {"ios": "https://dc.lft.to/lastmile_qr_scan", "android": "https://dc.lft.to/lastmile_qr_scan"}}, {"name": "3fbe1af0e0f6ad7220d40960422221a0", "type": "electric_bike", "lat": 38.8524335, "is_reserved": 0, "lon": -77.11424933333333, "fusion_lon": 0.0, "is_disabled": 0, "fusion_lat": 0.0, "bike_id": "3fbe1af0e0f6ad7220d40960422221a0", "rental_uris": {"ios": "https://dc.lft.to/lastmile_qr_scan", "android": "https://dc.lft.to/lastmile_qr_scan"}}, {"name": "496c97fb41143657cf67957c5758dec1", "type": "electric_scooter", "lat": 38.8429095, "is_reserved": 0, "lon": -76.99943283333333, "fusion_lon": 0.0, "is_disabled": 0, "fusion_lat": 0.0, "bike_id": "496c97fb41143657cf67957c5758dec1", "rental_uris": {"ios": "https://dc.lft.to/lastmile_qr_scan", "android": "https://dc.lft.to/lastmile_qr_scan"}}, {"name": "bc34f29a30ae5781ffc5eda854c833a8", "type": "electric_scooter", "lat": 38.927444333333334, "is_reserved": 0, "lon": -77.05401383333333, "fusion_lon": 0.0, "is_disabled": 0, "fusion_lat": 0.0, "bike_id": "bc34f29a30ae5781ffc5eda854c833a8", "rental_uris": {"ios": "https://dc.lft.to/lastmile_qr_scan", "android": "https://dc.lft.to/lastmile_qr_scan"}}, {"name": "c3f78355e24aacbba2361889f9bb1985", "type": "electric_scooter", "lat": 38.96726833333334, "is_reserved": 0, "lon": -77.02348033333334, "fusion_lon": 0.0, "is_disabled": 0, "fusion_lat": 0.0, "bike_id": "c3f78355e24aacbba2361889f9bb1985", "rental_uris": {"ios": "https://dc.lft.to/lastmile_qr_scan", "android": "https://dc.lft.to/lastmile_qr_scan"}}, {"name": "73df344b34bf24718f94da67f6aecde8", "type": "electric_scooter", "lat": 38.9045165, "is_reserved": 0, "lon": -77.0417925, "fusion_lon": 0.0, "is_disabled": 0, "fusion_lat": 0.0, "bike_id": "73df344b34bf24718f94da67f6aecde8", "rental_uris": {"ios": "https://dc.lft.to/lastmile_qr_scan", "android": "https://dc.lft.to/lastmile_qr_scan"}}, {"name": "66c328a7ba8a35eaee15ef30e0311d93", "type": "electric_scooter", "lat": 38.922077, "is_reserved": 0, "lon": -77.0424555, "fusion_lon": 0.0, "is_disabled": 0, "fusion_lat": 0.0, "bike_id": "66c328a7ba8a35eaee15ef30e0311d93", "rental_uris": {"ios": "https://dc.lft.to/lastmile_qr_scan", "android": "https://dc.lft.to/lastmile_qr_scan"}}, {"name": "e6e36518e0b94f5d6fba74b420c0c2d3", "type": "electric_scooter", "lat": 38.886106, "is_reserved": 0, "lon": -76.995116, "fusion_lon": 0.0, "is_disabled": 0, "fusion_lat": 0.0, "bike_id": "e6e36518e0b94f5d6fba74b420c0c2d3", "rental_uris": {"ios": "https://dc.lft.to/lastmile_qr_scan", "android": "https://dc.lft.to/lastmile_qr_scan"}}, {"name": "5b8d1eac53df83cb90fa487b242b186b", "type": "electric_scooter", "lat": 38.88220666666667, "is_reserved": 0, "lon": -76.9417905, "fusion_lon": 0.0, "is_disabled": 0, "fusion_lat": 0.0, "bike_id": "5b8d1eac53df83cb90fa487b242b186b", "rental_uris": {"ios": "https://dc.lft.to/lastmile_qr_scan", "android": "https://dc.lft.to/lastmile_qr_scan"}}, {"name": "ccff492fcebe322a8e684f279fb8f1c2", "type": "electric_scooter", "lat": 38.905546, "is_reserved": 0, "lon": -77.00578283333333, "fusion_lon": 0.0, "is_disabled": 0, "fusion_lat": 0.0, "bike_id": "ccff492fcebe322a8e684f279fb8f1c2", "rental_uris": {"ios": "https://dc.lft.to/lastmile_qr_scan", "android": "https://dc.lft.to/lastmile_qr_scan"}}, {"name": "1e97ea2ea4e1769a6c34372b69f92f1f", "type": "electric_scooter", "lat": 38.902459666666665, "is_reserved": 0, "lon": -77.03187433333333, "fusion_lon": 0.0, "is_disabled": 0, "fusion_lat": 0.0, "bike_id": "1e97ea2ea4e1769a6c34372b69f92f1f", "rental_uris": {"ios": "https://dc.lft.to/lastmile_qr_scan", "android": "https://dc.lft.to/lastmile_qr_scan"}}, {"name": "21940f5d02d4aa46750915853cf3c434", "type": "electric_scooter", "lat": 38.92968583333333, "is_reserved": 0, "lon": -77.023398, "fusion_lon": 0.0, "is_disabled": 0, "fusion_lat": 0.0, "bike_id": "21940f5d02d4aa46750915853cf3c434", "rental_uris": {"ios": "https://dc.lft.to/lastmile_qr_scan", "android": "https://dc.lft.to/lastmile_qr_scan"}}, {"name": "0eceed532369fe91a660f44a933f1dea", "type": "electric_scooter", "lat": 38.9072415, "is_reserved": 0, "lon": -77.01131766666667, "fusion_lon": 0.0, "is_disabled": 0, "fusion_lat": 0.0, "bike_id": "0eceed532369fe91a660f44a933f1dea", "rental_uris": {"ios": "https://dc.lft.to/lastmile_qr_scan", "android": "https://dc.lft.to/lastmile_qr_scan"}}, {"name": "fc6507a14c904cbf65ba7159378fb258", "type": "electric_scooter", "lat": 38.9033535, "is_reserved": 0, "lon": -76.9897665, "fusion_lon": 0.0, "is_disabled": 0, "fusion_lat": 0.0, "bike_id": "fc6507a14c904cbf65ba7159378fb258", "rental_uris": {"ios": "https://dc.lft.to/lastmile_qr_scan", "android": "https://dc.lft.to/lastmile_qr_scan"}}, {"name": "5b66ae4020b6337fce3d59b77547fccc", "type": "electric_scooter", "lat": 38.921503666666666, "is_reserved": 0, "lon": -77.033834, "fusion_lon": 0.0, "is_disabled": 0, "fusion_lat": 0.0, "bike_id": "5b66ae4020b6337fce3d59b77547fccc", "rental_uris": {"ios": "https://dc.lft.to/lastmile_qr_scan", "android": "https://dc.lft.to/lastmile_qr_scan"}}, {"name": "0bc5950cdf21a5718273058d33869900", "type": "electric_bike", "lat": 38.91357433333334, "is_reserved": 0, "lon": -77.02876116666667, "fusion_lon": 0.0, "is_disabled": 0, "fusion_lat": 0.0, "bike_id": "0bc5950cdf21a5718273058d33869900", "rental_uris": {"ios": "https://dc.lft.to/lastmile_qr_scan", "android": "https://dc.lft.to/lastmile_qr_scan"}}, {"name": "69062824a142dd6278367a5c96db3ab2", "type": "electric_bike", "lat": 39.03042516666667, "is_reserved": 0, "lon": -77.09480916666666, "fusion_lon": 0.0, "is_disabled": 0, "fusion_lat": 0.0, "bike_id": "69062824a142dd6278367a5c96db3ab2", "rental_uris": {"ios": "https://dc.lft.to/lastmile_qr_scan", "android": "https://dc.lft.to/lastmile_qr_scan"}}, {"name": "0dd324ddde9fb15a6644e2481a8ff4af", "type": "electric_scooter", "lat": 38.905454666666664, "is_reserved": 0, "lon": -77.00574733333333, "fusion_lon": 0.0, "is_disabled": 0, "fusion_lat": 0.0, "bike_id": "0dd324ddde9fb15a6644e2481a8ff4af", "rental_uris": {"ios": "https://dc.lft.to/lastmile_qr_scan", "android": "https://dc.lft.to/lastmile_qr_scan"}}, {"name": "868bca306d0a4449abac3ac5bd91483c", "type": "electric_bike", "lat": 38.970621666666666, "is_reserved": 0, "lon": -76.93611066666666, "fusion_lon": 0.0, "is_disabled": 0, "fusion_lat": 0.0, "bike_id": "868bca306d0a4449abac3ac5bd91483c", "rental_uris": {"ios": "https://dc.lft.to/lastmile_qr_scan", "android": "https://dc.lft.to/lastmile_qr_scan"}}, {"name": "8e7c93940bf06eed4d09e20a6fad0efa", "type": "electric_scooter", "lat": 38.918449, "is_reserved": 0, "lon": -77.06147166666666, "fusion_lon": 0.0, "is_disabled": 0, "fusion_lat": 0.0, "bike_id": "8e7c93940bf06eed4d09e20a6fad0efa", "rental_uris": {"ios": "https://dc.lft.to/lastmile_qr_scan", "android": "https://dc.lft.to/lastmile_qr_scan"}}, {"name": "dcd2c76cfd77ea2553b0b70b6fd24acf", "type": "electric_scooter", "lat": 38.905259, "is_reserved": 0, "lon": -77.05190883333333, "fusion_lon": 0.0, "is_disabled": 0, "fusion_lat": 0.0, "bike_id": "dcd2c76cfd77ea2553b0b70b6fd24acf", "rental_uris": {"ios": "https://dc.lft.to/lastmile_qr_scan", "android": "https://dc.lft.to/lastmile_qr_scan"}}, {"name": "155b6d0c7ba2006efbed15c0162a373d", "type": "electric_bike", "lat": 38.8968465, "is_reserved": 0, "lon": -77.02417533333333, "fusion_lon": 0.0, "is_disabled": 0, "fusion_lat": 0.0, "bike_id": "155b6d0c7ba2006efbed15c0162a373d", "rental_uris": {"ios": "https://dc.lft.to/lastmile_qr_scan", "android": "https://dc.lft.to/lastmile_qr_scan"}}, {"name": "c0743c8bb8a17e8beb1e7f754d22118d", "type": "electric_scooter", "lat": 38.91549, "is_reserved": 0, "lon": -77.03852766666667, "fusion_lon": 0.0, "is_disabled": 0, "fusion_lat": 0.0, "bike_id": "c0743c8bb8a17e8beb1e7f754d22118d", "rental_uris": {"ios": "https://dc.lft.to/lastmile_qr_scan", "android": "https://dc.lft.to/lastmile_qr_scan"}}, {"name": "78058338f6c40befdf0a8a9817dab3b6", "type": "electric_scooter", "lat": 38.931121166666664, "is_reserved": 0, "lon": -77.03839216666667, "fusion_lon": 0.0, "is_disabled": 0, "fusion_lat": 0.0, "bike_id": "78058338f6c40befdf0a8a9817dab3b6", "rental_uris": {"ios": "https://dc.lft.to/lastmile_qr_scan", "android": "https://dc.lft.to/lastmile_qr_scan"}}, {"name": "53e64c842022293977acf59abf8f8db2", "type": "electric_scooter", "lat": 38.904327, "is_reserved": 0, "lon": -77.02849416666666, "fusion_lon": 0.0, "is_disabled": 0, "fusion_lat": 0.0, "bike_id": "53e64c842022293977acf59abf8f8db2", "rental_uris": {"ios": "https://dc.lft.to/lastmile_qr_scan", "android": "https://dc.lft.to/lastmile_qr_scan"}}, {"name": "377834da28a00a354ba545939dd40356", "type": "electric_scooter", "lat": 38.923673, "is_reserved": 0, "lon": -77.05043716666667, "fusion_lon": 0.0, "is_disabled": 0, "fusion_lat": 0.0, "bike_id": "377834da28a00a354ba545939dd40356", "rental_uris": {"ios": "https://dc.lft.to/lastmile_qr_scan", "android": "https://dc.lft.to/lastmile_qr_scan"}}, {"name": "ad6296f6d2f1b5141bb0cbb62a6d12d3", "type": "electric_scooter", "lat": 38.91100516666667, "is_reserved": 0, "lon": -77.04669483333333, "fusion_lon": 0.0, "is_disabled": 0, "fusion_lat": 0.0, "bike_id": "ad6296f6d2f1b5141bb0cbb62a6d12d3", "rental_uris": {"ios": "https://dc.lft.to/lastmile_qr_scan", "android": "https://dc.lft.to/lastmile_qr_scan"}}, {"name": "a5effbe33b5ba2d5d0993b9396ab8b7a", "type": "electric_scooter", "lat": 38.9007015, "is_reserved": 0, "lon": -77.02604916666667, "fusion_lon": 0.0, "is_disabled": 0, "fusion_lat": 0.0, "bike_id": "a5effbe33b5ba2d5d0993b9396ab8b7a", "rental_uris": {"ios": "https://dc.lft.to/lastmile_qr_scan", "android": "https://dc.lft.to/lastmile_qr_scan"}}, {"name": "785bc5c6ff80ddb742045b12bc605905", "type": "electric_scooter", "lat": 38.90334883333333, "is_reserved": 0, "lon": -77.0382765, "fusion_lon": 0.0, "is_disabled": 0, "fusion_lat": 0.0, "bike_id": "785bc5c6ff80ddb742045b12bc605905", "rental_uris": {"ios": "https://dc.lft.to/lastmile_qr_scan", "android": "https://dc.lft.to/lastmile_qr_scan"}}, {"name": "63543c1c5e5e5c748a408cdb02d40567", "type": "electric_scooter", "lat": 38.91571616666667, "is_reserved": 0, "lon": -77.04674166666666, "fusion_lon": 0.0, "is_disabled": 0, "fusion_lat": 0.0, "bike_id": "63543c1c5e5e5c748a408cdb02d40567", "rental_uris": {"ios": "https://dc.lft.to/lastmile_qr_scan", "android": "https://dc.lft.to/lastmile_qr_scan"}}, {"name": "d249c812146b136283f2c620ae4694dd", "type": "electric_scooter", "lat": 38.927995, "is_reserved": 0, "lon": -77.043497, "fusion_lon": 0.0, "is_disabled": 0, "fusion_lat": 0.0, "bike_id": "d249c812146b136283f2c620ae4694dd", "rental_uris": {"ios": "https://dc.lft.to/lastmile_qr_scan", "android": "https://dc.lft.to/lastmile_qr_scan"}}, {"name": "f0c40dcb1b591066f681f7109d97e7ff", "type": "electric_scooter", "lat": 38.9493765, "is_reserved": 0, "lon": -77.01617716666667, "fusion_lon": 0.0, "is_disabled": 0, "fusion_lat": 0.0, "bike_id": "f0c40dcb1b591066f681f7109d97e7ff", "rental_uris": {"ios": "https://dc.lft.to/lastmile_qr_scan", "android": "https://dc.lft.to/lastmile_qr_scan"}}, {"name": "26e344d88e961fa8223e769bb1e47708", "type": "electric_scooter", "lat": 38.88411583333333, "is_reserved": 0, "lon": -77.0152065, "fusion_lon": 0.0, "is_disabled": 0, "fusion_lat": 0.0, "bike_id": "26e344d88e961fa8223e769bb1e47708", "rental_uris": {"ios": "https://dc.lft.to/lastmile_qr_scan", "android": "https://dc.lft.to/lastmile_qr_scan"}}, {"name": "edfa9490b4a00213698aac01bfe46236", "type": "electric_scooter", "lat": 38.924473666666664, "is_reserved": 0, "lon": -77.03351533333333, "fusion_lon": 0.0, "is_disabled": 0, "fusion_lat": 0.0, "bike_id": "edfa9490b4a00213698aac01bfe46236", "rental_uris": {"ios": "https://dc.lft.to/lastmile_qr_scan", "android": "https://dc.lft.to/lastmile_qr_scan"}}, {"name": "429e676da3948ff903ea32c8221c9070", "type": "electric_scooter", "lat": 38.9056645, "is_reserved": 0, "lon": -77.04873616666667, "fusion_lon": 0.0, "is_disabled": 0, "fusion_lat": 0.0, "bike_id": "429e676da3948ff903ea32c8221c9070", "rental_uris": {"ios": "https://dc.lft.to/lastmile_qr_scan", "android": "https://dc.lft.to/lastmile_qr_scan"}}, {"name": "6480688b6c9656ae4998c4171c9106a5", "type": "electric_bike", "lat": 38.99090133333333, "is_reserved": 0, "lon": -76.87498283333333, "fusion_lon": 0.0, "is_disabled": 0, "fusion_lat": 0.0, "bike_id": "6480688b6c9656ae4998c4171c9106a5", "rental_uris": {"ios": "https://dc.lft.to/lastmile_qr_scan", "android": "https://dc.lft.to/lastmile_qr_scan"}}, {"name": "811149b1992e7141a8f49f8df890f4fe", "type": "electric_scooter", "lat": 38.900217, "is_reserved": 0, "lon": -77.01116766666667, "fusion_lon": 0.0, "is_disabled": 0, "fusion_lat": 0.0, "bike_id": "811149b1992e7141a8f49f8df890f4fe", "rental_uris": {"ios": "https://dc.lft.to/lastmile_qr_scan", "android": "https://dc.lft.to/lastmile_qr_scan"}}, {"name": "73e0d24d7dce4744aeb48ff0515c2493", "type": "electric_bike", "lat": 38.828693333333334, "is_reserved": 0, "lon": -77.11226616666667, "fusion_lon": 0.0, "is_disabled": 0, "fusion_lat": 0.0, "bike_id": "73e0d24d7dce4744aeb48ff0515c2493", "rental_uris": {"ios": "https://dc.lft.to/lastmile_qr_scan", "android": "https://dc.lft.to/lastmile_qr_scan"}}, {"name": "be24500086dcb76e11fa6ef0a8347576", "type": "electric_scooter", "lat": 38.89231183333333, "is_reserved": 0, "lon": -77.02205516666666, "fusion_lon": 0.0, "is_disabled": 0, "fusion_lat": 0.0, "bike_id": "be24500086dcb76e11fa6ef0a8347576", "rental_uris": {"ios": "https://dc.lft.to/lastmile_qr_scan", "android": "https://dc.lft.to/lastmile_qr_scan"}}, {"name": "21d14c4431f6d70617a22805adb925f4", "type": "electric_scooter", "lat": 38.917142, "is_reserved": 0, "lon": -77.03859166666666, "fusion_lon": 0.0, "is_disabled": 0, "fusion_lat": 0.0, "bike_id": "21d14c4431f6d70617a22805adb925f4", "rental_uris": {"ios": "https://dc.lft.to/lastmile_qr_scan", "android": "https://dc.lft.to/lastmile_qr_scan"}}, {"name": "5d1740aa1068f91b541c25bf56b62b87", "type": "electric_scooter", "lat": 38.905380666666666, "is_reserved": 0, "lon": -77.05933833333333, "fusion_lon": 0.0, "is_disabled": 0, "fusion_lat": 0.0, "bike_id": "5d1740aa1068f91b541c25bf56b62b87", "rental_uris": {"ios": "https://dc.lft.to/lastmile_qr_scan", "android": "https://dc.lft.to/lastmile_qr_scan"}}, {"name": "50cb827bf044393a7c3cb444dcf4fd20", "type": "electric_scooter", "lat": 38.91918866666666, "is_reserved": 0, "lon": -77.03113816666666, "fusion_lon": 0.0, "is_disabled": 0, "fusion_lat": 0.0, "bike_id": "50cb827bf044393a7c3cb444dcf4fd20", "rental_uris": {"ios": "https://dc.lft.to/lastmile_qr_scan", "android": "https://dc.lft.to/lastmile_qr_scan"}}, {"name": "d77b6e64ce64cd0814ff17fe25792230", "type": "electric_scooter", "lat": 38.8763395, "is_reserved": 0, "lon": -77.0091455, "fusion_lon": 0.0, "is_disabled": 0, "fusion_lat": 0.0, "bike_id": "d77b6e64ce64cd0814ff17fe25792230", "rental_uris": {"ios": "https://dc.lft.to/lastmile_qr_scan", "android": "https://dc.lft.to/lastmile_qr_scan"}}, {"name": "7cf660e176cc9e67ea64bd10f25a9402", "type": "electric_scooter", "lat": 38.8933035, "is_reserved": 0, "lon": -76.9299245, "fusion_lon": 0.0, "is_disabled": 0, "fusion_lat": 0.0, "bike_id": "7cf660e176cc9e67ea64bd10f25a9402", "rental_uris": {"ios": "https://dc.lft.to/lastmile_qr_scan", "android": "https://dc.lft.to/lastmile_qr_scan"}}, {"name": "1318f19cfb6c67497da1a4b78c23922c", "type": "electric_scooter", "lat": 38.922846166666666, "is_reserved": 0, "lon": -77.03663433333334, "fusion_lon": 0.0, "is_disabled": 0, "fusion_lat": 0.0, "bike_id": "1318f19cfb6c67497da1a4b78c23922c", "rental_uris": {"ios": "https://dc.lft.to/lastmile_qr_scan", "android": "https://dc.lft.to/lastmile_qr_scan"}}, {"name": "4be5f8eb908526fd481a2e3bfc613917", "type": "electric_scooter", "lat": 38.907615, "is_reserved": 0, "lon": -77.03072166666666, "fusion_lon": 0.0, "is_disabled": 0, "fusion_lat": 0.0, "bike_id": "4be5f8eb908526fd481a2e3bfc613917", "rental_uris": {"ios": "https://dc.lft.to/lastmile_qr_scan", "android": "https://dc.lft.to/lastmile_qr_scan"}}, {"name": "21528c9e50cab97971a44493c0034a06", "type": "electric_scooter", "lat": 38.8860765, "is_reserved": 0, "lon": -76.995076, "fusion_lon": 0.0, "is_disabled": 0, "fusion_lat": 0.0, "bike_id": "21528c9e50cab97971a44493c0034a06", "rental_uris": {"ios": "https://dc.lft.to/lastmile_qr_scan", "android": "https://dc.lft.to/lastmile_qr_scan"}}, {"name": "4015667927cc966b2245e14ffff98c68", "type": "electric_scooter", "lat": 38.93667083333333, "is_reserved": 0, "lon": -77.03694433333334, "fusion_lon": 0.0, "is_disabled": 0, "fusion_lat": 0.0, "bike_id": "4015667927cc966b2245e14ffff98c68", "rental_uris": {"ios": "https://dc.lft.to/lastmile_qr_scan", "android": "https://dc.lft.to/lastmile_qr_scan"}}, {"name": "e6fce2a540f91360258fcb77c5910882", "type": "electric_scooter", "lat": 38.921575833333335, "is_reserved": 0, "lon": -77.03858483333333, "fusion_lon": 0.0, "is_disabled": 0, "fusion_lat": 0.0, "bike_id": "e6fce2a540f91360258fcb77c5910882", "rental_uris": {"ios": "https://dc.lft.to/lastmile_qr_scan", "android": "https://dc.lft.to/lastmile_qr_scan"}}, {"name": "bce6cfd4fd7790a5986560abc6a9c53a", "type": "electric_scooter", "lat": 38.899835, "is_reserved": 0, "lon": -76.99146133333333, "fusion_lon": 0.0, "is_disabled": 0, "fusion_lat": 0.0, "bike_id": "bce6cfd4fd7790a5986560abc6a9c53a", "rental_uris": {"ios": "https://dc.lft.to/lastmile_qr_scan", "android": "https://dc.lft.to/lastmile_qr_scan"}}, {"name": "d1a8b703b9a1e16505df59956f93f55d", "type": "electric_scooter", "lat": 38.904819, "is_reserved": 0, "lon": -77.02705966666667, "fusion_lon": 0.0, "is_disabled": 0, "fusion_lat": 0.0, "bike_id": "d1a8b703b9a1e16505df59956f93f55d", "rental_uris": {"ios": "https://dc.lft.to/lastmile_qr_scan", "android": "https://dc.lft.to/lastmile_qr_scan"}}, {"name": "b332da3184572d263fdd844fa84514ba", "type": "electric_scooter", "lat": 38.8762735, "is_reserved": 0, "lon": -76.96526966666667, "fusion_lon": 0.0, "is_disabled": 0, "fusion_lat": 0.0, "bike_id": "b332da3184572d263fdd844fa84514ba", "rental_uris": {"ios": "https://dc.lft.to/lastmile_qr_scan", "android": "https://dc.lft.to/lastmile_qr_scan"}}, {"name": "85ff11648ee80995809df31fd8ffc490", "type": "electric_scooter", "lat": 38.905269, "is_reserved": 0, "lon": -77.04989716666667, "fusion_lon": 0.0, "is_disabled": 0, "fusion_lat": 0.0, "bike_id": "85ff11648ee80995809df31fd8ffc490", "rental_uris": {"ios": "https://dc.lft.to/lastmile_qr_scan", "android": "https://dc.lft.to/lastmile_qr_scan"}}, {"name": "956529a0821dd584f310b9d241aa01d1", "type": "electric_bike", "lat": 38.94148933333334, "is_reserved": 0, "lon": -77.00193933333334, "fusion_lon": 0.0, "is_disabled": 0, "fusion_lat": 0.0, "bike_id": "956529a0821dd584f310b9d241aa01d1", "rental_uris": {"ios": "https://dc.lft.to/lastmile_qr_scan", "android": "https://dc.lft.to/lastmile_qr_scan"}}, {"name": "0ca5256f5bba399c12ca4f0612f45a16", "type": "electric_bike", "lat": 38.879813166666665, "is_reserved": 0, "lon": -76.9159915, "fusion_lon": 0.0, "is_disabled": 0, "fusion_lat": 0.0, "bike_id": "0ca5256f5bba399c12ca4f0612f45a16", "rental_uris": {"ios": "https://dc.lft.to/lastmile_qr_scan", "android": "https://dc.lft.to/lastmile_qr_scan"}}, {"name": "ab13fd05c2296afb27686c64ec852f06", "type": "electric_scooter", "lat": 38.92537133333333, "is_reserved": 0, "lon": -77.0557565, "fusion_lon": 0.0, "is_disabled": 0, "fusion_lat": 0.0, "bike_id": "ab13fd05c2296afb27686c64ec852f06", "rental_uris": {"ios": "https://dc.lft.to/lastmile_qr_scan", "android": "https://dc.lft.to/lastmile_qr_scan"}}, {"name": "9cedd80690a6fa89d72c4b787500e59c", "type": "electric_scooter", "lat": 38.91587416666667, "is_reserved": 0, "lon": -77.04479066666667, "fusion_lon": 0.0, "is_disabled": 0, "fusion_lat": 0.0, "bike_id": "9cedd80690a6fa89d72c4b787500e59c", "rental_uris": {"ios": "https://dc.lft.to/lastmile_qr_scan", "android": "https://dc.lft.to/lastmile_qr_scan"}}, {"name": "e81e559c4434ed0ce80cc0746f908e25", "type": "electric_scooter", "lat": 38.935825333333334, "is_reserved": 0, "lon": -76.991027, "fusion_lon": 0.0, "is_disabled": 0, "fusion_lat": 0.0, "bike_id": "e81e559c4434ed0ce80cc0746f908e25", "rental_uris": {"ios": "https://dc.lft.to/lastmile_qr_scan", "android": "https://dc.lft.to/lastmile_qr_scan"}}, {"name": "5e57c96417e1aa63b5c426a814388d93", "type": "electric_scooter", "lat": 38.926919833333336, "is_reserved": 0, "lon": -77.09561583333333, "fusion_lon": 0.0, "is_disabled": 0, "fusion_lat": 0.0, "bike_id": "5e57c96417e1aa63b5c426a814388d93", "rental_uris": {"ios": "https://dc.lft.to/lastmile_qr_scan", "android": "https://dc.lft.to/lastmile_qr_scan"}}, {"name": "966bf37b4d90318e50223599db4760b5", "type": "electric_scooter", "lat": 38.9224065, "is_reserved": 0, "lon": -77.0333815, "fusion_lon": 0.0, "is_disabled": 0, "fusion_lat": 0.0, "bike_id": "966bf37b4d90318e50223599db4760b5", "rental_uris": {"ios": "https://dc.lft.to/lastmile_qr_scan", "android": "https://dc.lft.to/lastmile_qr_scan"}}, {"name": "13bd29ebb11a7aa653cc95897ae529c3", "type": "electric_scooter", "lat": 38.90148966666667, "is_reserved": 0, "lon": -76.9306065, "fusion_lon": 0.0, "is_disabled": 0, "fusion_lat": 0.0, "bike_id": "13bd29ebb11a7aa653cc95897ae529c3", "rental_uris": {"ios": "https://dc.lft.to/lastmile_qr_scan", "android": "https://dc.lft.to/lastmile_qr_scan"}}, {"name": "9c6098756be08fdd508b86b038b9ceec", "type": "electric_scooter", "lat": 38.92461766666667, "is_reserved": 0, "lon": -77.03759933333333, "fusion_lon": 0.0, "is_disabled": 0, "fusion_lat": 0.0, "bike_id": "9c6098756be08fdd508b86b038b9ceec", "rental_uris": {"ios": "https://dc.lft.to/lastmile_qr_scan", "android": "https://dc.lft.to/lastmile_qr_scan"}}, {"name": "e16b909ddd68bece2e65339da38db301", "type": "electric_scooter", "lat": 38.92475816666666, "is_reserved": 0, "lon": -77.02828316666667, "fusion_lon": 0.0, "is_disabled": 0, "fusion_lat": 0.0, "bike_id": "e16b909ddd68bece2e65339da38db301", "rental_uris": {"ios": "https://dc.lft.to/lastmile_qr_scan", "android": "https://dc.lft.to/lastmile_qr_scan"}}, {"name": "947dac25f6db09f245d1f727cb296305", "type": "electric_scooter", "lat": 38.91090333333333, "is_reserved": 0, "lon": -77.03842083333333, "fusion_lon": 0.0, "is_disabled": 0, "fusion_lat": 0.0, "bike_id": "947dac25f6db09f245d1f727cb296305", "rental_uris": {"ios": "https://dc.lft.to/lastmile_qr_scan", "android": "https://dc.lft.to/lastmile_qr_scan"}}, {"name": "be01aa33e4f559a5e642865cd91b5a00", "type": "electric_scooter", "lat": 38.90840766666667, "is_reserved": 0, "lon": -77.026954, "fusion_lon": 0.0, "is_disabled": 0, "fusion_lat": 0.0, "bike_id": "be01aa33e4f559a5e642865cd91b5a00", "rental_uris": {"ios": "https://dc.lft.to/lastmile_qr_scan", "android": "https://dc.lft.to/lastmile_qr_scan"}}, {"name": "8f8befdac7a9fb022f9aa43e052db2c3", "type": "electric_scooter", "lat": 38.89400633333333, "is_reserved": 0, "lon": -76.9479715, "fusion_lon": 0.0, "is_disabled": 0, "fusion_lat": 0.0, "bike_id": "8f8befdac7a9fb022f9aa43e052db2c3", "rental_uris": {"ios": "https://dc.lft.to/lastmile_qr_scan", "android": "https://dc.lft.to/lastmile_qr_scan"}}, {"name": "290a381131274d008bcd8e8001642a1c", "type": "electric_scooter", "lat": 38.92306683333334, "is_reserved": 0, "lon": -77.03912183333334, "fusion_lon": 0.0, "is_disabled": 0, "fusion_lat": 0.0, "bike_id": "290a381131274d008bcd8e8001642a1c", "rental_uris": {"ios": "https://dc.lft.to/lastmile_qr_scan", "android": "https://dc.lft.to/lastmile_qr_scan"}}, {"name": "39b22b768d0c1c4dc3922953207dbc59", "type": "electric_scooter", "lat": 38.9353905, "is_reserved": 0, "lon": -77.0368465, "fusion_lon": 0.0, "is_disabled": 0, "fusion_lat": 0.0, "bike_id": "39b22b768d0c1c4dc3922953207dbc59", "rental_uris": {"ios": "https://dc.lft.to/lastmile_qr_scan", "android": "https://dc.lft.to/lastmile_qr_scan"}}, {"name": "6a2f99540c49a2043b225c80f148924d", "type": "electric_scooter", "lat": 38.918703666666666, "is_reserved": 0, "lon": -77.043705, "fusion_lon": 0.0, "is_disabled": 0, "fusion_lat": 0.0, "bike_id": "6a2f99540c49a2043b225c80f148924d", "rental_uris": {"ios": "https://dc.lft.to/lastmile_qr_scan", "android": "https://dc.lft.to/lastmile_qr_scan"}}, {"name": "bacff8c2a733c174cbd3318f6f855ed8", "type": "electric_bike", "lat": 38.846091, "is_reserved": 0, "lon": -76.97830383333333, "fusion_lon": 0.0, "is_disabled": 0, "fusion_lat": 0.0, "bike_id": "bacff8c2a733c174cbd3318f6f855ed8", "rental_uris": {"ios": "https://dc.lft.to/lastmile_qr_scan", "android": "https://dc.lft.to/lastmile_qr_scan"}}, {"name": "3a883412024f116b5afc7055fd7cda9b", "type": "electric_scooter", "lat": 38.934590666666665, "is_reserved": 0, "lon": -77.030512, "fusion_lon": 0.0, "is_disabled": 0, "fusion_lat": 0.0, "bike_id": "3a883412024f116b5afc7055fd7cda9b", "rental_uris": {"ios": "https://dc.lft.to/lastmile_qr_scan", "android": "https://dc.lft.to/lastmile_qr_scan"}}, {"name": "ee1eb4ebd519ad0da86d0cd9345d0b4c", "type": "electric_scooter", "lat": 38.8901335, "is_reserved": 0, "lon": -76.93732283333334, "fusion_lon": 0.0, "is_disabled": 0, "fusion_lat": 0.0, "bike_id": "ee1eb4ebd519ad0da86d0cd9345d0b4c", "rental_uris": {"ios": "https://dc.lft.to/lastmile_qr_scan", "android": "https://dc.lft.to/lastmile_qr_scan"}}, {"name": "d0dae51df929266a40ccde800df6d475", "type": "electric_scooter", "lat": 38.914819666666666, "is_reserved": 0, "lon": -77.008339, "fusion_lon": 0.0, "is_disabled": 0, "fusion_lat": 0.0, "bike_id": "d0dae51df929266a40ccde800df6d475", "rental_uris": {"ios": "https://dc.lft.to/lastmile_qr_scan", "android": "https://dc.lft.to/lastmile_qr_scan"}}, {"name": "061bbdcb0762d2c721e1562579db275c", "type": "electric_scooter", "lat": 38.923339, "is_reserved": 0, "lon": -77.04023666666667, "fusion_lon": 0.0, "is_disabled": 0, "fusion_lat": 0.0, "bike_id": "061bbdcb0762d2c721e1562579db275c", "rental_uris": {"ios": "https://dc.lft.to/lastmile_qr_scan", "android": "https://dc.lft.to/lastmile_qr_scan"}}, {"name": "26367baa21d7a190658cc52e8dc3fae6", "type": "electric_bike", "lat": 38.846106166666665, "is_reserved": 0, "lon": -76.96888233333334, "fusion_lon": 0.0, "is_disabled": 0, "fusion_lat": 0.0, "bike_id": "26367baa21d7a190658cc52e8dc3fae6", "rental_uris": {"ios": "https://dc.lft.to/lastmile_qr_scan", "android": "https://dc.lft.to/lastmile_qr_scan"}}, {"name": "d84e5626359bff6272b0a462bc9ad706", "type": "electric_scooter", "lat": 38.924902333333335, "is_reserved": 0, "lon": -77.052155, "fusion_lon": 0.0, "is_disabled": 0, "fusion_lat": 0.0, "bike_id": "d84e5626359bff6272b0a462bc9ad706", "rental_uris": {"ios": "https://dc.lft.to/lastmile_qr_scan", "android": "https://dc.lft.to/lastmile_qr_scan"}}, {"name": "65a3d1c5f0413bc706756b2f6fde2680", "type": "electric_scooter", "lat": 38.88500166666667, "is_reserved": 0, "lon": -76.99847966666667, "fusion_lon": 0.0, "is_disabled": 0, "fusion_lat": 0.0, "bike_id": "65a3d1c5f0413bc706756b2f6fde2680", "rental_uris": {"ios": "https://dc.lft.to/lastmile_qr_scan", "android": "https://dc.lft.to/lastmile_qr_scan"}}, {"name": "04d7125ff60ecfacf77790fb85f50e62", "type": "electric_scooter", "lat": 38.91562833333333, "is_reserved": 0, "lon": -77.0294325, "fusion_lon": 0.0, "is_disabled": 0, "fusion_lat": 0.0, "bike_id": "04d7125ff60ecfacf77790fb85f50e62", "rental_uris": {"ios": "https://dc.lft.to/lastmile_qr_scan", "android": "https://dc.lft.to/lastmile_qr_scan"}}, {"name": "5d125d328f67fc7f73ce300e394d6992", "type": "electric_bike", "lat": 38.952873, "is_reserved": 0, "lon": -76.978077, "fusion_lon": 0.0, "is_disabled": 0, "fusion_lat": 0.0, "bike_id": "5d125d328f67fc7f73ce300e394d6992", "rental_uris": {"ios": "https://dc.lft.to/lastmile_qr_scan", "android": "https://dc.lft.to/lastmile_qr_scan"}}, {"name": "696d928f2590e80b76cf3217f99bec85", "type": "electric_bike", "lat": 39.058124666666664, "is_reserved": 0, "lon": -77.12627566666667, "fusion_lon": 0.0, "is_disabled": 0, "fusion_lat": 0.0, "bike_id": "696d928f2590e80b76cf3217f99bec85", "rental_uris": {"ios": "https://dc.lft.to/lastmile_qr_scan", "android": "https://dc.lft.to/lastmile_qr_scan"}}, {"name": "c7bdfefb6c760c57d21fd3cdf3a0bf83", "type": "electric_scooter", "lat": 38.898998666666664, "is_reserved": 0, "lon": -77.01521466666667, "fusion_lon": 0.0, "is_disabled": 0, "fusion_lat": 0.0, "bike_id": "c7bdfefb6c760c57d21fd3cdf3a0bf83", "rental_uris": {"ios": "https://dc.lft.to/lastmile_qr_scan", "android": "https://dc.lft.to/lastmile_qr_scan"}}, {"name": "4a8dfbe13c779bf23c12c875a7692c21", "type": "electric_scooter", "lat": 38.9418105, "is_reserved": 0, "lon": -77.0302525, "fusion_lon": 0.0, "is_disabled": 0, "fusion_lat": 0.0, "bike_id": "4a8dfbe13c779bf23c12c875a7692c21", "rental_uris": {"ios": "https://dc.lft.to/lastmile_qr_scan", "android": "https://dc.lft.to/lastmile_qr_scan"}}, {"name": "6ef47ec1fc9d7222d2de607d7d57d7d2", "type": "electric_scooter", "lat": 38.902508, "is_reserved": 0, "lon": -77.0314875, "fusion_lon": 0.0, "is_disabled": 0, "fusion_lat": 0.0, "bike_id": "6ef47ec1fc9d7222d2de607d7d57d7d2", "rental_uris": {"ios": "https://dc.lft.to/lastmile_qr_scan", "android": "https://dc.lft.to/lastmile_qr_scan"}}, {"name": "74ecad92f4f026c27fd3455df77d66b4", "type": "electric_scooter", "lat": 38.9160195, "is_reserved": 0, "lon": -76.98366633333333, "fusion_lon": 0.0, "is_disabled": 0, "fusion_lat": 0.0, "bike_id": "74ecad92f4f026c27fd3455df77d66b4", "rental_uris": {"ios": "https://dc.lft.to/lastmile_qr_scan", "android": "https://dc.lft.to/lastmile_qr_scan"}}, {"name": "74bf685234774fdbf5d20bc8828c9563", "type": "electric_scooter", "lat": 38.898792, "is_reserved": 0, "lon": -77.03279416666666, "fusion_lon": 0.0, "is_disabled": 0, "fusion_lat": 0.0, "bike_id": "74bf685234774fdbf5d20bc8828c9563", "rental_uris": {"ios": "https://dc.lft.to/lastmile_qr_scan", "android": "https://dc.lft.to/lastmile_qr_scan"}}, {"name": "4d40de0ab37513842cd48d6e45881575", "type": "electric_scooter", "lat": 38.9205475, "is_reserved": 0, "lon": -77.03467383333333, "fusion_lon": 0.0, "is_disabled": 0, "fusion_lat": 0.0, "bike_id": "4d40de0ab37513842cd48d6e45881575", "rental_uris": {"ios": "https://dc.lft.to/lastmile_qr_scan", "android": "https://dc.lft.to/lastmile_qr_scan"}}, {"name": "d6666f61eedf00c344f1ec528941147c", "type": "electric_bike", "lat": 38.85851983333333, "is_reserved": 0, "lon": -77.09758616666667, "fusion_lon": 0.0, "is_disabled": 0, "fusion_lat": 0.0, "bike_id": "d6666f61eedf00c344f1ec528941147c", "rental_uris": {"ios": "https://dc.lft.to/lastmile_qr_scan", "android": "https://dc.lft.to/lastmile_qr_scan"}}, {"name": "926a0fcf777c8da6a5288baea3ca01a5", "type": "electric_scooter", "lat": 38.86697733333333, "is_reserved": 0, "lon": -76.98713316666667, "fusion_lon": 0.0, "is_disabled": 0, "fusion_lat": 0.0, "bike_id": "926a0fcf777c8da6a5288baea3ca01a5", "rental_uris": {"ios": "https://dc.lft.to/lastmile_qr_scan", "android": "https://dc.lft.to/lastmile_qr_scan"}}, {"name": "ea172d174e5bafab3f7caa55a351e9b3", "type": "electric_scooter", "lat": 38.900069333333334, "is_reserved": 0, "lon": -76.99158433333334, "fusion_lon": 0.0, "is_disabled": 0, "fusion_lat": 0.0, "bike_id": "ea172d174e5bafab3f7caa55a351e9b3", "rental_uris": {"ios": "https://dc.lft.to/lastmile_qr_scan", "android": "https://dc.lft.to/lastmile_qr_scan"}}, {"name": "b968d9f2388b830f655e6cf4913128b1", "type": "electric_scooter", "lat": 38.933862833333336, "is_reserved": 0, "lon": -77.02967283333334, "fusion_lon": 0.0, "is_disabled": 0, "fusion_lat": 0.0, "bike_id": "b968d9f2388b830f655e6cf4913128b1", "rental_uris": {"ios": "https://dc.lft.to/lastmile_qr_scan", "android": "https://dc.lft.to/lastmile_qr_scan"}}, {"name": "ba0cafaf5da0e10654cb76cfe1e91138", "type": "electric_scooter", "lat": 38.93976083333333, "is_reserved": 0, "lon": -77.0289435, "fusion_lon": 0.0, "is_disabled": 0, "fusion_lat": 0.0, "bike_id": "ba0cafaf5da0e10654cb76cfe1e91138", "rental_uris": {"ios": "https://dc.lft.to/lastmile_qr_scan", "android": "https://dc.lft.to/lastmile_qr_scan"}}, {"name": "a3750606c8db3073dd5c9ad521576fc3", "type": "electric_bike", "lat": 38.99937366666666, "is_reserved": 0, "lon": -77.01769533333334, "fusion_lon": 0.0, "is_disabled": 0, "fusion_lat": 0.0, "bike_id": "a3750606c8db3073dd5c9ad521576fc3", "rental_uris": {"ios": "https://dc.lft.to/lastmile_qr_scan", "android": "https://dc.lft.to/lastmile_qr_scan"}}, {"name": "3996694670d3bd686805a0fc16a20ac7", "type": "electric_bike", "lat": 38.96623233333333, "is_reserved": 0, "lon": -76.97668733333333, "fusion_lon": 0.0, "is_disabled": 0, "fusion_lat": 0.0, "bike_id": "3996694670d3bd686805a0fc16a20ac7", "rental_uris": {"ios": "https://dc.lft.to/lastmile_qr_scan", "android": "https://dc.lft.to/lastmile_qr_scan"}}, {"name": "eca59041b6c989c0d48a672db5ee5524", "type": "electric_scooter", "lat": 38.923584166666664, "is_reserved": 0, "lon": -77.04147366666666, "fusion_lon": 0.0, "is_disabled": 0, "fusion_lat": 0.0, "bike_id": "eca59041b6c989c0d48a672db5ee5524", "rental_uris": {"ios": "https://dc.lft.to/lastmile_qr_scan", "android": "https://dc.lft.to/lastmile_qr_scan"}}, {"name": "ebe02f3754773adfea398b2b1bc5dc99", "type": "electric_scooter", "lat": 38.9218485, "is_reserved": 0, "lon": -77.0267, "fusion_lon": 0.0, "is_disabled": 0, "fusion_lat": 0.0, "bike_id": "ebe02f3754773adfea398b2b1bc5dc99", "rental_uris": {"ios": "https://dc.lft.to/lastmile_qr_scan", "android": "https://dc.lft.to/lastmile_qr_scan"}}, {"name": "79842f494c2e0b41571fbdf26461e7dd", "type": "electric_scooter", "lat": 38.920571, "is_reserved": 0, "lon": -77.03344766666666, "fusion_lon": 0.0, "is_disabled": 0, "fusion_lat": 0.0, "bike_id": "79842f494c2e0b41571fbdf26461e7dd", "rental_uris": {"ios": "https://dc.lft.to/lastmile_qr_scan", "android": "https://dc.lft.to/lastmile_qr_scan"}}, {"name": "823fdae53eeec58c5ce2da9a18e9d24f", "type": "electric_scooter", "lat": 38.91721033333334, "is_reserved": 0, "lon": -77.06831533333333, "fusion_lon": 0.0, "is_disabled": 0, "fusion_lat": 0.0, "bike_id": "823fdae53eeec58c5ce2da9a18e9d24f", "rental_uris": {"ios": "https://dc.lft.to/lastmile_qr_scan", "android": "https://dc.lft.to/lastmile_qr_scan"}}, {"name": "cf734abec4ea1bc33b96355be3218a5d", "type": "electric_scooter", "lat": 38.91208733333333, "is_reserved": 0, "lon": -77.0448055, "fusion_lon": 0.0, "is_disabled": 0, "fusion_lat": 0.0, "bike_id": "cf734abec4ea1bc33b96355be3218a5d", "rental_uris": {"ios": "https://dc.lft.to/lastmile_qr_scan", "android": "https://dc.lft.to/lastmile_qr_scan"}}, {"name": "2fb4ea12d4fa634ae046d79bf58d2cab", "type": "electric_scooter", "lat": 38.92737533333333, "is_reserved": 0, "lon": -77.02975016666667, "fusion_lon": 0.0, "is_disabled": 0, "fusion_lat": 0.0, "bike_id": "2fb4ea12d4fa634ae046d79bf58d2cab", "rental_uris": {"ios": "https://dc.lft.to/lastmile_qr_scan", "android": "https://dc.lft.to/lastmile_qr_scan"}}, {"name": "0e60821d24eefa9b442140c18733d26b", "type": "electric_bike", "lat": 38.9483255, "is_reserved": 0, "lon": -77.039036, "fusion_lon": 0.0, "is_disabled": 0, "fusion_lat": 0.0, "bike_id": "0e60821d24eefa9b442140c18733d26b", "rental_uris": {"ios": "https://dc.lft.to/lastmile_qr_scan", "android": "https://dc.lft.to/lastmile_qr_scan"}}, {"name": "0c4a907588da677741802fb0bc67b214", "type": "electric_scooter", "lat": 38.958417833333336, "is_reserved": 0, "lon": -77.02928666666666, "fusion_lon": 0.0, "is_disabled": 0, "fusion_lat": 0.0, "bike_id": "0c4a907588da677741802fb0bc67b214", "rental_uris": {"ios": "https://dc.lft.to/lastmile_qr_scan", "android": "https://dc.lft.to/lastmile_qr_scan"}}, {"name": "a0e931782a19ff0cade7fc05583db33e", "type": "electric_scooter", "lat": 38.93903016666667, "is_reserved": 0, "lon": -77.0773385, "fusion_lon": 0.0, "is_disabled": 0, "fusion_lat": 0.0, "bike_id": "a0e931782a19ff0cade7fc05583db33e", "rental_uris": {"ios": "https://dc.lft.to/lastmile_qr_scan", "android": "https://dc.lft.to/lastmile_qr_scan"}}, {"name": "1c22eadd17388db2d797ff1088834738", "type": "electric_scooter", "lat": 38.9349195, "is_reserved": 0, "lon": -77.03281683333333, "fusion_lon": 0.0, "is_disabled": 0, "fusion_lat": 0.0, "bike_id": "1c22eadd17388db2d797ff1088834738", "rental_uris": {"ios": "https://dc.lft.to/lastmile_qr_scan", "android": "https://dc.lft.to/lastmile_qr_scan"}}, {"name": "fc670a4f249041ddc5acb2e0ccabba35", "type": "electric_scooter", "lat": 38.89476833333333, "is_reserved": 0, "lon": -77.03054, "fusion_lon": 0.0, "is_disabled": 0, "fusion_lat": 0.0, "bike_id": "fc670a4f249041ddc5acb2e0ccabba35", "rental_uris": {"ios": "https://dc.lft.to/lastmile_qr_scan", "android": "https://dc.lft.to/lastmile_qr_scan"}}, {"name": "77ba68c054bf2cbd33ae96c2aa252b45", "type": "electric_scooter", "lat": 38.933752166666665, "is_reserved": 0, "lon": -77.03463616666667, "fusion_lon": 0.0, "is_disabled": 0, "fusion_lat": 0.0, "bike_id": "77ba68c054bf2cbd33ae96c2aa252b45", "rental_uris": {"ios": "https://dc.lft.to/lastmile_qr_scan", "android": "https://dc.lft.to/lastmile_qr_scan"}}, {"name": "ead748160694aead3ad7611f6cfde060", "type": "electric_scooter", "lat": 38.8811815, "is_reserved": 0, "lon": -77.016683, "fusion_lon": 0.0, "is_disabled": 0, "fusion_lat": 0.0, "bike_id": "ead748160694aead3ad7611f6cfde060", "rental_uris": {"ios": "https://dc.lft.to/lastmile_qr_scan", "android": "https://dc.lft.to/lastmile_qr_scan"}}, {"name": "d636f55c711446c1d696afaa55556f98", "type": "electric_scooter", "lat": 38.90264066666667, "is_reserved": 0, "lon": -77.00325083333334, "fusion_lon": 0.0, "is_disabled": 0, "fusion_lat": 0.0, "bike_id": "d636f55c711446c1d696afaa55556f98", "rental_uris": {"ios": "https://dc.lft.to/lastmile_qr_scan", "android": "https://dc.lft.to/lastmile_qr_scan"}}, {"name": "cde467f7a26ec491fb7e04f6dd56f00f", "type": "electric_scooter", "lat": 38.90066866666667, "is_reserved": 0, "lon": -77.0483775, "fusion_lon": 0.0, "is_disabled": 0, "fusion_lat": 0.0, "bike_id": "cde467f7a26ec491fb7e04f6dd56f00f", "rental_uris": {"ios": "https://dc.lft.to/lastmile_qr_scan", "android": "https://dc.lft.to/lastmile_qr_scan"}}, {"name": "0a27620b574155158e53b032f5dd1d97", "type": "electric_scooter", "lat": 38.903753333333334, "is_reserved": 0, "lon": -77.0163075, "fusion_lon": 0.0, "is_disabled": 0, "fusion_lat": 0.0, "bike_id": "0a27620b574155158e53b032f5dd1d97", "rental_uris": {"ios": "https://dc.lft.to/lastmile_qr_scan", "android": "https://dc.lft.to/lastmile_qr_scan"}}, {"name": "2eb8e9317d5ef8555503745b02bfc16a", "type": "electric_scooter", "lat": 38.8839195, "is_reserved": 0, "lon": -76.9304965, "fusion_lon": 0.0, "is_disabled": 0, "fusion_lat": 0.0, "bike_id": "2eb8e9317d5ef8555503745b02bfc16a", "rental_uris": {"ios": "https://dc.lft.to/lastmile_qr_scan", "android": "https://dc.lft.to/lastmile_qr_scan"}}, {"name": "e10455f8f278a46d03f09a15e535e469", "type": "electric_scooter", "lat": 38.8875535, "is_reserved": 0, "lon": -76.979833, "fusion_lon": 0.0, "is_disabled": 0, "fusion_lat": 0.0, "bike_id": "e10455f8f278a46d03f09a15e535e469", "rental_uris": {"ios": "https://dc.lft.to/lastmile_qr_scan", "android": "https://dc.lft.to/lastmile_qr_scan"}}, {"name": "049fd42e5863c392f21e2b5b6f3889b5", "type": "electric_scooter", "lat": 38.943655, "is_reserved": 0, "lon": -77.021768, "fusion_lon": 0.0, "is_disabled": 0, "fusion_lat": 0.0, "bike_id": "049fd42e5863c392f21e2b5b6f3889b5", "rental_uris": {"ios": "https://dc.lft.to/lastmile_qr_scan", "android": "https://dc.lft.to/lastmile_qr_scan"}}, {"name": "222d8326cc94281ba390c3130fcd54c9", "type": "electric_scooter", "lat": 38.93349333333333, "is_reserved": 0, "lon": -77.02963783333334, "fusion_lon": 0.0, "is_disabled": 0, "fusion_lat": 0.0, "bike_id": "222d8326cc94281ba390c3130fcd54c9", "rental_uris": {"ios": "https://dc.lft.to/lastmile_qr_scan", "android": "https://dc.lft.to/lastmile_qr_scan"}}, {"name": "febee058dba64097589856e63b570d8e", "type": "electric_scooter", "lat": 38.896309333333335, "is_reserved": 0, "lon": -77.03228533333333, "fusion_lon": 0.0, "is_disabled": 0, "fusion_lat": 0.0, "bike_id": "febee058dba64097589856e63b570d8e", "rental_uris": {"ios": "https://dc.lft.to/lastmile_qr_scan", "android": "https://dc.lft.to/lastmile_qr_scan"}}, {"name": "687c2d5bcf618278ad98b720d075bdba", "type": "electric_scooter", "lat": 38.894840333333335, "is_reserved": 0, "lon": -77.01006666666666, "fusion_lon": 0.0, "is_disabled": 0, "fusion_lat": 0.0, "bike_id": "687c2d5bcf618278ad98b720d075bdba", "rental_uris": {"ios": "https://dc.lft.to/lastmile_qr_scan", "android": "https://dc.lft.to/lastmile_qr_scan"}}, {"name": "c9ed76b65a1c73f4f0cf6467956a4d38", "type": "electric_bike", "lat": 38.922107833333335, "is_reserved": 0, "lon": -76.98797833333333, "fusion_lon": 0.0, "is_disabled": 0, "fusion_lat": 0.0, "bike_id": "c9ed76b65a1c73f4f0cf6467956a4d38", "rental_uris": {"ios": "https://dc.lft.to/lastmile_qr_scan", "android": "https://dc.lft.to/lastmile_qr_scan"}}, {"name": "109817293aeae7ac9cd0250e7cffa700", "type": "electric_scooter", "lat": 38.918192833333336, "is_reserved": 0, "lon": -77.03144616666667, "fusion_lon": 0.0, "is_disabled": 0, "fusion_lat": 0.0, "bike_id": "109817293aeae7ac9cd0250e7cffa700", "rental_uris": {"ios": "https://dc.lft.to/lastmile_qr_scan", "android": "https://dc.lft.to/lastmile_qr_scan"}}, {"name": "ba92edd8c5b39678b6c058d050648111", "type": "electric_bike", "lat": 38.87582866666666, "is_reserved": 0, "lon": -77.10568416666666, "fusion_lon": 0.0, "is_disabled": 0, "fusion_lat": 0.0, "bike_id": "ba92edd8c5b39678b6c058d050648111", "rental_uris": {"ios": "https://dc.lft.to/lastmile_qr_scan", "android": "https://dc.lft.to/lastmile_qr_scan"}}, {"name": "a532b38b481b3512492bab025f5d84d4", "type": "electric_scooter", "lat": 38.9350455, "is_reserved": 0, "lon": -77.01993933333334, "fusion_lon": 0.0, "is_disabled": 0, "fusion_lat": 0.0, "bike_id": "a532b38b481b3512492bab025f5d84d4", "rental_uris": {"ios": "https://dc.lft.to/lastmile_qr_scan", "android": "https://dc.lft.to/lastmile_qr_scan"}},