{"data": {"bikes": [{"name": "dfdf8f1b7e09917767bd58c418611f29", "is_reserved": 0, "fusion_lon": 0.0, "bike_id": "dfdf8f1b7e09917767bd58c418611f29", "lat": 38.9204395, "is_disabled": 0, "lon": -77.01683666666666, "fusion_lat": 0.0, "rental_uris": {"ios": "https://dc.lft.to/lastmile_qr_scan", "android": "https://dc.lft.to/lastmile_qr_scan"}, "type": "electric_scooter"}, {"name": "2d4aca0860727ab970b3a94db2f9cf25", "is_reserved": 0, "fusion_lon": 0.0, "bike_id": "2d4aca0860727ab970b3a94db2f9cf25", "lat": 38.924498666666665, "is_disabled": 0, "lon": -77.020183, "fusion_lat": 0.0, "rental_uris": {"ios": "https://dc.lft.to/lastmile_qr_scan", "android": "https://dc.lft.to/lastmile_qr_scan"}, "type": "electric_scooter"}, {"name": "cd4483216f908594895059d85a88e8c0", "is_reserved": 0, "fusion_lon": 0.0, "bike_id": "cd4483216f908594895059d85a88e8c0", "lat": 38.8973135, "is_disabled": 0, "lon": -76.92582516666667, "fusion_lat": 0.0, "rental_uris": {"ios": "https://dc.lft.to/lastmile_qr_scan", "android": "https://dc.lft.to/lastmile_qr_scan"}, "type": "electric_scooter"}, {"name": "882577cf746cf6a3cb9e22afb59298d6", "is_reserved": 0, "fusion_lon": 0.0, "bike_id": "882577cf746cf6a3cb9e22afb59298d6", "lat": 38.841938, "is_disabled": 0, "lon": -77.09057683333333, "fusion_lat": 0.0, "rental_uris": {"ios": "https://dc.lft.to/lastmile_qr_scan", "android": "https://dc.lft.to/lastmile_qr_scan"}, "type": "electric_bike"}, {"name": "5c9546a496076429254526a5f923ab6b", "is_reserved": 0, "fusion_lon": 0.0, "bike_id": "5c9546a496076429254526a5f923ab6b", "lat": 38.91817016666667, "is_disabled": 0, "lon": -77.02529233333334, "fusion_lat": 0.0, "rental_uris": {"ios": "https://dc.lft.to/lastmile_qr_scan", "android": "https://dc.lft.to/lastmile_qr_scan"}, "type": "electric_scooter"}, {"name": "19a1503576e3a82dddfb1d484953c993", "is_reserved": 0, "fusion_lon": 0.0, "bike_id": "19a1503576e3a82dddfb1d484953c993", "lat": 38.921587, "is_disabled": 0, "lon": -77.04231816666666, "fusion_lat": 0.0, "rental_uris": {"ios": "https://dc.lft.to/lastmile_qr_scan", "android": "https://dc.lft.to/lastmile_qr_scan"}, "type": "electric_scooter"}, {"name": "921dab36cf5399434967645db37aa132", "is_reserved": 0, "fusion_lon": 0.0, "bike_id": "921dab36cf5399434967645db37aa132", "lat": 38.93133433333333, "is_disabled": 0, "lon": -77.0572525, "fusion_lat": 0.0, "rental_uris": {"ios": "https://dc.lft.to/lastmile_qr_scan", "android": "https://dc.lft.to/lastmile_qr_scan"}, "type": "electric_scooter"}, {"name": "bdead5a4c3461da7bc7886bfac2434bb", "is_reserved": 0, "fusion_lon": 0.0, "bike_id": "bdead5a4c3461da7bc7886bfac2434bb", "lat": 38.92612866666666, "is_disabled": 0, "lon": -77.021616, "fusion_lat": 0.0, "rental_uris": {"ios": "https://dc.lft.to/lastmile_qr_scan", "android": "https://dc.lft.to/lastmile_qr_scan"}, "type": "electric_scooter"}, {"name": "42d5217fff64914d40c6093466704b02", "is_reserved": 0, "fusion_lon": 0.0, "bike_id": "42d5217fff64914d40c6093466704b02", "lat": 38.894418333333334, "is_disabled": 0, "lon": -76.98084233333333, "fusion_lat": 0.0, "rental_uris": {"ios": "https://dc.lft.to/lastmile_qr_scan", "android": "https://dc.lft.to/lastmile_qr_scan"}, "type": "electric_scooter"}, {"name": "be1c74dc3ef9788114e1f8ba1ab18ca6", "is_reserved": 0, "fusion_lon": 0.0, "bike_id": "be1c74dc3ef9788114e1f8ba1ab18ca6", "lat": 38.92069433333333, "is_disabled": 0, "lon": -77.02365066666667, "fusion_lat": 0.0, "rental_uris": {"ios": "https://dc.lft.to/lastmile_qr_scan", "android": "https://dc.lft.to/lastmile_qr_scan"}, "type": "electric_scooter"}, {"name": "846ea009a7c36f7247449810d03f73bb", "is_reserved": 0, "fusion_lon": 0.0, "bike_id": "846ea009a7c36f7247449810d03f73bb", "lat": 38.916086166666666, "is_disabled": 0, "lon": -77.02130183333334, "fusion_lat": 0.0, "rental_uris": {"ios": "https://dc.lft.to/lastmile_qr_scan", "android": "https://dc.lft.to/lastmile_qr_scan"}, "type": "electric_scooter"}, {"name": "ff8535837d85e83f6266153c7de0afe8", "is_reserved": 0, "fusion_lon": 0.0, "bike_id": "ff8535837d85e83f6266153c7de0afe8", "lat": 38.877220333333334, "is_disabled": 0, "lon": -77.004214, "fusion_lat": 0.0, "rental_uris": {"ios": "https://dc.lft.to/lastmile_qr_scan", "android": "https://dc.lft.to/lastmile_qr_scan"}, "type": "electric_scooter"}, {"name": "4c6bd62211aa62a14612c8984869f8a8", "is_reserved": 0, "fusion_lon": 0.0, "bike_id": "4c6bd62211aa62a14612c8984869f8a8", "lat": 38.9011395, "is_disabled": 0, "lon": -77.04019016666666, "fusion_lat": 0.0, "rental_uris": {"ios": "https://dc.lft.to/lastmile_qr_scan", "android": "https://dc.lft.to/lastmile_qr_scan"}, "type": "electric_scooter"}, {"name": "1a1426bf096bba402fe403d006de84e6", "is_reserved": 0, "fusion_lon": 0.0, "bike_id": "1a1426bf096bba402fe403d006de84e6", "lat": 38.913913, "is_disabled": 0, "lon": -77.045727, "fusion_lat": 0.0, "rental_uris": {"ios": "https://dc.lft.to/lastmile_qr_scan", "android": "https://dc.lft.to/lastmile_qr_scan"}, "type": "electric_scooter"}, {"name": "f0bb66cc74bee4c19c4f6426e09bd6e2", "is_reserved": 0, "fusion_lon": 0.0, "bike_id": "f0bb66cc74bee4c19c4f6426e09bd6e2", "lat": 38.94351183333333, "is_disabled": 0, "lon": -77.02669566666667, "fusion_lat": 0.0, "rental_uris": {"ios": "https://dc.lft.to/lastmile_qr_scan", "android": "https://dc.lft.to/lastmile_qr_scan"}, "type": "electric_scooter"}, {"name": "0d62cff0da15a756999de1d4ea310ea2", "is_reserved": 0, "fusion_lon": 0.0, "bike_id": "0d62cff0da15a756999de1d4ea310ea2", "lat": 38.9206635, "is_disabled": 0, "lon": -77.0328145, "fusion_lat": 0.0, "rental_uris": {"ios": "https://dc.lft.to/lastmile_qr_scan", "android": "https://dc.lft.to/lastmile_qr_scan"}, "type": "electric_scooter"}, {"name": "3cace0f3e29f86c500cc046e43790412", "is_reserved": 0, "fusion_lon": 0.0, "bike_id": "3cace0f3e29f86c500cc046e43790412", "lat": 38.90393266666667, "is_disabled": 0, "lon": -76.9900545, "fusion_lat": 0.0, "rental_uris": {"ios": "https://dc.lft.to/lastmile_qr_scan", "android": "https://dc.lft.to/lastmile_qr_scan"}, "type": "electric_scooter"}, {"name": "11044d5fd09394142d349a396c306d51", "is_reserved": 0, "fusion_lon": 0.0, "bike_id": "11044d5fd09394142d349a396c306d51", "lat": 38.899746, "is_disabled": 0, "lon": -77.047352, "fusion_lat": 0.0, "rental_uris": {"ios": "https://dc.lft.to/lastmile_qr_scan", "android": "https://dc.lft.to/lastmile_qr_scan"}, "type": "electric_scooter"}, {"name": "4eed84e0db63024a34c4c6cc379f410b", "is_reserved": 0, "fusion_lon": 0.0, "bike_id": "4eed84e0db63024a34c4c6cc379f410b", "lat": 38.90503066666667, "is_disabled": 0, "lon": -77.03014266666666, "fusion_lat": 0.0, "rental_uris": {"ios": "https://dc.lft.to/lastmile_qr_scan", "android": "https://dc.lft.to/lastmile_qr_scan"}, "type": "electric_scooter"}, {"name": "6e9df8437748183a61cdbabe1649c4e3", "is_reserved": 0, "fusion_lon": 0.0, "bike_id": "6e9df8437748183a61cdbabe1649c4e3", "lat": 38.910490833333334, "is_disabled": 0, "lon": -77.01507616666666, "fusion_lat": 0.0, "rental_uris": {"ios": "https://dc.lft.to/lastmile_qr_scan", "android": "https://dc.lft.to/lastmile_qr_scan"}, "type": "electric_scooter"}, {"name": "2f32881eba1e394cda794979075d16f9", "is_reserved": 0, "fusion_lon": 0.0, "bike_id": "2f32881eba1e394cda794979075d16f9", "lat": 38.92036, "is_disabled": 0, "lon": -76.9795445, "fusion_lat": 0.0, "rental_uris": {"ios": "https://dc.lft.to/lastmile_qr_scan", "android": "https://dc.lft.to/lastmile_qr_scan"}, "type": "electric_bike"}, {"name": "f204d4632c38c6aed1cfaeb29bef53c6", "is_reserved": 0, "fusion_lon": 0.0, "bike_id": "f204d4632c38c6aed1cfaeb29bef53c6", "lat": 38.836041333333334, "is_disabled": 0, "lon": -77.00371916666667, "fusion_lat": 0.0, "rental_uris": {"ios": "https://dc.lft.to/lastmile_qr_scan", "android": "https://dc.lft.to/lastmile_qr_scan"}, "type": "electric_bike"}, {"name": "90c491638342cc4b726a4d1a4b7ae19f", "is_reserved": 0, "fusion_lon": 0.0, "bike_id": "90c491638342cc4b726a4d1a4b7ae19f", "lat": 38.9134315, "is_disabled": 0, "lon": -77.04730916666666, "fusion_lat": 0.0, "rental_uris": {"ios": "https://dc.lft.to/lastmile_qr_scan", "android": "https://dc.lft.to/lastmile_qr_scan"}, "type": "electric_scooter"}, {"name": "bbc697e4772ba41615cef296740aee91", "is_reserved": 0, "fusion_lon": 0.0, "bike_id": "bbc697e4772ba41615cef296740aee91", "lat": 38.83382, "is_disabled": 0, "lon": -77.00296033333333, "fusion_lat": 0.0, "rental_uris": {"ios": "https://dc.lft.to/lastmile_qr_scan", "android": "https://dc.lft.to/lastmile_qr_scan"}, "type": "electric_scooter"}, {"name": "3be62212d8d73d0f7ab3ff1c88ace06e", "is_reserved": 0, "fusion_lon": 0.0, "bike_id": "3be62212d8d73d0f7ab3ff1c88ace06e", "lat": 38.966480833333335, "is_disabled": 0, "lon": -77.02749783333333, "fusion_lat": 0.0, "rental_uris": {"ios": "https://dc.lft.to/lastmile_qr_scan", "android": "https://dc.lft.to/lastmile_qr_scan"}, "type": "electric_scooter"}, {"name": "6c5f85b68ee941ab479eb5cf63067d4a", "is_reserved": 0, "fusion_lon": 0.0, "bike_id": "6c5f85b68ee941ab479eb5cf63067d4a", "lat": 38.909039166666666, "is_disabled": 0, "lon": -76.9989265, "fusion_lat": 0.0, "rental_uris": {"ios": "https://dc.lft.to/lastmile_qr_scan", "android": "https://dc.lft.to/lastmile_qr_scan"}, "type": "electric_scooter"}, {"name": "283e5b30266ebd4e8891f1fe9d7dd248", "is_reserved": 0, "fusion_lon": 0.0, "bike_id": "283e5b30266ebd4e8891f1fe9d7dd248", "lat": 38.917313166666666, "is_disabled": 0, "lon": -77.0320645, "fusion_lat": 0.0, "rental_uris": {"ios": "https://dc.lft.to/lastmile_qr_scan", "android": "https://dc.lft.to/lastmile_qr_scan"}, "type": "electric_scooter"}, {"name": "093b362b512b3eef7969afa7a5c49583", "is_reserved": 0, "fusion_lon": 0.0, "bike_id": "093b362b512b3eef7969afa7a5c49583", "lat": 38.925658166666665, "is_disabled": 0, "lon": -77.02694533333333, "fusion_lat": 0.0, "rental_uris": {"ios": "https://dc.lft.to/lastmile_qr_scan", "android": "https://dc.lft.to/lastmile_qr_scan"}, "type": "electric_scooter"}, {"name": "07beec23347dbc49111da7ff885170b6", "is_reserved": 0, "fusion_lon": 0.0, "bike_id": "07beec23347dbc49111da7ff885170b6", "lat": 38.89162433333333, "is_disabled": 0, "lon": -76.98361666666666, "fusion_lat": 0.0, "rental_uris": {"ios": "https://dc.lft.to/lastmile_qr_scan", "android": "https://dc.lft.to/lastmile_qr_scan"}, "type": "electric_scooter"}, {"name": "011d91dfd11cccdc9de269deba1a550c", "is_reserved": 0, "fusion_lon": 0.0, "bike_id": "011d91dfd11cccdc9de269deba1a550c", "lat": 38.905454166666665, "is_disabled": 0, "lon": -77.04072633333334, "fusion_lat": 0.0, "rental_uris": {"ios": "https://dc.lft.to/lastmile_qr_scan", "android": "https://dc.lft.to/lastmile_qr_scan"}, "type": "electric_scooter"}, {"name": "75f2cb4545196acbbeb9b517edfbf340", "is_reserved": 0, "fusion_lon": 0.0, "bike_id": "75f2cb4545196acbbeb9b517edfbf340", "lat": 38.88488783333333, "is_disabled": 0, "lon": -77.0071295, "fusion_lat": 0.0, "rental_uris": {"ios": "https://dc.lft.to/lastmile_qr_scan", "android": "https://dc.lft.to/lastmile_qr_scan"}, "type": "electric_scooter"}, {"name": "46520b4eb983c1a2a35673335a7e74c0", "is_reserved": 0, "fusion_lon": 0.0, "bike_id": "46520b4eb983c1a2a35673335a7e74c0", "lat": 38.949219, "is_disabled": 0, "lon": -77.01856433333333, "fusion_lat": 0.0, "rental_uris": {"ios": "https://dc.lft.to/lastmile_qr_scan", "android": "https://dc.lft.to/lastmile_qr_scan"}, "type": "electric_scooter"}, {"name": "9c5b0bb4ad66cd3aadf7cc4c1b72656f", "is_reserved": 0, "fusion_lon": 0.0, "bike_id": "9c5b0bb4ad66cd3aadf7cc4c1b72656f", "lat": 38.89961733333333, "is_disabled": 0, "lon": -77.02573883333334, "fusion_lat": 0.0, "rental_uris": {"ios": "https://dc.lft.to/lastmile_qr_scan", "android": "https://dc.lft.to/lastmile_qr_scan"}, "type": "electric_scooter"}, {"name": "9c1108d98d8f9acce60c196cab3de5ca", "is_reserved": 0, "fusion_lon": 0.0, "bike_id": "9c1108d98d8f9acce60c196cab3de5ca", "lat": 38.89620016666667, "is_disabled": 0, "lon": -76.98567966666667, "fusion_lat": 0.0, "rental_uris": {"ios": "https://dc.lft.to/lastmile_qr_scan", "android": "https://dc.lft.to/lastmile_qr_scan"}, "type": "electric_scooter"}, {"name": "d5cb3663f06f63333199eb7f9533d343", "is_reserved": 0, "fusion_lon": 0.0, "bike_id": "d5cb3663f06f63333199eb7f9533d343", "lat": 38.92919583333333, "is_disabled": 0, "lon": -77.037604, "fusion_lat": 0.0, "rental_uris": {"ios": "https://dc.lft.to/lastmile_qr_scan", "android": "https://dc.lft.to/lastmile_qr_scan"}, "type": "electric_scooter"}, {"name": "7b67fbcedb717804b19021ad1b17a196", "is_reserved": 0, "fusion_lon": 0.0, "bike_id": "7b67fbcedb717804b19021ad1b17a196", "lat": 38.893587333333336, "is_disabled": 0, "lon": -77.003315, "fusion_lat": 0.0, "rental_uris": {"ios": "https://dc.lft.to/lastmile_qr_scan", "android": "https://dc.lft.to/lastmile_qr_scan"}, "type": "electric_scooter"}, {"name": "5d241cacda553ae6aea8da21669aea2e", "is_reserved": 0, "fusion_lon": 0.0, "bike_id": "5d241cacda553ae6aea8da21669aea2e", "lat": 38.9161315, "is_disabled": 0, "lon": -77.03201883333334, "fusion_lat": 0.0, "rental_uris": {"ios": "https://dc.lft.to/lastmile_qr_scan", "android": "https://dc.lft.to/lastmile_qr_scan"}, "type": "electric_scooter"}, {"name": "d6ca580901621b4a870da39ee4a690ec", "is_reserved": 0, "fusion_lon": 0.0, "bike_id": "d6ca580901621b4a870da39ee4a690ec", "lat": 38.9050545, "is_disabled": 0, "lon": -77.0651855, "fusion_lat": 0.0, "rental_uris": {"ios": "https://dc.lft.to/lastmile_qr_scan", "android": "https://dc.lft.to/lastmile_qr_scan"}, "type": "electric_scooter"}, {"name": "8c918c4696654f35a63f2d80b790d875", "is_reserved": 0, "fusion_lon": 0.0, "bike_id": "8c918c4696654f35a63f2d80b790d875", "lat": 38.921918166666664, "is_disabled": 0, "lon": -76.99804933333333, "fusion_lat": 0.0, "rental_uris": {"ios": "https://dc.lft.to/lastmile_qr_scan", "android": "https://dc.lft.to/lastmile_qr_scan"}, "type": "electric_bike"}, {"name": "63437276516fab530070a0d7a387c057", "is_reserved": 0, "fusion_lon": 0.0, "bike_id": "63437276516fab530070a0d7a387c057", "lat": 38.901401666666665, "is_disabled": 0, "lon": -77.02713633333333, "fusion_lat": 0.0, "rental_uris": {"ios": "https://dc.lft.to/lastmile_qr_scan", "android": "https://dc.lft.to/lastmile_qr_scan"}, "type": "electric_scooter"}, {"name": "6a0c8ccfb992da15c6774d54f1871e15", "is_reserved": 0, "fusion_lon": 0.0, "bike_id": "6a0c8ccfb992da15c6774d54f1871e15", "lat": 38.90228066666667, "is_disabled": 0, "lon": -77.0449005, "fusion_lat": 0.0, "rental_uris": {"ios": "https://dc.lft.to/lastmile_qr_scan", "android": "https://dc.lft.to/lastmile_qr_scan"}, "type": "electric_scooter"}, {"name": "b87dcc40bf2707ff54e4fea853e15b66", "is_reserved": 0, "fusion_lon": 0.0, "bike_id": "b87dcc40bf2707ff54e4fea853e15b66", "lat": 38.92095666666667, "is_disabled": 0, "lon": -77.025902, "fusion_lat": 0.0, "rental_uris": {"ios": "https://dc.lft.to/lastmile_qr_scan", "android": "https://dc.lft.to/lastmile_qr_scan"}, "type": "electric_scooter"}, {"name": "3457b6cbb1fb7be48c9134114544fce9", "is_reserved": 0, "fusion_lon": 0.0, "bike_id": "3457b6cbb1fb7be48c9134114544fce9", "lat": 38.897357, "is_disabled": 0, "lon": -77.04651466666667, "fusion_lat": 0.0, "rental_uris": {"ios": "https://dc.lft.to/lastmile_qr_scan", "android": "https://dc.lft.to/lastmile_qr_scan"}, "type": "electric_scooter"}, {"name": "30f73ee7dc18d5e7b6011fef6ec9ff53", "is_reserved": 0, "fusion_lon": 0.0, "bike_id": "30f73ee7dc18d5e7b6011fef6ec9ff53", "lat": 38.90099033333333, "is_disabled": 0, "lon": -77.01624016666666, "fusion_lat": 0.0, "rental_uris": {"ios": "https://dc.lft.to/lastmile_qr_scan", "android": "https://dc.lft.to/lastmile_qr_scan"}, "type": "electric_scooter"}, {"name": "f058bd0f154e3270692b8bf83739c075", "is_reserved": 0, "fusion_lon": 0.0, "bike_id": "f058bd0f154e3270692b8bf83739c075", "lat": 38.9175335, "is_disabled": 0, "lon": -77.0211665, "fusion_lat": 0.0, "rental_uris": {"ios": "https://dc.lft.to/lastmile_qr_scan", "android": "https://dc.lft.to/lastmile_qr_scan"}, "type": "electric_scooter"}, {"name": "0d1e9cc32295068e2a67fd2a32ea528c", "is_reserved": 0, "fusion_lon": 0.0, "bike_id": "0d1e9cc32295068e2a67fd2a32ea528c", "lat": 38.9526045, "is_disabled": 0, "lon": -77.020719, "fusion_lat": 0.0, "rental_uris": {"ios": "https://dc.lft.to/lastmile_qr_scan", "android": "https://dc.lft.to/lastmile_qr_scan"}, "type": "electric_scooter"}, {"name": "d1792b2ea494d6eef746b83c785d3d97", "is_reserved": 0, "fusion_lon": 0.0, "bike_id": "d1792b2ea494d6eef746b83c785d3d97", "lat": 38.90135766666667, "is_disabled": 0, "lon": -77.048884, "fusion_lat": 0.0, "rental_uris": {"ios": "https://dc.lft.to/lastmile_qr_scan", "android": "https://dc.lft.to/lastmile_qr_scan"}, "type": "electric_scooter"}, {"name": "902325b1a4e3f385e4035da643613d2c", "is_reserved": 0, "fusion_lon": 0.0, "bike_id": "902325b1a4e3f385e4035da643613d2c", "lat": 38.91928883333333, "is_disabled": 0, "lon": -77.03182383333333, "fusion_lat": 0.0, "rental_uris": {"ios": "https://dc.lft.to/lastmile_qr_scan", "android": "https://dc.lft.to/lastmile_qr_scan"}, "type": "electric_scooter"}, {"name": "77bd5248397fdaca3adc01eb3a0bbda9", "is_reserved": 0, "fusion_lon": 0.0, "bike_id": "77bd5248397fdaca3adc01eb3a0bbda9", "lat": 38.92399733333333, "is_disabled": 0, "lon": -77.04296633333334, "fusion_lat": 0.0, "rental_uris": {"ios": "https://dc.lft.to/lastmile_qr_scan", "android": "https://dc.lft.to/lastmile_qr_scan"}, "type": "electric_scooter"}, {"name": "a7f7731995c4c60132dc16738926726f", "is_reserved": 0, "fusion_lon": 0.0, "bike_id": "a7f7731995c4c60132dc16738926726f", "lat": 38.921676, "is_disabled": 0, "lon": -77.01827516666667, "fusion_lat": 0.0, "rental_uris": {"ios": "https://dc.lft.to/lastmile_qr_scan", "android": "https://dc.lft.to/lastmile_qr_scan"}, "type": "electric_scooter"}, {"name": "b58b2cb8c03087c85cb901f6cdf8b73d", "is_reserved": 0, "fusion_lon": 0.0, "bike_id": "b58b2cb8c03087c85cb901f6cdf8b73d", "lat": 38.90791733333333, "is_disabled": 0, "lon": -77.01074416666667, "fusion_lat": 0.0, "rental_uris": {"ios": "https://dc.lft.to/lastmile_qr_scan", "android": "https://dc.lft.to/lastmile_qr_scan"}, "type": "electric_scooter"}, {"name": "11e10abc1209e73f8dc16d0b4db24890", "is_reserved": 0, "fusion_lon": 0.0, "bike_id": "11e10abc1209e73f8dc16d0b4db24890", "lat": 38.8960065, "is_disabled": 0, "lon": -77.0260805, "fusion_lat": 0.0, "rental_uris": {"ios": "https://dc.lft.to/lastmile_qr_scan", "android": "https://dc.lft.to/lastmile_qr_scan"}, "type": "electric_scooter"}, {"name": "95557a70020a4bdbbd0faf6b73627319", "is_reserved": 0, "fusion_lon": 0.0, "bike_id": "95557a70020a4bdbbd0faf6b73627319", "lat": 38.87576466666667, "is_disabled": 0, "lon": -77.234071, "fusion_lat": 0.0, "rental_uris": {"ios": "https://dc.lft.to/lastmile_qr_scan", "android": "https://dc.lft.to/lastmile_qr_scan"}, "type": "electric_bike"}, {"name": "b96e55e45b14c899e1dad939f9b58a15", "is_reserved": 0, "fusion_lon": 0.0, "bike_id": "b96e55e45b14c899e1dad939f9b58a15", "lat": 38.9022995, "is_disabled": 0, "lon": -77.0058385, "fusion_lat": 0.0, "rental_uris": {"ios": "https://dc.lft.to/lastmile_qr_scan", "android": "https://dc.lft.to/lastmile_qr_scan"}, "type": "electric_scooter"}, {"name": "302cf298c9ed990f68d01edd7c879ca2", "is_reserved": 0, "fusion_lon": 0.0, "bike_id": "302cf298c9ed990f68d01edd7c879ca2", "lat": 38.89332983333333, "is_disabled": 0, "lon": -76.93927066666667, "fusion_lat": 0.0, "rental_uris": {"ios": "https://dc.lft.to/lastmile_qr_scan", "android": "https://dc.lft.to/lastmile_qr_scan"}, "type": "electric_scooter"}, {"name": "4cc63f804df1c9473ceb4d6185881a2d", "is_reserved": 0, "fusion_lon": 0.0, "bike_id": "4cc63f804df1c9473ceb4d6185881a2d", "lat": 38.922509833333336, "is_disabled": 0, "lon": -77.0769935, "fusion_lat": 0.0, "rental_uris": {"ios": "https://dc.lft.to/lastmile_qr_scan", "android": "https://dc.lft.to/lastmile_qr_scan"}, "type": "electric_scooter"}, {"name": "efd011b635c0b471efa1441459ad2f32", "is_reserved": 0, "fusion_lon": 0.0, "bike_id": "efd011b635c0b471efa1441459ad2f32", "lat": 38.88505283333333, "is_disabled": 0, "lon": -77.0056435, "fusion_lat": 0.0, "rental_uris": {"ios": "https://dc.lft.to/lastmile_qr_scan", "android": "https://dc.lft.to/lastmile_qr_scan"}, "type": "electric_scooter"}, {"name": "90485919bbab00fc232f46082fcdd686", "is_reserved": 0, "fusion_lon": 0.0, "bike_id": "90485919bbab00fc232f46082fcdd686", "lat": 38.88742966666667, "is_disabled": 0, "lon": -77.0257085, "fusion_lat": 0.0, "rental_uris": {"ios": "https://dc.lft.to/lastmile_qr_scan", "android": "https://dc.lft.to/lastmile_qr_scan"}, "type": "electric_scooter"}, {"name": "db8650dba211112e6cfc39aefe3b56dc", "is_reserved": 0, "fusion_lon": 0.0, "bike_id": "db8650dba211112e6cfc39aefe3b56dc", "lat": 38.922897666666664, "is_disabled": 0, "lon": -77.03196633333333, "fusion_lat": 0.0, "rental_uris": {"ios": "https://dc.lft.to/lastmile_qr_scan", "android": "https://dc.lft.to/lastmile_qr_scan"}, "type": "electric_scooter"}, {"name": "92b7894c34c848d9117cd79d0605f39d", "is_reserved": 0, "fusion_lon": 0.0, "bike_id": "92b7894c34c848d9117cd79d0605f39d", "lat": 38.892170666666665, "is_disabled": 0, "lon": -77.00332066666667, "fusion_lat": 0.0, "rental_uris": {"ios": "https://dc.lft.to/lastmile_qr_scan", "android": "https://dc.lft.to/lastmile_qr_scan"}, "type": "electric_scooter"}, {"name": "42d96154756285065e0c5fdf3469ca61", "is_reserved": 0, "fusion_lon": 0.0, "bike_id": "42d96154756285065e0c5fdf3469ca61", "lat": 38.91314416666667, "is_disabled": 0, "lon": -77.06227666666666, "fusion_lat": 0.0, "rental_uris": {"ios": "https://dc.lft.to/lastmile_qr_scan", "android": "https://dc.lft.to/lastmile_qr_scan"}, "type": "electric_scooter"}, {"name": "2ee028ac090ce88d12fadb3b27d2e491", "is_reserved": 0, "fusion_lon": 0.0, "bike_id": "2ee028ac090ce88d12fadb3b27d2e491", "lat": 38.8913275, "is_disabled": 0, "lon": -76.91991833333333, "fusion_lat": 0.0, "rental_uris": {"ios": "https://dc.lft.to/lastmile_qr_scan", "android": "https://dc.lft.to/lastmile_qr_scan"}, "type": "electric_bike"}, {"name": "0179212d502d1d9796a6e38284bbe958", "is_reserved": 0, "fusion_lon": 0.0, "bike_id": "0179212d502d1d9796a6e38284bbe958", "lat": 38.93544166666667, "is_disabled": 0, "lon": -77.08794216666666, "fusion_lat": 0.0, "rental_uris": {"ios": "https://dc.lft.to/lastmile_qr_scan", "android": "https://dc.lft.to/lastmile_qr_scan"}, "type": "electric_scooter"}, {"name": "4163ec2d63e538f87b144427b8fe4c4f", "is_reserved": 0, "fusion_lon": 0.0, "bike_id": "4163ec2d63e538f87b144427b8fe4c4f", "lat": 38.92719733333333, "is_disabled": 0, "lon": -77.05984983333333, "fusion_lat": 0.0, "rental_uris": {"ios": "https://dc.lft.to/lastmile_qr_scan", "android": "https://dc.lft.to/lastmile_qr_scan"}, "type": "electric_scooter"}, {"name": "f00dae27ed1dc6e79969cca94ee12263", "is_reserved": 0, "fusion_lon": 0.0, "bike_id": "f00dae27ed1dc6e79969cca94ee12263", "lat": 38.91401783333333, "is_disabled": 0, "lon": -77.02835483333334, "fusion_lat": 0.0, "rental_uris": {"ios": "https://dc.lft.to/lastmile_qr_scan", "android": "https://dc.lft.to/lastmile_qr_scan"}, "type": "electric_bike"}, {"name": "9f2f7ee03b430d9f7872b3ee6d7082da", "is_reserved": 0, "fusion_lon": 0.0, "bike_id": "9f2f7ee03b430d9f7872b3ee6d7082da", "lat": 38.932053333333336, "is_disabled": 0, "lon": -77.0326865, "fusion_lat": 0.0, "rental_uris": {"ios": "https://dc.lft.to/lastmile_qr_scan", "android": "https://dc.lft.to/lastmile_qr_scan"}, "type": "electric_scooter"}, {"name": "cd76bce3505cfa0a9f1bda118c67b71e", "is_reserved": 0, "fusion_lon": 0.0, "bike_id": "cd76bce3505cfa0a9f1bda118c67b71e", "lat": 38.923674, "is_disabled": 0, "lon": -77.01958233333333, "fusion_lat": 0.0, "rental_uris": {"ios": "https://dc.lft.to/lastmile_qr_scan", "android": "https://dc.lft.to/lastmile_qr_scan"}, "type": "electric_scooter"}, {"name": "941fe3655370e34117450f9113a531c0", "is_reserved": 0, "fusion_lon": 0.0, "bike_id": "941fe3655370e34117450f9113a531c0", "lat": 38.907731166666665, "is_disabled": 0, "lon": -77.07144083333333, "fusion_lat": 0.0, "rental_uris": {"ios": "https://dc.lft.to/lastmile_qr_scan", "android": "https://dc.lft.to/lastmile_qr_scan"}, "type": "electric_scooter"}, {"name": "fe8421b8d145be6a4edb52b1e14feadd", "is_reserved": 0, "fusion_lon": 0.0, "bike_id": "fe8421b8d145be6a4edb52b1e14feadd", "lat": 38.935391833333334, "is_disabled": 0, "lon": -77.0308275, "fusion_lat": 0.0, "rental_uris": {"ios": "https://dc.lft.to/lastmile_qr_scan", "android": "https://dc.lft.to/lastmile_qr_scan"}, "type": "electric_scooter"}, {"name": "dbd1b70119453c7221fc1ebd21fd6e1a", "is_reserved": 0, "fusion_lon": 0.0, "bike_id": "dbd1b70119453c7221fc1ebd21fd6e1a", "lat": 38.908435833333336, "is_disabled": 0, "lon": -77.038503, "fusion_lat": 0.0, "rental_uris": {"ios": "https://dc.lft.to/lastmile_qr_scan", "android": "https://dc.lft.to/lastmile_qr_scan"}, "type": "electric_scooter"}, {"name": "31a9e3bf6ab8da6191fedf6fed31a154", "is_reserved": 0, "fusion_lon": 0.0, "bike_id": "31a9e3bf6ab8da6191fedf6fed31a154", "lat": 38.92290766666667, "is_disabled": 0, "lon": -77.03199766666667, "fusion_lat": 0.0, "rental_uris": {"ios": "https://dc.lft.to/lastmile_qr_scan", "android": "https://dc.lft.to/lastmile_qr_scan"}, "type": "electric_scooter"}, {"name": "f4fbe3e1d5a3b4cc96b45d440945978d", "is_reserved": 0, "fusion_lon": 0.0, "bike_id": "f4fbe3e1d5a3b4cc96b45d440945978d", "lat": 38.92325816666666, "is_disabled": 0, "lon": -77.03661916666667, "fusion_lat": 0.0, "rental_uris": {"ios": "https://dc.lft.to/lastmile_qr_scan", "android": "https://dc.lft.to/lastmile_qr_scan"}, "type": "electric_scooter"}, {"name": "f6c8764ac07a0a52d8b8be1ae5a883e3", "is_reserved": 0, "fusion_lon": 0.0, "bike_id": "f6c8764ac07a0a52d8b8be1ae5a883e3", "lat": 38.908471666666664, "is_disabled": 0, "lon": -77.02589316666666, "fusion_lat": 0.0, "rental_uris": {"ios": "https://dc.lft.to/lastmile_qr_scan", "android": "https://dc.lft.to/lastmile_qr_scan"}, "type": "electric_scooter"}, {"name": "aeab17b38e0f9f6dc3da44c1dec81b36", "is_reserved": 0, "fusion_lon": 0.0, "bike_id": "aeab17b38e0f9f6dc3da44c1dec81b36", "lat": 38.90962866666667, "is_disabled": 0, "lon": -77.04634566666667, "fusion_lat": 0.0, "rental_uris": {"ios": "https://dc.lft.to/lastmile_qr_scan", "android": "https://dc.lft.to/lastmile_qr_scan"}, "type": "electric_scooter"}, {"name": "40034dfe28606b8701b4b6269e6bc570", "is_reserved": 0, "fusion_lon": 0.0, "bike_id": "40034dfe28606b8701b4b6269e6bc570", "lat": 38.899633333333334, "is_disabled": 0, "lon": -77.01608383333334, "fusion_lat": 0.0, "rental_uris": {"ios": "https://dc.lft.to/lastmile_qr_scan", "android": "https://dc.lft.to/lastmile_qr_scan"}, "type": "electric_scooter"}, {"name": "c09ae6d66169a1416b3630e6c6e4d739", "is_reserved": 0, "fusion_lon": 0.0, "bike_id": "c09ae6d66169a1416b3630e6c6e4d739", "lat": 38.90214533333334, "is_disabled": 0, "lon": -77.0438435, "fusion_lat": 0.0, "rental_uris": {"ios": "https://dc.lft.to/lastmile_qr_scan", "android": "https://dc.lft.to/lastmile_qr_scan"}, "type": "electric_scooter"}, {"name": "a8b6caca8b521311548aff26fc7b36bc", "is_reserved": 0, "fusion_lon": 0.0, "bike_id": "a8b6caca8b521311548aff26fc7b36bc", "lat": 38.895550166666666, "is_disabled": 0, "lon": -76.930588, "fusion_lat": 0.0, "rental_uris": {"ios": "https://dc.lft.to/lastmile_qr_scan", "android": "https://dc.lft.to/lastmile_qr_scan"}, "type": "electric_scooter"}, {"name": "1f63b46fefcca2444e47bfd6766b34bc", "is_reserved": 0, "fusion_lon": 0.0, "bike_id": "1f63b46fefcca2444e47bfd6766b34bc", "lat": 38.90358916666667, "is_disabled": 0, "lon": -77.0220645, "fusion_lat": 0.0, "rental_uris": {"ios": "https://dc.lft.to/lastmile_qr_scan", "android": "https://dc.lft.to/lastmile_qr_scan"}, "type": "electric_scooter"}, {"name": "f43b26b037f3d4c3649c707059fe931f", "is_reserved": 0, "fusion_lon": 0.0, "bike_id": "f43b26b037f3d4c3649c707059fe931f", "lat": 38.89989283333333, "is_disabled": 0, "lon": -77.006572, "fusion_lat": 0.0, "rental_uris": {"ios": "https://dc.lft.to/lastmile_qr_scan", "android": "https://dc.lft.to/lastmile_qr_scan"}, "type": "electric_scooter"}, {"name": "a0e9a5b547c9db92893f45598a9959a1", "is_reserved": 0, "fusion_lon": 0.0, "bike_id": "a0e9a5b547c9db92893f45598a9959a1", "lat": 38.902119, "is_disabled": 0, "lon": -77.05029966666666, "fusion_lat": 0.0, "rental_uris": {"ios": "https://dc.lft.to/lastmile_qr_scan", "android": "https://dc.lft.to/lastmile_qr_scan"}, "type": "electric_scooter"}, {"name": "b1e9d3387e46aadd137b413a449c0241", "is_reserved": 0, "fusion_lon": 0.0, "bike_id": "b1e9d3387e46aadd137b413a449c0241", "lat": 38.897482833333335, "is_disabled": 0, "lon": -77.003502, "fusion_lat": 0.0, "rental_uris": {"ios": "https://dc.lft.to/lastmile_qr_scan", "android": "https://dc.lft.to/lastmile_qr_scan"}, "type": "electric_scooter"}, {"name": "e007d38b79b7e010b92e45b402361bd9", "is_reserved": 0, "fusion_lon": 0.0, "bike_id": "e007d38b79b7e010b92e45b402361bd9", "lat": 38.920580666666666, "is_disabled": 0, "lon": -77.0418655, "fusion_lat": 0.0, "rental_uris": {"ios": "https://dc.lft.to/lastmile_qr_scan", "android": "https://dc.lft.to/lastmile_qr_scan"}, "type": "electric_scooter"}, {"name": "f0e6da5c08c885b7d62a8c9d8ca5342d", "is_reserved": 0, "fusion_lon": 0.0, "bike_id": "f0e6da5c08c885b7d62a8c9d8ca5342d", "lat": 38.872908333333335, "is_disabled": 0, "lon": -77.00984216666667, "fusion_lat": 0.0, "rental_uris": {"ios": "https://dc.lft.to/lastmile_qr_scan", "android": "https://dc.lft.to/lastmile_qr_scan"}, "type": "electric_scooter"}, {"name": "186a1bb7950d649b370d52522c6dfc32", "is_reserved": 0, "fusion_lon": 0.0, "bike_id": "186a1bb7950d649b370d52522c6dfc32", "lat": 38.895852833333336, "is_disabled": 0, "lon": -77.02564716666667, "fusion_lat": 0.0, "rental_uris": {"ios": "https://dc.lft.to/lastmile_qr_scan", "android": "https://dc.lft.to/lastmile_qr_scan"}, "type": "electric_scooter"}, {"name": "8af562dd8789e3fef0f558687886613d", "is_reserved": 0, "fusion_lon": 0.0, "bike_id": "8af562dd8789e3fef0f558687886613d", "lat": 38.92445766666667, "is_disabled": 0, "lon": -77.02979716666667, "fusion_lat": 0.0, "rental_uris": {"ios": "https://dc.lft.to/lastmile_qr_scan", "android": "https://dc.lft.to/lastmile_qr_scan"}, "type": "electric_scooter"}, {"name": "ea78f35c3e17e696f9ba47c25a28bf1a", "is_reserved": 0, "fusion_lon": 0.0, "bike_id": "ea78f35c3e17e696f9ba47c25a28bf1a", "lat": 38.80443783333333, "is_disabled": 0, "lon": -77.06079683333333, "fusion_lat": 0.0, "rental_uris": {"ios": "https://dc.lft.to/lastmile_qr_scan", "android": "https://dc.lft.to/lastmile_qr_scan"}, "type": "electric_bike"}, {"name": "a9af844028cb01a2cc43ace3ad9adc70", "is_reserved": 0, "fusion_lon": 0.0, "bike_id": "a9af844028cb01a2cc43ace3ad9adc70", "lat": 38.93568883333333, "is_disabled": 0, "lon": -77.03267616666666, "fusion_lat": 0.0, "rental_uris": {"ios": "https://dc.lft.to/lastmile_qr_scan", "android": "https://dc.lft.to/lastmile_qr_scan"}, "type": "electric_scooter"}, {"name": "f0c1a39faee0b25b5f574e2ada274dce", "is_reserved": 0, "fusion_lon": 0.0, "bike_id": "f0c1a39faee0b25b5f574e2ada274dce", "lat": 38.931097333333334, "is_disabled": 0, "lon": -77.021147, "fusion_lat": 0.0, "rental_uris": {"ios": "https://dc.lft.to/lastmile_qr_scan", "android": "https://dc.lft.to/lastmile_qr_scan"}, "type": "electric_scooter"}, {"name": "10b277cb3886d4d29c714f5f3f44d5f1", "is_reserved": 0, "fusion_lon": 0.0, "bike_id": "10b277cb3886d4d29c714f5f3f44d5f1", "lat": 38.9463285, "is_disabled": 0, "lon": -76.9930515, "fusion_lat": 0.0, "rental_uris": {"ios": "https://dc.lft.to/lastmile_qr_scan", "android": "https://dc.lft.to/lastmile_qr_scan"}, "type": "electric_bike"}, {"name": "24a0e0051c61c49f87979244b2d37d53", "is_reserved": 0, "fusion_lon": 0.0, "bike_id": "24a0e0051c61c49f87979244b2d37d53", "lat": 38.897292666666665, "is_disabled": 0, "lon": -77.05518666666667, "fusion_lat": 0.0, "rental_uris": {"ios": "https://dc.lft.to/lastmile_qr_scan", "android": "https://dc.lft.to/lastmile_qr_scan"}, "type": "electric_scooter"}, {"name": "47241b5a72efe5de49405448c0c64c12", "is_reserved": 0, "fusion_lon": 0.0, "bike_id": "47241b5a72efe5de49405448c0c64c12", "lat": 38.9236805, "is_disabled": 0, "lon": -77.01953266666666, "fusion_lat": 0.0, "rental_uris": {"ios": "https://dc.lft.to/lastmile_qr_scan", "android": "https://dc.lft.to/lastmile_qr_scan"}, "type": "electric_scooter"}, {"name": "8e59ea88e0a9f1160014966eea53bee1", "is_reserved": 0, "fusion_lon": 0.0, "bike_id": "8e59ea88e0a9f1160014966eea53bee1", "lat": 38.922909, "is_disabled": 0, "lon": -77.0319645, "fusion_lat": 0.0, "rental_uris": {"ios": "https://dc.lft.to/lastmile_qr_scan", "android": "https://dc.lft.to/lastmile_qr_scan"}, "type": "electric_scooter"}, {"name": "ba7287c4a2bae765a691ad15a9ef2f27", "is_reserved": 0, "fusion_lon": 0.0, "bike_id": "ba7287c4a2bae765a691ad15a9ef2f27", "lat": 39.08429983333333, "is_disabled": 0, "lon": -76.95131133333334, "fusion_lat": 0.0, "rental_uris": {"ios": "https://dc.lft.to/lastmile_qr_scan", "android": "https://dc.lft.to/lastmile_qr_scan"}, "type": "electric_bike"}, {"name": "e0cefea3f122bccf2ac9e4063ca19497", "is_reserved": 0, "fusion_lon": 0.0, "bike_id": "e0cefea3f122bccf2ac9e4063ca19497", "lat": 38.90605433333333, "is_disabled": 0, "lon": -77.0397985, "fusion_lat": 0.0, "rental_uris": {"ios": "https://dc.lft.to/lastmile_qr_scan", "android": "https://dc.lft.to/lastmile_qr_scan"}, "type": "electric_scooter"}, {"name": "38cb00ba9dad800e58ffb70887221a06", "is_reserved": 0, "fusion_lon": 0.0, "bike_id": "38cb00ba9dad800e58ffb70887221a06", "lat": 38.915318, "is_disabled": 0, "lon": -77.04609083333334, "fusion_lat": 0.0, "rental_uris": {"ios": "https://dc.lft.to/lastmile_qr_scan", "android": "https://dc.lft.to/lastmile_qr_scan"}, "type": "electric_scooter"}, {"name": "40c2da542ad4911f760b3d3765e806cf", "is_reserved": 0, "fusion_lon": 0.0, "bike_id": "40c2da542ad4911f760b3d3765e806cf", "lat": 38.90946916666667, "is_disabled": 0, "lon": -76.9359005, "fusion_lat": 0.0, "rental_uris": {"ios": "https://dc.lft.to/lastmile_qr_scan", "android": "https://dc.lft.to/lastmile_qr_scan"}, "type": "electric_scooter"}, {"name": "247fde5170a1fa40023e970890d100e0", "is_reserved": 0, "fusion_lon": 0.0, "bike_id": "247fde5170a1fa40023e970890d100e0", "lat": 38.90504383333333, "is_disabled": 0, "lon": -77.040491, "fusion_lat": 0.0, "rental_uris": {"ios": "https://dc.lft.to/lastmile_qr_scan", "android": "https://dc.lft.to/lastmile_qr_scan"}, "type": "electric_scooter"}, {"name": "cebe11e8ca981483214cc24442fbf913", "is_reserved": 0, "fusion_lon": 0.0, "bike_id": "cebe11e8ca981483214cc24442fbf913", "lat": 38.929074, "is_disabled": 0, "lon": -77.0211445, "fusion_lat": 0.0, "rental_uris": {"ios": "https://dc.lft.to/lastmile_qr_scan", "android": "https://dc.lft.to/lastmile_qr_scan"}, "type": "electric_scooter"}, {"name": "b4f624d5529f499a867ebdc3f63c1f8d", "is_reserved": 0, "fusion_lon": 0.0, "bike_id": "b4f624d5529f499a867ebdc3f63c1f8d", "lat": 38.897434833333335, "is_disabled": 0, "lon": -77.0466175, "fusion_lat": 0.0, "rental_uris": {"ios": "https://dc.lft.to/lastmile_qr_scan", "android": "https://dc.lft.to/lastmile_qr_scan"}, "type": "electric_scooter"}, {"name": "36a0427c5f27ffe965f46c3ee646c242", "is_reserved": 0, "fusion_lon": 0.0, "bike_id": "36a0427c5f27ffe965f46c3ee646c242", "lat": 38.9178875, "is_disabled": 0, "lon": -77.02492716666667, "fusion_lat": 0.0, "rental_uris": {"ios": "https://dc.lft.to/lastmile_qr_scan", "android": "https://dc.lft.to/lastmile_qr_scan"}, "type": "electric_scooter"}, {"name": "916b7b15ad9cb89b2db965424568e30c", "is_reserved": 0, "fusion_lon": 0.0, "bike_id": "916b7b15ad9cb89b2db965424568e30c", "lat": 38.90812833333333, "is_disabled": 0, "lon": -77.063628, "fusion_lat": 0.0, "rental_uris": {"ios": "https://dc.lft.to/lastmile_qr_scan", "android": "https://dc.lft.to/lastmile_qr_scan"}, "type": "electric_scooter"}, {"name": "7f74d948596dd87c3ab2e01aec947231", "is_reserved": 0, "fusion_lon": 0.0, "bike_id": "7f74d948596dd87c3ab2e01aec947231", "lat": 38.9226355, "is_disabled": 0, "lon": -77.0429465, "fusion_lat": 0.0, "rental_uris": {"ios": "https://dc.lft.to/lastmile_qr_scan", "android": "https://dc.lft.to/lastmile_qr_scan"}, "type": "electric_scooter"}, {"name": "112189beac49ac921a4c3eaac2937093", "is_reserved": 0, "fusion_lon": 0.0, "bike_id": "112189beac49ac921a4c3eaac2937093", "lat": 38.92279216666667, "is_disabled": 0, "lon": -77.01947416666667, "fusion_lat": 0.0, "rental_uris": {"ios": "https://dc.lft.to/lastmile_qr_scan", "android": "https://dc.lft.to/lastmile_qr_scan"}, "type": "electric_scooter"}, {"name": "44bc2ae5eed7c199c1164bb89213bd13", "is_reserved": 0, "fusion_lon": 0.0, "bike_id": "44bc2ae5eed7c199c1164bb89213bd13", "lat": 38.88139666666667, "is_disabled": 0, "lon": -77.01300566666667, "fusion_lat": 0.0, "rental_uris": {"ios": "https://dc.lft.to/lastmile_qr_scan", "android": "https://dc.lft.to/lastmile_qr_scan"}, "type": "electric_bike"}, {"name": "1103ebcaebe4dca10bcc6f6b097459ee", "is_reserved": 0, "fusion_lon": 0.0, "bike_id": "1103ebcaebe4dca10bcc6f6b097459ee", "lat": 38.909530833333335, "is_disabled": 0, "lon": -77.0345105, "fusion_lat": 0.0, "rental_uris": {"ios": "https://dc.lft.to/lastmile_qr_scan", "android": "https://dc.lft.to/lastmile_qr_scan"}, "type": "electric_scooter"}, {"name": "1eca531581f3cb4e5e892e0522b3db64", "is_reserved": 0, "fusion_lon": 0.0, "bike_id": "1eca531581f3cb4e5e892e0522b3db64", "lat": 38.93247133333333, "is_disabled": 0, "lon": -77.03262533333333, "fusion_lat": 0.0, "rental_uris": {"ios": "https://dc.lft.to/lastmile_qr_scan", "android": "https://dc.lft.to/lastmile_qr_scan"}, "type": "electric_scooter"}, {"name": "ac26d825a779ed5e788a8cbda4710cbc", "is_reserved": 0, "fusion_lon": 0.0, "bike_id": "ac26d825a779ed5e788a8cbda4710cbc", "lat": 38.89716683333333, "is_disabled": 0, "lon": -77.029892, "fusion_lat": 0.0, "rental_uris": {"ios": "https://dc.lft.to/lastmile_qr_scan", "android": "https://dc.lft.to/lastmile_qr_scan"}, "type": "electric_scooter"}, {"name": "e2996dd05b73bdd84b5970c27cc5e7a9", "is_reserved": 0, "fusion_lon": 0.0, "bike_id": "e2996dd05b73bdd84b5970c27cc5e7a9", "lat": 38.902276, "is_disabled": 0, "lon": -77.02822566666667, "fusion_lat": 0.0, "rental_uris": {"ios": "https://dc.lft.to/lastmile_qr_scan", "android": "https://dc.lft.to/lastmile_qr_scan"}, "type": "electric_scooter"}, {"name": "cfc5c79d6dd6af7789ef717fa7837e47", "is_reserved": 0, "fusion_lon": 0.0, "bike_id": "cfc5c79d6dd6af7789ef717fa7837e47", "lat": 38.930730833333335, "is_disabled": 0, "lon": -77.02160233333333, "fusion_lat": 0.0, "rental_uris": {"ios": "https://dc.lft.to/lastmile_qr_scan", "android": "https://dc.lft.to/lastmile_qr_scan"}, "type": "electric_scooter"}, {"name": "0d1f076d6dbd76b6fc198bf4134ea152", "is_reserved": 0, "fusion_lon": 0.0, "bike_id": "0d1f076d6dbd76b6fc198bf4134ea152", "lat": 38.89238816666666, "is_disabled": 0, "lon": -77.03177116666667, "fusion_lat": 0.0, "rental_uris": {"ios": "https://dc.lft.to/lastmile_qr_scan", "android": "https://dc.lft.to/lastmile_qr_scan"}, "type": "electric_scooter"}, {"name": "59127bbabff204ea70df258632065c90", "is_reserved": 0, "fusion_lon": 0.0, "bike_id": "59127bbabff204ea70df258632065c90", "lat": 38.904081, "is_disabled": 0, "lon": -77.04345833333333, "fusion_lat": 0.0, "rental_uris": {"ios": "https://dc.lft.to/lastmile_qr_scan", "android": "https://dc.lft.to/lastmile_qr_scan"}, "type": "electric_scooter"}, {"name": "96dbc5cf83318c16374c7cd56003d2ab", "is_reserved": 0, "fusion_lon": 0.0, "bike_id": "96dbc5cf83318c16374c7cd56003d2ab", "lat": 38.92240433333333, "is_disabled": 0, "lon": -77.02811333333334, "fusion_lat": 0.0, "rental_uris": {"ios": "https://dc.lft.to/lastmile_qr_scan", "android": "https://dc.lft.to/lastmile_qr_scan"}, "type": "electric_scooter"}, {"name": "10f3465def5fdbbcff7b2860b7264554", "is_reserved": 0, "fusion_lon": 0.0, "bike_id": "10f3465def5fdbbcff7b2860b7264554", "lat": 38.898883166666664, "is_disabled": 0, "lon": -77.028002, "fusion_lat": 0.0, "rental_uris": {"ios": "https://dc.lft.to/lastmile_qr_scan", "android": "https://dc.lft.to/lastmile_qr_scan"}, "type": "electric_scooter"}, {"name": "721e758db2eaa8981d55f2051cc8dae8", "is_reserved": 0, "fusion_lon": 0.0, "bike_id": "721e758db2eaa8981d55f2051cc8dae8", "lat": 38.9026975, "is_disabled": 0, "lon": -77.03858883333334, "fusion_lat": 0.0, "rental_uris": {"ios": "https://dc.lft.to/lastmile_qr_scan", "android": "https://dc.lft.to/lastmile_qr_scan"}, "type": "electric_scooter"}, {"name": "0c1054b614c55aea597f55fdfe98b22b", "is_reserved": 0, "fusion_lon": 0.0, "bike_id": "0c1054b614c55aea597f55fdfe98b22b", "lat": 38.9091545, "is_disabled": 0, "lon": -77.0727, "fusion_lat": 0.0, "rental_uris": {"ios": "https://dc.lft.to/lastmile_qr_scan", "android": "https://dc.lft.to/lastmile_qr_scan"}, "type": "electric_scooter"}, {"name": "90d6d2dbf9032541903b8dfd6dee9195", "is_reserved": 0, "fusion_lon": 0.0, "bike_id": "90d6d2dbf9032541903b8dfd6dee9195", "lat": 38.9247895, "is_disabled": 0, "lon": -77.034949, "fusion_lat": 0.0, "rental_uris": {"ios": "https://dc.lft.to/lastmile_qr_scan", "android": "https://dc.lft.to/lastmile_qr_scan"}, "type": "electric_scooter"}, {"name": "8c893d65a363bd70282b7d051326e8ce", "is_reserved": 0, "fusion_lon": 0.0, "bike_id": "8c893d65a363bd70282b7d051326e8ce", "lat": 38.92472266666667, "is_disabled": 0, "lon": -77.02216083333333, "fusion_lat": 0.0, "rental_uris": {"ios": "https://dc.lft.to/lastmile_qr_scan", "android": "https://dc.lft.to/lastmile_qr_scan"}, "type": "electric_scooter"}, {"name": "1be3308d985e0dd2f16dbe593ae17cdb", "is_reserved": 0, "fusion_lon": 0.0, "bike_id": "1be3308d985e0dd2f16dbe593ae17cdb", "lat": 38.89872166666667, "is_disabled": 0, "lon": -77.025906, "fusion_lat": 0.0, "rental_uris": {"ios": "https://dc.lft.to/lastmile_qr_scan", "android": "https://dc.lft.to/lastmile_qr_scan"}, "type": "electric_scooter"}, {"name": "5e844674d9326746aaf9b46386871b37", "is_reserved": 0, "fusion_lon": 0.0, "bike_id": "5e844674d9326746aaf9b46386871b37", "lat": 38.926093, "is_disabled": 0, "lon": -77.037268, "fusion_lat": 0.0, "rental_uris": {"ios": "https://dc.lft.to/lastmile_qr_scan", "android": "https://dc.lft.to/lastmile_qr_scan"}, "type": "electric_scooter"}, {"name": "ba950fb9e5e7b95855e29b728cddab9a", "is_reserved": 0, "fusion_lon": 0.0, "bike_id": "ba950fb9e5e7b95855e29b728cddab9a", "lat": 38.90568116666667, "is_disabled": 0, "lon": -77.00379866666667, "fusion_lat": 0.0, "rental_uris": {"ios": "https://dc.lft.to/lastmile_qr_scan", "android": "https://dc.lft.to/lastmile_qr_scan"}, "type": "electric_scooter"}, {"name": "48e91b68a56780cafbcd95dc63974dbf", "is_reserved": 0, "fusion_lon": 0.0, "bike_id": "48e91b68a56780cafbcd95dc63974dbf", "lat": 38.89259533333333, "is_disabled": 0, "lon": -76.98374866666667, "fusion_lat": 0.0, "rental_uris": {"ios": "https://dc.lft.to/lastmile_qr_scan", "android": "https://dc.lft.to/lastmile_qr_scan"}, "type": "electric_scooter"}, {"name": "ebd12d742ccf2ba232934f0933ad509a", "is_reserved": 0, "fusion_lon": 0.0, "bike_id": "ebd12d742ccf2ba232934f0933ad509a", "lat": 38.91565116666666, "is_disabled": 0, "lon": -77.03166183333333, "fusion_lat": 0.0, "rental_uris": {"ios": "https://dc.lft.to/lastmile_qr_scan", "android": "https://dc.lft.to/lastmile_qr_scan"}, "type": "electric_scooter"}, {"name": "78e4cfde154500868a7b3e1cc9ce3b62", "is_reserved": 0, "fusion_lon": 0.0, "bike_id": "78e4cfde154500868a7b3e1cc9ce3b62", "lat": 38.91929316666667, "is_disabled": 0, "lon": -77.03390666666667, "fusion_lat": 0.0, "rental_uris": {"ios": "https://dc.lft.to/lastmile_qr_scan", "android": "https://dc.lft.to/lastmile_qr_scan"}, "type": "electric_scooter"}, {"name": "2efc90aadeba05ab1ec3cd5e629f856e", "is_reserved": 0, "fusion_lon": 0.0, "bike_id": "2efc90aadeba05ab1ec3cd5e629f856e", "lat": 38.9397015, "is_disabled": 0, "lon": -77.02942133333333, "fusion_lat": 0.0, "rental_uris": {"ios": "https://dc.lft.to/lastmile_qr_scan", "android": "https://dc.lft.to/lastmile_qr_scan"}, "type": "electric_scooter"}, {"name": "777bcbd4e88262ef6539452ee88c7666", "is_reserved": 0, "fusion_lon": 0.0, "bike_id": "777bcbd4e88262ef6539452ee88c7666", "lat": 38.88611816666667, "is_disabled": 0, "lon": -77.0219835, "fusion_lat": 0.0, "rental_uris": {"ios": "https://dc.lft.to/lastmile_qr_scan", "android": "https://dc.lft.to/lastmile_qr_scan"}, "type": "electric_scooter"}, {"name": "8aa06ca8d99fd2703ea07a0b2fbe9cd0", "is_reserved": 0, "fusion_lon": 0.0, "bike_id": "8aa06ca8d99fd2703ea07a0b2fbe9cd0", "lat": 38.9030015, "is_disabled": 0, "lon": -77.03664183333333, "fusion_lat": 0.0, "rental_uris": {"ios": "https://dc.lft.to/lastmile_qr_scan", "android": "https://dc.lft.to/lastmile_qr_scan"}, "type": "electric_scooter"}, {"name": "bd04645517cf391c914eabefa7209487", "is_reserved": 0, "fusion_lon": 0.0, "bike_id": "bd04645517cf391c914eabefa7209487", "lat": 38.88005233333333, "is_disabled": 0, "lon": -76.997855, "fusion_lat": 0.0, "rental_uris": {"ios": "https://dc.lft.to/lastmile_qr_scan", "android": "https://dc.lft.to/lastmile_qr_scan"}, "type": "electric_scooter"}, {"name": "826adba4598be64ce2edadf96758aa7a", "is_reserved": 0, "fusion_lon": 0.0, "bike_id": "826adba4598be64ce2edadf96758aa7a", "lat": 38.923726, "is_disabled": 0, "lon": -77.0213245, "fusion_lat": 0.0, "rental_uris": {"ios": "https://dc.lft.to/lastmile_qr_scan", "android": "https://dc.lft.to/lastmile_qr_scan"}, "type": "electric_scooter"}, {"name": "fd5b9f1f05fc50487761f0a58f8bb020", "is_reserved": 0, "fusion_lon": 0.0, "bike_id": "fd5b9f1f05fc50487761f0a58f8bb020", "lat": 39.03427166666667, "is_disabled": 0, "lon": -77.042884, "fusion_lat": 0.0, "rental_uris": {"ios": "https://dc.lft.to/lastmile_qr_scan", "android": "https://dc.lft.to/lastmile_qr_scan"}, "type": "electric_bike"}, {"name": "88ca81fe3f601815db3a3354c6eb505b", "is_reserved": 0, "fusion_lon": 0.0, "bike_id": "88ca81fe3f601815db3a3354c6eb505b", "lat": 38.91928016666667, "is_disabled": 0, "lon": -77.0394995, "fusion_lat": 0.0, "rental_uris": {"ios": "https://dc.lft.to/lastmile_qr_scan", "android": "https://dc.lft.to/lastmile_qr_scan"}, "type": "electric_scooter"}, {"name": "299f2de21006a11fb41cd2eadc4467f7", "is_reserved": 0, "fusion_lon": 0.0, "bike_id": "299f2de21006a11fb41cd2eadc4467f7", "lat": 38.8987265, "is_disabled": 0, "lon": -76.9466435, "fusion_lat": 0.0, "rental_uris": {"ios": "https://dc.lft.to/lastmile_qr_scan", "android": "https://dc.lft.to/lastmile_qr_scan"}, "type": "electric_scooter"}, {"name": "ada8115de7b97295cf8d8bd37cdfa6ec", "is_reserved": 0, "fusion_lon": 0.0, "bike_id": "ada8115de7b97295cf8d8bd37cdfa6ec", "lat": 38.87315666666667, "is_disabled": 0, "lon": -77.01066466666667, "fusion_lat": 0.0, "rental_uris": {"ios": "https://dc.lft.to/lastmile_qr_scan", "android": "https://dc.lft.to/lastmile_qr_scan"}, "type": "electric_scooter"}, {"name": "088d0d6f3417464d4d9b8a534331e07e", "is_reserved": 0, "fusion_lon": 0.0, "bike_id": "088d0d6f3417464d4d9b8a534331e07e", "lat": 38.89868116666667, "is_disabled": 0, "lon": -77.03939316666667, "fusion_lat": 0.0, "rental_uris": {"ios": "https://dc.lft.to/lastmile_qr_scan", "android": "https://dc.lft.to/lastmile_qr_scan"}, "type": "electric_scooter"}, {"name": "c281953f0a26b0729234f5cf7bc57657", "is_reserved": 0, "fusion_lon": 0.0, "bike_id": "c281953f0a26b0729234f5cf7bc57657", "lat": 38.93207733333333, "is_disabled": 0, "lon": -77.026647, "fusion_lat": 0.0, "rental_uris": {"ios": "https://dc.lft.to/lastmile_qr_scan", "android": "https://dc.lft.to/lastmile_qr_scan"}, "type": "electric_scooter"}, {"name": "ec40b4f427efe226a8feaf3b475452ff", "is_reserved": 0, "fusion_lon": 0.0, "bike_id": "ec40b4f427efe226a8feaf3b475452ff", "lat": 38.907062333333336, "is_disabled": 0, "lon": -77.02815283333334, "fusion_lat": 0.0, "rental_uris": {"ios": "https://dc.lft.to/lastmile_qr_scan", "android": "https://dc.lft.to/lastmile_qr_scan"}, "type": "electric_scooter"}, {"name": "851207980a7d21d6e0edf035189baf8f", "is_reserved": 0, "fusion_lon": 0.0, "bike_id": "851207980a7d21d6e0edf035189baf8f", "lat": 38.92064416666667, "is_disabled": 0, "lon": -77.04197066666667, "fusion_lat": 0.0, "rental_uris": {"ios": "https://dc.lft.to/lastmile_qr_scan", "android": "https://dc.lft.to/lastmile_qr_scan"}, "type": "electric_scooter"}, {"name": "a7dfb732e298acc7bda1203d3e8f65ae", "is_reserved": 0, "fusion_lon": 0.0, "bike_id": "a7dfb732e298acc7bda1203d3e8f65ae", "lat": 38.92411283333333, "is_disabled": 0, "lon": -77.02025016666667, "fusion_lat": 0.0, "rental_uris": {"ios": "https://dc.lft.to/lastmile_qr_scan", "android": "https://dc.lft.to/lastmile_qr_scan"}, "type": "electric_scooter"}, {"name": "04ec4034f652f1ac88ca8e38d078477a", "is_reserved": 0, "fusion_lon": 0.0, "bike_id": "04ec4034f652f1ac88ca8e38d078477a", "lat": 38.91034283333333, "is_disabled": 0, "lon": -76.9934315, "fusion_lat": 0.0, "rental_uris": {"ios": "https://dc.lft.to/lastmile_qr_scan", "android": "https://dc.lft.to/lastmile_qr_scan"}, "type": "electric_scooter"}, {"name": "edd6a50d4fc0a7ec04a7e228ebf5dec6", "is_reserved": 0, "fusion_lon": 0.0, "bike_id": "edd6a50d4fc0a7ec04a7e228ebf5dec6", "lat": 38.89255033333333, "is_disabled": 0, "lon": -77.0465305, "fusion_lat": 0.0, "rental_uris": {"ios": "https://dc.lft.to/lastmile_qr_scan", "android": "https://dc.lft.to/lastmile_qr_scan"}, "type": "electric_scooter"}, {"name": "282d984a995792af91c7221d32f188f4", "is_reserved": 0, "fusion_lon": 0.0, "bike_id": "282d984a995792af91c7221d32f188f4", "lat": 38.89961133333333, "is_disabled": 0, "lon": -77.04712533333333, "fusion_lat": 0.0, "rental_uris": {"ios": "https://dc.lft.to/lastmile_qr_scan", "android": "https://dc.lft.to/lastmile_qr_scan"}, "type": "electric_scooter"}, {"name": "67e7812f2d34c77b77d64d6af1455c4f", "is_reserved": 0, "fusion_lon": 0.0, "bike_id": "67e7812f2d34c77b77d64d6af1455c4f", "lat": 38.92369566666667, "is_disabled": 0, "lon": -77.01945233333333, "fusion_lat": 0.0, "rental_uris": {"ios": "https://dc.lft.to/lastmile_qr_scan", "android": "https://dc.lft.to/lastmile_qr_scan"}, "type": "electric_scooter"}, {"name": "796659f07fc50f0519eb0a76bf8a524d", "is_reserved": 0, "fusion_lon": 0.0, "bike_id": "796659f07fc50f0519eb0a76bf8a524d", "lat": 38.91014916666666, "is_disabled": 0, "lon": -77.044458, "fusion_lat": 0.0, "rental_uris": {"ios": "https://dc.lft.to/lastmile_qr_scan", "android": "https://dc.lft.to/lastmile_qr_scan"}, "type": "electric_scooter"}, {"name": "2398035a6e119ffd8697221281c002a0", "is_reserved": 0, "fusion_lon": 0.0, "bike_id": "2398035a6e119ffd8697221281c002a0", "lat": 38.87841733333333, "is_disabled": 0, "lon": -76.93129966666666, "fusion_lat": 0.0, "rental_uris": {"ios": "https://dc.lft.to/lastmile_qr_scan", "android": "https://dc.lft.to/lastmile_qr_scan"}, "type": "electric_scooter"}, {"name": "c0497b3407755d80e38acfedc293c5c2", "is_reserved": 0, "fusion_lon": 0.0, "bike_id": "c0497b3407755d80e38acfedc293c5c2", "lat": 39.010778, "is_disabled": 0, "lon": -76.91062, "fusion_lat": 0.0, "rental_uris": {"ios": "https://dc.lft.to/lastmile_qr_scan", "android": "https://dc.lft.to/lastmile_qr_scan"}, "type": "electric_bike"}, {"name": "6c7402b3618ba41dce9427f3ca6d75c1", "is_reserved": 0, "fusion_lon": 0.0, "bike_id": "6c7402b3618ba41dce9427f3ca6d75c1", "lat": 38.91824316666667, "is_disabled": 0, "lon": -77.03438766666666, "fusion_lat": 0.0, "rental_uris": {"ios": "https://dc.lft.to/lastmile_qr_scan", "android": "https://dc.lft.to/lastmile_qr_scan"}, "type": "electric_scooter"}, {"name": "672eff03d018f62bc1ee327138ea2a0f", "is_reserved": 0, "fusion_lon": 0.0, "bike_id": "672eff03d018f62bc1ee327138ea2a0f", "lat": 38.92634183333333, "is_disabled": 0, "lon": -77.02157216666667, "fusion_lat": 0.0, "rental_uris": {"ios": "https://dc.lft.to/lastmile_qr_scan", "android": "https://dc.lft.to/lastmile_qr_scan"}, "type": "electric_scooter"}, {"name": "b3ff0757e0d5454cd7ea7e91d98a6f55", "is_reserved": 0, "fusion_lon": 0.0, "bike_id": "b3ff0757e0d5454cd7ea7e91d98a6f55", "lat": 38.929794, "is_disabled": 0, "lon": -76.98600816666666, "fusion_lat": 0.0, "rental_uris": {"ios": "https://dc.lft.to/lastmile_qr_scan", "android": "https://dc.lft.to/lastmile_qr_scan"}, "type": "electric_bike"}, {"name": "f4109f9875357467632484399bc3d756", "is_reserved": 0, "fusion_lon": 0.0, "bike_id": "f4109f9875357467632484399bc3d756", "lat": 38.92416566666667, "is_disabled": 0, "lon": -77.02265416666667, "fusion_lat": 0.0, "rental_uris": {"ios": "https://dc.lft.to/lastmile_qr_scan", "android": "https://dc.lft.to/lastmile_qr_scan"}, "type": "electric_scooter"}, {"name": "661ce8db7c17a2ccb8988e59dc9a857b", "is_reserved": 0, "fusion_lon": 0.0, "bike_id": "661ce8db7c17a2ccb8988e59dc9a857b", "lat": 38.913689833333336, "is_disabled": 0, "lon": -77.046597, "fusion_lat": 0.0, "rental_uris": {"ios": "https://dc.lft.to/lastmile_qr_scan", "android": "https://dc.lft.to/lastmile_qr_scan"}, "type": "electric_scooter"}, {"name": "6ac633ed7b0509328960637f7f62469c", "is_reserved": 0, "fusion_lon": 0.0, "bike_id": "6ac633ed7b0509328960637f7f62469c", "lat": 38.91116866666667, "is_disabled": 0, "lon": -77.00603883333333, "fusion_lat": 0.0, "rental_uris": {"ios": "https://dc.lft.to/lastmile_qr_scan", "android": "https://dc.lft.to/lastmile_qr_scan"}, "type": "electric_scooter"}, {"name": "2122c948019c76eeda049269e2f606a8", "is_reserved": 0, "fusion_lon": 0.0, "bike_id": "2122c948019c76eeda049269e2f606a8", "lat": 38.8937135, "is_disabled": 0, "lon": -77.03957466666667, "fusion_lat": 0.0, "rental_uris": {"ios": "https://dc.lft.to/lastmile_qr_scan", "android": "https://dc.lft.to/lastmile_qr_scan"}, "type": "electric_scooter"}, {"name": "9f54aa991d9788969175a505da0e565b", "is_reserved": 0, "fusion_lon": 0.0, "bike_id": "9f54aa991d9788969175a505da0e565b", "lat": 38.893618833333335, "is_disabled": 0, "lon": -77.01565816666667, "fusion_lat": 0.0, "rental_uris": {"ios": "https://dc.lft.to/lastmile_qr_scan", "android": "https://dc.lft.to/lastmile_qr_scan"}, "type": "electric_scooter"}, {"name": "3198afc7609c1673f0f7f3003394d2db", "is_reserved": 0, "fusion_lon": 0.0, "bike_id": "3198afc7609c1673f0f7f3003394d2db", "lat": 38.886440666666665, "is_disabled": 0, "lon": -76.9820965, "fusion_lat": 0.0, "rental_uris": {"ios": "https://dc.lft.to/lastmile_qr_scan", "android": "https://dc.lft.to/lastmile_qr_scan"}, "type": "electric_scooter"}, {"name": "9559d10e2e41abcf3e24a3b1ffd8028a", "is_reserved": 0, "fusion_lon": 0.0, "bike_id": "9559d10e2e41abcf3e24a3b1ffd8028a", "lat": 38.909992333333335, "is_disabled": 0, "lon": -76.99390383333333, "fusion_lat": 0.0, "rental_uris": {"ios": "https://dc.lft.to/lastmile_qr_scan", "android": "https://dc.lft.to/lastmile_qr_scan"}, "type": "electric_scooter"}, {"name": "b31ac0145d83f48a53049f7b2e9a4355", "is_reserved": 0, "fusion_lon": 0.0, "bike_id": "b31ac0145d83f48a53049f7b2e9a4355", "lat": 38.902543333333334, "is_disabled": 0, "lon": -77.03974033333333, "fusion_lat": 0.0, "rental_uris": {"ios": "https://dc.lft.to/lastmile_qr_scan", "android": "https://dc.lft.to/lastmile_qr_scan"}, "type": "electric_scooter"}, {"name": "e0413e8f84f04cfa935c1e482b359909", "is_reserved": 0, "fusion_lon": 0.0, "bike_id": "e0413e8f84f04cfa935c1e482b359909", "lat": 38.890996666666666, "is_disabled": 0, "lon": -76.98811683333334, "fusion_lat": 0.0, "rental_uris": {"ios": "https://dc.lft.to/lastmile_qr_scan", "android": "https://dc.lft.to/lastmile_qr_scan"}, "type": "electric_scooter"}, {"name": "53221fa5488dfc107ade75d28354f65e", "is_reserved": 0, "fusion_lon": 0.0, "bike_id": "53221fa5488dfc107ade75d28354f65e", "lat": 38.846780333333335, "is_disabled": 0, "lon": -77.13932816666667, "fusion_lat": 0.0, "rental_uris": {"ios": "https://dc.lft.to/lastmile_qr_scan", "android": "https://dc.lft.to/lastmile_qr_scan"}, "type": "electric_bike"}, {"name": "38c08e9b050e9b5591085865dcf70cbc", "is_reserved": 0, "fusion_lon": 0.0, "bike_id": "38c08e9b050e9b5591085865dcf70cbc", "lat": 38.92413483333333, "is_disabled": 0, "lon": -77.02131833333334, "fusion_lat": 0.0, "rental_uris": {"ios": "https://dc.lft.to/lastmile_qr_scan", "android": "https://dc.lft.to/lastmile_qr_scan"}, "type": "electric_scooter"}, {"name": "3eeafa233cb7c47f60d3fbdd843903b2", "is_reserved": 0, "fusion_lon": 0.0, "bike_id": "3eeafa233cb7c47f60d3fbdd843903b2", "lat": 38.894696833333334, "is_disabled": 0, "lon": -77.04656616666666, "fusion_lat": 0.0, "rental_uris": {"ios": "https://dc.lft.to/lastmile_qr_scan", "android": "https://dc.lft.to/lastmile_qr_scan"}, "type": "electric_scooter"}, {"name": "c3065f93de51e5d6f0feda7972f6f981", "is_reserved": 0, "fusion_lon": 0.0, "bike_id": "c3065f93de51e5d6f0feda7972f6f981", "lat": 38.914731, "is_disabled": 0, "lon": -76.9810875, "fusion_lat": 0.0, "rental_uris": {"ios": "https://dc.lft.to/lastmile_qr_scan", "android": "https://dc.lft.to/lastmile_qr_scan"}, "type": "electric_scooter"}, {"name": "1a95a440b02d80b23de3354fc8bcecaa", "is_reserved": 0, "fusion_lon": 0.0, "bike_id": "1a95a440b02d80b23de3354fc8bcecaa", "lat": 38.90358666666667, "is_disabled": 0, "lon": -77.03642966666666, "fusion_lat": 0.0, "rental_uris": {"ios": "https://dc.lft.to/lastmile_qr_scan", "android": "https://dc.lft.to/lastmile_qr_scan"}, "type": "electric_scooter"}, {"name": "f72ca9f6ef202cad9bf0b31322e95e7f", "is_reserved": 0, "fusion_lon": 0.0, "bike_id": "f72ca9f6ef202cad9bf0b31322e95e7f", "lat": 38.95736266666667, "is_disabled": 0, "lon": -77.00211233333333, "fusion_lat": 0.0, "rental_uris": {"ios": "https://dc.lft.to/lastmile_qr_scan", "android": "https://dc.lft.to/lastmile_qr_scan"}, "type": "electric_scooter"}, {"name": "a3899a276d02330738abfa6451317312", "is_reserved": 0, "fusion_lon": 0.0, "bike_id": "a3899a276d02330738abfa6451317312", "lat": 38.984976, "is_disabled": 0, "lon": -76.98185066666667, "fusion_lat": 0.0, "rental_uris": {"ios": "https://dc.lft.to/lastmile_qr_scan", "android": "https://dc.lft.to/lastmile_qr_scan"}, "type": "electric_bike"}, {"name": "287640081c479860b410e000ba8cd266", "is_reserved": 0, "fusion_lon": 0.0, "bike_id": "287640081c479860b410e000ba8cd266", "lat": 38.940732, "is_disabled": 0, "lon": -77.0016885, "fusion_lat": 0.0, "rental_uris": {"ios": "https://dc.lft.to/lastmile_qr_scan", "android": "https://dc.lft.to/lastmile_qr_scan"}, "type": "electric_scooter"}, {"name": "91622bdd9f22cdd3e750944f60a253e0", "is_reserved": 0, "fusion_lon": 0.0, "bike_id": "91622bdd9f22cdd3e750944f60a253e0", "lat": 38.9261495, "is_disabled": 0, "lon": -77.02155533333334, "fusion_lat": 0.0, "rental_uris": {"ios": "https://dc.lft.to/lastmile_qr_scan", "android": "https://dc.lft.to/lastmile_qr_scan"}, "type": "electric_scooter"}, {"name": "276f57af0a3ca68b7eb62dea32462269", "is_reserved": 0, "fusion_lon": 0.0, "bike_id": "276f57af0a3ca68b7eb62dea32462269", "lat": 38.93059433333333, "is_disabled": 0, "lon": -77.0232365, "fusion_lat": 0.0, "rental_uris": {"ios": "https://dc.lft.to/lastmile_qr_scan", "android": "https://dc.lft.to/lastmile_qr_scan"}, "type": "electric_scooter"}, {"name": "1fb0b8e12bfde445f851c1ac4e9af900", "is_reserved": 0, "fusion_lon": 0.0, "bike_id": "1fb0b8e12bfde445f851c1ac4e9af900", "lat": 38.923416, "is_disabled": 0, "lon": -77.02015466666667, "fusion_lat": 0.0, "rental_uris": {"ios": "https://dc.lft.to/lastmile_qr_scan", "android": "https://dc.lft.to/lastmile_qr_scan"}, "type": "electric_scooter"}, {"name": "a6253847b9f5441f6ca87e6a5ef8d6de", "is_reserved": 0, "fusion_lon": 0.0, "bike_id": "a6253847b9f5441f6ca87e6a5ef8d6de", "lat": 38.9100195, "is_disabled": 0, "lon": -76.984208, "fusion_lat": 0.0, "rental_uris": {"ios": "https://dc.lft.to/lastmile_qr_scan", "android": "https://dc.lft.to/lastmile_qr_scan"}, "type": "electric_bike"}, {"name": "f8a46891a239156f97c496264fdb4913", "is_reserved": 0, "fusion_lon": 0.0, "bike_id": "f8a46891a239156f97c496264fdb4913", "lat": 38.9373925, "is_disabled": 0, "lon": -77.032838, "fusion_lat": 0.0, "rental_uris": {"ios": "https://dc.lft.to/lastmile_qr_scan", "android": "https://dc.lft.to/lastmile_qr_scan"}, "type": "electric_scooter"}, {"name": "5106a7dd2568fc37ebcc05d7c7f3bcd3", "is_reserved": 0, "fusion_lon": 0.0, "bike_id": "5106a7dd2568fc37ebcc05d7c7f3bcd3", "lat": 38.92346666666667, "is_disabled": 0, "lon": -77.03286183333333, "fusion_lat": 0.0, "rental_uris": {"ios": "https://dc.lft.to/lastmile_qr_scan", "android": "https://dc.lft.to/lastmile_qr_scan"}, "type": "electric_scooter"}, {"name": "58404c5b989805136181f22aca8b6a4a", "is_reserved": 0, "fusion_lon": 0.0, "bike_id": "58404c5b989805136181f22aca8b6a4a", "lat": 38.90360883333334, "is_disabled": 0, "lon": -77.032027, "fusion_lat": 0.0, "rental_uris": {"ios": "https://dc.lft.to/lastmile_qr_scan", "android": "https://dc.lft.to/lastmile_qr_scan"}, "type": "electric_scooter"}, {"name": "391133a5cca451db58fdf9b3c53ceccf", "is_reserved": 0, "fusion_lon": 0.0, "bike_id": "391133a5cca451db58fdf9b3c53ceccf", "lat": 38.92038133333333, "is_disabled": 0, "lon": -76.97803116666667, "fusion_lat": 0.0, "rental_uris": {"ios": "https://dc.lft.to/lastmile_qr_scan", "android": "https://dc.lft.to/lastmile_qr_scan"}, "type": "electric_scooter"}, {"name": "7b5eed0d01091dc1a9a753fde6044957", "is_reserved": 0, "fusion_lon": 0.0, "bike_id": "7b5eed0d01091dc1a9a753fde6044957", "lat": 38.876696833333334, "is_disabled": 0, "lon": -77.0030125, "fusion_lat": 0.0, "rental_uris": {"ios": "https://dc.lft.to/lastmile_qr_scan", "android": "https://dc.lft.to/lastmile_qr_scan"}, "type": "electric_scooter"}, {"name": "655bf202ebffc5022625413f7beea812", "is_reserved": 0, "fusion_lon": 0.0, "bike_id": "655bf202ebffc5022625413f7beea812", "lat": 38.89235083333333, "is_disabled": 0, "lon": -76.98449433333333, "fusion_lat": 0.0, "rental_uris": {"ios": "https://dc.lft.to/lastmile_qr_scan", "android": "https://dc.lft.to/lastmile_qr_scan"}, "type": "electric_scooter"}, {"name": "2c66a92c9b31d777188a0d90e112ab0a", "is_reserved": 0, "fusion_lon": 0.0, "bike_id": "2c66a92c9b31d777188a0d90e112ab0a", "lat": 38.920701666666666, "is_disabled": 0, "lon": -77.04352883333334, "fusion_lat": 0.0, "rental_uris": {"ios": "https://dc.lft.to/lastmile_qr_scan", "android": "https://dc.lft.to/lastmile_qr_scan"}, "type": "electric_scooter"}, {"name": "be6e2d50aa6b72b7940fc3763a170ce0", "is_reserved": 0, "fusion_lon": 0.0, "bike_id": "be6e2d50aa6b72b7940fc3763a170ce0", "lat": 38.912674, "is_disabled": 0, "lon": -77.00493433333334, "fusion_lat": 0.0, "rental_uris": {"ios": "https://dc.lft.to/lastmile_qr_scan", "android": "https://dc.lft.to/lastmile_qr_scan"}, "type": "electric_scooter"}, {"name": "8428a4d7310f50c7325fe426dac147be", "is_reserved": 0, "fusion_lon": 0.0, "bike_id": "8428a4d7310f50c7325fe426dac147be", "lat": 38.91966983333333, "is_disabled": 0, "lon": -77.027103, "fusion_lat": 0.0, "rental_uris": {"ios": "https://dc.lft.to/lastmile_qr_scan", "android": "https://dc.lft.to/lastmile_qr_scan"}, "type": "electric_scooter"}, {"name": "e0adc0197b788dfb77da83c02d2fd899", "is_reserved": 0, "fusion_lon": 0.0, "bike_id": "e0adc0197b788dfb77da83c02d2fd899", "lat": 38.9247005, "is_disabled": 0, "lon": -77.02213466666667, "fusion_lat": 0.0, "rental_uris": {"ios": "https://dc.lft.to/lastmile_qr_scan", "android": "https://dc.lft.to/lastmile_qr_scan"}, "type": "electric_scooter"}, {"name": "8c8378c87b5aae55a07b68f44202914e", "is_reserved": 0, "fusion_lon": 0.0, "bike_id": "8c8378c87b5aae55a07b68f44202914e", "lat": 38.905068666666665, "is_disabled": 0, "lon": -77.0301395, "fusion_lat": 0.0, "rental_uris": {"ios": "https://dc.lft.to/lastmile_qr_scan", "android": "https://dc.lft.to/lastmile_qr_scan"}, "type": "electric_scooter"}, {"name": "fcefd5a6316468e5fa2182ef80ca679e", "is_reserved": 0, "fusion_lon": 0.0, "bike_id": "fcefd5a6316468e5fa2182ef80ca679e", "lat": 38.92258983333333, "is_disabled": 0, "lon": -77.0194615, "fusion_lat": 0.0, "rental_uris": {"ios": "https://dc.lft.to/lastmile_qr_scan", "android": "https://dc.lft.to/lastmile_qr_scan"}, "type": "electric_scooter"}, {"name": "606ef22004f86f61fbc9d68db22e203a", "is_reserved": 0, "fusion_lon": 0.0, "bike_id": "606ef22004f86f61fbc9d68db22e203a", "lat": 38.907795666666665, "is_disabled": 0, "lon": -77.04489333333333, "fusion_lat": 0.0, "rental_uris": {"ios": "https://dc.lft.to/lastmile_qr_scan", "android": "https://dc.lft.to/lastmile_qr_scan"}, "type": "electric_scooter"}, {"name": "bb68c52fa8b6fa10d5d6d5da9e78e6bc", "is_reserved": 0, "fusion_lon": 0.0, "bike_id": "bb68c52fa8b6fa10d5d6d5da9e78e6bc", "lat": 38.9246155, "is_disabled": 0, "lon": -77.05227733333334, "fusion_lat": 0.0, "rental_uris": {"ios": "https://dc.lft.to/lastmile_qr_scan", "android": "https://dc.lft.to/lastmile_qr_scan"}, "type": "electric_scooter"}, {"name": "e89d714a8184f212bdee761f2ca49863", "is_reserved": 0, "fusion_lon": 0.0, "bike_id": "e89d714a8184f212bdee761f2ca49863", "lat": 38.8923325, "is_disabled": 0, "lon": -77.04997766666666, "fusion_lat": 0.0, "rental_uris": {"ios": "https://dc.lft.to/lastmile_qr_scan", "android": "https://dc.lft.to/lastmile_qr_scan"}, "type": "electric_scooter"}, {"name": "411a5e671dc041e8bf9990993ffc1845", "is_reserved": 0, "fusion_lon": 0.0, "bike_id": "411a5e671dc041e8bf9990993ffc1845", "lat": 38.905209, "is_disabled": 0, "lon": -77.048661, "fusion_lat": 0.0, "rental_uris": {"ios": "https://dc.lft.to/lastmile_qr_scan", "android": "https://dc.lft.to/lastmile_qr_scan"}, "type": "electric_scooter"}, {"name": "5369307bd83ef0bdd95ce79f6e6b727b", "is_reserved": 0, "fusion_lon": 0.0, "bike_id": "5369307bd83ef0bdd95ce79f6e6b727b", "lat": 38.8952485, "is_disabled": 0, "lon": -77.02202633333333, "fusion_lat": 0.0, "rental_uris": {"ios": "https://dc.lft.to/lastmile_qr_scan", "android": "https://dc.lft.to/lastmile_qr_scan"}, "type": "electric_scooter"}, {"name": "d330a04d5e49530edae693873d99da6b", "is_reserved": 0, "fusion_lon": 0.0, "bike_id": "d330a04d5e49530edae693873d99da6b", "lat": 38.895912833333334, "is_disabled": 0, "lon": -77.02572033333334, "fusion_lat": 0.0, "rental_uris": {"ios": "https://dc.lft.to/lastmile_qr_scan", "android": "https://dc.lft.to/lastmile_qr_scan"}, "type": "electric_scooter"}, {"name": "d5757787fc2ba14cd64403c302424d9b", "is_reserved": 0, "fusion_lon": 0.0, "bike_id": "d5757787fc2ba14cd64403c302424d9b", "lat": 38.906052, "is_disabled": 0, "lon": -76.99818916666666, "fusion_lat": 0.0, "rental_uris": {"ios": "https://dc.lft.to/lastmile_qr_scan", "android": "https://dc.lft.to/lastmile_qr_scan"}, "type": "electric_scooter"}, {"name": "bc25483afd2654dba386a5e3c96668c3", "is_reserved": 0, "fusion_lon": 0.0, "bike_id": "bc25483afd2654dba386a5e3c96668c3", "lat": 38.8986745, "is_disabled": 0, "lon": -77.0200865, "fusion_lat": 0.0, "rental_uris": {"ios": "https://dc.lft.to/lastmile_qr_scan", "android": "https://dc.lft.to/lastmile_qr_scan"}, "type": "electric_scooter"}, {"name": "0082893bf588d1ae0af747788720207d", "is_reserved": 0, "fusion_lon": 0.0, "bike_id": "0082893bf588d1ae0af747788720207d", "lat": 38.922787666666665, "is_disabled": 0, "lon": -77.019517, "fusion_lat": 0.0, "rental_uris": {"ios": "https://dc.lft.to/lastmile_qr_scan", "android": "https://dc.lft.to/lastmile_qr_scan"}, "type": "electric_scooter"}, {"name": "115f3f4cefe6ddc47f81f9abe2b52f7b", "is_reserved": 0, "fusion_lon": 0.0, "bike_id": "115f3f4cefe6ddc47f81f9abe2b52f7b", "lat": 38.92238716666667, "is_disabled": 0, "lon": -77.04366266666666, "fusion_lat": 0.0, "rental_uris": {"ios": "https://dc.lft.to/lastmile_qr_scan", "android": "https://dc.lft.to/lastmile_qr_scan"}, "type": "electric_scooter"}, {"name": "e626dc4cc3860e5680356f622621ecab", "is_reserved": 0, "fusion_lon": 0.0, "bike_id": "e626dc4cc3860e5680356f622621ecab", "lat": 38.9267085, "is_disabled": 0, "lon": -77.0078335, "fusion_lat": 0.0, "rental_uris": {"ios": "https://dc.lft.to/lastmile_qr_scan", "android": "https://dc.lft.to/lastmile_qr_scan"}, "type": "electric_scooter"}, {"name": "2cf49c92bfccf8b8175bd972771f0377", "is_reserved": 0, "fusion_lon": 0.0, "bike_id": "2cf49c92bfccf8b8175bd972771f0377", "lat": 38.957395166666664, "is_disabled": 0, "lon": -77.002175, "fusion_lat": 0.0, "rental_uris": {"ios": "https://dc.lft.to/lastmile_qr_scan", "android": "https://dc.lft.to/lastmile_qr_scan"}, "type": "electric_scooter"}, {"name": "5f5ce11bb391e3b085edd90805ae78fc", "is_reserved": 0, "fusion_lon": 0.0, "bike_id": "5f5ce11bb391e3b085edd90805ae78fc", "lat": 38.89229533333334, "is_disabled": 0, "lon": -77.031703, "fusion_lat": 0.0, "rental_uris": {"ios": "https://dc.lft.to/lastmile_qr_scan", "android": "https://dc.lft.to/lastmile_qr_scan"}, "type": "electric_scooter"}, {"name": "d711c6754cbd432b94b75319160bf989", "is_reserved": 0, "fusion_lon": 0.0, "bike_id": "d711c6754cbd432b94b75319160bf989", "lat": 38.883552, "is_disabled": 0, "lon": -76.95766166666667, "fusion_lat": 0.0, "rental_uris": {"ios": "https://dc.lft.to/lastmile_qr_scan", "android": "https://dc.lft.to/lastmile_qr_scan"}, "type": "electric_scooter"}, {"name": "145f25808eb9203812c644b54008c0ff", "is_reserved": 0, "fusion_lon": 0.0, "bike_id": "145f25808eb9203812c644b54008c0ff", "lat": 38.9236355, "is_disabled": 0, "lon": -77.0354935, "fusion_lat": 0.0, "rental_uris": {"ios": "https://dc.lft.to/lastmile_qr_scan", "android": "https://dc.lft.to/lastmile_qr_scan"}, "type": "electric_scooter"}, {"name": "afa5567448b70314e5c08f83a5444a18", "is_reserved": 0, "fusion_lon": 0.0, "bike_id": "afa5567448b70314e5c08f83a5444a18", "lat": 38.902148, "is_disabled": 0, "lon": -77.04799066666666, "fusion_lat": 0.0, "rental_uris": {"ios": "https://dc.lft.to/lastmile_qr_scan", "android": "https://dc.lft.to/lastmile_qr_scan"}, "type": "electric_scooter"}, {"name": "89922eb65f417954ed6b53470b942b3b", "is_reserved": 0, "fusion_lon": 0.0, "bike_id": "89922eb65f417954ed6b53470b942b3b", "lat": 38.9319925, "is_disabled": 0, "lon": -77.01871216666666, "fusion_lat": 0.0, "rental_uris": {"ios": "https://dc.lft.to/lastmile_qr_scan", "android": "https://dc.lft.to/lastmile_qr_scan"}, "type": "electric_scooter"}, {"name": "c41cd58ced9d1f0fabe289dc1b02105d", "is_reserved": 0, "fusion_lon": 0.0, "bike_id": "c41cd58ced9d1f0fabe289dc1b02105d", "lat": 38.899625666666665, "is_disabled": 0, "lon": -77.02625966666666, "fusion_lat": 0.0, "rental_uris": {"ios": "https://dc.lft.to/lastmile_qr_scan", "android": "https://dc.lft.to/lastmile_qr_scan"}, "type": "electric_scooter"}, {"name": "ad27c0d181982f36772ded853c67bd79", "is_reserved": 0, "fusion_lon": 0.0, "bike_id": "ad27c0d181982f36772ded853c67bd79", "lat": 38.8903385, "is_disabled": 0, "lon": -76.944621, "fusion_lat": 0.0, "rental_uris": {"ios": "https://dc.lft.to/lastmile_qr_scan", "android": "https://dc.lft.to/lastmile_qr_scan"}, "type": "electric_scooter"}, {"name": "7e4b9b658932fd0500490a876fe3f7a1", "is_reserved": 0, "fusion_lon": 0.0, "bike_id": "7e4b9b658932fd0500490a876fe3f7a1", "lat": 38.81939666666667, "is_disabled": 0, "lon": -77.00200183333334, "fusion_lat": 0.0, "rental_uris": {"ios": "https://dc.lft.to/lastmile_qr_scan", "android": "https://dc.lft.to/lastmile_qr_scan"}, "type": "electric_bike"}, {"name": "53bf793d4b61ce5a5fb6abc1082328e6", "is_reserved": 0, "fusion_lon": 0.0, "bike_id": "53bf793d4b61ce5a5fb6abc1082328e6", "lat": 38.92211416666667, "is_disabled": 0, "lon": -77.04241983333333, "fusion_lat": 0.0, "rental_uris": {"ios": "https://dc.lft.to/lastmile_qr_scan", "android": "https://dc.lft.to/lastmile_qr_scan"}, "type": "electric_scooter"}, {"name": "60f3ea2670a5a3bf4b5e150c17e497c1", "is_reserved": 0, "fusion_lon": 0.0, "bike_id": "60f3ea2670a5a3bf4b5e150c17e497c1", "lat": 38.9261275, "is_disabled": 0, "lon": -77.02159783333333, "fusion_lat": 0.0, "rental_uris": {"ios": "https://dc.lft.to/lastmile_qr_scan", "android": "https://dc.lft.to/lastmile_qr_scan"}, "type": "electric_scooter"}, {"name": "cc542bd8a3e5fb78f6119600097c8df9", "is_reserved": 0, "fusion_lon": 0.0, "bike_id": "cc542bd8a3e5fb78f6119600097c8df9", "lat": 38.91690066666666, "is_disabled": 0, "lon": -77.0270755, "fusion_lat": 0.0, "rental_uris": {"ios": "https://dc.lft.to/lastmile_qr_scan", "android": "https://dc.lft.to/lastmile_qr_scan"}, "type": "electric_scooter"}, {"name": "76d0e1103f043f8e7b17722b4c218fc5", "is_reserved": 0, "fusion_lon": 0.0, "bike_id": "76d0e1103f043f8e7b17722b4c218fc5", "lat": 38.92041783333333, "is_disabled": 0, "lon": -77.01674383333334, "fusion_lat": 0.0, "rental_uris": {"ios": "https://dc.lft.to/lastmile_qr_scan", "android": "https://dc.lft.to/lastmile_qr_scan"}, "type": "electric_scooter"}, {"name": "498fc0b00451b50d38f57e30e37e6e32", "is_reserved": 0, "fusion_lon": 0.0, "bike_id": "498fc0b00451b50d38f57e30e37e6e32", "lat": 38.900298, "is_disabled": 0, "lon": -77.03711583333333, "fusion_lat": 0.0, "rental_uris": {"ios": "https://dc.lft.to/lastmile_qr_scan", "android": "https://dc.lft.to/lastmile_qr_scan"}, "type": "electric_scooter"}, {"name": "8452803f5a60632b7d31197f18e5c29b", "is_reserved": 0, "fusion_lon": 0.0, "bike_id": "8452803f5a60632b7d31197f18e5c29b", "lat": 38.89997616666667, "is_disabled": 0, "lon": -77.02369483333334, "fusion_lat": 0.0, "rental_uris": {"ios": "https://dc.lft.to/lastmile_qr_scan", "android": "https://dc.lft.to/lastmile_qr_scan"}, "type": "electric_scooter"}, {"name": "36d14a1561c35fa40e865ca1c2b0c3a5", "is_reserved": 0, "fusion_lon": 0.0, "bike_id": "36d14a1561c35fa40e865ca1c2b0c3a5", "lat": 38.91967833333333, "is_disabled": 0, "lon": -77.045139, "fusion_lat": 0.0, "rental_uris": {"ios": "https://dc.lft.to/lastmile_qr_scan", "android": "https://dc.lft.to/lastmile_qr_scan"}, "type": "electric_scooter"}, {"name": "0f94a90f7156a62b67cc419bec16b407", "is_reserved": 0, "fusion_lon": 0.0, "bike_id": "0f94a90f7156a62b67cc419bec16b407", "lat": 38.9159025, "is_disabled": 0, "lon": -77.0317315, "fusion_lat": 0.0, "rental_uris": {"ios": "https://dc.lft.to/lastmile_qr_scan", "android": "https://dc.lft.to/lastmile_qr_scan"}, "type": "electric_scooter"}, {"name": "ed214527fbf0af639eedfbe8bbafafdd", "is_reserved": 0, "fusion_lon": 0.0, "bike_id": "ed214527fbf0af639eedfbe8bbafafdd", "lat": 38.91639583333333, "is_disabled": 0, "lon": -77.02375583333334, "fusion_lat": 0.0, "rental_uris": {"ios": "https://dc.lft.to/lastmile_qr_scan", "android": "https://dc.lft.to/lastmile_qr_scan"}, "type": "electric_scooter"}, {"name": "6c5183e4f7ff1d11da657f1aa02b7990", "is_reserved": 0, "fusion_lon": 0.0, "bike_id": "6c5183e4f7ff1d11da657f1aa02b7990", "lat": 38.918151, "is_disabled": 0, "lon": -77.03689683333333, "fusion_lat": 0.0, "rental_uris": {"ios": "https://dc.lft.to/lastmile_qr_scan", "android": "https://dc.lft.to/lastmile_qr_scan"}, "type": "electric_scooter"}, {"name": "8596cae99eeb4866cfdf6ee7bc5b9d5f", "is_reserved": 0, "fusion_lon": 0.0, "bike_id": "8596cae99eeb4866cfdf6ee7bc5b9d5f", "lat": 38.9181605, "is_disabled": 0, "lon": -77.03688883333334, "fusion_lat": 0.0, "rental_uris": {"ios": "https://dc.lft.to/lastmile_qr_scan", "android": "https://dc.lft.to/lastmile_qr_scan"}, "type": "electric_scooter"}, {"name": "1163db5ca497e69f48bda9bd9a5b0bf7", "is_reserved": 0, "fusion_lon": 0.0, "bike_id": "1163db5ca497e69f48bda9bd9a5b0bf7", "lat": 38.89225783333333, "is_disabled": 0, "lon": -77.03168366666667, "fusion_lat": 0.0, "rental_uris": {"ios": "https://dc.lft.to/lastmile_qr_scan", "android": "https://dc.lft.to/lastmile_qr_scan"}, "type": "electric_scooter"}, {"name": "6c0cca54fc6a1ffa1e7a60f17e5a4c0e", "is_reserved": 0, "fusion_lon": 0.0, "bike_id": "6c0cca54fc6a1ffa1e7a60f17e5a4c0e", "lat": 38.92893483333334, "is_disabled": 0, "lon": -77.022901, "fusion_lat": 0.0, "rental_uris": {"ios": "https://dc.lft.to/lastmile_qr_scan", "android": "https://dc.lft.to/lastmile_qr_scan"}, "type": "electric_scooter"}, {"name": "a6cfa5796057fb1d01bc7520bd36bfec", "is_reserved": 0, "fusion_lon": 0.0, "bike_id": "a6cfa5796057fb1d01bc7520bd36bfec", "lat": 38.93402566666666, "is_disabled": 0, "lon": -77.05747033333333, "fusion_lat": 0.0, "rental_uris": {"ios": "https://dc.lft.to/lastmile_qr_scan", "android": "https://dc.lft.to/lastmile_qr_scan"}, "type": "electric_scooter"}, {"name": "ec974cfd2baddd7a7f1e3f5614ebe62d", "is_reserved": 0, "fusion_lon": 0.0, "bike_id": "ec974cfd2baddd7a7f1e3f5614ebe62d", "lat": 38.923568, "is_disabled": 0, "lon": -77.04389266666666, "fusion_lat": 0.0, "rental_uris": {"ios": "https://dc.lft.to/lastmile_qr_scan", "android": "https://dc.lft.to/lastmile_qr_scan"}, "type": "electric_scooter"}, {"name": "4f46ec8318e38611c2fbe5333a7160a1", "is_reserved": 0, "fusion_lon": 0.0, "bike_id": "4f46ec8318e38611c2fbe5333a7160a1", "lat": 38.92331683333333, "is_disabled": 0, "lon": -77.04615783333334, "fusion_lat": 0.0, "rental_uris": {"ios": "https://dc.lft.to/lastmile_qr_scan", "android": "https://dc.lft.to/lastmile_qr_scan"}, "type": "electric_scooter"}, {"name": "f195b51663430a707a1881a65345914e", "is_reserved": 0, "fusion_lon": 0.0, "bike_id": "f195b51663430a707a1881a65345914e", "lat": 38.90582533333333, "is_disabled": 0, "lon": -77.062793, "fusion_lat": 0.0, "rental_uris": {"ios": "https://dc.lft.to/lastmile_qr_scan", "android": "https://dc.lft.to/lastmile_qr_scan"}, "type": "electric_bike"}, {"name": "cdb5713b02c3e6317aa53b2c34fa905e", "is_reserved": 0, "fusion_lon": 0.0, "bike_id": "cdb5713b02c3e6317aa53b2c34fa905e", "lat": 38.922705666666666, "is_disabled": 0, "lon": -77.01825166666667, "fusion_lat": 0.0, "rental_uris": {"ios": "https://dc.lft.to/lastmile_qr_scan", "android": "https://dc.lft.to/lastmile_qr_scan"}, "type": "electric_scooter"}, {"name": "758cbc615942ae81f74ae0793d60fd09", "is_reserved": 0, "fusion_lon": 0.0, "bike_id": "758cbc615942ae81f74ae0793d60fd09", "lat": 38.8133705, "is_disabled": 0, "lon": -77.05087783333333, "fusion_lat": 0.0, "rental_uris": {"ios": "https://dc.lft.to/lastmile_qr_scan", "android": "https://dc.lft.to/lastmile_qr_scan"}, "type": "electric_bike"}, {"name": "9ce21f7db30a21bde8547ac6cb3043d2", "is_reserved": 0, "fusion_lon": 0.0, "bike_id": "9ce21f7db30a21bde8547ac6cb3043d2", "lat": 38.927970333333334, "is_disabled": 0, "lon": -77.22934583333333, "fusion_lat": 0.0, "rental_uris": {"ios": "https://dc.lft.to/lastmile_qr_scan", "android": "https://dc.lft.to/lastmile_qr_scan"}, "type": "electric_bike"}, {"name": "dc6b78ee9ce3b54bcff3c81c7ece9a56", "is_reserved": 0, "fusion_lon": 0.0, "bike_id": "dc6b78ee9ce3b54bcff3c81c7ece9a56", "lat": 38.927744, "is_disabled": 0, "lon": -77.02759933333333, "fusion_lat": 0.0, "rental_uris": {"ios": "https://dc.lft.to/lastmile_qr_scan", "android": "https://dc.lft.to/lastmile_qr_scan"}, "type": "electric_scooter"}, {"name": "3c8715faeac610cf901262de6933d63a", "is_reserved": 0, "fusion_lon": 0.0, "bike_id": "3c8715faeac610cf901262de6933d63a", "lat": 38.88081366666667, "is_disabled": 0, "lon": -76.98529966666666, "fusion_lat": 0.0, "rental_uris": {"ios": "https://dc.lft.to/lastmile_qr_scan", "android": "https://dc.lft.to/lastmile_qr_scan"}, "type": "electric_bike"}, {"name": "6c5edb12a12c25768d64b8aa1ce9a438", "is_reserved": 0, "fusion_lon": 0.0, "bike_id": "6c5edb12a12c25768d64b8aa1ce9a438", "lat": 38.83868833333333, "is_disabled": 0, "lon": -76.99702766666667, "fusion_lat": 0.0, "rental_uris": {"ios": "https://dc.lft.to/lastmile_qr_scan", "android": "https://dc.lft.to/lastmile_qr_scan"}, "type": "electric_bike"}, {"name": "648ae2b98f5bf9a4197099e079a6f664", "is_reserved": 0, "fusion_lon": 0.0, "bike_id": "648ae2b98f5bf9a4197099e079a6f664", "lat": 38.9180765, "is_disabled": 0, "lon": -77.02500433333333, "fusion_lat": 0.0, "rental_uris": {"ios": "https://dc.lft.to/lastmile_qr_scan", "android": "https://dc.lft.to/lastmile_qr_scan"}, "type": "electric_scooter"}, {"name": "055421da91d7375a1e736a6307204cb8", "is_reserved": 0, "fusion_lon": 0.0, "bike_id": "055421da91d7375a1e736a6307204cb8", "lat": 38.907401666666665, "is_disabled": 0, "lon": -77.02801716666667, "fusion_lat": 0.0, "rental_uris": {"ios": "https://dc.lft.to/lastmile_qr_scan", "android": "https://dc.lft.to/lastmile_qr_scan"}, "type": "electric_scooter"}, {"name": "0cd64104cda91b1b85d93eef02bbb738", "is_reserved": 0, "fusion_lon": 0.0, "bike_id": "0cd64104cda91b1b85d93eef02bbb738", "lat": 38.9043105, "is_disabled": 0, "lon": -77.04879366666667, "fusion_lat": 0.0, "rental_uris": {"ios": "https://dc.lft.to/lastmile_qr_scan", "android": "https://dc.lft.to/lastmile_qr_scan"}, "type": "electric_scooter"}, {"name": "8ccf5d4340663a9457e032bebd5781c3", "is_reserved": 0, "fusion_lon": 0.0, "bike_id": "8ccf5d4340663a9457e032bebd5781c3", "lat": 38.9243585, "is_disabled": 0, "lon": -77.02238616666666, "fusion_lat": 0.0, "rental_uris": {"ios": "https://dc.lft.to/lastmile_qr_scan", "android": "https://dc.lft.to/lastmile_qr_scan"}, "type": "electric_scooter"}, {"name": "63fe1939d20fdf4f19102c599f8c495d", "is_reserved": 0, "fusion_lon": 0.0, "bike_id": "63fe1939d20fdf4f19102c599f8c495d", "lat": 38.91603833333333, "is_disabled": 0, "lon": -77.02388833333333, "fusion_lat": 0.0, "rental_uris": {"ios": "https://dc.lft.to/lastmile_qr_scan", "android": "https://dc.lft.to/lastmile_qr_scan"}, "type": "electric_scooter"}, {"name": "3d78bc1d4475af2b5a9652641780bcae", "is_reserved": 0, "fusion_lon": 0.0, "bike_id": "3d78bc1d4475af2b5a9652641780bcae", "lat": 38.951871, "is_disabled": 0, "lon": -76.95123716666667, "fusion_lat": 0.0, "rental_uris": {"ios": "https://dc.lft.to/lastmile_qr_scan", "android": "https://dc.lft.to/lastmile_qr_scan"}, "type": "electric_bike"}, {"name": "8da57eaca59d37b72551a51ac2efaf4b", "is_reserved": 0, "fusion_lon": 0.0, "bike_id": "8da57eaca59d37b72551a51ac2efaf4b", "lat": 38.89837416666667, "is_disabled": 0, "lon": -77.02957966666666, "fusion_lat": 0.0, "rental_uris": {"ios": "https://dc.lft.to/lastmile_qr_scan", "android": "https://dc.lft.to/lastmile_qr_scan"}, "type": "electric_scooter"}, {"name": "688f25a21c4f9bdefb4b4463562532c6", "is_reserved": 0, "fusion_lon": 0.0, "bike_id": "688f25a21c4f9bdefb4b4463562532c6", "lat": 38.92713633333334, "is_disabled": 0, "lon": -77.02086433333334, "fusion_lat": 0.0, "rental_uris": {"ios": "https://dc.lft.to/lastmile_qr_scan", "android": "https://dc.lft.to/lastmile_qr_scan"}, "type": "electric_scooter"}, {"name": "ab02fbfa4e34492b00eac72b34c8fcac", "is_reserved": 0, "fusion_lon": 0.0, "bike_id": "ab02fbfa4e34492b00eac72b34c8fcac", "lat": 38.9850175, "is_disabled": 0, "lon": -76.95561, "fusion_lat": 0.0, "rental_uris": {"ios": "https://dc.lft.to/lastmile_qr_scan", "android": "https://dc.lft.to/lastmile_qr_scan"}, "type": "electric_bike"}, {"name": "789dfaa750153724efb23fdcd9f1d18f", "is_reserved": 0, "fusion_lon": 0.0, "bike_id": "789dfaa750153724efb23fdcd9f1d18f", "lat": 38.89957883333334, "is_disabled": 0, "lon": -77.01504583333333, "fusion_lat": 0.0, "rental_uris": {"ios": "https://dc.lft.to/lastmile_qr_scan", "android": "https://dc.lft.to/lastmile_qr_scan"}, "type": "electric_scooter"}, {"name": "4bd0dca2dd3009ba87c2329bcbcf72ea", "is_reserved": 0, "fusion_lon": 0.0, "bike_id": "4bd0dca2dd3009ba87c2329bcbcf72ea", "lat": 38.92164066666667, "is_disabled": 0, "lon": -77.02024233333333, "fusion_lat": 0.0, "rental_uris": {"ios": "https://dc.lft.to/lastmile_qr_scan", "android": "https://dc.lft.to/lastmile_qr_scan"}, "type": "electric_scooter"}, {"name": "145363eac66c3247d64031858407ae9e", "is_reserved": 0, "fusion_lon": 0.0, "bike_id": "145363eac66c3247d64031858407ae9e", "lat": 38.88213433333333, "is_disabled": 0, "lon": -77.01752316666666, "fusion_lat": 0.0, "rental_uris": {"ios": "https://dc.lft.to/lastmile_qr_scan", "android": "https://dc.lft.to/lastmile_qr_scan"}, "type": "electric_scooter"}, {"name": "2168e92068f498b9b234930d1e7fbdc6", "is_reserved": 0, "fusion_lon": 0.0, "bike_id": "2168e92068f498b9b234930d1e7fbdc6", "lat": 38.906954, "is_disabled": 0, "lon": -76.9524915, "fusion_lat": 0.0, "rental_uris": {"ios": "https://dc.lft.to/lastmile_qr_scan", "android": "https://dc.lft.to/lastmile_qr_scan"}, "type": "electric_bike"}, {"name": "54e06c53467d142b83cc3481e2fd13df", "is_reserved": 0, "fusion_lon": 0.0, "bike_id": "54e06c53467d142b83cc3481e2fd13df", "lat": 38.905343, "is_disabled": 0, "lon": -77.0531215, "fusion_lat": 0.0, "rental_uris": {"ios": "https://dc.lft.to/lastmile_qr_scan", "android": "https://dc.lft.to/lastmile_qr_scan"}, "type": "electric_scooter"}, {"name": "932b192b229fde625ab451a3f09be7cc", "is_reserved": 0, "fusion_lon": 0.0, "bike_id": "932b192b229fde625ab451a3f09be7cc", "lat": 38.89230383333334, "is_disabled": 0, "lon": -77.049964, "fusion_lat": 0.0, "rental_uris": {"ios": "https://dc.lft.to/lastmile_qr_scan", "android": "https://dc.lft.to/lastmile_qr_scan"}, "type": "electric_scooter"}, {"name": "e7118ecc19674d6e3de9deaaf4d88ed6", "is_reserved": 0, "fusion_lon": 0.0, "bike_id": "e7118ecc19674d6e3de9deaaf4d88ed6", "lat": 38.91925533333333, "is_disabled": 0, "lon": -77.03389183333333, "fusion_lat": 0.0, "rental_uris": {"ios": "https://dc.lft.to/lastmile_qr_scan", "android": "https://dc.lft.to/lastmile_qr_scan"}, "type": "electric_scooter"}, {"name": "73077024ccf94dba5e334f2c20d3334c", "is_reserved": 0, "fusion_lon": 0.0, "bike_id": "73077024ccf94dba5e334f2c20d3334c", "lat": 38.942642666666664, "is_disabled": 0, "lon": -77.02976983333333, "fusion_lat": 0.0, "rental_uris": {"ios": "https://dc.lft.to/lastmile_qr_scan", "android": "https://dc.lft.to/lastmile_qr_scan"}, "type": "electric_scooter"}, {"name": "81ff23399f463df8a0ee6636108e0f26", "is_reserved": 0, "fusion_lon": 0.0, "bike_id": "81ff23399f463df8a0ee6636108e0f26", "lat": 38.8747345, "is_disabled": 0, "lon": -77.01598933333334, "fusion_lat": 0.0, "rental_uris": {"ios": "https://dc.lft.to/lastmile_qr_scan", "android": "https://dc.lft.to/lastmile_qr_scan"}, "type": "electric_scooter"}, {"name": "b87ecf6d01b3022f3a9d615e2695137f", "is_reserved": 0, "fusion_lon": 0.0, "bike_id": "b87ecf6d01b3022f3a9d615e2695137f", "lat": 38.929833, "is_disabled": 0, "lon": -77.08337583333333, "fusion_lat": 0.0, "rental_uris": {"ios": "https://dc.lft.to/lastmile_qr_scan", "android": "https://dc.lft.to/lastmile_qr_scan"}, "type": "electric_scooter"}, {"name": "095d19302c92775583002ac42a40638b", "is_reserved": 0, "fusion_lon": 0.0, "bike_id": "095d19302c92775583002ac42a40638b", "lat": 38.90362616666667, "is_disabled": 0, "lon": -77.02923, "fusion_lat": 0.0, "rental_uris": {"ios": "https://dc.lft.to/lastmile_qr_scan", "android": "https://dc.lft.to/lastmile_qr_scan"}, "type": "electric_scooter"}, {"name": "0717cf450904e6efab1878d72789321a", "is_reserved": 0, "fusion_lon": 0.0, "bike_id": "0717cf450904e6efab1878d72789321a", "lat": 38.9342435, "is_disabled": 0, "lon": -77.039973, "fusion_lat": 0.0, "rental_uris": {"ios": "https://dc.lft.to/lastmile_qr_scan", "android": "https://dc.lft.to/lastmile_qr_scan"}, "type": "electric_scooter"}, {"name": "cd0cc106af2368846ad2b2cc3afc4eca", "is_reserved": 0, "fusion_lon": 0.0, "bike_id": "cd0cc106af2368846ad2b2cc3afc4eca", "lat": 38.97443483333333, "is_disabled": 0, "lon": -77.096118, "fusion_lat": 0.0, "rental_uris": {"ios": "https://dc.lft.to/lastmile_qr_scan", "android": "https://dc.lft.to/lastmile_qr_scan"}, "type": "electric_bike"}, {"name": "32303ee93dfbff41e4a02656fc060437", "is_reserved": 0, "fusion_lon": 0.0, "bike_id": "32303ee93dfbff41e4a02656fc060437", "lat": 38.871858333333336, "is_disabled": 0, "lon": -76.9738045, "fusion_lat": 0.0, "rental_uris": {"ios": "https://dc.lft.to/lastmile_qr_scan", "android": "https://dc.lft.to/lastmile_qr_scan"}, "type": "electric_scooter"}, {"name": "f7c8dc585d44a75b72de4bd734e552c7", "is_reserved": 0, "fusion_lon": 0.0, "bike_id": "f7c8dc585d44a75b72de4bd734e552c7", "lat": 38.918811833333336, "is_disabled": 0, "lon": -77.00912483333333, "fusion_lat": 0.0, "rental_uris": {"ios": "https://dc.lft.to/lastmile_qr_scan", "android": "https://dc.lft.to/lastmile_qr_scan"}, "type": "electric_scooter"}, {"name": "19d3b94bd356c11a949de5471487b415", "is_reserved": 0, "fusion_lon": 0.0, "bike_id": "19d3b94bd356c11a949de5471487b415", "lat": 38.91834216666667, "is_disabled": 0, "lon": -77.02295833333334, "fusion_lat": 0.0, "rental_uris": {"ios": "https://dc.lft.to/lastmile_qr_scan", "android": "https://dc.lft.to/lastmile_qr_scan"}, "type": "electric_scooter"}, {"name": "cbf24e3b6c01caeb7af456b318e304a0", "is_reserved": 0, "fusion_lon": 0.0, "bike_id": "cbf24e3b6c01caeb7af456b318e304a0", "lat": 38.924823, "is_disabled": 0, "lon": -77.02978416666667, "fusion_lat": 0.0, "rental_uris": {"ios": "https://dc.lft.to/lastmile_qr_scan", "android": "https://dc.lft.to/lastmile_qr_scan"}, "type": "electric_scooter"}, {"name": "e47ff3577a31eda013a4f8c85525b4f0", "is_reserved": 0, "fusion_lon": 0.0, "bike_id": "e47ff3577a31eda013a4f8c85525b4f0", "lat": 38.920693666666665, "is_disabled": 0, "lon": -77.0420055, "fusion_lat": 0.0, "rental_uris": {"ios": "https://dc.lft.to/lastmile_qr_scan", "android": "https://dc.lft.to/lastmile_qr_scan"}, "type": "electric_scooter"}, {"name": "b0d9ad676230a518774977b0bbfc6f57", "is_reserved": 0, "fusion_lon": 0.0, "bike_id": "b0d9ad676230a518774977b0bbfc6f57", "lat": 38.94410366666666, "is_disabled": 0, "lon": -77.02177983333333, "fusion_lat": 0.0, "rental_uris": {"ios": "https://dc.lft.to/lastmile_qr_scan", "android": "https://dc.lft.to/lastmile_qr_scan"}, "type": "electric_scooter"}, {"name": "9ae898e612d8a9dd0cca2b05ca6f8266", "is_reserved": 0, "fusion_lon": 0.0, "bike_id": "9ae898e612d8a9dd0cca2b05ca6f8266", "lat": 38.902562, "is_disabled": 0, "lon": -77.04333533333333, "fusion_lat": 0.0, "rental_uris": {"ios": "https://dc.lft.to/lastmile_qr_scan", "android": "https://dc.lft.to/lastmile_qr_scan"}, "type": "electric_scooter"}, {"name": "8b7c3ae9cc83f72e37134b1ce722ccc7", "is_reserved": 0, "fusion_lon": 0.0, "bike_id": "8b7c3ae9cc83f72e37134b1ce722ccc7", "lat": 38.951545333333335, "is_disabled": 0, "lon": -77.01863716666666, "fusion_lat": 0.0, "rental_uris": {"ios": "https://dc.lft.to/lastmile_qr_scan", "android": "https://dc.lft.to/lastmile_qr_scan"}, "type": "electric_scooter"}, {"name": "d3ba7d6978dbc0ab9b2f5049aacceb55", "is_reserved": 0, "fusion_lon": 0.0, "bike_id": "d3ba7d6978dbc0ab9b2f5049aacceb55", "lat": 38.906800833333335, "is_disabled": 0, "lon": -77.02376116666667, "fusion_lat": 0.0, "rental_uris": {"ios": "https://dc.lft.to/lastmile_qr_scan", "android": "https://dc.lft.to/lastmile_qr_scan"}, "type": "electric_scooter"}, {"name": "d196d8ddfe51ecbb8e7b91f7c304d1a8", "is_reserved": 0, "fusion_lon": 0.0, "bike_id": "d196d8ddfe51ecbb8e7b91f7c304d1a8", "lat": 38.91912466666667, "is_disabled": 0, "lon": -77.03391383333333, "fusion_lat": 0.0, "rental_uris": {"ios": "https://dc.lft.to/lastmile_qr_scan", "android": "https://dc.lft.to/lastmile_qr_scan"}, "type": "electric_scooter"}, {"name": "2ff5783ebe7686b228b5338a59c0277d", "is_reserved": 0, "fusion_lon": 0.0, "bike_id": "2ff5783ebe7686b228b5338a59c0277d", "lat": 38.905545000000004, "is_disabled": 0, "lon": -77.04347716666666, "fusion_lat": 0.0, "rental_uris": {"ios": "https://dc.lft.to/lastmile_qr_scan", "android": "https://dc.lft.to/lastmile_qr_scan"}, "type": "electric_scooter"}, {"name": "782e49c705b8bfd5a6fc344919d7582f", "is_reserved": 0, "fusion_lon": 0.0, "bike_id": "782e49c705b8bfd5a6fc344919d7582f", "lat": 38.91536216666667, "is_disabled": 0, "lon": -77.0446265, "fusion_lat": 0.0, "rental_uris": {"ios": "https://dc.lft.to/lastmile_qr_scan", "android": "https://dc.lft.to/lastmile_qr_scan"}, "type": "electric_scooter"}, {"name": "679e46a03624080813d398d4f5a85a27", "is_reserved": 0, "fusion_lon": 0.0, "bike_id": "679e46a03624080813d398d4f5a85a27", "lat": 38.92610883333333, "is_disabled": 0, "lon": -77.05701933333333, "fusion_lat": 0.0, "rental_uris": {"ios": "https://dc.lft.to/lastmile_qr_scan", "android": "https://dc.lft.to/lastmile_qr_scan"}, "type": "electric_scooter"}, {"name": "1653aa3d61b9c156c83a63359759fd11", "is_reserved": 0, "fusion_lon": 0.0, "bike_id": "1653aa3d61b9c156c83a63359759fd11", "lat": 38.9260505, "is_disabled": 0, "lon": -77.021516, "fusion_lat": 0.0, "rental_uris": {"ios": "https://dc.lft.to/lastmile_qr_scan", "android": "https://dc.lft.to/lastmile_qr_scan"}, "type": "electric_scooter"}, {"name": "18c07d967c3b624c5d0f1d3f3e29baa6", "is_reserved": 0, "fusion_lon": 0.0, "bike_id": "18c07d967c3b624c5d0f1d3f3e29baa6", "lat": 38.8945845, "is_disabled": 0, "lon": -77.02245283333333, "fusion_lat": 0.0, "rental_uris": {"ios": "https://dc.lft.to/lastmile_qr_scan", "android": "https://dc.lft.to/lastmile_qr_scan"}, "type": "electric_scooter"}, {"name": "89a602d5862c436919e4540d00ebd52a", "is_reserved": 0, "fusion_lon": 0.0, "bike_id": "89a602d5862c436919e4540d00ebd52a", "lat": 38.93074883333333, "is_disabled": 0, "lon": -77.03733433333333, "fusion_lat": 0.0, "rental_uris": {"ios": "https://dc.lft.to/lastmile_qr_scan", "android": "https://dc.lft.to/lastmile_qr_scan"}, "type": "electric_scooter"}, {"name": "e6c8b533fd09022d142e932f38cf7312", "is_reserved": 0, "fusion_lon": 0.0, "bike_id": "e6c8b533fd09022d142e932f38cf7312", "lat": 38.9111135, "is_disabled": 0, "lon": -77.03826166666667, "fusion_lat": 0.0, "rental_uris": {"ios": "https://dc.lft.to/lastmile_qr_scan", "android": "https://dc.lft.to/lastmile_qr_scan"}, "type": "electric_scooter"}, {"name": "95b880838f275ba225a2d844078df3c4", "is_reserved": 0, "fusion_lon": 0.0, "bike_id": "95b880838f275ba225a2d844078df3c4", "lat": 38.897704, "is_disabled": 0, "lon": -77.01215, "fusion_lat": 0.0, "rental_uris": {"ios": "https://dc.lft.to/lastmile_qr_scan", "android": "https://dc.lft.to/lastmile_qr_scan"}, "type": "electric_scooter"}, {"name": "57e9df7b4ad04863b3b12ef0ee7a4d50", "is_reserved": 0, "fusion_lon": 0.0, "bike_id": "57e9df7b4ad04863b3b12ef0ee7a4d50", "lat": 38.892297, "is_disabled": 0, "lon": -77.04997133333333, "fusion_lat": 0.0, "rental_uris": {"ios": "https://dc.lft.to/lastmile_qr_scan", "android": "https://dc.lft.to/lastmile_qr_scan"}, "type": "electric_scooter"}, {"name": "125b7667f0f2d1b1c403542322f260a9", "is_reserved": 0, "fusion_lon": 0.0, "bike_id": "125b7667f0f2d1b1c403542322f260a9", "lat": 38.90584333333334, "is_disabled": 0, "lon": -77.021777, "fusion_lat": 0.0, "rental_uris": {"ios": "https://dc.lft.to/lastmile_qr_scan", "android": "https://dc.lft.to/lastmile_qr_scan"}, "type": "electric_scooter"}, {"name": "a3df65772011cc59b439ef4f060bfb2e", "is_reserved": 0, "fusion_lon": 0.0, "bike_id": "a3df65772011cc59b439ef4f060bfb2e", "lat": 38.92880683333333, "is_disabled": 0, "lon": -77.013583, "fusion_lat": 0.0, "rental_uris": {"ios": "https://dc.lft.to/lastmile_qr_scan", "android": "https://dc.lft.to/lastmile_qr_scan"}, "type": "electric_scooter"}, {"name": "dc7304e8f8d3d8ab1f7494853606c4aa", "is_reserved": 0, "fusion_lon": 0.0, "bike_id": "dc7304e8f8d3d8ab1f7494853606c4aa", "lat": 38.924868333333336, "is_disabled": 0, "lon": -77.057499, "fusion_lat": 0.0, "rental_uris": {"ios": "https://dc.lft.to/lastmile_qr_scan", "android": "https://dc.lft.to/lastmile_qr_scan"}, "type": "electric_scooter"}, {"name": "5d06a801129cb6a3320db81765a488d5", "is_reserved": 0, "fusion_lon": 0.0, "bike_id": "5d06a801129cb6a3320db81765a488d5", "lat": 38.89566266666667, "is_disabled": 0, "lon": -77.03166983333334, "fusion_lat": 0.0, "rental_uris": {"ios": "https://dc.lft.to/lastmile_qr_scan", "android": "https://dc.lft.to/lastmile_qr_scan"}, "type": "electric_scooter"}, {"name": "584bdb8d8ae9abd3d4e983617db9e9e2", "is_reserved": 0, "fusion_lon": 0.0, "bike_id": "584bdb8d8ae9abd3d4e983617db9e9e2", "lat": 38.924201833333335, "is_disabled": 0, "lon": -77.01945883333333, "fusion_lat": 0.0, "rental_uris": {"ios": "https://dc.lft.to/lastmile_qr_scan", "android": "https://dc.lft.to/lastmile_qr_scan"}, "type": "electric_scooter"}, {"name": "fe2c549dd74c071708ce1c27547472c3", "is_reserved": 0, "fusion_lon": 0.0, "bike_id": "fe2c549dd74c071708ce1c27547472c3", "lat": 38.899603166666665, "is_disabled": 0, "lon": -77.0237285, "fusion_lat": 0.0, "rental_uris": {"ios": "https://dc.lft.to/lastmile_qr_scan", "android": "https://dc.lft.to/lastmile_qr_scan"}, "type": "electric_scooter"}, {"name": "3afad81c021d54ac5d73263812f26b34", "is_reserved": 0, "fusion_lon": 0.0, "bike_id": "3afad81c021d54ac5d73263812f26b34", "lat": 38.92056816666667, "is_disabled": 0, "lon": -77.04182233333333, "fusion_lat": 0.0, "rental_uris": {"ios": "https://dc.lft.to/lastmile_qr_scan", "android": "https://dc.lft.to/lastmile_qr_scan"}, "type": "electric_scooter"}, {"name": "e77602325df35e9e56e79b3867f2ebe1", "is_reserved": 0, "fusion_lon": 0.0, "bike_id": "e77602325df35e9e56e79b3867f2ebe1", "lat": 38.860813, "is_disabled": 0, "lon": -76.983722, "fusion_lat": 0.0, "rental_uris": {"ios": "https://dc.lft.to/lastmile_qr_scan", "android": "https://dc.lft.to/lastmile_qr_scan"}, "type": "electric_scooter"}, {"name": "220a878675eb101f25e187aafbaa0867", "is_reserved": 0, "fusion_lon": 0.0, "bike_id": "220a878675eb101f25e187aafbaa0867", "lat": 38.877888166666665, "is_disabled": 0, "lon": -76.99938383333334, "fusion_lat": 0.0, "rental_uris": {"ios": "https://dc.lft.to/lastmile_qr_scan", "android": "https://dc.lft.to/lastmile_qr_scan"}, "type": "electric_scooter"}, {"name": "b4324a90d0eb526f96ee7a5756c7bfa8", "is_reserved": 0, "fusion_lon": 0.0, "bike_id": "b4324a90d0eb526f96ee7a5756c7bfa8", "lat": 38.920537333333336, "is_disabled": 0, "lon": -77.0423855, "fusion_lat": 0.0, "rental_uris": {"ios": "https://dc.lft.to/lastmile_qr_scan", "android": "https://dc.lft.to/lastmile_qr_scan"}, "type": "electric_scooter"}, {"name": "ee2bbb28990c2f7de75bce1da12d0f9d", "is_reserved": 0, "fusion_lon": 0.0, "bike_id": "ee2bbb28990c2f7de75bce1da12d0f9d", "lat": 38.900884833333336, "is_disabled": 0, "lon": -77.05005716666666, "fusion_lat": 0.0, "rental_uris": {"ios": "https://dc.lft.to/lastmile_qr_scan", "android": "https://dc.lft.to/lastmile_qr_scan"}, "type": "electric_scooter"}, {"name": "696a9bf2ae1e3789da4e1cfe934e126a", "is_reserved": 0, "fusion_lon": 0.0, "bike_id": "696a9bf2ae1e3789da4e1cfe934e126a", "lat": 38.89974483333334, "is_disabled": 0, "lon": -77.029575, "fusion_lat": 0.0, "rental_uris": {"ios": "https://dc.lft.to/lastmile_qr_scan", "android": "https://dc.lft.to/lastmile_qr_scan"}, "type": "electric_scooter"}, {"name": "53e97d40495f9fcfedb071bfc76ed64c", "is_reserved": 0, "fusion_lon": 0.0, "bike_id": "53e97d40495f9fcfedb071bfc76ed64c", "lat": 38.9028545, "is_disabled": 0, "lon": -77.04695716666667, "fusion_lat": 0.0, "rental_uris": {"ios": "https://dc.lft.to/lastmile_qr_scan", "android": "https://dc.lft.to/lastmile_qr_scan"}, "type": "electric_scooter"}, {"name": "f905d59da1525558d596673e9fc20807", "is_reserved": 0, "fusion_lon": 0.0, "bike_id": "f905d59da1525558d596673e9fc20807", "lat": 38.92323366666667, "is_disabled": 0, "lon": -77.02120966666666, "fusion_lat": 0.0, "rental_uris": {"ios": "https://dc.lft.to/lastmile_qr_scan", "android": "https://dc.lft.to/lastmile_qr_scan"}, "type": "electric_scooter"}, {"name": "2086bbb5243b402ff42da9b258b7c529", "is_reserved": 0, "fusion_lon": 0.0, "bike_id": "2086bbb5243b402ff42da9b258b7c529", "lat": 38.895044166666665, "is_disabled": 0, "lon": -76.93475533333333, "fusion_lat": 0.0, "rental_uris": {"ios": "https://dc.lft.to/lastmile_qr_scan", "android": "https://dc.lft.to/lastmile_qr_scan"}, "type": "electric_scooter"}, {"name": "b8bc50f7032f9549e852900d5eca5c2a", "is_reserved": 0, "fusion_lon": 0.0, "bike_id": "b8bc50f7032f9549e852900d5eca5c2a", "lat": 38.908694, "is_disabled": 0, "lon": -77.00267283333334, "fusion_lat": 0.0, "rental_uris": {"ios": "https://dc.lft.to/lastmile_qr_scan", "android": "https://dc.lft.to/lastmile_qr_scan"}, "type": "electric_scooter"}, {"name": "4996a25c47a795d998d1d242b8f001c7", "is_reserved": 0, "fusion_lon": 0.0, "bike_id": "4996a25c47a795d998d1d242b8f001c7", "lat": 38.91779866666667, "is_disabled": 0, "lon": -77.023392, "fusion_lat": 0.0, "rental_uris": {"ios": "https://dc.lft.to/lastmile_qr_scan", "android": "https://dc.lft.to/lastmile_qr_scan"}, "type": "electric_scooter"}, {"name": "3f84b07ca80c37c2448483c941de7b01", "is_reserved": 0, "fusion_lon": 0.0, "bike_id": "3f84b07ca80c37c2448483c941de7b01", "lat": 38.90223783333333, "is_disabled": 0, "lon": -77.03584083333334, "fusion_lat": 0.0, "rental_uris": {"ios": "https://dc.lft.to/lastmile_qr_scan", "android": "https://dc.lft.to/lastmile_qr_scan"}, "type": "electric_scooter"},