{"data": {"bikes": [{"fusion_lat": 0.0, "name": "1416886976a122d14cc80c5f025b913f", "is_disabled": 0, "rental_uris": {"android": "https://dc.lft.to/lastmile_qr_scan", "ios": "https://dc.lft.to/lastmile_qr_scan"}, "fusion_lon": 0.0, "lat": 38.923303, "bike_id": "1416886976a122d14cc80c5f025b913f", "type": "electric_scooter", "is_reserved": 0, "lon": -77.041869}, {"fusion_lat": 0.0, "name": "f7dc36e227ce4c134f7fff1ab2dd4003", "is_disabled": 0, "rental_uris": {"android": "https://dc.lft.to/lastmile_qr_scan", "ios": "https://dc.lft.to/lastmile_qr_scan"}, "fusion_lon": 0.0, "lat": 38.900246, "bike_id": "f7dc36e227ce4c134f7fff1ab2dd4003", "type": "electric_scooter", "is_reserved": 0, "lon": -77.002186}, {"fusion_lat": 0.0, "name": "b1d6899868d4cffb493b05f72d52400a", "is_disabled": 0, "rental_uris": {"android": "https://dc.lft.to/lastmile_qr_scan", "ios": "https://dc.lft.to/lastmile_qr_scan"}, "fusion_lon": 0.0, "lat": 38.90717733333334, "bike_id": "b1d6899868d4cffb493b05f72d52400a", "type": "electric_scooter", "is_reserved": 0, "lon": -77.03169266666667}, {"fusion_lat": 0.0, "name": "07c5585d1d4cf0c833cf8d733e82dca7", "is_disabled": 0, "rental_uris": {"android": "https://dc.lft.to/lastmile_qr_scan", "ios": "https://dc.lft.to/lastmile_qr_scan"}, "fusion_lon": 0.0, "lat": 38.86958283333333, "bike_id": "07c5585d1d4cf0c833cf8d733e82dca7", "type": "electric_scooter", "is_reserved": 0, "lon": -77.01377966666666}, {"fusion_lat": 0.0, "name": "217627358189565f1cabe16abd473a77", "is_disabled": 0, "rental_uris": {"android": "https://dc.lft.to/lastmile_qr_scan", "ios": "https://dc.lft.to/lastmile_qr_scan"}, "fusion_lon": 0.0, "lat": 38.909638, "bike_id": "217627358189565f1cabe16abd473a77", "type": "electric_scooter", "is_reserved": 0, "lon": -77.03153083333333}, {"fusion_lat": 0.0, "name": "20b81fa1fda804591e695596d1a71d30", "is_disabled": 0, "rental_uris": {"android": "https://dc.lft.to/lastmile_qr_scan", "ios": "https://dc.lft.to/lastmile_qr_scan"}, "fusion_lon": 0.0, "lat": 38.8651365, "bike_id": "20b81fa1fda804591e695596d1a71d30", "type": "electric_bike", "is_reserved": 0, "lon": -77.1294295}, {"fusion_lat": 0.0, "name": "cb063f305e42eb17174e4bb49ce0b88c", "is_disabled": 0, "rental_uris": {"android": "https://dc.lft.to/lastmile_qr_scan", "ios": "https://dc.lft.to/lastmile_qr_scan"}, "fusion_lon": 0.0, "lat": 38.919127833333334, "bike_id": "cb063f305e42eb17174e4bb49ce0b88c", "type": "electric_scooter", "is_reserved": 0, "lon": -77.031173}, {"fusion_lat": 0.0, "name": "0c25e22dbcc1f1f10d375d936f515a6e", "is_disabled": 0, "rental_uris": {"android": "https://dc.lft.to/lastmile_qr_scan", "ios": "https://dc.lft.to/lastmile_qr_scan"}, "fusion_lon": 0.0, "lat": 38.905614, "bike_id": "0c25e22dbcc1f1f10d375d936f515a6e", "type": "electric_scooter", "is_reserved": 0, "lon": -76.98141533333333}, {"fusion_lat": 0.0, "name": "8e33179b1177a1b879ba55af2fed08de", "is_disabled": 0, "rental_uris": {"android": "https://dc.lft.to/lastmile_qr_scan", "ios": "https://dc.lft.to/lastmile_qr_scan"}, "fusion_lon": 0.0, "lat": 38.91650833333333, "bike_id": "8e33179b1177a1b879ba55af2fed08de", "type": "electric_scooter", "is_reserved": 0, "lon": -77.00956266666667}, {"fusion_lat": 0.0, "name": "632ec5bc528d73e1e4397c112e36cace", "is_disabled": 0, "rental_uris": {"android": "https://dc.lft.to/lastmile_qr_scan", "ios": "https://dc.lft.to/lastmile_qr_scan"}, "fusion_lon": 0.0, "lat": 38.886142666666665, "bike_id": "632ec5bc528d73e1e4397c112e36cace", "type": "electric_scooter", "is_reserved": 0, "lon": -77.01801516666667}, {"fusion_lat": 0.0, "name": "a6cf34eb650223e3ae5514df9ca32152", "is_disabled": 0, "rental_uris": {"android": "https://dc.lft.to/lastmile_qr_scan", "ios": "https://dc.lft.to/lastmile_qr_scan"}, "fusion_lon": 0.0, "lat": 38.903415333333335, "bike_id": "a6cf34eb650223e3ae5514df9ca32152", "type": "electric_scooter", "is_reserved": 0, "lon": -77.06650866666666}, {"fusion_lat": 0.0, "name": "4cc8e49278b8d2954a5245205f1d1ea4", "is_disabled": 0, "rental_uris": {"android": "https://dc.lft.to/lastmile_qr_scan", "ios": "https://dc.lft.to/lastmile_qr_scan"}, "fusion_lon": 0.0, "lat": 38.913948833333336, "bike_id": "4cc8e49278b8d2954a5245205f1d1ea4", "type": "electric_scooter", "is_reserved": 0, "lon": -77.04103416666666}, {"fusion_lat": 0.0, "name": "9f5b8d69f476d8b8e700aa462b4f77a4", "is_disabled": 0, "rental_uris": {"android": "https://dc.lft.to/lastmile_qr_scan", "ios": "https://dc.lft.to/lastmile_qr_scan"}, "fusion_lon": 0.0, "lat": 38.906324166666664, "bike_id": "9f5b8d69f476d8b8e700aa462b4f77a4", "type": "electric_scooter", "is_reserved": 0, "lon": -77.006736}, {"fusion_lat": 0.0, "name": "ffe30148636b42bbb737a555f27fef0e", "is_disabled": 0, "rental_uris": {"android": "https://dc.lft.to/lastmile_qr_scan", "ios": "https://dc.lft.to/lastmile_qr_scan"}, "fusion_lon": 0.0, "lat": 38.96662883333333, "bike_id": "ffe30148636b42bbb737a555f27fef0e", "type": "electric_scooter", "is_reserved": 0, "lon": -77.0255065}, {"fusion_lat": 0.0, "name": "185ed5f42298d29989f8bc1b9e716579", "is_disabled": 0, "rental_uris": {"android": "https://dc.lft.to/lastmile_qr_scan", "ios": "https://dc.lft.to/lastmile_qr_scan"}, "fusion_lon": 0.0, "lat": 38.91310883333333, "bike_id": "185ed5f42298d29989f8bc1b9e716579", "type": "electric_scooter", "is_reserved": 0, "lon": -77.03649583333333}, {"fusion_lat": 0.0, "name": "146831bcb49c8623cd019946531885c3", "is_disabled": 0, "rental_uris": {"android": "https://dc.lft.to/lastmile_qr_scan", "ios": "https://dc.lft.to/lastmile_qr_scan"}, "fusion_lon": 0.0, "lat": 38.881409833333336, "bike_id": "146831bcb49c8623cd019946531885c3", "type": "electric_scooter", "is_reserved": 0, "lon": -76.99508083333333}, {"fusion_lat": 0.0, "name": "f0a1a39cb3321cf32211a649d5ef84ef", "is_disabled": 0, "rental_uris": {"android": "https://dc.lft.to/lastmile_qr_scan", "ios": "https://dc.lft.to/lastmile_qr_scan"}, "fusion_lon": 0.0, "lat": 38.89683566666667, "bike_id": "f0a1a39cb3321cf32211a649d5ef84ef", "type": "electric_scooter", "is_reserved": 0, "lon": -77.00550783333334}, {"fusion_lat": 0.0, "name": "3dd2653c4f01c50cd939955160f17d26", "is_disabled": 0, "rental_uris": {"android": "https://dc.lft.to/lastmile_qr_scan", "ios": "https://dc.lft.to/lastmile_qr_scan"}, "fusion_lon": 0.0, "lat": 38.90240716666667, "bike_id": "3dd2653c4f01c50cd939955160f17d26", "type": "electric_scooter", "is_reserved": 0, "lon": -77.0035245}, {"fusion_lat": 0.0, "name": "bea94ace8986c89cb49ee24d53518c03", "is_disabled": 0, "rental_uris": {"android": "https://dc.lft.to/lastmile_qr_scan", "ios": "https://dc.lft.to/lastmile_qr_scan"}, "fusion_lon": 0.0, "lat": 38.931332, "bike_id": "bea94ace8986c89cb49ee24d53518c03", "type": "electric_scooter", "is_reserved": 0, "lon": -77.03900616666667}, {"fusion_lat": 0.0, "name": "f461954cd92e805d61f8906145398ffa", "is_disabled": 0, "rental_uris": {"android": "https://dc.lft.to/lastmile_qr_scan", "ios": "https://dc.lft.to/lastmile_qr_scan"}, "fusion_lon": 0.0, "lat": 38.95378383333333, "bike_id": "f461954cd92e805d61f8906145398ffa", "type": "electric_bike", "is_reserved": 0, "lon": -76.97961716666667}, {"fusion_lat": 0.0, "name": "5eb78caa11859bcc61c1ca865aa24761", "is_disabled": 0, "rental_uris": {"android": "https://dc.lft.to/lastmile_qr_scan", "ios": "https://dc.lft.to/lastmile_qr_scan"}, "fusion_lon": 0.0, "lat": 38.92613333333333, "bike_id": "5eb78caa11859bcc61c1ca865aa24761", "type": "electric_scooter", "is_reserved": 0, "lon": -77.04329866666667}, {"fusion_lat": 0.0, "name": "39627a80dd276fec6ef49f5db06fe343", "is_disabled": 0, "rental_uris": {"android": "https://dc.lft.to/lastmile_qr_scan", "ios": "https://dc.lft.to/lastmile_qr_scan"}, "fusion_lon": 0.0, "lat": 38.93117516666667, "bike_id": "39627a80dd276fec6ef49f5db06fe343", "type": "electric_scooter", "is_reserved": 0, "lon": -77.020956}, {"fusion_lat": 0.0, "name": "28e672515ac28f6df854a2e0af70e445", "is_disabled": 0, "rental_uris": {"android": "https://dc.lft.to/lastmile_qr_scan", "ios": "https://dc.lft.to/lastmile_qr_scan"}, "fusion_lon": 0.0, "lat": 38.920729666666666, "bike_id": "28e672515ac28f6df854a2e0af70e445", "type": "electric_scooter", "is_reserved": 0, "lon": -77.02214633333334}, {"fusion_lat": 0.0, "name": "b583c846719d3779565b33037faa7b07", "is_disabled": 0, "rental_uris": {"android": "https://dc.lft.to/lastmile_qr_scan", "ios": "https://dc.lft.to/lastmile_qr_scan"}, "fusion_lon": 0.0, "lat": 38.900298666666664, "bike_id": "b583c846719d3779565b33037faa7b07", "type": "electric_scooter", "is_reserved": 0, "lon": -77.00027016666667}, {"fusion_lat": 0.0, "name": "de8aa110c322266cf46fbfb9ad563264", "is_disabled": 0, "rental_uris": {"android": "https://dc.lft.to/lastmile_qr_scan", "ios": "https://dc.lft.to/lastmile_qr_scan"}, "fusion_lon": 0.0, "lat": 38.8968875, "bike_id": "de8aa110c322266cf46fbfb9ad563264", "type": "electric_scooter", "is_reserved": 0, "lon": -77.0237435}, {"fusion_lat": 0.0, "name": "b8b650bd604d1d356874e0f1ec32582f", "is_disabled": 0, "rental_uris": {"android": "https://dc.lft.to/lastmile_qr_scan", "ios": "https://dc.lft.to/lastmile_qr_scan"}, "fusion_lon": 0.0, "lat": 38.92000916666667, "bike_id": "b8b650bd604d1d356874e0f1ec32582f", "type": "electric_scooter", "is_reserved": 0, "lon": -77.07140183333334}, {"fusion_lat": 0.0, "name": "79c483a5d305c1a59759bf004260914c", "is_disabled": 0, "rental_uris": {"android": "https://dc.lft.to/lastmile_qr_scan", "ios": "https://dc.lft.to/lastmile_qr_scan"}, "fusion_lon": 0.0, "lat": 38.92551533333334, "bike_id": "79c483a5d305c1a59759bf004260914c", "type": "electric_scooter", "is_reserved": 0, "lon": -77.042975}, {"fusion_lat": 0.0, "name": "a544a47c44b4446a203ed1d30ff1c8f3", "is_disabled": 0, "rental_uris": {"android": "https://dc.lft.to/lastmile_qr_scan", "ios": "https://dc.lft.to/lastmile_qr_scan"}, "fusion_lon": 0.0, "lat": 38.8830585, "bike_id": "a544a47c44b4446a203ed1d30ff1c8f3", "type": "electric_scooter", "is_reserved": 0, "lon": -77.01387766666667}, {"fusion_lat": 0.0, "name": "7e449330810d11a4bd5bb124ce46d4b6", "is_disabled": 0, "rental_uris": {"android": "https://dc.lft.to/lastmile_qr_scan", "ios": "https://dc.lft.to/lastmile_qr_scan"}, "fusion_lon": 0.0, "lat": 38.91648266666667, "bike_id": "7e449330810d11a4bd5bb124ce46d4b6", "type": "electric_scooter", "is_reserved": 0, "lon": -77.02181816666666}, {"fusion_lat": 0.0, "name": "82bd11b5750a17bf2e33cde544a6fac6", "is_disabled": 0, "rental_uris": {"android": "https://dc.lft.to/lastmile_qr_scan", "ios": "https://dc.lft.to/lastmile_qr_scan"}, "fusion_lon": 0.0, "lat": 38.924469333333334, "bike_id": "82bd11b5750a17bf2e33cde544a6fac6", "type": "electric_scooter", "is_reserved": 0, "lon": -77.00879466666666}, {"fusion_lat": 0.0, "name": "2518549813a592a85ce7e798384c10e8", "is_disabled": 0, "rental_uris": {"android": "https://dc.lft.to/lastmile_qr_scan", "ios": "https://dc.lft.to/lastmile_qr_scan"}, "fusion_lon": 0.0, "lat": 38.99745133333333, "bike_id": "2518549813a592a85ce7e798384c10e8", "type": "electric_bike", "is_reserved": 0, "lon": -77.0268795}, {"fusion_lat": 0.0, "name": "6cc27aa65e37bdfe153aa124fd5d5b12", "is_disabled": 0, "rental_uris": {"android": "https://dc.lft.to/lastmile_qr_scan", "ios": "https://dc.lft.to/lastmile_qr_scan"}, "fusion_lon": 0.0, "lat": 38.91840216666667, "bike_id": "6cc27aa65e37bdfe153aa124fd5d5b12", "type": "electric_scooter", "is_reserved": 0, "lon": -77.03212716666667}, {"fusion_lat": 0.0, "name": "34897c03b2a1f0a31c08547ac5855c5e", "is_disabled": 0, "rental_uris": {"android": "https://dc.lft.to/lastmile_qr_scan", "ios": "https://dc.lft.to/lastmile_qr_scan"}, "fusion_lon": 0.0, "lat": 38.9358375, "bike_id": "34897c03b2a1f0a31c08547ac5855c5e", "type": "electric_scooter", "is_reserved": 0, "lon": -77.03355283333333}, {"fusion_lat": 0.0, "name": "dc91cb60090edf50592f3eb988c91553", "is_disabled": 0, "rental_uris": {"android": "https://dc.lft.to/lastmile_qr_scan", "ios": "https://dc.lft.to/lastmile_qr_scan"}, "fusion_lon": 0.0, "lat": 38.896701666666665, "bike_id": "dc91cb60090edf50592f3eb988c91553", "type": "electric_scooter", "is_reserved": 0, "lon": -77.0510115}, {"fusion_lat": 0.0, "name": "b1f8a606705cd6646fa960345018bdf9", "is_disabled": 0, "rental_uris": {"android": "https://dc.lft.to/lastmile_qr_scan", "ios": "https://dc.lft.to/lastmile_qr_scan"}, "fusion_lon": 0.0, "lat": 38.92285916666667, "bike_id": "b1f8a606705cd6646fa960345018bdf9", "type": "electric_scooter", "is_reserved": 0, "lon": -77.02331766666667}, {"fusion_lat": 0.0, "name": "bba9c29bdd7bb89d24c70121f848902f", "is_disabled": 0, "rental_uris": {"android": "https://dc.lft.to/lastmile_qr_scan", "ios": "https://dc.lft.to/lastmile_qr_scan"}, "fusion_lon": 0.0, "lat": 38.897186166666664, "bike_id": "bba9c29bdd7bb89d24c70121f848902f", "type": "electric_scooter", "is_reserved": 0, "lon": -77.00784066666667}, {"fusion_lat": 0.0, "name": "45dfeabbb33e4397b09e1af2ee52013b", "is_disabled": 0, "rental_uris": {"android": "https://dc.lft.to/lastmile_qr_scan", "ios": "https://dc.lft.to/lastmile_qr_scan"}, "fusion_lon": 0.0, "lat": 38.9108965, "bike_id": "45dfeabbb33e4397b09e1af2ee52013b", "type": "electric_scooter", "is_reserved": 0, "lon": -77.02418916666667}, {"fusion_lat": 0.0, "name": "c8f8bfed5da13f9b469ced7702938309", "is_disabled": 0, "rental_uris": {"android": "https://dc.lft.to/lastmile_qr_scan", "ios": "https://dc.lft.to/lastmile_qr_scan"}, "fusion_lon": 0.0, "lat": 38.912142, "bike_id": "c8f8bfed5da13f9b469ced7702938309", "type": "electric_scooter", "is_reserved": 0, "lon": -77.04496066666667}, {"fusion_lat": 0.0, "name": "1ddac6da1b9739fafb4cab55a5fadb33", "is_disabled": 0, "rental_uris": {"android": "https://dc.lft.to/lastmile_qr_scan", "ios": "https://dc.lft.to/lastmile_qr_scan"}, "fusion_lon": 0.0, "lat": 38.813288666666665, "bike_id": "1ddac6da1b9739fafb4cab55a5fadb33", "type": "electric_bike", "is_reserved": 0, "lon": -77.05089233333334}, {"fusion_lat": 0.0, "name": "6d53998ec94fb8dcc161b087493ea31a", "is_disabled": 0, "rental_uris": {"android": "https://dc.lft.to/lastmile_qr_scan", "ios": "https://dc.lft.to/lastmile_qr_scan"}, "fusion_lon": 0.0, "lat": 38.929731, "bike_id": "6d53998ec94fb8dcc161b087493ea31a", "type": "electric_bike", "is_reserved": 0, "lon": -77.0377645}, {"fusion_lat": 0.0, "name": "c7c8689ac408055fd07299770972614b", "is_disabled": 0, "rental_uris": {"android": "https://dc.lft.to/lastmile_qr_scan", "ios": "https://dc.lft.to/lastmile_qr_scan"}, "fusion_lon": 0.0, "lat": 38.919483666666665, "bike_id": "c7c8689ac408055fd07299770972614b", "type": "electric_scooter", "is_reserved": 0, "lon": -77.02485883333334}, {"fusion_lat": 0.0, "name": "4d4df044a2255de5ee3c0cf6206f50cf", "is_disabled": 0, "rental_uris": {"android": "https://dc.lft.to/lastmile_qr_scan", "ios": "https://dc.lft.to/lastmile_qr_scan"}, "fusion_lon": 0.0, "lat": 38.91855483333333, "bike_id": "4d4df044a2255de5ee3c0cf6206f50cf", "type": "electric_bike", "is_reserved": 0, "lon": -76.9608825}, {"fusion_lat": 0.0, "name": "b975f6433956ea4d0dd63984015eb7a2", "is_disabled": 0, "rental_uris": {"android": "https://dc.lft.to/lastmile_qr_scan", "ios": "https://dc.lft.to/lastmile_qr_scan"}, "fusion_lon": 0.0, "lat": 38.9000755, "bike_id": "b975f6433956ea4d0dd63984015eb7a2", "type": "electric_scooter", "is_reserved": 0, "lon": -77.02922766666667}, {"fusion_lat": 0.0, "name": "f7730e556ec225861461854df7739190", "is_disabled": 0, "rental_uris": {"android": "https://dc.lft.to/lastmile_qr_scan", "ios": "https://dc.lft.to/lastmile_qr_scan"}, "fusion_lon": 0.0, "lat": 38.915466, "bike_id": "f7730e556ec225861461854df7739190", "type": "electric_scooter", "is_reserved": 0, "lon": -77.03253966666666}, {"fusion_lat": 0.0, "name": "9a5646d1c8de406a6b776aee3264cdda", "is_disabled": 0, "rental_uris": {"android": "https://dc.lft.to/lastmile_qr_scan", "ios": "https://dc.lft.to/lastmile_qr_scan"}, "fusion_lon": 0.0, "lat": 38.930284666666665, "bike_id": "9a5646d1c8de406a6b776aee3264cdda", "type": "electric_scooter", "is_reserved": 0, "lon": -77.019519}, {"fusion_lat": 0.0, "name": "9d0363c2810ee238d1a05319036d2e74", "is_disabled": 0, "rental_uris": {"android": "https://dc.lft.to/lastmile_qr_scan", "ios": "https://dc.lft.to/lastmile_qr_scan"}, "fusion_lon": 0.0, "lat": 38.894872166666666, "bike_id": "9d0363c2810ee238d1a05319036d2e74", "type": "electric_scooter", "is_reserved": 0, "lon": -77.019488}, {"fusion_lat": 0.0, "name": "d0d44c014380dc974e26f9f2105ac240", "is_disabled": 0, "rental_uris": {"android": "https://dc.lft.to/lastmile_qr_scan", "ios": "https://dc.lft.to/lastmile_qr_scan"}, "fusion_lon": 0.0, "lat": 38.842787666666666, "bike_id": "d0d44c014380dc974e26f9f2105ac240", "type": "electric_bike", "is_reserved": 0, "lon": -77.04505733333333}, {"fusion_lat": 0.0, "name": "9c04d00eb78ef22fc4543743b1fc056f", "is_disabled": 0, "rental_uris": {"android": "https://dc.lft.to/lastmile_qr_scan", "ios": "https://dc.lft.to/lastmile_qr_scan"}, "fusion_lon": 0.0, "lat": 38.9229845, "bike_id": "9c04d00eb78ef22fc4543743b1fc056f", "type": "electric_scooter", "is_reserved": 0, "lon": -77.01823183333333}, {"fusion_lat": 0.0, "name": "ef6bcce3690005aa572e15891ab1382a", "is_disabled": 0, "rental_uris": {"android": "https://dc.lft.to/lastmile_qr_scan", "ios": "https://dc.lft.to/lastmile_qr_scan"}, "fusion_lon": 0.0, "lat": 38.9113065, "bike_id": "ef6bcce3690005aa572e15891ab1382a", "type": "electric_scooter", "is_reserved": 0, "lon": -77.01052333333334}, {"fusion_lat": 0.0, "name": "96ad0b0de1f4ea1fd860ca8291289a98", "is_disabled": 0, "rental_uris": {"android": "https://dc.lft.to/lastmile_qr_scan", "ios": "https://dc.lft.to/lastmile_qr_scan"}, "fusion_lon": 0.0, "lat": 38.8955915, "bike_id": "96ad0b0de1f4ea1fd860ca8291289a98", "type": "electric_bike", "is_reserved": 0, "lon": -77.12740216666667}, {"fusion_lat": 0.0, "name": "f280cf3ea38333c84c5b1e30cf1ac4da", "is_disabled": 0, "rental_uris": {"android": "https://dc.lft.to/lastmile_qr_scan", "ios": "https://dc.lft.to/lastmile_qr_scan"}, "fusion_lon": 0.0, "lat": 38.8530565, "bike_id": "f280cf3ea38333c84c5b1e30cf1ac4da", "type": "electric_bike", "is_reserved": 0, "lon": -77.04611233333334}, {"fusion_lat": 0.0, "name": "cfd606ce2c3a96ed563b869af4464dfa", "is_disabled": 0, "rental_uris": {"android": "https://dc.lft.to/lastmile_qr_scan", "ios": "https://dc.lft.to/lastmile_qr_scan"}, "fusion_lon": 0.0, "lat": 38.917029166666666, "bike_id": "cfd606ce2c3a96ed563b869af4464dfa", "type": "electric_scooter", "is_reserved": 0, "lon": -77.03468783333334}, {"fusion_lat": 0.0, "name": "1422344dd357a6562b931f186ab30eed", "is_disabled": 0, "rental_uris": {"android": "https://dc.lft.to/lastmile_qr_scan", "ios": "https://dc.lft.to/lastmile_qr_scan"}, "fusion_lon": 0.0, "lat": 38.922127333333336, "bike_id": "1422344dd357a6562b931f186ab30eed", "type": "electric_scooter", "is_reserved": 0, "lon": -76.99619933333334}, {"fusion_lat": 0.0, "name": "4f7644d041026e2715877b90a7f21245", "is_disabled": 0, "rental_uris": {"android": "https://dc.lft.to/lastmile_qr_scan", "ios": "https://dc.lft.to/lastmile_qr_scan"}, "fusion_lon": 0.0, "lat": 38.92948833333333, "bike_id": "4f7644d041026e2715877b90a7f21245", "type": "electric_scooter", "is_reserved": 0, "lon": -77.0347305}, {"fusion_lat": 0.0, "name": "87b9e8e829ff8b231a2e8ffe7d5a7261", "is_disabled": 0, "rental_uris": {"android": "https://dc.lft.to/lastmile_qr_scan", "ios": "https://dc.lft.to/lastmile_qr_scan"}, "fusion_lon": 0.0, "lat": 38.884019, "bike_id": "87b9e8e829ff8b231a2e8ffe7d5a7261", "type": "electric_scooter", "is_reserved": 0, "lon": -77.0257735}, {"fusion_lat": 0.0, "name": "f4c0f22e967fc32887d00f9a1a3bd96c", "is_disabled": 0, "rental_uris": {"android": "https://dc.lft.to/lastmile_qr_scan", "ios": "https://dc.lft.to/lastmile_qr_scan"}, "fusion_lon": 0.0, "lat": 38.921004333333336, "bike_id": "f4c0f22e967fc32887d00f9a1a3bd96c", "type": "electric_scooter", "is_reserved": 0, "lon": -77.02200433333333}, {"fusion_lat": 0.0, "name": "fdf285d6ff558ba313ea2592009d9d3a", "is_disabled": 0, "rental_uris": {"android": "https://dc.lft.to/lastmile_qr_scan", "ios": "https://dc.lft.to/lastmile_qr_scan"}, "fusion_lon": 0.0, "lat": 38.916261166666665, "bike_id": "fdf285d6ff558ba313ea2592009d9d3a", "type": "electric_scooter", "is_reserved": 0, "lon": -77.03138466666667}, {"fusion_lat": 0.0, "name": "6fc858cb4fce29898459549da692350f", "is_disabled": 0, "rental_uris": {"android": "https://dc.lft.to/lastmile_qr_scan", "ios": "https://dc.lft.to/lastmile_qr_scan"}, "fusion_lon": 0.0, "lat": 38.92295133333333, "bike_id": "6fc858cb4fce29898459549da692350f", "type": "electric_scooter", "is_reserved": 0, "lon": -77.0182365}, {"fusion_lat": 0.0, "name": "4e0d34afbc1d35f80afb41787a1d7c50", "is_disabled": 0, "rental_uris": {"android": "https://dc.lft.to/lastmile_qr_scan", "ios": "https://dc.lft.to/lastmile_qr_scan"}, "fusion_lon": 0.0, "lat": 38.921712, "bike_id": "4e0d34afbc1d35f80afb41787a1d7c50", "type": "electric_scooter", "is_reserved": 0, "lon": -77.03832083333333}, {"fusion_lat": 0.0, "name": "b8eec6e85c4c9c02af872f43d5b82b5e", "is_disabled": 0, "rental_uris": {"android": "https://dc.lft.to/lastmile_qr_scan", "ios": "https://dc.lft.to/lastmile_qr_scan"}, "fusion_lon": 0.0, "lat": 38.873933666666666, "bike_id": "b8eec6e85c4c9c02af872f43d5b82b5e", "type": "electric_scooter", "is_reserved": 0, "lon": -77.00048916666667}, {"fusion_lat": 0.0, "name": "b314a9efbf56abd730b88aeca30a3b4c", "is_disabled": 0, "rental_uris": {"android": "https://dc.lft.to/lastmile_qr_scan", "ios": "https://dc.lft.to/lastmile_qr_scan"}, "fusion_lon": 0.0, "lat": 38.90025766666667, "bike_id": "b314a9efbf56abd730b88aeca30a3b4c", "type": "electric_scooter", "is_reserved": 0, "lon": -77.011771}, {"fusion_lat": 0.0, "name": "725efd1dcbfa2ed77ec413749c7e0d87", "is_disabled": 0, "rental_uris": {"android": "https://dc.lft.to/lastmile_qr_scan", "ios": "https://dc.lft.to/lastmile_qr_scan"}, "fusion_lon": 0.0, "lat": 38.886359, "bike_id": "725efd1dcbfa2ed77ec413749c7e0d87", "type": "electric_scooter", "is_reserved": 0, "lon": -77.019627}, {"fusion_lat": 0.0, "name": "f96afbc9969c649645756f8749506ce2", "is_disabled": 0, "rental_uris": {"android": "https://dc.lft.to/lastmile_qr_scan", "ios": "https://dc.lft.to/lastmile_qr_scan"}, "fusion_lon": 0.0, "lat": 38.928740833333336, "bike_id": "f96afbc9969c649645756f8749506ce2", "type": "electric_scooter", "is_reserved": 0, "lon": -77.013572}, {"fusion_lat": 0.0, "name": "932812119d80833c9babce0d2b27abe7", "is_disabled": 0, "rental_uris": {"android": "https://dc.lft.to/lastmile_qr_scan", "ios": "https://dc.lft.to/lastmile_qr_scan"}, "fusion_lon": 0.0, "lat": 38.902446, "bike_id": "932812119d80833c9babce0d2b27abe7", "type": "electric_scooter", "is_reserved": 0, "lon": -77.017986}, {"fusion_lat": 0.0, "name": "961201ac9a2587959cd383668ef402b5", "is_disabled": 0, "rental_uris": {"android": "https://dc.lft.to/lastmile_qr_scan", "ios": "https://dc.lft.to/lastmile_qr_scan"}, "fusion_lon": 0.0, "lat": 38.91653683333333, "bike_id": "961201ac9a2587959cd383668ef402b5", "type": "electric_scooter", "is_reserved": 0, "lon": -77.028185}, {"fusion_lat": 0.0, "name": "bb8c3a40e6cf4ea4b8a06d7a0526bd7c", "is_disabled": 0, "rental_uris": {"android": "https://dc.lft.to/lastmile_qr_scan", "ios": "https://dc.lft.to/lastmile_qr_scan"}, "fusion_lon": 0.0, "lat": 38.94891533333333, "bike_id": "bb8c3a40e6cf4ea4b8a06d7a0526bd7c", "type": "electric_bike", "is_reserved": 0, "lon": -76.96370566666667}, {"fusion_lat": 0.0, "name": "2f3c9a250efb29155d855f6179b41a7d", "is_disabled": 0, "rental_uris": {"android": "https://dc.lft.to/lastmile_qr_scan", "ios": "https://dc.lft.to/lastmile_qr_scan"}, "fusion_lon": 0.0, "lat": 38.923088666666665, "bike_id": "2f3c9a250efb29155d855f6179b41a7d", "type": "electric_scooter", "is_reserved": 0, "lon": -77.03826416666666}, {"fusion_lat": 0.0, "name": "23710d9237d4e714cf31bb6bc43e5723", "is_disabled": 0, "rental_uris": {"android": "https://dc.lft.to/lastmile_qr_scan", "ios": "https://dc.lft.to/lastmile_qr_scan"}, "fusion_lon": 0.0, "lat": 38.89452383333333, "bike_id": "23710d9237d4e714cf31bb6bc43e5723", "type": "electric_scooter", "is_reserved": 0, "lon": -77.04547933333333}, {"fusion_lat": 0.0, "name": "9d09f5d9bea390e3e005c68b553d8a1e", "is_disabled": 0, "rental_uris": {"android": "https://dc.lft.to/lastmile_qr_scan", "ios": "https://dc.lft.to/lastmile_qr_scan"}, "fusion_lon": 0.0, "lat": 38.88397333333333, "bike_id": "9d09f5d9bea390e3e005c68b553d8a1e", "type": "electric_scooter", "is_reserved": 0, "lon": -77.02987266666666}, {"fusion_lat": 0.0, "name": "8be34e213c64ae6950a542d7ceebe9a3", "is_disabled": 0, "rental_uris": {"android": "https://dc.lft.to/lastmile_qr_scan", "ios": "https://dc.lft.to/lastmile_qr_scan"}, "fusion_lon": 0.0, "lat": 38.897283333333334, "bike_id": "8be34e213c64ae6950a542d7ceebe9a3", "type": "electric_scooter", "is_reserved": 0, "lon": -76.947043}, {"fusion_lat": 0.0, "name": "f94778e91f716cfba026b5604781f11d", "is_disabled": 0, "rental_uris": {"android": "https://dc.lft.to/lastmile_qr_scan", "ios": "https://dc.lft.to/lastmile_qr_scan"}, "fusion_lon": 0.0, "lat": 38.908483333333336, "bike_id": "f94778e91f716cfba026b5604781f11d", "type": "electric_scooter", "is_reserved": 0, "lon": -77.06395366666666}, {"fusion_lat": 0.0, "name": "9c4c60b9d681d9b5b153607ac8ae6671", "is_disabled": 0, "rental_uris": {"android": "https://dc.lft.to/lastmile_qr_scan", "ios": "https://dc.lft.to/lastmile_qr_scan"}, "fusion_lon": 0.0, "lat": 38.960700333333335, "bike_id": "9c4c60b9d681d9b5b153607ac8ae6671", "type": "electric_scooter", "is_reserved": 0, "lon": -77.000987}, {"fusion_lat": 0.0, "name": "eb2225b515e461f61e22dac8c2e8eba8", "is_disabled": 0, "rental_uris": {"android": "https://dc.lft.to/lastmile_qr_scan", "ios": "https://dc.lft.to/lastmile_qr_scan"}, "fusion_lon": 0.0, "lat": 38.903945, "bike_id": "eb2225b515e461f61e22dac8c2e8eba8", "type": "electric_scooter", "is_reserved": 0, "lon": -77.03315683333334}, {"fusion_lat": 0.0, "name": "d6b8fe475fd9f269357c5573304c5214", "is_disabled": 0, "rental_uris": {"android": "https://dc.lft.to/lastmile_qr_scan", "ios": "https://dc.lft.to/lastmile_qr_scan"}, "fusion_lon": 0.0, "lat": 38.9280945, "bike_id": "d6b8fe475fd9f269357c5573304c5214", "type": "electric_scooter", "is_reserved": 0, "lon": -77.04362616666667}, {"fusion_lat": 0.0, "name": "04dff8f88fc06225c752d1fd4bae7055", "is_disabled": 0, "rental_uris": {"android": "https://dc.lft.to/lastmile_qr_scan", "ios": "https://dc.lft.to/lastmile_qr_scan"}, "fusion_lon": 0.0, "lat": 38.86510916666667, "bike_id": "04dff8f88fc06225c752d1fd4bae7055", "type": "electric_bike", "is_reserved": 0, "lon": -76.97325983333333}, {"fusion_lat": 0.0, "name": "98d46012ee3e8299b0a472b328ef7a5b", "is_disabled": 0, "rental_uris": {"android": "https://dc.lft.to/lastmile_qr_scan", "ios": "https://dc.lft.to/lastmile_qr_scan"}, "fusion_lon": 0.0, "lat": 38.87641933333333, "bike_id": "98d46012ee3e8299b0a472b328ef7a5b", "type": "electric_scooter", "is_reserved": 0, "lon": -77.00747983333333}, {"fusion_lat": 0.0, "name": "106c2345db479b1bba0f08dd2f1149ef", "is_disabled": 0, "rental_uris": {"android": "https://dc.lft.to/lastmile_qr_scan", "ios": "https://dc.lft.to/lastmile_qr_scan"}, "fusion_lon": 0.0, "lat": 38.84910416666666, "bike_id": "106c2345db479b1bba0f08dd2f1149ef", "type": "electric_bike", "is_reserved": 0, "lon": -77.09983483333333}, {"fusion_lat": 0.0, "name": "eacb50267270479a2f1b0fd7cf17b032", "is_disabled": 0, "rental_uris": {"android": "https://dc.lft.to/lastmile_qr_scan", "ios": "https://dc.lft.to/lastmile_qr_scan"}, "fusion_lon": 0.0, "lat": 38.9035635, "bike_id": "eacb50267270479a2f1b0fd7cf17b032", "type": "electric_scooter", "is_reserved": 0, "lon": -77.06267083333333}, {"fusion_lat": 0.0, "name": "6ba4f894541b4418daa1e8f2b6c541f6", "is_disabled": 0, "rental_uris": {"android": "https://dc.lft.to/lastmile_qr_scan", "ios": "https://dc.lft.to/lastmile_qr_scan"}, "fusion_lon": 0.0, "lat": 38.876821, "bike_id": "6ba4f894541b4418daa1e8f2b6c541f6", "type": "electric_scooter", "is_reserved": 0, "lon": -77.00744683333333}, {"fusion_lat": 0.0, "name": "e498515d4912d8449b1c8263c0b2b930", "is_disabled": 0, "rental_uris": {"android": "https://dc.lft.to/lastmile_qr_scan", "ios": "https://dc.lft.to/lastmile_qr_scan"}, "fusion_lon": 0.0, "lat": 38.969237, "bike_id": "e498515d4912d8449b1c8263c0b2b930", "type": "electric_bike", "is_reserved": 0, "lon": -77.02616783333333}, {"fusion_lat": 0.0, "name": "b179b07ba99c8e055a2ccc9700f840d1", "is_disabled": 0, "rental_uris": {"android": "https://dc.lft.to/lastmile_qr_scan", "ios": "https://dc.lft.to/lastmile_qr_scan"}, "fusion_lon": 0.0, "lat": 38.915601333333335, "bike_id": "b179b07ba99c8e055a2ccc9700f840d1", "type": "electric_scooter", "is_reserved": 0, "lon": -77.02207766666666}, {"fusion_lat": 0.0, "name": "c9499a82c9a5dfcb3e987b1ae1fe4c82", "is_disabled": 0, "rental_uris": {"android": "https://dc.lft.to/lastmile_qr_scan", "ios": "https://dc.lft.to/lastmile_qr_scan"}, "fusion_lon": 0.0, "lat": 38.92613, "bike_id": "c9499a82c9a5dfcb3e987b1ae1fe4c82", "type": "electric_scooter", "is_reserved": 0, "lon": -77.07573783333333}, {"fusion_lat": 0.0, "name": "3222def780cb2ca40ed5166094e2b6ac", "is_disabled": 0, "rental_uris": {"android": "https://dc.lft.to/lastmile_qr_scan", "ios": "https://dc.lft.to/lastmile_qr_scan"}, "fusion_lon": 0.0, "lat": 38.9077005, "bike_id": "3222def780cb2ca40ed5166094e2b6ac", "type": "electric_scooter", "is_reserved": 0, "lon": -77.04266033333333}, {"fusion_lat": 0.0, "name": "bc282e7d570c31c1a26aaab4ea1447f5", "is_disabled": 0, "rental_uris": {"android": "https://dc.lft.to/lastmile_qr_scan", "ios": "https://dc.lft.to/lastmile_qr_scan"}, "fusion_lon": 0.0, "lat": 38.92811733333333, "bike_id": "bc282e7d570c31c1a26aaab4ea1447f5", "type": "electric_scooter", "is_reserved": 0, "lon": -77.0436205}, {"fusion_lat": 0.0, "name": "a808654744c34c40619ba217085aea99", "is_disabled": 0, "rental_uris": {"android": "https://dc.lft.to/lastmile_qr_scan", "ios": "https://dc.lft.to/lastmile_qr_scan"}, "fusion_lon": 0.0, "lat": 38.89991966666667, "bike_id": "a808654744c34c40619ba217085aea99", "type": "electric_scooter", "is_reserved": 0, "lon": -77.00377016666667}, {"fusion_lat": 0.0, "name": "f49411a0ed13962b3b92bcfc9ba1da60", "is_disabled": 0, "rental_uris": {"android": "https://dc.lft.to/lastmile_qr_scan", "ios": "https://dc.lft.to/lastmile_qr_scan"}, "fusion_lon": 0.0, "lat": 38.92318216666666, "bike_id": "f49411a0ed13962b3b92bcfc9ba1da60", "type": "electric_scooter", "is_reserved": 0, "lon": -77.05370433333333}, {"fusion_lat": 0.0, "name": "610fc21dd1ae2a9678a846b5e6f519ab", "is_disabled": 0, "rental_uris": {"android": "https://dc.lft.to/lastmile_qr_scan", "ios": "https://dc.lft.to/lastmile_qr_scan"}, "fusion_lon": 0.0, "lat": 38.879373333333334, "bike_id": "610fc21dd1ae2a9678a846b5e6f519ab", "type": "electric_scooter", "is_reserved": 0, "lon": -77.00678816666667}, {"fusion_lat": 0.0, "name": "069de7523c003f28ffede8ccfaeb2366", "is_disabled": 0, "rental_uris": {"android": "https://dc.lft.to/lastmile_qr_scan", "ios": "https://dc.lft.to/lastmile_qr_scan"}, "fusion_lon": 0.0, "lat": 38.90111433333333, "bike_id": "069de7523c003f28ffede8ccfaeb2366", "type": "electric_scooter", "is_reserved": 0, "lon": -76.9742825}, {"fusion_lat": 0.0, "name": "1a19e1cf4be4d3919151a0c1f99b3de6", "is_disabled": 0, "rental_uris": {"android": "https://dc.lft.to/lastmile_qr_scan", "ios": "https://dc.lft.to/lastmile_qr_scan"}, "fusion_lon": 0.0, "lat": 38.902797166666666, "bike_id": "1a19e1cf4be4d3919151a0c1f99b3de6", "type": "electric_scooter", "is_reserved": 0, "lon": -77.04888533333333}, {"fusion_lat": 0.0, "name": "85ccdec44b15fb4c1be38c972a250ca2", "is_disabled": 0, "rental_uris": {"android": "https://dc.lft.to/lastmile_qr_scan", "ios": "https://dc.lft.to/lastmile_qr_scan"}, "fusion_lon": 0.0, "lat": 38.89883716666667, "bike_id": "85ccdec44b15fb4c1be38c972a250ca2", "type": "electric_scooter", "is_reserved": 0, "lon": -77.02016883333333}, {"fusion_lat": 0.0, "name": "3d44550a194073b6df1c26af16a70bf3", "is_disabled": 0, "rental_uris": {"android": "https://dc.lft.to/lastmile_qr_scan", "ios": "https://dc.lft.to/lastmile_qr_scan"}, "fusion_lon": 0.0, "lat": 38.90007466666667, "bike_id": "3d44550a194073b6df1c26af16a70bf3", "type": "electric_scooter", "is_reserved": 0, "lon": -77.0448195}, {"fusion_lat": 0.0, "name": "86e9341f3e207ddc55cea9bdc98502ed", "is_disabled": 0, "rental_uris": {"android": "https://dc.lft.to/lastmile_qr_scan", "ios": "https://dc.lft.to/lastmile_qr_scan"}, "fusion_lon": 0.0, "lat": 38.88388233333333, "bike_id": "86e9341f3e207ddc55cea9bdc98502ed", "type": "electric_scooter", "is_reserved": 0, "lon": -76.930501}, {"fusion_lat": 0.0, "name": "437e187e0600f6ad6a5bd66bccf340dc", "is_disabled": 0, "rental_uris": {"android": "https://dc.lft.to/lastmile_qr_scan", "ios": "https://dc.lft.to/lastmile_qr_scan"}, "fusion_lon": 0.0, "lat": 38.89779883333333, "bike_id": "437e187e0600f6ad6a5bd66bccf340dc", "type": "electric_scooter", "is_reserved": 0, "lon": -77.02199183333333}, {"fusion_lat": 0.0, "name": "89b273f68eb8f522d3eabed235a1ad53", "is_disabled": 0, "rental_uris": {"android": "https://dc.lft.to/lastmile_qr_scan", "ios": "https://dc.lft.to/lastmile_qr_scan"}, "fusion_lon": 0.0, "lat": 38.94082483333333, "bike_id": "89b273f68eb8f522d3eabed235a1ad53", "type": "electric_scooter", "is_reserved": 0, "lon": -77.06186983333333}, {"fusion_lat": 0.0, "name": "38c5b9068cd8a542c2f4438295793946", "is_disabled": 0, "rental_uris": {"android": "https://dc.lft.to/lastmile_qr_scan", "ios": "https://dc.lft.to/lastmile_qr_scan"}, "fusion_lon": 0.0, "lat": 38.892192333333334, "bike_id": "38c5b9068cd8a542c2f4438295793946", "type": "electric_scooter", "is_reserved": 0, "lon": -77.04688066666667}, {"fusion_lat": 0.0, "name": "d47af55f2ef4d1ee2e954bf16e06a545", "is_disabled": 0, "rental_uris": {"android": "https://dc.lft.to/lastmile_qr_scan", "ios": "https://dc.lft.to/lastmile_qr_scan"}, "fusion_lon": 0.0, "lat": 38.8972445, "bike_id": "d47af55f2ef4d1ee2e954bf16e06a545", "type": "electric_scooter", "is_reserved": 0, "lon": -77.05526166666667}, {"fusion_lat": 0.0, "name": "47d5855937669ade304955c6efdf984e", "is_disabled": 0, "rental_uris": {"android": "https://dc.lft.to/lastmile_qr_scan", "ios": "https://dc.lft.to/lastmile_qr_scan"}, "fusion_lon": 0.0, "lat": 38.905243666666664, "bike_id": "47d5855937669ade304955c6efdf984e", "type": "electric_scooter", "is_reserved": 0, "lon": -77.0638165}, {"fusion_lat": 0.0, "name": "de4b0cb50d59bc2387fbb4db1357e1cb", "is_disabled": 0, "rental_uris": {"android": "https://dc.lft.to/lastmile_qr_scan", "ios": "https://dc.lft.to/lastmile_qr_scan"}, "fusion_lon": 0.0, "lat": 38.90367233333333, "bike_id": "de4b0cb50d59bc2387fbb4db1357e1cb", "type": "electric_scooter", "is_reserved": 0, "lon": -77.06102316666667}, {"fusion_lat": 0.0, "name": "a912e53b7e4ff4fd097d5c4c5a26dabb", "is_disabled": 0, "rental_uris": {"android": "https://dc.lft.to/lastmile_qr_scan", "ios": "https://dc.lft.to/lastmile_qr_scan"}, "fusion_lon": 0.0, "lat": 38.8982265, "bike_id": "a912e53b7e4ff4fd097d5c4c5a26dabb", "type": "electric_scooter", "is_reserved": 0, "lon": -77.02629766666666}, {"fusion_lat": 0.0, "name": "f8d53f2fc98ef5b868d864479cddc576", "is_disabled": 0, "rental_uris": {"android": "https://dc.lft.to/lastmile_qr_scan", "ios": "https://dc.lft.to/lastmile_qr_scan"}, "fusion_lon": 0.0, "lat": 38.85758366666666, "bike_id": "f8d53f2fc98ef5b868d864479cddc576", "type": "electric_bike", "is_reserved": 0, "lon": -76.9875505}, {"fusion_lat": 0.0, "name": "72907e5ffb8de1d911af066f258c1093", "is_disabled": 0, "rental_uris": {"android": "https://dc.lft.to/lastmile_qr_scan", "ios": "https://dc.lft.to/lastmile_qr_scan"}, "fusion_lon": 0.0, "lat": 38.8960535, "bike_id": "72907e5ffb8de1d911af066f258c1093", "type": "electric_scooter", "is_reserved": 0, "lon": -77.02494316666667}, {"fusion_lat": 0.0, "name": "3541b3af61ca669a2a993aaccb843e7a", "is_disabled": 0, "rental_uris": {"android": "https://dc.lft.to/lastmile_qr_scan", "ios": "https://dc.lft.to/lastmile_qr_scan"}, "fusion_lon": 0.0, "lat": 38.92613083333333, "bike_id": "3541b3af61ca669a2a993aaccb843e7a", "type": "electric_scooter", "is_reserved": 0, "lon": -77.03960366666666}, {"fusion_lat": 0.0, "name": "f877c522299db08545d0ccfbf780d96a", "is_disabled": 0, "rental_uris": {"android": "https://dc.lft.to/lastmile_qr_scan", "ios": "https://dc.lft.to/lastmile_qr_scan"}, "fusion_lon": 0.0, "lat": 38.904473, "bike_id": "f877c522299db08545d0ccfbf780d96a", "type": "electric_scooter", "is_reserved": 0, "lon": -77.00181483333333}, {"fusion_lat": 0.0, "name": "3b3e1a8cd62912fc7891c717b4a5f541", "is_disabled": 0, "rental_uris": {"android": "https://dc.lft.to/lastmile_qr_scan", "ios": "https://dc.lft.to/lastmile_qr_scan"}, "fusion_lon": 0.0, "lat": 38.91317433333333, "bike_id": "3b3e1a8cd62912fc7891c717b4a5f541", "type": "electric_scooter", "is_reserved": 0, "lon": -77.01443833333333}, {"fusion_lat": 0.0, "name": "e7d15332d7d4def921d799f32e26a42b", "is_disabled": 0, "rental_uris": {"android": "https://dc.lft.to/lastmile_qr_scan", "ios": "https://dc.lft.to/lastmile_qr_scan"}, "fusion_lon": 0.0, "lat": 38.8768045, "bike_id": "e7d15332d7d4def921d799f32e26a42b", "type": "electric_scooter", "is_reserved": 0, "lon": -77.00074316666667}, {"fusion_lat": 0.0, "name": "61130ceb744eb31dc6e0adcb05a535fd", "is_disabled": 0, "rental_uris": {"android": "https://dc.lft.to/lastmile_qr_scan", "ios": "https://dc.lft.to/lastmile_qr_scan"}, "fusion_lon": 0.0, "lat": 38.87683283333333, "bike_id": "61130ceb744eb31dc6e0adcb05a535fd", "type": "electric_scooter", "is_reserved": 0, "lon": -77.00074033333334}, {"fusion_lat": 0.0, "name": "50669d66173a1d1c8b74995b0b331b8a", "is_disabled": 0, "rental_uris": {"android": "https://dc.lft.to/lastmile_qr_scan", "ios": "https://dc.lft.to/lastmile_qr_scan"}, "fusion_lon": 0.0, "lat": 38.9042475, "bike_id": "50669d66173a1d1c8b74995b0b331b8a", "type": "electric_scooter", "is_reserved": 0, "lon": -76.94977216666666}, {"fusion_lat": 0.0, "name": "3e00ebefa08796b148ea6b9be8a3751b", "is_disabled": 0, "rental_uris": {"android": "https://dc.lft.to/lastmile_qr_scan", "ios": "https://dc.lft.to/lastmile_qr_scan"}, "fusion_lon": 0.0, "lat": 38.9407575, "bike_id": "3e00ebefa08796b148ea6b9be8a3751b", "type": "electric_scooter", "is_reserved": 0, "lon": -77.0239515}, {"fusion_lat": 0.0, "name": "a11f59306f5d15abc153d1875ffcede5", "is_disabled": 0, "rental_uris": {"android": "https://dc.lft.to/lastmile_qr_scan", "ios": "https://dc.lft.to/lastmile_qr_scan"}, "fusion_lon": 0.0, "lat": 38.928178, "bike_id": "a11f59306f5d15abc153d1875ffcede5", "type": "electric_scooter", "is_reserved": 0, "lon": -77.02259066666667}, {"fusion_lat": 0.0, "name": "94689f607d5b7813c8e6566f69813a07", "is_disabled": 0, "rental_uris": {"android": "https://dc.lft.to/lastmile_qr_scan", "ios": "https://dc.lft.to/lastmile_qr_scan"}, "fusion_lon": 0.0, "lat": 38.887715166666666, "bike_id": "94689f607d5b7813c8e6566f69813a07", "type": "electric_scooter", "is_reserved": 0, "lon": -77.01832583333334}, {"fusion_lat": 0.0, "name": "3060e0b7d1339b614056cddc4a3b32ad", "is_disabled": 0, "rental_uris": {"android": "https://dc.lft.to/lastmile_qr_scan", "ios": "https://dc.lft.to/lastmile_qr_scan"}, "fusion_lon": 0.0, "lat": 38.876483666666665, "bike_id": "3060e0b7d1339b614056cddc4a3b32ad", "type": "electric_scooter", "is_reserved": 0, "lon": -77.00311566666667}, {"fusion_lat": 0.0, "name": "b4c9016a23f793f73fa8162f407b72b9", "is_disabled": 0, "rental_uris": {"android": "https://dc.lft.to/lastmile_qr_scan", "ios": "https://dc.lft.to/lastmile_qr_scan"}, "fusion_lon": 0.0, "lat": 38.90138266666666, "bike_id": "b4c9016a23f793f73fa8162f407b72b9", "type": "electric_scooter", "is_reserved": 0, "lon": -77.03454616666667}, {"fusion_lat": 0.0, "name": "32a87405043c8c8c27585e3da2b11ee7", "is_disabled": 0, "rental_uris": {"android": "https://dc.lft.to/lastmile_qr_scan", "ios": "https://dc.lft.to/lastmile_qr_scan"}, "fusion_lon": 0.0, "lat": 38.92486, "bike_id": "32a87405043c8c8c27585e3da2b11ee7", "type": "electric_scooter", "is_reserved": 0, "lon": -77.05755266666667}, {"fusion_lat": 0.0, "name": "4224ba9fe8f4b35eded2125ac921172b", "is_disabled": 0, "rental_uris": {"android": "https://dc.lft.to/lastmile_qr_scan", "ios": "https://dc.lft.to/lastmile_qr_scan"}, "fusion_lon": 0.0, "lat": 38.928036166666665, "bike_id": "4224ba9fe8f4b35eded2125ac921172b", "type": "electric_scooter", "is_reserved": 0, "lon": -77.04362833333333}, {"fusion_lat": 0.0, "name": "dbfa9ba7320bda894cacc3c466df8ae0", "is_disabled": 0, "rental_uris": {"android": "https://dc.lft.to/lastmile_qr_scan", "ios": "https://dc.lft.to/lastmile_qr_scan"}, "fusion_lon": 0.0, "lat": 38.87656333333334, "bike_id": "dbfa9ba7320bda894cacc3c466df8ae0", "type": "electric_scooter", "is_reserved": 0, "lon": -77.008073}, {"fusion_lat": 0.0, "name": "dde85c2280774205cf60792c362f9b13", "is_disabled": 0, "rental_uris": {"android": "https://dc.lft.to/lastmile_qr_scan", "ios": "https://dc.lft.to/lastmile_qr_scan"}, "fusion_lon": 0.0, "lat": 38.99440833333333, "bike_id": "dde85c2280774205cf60792c362f9b13", "type": "electric_bike", "is_reserved": 0, "lon": -76.99588066666666}, {"fusion_lat": 0.0, "name": "b52d4b7fe0b8cbdb22eeb3aadafa9e98", "is_disabled": 0, "rental_uris": {"android": "https://dc.lft.to/lastmile_qr_scan", "ios": "https://dc.lft.to/lastmile_qr_scan"}, "fusion_lon": 0.0, "lat": 38.8839095, "bike_id": "b52d4b7fe0b8cbdb22eeb3aadafa9e98", "type": "electric_scooter", "is_reserved": 0, "lon": -77.0299405}, {"fusion_lat": 0.0, "name": "850f38c7514d2d485d253e59ce0f06f3", "is_disabled": 0, "rental_uris": {"android": "https://dc.lft.to/lastmile_qr_scan", "ios": "https://dc.lft.to/lastmile_qr_scan"}, "fusion_lon": 0.0, "lat": 38.91672333333333, "bike_id": "850f38c7514d2d485d253e59ce0f06f3", "type": "electric_scooter", "is_reserved": 0, "lon": -77.04180933333333}, {"fusion_lat": 0.0, "name": "6e676869afa2f509d99b5a4082ac1d38", "is_disabled": 0, "rental_uris": {"android": "https://dc.lft.to/lastmile_qr_scan", "ios": "https://dc.lft.to/lastmile_qr_scan"}, "fusion_lon": 0.0, "lat": 38.90096033333333, "bike_id": "6e676869afa2f509d99b5a4082ac1d38", "type": "electric_scooter", "is_reserved": 0, "lon": -77.01694633333334}, {"fusion_lat": 0.0, "name": "bf7899923dc04536d50ec27774f972c6", "is_disabled": 0, "rental_uris": {"android": "https://dc.lft.to/lastmile_qr_scan", "ios": "https://dc.lft.to/lastmile_qr_scan"}, "fusion_lon": 0.0, "lat": 38.8984225, "bike_id": "bf7899923dc04536d50ec27774f972c6", "type": "electric_scooter", "is_reserved": 0, "lon": -77.02257316666666}, {"fusion_lat": 0.0, "name": "a21c81e5830b61a77f98e5a375a70979", "is_disabled": 0, "rental_uris": {"android": "https://dc.lft.to/lastmile_qr_scan", "ios": "https://dc.lft.to/lastmile_qr_scan"}, "fusion_lon": 0.0, "lat": 38.903036166666666, "bike_id": "a21c81e5830b61a77f98e5a375a70979", "type": "electric_scooter", "is_reserved": 0, "lon": -76.97655616666667}, {"fusion_lat": 0.0, "name": "2c4c68707117fab1f76b2f58aaeccfa4", "is_disabled": 0, "rental_uris": {"android": "https://dc.lft.to/lastmile_qr_scan", "ios": "https://dc.lft.to/lastmile_qr_scan"}, "fusion_lon": 0.0, "lat": 38.90230416666667, "bike_id": "2c4c68707117fab1f76b2f58aaeccfa4", "type": "electric_scooter", "is_reserved": 0, "lon": -77.0161205}, {"fusion_lat": 0.0, "name": "bb1729d42e3a2568535d405a9f2f25ea", "is_disabled": 0, "rental_uris": {"android": "https://dc.lft.to/lastmile_qr_scan", "ios": "https://dc.lft.to/lastmile_qr_scan"}, "fusion_lon": 0.0, "lat": 38.940522666666666, "bike_id": "bb1729d42e3a2568535d405a9f2f25ea", "type": "electric_bike", "is_reserved": 0, "lon": -76.90424833333333}, {"fusion_lat": 0.0, "name": "a0345dd1df12c249b518e3b75c7730aa", "is_disabled": 0, "rental_uris": {"android": "https://dc.lft.to/lastmile_qr_scan", "ios": "https://dc.lft.to/lastmile_qr_scan"}, "fusion_lon": 0.0, "lat": 38.89362533333333, "bike_id": "a0345dd1df12c249b518e3b75c7730aa", "type": "electric_scooter", "is_reserved": 0, "lon": -77.000783}, {"fusion_lat": 0.0, "name": "dc90884395bee662989b2104b2b6c485", "is_disabled": 0, "rental_uris": {"android": "https://dc.lft.to/lastmile_qr_scan", "ios": "https://dc.lft.to/lastmile_qr_scan"}, "fusion_lon": 0.0, "lat": 38.91618183333333, "bike_id": "dc90884395bee662989b2104b2b6c485", "type": "electric_scooter", "is_reserved": 0, "lon": -77.03855716666666}, {"fusion_lat": 0.0, "name": "51d502bd3fda6888c82a3f6136bfe0de", "is_disabled": 0, "rental_uris": {"android": "https://dc.lft.to/lastmile_qr_scan", "ios": "https://dc.lft.to/lastmile_qr_scan"}, "fusion_lon": 0.0, "lat": 38.930431, "bike_id": "51d502bd3fda6888c82a3f6136bfe0de", "type": "electric_scooter", "is_reserved": 0, "lon": -77.033597}, {"fusion_lat": 0.0, "name": "ccd1771778e6622d15fbc7313ad87710", "is_disabled": 0, "rental_uris": {"android": "https://dc.lft.to/lastmile_qr_scan", "ios": "https://dc.lft.to/lastmile_qr_scan"}, "fusion_lon": 0.0, "lat": 38.949202166666666, "bike_id": "ccd1771778e6622d15fbc7313ad87710", "type": "electric_scooter", "is_reserved": 0, "lon": -77.01858016666667}, {"fusion_lat": 0.0, "name": "9026bc3a1dbd8b5045ef1631aaae270e", "is_disabled": 0, "rental_uris": {"android": "https://dc.lft.to/lastmile_qr_scan", "ios": "https://dc.lft.to/lastmile_qr_scan"}, "fusion_lon": 0.0, "lat": 38.881182, "bike_id": "9026bc3a1dbd8b5045ef1631aaae270e", "type": "electric_scooter", "is_reserved": 0, "lon": -76.99510433333333}, {"fusion_lat": 0.0, "name": "93ed3aeddfb14432948a26b867fdc905", "is_disabled": 0, "rental_uris": {"android": "https://dc.lft.to/lastmile_qr_scan", "ios": "https://dc.lft.to/lastmile_qr_scan"}, "fusion_lon": 0.0, "lat": 38.9308245, "bike_id": "93ed3aeddfb14432948a26b867fdc905", "type": "electric_scooter", "is_reserved": 0, "lon": -77.03754816666667}, {"fusion_lat": 0.0, "name": "1aa207f30b17e0c8e3cb867ce13380b7", "is_disabled": 0, "rental_uris": {"android": "https://dc.lft.to/lastmile_qr_scan", "ios": "https://dc.lft.to/lastmile_qr_scan"}, "fusion_lon": 0.0, "lat": 38.84425616666667, "bike_id": "1aa207f30b17e0c8e3cb867ce13380b7", "type": "electric_scooter", "is_reserved": 0, "lon": -76.99777083333333}, {"fusion_lat": 0.0, "name": "9665d27e6410e25459e095c0c0752c37", "is_disabled": 0, "rental_uris": {"android": "https://dc.lft.to/lastmile_qr_scan", "ios": "https://dc.lft.to/lastmile_qr_scan"}, "fusion_lon": 0.0, "lat": 38.9354075, "bike_id": "9665d27e6410e25459e095c0c0752c37", "type": "electric_scooter", "is_reserved": 0, "lon": -77.03081883333333}, {"fusion_lat": 0.0, "name": "304d6582ccfa7f9be4cd93ac358fa917", "is_disabled": 0, "rental_uris": {"android": "https://dc.lft.to/lastmile_qr_scan", "ios": "https://dc.lft.to/lastmile_qr_scan"}, "fusion_lon": 0.0, "lat": 38.8952585, "bike_id": "304d6582ccfa7f9be4cd93ac358fa917", "type": "electric_scooter", "is_reserved": 0, "lon": -77.03061733333334}, {"fusion_lat": 0.0, "name": "a80a7d1416bdd194e5c5bb7271efaac8", "is_disabled": 0, "rental_uris": {"android": "https://dc.lft.to/lastmile_qr_scan", "ios": "https://dc.lft.to/lastmile_qr_scan"}, "fusion_lon": 0.0, "lat": 38.93084183333333, "bike_id": "a80a7d1416bdd194e5c5bb7271efaac8", "type": "electric_bike", "is_reserved": 0, "lon": -76.98503866666667}, {"fusion_lat": 0.0, "name": "a6454365e6c2e4d4990bd1734152cc16", "is_disabled": 0, "rental_uris": {"android": "https://dc.lft.to/lastmile_qr_scan", "ios": "https://dc.lft.to/lastmile_qr_scan"}, "fusion_lon": 0.0, "lat": 38.88891066666667, "bike_id": "a6454365e6c2e4d4990bd1734152cc16", "type": "electric_bike", "is_reserved": 0, "lon": -77.11531333333333}, {"fusion_lat": 0.0, "name": "7d9722845d8b1d179814e60e4950da55", "is_disabled": 0, "rental_uris": {"android": "https://dc.lft.to/lastmile_qr_scan", "ios": "https://dc.lft.to/lastmile_qr_scan"}, "fusion_lon": 0.0, "lat": 38.882157166666666, "bike_id": "7d9722845d8b1d179814e60e4950da55", "type": "electric_scooter", "is_reserved": 0, "lon": -77.02943583333334}, {"fusion_lat": 0.0, "name": "768c4538bb50e2668a64358e6012e1ef", "is_disabled": 0, "rental_uris": {"android": "https://dc.lft.to/lastmile_qr_scan", "ios": "https://dc.lft.to/lastmile_qr_scan"}, "fusion_lon": 0.0, "lat": 38.9074085, "bike_id": "768c4538bb50e2668a64358e6012e1ef", "type": "electric_scooter", "is_reserved": 0, "lon": -77.06339716666666}, {"fusion_lat": 0.0, "name": "a9c8e17265929dbd9704a8ae47b5c794", "is_disabled": 0, "rental_uris": {"android": "https://dc.lft.to/lastmile_qr_scan", "ios": "https://dc.lft.to/lastmile_qr_scan"}, "fusion_lon": 0.0, "lat": 38.8763995, "bike_id": "a9c8e17265929dbd9704a8ae47b5c794", "type": "electric_scooter", "is_reserved": 0, "lon": -77.00752666666666}, {"fusion_lat": 0.0, "name": "cc9554b01c97b7740d086edf8e2abd50", "is_disabled": 0, "rental_uris": {"android": "https://dc.lft.to/lastmile_qr_scan", "ios": "https://dc.lft.to/lastmile_qr_scan"}, "fusion_lon": 0.0, "lat": 38.91808983333333, "bike_id": "cc9554b01c97b7740d086edf8e2abd50", "type": "electric_scooter", "is_reserved": 0, "lon": -77.02528483333333}, {"fusion_lat": 0.0, "name": "98d7601502e96e00fa60af0c9cccf4c5", "is_disabled": 0, "rental_uris": {"android": "https://dc.lft.to/lastmile_qr_scan", "ios": "https://dc.lft.to/lastmile_qr_scan"}, "fusion_lon": 0.0, "lat": 38.93414, "bike_id": "98d7601502e96e00fa60af0c9cccf4c5", "type": "electric_scooter", "is_reserved": 0, "lon": -76.9796475}, {"fusion_lat": 0.0, "name": "74dd81d17722979648b776e6a4fe7bc4", "is_disabled": 0, "rental_uris": {"android": "https://dc.lft.to/lastmile_qr_scan", "ios": "https://dc.lft.to/lastmile_qr_scan"}, "fusion_lon": 0.0, "lat": 38.916170666666666, "bike_id": "74dd81d17722979648b776e6a4fe7bc4", "type": "electric_scooter", "is_reserved": 0, "lon": -77.02166283333334}, {"fusion_lat": 0.0, "name": "232d9f465bb801f4f2513ad3c27c4ad6", "is_disabled": 0, "rental_uris": {"android": "https://dc.lft.to/lastmile_qr_scan", "ios": "https://dc.lft.to/lastmile_qr_scan"}, "fusion_lon": 0.0, "lat": 38.92285783333333, "bike_id": "232d9f465bb801f4f2513ad3c27c4ad6", "type": "electric_scooter", "is_reserved": 0, "lon": -77.0731675}, {"fusion_lat": 0.0, "name": "84e5d22fb84b4ac3ba31976558fa46f0", "is_disabled": 0, "rental_uris": {"android": "https://dc.lft.to/lastmile_qr_scan", "ios": "https://dc.lft.to/lastmile_qr_scan"}, "fusion_lon": 0.0, "lat": 38.87468233333333, "bike_id": "84e5d22fb84b4ac3ba31976558fa46f0", "type": "electric_scooter", "is_reserved": 0, "lon": -77.00468083333334}, {"fusion_lat": 0.0, "name": "96b2511f4b2dfcf25e45df2269b5588e", "is_disabled": 0, "rental_uris": {"android": "https://dc.lft.to/lastmile_qr_scan", "ios": "https://dc.lft.to/lastmile_qr_scan"}, "fusion_lon": 0.0, "lat": 38.92293766666667, "bike_id": "96b2511f4b2dfcf25e45df2269b5588e", "type": "electric_bike", "is_reserved": 0, "lon": -76.99383666666667}, {"fusion_lat": 0.0, "name": "fabef604a43e2b186706c8738924f3c5", "is_disabled": 0, "rental_uris": {"android": "https://dc.lft.to/lastmile_qr_scan", "ios": "https://dc.lft.to/lastmile_qr_scan"}, "fusion_lon": 0.0, "lat": 38.9003195, "bike_id": "fabef604a43e2b186706c8738924f3c5", "type": "electric_scooter", "is_reserved": 0, "lon": -77.03576683333333}, {"fusion_lat": 0.0, "name": "ed1495265e0409ffbf5398a9d33cbb16", "is_disabled": 0, "rental_uris": {"android": "https://dc.lft.to/lastmile_qr_scan", "ios": "https://dc.lft.to/lastmile_qr_scan"}, "fusion_lon": 0.0, "lat": 38.902871166666664, "bike_id": "ed1495265e0409ffbf5398a9d33cbb16", "type": "electric_scooter", "is_reserved": 0, "lon": -76.99044633333334}, {"fusion_lat": 0.0, "name": "012b0e7d9a4f725339356027e83f1e64", "is_disabled": 0, "rental_uris": {"android": "https://dc.lft.to/lastmile_qr_scan", "ios": "https://dc.lft.to/lastmile_qr_scan"}, "fusion_lon": 0.0, "lat": 38.9082995, "bike_id": "012b0e7d9a4f725339356027e83f1e64", "type": "electric_scooter", "is_reserved": 0, "lon": -77.03386066666667}, {"fusion_lat": 0.0, "name": "e9a0af9e846d056182561b90574fdcab", "is_disabled": 0, "rental_uris": {"android": "https://dc.lft.to/lastmile_qr_scan", "ios": "https://dc.lft.to/lastmile_qr_scan"}, "fusion_lon": 0.0, "lat": 38.87894933333333, "bike_id": "e9a0af9e846d056182561b90574fdcab", "type": "electric_scooter", "is_reserved": 0, "lon": -77.01366}, {"fusion_lat": 0.0, "name": "9bf018cc1dd37a188bac69d9ca446bc9", "is_disabled": 0, "rental_uris": {"android": "https://dc.lft.to/lastmile_qr_scan", "ios": "https://dc.lft.to/lastmile_qr_scan"}, "fusion_lon": 0.0, "lat": 38.895239833333335, "bike_id": "9bf018cc1dd37a188bac69d9ca446bc9", "type": "electric_scooter", "is_reserved": 0, "lon": -76.93410783333333}, {"fusion_lat": 0.0, "name": "c339164c91b9604bf06fcf12ad9e0090", "is_disabled": 0, "rental_uris": {"android": "https://dc.lft.to/lastmile_qr_scan", "ios": "https://dc.lft.to/lastmile_qr_scan"}, "fusion_lon": 0.0, "lat": 38.900826333333335, "bike_id": "c339164c91b9604bf06fcf12ad9e0090", "type": "electric_scooter", "is_reserved": 0, "lon": -77.05032416666667}, {"fusion_lat": 0.0, "name": "c66687fcad24dd5ee54f92dcaab9f222", "is_disabled": 0, "rental_uris": {"android": "https://dc.lft.to/lastmile_qr_scan", "ios": "https://dc.lft.to/lastmile_qr_scan"}, "fusion_lon": 0.0, "lat": 38.92399566666667, "bike_id": "c66687fcad24dd5ee54f92dcaab9f222", "type": "electric_scooter", "is_reserved": 0, "lon": -77.02564966666667}, {"fusion_lat": 0.0, "name": "8022d64f443dd234caa3aa0ebbdd78dd", "is_disabled": 0, "rental_uris": {"android": "https://dc.lft.to/lastmile_qr_scan", "ios": "https://dc.lft.to/lastmile_qr_scan"}, "fusion_lon": 0.0, "lat": 38.921159, "bike_id": "8022d64f443dd234caa3aa0ebbdd78dd", "type": "electric_bike", "is_reserved": 0, "lon": -77.01213716666666}, {"fusion_lat": 0.0, "name": "addf3715b79e79e1db63b0f9a9de7340", "is_disabled": 0, "rental_uris": {"android": "https://dc.lft.to/lastmile_qr_scan", "ios": "https://dc.lft.to/lastmile_qr_scan"}, "fusion_lon": 0.0, "lat": 38.8985655, "bike_id": "addf3715b79e79e1db63b0f9a9de7340", "type": "electric_scooter", "is_reserved": 0, "lon": -77.0404385}, {"fusion_lat": 0.0, "name": "8f9433f3dae5489769419e44f003f15d", "is_disabled": 0, "rental_uris": {"android": "https://dc.lft.to/lastmile_qr_scan", "ios": "https://dc.lft.to/lastmile_qr_scan"}, "fusion_lon": 0.0, "lat": 38.90148816666667, "bike_id": "8f9433f3dae5489769419e44f003f15d", "type": "electric_scooter", "is_reserved": 0, "lon": -77.06113216666667}, {"fusion_lat": 0.0, "name": "fcf24e7a9d7c98f092263c9b68d2ce14", "is_disabled": 0, "rental_uris": {"android": "https://dc.lft.to/lastmile_qr_scan", "ios": "https://dc.lft.to/lastmile_qr_scan"}, "fusion_lon": 0.0, "lat": 38.90027116666667, "bike_id": "fcf24e7a9d7c98f092263c9b68d2ce14", "type": "electric_scooter", "is_reserved": 0, "lon": -77.01224016666667}, {"fusion_lat": 0.0, "name": "b88f9258f57a1a7f6f0f98a2a6102176", "is_disabled": 0, "rental_uris": {"android": "https://dc.lft.to/lastmile_qr_scan", "ios": "https://dc.lft.to/lastmile_qr_scan"}, "fusion_lon": 0.0, "lat": 38.92468516666667, "bike_id": "b88f9258f57a1a7f6f0f98a2a6102176", "type": "electric_scooter", "is_reserved": 0, "lon": -77.02680766666667}, {"fusion_lat": 0.0, "name": "20df8637fdfff48970b569132b5ecaae", "is_disabled": 0, "rental_uris": {"android": "https://dc.lft.to/lastmile_qr_scan", "ios": "https://dc.lft.to/lastmile_qr_scan"}, "fusion_lon": 0.0, "lat": 38.89283533333333, "bike_id": "20df8637fdfff48970b569132b5ecaae", "type": "electric_scooter", "is_reserved": 0, "lon": -76.9831285}, {"fusion_lat": 0.0, "name": "86d8a5bf58e7264513712faac7c67cf6", "is_disabled": 0, "rental_uris": {"android": "https://dc.lft.to/lastmile_qr_scan", "ios": "https://dc.lft.to/lastmile_qr_scan"}, "fusion_lon": 0.0, "lat": 38.80492433333333, "bike_id": "86d8a5bf58e7264513712faac7c67cf6", "type": "electric_bike", "is_reserved": 0, "lon": -77.10164233333333}, {"fusion_lat": 0.0, "name": "d1516c3a41571f2dcd24eb9714de6da5", "is_disabled": 0, "rental_uris": {"android": "https://dc.lft.to/lastmile_qr_scan", "ios": "https://dc.lft.to/lastmile_qr_scan"}, "fusion_lon": 0.0, "lat": 38.9278445, "bike_id": "d1516c3a41571f2dcd24eb9714de6da5", "type": "electric_scooter", "is_reserved": 0, "lon": -77.03202066666667}, {"fusion_lat": 0.0, "name": "10a5bc3a22f3cf262012c8eb8ddf62fb", "is_disabled": 0, "rental_uris": {"android": "https://dc.lft.to/lastmile_qr_scan", "ios": "https://dc.lft.to/lastmile_qr_scan"}, "fusion_lon": 0.0, "lat": 38.873730333333334, "bike_id": "10a5bc3a22f3cf262012c8eb8ddf62fb", "type": "electric_scooter", "is_reserved": 0, "lon": -77.00032666666667}, {"fusion_lat": 0.0, "name": "2d18a3cef9fe7ab31a8c71d993f61585", "is_disabled": 0, "rental_uris": {"android": "https://dc.lft.to/lastmile_qr_scan", "ios": "https://dc.lft.to/lastmile_qr_scan"}, "fusion_lon": 0.0, "lat": 38.9108615, "bike_id": "2d18a3cef9fe7ab31a8c71d993f61585", "type": "electric_scooter", "is_reserved": 0, "lon": -77.06502566666667}, {"fusion_lat": 0.0, "name": "e537d250a44337ef882db9ee32e317e1", "is_disabled": 0, "rental_uris": {"android": "https://dc.lft.to/lastmile_qr_scan", "ios": "https://dc.lft.to/lastmile_qr_scan"}, "fusion_lon": 0.0, "lat": 38.910572, "bike_id": "e537d250a44337ef882db9ee32e317e1", "type": "electric_scooter", "is_reserved": 0, "lon": -77.0385545}, {"fusion_lat": 0.0, "name": "cd10e9ff40920cbc849b5425ce15b3d4", "is_disabled": 0, "rental_uris": {"android": "https://dc.lft.to/lastmile_qr_scan", "ios": "https://dc.lft.to/lastmile_qr_scan"}, "fusion_lon": 0.0, "lat": 38.925515, "bike_id": "cd10e9ff40920cbc849b5425ce15b3d4", "type": "electric_scooter", "is_reserved": 0, "lon": -77.07768083333333}, {"fusion_lat": 0.0, "name": "d0b38c50accccb0d080b87da74c1eae2", "is_disabled": 0, "rental_uris": {"android": "https://dc.lft.to/lastmile_qr_scan", "ios": "https://dc.lft.to/lastmile_qr_scan"}, "fusion_lon": 0.0, "lat": 38.937634333333335, "bike_id": "d0b38c50accccb0d080b87da74c1eae2", "type": "electric_scooter", "is_reserved": 0, "lon": -77.03262666666667}, {"fusion_lat": 0.0, "name": "bfc502e44df7ac59a80c79d4c7132d93", "is_disabled": 0, "rental_uris": {"android": "https://dc.lft.to/lastmile_qr_scan", "ios": "https://dc.lft.to/lastmile_qr_scan"}, "fusion_lon": 0.0, "lat": 38.8783045, "bike_id": "bfc502e44df7ac59a80c79d4c7132d93", "type": "electric_scooter", "is_reserved": 0, "lon": -76.963243}, {"fusion_lat": 0.0, "name": "4279b9df09663465928d6358b321da92", "is_disabled": 0, "rental_uris": {"android": "https://dc.lft.to/lastmile_qr_scan", "ios": "https://dc.lft.to/lastmile_qr_scan"}, "fusion_lon": 0.0, "lat": 38.91701316666666, "bike_id": "4279b9df09663465928d6358b321da92", "type": "electric_scooter", "is_reserved": 0, "lon": -77.0113725}, {"fusion_lat": 0.0, "name": "63542a38c6eb05e7a6f74adbfa5c138b", "is_disabled": 0, "rental_uris": {"android": "https://dc.lft.to/lastmile_qr_scan", "ios": "https://dc.lft.to/lastmile_qr_scan"}, "fusion_lon": 0.0, "lat": 38.91304383333333, "bike_id": "63542a38c6eb05e7a6f74adbfa5c138b", "type": "electric_scooter", "is_reserved": 0, "lon": -77.0487695}, {"fusion_lat": 0.0, "name": "5b10e77a60aa94a3037c5fb82b5bdef9", "is_disabled": 0, "rental_uris": {"android": "https://dc.lft.to/lastmile_qr_scan", "ios": "https://dc.lft.to/lastmile_qr_scan"}, "fusion_lon": 0.0, "lat": 38.88500233333333, "bike_id": "5b10e77a60aa94a3037c5fb82b5bdef9", "type": "electric_scooter", "is_reserved": 0, "lon": -77.02097616666667}, {"fusion_lat": 0.0, "name": "858b4ed426d6102c625e68562197230c", "is_disabled": 0, "rental_uris": {"android": "https://dc.lft.to/lastmile_qr_scan", "ios": "https://dc.lft.to/lastmile_qr_scan"}, "fusion_lon": 0.0, "lat": 39.070517833333334, "bike_id": "858b4ed426d6102c625e68562197230c", "type": "electric_bike", "is_reserved": 0, "lon": -77.11486366666666}, {"fusion_lat": 0.0, "name": "0151d9cc9b2f85b3a63bed15ac17bf24", "is_disabled": 0, "rental_uris": {"android": "https://dc.lft.to/lastmile_qr_scan", "ios": "https://dc.lft.to/lastmile_qr_scan"}, "fusion_lon": 0.0, "lat": 38.93549083333333, "bike_id": "0151d9cc9b2f85b3a63bed15ac17bf24", "type": "electric_scooter", "is_reserved": 0, "lon": -77.034672}, {"fusion_lat": 0.0, "name": "cbe4138de63a60331cd4d8e5ee18ed61", "is_disabled": 0, "rental_uris": {"android": "https://dc.lft.to/lastmile_qr_scan", "ios": "https://dc.lft.to/lastmile_qr_scan"}, "fusion_lon": 0.0, "lat": 38.900134666666666, "bike_id": "cbe4138de63a60331cd4d8e5ee18ed61", "type": "electric_scooter", "is_reserved": 0, "lon": -76.9869455}, {"fusion_lat": 0.0, "name": "a63cd042560cd2fd321417751007086c", "is_disabled": 0, "rental_uris": {"android": "https://dc.lft.to/lastmile_qr_scan", "ios": "https://dc.lft.to/lastmile_qr_scan"}, "fusion_lon": 0.0, "lat": 38.900258, "bike_id": "a63cd042560cd2fd321417751007086c", "type": "electric_scooter", "is_reserved": 0, "lon": -76.98937133333334}, {"fusion_lat": 0.0, "name": "40000a7ee6abe6e1a59d9d0680c66584", "is_disabled": 0, "rental_uris": {"android": "https://dc.lft.to/lastmile_qr_scan", "ios": "https://dc.lft.to/lastmile_qr_scan"}, "fusion_lon": 0.0, "lat": 38.909654333333336, "bike_id": "40000a7ee6abe6e1a59d9d0680c66584", "type": "electric_scooter", "is_reserved": 0, "lon": -77.03935066666666}, {"fusion_lat": 0.0, "name": "1977ab0fe7f2e94367463de9fc4584bf", "is_disabled": 0, "rental_uris": {"android": "https://dc.lft.to/lastmile_qr_scan", "ios": "https://dc.lft.to/lastmile_qr_scan"}, "fusion_lon": 0.0, "lat": 38.91475966666667, "bike_id": "1977ab0fe7f2e94367463de9fc4584bf", "type": "electric_scooter", "is_reserved": 0, "lon": -77.02195883333333}, {"fusion_lat": 0.0, "name": "06e2413d77532f256c1247dec0b8e835", "is_disabled": 0, "rental_uris": {"android": "https://dc.lft.to/lastmile_qr_scan", "ios": "https://dc.lft.to/lastmile_qr_scan"}, "fusion_lon": 0.0, "lat": 38.83498733333333, "bike_id": "06e2413d77532f256c1247dec0b8e835", "type": "electric_bike", "is_reserved": 0, "lon": -77.0902125}, {"fusion_lat": 0.0, "name": "c23578acb3ed192d98c5084183056863", "is_disabled": 0, "rental_uris": {"android": "https://dc.lft.to/lastmile_qr_scan", "ios": "https://dc.lft.to/lastmile_qr_scan"}, "fusion_lon": 0.0, "lat": 38.9508085, "bike_id": "c23578acb3ed192d98c5084183056863", "type": "electric_bike", "is_reserved": 0, "lon": -77.01232616666667}, {"fusion_lat": 0.0, "name": "ff56acf409d75866b3a42695be9c66fc", "is_disabled": 0, "rental_uris": {"android": "https://dc.lft.to/lastmile_qr_scan", "ios": "https://dc.lft.to/lastmile_qr_scan"}, "fusion_lon": 0.0, "lat": 38.91380633333333, "bike_id": "ff56acf409d75866b3a42695be9c66fc", "type": "electric_scooter", "is_reserved": 0, "lon": -77.032139}, {"fusion_lat": 0.0, "name": "fefb16c0e1378872630dfa676a68c841", "is_disabled": 0, "rental_uris": {"android": "https://dc.lft.to/lastmile_qr_scan", "ios": "https://dc.lft.to/lastmile_qr_scan"}, "fusion_lon": 0.0, "lat": 38.819365, "bike_id": "fefb16c0e1378872630dfa676a68c841", "type": "electric_bike", "is_reserved": 0, "lon": -77.002042}, {"fusion_lat": 0.0, "name": "ad38daa099eb1c54e137f74cffc4e2a2", "is_disabled": 0, "rental_uris": {"android": "https://dc.lft.to/lastmile_qr_scan", "ios": "https://dc.lft.to/lastmile_qr_scan"}, "fusion_lon": 0.0, "lat": 38.887027833333335, "bike_id": "ad38daa099eb1c54e137f74cffc4e2a2", "type": "electric_scooter", "is_reserved": 0, "lon": -76.99612666666667}, {"fusion_lat": 0.0, "name": "a9614ea434c4111c80c89fa4d9d98553", "is_disabled": 0, "rental_uris": {"android": "https://dc.lft.to/lastmile_qr_scan", "ios": "https://dc.lft.to/lastmile_qr_scan"}, "fusion_lon": 0.0, "lat": 38.90060316666667, "bike_id": "a9614ea434c4111c80c89fa4d9d98553", "type": "electric_scooter", "is_reserved": 0, "lon": -77.04539933333334}, {"fusion_lat": 0.0, "name": "bfe548b438aabf98934481af8af039e1", "is_disabled": 0, "rental_uris": {"android": "https://dc.lft.to/lastmile_qr_scan", "ios": "https://dc.lft.to/lastmile_qr_scan"}, "fusion_lon": 0.0, "lat": 38.93146616666667, "bike_id": "bfe548b438aabf98934481af8af039e1", "type": "electric_scooter", "is_reserved": 0, "lon": -77.03974216666667}, {"fusion_lat": 0.0, "name": "ca146109b81779da736f7586a8e448d2", "is_disabled": 0, "rental_uris": {"android": "https://dc.lft.to/lastmile_qr_scan", "ios": "https://dc.lft.to/lastmile_qr_scan"}, "fusion_lon": 0.0, "lat": 38.90732933333334, "bike_id": "ca146109b81779da736f7586a8e448d2", "type": "electric_scooter", "is_reserved": 0, "lon": -77.02069483333334}, {"fusion_lat": 0.0, "name": "f4696c04ede699f30d1ef1480cf1a540", "is_disabled": 0, "rental_uris": {"android": "https://dc.lft.to/lastmile_qr_scan", "ios": "https://dc.lft.to/lastmile_qr_scan"}, "fusion_lon": 0.0, "lat": 38.9155845, "bike_id": "f4696c04ede699f30d1ef1480cf1a540", "type": "electric_scooter", "is_reserved": 0, "lon": -77.042202}, {"fusion_lat": 0.0, "name": "72fe5c6bc4b4d799af1839a447b19ff9", "is_disabled": 0, "rental_uris": {"android": "https://dc.lft.to/lastmile_qr_scan", "ios": "https://dc.lft.to/lastmile_qr_scan"}, "fusion_lon": 0.0, "lat": 38.9022625, "bike_id": "72fe5c6bc4b4d799af1839a447b19ff9", "type": "electric_scooter", "is_reserved": 0, "lon": -77.03474383333334}, {"fusion_lat": 0.0, "name": "299c54240af2615a4736cfc7cf3a4681", "is_disabled": 0, "rental_uris": {"android": "https://dc.lft.to/lastmile_qr_scan", "ios": "https://dc.lft.to/lastmile_qr_scan"}, "fusion_lon": 0.0, "lat": 38.862067833333334, "bike_id": "299c54240af2615a4736cfc7cf3a4681", "type": "electric_scooter", "is_reserved": 0, "lon": -76.99474633333334}, {"fusion_lat": 0.0, "name": "3515ee87598b52412da5de7803a27454", "is_disabled": 0, "rental_uris": {"android": "https://dc.lft.to/lastmile_qr_scan", "ios": "https://dc.lft.to/lastmile_qr_scan"}, "fusion_lon": 0.0, "lat": 39.036052, "bike_id": "3515ee87598b52412da5de7803a27454", "type": "electric_bike", "is_reserved": 0, "lon": -77.0555595}, {"fusion_lat": 0.0, "name": "dfd39de191c2256f0e7f190bd37962cc", "is_disabled": 0, "rental_uris": {"android": "https://dc.lft.to/lastmile_qr_scan", "ios": "https://dc.lft.to/lastmile_qr_scan"}, "fusion_lon": 0.0, "lat": 38.9208385, "bike_id": "dfd39de191c2256f0e7f190bd37962cc", "type": "electric_bike", "is_reserved": 0, "lon": -77.07177533333333}, {"fusion_lat": 0.0, "name": "f30cd6140803594f6c85bfb86caaf69f", "is_disabled": 0, "rental_uris": {"android": "https://dc.lft.to/lastmile_qr_scan", "ios": "https://dc.lft.to/lastmile_qr_scan"}, "fusion_lon": 0.0, "lat": 38.926421166666664, "bike_id": "f30cd6140803594f6c85bfb86caaf69f", "type": "electric_scooter", "is_reserved": 0, "lon": -77.0385045}, {"fusion_lat": 0.0, "name": "d1f6a2e10ed45d23fee2d7e6ffee1885", "is_disabled": 0, "rental_uris": {"android": "https://dc.lft.to/lastmile_qr_scan", "ios": "https://dc.lft.to/lastmile_qr_scan"}, "fusion_lon": 0.0, "lat": 38.90847633333333, "bike_id": "d1f6a2e10ed45d23fee2d7e6ffee1885", "type": "electric_scooter", "is_reserved": 0, "lon": -77.06378766666667}, {"fusion_lat": 0.0, "name": "6a6148d08a1b94107078f48e821cd6d9", "is_disabled": 0, "rental_uris": {"android": "https://dc.lft.to/lastmile_qr_scan", "ios": "https://dc.lft.to/lastmile_qr_scan"}, "fusion_lon": 0.0, "lat": 38.92167933333333, "bike_id": "6a6148d08a1b94107078f48e821cd6d9", "type": "electric_scooter", "is_reserved": 0, "lon": -77.0420235}, {"fusion_lat": 0.0, "name": "01738789ac263336ded15da73c638cde", "is_disabled": 0, "rental_uris": {"android": "https://dc.lft.to/lastmile_qr_scan", "ios": "https://dc.lft.to/lastmile_qr_scan"}, "fusion_lon": 0.0, "lat": 38.91224583333333, "bike_id": "01738789ac263336ded15da73c638cde", "type": "electric_scooter", "is_reserved": 0, "lon": -77.0384945}, {"fusion_lat": 0.0, "name": "886a5888443395259400e34489b02891", "is_disabled": 0, "rental_uris": {"android": "https://dc.lft.to/lastmile_qr_scan", "ios": "https://dc.lft.to/lastmile_qr_scan"}, "fusion_lon": 0.0, "lat": 38.8815065, "bike_id": "886a5888443395259400e34489b02891", "type": "electric_scooter", "is_reserved": 0, "lon": -77.0267705}, {"fusion_lat": 0.0, "name": "bdb694b2213c80b0d73c02f8fd64e629", "is_disabled": 0, "rental_uris": {"android": "https://dc.lft.to/lastmile_qr_scan", "ios": "https://dc.lft.to/lastmile_qr_scan"}, "fusion_lon": 0.0, "lat": 38.9205, "bike_id": "bdb694b2213c80b0d73c02f8fd64e629", "type": "electric_scooter", "is_reserved": 0, "lon": -77.024272}, {"fusion_lat": 0.0, "name": "9a1d1f8be72e31f3b139f402780bcb9d", "is_disabled": 0, "rental_uris": {"android": "https://dc.lft.to/lastmile_qr_scan", "ios": "https://dc.lft.to/lastmile_qr_scan"}, "fusion_lon": 0.0, "lat": 38.90529133333333, "bike_id": "9a1d1f8be72e31f3b139f402780bcb9d", "type": "electric_bike", "is_reserved": 0, "lon": -76.99807866666667}, {"fusion_lat": 0.0, "name": "d288b61da5d64ecf65f51152fe98220b", "is_disabled": 0, "rental_uris": {"android": "https://dc.lft.to/lastmile_qr_scan", "ios": "https://dc.lft.to/lastmile_qr_scan"}, "fusion_lon": 0.0, "lat": 38.954753833333335, "bike_id": "d288b61da5d64ecf65f51152fe98220b", "type": "electric_scooter", "is_reserved": 0, "lon": -77.0777855}, {"fusion_lat": 0.0, "name": "b83428e401b8c3a51692f1817034b6cc", "is_disabled": 0, "rental_uris": {"android": "https://dc.lft.to/lastmile_qr_scan", "ios": "https://dc.lft.to/lastmile_qr_scan"}, "fusion_lon": 0.0, "lat": 38.90961466666667, "bike_id": "b83428e401b8c3a51692f1817034b6cc", "type": "electric_scooter", "is_reserved": 0, "lon": -77.04609833333333}, {"fusion_lat": 0.0, "name": "c1c4afa323cf6d766d3f32c41dd9813b", "is_disabled": 0, "rental_uris": {"android": "https://dc.lft.to/lastmile_qr_scan", "ios": "https://dc.lft.to/lastmile_qr_scan"}, "fusion_lon": 0.0, "lat": 38.866273666666665, "bike_id": "c1c4afa323cf6d766d3f32c41dd9813b", "type": "electric_scooter", "is_reserved": 0, "lon": -76.98718216666667}, {"fusion_lat": 0.0, "name": "467060ce9ab9f01fcd1cc2fe3534d33c", "is_disabled": 0, "rental_uris": {"android": "https://dc.lft.to/lastmile_qr_scan", "ios": "https://dc.lft.to/lastmile_qr_scan"}, "fusion_lon": 0.0, "lat": 38.892202, "bike_id": "467060ce9ab9f01fcd1cc2fe3534d33c", "type": "electric_scooter", "is_reserved": 0, "lon": -77.0486815}, {"fusion_lat": 0.0, "name": "f315bce8093e46ef5290a706324a492b", "is_disabled": 0, "rental_uris": {"android": "https://dc.lft.to/lastmile_qr_scan", "ios": "https://dc.lft.to/lastmile_qr_scan"}, "fusion_lon": 0.0, "lat": 38.95109083333333, "bike_id": "f315bce8093e46ef5290a706324a492b", "type": "electric_scooter", "is_reserved": 0, "lon": -77.05861666666667}, {"fusion_lat": 0.0, "name": "815dc92133be4b7836feee28e6af4845", "is_disabled": 0, "rental_uris": {"android": "https://dc.lft.to/lastmile_qr_scan", "ios": "https://dc.lft.to/lastmile_qr_scan"}, "fusion_lon": 0.0, "lat": 38.915055, "bike_id": "815dc92133be4b7836feee28e6af4845", "type": "electric_scooter", "is_reserved": 0, "lon": -77.0326985}, {"fusion_lat": 0.0, "name": "00e9d3c2ca705662cda72fa11c967b4b", "is_disabled": 0, "rental_uris": {"android": "https://dc.lft.to/lastmile_qr_scan", "ios": "https://dc.lft.to/lastmile_qr_scan"}, "fusion_lon": 0.0, "lat": 38.91700516666667, "bike_id": "00e9d3c2ca705662cda72fa11c967b4b", "type": "electric_scooter", "is_reserved": 0, "lon": -77.03715316666667}, {"fusion_lat": 0.0, "name": "729a55250a4ea13973c43c21d4f7a9d5", "is_disabled": 0, "rental_uris": {"android": "https://dc.lft.to/lastmile_qr_scan", "ios": "https://dc.lft.to/lastmile_qr_scan"}, "fusion_lon": 0.0, "lat": 38.9209465, "bike_id": "729a55250a4ea13973c43c21d4f7a9d5", "type": "electric_scooter", "is_reserved": 0, "lon": -76.9940655}, {"fusion_lat": 0.0, "name": "10f14e87764a84c20363e84e085125f7", "is_disabled": 0, "rental_uris": {"android": "https://dc.lft.to/lastmile_qr_scan", "ios": "https://dc.lft.to/lastmile_qr_scan"}, "fusion_lon": 0.0, "lat": 38.890123833333334, "bike_id": "10f14e87764a84c20363e84e085125f7", "type": "electric_scooter", "is_reserved": 0, "lon": -76.93735933333333}, {"fusion_lat": 0.0, "name": "d77ef5ab90ea5a924ece3fe1843d6d1d", "is_disabled": 0, "rental_uris": {"android": "https://dc.lft.to/lastmile_qr_scan", "ios": "https://dc.lft.to/lastmile_qr_scan"}, "fusion_lon": 0.0, "lat": 38.956289, "bike_id": "d77ef5ab90ea5a924ece3fe1843d6d1d", "type": "electric_scooter", "is_reserved": 0, "lon": -77.03309366666667}, {"fusion_lat": 0.0, "name": "5a83295540ecaec00b63d5e6e791989f", "is_disabled": 0, "rental_uris": {"android": "https://dc.lft.to/lastmile_qr_scan", "ios": "https://dc.lft.to/lastmile_qr_scan"}, "fusion_lon": 0.0, "lat": 38.95566483333333, "bike_id": "5a83295540ecaec00b63d5e6e791989f", "type": "electric_bike", "is_reserved": 0, "lon": -77.0100765}, {"fusion_lat": 0.0, "name": "240cf60cc45c1ecc62f456f7b7a46f52", "is_disabled": 0, "rental_uris": {"android": "https://dc.lft.to/lastmile_qr_scan", "ios": "https://dc.lft.to/lastmile_qr_scan"}, "fusion_lon": 0.0, "lat": 38.95871666666667, "bike_id": "240cf60cc45c1ecc62f456f7b7a46f52", "type": "electric_bike", "is_reserved": 0, "lon": -76.97056933333333}, {"fusion_lat": 0.0, "name": "8438dcd623c33027bad54e8cb76a41bd", "is_disabled": 0, "rental_uris": {"android": "https://dc.lft.to/lastmile_qr_scan", "ios": "https://dc.lft.to/lastmile_qr_scan"}, "fusion_lon": 0.0, "lat": 38.90361466666667, "bike_id": "8438dcd623c33027bad54e8cb76a41bd", "type": "electric_scooter", "is_reserved": 0, "lon": -77.05015733333333}, {"fusion_lat": 0.0, "name": "fe1bdd5dd225d1da238c576f88af51f2", "is_disabled": 0, "rental_uris": {"android": "https://dc.lft.to/lastmile_qr_scan", "ios": "https://dc.lft.to/lastmile_qr_scan"}, "fusion_lon": 0.0, "lat": 38.92980583333333, "bike_id": "fe1bdd5dd225d1da238c576f88af51f2", "type": "electric_scooter", "is_reserved": 0, "lon": -77.03242383333334}, {"fusion_lat": 0.0, "name": "1b8f3434223bd6599e6d54b8bb2bfaf4", "is_disabled": 0, "rental_uris": {"android": "https://dc.lft.to/lastmile_qr_scan", "ios": "https://dc.lft.to/lastmile_qr_scan"}, "fusion_lon": 0.0, "lat": 38.9218085, "bike_id": "1b8f3434223bd6599e6d54b8bb2bfaf4", "type": "electric_scooter", "is_reserved": 0, "lon": -77.04353433333333}, {"fusion_lat": 0.0, "name": "c745d751f04019e3803460eee8941a5a", "is_disabled": 0, "rental_uris": {"android": "https://dc.lft.to/lastmile_qr_scan", "ios": "https://dc.lft.to/lastmile_qr_scan"}, "fusion_lon": 0.0, "lat": 38.930384, "bike_id": "c745d751f04019e3803460eee8941a5a", "type": "electric_scooter", "is_reserved": 0, "lon": -77.03290583333333}, {"fusion_lat": 0.0, "name": "198311e46f53d4287d674f651485b755", "is_disabled": 0, "rental_uris": {"android": "https://dc.lft.to/lastmile_qr_scan", "ios": "https://dc.lft.to/lastmile_qr_scan"}, "fusion_lon": 0.0, "lat": 38.9026475, "bike_id": "198311e46f53d4287d674f651485b755", "type": "electric_scooter", "is_reserved": 0, "lon": -77.00197866666667}, {"fusion_lat": 0.0, "name": "1fd42235543481a12594954df25ee598", "is_disabled": 0, "rental_uris": {"android": "https://dc.lft.to/lastmile_qr_scan", "ios": "https://dc.lft.to/lastmile_qr_scan"}, "fusion_lon": 0.0, "lat": 38.887435833333335, "bike_id": "1fd42235543481a12594954df25ee598", "type": "electric_scooter", "is_reserved": 0, "lon": -76.9836285}, {"fusion_lat": 0.0, "name": "c758034cd3330499f9d2d11777277022", "is_disabled": 0, "rental_uris": {"android": "https://dc.lft.to/lastmile_qr_scan", "ios": "https://dc.lft.to/lastmile_qr_scan"}, "fusion_lon": 0.0, "lat": 38.89949266666667, "bike_id": "c758034cd3330499f9d2d11777277022", "type": "electric_scooter", "is_reserved": 0, "lon": -77.05468316666666}, {"fusion_lat": 0.0, "name": "d1073813e7f92901ab59c2c85e880140", "is_disabled": 0, "rental_uris": {"android": "https://dc.lft.to/lastmile_qr_scan", "ios": "https://dc.lft.to/lastmile_qr_scan"}, "fusion_lon": 0.0, "lat": 38.943027666666666, "bike_id": "d1073813e7f92901ab59c2c85e880140", "type": "electric_scooter", "is_reserved": 0, "lon": -77.02009616666666}, {"fusion_lat": 0.0, "name": "1cf934f889fca18e6f7a39a37b74e831", "is_disabled": 0, "rental_uris": {"android": "https://dc.lft.to/lastmile_qr_scan", "ios": "https://dc.lft.to/lastmile_qr_scan"}, "fusion_lon": 0.0, "lat": 38.871894, "bike_id": "1cf934f889fca18e6f7a39a37b74e831", "type": "electric_scooter", "is_reserved": 0, "lon": -77.00627216666666}, {"fusion_lat": 0.0, "name": "a174fc773fb701ae1d01f6b1d6110b22", "is_disabled": 0, "rental_uris": {"android": "https://dc.lft.to/lastmile_qr_scan", "ios": "https://dc.lft.to/lastmile_qr_scan"}, "fusion_lon": 0.0, "lat": 38.90293166666667, "bike_id": "a174fc773fb701ae1d01f6b1d6110b22", "type": "electric_scooter", "is_reserved": 0, "lon": -76.99257483333334}, {"fusion_lat": 0.0, "name": "71aa1ae496c08bbbc71d2c387e362cdf", "is_disabled": 0, "rental_uris": {"android": "https://dc.lft.to/lastmile_qr_scan", "ios": "https://dc.lft.to/lastmile_qr_scan"}, "fusion_lon": 0.0, "lat": 38.88808016666667, "bike_id": "71aa1ae496c08bbbc71d2c387e362cdf", "type": "electric_scooter", "is_reserved": 0, "lon": -76.98359916666666}, {"fusion_lat": 0.0, "name": "eb5f27b05a9815defe6a9b93249443d6", "is_disabled": 0, "rental_uris": {"android": "https://dc.lft.to/lastmile_qr_scan", "ios": "https://dc.lft.to/lastmile_qr_scan"}, "fusion_lon": 0.0, "lat": 38.91339966666666, "bike_id": "eb5f27b05a9815defe6a9b93249443d6", "type": "electric_bike", "is_reserved": 0, "lon": -76.98899}, {"fusion_lat": 0.0, "name": "0d0ba297eb0c56436ce48f0a0c672b03", "is_disabled": 0, "rental_uris": {"android": "https://dc.lft.to/lastmile_qr_scan", "ios": "https://dc.lft.to/lastmile_qr_scan"}, "fusion_lon": 0.0, "lat": 38.92686483333333, "bike_id": "0d0ba297eb0c56436ce48f0a0c672b03", "type": "electric_scooter", "is_reserved": 0, "lon": -77.03143683333333}, {"fusion_lat": 0.0, "name": "e16f68d20fbac999a641378aa0627d48", "is_disabled": 0, "rental_uris": {"android": "https://dc.lft.to/lastmile_qr_scan", "ios": "https://dc.lft.to/lastmile_qr_scan"}, "fusion_lon": 0.0, "lat": 38.924181833333336, "bike_id": "e16f68d20fbac999a641378aa0627d48", "type": "electric_scooter", "is_reserved": 0, "lon": -77.02012516666667}, {"fusion_lat": 0.0, "name": "e1ba72378435dad27e09711eb77c990c", "is_disabled": 0, "rental_uris": {"android": "https://dc.lft.to/lastmile_qr_scan", "ios": "https://dc.lft.to/lastmile_qr_scan"}, "fusion_lon": 0.0, "lat": 38.87365666666667, "bike_id": "e1ba72378435dad27e09711eb77c990c", "type": "electric_scooter", "is_reserved": 0, "lon": -77.00067116666666}, {"fusion_lat": 0.0, "name": "a783c80bc6f2bca225db554528b81043", "is_disabled": 0, "rental_uris": {"android": "https://dc.lft.to/lastmile_qr_scan", "ios": "https://dc.lft.to/lastmile_qr_scan"}, "fusion_lon": 0.0, "lat": 38.9130755, "bike_id": "a783c80bc6f2bca225db554528b81043", "type": "electric_scooter", "is_reserved": 0, "lon": -77.023564}, {"fusion_lat": 0.0, "name": "114b7896161805cfeddb3a85fabced5d", "is_disabled": 0, "rental_uris": {"android": "https://dc.lft.to/lastmile_qr_scan", "ios": "https://dc.lft.to/lastmile_qr_scan"}, "fusion_lon": 0.0, "lat": 38.910800333333334, "bike_id": "114b7896161805cfeddb3a85fabced5d", "type": "electric_scooter", "is_reserved": 0, "lon": -77.02097583333334}, {"fusion_lat": 0.0, "name": "0b220abeb95ee8b40a98d1b4c0eda067", "is_disabled": 0, "rental_uris": {"android": "https://dc.lft.to/lastmile_qr_scan", "ios": "https://dc.lft.to/lastmile_qr_scan"}, "fusion_lon": 0.0, "lat": 38.9214075, "bike_id": "0b220abeb95ee8b40a98d1b4c0eda067", "type": "electric_scooter", "is_reserved": 0, "lon": -77.03401883333333}, {"fusion_lat": 0.0, "name": "051bd9659d1c00b2b1eaa86ab22c0b66", "is_disabled": 0, "rental_uris": {"android": "https://dc.lft.to/lastmile_qr_scan", "ios": "https://dc.lft.to/lastmile_qr_scan"}, "fusion_lon": 0.0, "lat": 38.84755583333333, "bike_id": "051bd9659d1c00b2b1eaa86ab22c0b66", "type": "electric_scooter", "is_reserved": 0, "lon": -76.995049}, {"fusion_lat": 0.0, "name": "f79d72340f48d0471193473689874640", "is_disabled": 0, "rental_uris": {"android": "https://dc.lft.to/lastmile_qr_scan", "ios": "https://dc.lft.to/lastmile_qr_scan"}, "fusion_lon": 0.0, "lat": 38.91576766666667, "bike_id": "f79d72340f48d0471193473689874640", "type": "electric_scooter", "is_reserved": 0, "lon": -77.012337}, {"fusion_lat": 0.0, "name": "bddd8ccc96cbed5c5b26af2b94ec8a8e", "is_disabled": 0, "rental_uris": {"android": "https://dc.lft.to/lastmile_qr_scan", "ios": "https://dc.lft.to/lastmile_qr_scan"}, "fusion_lon": 0.0, "lat": 38.922702, "bike_id": "bddd8ccc96cbed5c5b26af2b94ec8a8e", "type": "electric_scooter", "is_reserved": 0, "lon": -77.04236016666667}, {"fusion_lat": 0.0, "name": "16ee1a01dea43981a1e264251aa49f31", "is_disabled": 0, "rental_uris": {"android": "https://dc.lft.to/lastmile_qr_scan", "ios": "https://dc.lft.to/lastmile_qr_scan"}, "fusion_lon": 0.0, "lat": 38.874837666666664, "bike_id": "16ee1a01dea43981a1e264251aa49f31", "type": "electric_scooter", "is_reserved": 0, "lon": -77.00027433333334}, {"fusion_lat": 0.0, "name": "e8ddb3eae6b62ffc1558feeb826d0e86", "is_disabled": 0, "rental_uris": {"android": "https://dc.lft.to/lastmile_qr_scan", "ios": "https://dc.lft.to/lastmile_qr_scan"}, "fusion_lon": 0.0, "lat": 38.914855833333334, "bike_id": "e8ddb3eae6b62ffc1558feeb826d0e86", "type": "electric_scooter", "is_reserved": 0, "lon": -77.01324433333333}, {"fusion_lat": 0.0, "name": "df117015028cb34b3bc5f6c068eca2b2", "is_disabled": 0, "rental_uris": {"android": "https://dc.lft.to/lastmile_qr_scan", "ios": "https://dc.lft.to/lastmile_qr_scan"}, "fusion_lon": 0.0, "lat": 38.90025266666667, "bike_id": "df117015028cb34b3bc5f6c068eca2b2", "type": "electric_scooter", "is_reserved": 0, "lon": -77.03198266666666}, {"fusion_lat": 0.0, "name": "16eaedf4184b064a86f6e661f5d7633a", "is_disabled": 0, "rental_uris": {"android": "https://dc.lft.to/lastmile_qr_scan", "ios": "https://dc.lft.to/lastmile_qr_scan"}, "fusion_lon": 0.0, "lat": 38.9147855, "bike_id": "16eaedf4184b064a86f6e661f5d7633a", "type": "electric_scooter", "is_reserved": 0, "lon": -77.0366475}, {"fusion_lat": 0.0, "name": "5e30a5947bdb3bdcd74b9dc01f32b080", "is_disabled": 0, "rental_uris": {"android": "https://dc.lft.to/lastmile_qr_scan", "ios": "https://dc.lft.to/lastmile_qr_scan"}, "fusion_lon": 0.0, "lat": 38.8858425, "bike_id": "5e30a5947bdb3bdcd74b9dc01f32b080", "type": "electric_scooter", "is_reserved": 0, "lon": -77.01975283333333}, {"fusion_lat": 0.0, "name": "2b3a3abc77a9e9327cc1f621b1eb3ff7", "is_disabled": 0, "rental_uris": {"android": "https://dc.lft.to/lastmile_qr_scan", "ios": "https://dc.lft.to/lastmile_qr_scan"}, "fusion_lon": 0.0, "lat": 38.93583266666667, "bike_id": "2b3a3abc77a9e9327cc1f621b1eb3ff7", "type": "electric_scooter", "is_reserved": 0, "lon": -77.02847533333333}, {"fusion_lat": 0.0, "name": "d40c6dca3a49c6af2ce9ccce340ee9f0", "is_disabled": 0, "rental_uris": {"android": "https://dc.lft.to/lastmile_qr_scan", "ios": "https://dc.lft.to/lastmile_qr_scan"}, "fusion_lon": 0.0, "lat": 38.9080535, "bike_id": "d40c6dca3a49c6af2ce9ccce340ee9f0", "type": "electric_scooter", "is_reserved": 0, "lon": -77.04338216666666}, {"fusion_lat": 0.0, "name": "64c9bf7766150cc586c2e7418b9eb025", "is_disabled": 0, "rental_uris": {"android": "https://dc.lft.to/lastmile_qr_scan", "ios": "https://dc.lft.to/lastmile_qr_scan"}, "fusion_lon": 0.0, "lat": 38.906633, "bike_id": "64c9bf7766150cc586c2e7418b9eb025", "type": "electric_bike", "is_reserved": 0, "lon": -77.028021}, {"fusion_lat": 0.0, "name": "b3e67320dda341c998d8f93dafbcf0ea", "is_disabled": 0, "rental_uris": {"android": "https://dc.lft.to/lastmile_qr_scan", "ios": "https://dc.lft.to/lastmile_qr_scan"}, "fusion_lon": 0.0, "lat": 38.90731783333333, "bike_id": "b3e67320dda341c998d8f93dafbcf0ea", "type": "electric_scooter", "is_reserved": 0, "lon": -77.02206466666667}, {"fusion_lat": 0.0, "name": "e8383906bbe942618e2ae9ba74cd71fb", "is_disabled": 0, "rental_uris": {"android": "https://dc.lft.to/lastmile_qr_scan", "ios": "https://dc.lft.to/lastmile_qr_scan"}, "fusion_lon": 0.0, "lat": 38.916985833333335, "bike_id": "e8383906bbe942618e2ae9ba74cd71fb", "type": "electric_scooter", "is_reserved": 0, "lon": -77.0310535}, {"fusion_lat": 0.0, "name": "5125f47b2c348c25eb09e35bd63ddeb6", "is_disabled": 0, "rental_uris": {"android": "https://dc.lft.to/lastmile_qr_scan", "ios": "https://dc.lft.to/lastmile_qr_scan"}, "fusion_lon": 0.0, "lat": 38.9228455, "bike_id": "5125f47b2c348c25eb09e35bd63ddeb6", "type": "electric_scooter", "is_reserved": 0, "lon": -77.02972283333334}, {"fusion_lat": 0.0, "name": "bdbf507bb18c37100f064f56850a44e1", "is_disabled": 0, "rental_uris": {"android": "https://dc.lft.to/lastmile_qr_scan", "ios": "https://dc.lft.to/lastmile_qr_scan"}, "fusion_lon": 0.0, "lat": 38.919542, "bike_id": "bdbf507bb18c37100f064f56850a44e1", "type": "electric_bike", "is_reserved": 0, "lon": -77.10116366666666}, {"fusion_lat": 0.0, "name": "5b5be004a75a723af573857e79a3df93", "is_disabled": 0, "rental_uris": {"android": "https://dc.lft.to/lastmile_qr_scan", "ios": "https://dc.lft.to/lastmile_qr_scan"}, "fusion_lon": 0.0, "lat": 38.868283, "bike_id": "5b5be004a75a723af573857e79a3df93", "type": "electric_scooter", "is_reserved": 0, "lon": -77.01124233333333}, {"fusion_lat": 0.0, "name": "b7f9cc441baf87c78903980d178723bd", "is_disabled": 0, "rental_uris": {"android": "https://dc.lft.to/lastmile_qr_scan", "ios": "https://dc.lft.to/lastmile_qr_scan"}, "fusion_lon": 0.0, "lat": 38.916628, "bike_id": "b7f9cc441baf87c78903980d178723bd", "type": "electric_scooter", "is_reserved": 0, "lon": -77.029821}, {"fusion_lat": 0.0, "name": "ac06b48d3168c71da90618ae5bf1c7cd", "is_disabled": 0, "rental_uris": {"android": "https://dc.lft.to/lastmile_qr_scan", "ios": "https://dc.lft.to/lastmile_qr_scan"}, "fusion_lon": 0.0, "lat": 38.935217333333334, "bike_id": "ac06b48d3168c71da90618ae5bf1c7cd", "type": "electric_scooter", "is_reserved": 0, "lon": -77.07263566666667}, {"fusion_lat": 0.0, "name": "69b84c751089aa38de7b005e282cedbd", "is_disabled": 0, "rental_uris": {"android": "https://dc.lft.to/lastmile_qr_scan", "ios": "https://dc.lft.to/lastmile_qr_scan"}, "fusion_lon": 0.0, "lat": 38.84753716666667, "bike_id": "69b84c751089aa38de7b005e282cedbd", "type": "electric_scooter", "is_reserved": 0, "lon": -76.995001}, {"fusion_lat": 0.0, "name": "519f8ecd459370df4526bc20fac66522", "is_disabled": 0, "rental_uris": {"android": "https://dc.lft.to/lastmile_qr_scan", "ios": "https://dc.lft.to/lastmile_qr_scan"}, "fusion_lon": 0.0, "lat": 39.052506666666666, "bike_id": "519f8ecd459370df4526bc20fac66522", "type": "electric_bike", "is_reserved": 0, "lon": -77.08067183333333}, {"fusion_lat": 0.0, "name": "3620fd550ba64472e43ee4548a3c869f", "is_disabled": 0, "rental_uris": {"android": "https://dc.lft.to/lastmile_qr_scan", "ios": "https://dc.lft.to/lastmile_qr_scan"}, "fusion_lon": 0.0, "lat": 38.894396, "bike_id": "3620fd550ba64472e43ee4548a3c869f", "type": "electric_scooter", "is_reserved": 0, "lon": -76.93677883333334}, {"fusion_lat": 0.0, "name": "5221b2ce2339e516377b1bf0906706f3", "is_disabled": 0, "rental_uris": {"android": "https://dc.lft.to/lastmile_qr_scan", "ios": "https://dc.lft.to/lastmile_qr_scan"}, "fusion_lon": 0.0, "lat": 38.935559, "bike_id": "5221b2ce2339e516377b1bf0906706f3", "type": "electric_bike", "is_reserved": 0, "lon": -77.0370185}, {"fusion_lat": 0.0, "name": "07f32c4b32a1173362c8b3a4f77fb0dd", "is_disabled": 0, "rental_uris": {"android": "https://dc.lft.to/lastmile_qr_scan", "ios": "https://dc.lft.to/lastmile_qr_scan"}, "fusion_lon": 0.0, "lat": 38.914100166666664, "bike_id": "07f32c4b32a1173362c8b3a4f77fb0dd", "type": "electric_scooter", "is_reserved": 0, "lon": -77.0283155}, {"fusion_lat": 0.0, "name": "798754ff5836379fc4db807950fd7f0f", "is_disabled": 0, "rental_uris": {"android": "https://dc.lft.to/lastmile_qr_scan", "ios": "https://dc.lft.to/lastmile_qr_scan"}, "fusion_lon": 0.0, "lat": 38.8718955, "bike_id": "798754ff5836379fc4db807950fd7f0f", "type": "electric_scooter", "is_reserved": 0, "lon": -77.00625633333334}, {"fusion_lat": 0.0, "name": "8fbe09272af79b0868ae9f9f2022c329", "is_disabled": 0, "rental_uris": {"android": "https://dc.lft.to/lastmile_qr_scan", "ios": "https://dc.lft.to/lastmile_qr_scan"}, "fusion_lon": 0.0, "lat": 38.89874066666667, "bike_id": "8fbe09272af79b0868ae9f9f2022c329", "type": "electric_scooter", "is_reserved": 0, "lon": -76.93186366666667}, {"fusion_lat": 0.0, "name": "e35ebca671881af05fe3ae9eab2d7bdc", "is_disabled": 0, "rental_uris": {"android": "https://dc.lft.to/lastmile_qr_scan", "ios": "https://dc.lft.to/lastmile_qr_scan"}, "fusion_lon": 0.0, "lat": 38.90195283333333, "bike_id": "e35ebca671881af05fe3ae9eab2d7bdc", "type": "electric_scooter", "is_reserved": 0, "lon": -77.0366675}, {"fusion_lat": 0.0, "name": "68d8e2c246cd62990413e8404f969ad3", "is_disabled": 0, "rental_uris": {"android": "https://dc.lft.to/lastmile_qr_scan", "ios": "https://dc.lft.to/lastmile_qr_scan"}, "fusion_lon": 0.0, "lat": 38.907528166666665, "bike_id": "68d8e2c246cd62990413e8404f969ad3", "type": "electric_scooter", "is_reserved": 0, "lon": -77.04546033333334}, {"fusion_lat": 0.0, "name": "b9a1b42039a47d5639ed21d3d9669851", "is_disabled": 0, "rental_uris": {"android": "https://dc.lft.to/lastmile_qr_scan", "ios": "https://dc.lft.to/lastmile_qr_scan"}, "fusion_lon": 0.0, "lat": 38.905297166666664, "bike_id": "b9a1b42039a47d5639ed21d3d9669851", "type": "electric_scooter", "is_reserved": 0, "lon": -77.05938333333333}, {"fusion_lat": 0.0, "name": "39e03d75b1e99ba0c9f2502eff214e6e", "is_disabled": 0, "rental_uris": {"android": "https://dc.lft.to/lastmile_qr_scan", "ios": "https://dc.lft.to/lastmile_qr_scan"}, "fusion_lon": 0.0, "lat": 38.907629666666665, "bike_id": "39e03d75b1e99ba0c9f2502eff214e6e", "type": "electric_scooter", "is_reserved": 0, "lon": -77.0501495}, {"fusion_lat": 0.0, "name": "b01c89c95abc000f5ecbbc68b3342def", "is_disabled": 0, "rental_uris": {"android": "https://dc.lft.to/lastmile_qr_scan", "ios": "https://dc.lft.to/lastmile_qr_scan"}, "fusion_lon": 0.0, "lat": 38.91755066666666, "bike_id": "b01c89c95abc000f5ecbbc68b3342def", "type": "electric_scooter", "is_reserved": 0, "lon": -77.0364735}, {"fusion_lat": 0.0, "name": "9ae9868b7b9e3eb9e296aa1aca03eaa8", "is_disabled": 0, "rental_uris": {"android": "https://dc.lft.to/lastmile_qr_scan", "ios": "https://dc.lft.to/lastmile_qr_scan"}, "fusion_lon": 0.0, "lat": 38.907648, "bike_id": "9ae9868b7b9e3eb9e296aa1aca03eaa8", "type": "electric_scooter", "is_reserved": 0, "lon": -77.06240883333334}, {"fusion_lat": 0.0, "name": "961733fdd207b71f7c7db4ab86aa513a", "is_disabled": 0, "rental_uris": {"android": "https://dc.lft.to/lastmile_qr_scan", "ios": "https://dc.lft.to/lastmile_qr_scan"}, "fusion_lon": 0.0, "lat": 38.9026815, "bike_id": "961733fdd207b71f7c7db4ab86aa513a", "type": "electric_scooter", "is_reserved": 0, "lon": -77.00197733333333}, {"fusion_lat": 0.0, "name": "c06c88755f6327f42001d6f3d0ae586f", "is_disabled": 0, "rental_uris": {"android": "https://dc.lft.to/lastmile_qr_scan", "ios": "https://dc.lft.to/lastmile_qr_scan"}, "fusion_lon": 0.0, "lat": 38.898264166666664, "bike_id": "c06c88755f6327f42001d6f3d0ae586f", "type": "electric_bike", "is_reserved": 0, "lon": -77.04688416666667}, {"fusion_lat": 0.0, "name": "7e09dc04c52286239367c40952384edf", "is_disabled": 0, "rental_uris": {"android": "https://dc.lft.to/lastmile_qr_scan", "ios": "https://dc.lft.to/lastmile_qr_scan"}, "fusion_lon": 0.0, "lat": 38.9317505, "bike_id": "7e09dc04c52286239367c40952384edf", "type": "electric_scooter", "is_reserved": 0, "lon": -77.03301266666666}, {"fusion_lat": 0.0, "name": "9405ed1a6ee390f0f95938aa2cf33823", "is_disabled": 0, "rental_uris": {"android": "https://dc.lft.to/lastmile_qr_scan", "ios": "https://dc.lft.to/lastmile_qr_scan"}, "fusion_lon": 0.0, "lat": 38.91113933333333, "bike_id": "9405ed1a6ee390f0f95938aa2cf33823", "type": "electric_scooter", "is_reserved": 0, "lon": -77.03826066666667}, {"fusion_lat": 0.0, "name": "ce97a2163b0c7d754207368f616f801d", "is_disabled": 0, "rental_uris": {"android": "https://dc.lft.to/lastmile_qr_scan", "ios": "https://dc.lft.to/lastmile_qr_scan"}, "fusion_lon": 0.0, "lat": 38.9048175, "bike_id": "ce97a2163b0c7d754207368f616f801d", "type": "electric_scooter", "is_reserved": 0, "lon": -76.94973616666667}, {"fusion_lat": 0.0, "name": "762c45cffd12aebd9c7467370ac6108c", "is_disabled": 0, "rental_uris": {"android": "https://dc.lft.to/lastmile_qr_scan", "ios": "https://dc.lft.to/lastmile_qr_scan"}, "fusion_lon": 0.0, "lat": 38.930514333333335, "bike_id": "762c45cffd12aebd9c7467370ac6108c", "type": "electric_scooter", "is_reserved": 0, "lon": -77.039448}, {"fusion_lat": 0.0, "name": "8bf1543e460936729484297753428cc4", "is_disabled": 0, "rental_uris": {"android": "https://dc.lft.to/lastmile_qr_scan", "ios": "https://dc.lft.to/lastmile_qr_scan"}, "fusion_lon": 0.0, "lat": 38.92792166666667, "bike_id": "8bf1543e460936729484297753428cc4", "type": "electric_scooter", "is_reserved": 0, "lon": -76.955547}, {"fusion_lat": 0.0, "name": "03fb4ab013e6e92bc8ac67f8f2fd9d81", "is_disabled": 0, "rental_uris": {"android": "https://dc.lft.to/lastmile_qr_scan", "ios": "https://dc.lft.to/lastmile_qr_scan"}, "fusion_lon": 0.0, "lat": 38.905705, "bike_id": "03fb4ab013e6e92bc8ac67f8f2fd9d81", "type": "electric_scooter", "is_reserved": 0, "lon": -77.022235}, {"fusion_lat": 0.0, "name": "c1bae0a9902a6dc9887ae21f92863d00", "is_disabled": 0, "rental_uris": {"android": "https://dc.lft.to/lastmile_qr_scan", "ios": "https://dc.lft.to/lastmile_qr_scan"}, "fusion_lon": 0.0, "lat": 38.907793833333336, "bike_id": "c1bae0a9902a6dc9887ae21f92863d00", "type": "electric_scooter", "is_reserved": 0, "lon": -77.00160316666667}, {"fusion_lat": 0.0, "name": "75af4c58ba9b5be1f945bba17f93c060", "is_disabled": 0, "rental_uris": {"android": "https://dc.lft.to/lastmile_qr_scan", "ios": "https://dc.lft.to/lastmile_qr_scan"}, "fusion_lon": 0.0, "lat": 38.913370666666665, "bike_id": "75af4c58ba9b5be1f945bba17f93c060", "type": "electric_scooter", "is_reserved": 0, "lon": -77.0487565}, {"fusion_lat": 0.0, "name": "0f96ce7d4d9150c82f81580f0a20fa33", "is_disabled": 0, "rental_uris": {"android": "https://dc.lft.to/lastmile_qr_scan", "ios": "https://dc.lft.to/lastmile_qr_scan"}, "fusion_lon": 0.0, "lat": 38.92406716666667, "bike_id": "0f96ce7d4d9150c82f81580f0a20fa33", "type": "electric_scooter", "is_reserved": 0, "lon": -77.03640333333334}, {"fusion_lat": 0.0, "name": "62518f334a8a7b1d34d974ed7596b36a", "is_disabled": 0, "rental_uris": {"android": "https://dc.lft.to/lastmile_qr_scan", "ios": "https://dc.lft.to/lastmile_qr_scan"}, "fusion_lon": 0.0, "lat": 38.912534666666666, "bike_id": "62518f334a8a7b1d34d974ed7596b36a", "type": "electric_scooter", "is_reserved": 0, "lon": -77.04926583333334}, {"fusion_lat": 0.0, "name": "3903fc87f3a889f36e40eb4f66cc6d94", "is_disabled": 0, "rental_uris": {"android": "https://dc.lft.to/lastmile_qr_scan", "ios": "https://dc.lft.to/lastmile_qr_scan"}, "fusion_lon": 0.0, "lat": 38.9076825, "bike_id": "3903fc87f3a889f36e40eb4f66cc6d94", "type": "electric_scooter", "is_reserved": 0, "lon": -77.0346915}, {"fusion_lat": 0.0, "name": "41191495fc6b30583b116159c6087f11", "is_disabled": 0, "rental_uris": {"android": "https://dc.lft.to/lastmile_qr_scan", "ios": "https://dc.lft.to/lastmile_qr_scan"}, "fusion_lon": 0.0, "lat": 38.92302083333333, "bike_id": "41191495fc6b30583b116159c6087f11", "type": "electric_scooter", "is_reserved": 0, "lon": -77.04267183333333}, {"fusion_lat": 0.0, "name": "ee2538f507abcbc117d0c96e746d8398", "is_disabled": 0, "rental_uris": {"android": "https://dc.lft.to/lastmile_qr_scan", "ios": "https://dc.lft.to/lastmile_qr_scan"}, "fusion_lon": 0.0, "lat": 38.894631333333336, "bike_id": "ee2538f507abcbc117d0c96e746d8398", "type": "electric_scooter", "is_reserved": 0, "lon": -77.01826916666667}, {"fusion_lat": 0.0, "name": "46e9c644b28e4b8209e9d0473596041b", "is_disabled": 0, "rental_uris": {"android": "https://dc.lft.to/lastmile_qr_scan", "ios": "https://dc.lft.to/lastmile_qr_scan"}, "fusion_lon": 0.0, "lat": 38.914046166666665, "bike_id": "46e9c644b28e4b8209e9d0473596041b", "type": "electric_scooter", "is_reserved": 0, "lon": -77.03218483333333}, {"fusion_lat": 0.0, "name": "0ef33def5ad08b3e4bbf12b520b712b3", "is_disabled": 0, "rental_uris": {"android": "https://dc.lft.to/lastmile_qr_scan", "ios": "https://dc.lft.to/lastmile_qr_scan"}, "fusion_lon": 0.0, "lat": 38.923821, "bike_id": "0ef33def5ad08b3e4bbf12b520b712b3", "type": "electric_scooter", "is_reserved": 0, "lon": -77.02037216666666}, {"fusion_lat": 0.0, "name": "6b4f56410846a01a5b3fb464cf04d10f", "is_disabled": 0, "rental_uris": {"android": "https://dc.lft.to/lastmile_qr_scan", "ios": "https://dc.lft.to/lastmile_qr_scan"}, "fusion_lon": 0.0, "lat": 38.926484333333335, "bike_id": "6b4f56410846a01a5b3fb464cf04d10f", "type": "electric_scooter", "is_reserved": 0, "lon": -77.04136516666667}, {"fusion_lat": 0.0, "name": "143b8be424c026b83863cefef74edac7", "is_disabled": 0, "rental_uris": {"android": "https://dc.lft.to/lastmile_qr_scan", "ios": "https://dc.lft.to/lastmile_qr_scan"}, "fusion_lon": 0.0, "lat": 38.873708666666666, "bike_id": "143b8be424c026b83863cefef74edac7", "type": "electric_scooter", "is_reserved": 0, "lon": -77.00065316666667}, {"fusion_lat": 0.0, "name": "0c78164bfa3b82558ba1d30f00b49264", "is_disabled": 0, "rental_uris": {"android": "https://dc.lft.to/lastmile_qr_scan", "ios": "https://dc.lft.to/lastmile_qr_scan"}, "fusion_lon": 0.0, "lat": 38.88628383333333, "bike_id": "0c78164bfa3b82558ba1d30f00b49264", "type": "electric_scooter", "is_reserved": 0, "lon": -77.015329}, {"fusion_lat": 0.0, "name": "42c9c9927f9d63bceb23d956dd40a8b6", "is_disabled": 0, "rental_uris": {"android": "https://dc.lft.to/lastmile_qr_scan", "ios": "https://dc.lft.to/lastmile_qr_scan"}, "fusion_lon": 0.0, "lat": 38.91395683333333, "bike_id": "42c9c9927f9d63bceb23d956dd40a8b6", "type": "electric_scooter", "is_reserved": 0, "lon": -77.03179466666667}, {"fusion_lat": 0.0, "name": "971c1d1e2073fe0612a3fc91661810e5", "is_disabled": 0, "rental_uris": {"android": "https://dc.lft.to/lastmile_qr_scan", "ios": "https://dc.lft.to/lastmile_qr_scan"}, "fusion_lon": 0.0, "lat": 38.9047165, "bike_id": "971c1d1e2073fe0612a3fc91661810e5", "type": "electric_scooter", "is_reserved": 0, "lon": -76.95202316666666}, {"fusion_lat": 0.0, "name": "7a2bee3fbfc0eb212fbd0096acb59845", "is_disabled": 0, "rental_uris": {"android": "https://dc.lft.to/lastmile_qr_scan", "ios": "https://dc.lft.to/lastmile_qr_scan"}, "fusion_lon": 0.0, "lat": 38.900892166666665, "bike_id": "7a2bee3fbfc0eb212fbd0096acb59845", "type": "electric_scooter", "is_reserved": 0, "lon": -77.04748033333334}, {"fusion_lat": 0.0, "name": "67f197a79e39038f52dd5ec501c398e0", "is_disabled": 0, "rental_uris": {"android": "https://dc.lft.to/lastmile_qr_scan", "ios": "https://dc.lft.to/lastmile_qr_scan"}, "fusion_lon": 0.0, "lat": 38.89465383333334, "bike_id": "67f197a79e39038f52dd5ec501c398e0", "type": "electric_scooter", "is_reserved": 0, "lon": -77.01092333333334}, {"fusion_lat": 0.0, "name": "d25b71899ad6bc8f9176ffd51d786e2e", "is_disabled": 0, "rental_uris": {"android": "https://dc.lft.to/lastmile_qr_scan", "ios": "https://dc.lft.to/lastmile_qr_scan"}, "fusion_lon": 0.0, "lat": 38.95544266666667, "bike_id": "d25b71899ad6bc8f9176ffd51d786e2e", "type": "electric_bike", "is_reserved": 0, "lon": -77.06935133333333}, {"fusion_lat": 0.0, "name": "a653f0f22559bc9552802bae441e7c4b", "is_disabled": 0, "rental_uris": {"android": "https://dc.lft.to/lastmile_qr_scan", "ios": "https://dc.lft.to/lastmile_qr_scan"}, "fusion_lon": 0.0, "lat": 38.91815533333333, "bike_id": "a653f0f22559bc9552802bae441e7c4b", "type": "electric_scooter", "is_reserved": 0, "lon": -77.039373}, {"fusion_lat": 0.0, "name": "fce5b4441946483e525143bafeb97f09", "is_disabled": 0, "rental_uris": {"android": "https://dc.lft.to/lastmile_qr_scan", "ios": "https://dc.lft.to/lastmile_qr_scan"}, "fusion_lon": 0.0, "lat": 38.92478083333334, "bike_id": "fce5b4441946483e525143bafeb97f09", "type": "electric_scooter", "is_reserved": 0, "lon": -77.02653733333334}, {"fusion_lat": 0.0, "name": "23f705ea6fdc54b0661ce8333158e2a4", "is_disabled": 0, "rental_uris": {"android": "https://dc.lft.to/lastmile_qr_scan", "ios": "https://dc.lft.to/lastmile_qr_scan"}, "fusion_lon": 0.0, "lat": 38.9059865, "bike_id": "23f705ea6fdc54b0661ce8333158e2a4", "type": "electric_scooter", "is_reserved": 0, "lon": -77.04189766666667},