{"data": {"bikes": [{"name": "bbb54f8cad0eea63d601d0e840dcc1a3", "is_disabled": 0, "fusion_lat": 0.0, "fusion_lon": 0.0, "type": "electric_scooter", "lat": 38.87076666666667, "bike_id": "bbb54f8cad0eea63d601d0e840dcc1a3", "is_reserved": 0, "lon": -76.9891225, "rental_uris": {"android": "https://dc.lft.to/lastmile_qr_scan", "ios": "https://dc.lft.to/lastmile_qr_scan"}}, {"name": "003f6e5790e6a25a540b92bff599b85a", "is_disabled": 0, "fusion_lat": 0.0, "fusion_lon": 0.0, "type": "electric_bike", "lat": 38.896038, "bike_id": "003f6e5790e6a25a540b92bff599b85a", "is_reserved": 0, "lon": -77.02201983333333, "rental_uris": {"android": "https://dc.lft.to/lastmile_qr_scan", "ios": "https://dc.lft.to/lastmile_qr_scan"}}, {"name": "7cae48bd8eb5372ed3edfdc2b0989558", "is_disabled": 0, "fusion_lat": 0.0, "fusion_lon": 0.0, "type": "electric_scooter", "lat": 38.924705, "bike_id": "7cae48bd8eb5372ed3edfdc2b0989558", "is_reserved": 0, "lon": -77.02204866666666, "rental_uris": {"android": "https://dc.lft.to/lastmile_qr_scan", "ios": "https://dc.lft.to/lastmile_qr_scan"}}, {"name": "bde4f4063d3724f601cb8e380a42f871", "is_disabled": 0, "fusion_lat": 0.0, "fusion_lon": 0.0, "type": "electric_scooter", "lat": 38.945200166666666, "bike_id": "bde4f4063d3724f601cb8e380a42f871", "is_reserved": 0, "lon": -77.0197785, "rental_uris": {"android": "https://dc.lft.to/lastmile_qr_scan", "ios": "https://dc.lft.to/lastmile_qr_scan"}}, {"name": "ddfd5f911cf8964c95a53c13a27fd377", "is_disabled": 0, "fusion_lat": 0.0, "fusion_lon": 0.0, "type": "electric_scooter", "lat": 38.92309016666667, "bike_id": "ddfd5f911cf8964c95a53c13a27fd377", "is_reserved": 0, "lon": -77.031183, "rental_uris": {"android": "https://dc.lft.to/lastmile_qr_scan", "ios": "https://dc.lft.to/lastmile_qr_scan"}}, {"name": "da2f56e5d62f424622343c408fff883c", "is_disabled": 0, "fusion_lat": 0.0, "fusion_lon": 0.0, "type": "electric_scooter", "lat": 38.90647833333333, "bike_id": "da2f56e5d62f424622343c408fff883c", "is_reserved": 0, "lon": -77.0388915, "rental_uris": {"android": "https://dc.lft.to/lastmile_qr_scan", "ios": "https://dc.lft.to/lastmile_qr_scan"}}, {"name": "b5d02437a705b18c24aa244bcd9b90bf", "is_disabled": 0, "fusion_lat": 0.0, "fusion_lon": 0.0, "type": "electric_scooter", "lat": 38.919458, "bike_id": "b5d02437a705b18c24aa244bcd9b90bf", "is_reserved": 0, "lon": -77.01390366666666, "rental_uris": {"android": "https://dc.lft.to/lastmile_qr_scan", "ios": "https://dc.lft.to/lastmile_qr_scan"}}, {"name": "d20c4f696050f20034490810807d7885", "is_disabled": 0, "fusion_lat": 0.0, "fusion_lon": 0.0, "type": "electric_scooter", "lat": 38.882637833333334, "bike_id": "d20c4f696050f20034490810807d7885", "is_reserved": 0, "lon": -77.005958, "rental_uris": {"android": "https://dc.lft.to/lastmile_qr_scan", "ios": "https://dc.lft.to/lastmile_qr_scan"}}, {"name": "cc281f1f4e429701e44680d7a165404e", "is_disabled": 0, "fusion_lat": 0.0, "fusion_lon": 0.0, "type": "electric_scooter", "lat": 38.91818883333333, "bike_id": "cc281f1f4e429701e44680d7a165404e", "is_reserved": 0, "lon": -77.032531, "rental_uris": {"android": "https://dc.lft.to/lastmile_qr_scan", "ios": "https://dc.lft.to/lastmile_qr_scan"}}, {"name": "84dc0dfa9dade1fad2d7976608f569eb", "is_disabled": 0, "fusion_lat": 0.0, "fusion_lon": 0.0, "type": "electric_scooter", "lat": 38.91564233333333, "bike_id": "84dc0dfa9dade1fad2d7976608f569eb", "is_reserved": 0, "lon": -77.03204633333333, "rental_uris": {"android": "https://dc.lft.to/lastmile_qr_scan", "ios": "https://dc.lft.to/lastmile_qr_scan"}}, {"name": "f21e21bd81ecaa408a598bea2301d9ca", "is_disabled": 0, "fusion_lat": 0.0, "fusion_lon": 0.0, "type": "electric_scooter", "lat": 38.892216833333336, "bike_id": "f21e21bd81ecaa408a598bea2301d9ca", "is_reserved": 0, "lon": -77.02336266666667, "rental_uris": {"android": "https://dc.lft.to/lastmile_qr_scan", "ios": "https://dc.lft.to/lastmile_qr_scan"}}, {"name": "7b6054e9acceb58aef5222210c0b1b21", "is_disabled": 0, "fusion_lat": 0.0, "fusion_lon": 0.0, "type": "electric_scooter", "lat": 38.915627666666666, "bike_id": "7b6054e9acceb58aef5222210c0b1b21", "is_reserved": 0, "lon": -77.03206333333333, "rental_uris": {"android": "https://dc.lft.to/lastmile_qr_scan", "ios": "https://dc.lft.to/lastmile_qr_scan"}}, {"name": "fa9c72e566e2dd5ab8094f277868865b", "is_disabled": 0, "fusion_lat": 0.0, "fusion_lon": 0.0, "type": "electric_scooter", "lat": 38.911046166666665, "bike_id": "fa9c72e566e2dd5ab8094f277868865b", "is_reserved": 0, "lon": -77.031495, "rental_uris": {"android": "https://dc.lft.to/lastmile_qr_scan", "ios": "https://dc.lft.to/lastmile_qr_scan"}}, {"name": "48ad3244423844de6e9967766e86603c", "is_disabled": 0, "fusion_lat": 0.0, "fusion_lon": 0.0, "type": "electric_scooter", "lat": 38.92137833333334, "bike_id": "48ad3244423844de6e9967766e86603c", "is_reserved": 0, "lon": -77.01867183333333, "rental_uris": {"android": "https://dc.lft.to/lastmile_qr_scan", "ios": "https://dc.lft.to/lastmile_qr_scan"}}, {"name": "a0eaab7082015e885689c5fdf4a5c136", "is_disabled": 0, "fusion_lat": 0.0, "fusion_lon": 0.0, "type": "electric_scooter", "lat": 38.93563483333333, "bike_id": "a0eaab7082015e885689c5fdf4a5c136", "is_reserved": 0, "lon": -77.07318266666667, "rental_uris": {"android": "https://dc.lft.to/lastmile_qr_scan", "ios": "https://dc.lft.to/lastmile_qr_scan"}}, {"name": "8fbf5b824249d1dc9626a56fc1ded805", "is_disabled": 0, "fusion_lat": 0.0, "fusion_lon": 0.0, "type": "electric_scooter", "lat": 38.9512455, "bike_id": "8fbf5b824249d1dc9626a56fc1ded805", "is_reserved": 0, "lon": -77.013587, "rental_uris": {"android": "https://dc.lft.to/lastmile_qr_scan", "ios": "https://dc.lft.to/lastmile_qr_scan"}}, {"name": "f9acf3bee174be7502a1913d1491f397", "is_disabled": 0, "fusion_lat": 0.0, "fusion_lon": 0.0, "type": "electric_scooter", "lat": 38.914710666666664, "bike_id": "f9acf3bee174be7502a1913d1491f397", "is_reserved": 0, "lon": -77.045021, "rental_uris": {"android": "https://dc.lft.to/lastmile_qr_scan", "ios": "https://dc.lft.to/lastmile_qr_scan"}}, {"name": "0ff4fd13b20e41c157fd8519dc202d33", "is_disabled": 0, "fusion_lat": 0.0, "fusion_lon": 0.0, "type": "electric_scooter", "lat": 38.89504383333333, "bike_id": "0ff4fd13b20e41c157fd8519dc202d33", "is_reserved": 0, "lon": -77.02869683333333, "rental_uris": {"android": "https://dc.lft.to/lastmile_qr_scan", "ios": "https://dc.lft.to/lastmile_qr_scan"}}, {"name": "c646fb5edbfde90a78742cc98e569804", "is_disabled": 0, "fusion_lat": 0.0, "fusion_lon": 0.0, "type": "electric_scooter", "lat": 38.9294655, "bike_id": "c646fb5edbfde90a78742cc98e569804", "is_reserved": 0, "lon": -77.01982716666667, "rental_uris": {"android": "https://dc.lft.to/lastmile_qr_scan", "ios": "https://dc.lft.to/lastmile_qr_scan"}}, {"name": "759b0d8cd234940713b54b8a5ae6906f", "is_disabled": 0, "fusion_lat": 0.0, "fusion_lon": 0.0, "type": "electric_bike", "lat": 38.94918116666667, "bike_id": "759b0d8cd234940713b54b8a5ae6906f", "is_reserved": 0, "lon": -77.00795266666667, "rental_uris": {"android": "https://dc.lft.to/lastmile_qr_scan", "ios": "https://dc.lft.to/lastmile_qr_scan"}}, {"name": "dbec4f6b0844db60f891a52498a78efc", "is_disabled": 0, "fusion_lat": 0.0, "fusion_lon": 0.0, "type": "electric_bike", "lat": 38.9046945, "bike_id": "dbec4f6b0844db60f891a52498a78efc", "is_reserved": 0, "lon": -77.04857183333333, "rental_uris": {"android": "https://dc.lft.to/lastmile_qr_scan", "ios": "https://dc.lft.to/lastmile_qr_scan"}}, {"name": "2ea01f68fc0118852f34403297340ecc", "is_disabled": 0, "fusion_lat": 0.0, "fusion_lon": 0.0, "type": "electric_scooter", "lat": 38.91715633333333, "bike_id": "2ea01f68fc0118852f34403297340ecc", "is_reserved": 0, "lon": -77.03857883333333, "rental_uris": {"android": "https://dc.lft.to/lastmile_qr_scan", "ios": "https://dc.lft.to/lastmile_qr_scan"}}, {"name": "a42486c9dd721037e2a759f25bb6c7b7", "is_disabled": 0, "fusion_lat": 0.0, "fusion_lon": 0.0, "type": "electric_scooter", "lat": 38.88568166666667, "bike_id": "a42486c9dd721037e2a759f25bb6c7b7", "is_reserved": 0, "lon": -77.02006016666667, "rental_uris": {"android": "https://dc.lft.to/lastmile_qr_scan", "ios": "https://dc.lft.to/lastmile_qr_scan"}}, {"name": "06dff9e94183201b53e708447581861e", "is_disabled": 0, "fusion_lat": 0.0, "fusion_lon": 0.0, "type": "electric_bike", "lat": 38.892012666666666, "bike_id": "06dff9e94183201b53e708447581861e", "is_reserved": 0, "lon": -76.98618333333333, "rental_uris": {"android": "https://dc.lft.to/lastmile_qr_scan", "ios": "https://dc.lft.to/lastmile_qr_scan"}}, {"name": "3f629507bb1c31f6d01ab6f9342d9b39", "is_disabled": 0, "fusion_lat": 0.0, "fusion_lon": 0.0, "type": "electric_scooter", "lat": 38.900339, "bike_id": "3f629507bb1c31f6d01ab6f9342d9b39", "is_reserved": 0, "lon": -77.04381916666667, "rental_uris": {"android": "https://dc.lft.to/lastmile_qr_scan", "ios": "https://dc.lft.to/lastmile_qr_scan"}}, {"name": "71fa938666795ef9810185dcbe877165", "is_disabled": 0, "fusion_lat": 0.0, "fusion_lon": 0.0, "type": "electric_scooter", "lat": 38.90314983333333, "bike_id": "71fa938666795ef9810185dcbe877165", "is_reserved": 0, "lon": -77.03481183333334, "rental_uris": {"android": "https://dc.lft.to/lastmile_qr_scan", "ios": "https://dc.lft.to/lastmile_qr_scan"}}, {"name": "1b97eb626885f58db62501bfaf55ea88", "is_disabled": 0, "fusion_lat": 0.0, "fusion_lon": 0.0, "type": "electric_scooter", "lat": 38.932000333333335, "bike_id": "1b97eb626885f58db62501bfaf55ea88", "is_reserved": 0, "lon": -77.033099, "rental_uris": {"android": "https://dc.lft.to/lastmile_qr_scan", "ios": "https://dc.lft.to/lastmile_qr_scan"}}, {"name": "9188bb2c35dc27f3aba478b5fa4ed413", "is_disabled": 0, "fusion_lat": 0.0, "fusion_lon": 0.0, "type": "electric_scooter", "lat": 38.924546, "bike_id": "9188bb2c35dc27f3aba478b5fa4ed413", "is_reserved": 0, "lon": -77.0397385, "rental_uris": {"android": "https://dc.lft.to/lastmile_qr_scan", "ios": "https://dc.lft.to/lastmile_qr_scan"}}, {"name": "5c6e85f3053d00ff386a76e4ce84e955", "is_disabled": 0, "fusion_lat": 0.0, "fusion_lon": 0.0, "type": "electric_scooter", "lat": 38.898659333333335, "bike_id": "5c6e85f3053d00ff386a76e4ce84e955", "is_reserved": 0, "lon": -76.9466235, "rental_uris": {"android": "https://dc.lft.to/lastmile_qr_scan", "ios": "https://dc.lft.to/lastmile_qr_scan"}}, {"name": "d2f1d7947728850088bd2555fb5a8e55", "is_disabled": 0, "fusion_lat": 0.0, "fusion_lon": 0.0, "type": "electric_scooter", "lat": 38.9001545, "bike_id": "d2f1d7947728850088bd2555fb5a8e55", "is_reserved": 0, "lon": -77.01185516666666, "rental_uris": {"android": "https://dc.lft.to/lastmile_qr_scan", "ios": "https://dc.lft.to/lastmile_qr_scan"}}, {"name": "8652354a979926b72e8d8cea221e433b", "is_disabled": 0, "fusion_lat": 0.0, "fusion_lon": 0.0, "type": "electric_scooter", "lat": 38.90380016666667, "bike_id": "8652354a979926b72e8d8cea221e433b", "is_reserved": 0, "lon": -77.03839616666667, "rental_uris": {"android": "https://dc.lft.to/lastmile_qr_scan", "ios": "https://dc.lft.to/lastmile_qr_scan"}}, {"name": "c9a9e9e6f49702f077d88f555ce3330d", "is_disabled": 0, "fusion_lat": 0.0, "fusion_lon": 0.0, "type": "electric_scooter", "lat": 38.891958833333334, "bike_id": "c9a9e9e6f49702f077d88f555ce3330d", "is_reserved": 0, "lon": -77.002991, "rental_uris": {"android": "https://dc.lft.to/lastmile_qr_scan", "ios": "https://dc.lft.to/lastmile_qr_scan"}}, {"name": "de609bd5edb3cbc8d87b51dca303eebf", "is_disabled": 0, "fusion_lat": 0.0, "fusion_lon": 0.0, "type": "electric_scooter", "lat": 38.900832333333334, "bike_id": "de609bd5edb3cbc8d87b51dca303eebf", "is_reserved": 0, "lon": -76.99373083333333, "rental_uris": {"android": "https://dc.lft.to/lastmile_qr_scan", "ios": "https://dc.lft.to/lastmile_qr_scan"}}, {"name": "750144510a6266e2a1a412817961816a", "is_disabled": 0, "fusion_lat": 0.0, "fusion_lon": 0.0, "type": "electric_scooter", "lat": 38.905787833333335, "bike_id": "750144510a6266e2a1a412817961816a", "is_reserved": 0, "lon": -77.04879333333334, "rental_uris": {"android": "https://dc.lft.to/lastmile_qr_scan", "ios": "https://dc.lft.to/lastmile_qr_scan"}}, {"name": "ffaeaf3b83c971d655df3cae45174727", "is_disabled": 0, "fusion_lat": 0.0, "fusion_lon": 0.0, "type": "electric_bike", "lat": 38.89647, "bike_id": "ffaeaf3b83c971d655df3cae45174727", "is_reserved": 0, "lon": -76.93003233333333, "rental_uris": {"android": "https://dc.lft.to/lastmile_qr_scan", "ios": "https://dc.lft.to/lastmile_qr_scan"}}, {"name": "6f54e9180a2db3c7249ca9d43ec71e1f", "is_disabled": 0, "fusion_lat": 0.0, "fusion_lon": 0.0, "type": "electric_scooter", "lat": 38.92833316666667, "bike_id": "6f54e9180a2db3c7249ca9d43ec71e1f", "is_reserved": 0, "lon": -77.03707783333333, "rental_uris": {"android": "https://dc.lft.to/lastmile_qr_scan", "ios": "https://dc.lft.to/lastmile_qr_scan"}}, {"name": "e5dd0f5a580222d54ec597dd8e7a0bd2", "is_disabled": 0, "fusion_lat": 0.0, "fusion_lon": 0.0, "type": "electric_scooter", "lat": 38.9226575, "bike_id": "e5dd0f5a580222d54ec597dd8e7a0bd2", "is_reserved": 0, "lon": -77.01827166666666, "rental_uris": {"android": "https://dc.lft.to/lastmile_qr_scan", "ios": "https://dc.lft.to/lastmile_qr_scan"}}, {"name": "5b3b7139144c714615095c14a8b65a85", "is_disabled": 0, "fusion_lat": 0.0, "fusion_lon": 0.0, "type": "electric_scooter", "lat": 38.92983233333333, "bike_id": "5b3b7139144c714615095c14a8b65a85", "is_reserved": 0, "lon": -77.014517, "rental_uris": {"android": "https://dc.lft.to/lastmile_qr_scan", "ios": "https://dc.lft.to/lastmile_qr_scan"}}, {"name": "cb7431a2581446d02aed5bdeb509871b", "is_disabled": 0, "fusion_lat": 0.0, "fusion_lon": 0.0, "type": "electric_scooter", "lat": 38.91100266666667, "bike_id": "cb7431a2581446d02aed5bdeb509871b", "is_reserved": 0, "lon": -77.0449545, "rental_uris": {"android": "https://dc.lft.to/lastmile_qr_scan", "ios": "https://dc.lft.to/lastmile_qr_scan"}}, {"name": "88fb7bd9c83130b8a49c704aac7c88c9", "is_disabled": 0, "fusion_lat": 0.0, "fusion_lon": 0.0, "type": "electric_scooter", "lat": 38.88606816666667, "bike_id": "88fb7bd9c83130b8a49c704aac7c88c9", "is_reserved": 0, "lon": -76.99516083333333, "rental_uris": {"android": "https://dc.lft.to/lastmile_qr_scan", "ios": "https://dc.lft.to/lastmile_qr_scan"}}, {"name": "346bbfcc6dc796fc01afce7a585d4a29", "is_disabled": 0, "fusion_lat": 0.0, "fusion_lon": 0.0, "type": "electric_scooter", "lat": 38.904348666666664, "bike_id": "346bbfcc6dc796fc01afce7a585d4a29", "is_reserved": 0, "lon": -77.0286455, "rental_uris": {"android": "https://dc.lft.to/lastmile_qr_scan", "ios": "https://dc.lft.to/lastmile_qr_scan"}}, {"name": "eaa5298462b67dfcfe60e4fc8a45e72c", "is_disabled": 0, "fusion_lat": 0.0, "fusion_lon": 0.0, "type": "electric_scooter", "lat": 38.918152, "bike_id": "eaa5298462b67dfcfe60e4fc8a45e72c", "is_reserved": 0, "lon": -77.0369255, "rental_uris": {"android": "https://dc.lft.to/lastmile_qr_scan", "ios": "https://dc.lft.to/lastmile_qr_scan"}}, {"name": "28428c693cb7ba1ddda6dd451026cdb4", "is_disabled": 0, "fusion_lat": 0.0, "fusion_lon": 0.0, "type": "electric_bike", "lat": 38.96736, "bike_id": "28428c693cb7ba1ddda6dd451026cdb4", "is_reserved": 0, "lon": -76.96056566666667, "rental_uris": {"android": "https://dc.lft.to/lastmile_qr_scan", "ios": "https://dc.lft.to/lastmile_qr_scan"}}, {"name": "661debf820f5856d29f9090d67974b4b", "is_disabled": 0, "fusion_lat": 0.0, "fusion_lon": 0.0, "type": "electric_scooter", "lat": 38.891746499999996, "bike_id": "661debf820f5856d29f9090d67974b4b", "is_reserved": 0, "lon": -76.91195216666667, "rental_uris": {"android": "https://dc.lft.to/lastmile_qr_scan", "ios": "https://dc.lft.to/lastmile_qr_scan"}}, {"name": "ea00fb1982298f926074304a9045ba78", "is_disabled": 0, "fusion_lat": 0.0, "fusion_lon": 0.0, "type": "electric_scooter", "lat": 38.91714966666667, "bike_id": "ea00fb1982298f926074304a9045ba78", "is_reserved": 0, "lon": -77.03856883333333, "rental_uris": {"android": "https://dc.lft.to/lastmile_qr_scan", "ios": "https://dc.lft.to/lastmile_qr_scan"}}, {"name": "72f97ebeeab2b26099ae5c01f3a949d1", "is_disabled": 0, "fusion_lat": 0.0, "fusion_lon": 0.0, "type": "electric_scooter", "lat": 38.90085066666666, "bike_id": "72f97ebeeab2b26099ae5c01f3a949d1", "is_reserved": 0, "lon": -77.043654, "rental_uris": {"android": "https://dc.lft.to/lastmile_qr_scan", "ios": "https://dc.lft.to/lastmile_qr_scan"}}, {"name": "818f2d60a3764ec836341e7d2bd769bc", "is_disabled": 0, "fusion_lat": 0.0, "fusion_lon": 0.0, "type": "electric_scooter", "lat": 38.914607, "bike_id": "818f2d60a3764ec836341e7d2bd769bc", "is_reserved": 0, "lon": -77.02104283333334, "rental_uris": {"android": "https://dc.lft.to/lastmile_qr_scan", "ios": "https://dc.lft.to/lastmile_qr_scan"}}, {"name": "c03a9407fe5e2a57d5205fb8d667735b", "is_disabled": 0, "fusion_lat": 0.0, "fusion_lon": 0.0, "type": "electric_scooter", "lat": 38.87164833333333, "bike_id": "c03a9407fe5e2a57d5205fb8d667735b", "is_reserved": 0, "lon": -76.97751283333334, "rental_uris": {"android": "https://dc.lft.to/lastmile_qr_scan", "ios": "https://dc.lft.to/lastmile_qr_scan"}}, {"name": "1414c7ee90e1036f502d0c6de817839a", "is_disabled": 0, "fusion_lat": 0.0, "fusion_lon": 0.0, "type": "electric_scooter", "lat": 38.915521166666664, "bike_id": "1414c7ee90e1036f502d0c6de817839a", "is_reserved": 0, "lon": -77.03462766666667, "rental_uris": {"android": "https://dc.lft.to/lastmile_qr_scan", "ios": "https://dc.lft.to/lastmile_qr_scan"}}, {"name": "9596846e72a685bdb27e806c62365680", "is_disabled": 0, "fusion_lat": 0.0, "fusion_lon": 0.0, "type": "electric_scooter", "lat": 38.921021, "bike_id": "9596846e72a685bdb27e806c62365680", "is_reserved": 0, "lon": -77.0318415, "rental_uris": {"android": "https://dc.lft.to/lastmile_qr_scan", "ios": "https://dc.lft.to/lastmile_qr_scan"}}, {"name": "a1707c2c07e9928b1193bcb4e5c2d44c", "is_disabled": 0, "fusion_lat": 0.0, "fusion_lon": 0.0, "type": "electric_scooter", "lat": 38.92051583333333, "bike_id": "a1707c2c07e9928b1193bcb4e5c2d44c", "is_reserved": 0, "lon": -77.02580416666666, "rental_uris": {"android": "https://dc.lft.to/lastmile_qr_scan", "ios": "https://dc.lft.to/lastmile_qr_scan"}}, {"name": "00d93a9806cb6513487f28ea4afc3d52", "is_disabled": 0, "fusion_lat": 0.0, "fusion_lon": 0.0, "type": "electric_scooter", "lat": 38.919040333333335, "bike_id": "00d93a9806cb6513487f28ea4afc3d52", "is_reserved": 0, "lon": -77.02443, "rental_uris": {"android": "https://dc.lft.to/lastmile_qr_scan", "ios": "https://dc.lft.to/lastmile_qr_scan"}}, {"name": "140ff874a6ad7c760c1f7abb4073c9f7", "is_disabled": 0, "fusion_lat": 0.0, "fusion_lon": 0.0, "type": "electric_scooter", "lat": 38.907756166666665, "bike_id": "140ff874a6ad7c760c1f7abb4073c9f7", "is_reserved": 0, "lon": -77.07165983333333, "rental_uris": {"android": "https://dc.lft.to/lastmile_qr_scan", "ios": "https://dc.lft.to/lastmile_qr_scan"}}, {"name": "56c450dea3d9e19c8f4a62d0b7429645", "is_disabled": 0, "fusion_lat": 0.0, "fusion_lon": 0.0, "type": "electric_scooter", "lat": 38.949832, "bike_id": "56c450dea3d9e19c8f4a62d0b7429645", "is_reserved": 0, "lon": -77.02649566666666, "rental_uris": {"android": "https://dc.lft.to/lastmile_qr_scan", "ios": "https://dc.lft.to/lastmile_qr_scan"}}, {"name": "93613266d2ac15ac86898d77b68d5339", "is_disabled": 0, "fusion_lat": 0.0, "fusion_lon": 0.0, "type": "electric_scooter", "lat": 38.91212133333333, "bike_id": "93613266d2ac15ac86898d77b68d5339", "is_reserved": 0, "lon": -77.0383595, "rental_uris": {"android": "https://dc.lft.to/lastmile_qr_scan", "ios": "https://dc.lft.to/lastmile_qr_scan"}}, {"name": "a9d4cb914eafe79cc67b6c605b92a5cd", "is_disabled": 0, "fusion_lat": 0.0, "fusion_lon": 0.0, "type": "electric_bike", "lat": 38.82367216666667, "bike_id": "a9d4cb914eafe79cc67b6c605b92a5cd", "is_reserved": 0, "lon": -77.002186, "rental_uris": {"android": "https://dc.lft.to/lastmile_qr_scan", "ios": "https://dc.lft.to/lastmile_qr_scan"}}, {"name": "09ff9657de632bef78a6a190570a9a85", "is_disabled": 0, "fusion_lat": 0.0, "fusion_lon": 0.0, "type": "electric_scooter", "lat": 38.886091666666665, "bike_id": "09ff9657de632bef78a6a190570a9a85", "is_reserved": 0, "lon": -77.0013555, "rental_uris": {"android": "https://dc.lft.to/lastmile_qr_scan", "ios": "https://dc.lft.to/lastmile_qr_scan"}}, {"name": "e72527621bbfdc157423323ac480f5ac", "is_disabled": 0, "fusion_lat": 0.0, "fusion_lon": 0.0, "type": "electric_scooter", "lat": 38.9230745, "bike_id": "e72527621bbfdc157423323ac480f5ac", "is_reserved": 0, "lon": -77.042131, "rental_uris": {"android": "https://dc.lft.to/lastmile_qr_scan", "ios": "https://dc.lft.to/lastmile_qr_scan"}}, {"name": "6fd77f06b85242fe0fa07ccb910e1982", "is_disabled": 0, "fusion_lat": 0.0, "fusion_lon": 0.0, "type": "electric_scooter", "lat": 38.864741333333335, "bike_id": "6fd77f06b85242fe0fa07ccb910e1982", "is_reserved": 0, "lon": -76.98236616666667, "rental_uris": {"android": "https://dc.lft.to/lastmile_qr_scan", "ios": "https://dc.lft.to/lastmile_qr_scan"}}, {"name": "c30b50dd2937f101a32be1e8a7059d3c", "is_disabled": 0, "fusion_lat": 0.0, "fusion_lon": 0.0, "type": "electric_bike", "lat": 38.859353166666665, "bike_id": "c30b50dd2937f101a32be1e8a7059d3c", "is_reserved": 0, "lon": -77.11832416666667, "rental_uris": {"android": "https://dc.lft.to/lastmile_qr_scan", "ios": "https://dc.lft.to/lastmile_qr_scan"}}, {"name": "0108033be39c8ab5efdb9dda96a2fd66", "is_disabled": 0, "fusion_lat": 0.0, "fusion_lon": 0.0, "type": "electric_scooter", "lat": 38.9561485, "bike_id": "0108033be39c8ab5efdb9dda96a2fd66", "is_reserved": 0, "lon": -77.02781483333334, "rental_uris": {"android": "https://dc.lft.to/lastmile_qr_scan", "ios": "https://dc.lft.to/lastmile_qr_scan"}}, {"name": "75487134653082a122d666301732ab7e", "is_disabled": 0, "fusion_lat": 0.0, "fusion_lon": 0.0, "type": "electric_scooter", "lat": 38.90579233333333, "bike_id": "75487134653082a122d666301732ab7e", "is_reserved": 0, "lon": -77.04873966666666, "rental_uris": {"android": "https://dc.lft.to/lastmile_qr_scan", "ios": "https://dc.lft.to/lastmile_qr_scan"}}, {"name": "89489cb0c8b5768f84c1f8dca08cc86f", "is_disabled": 0, "fusion_lat": 0.0, "fusion_lon": 0.0, "type": "electric_bike", "lat": 38.92247233333333, "bike_id": "89489cb0c8b5768f84c1f8dca08cc86f", "is_reserved": 0, "lon": -77.01945333333333, "rental_uris": {"android": "https://dc.lft.to/lastmile_qr_scan", "ios": "https://dc.lft.to/lastmile_qr_scan"}}, {"name": "1cf4a548d7f09b06ba1a3fe1355bb7b6", "is_disabled": 0, "fusion_lat": 0.0, "fusion_lon": 0.0, "type": "electric_scooter", "lat": 38.90836816666667, "bike_id": "1cf4a548d7f09b06ba1a3fe1355bb7b6", "is_reserved": 0, "lon": -77.03300533333334, "rental_uris": {"android": "https://dc.lft.to/lastmile_qr_scan", "ios": "https://dc.lft.to/lastmile_qr_scan"}}, {"name": "93896c83e412814b17d67784281c3378", "is_disabled": 0, "fusion_lat": 0.0, "fusion_lon": 0.0, "type": "electric_scooter", "lat": 38.8370135, "bike_id": "93896c83e412814b17d67784281c3378", "is_reserved": 0, "lon": -77.00570616666667, "rental_uris": {"android": "https://dc.lft.to/lastmile_qr_scan", "ios": "https://dc.lft.to/lastmile_qr_scan"}}, {"name": "4dbcfc5c9770c3bd0afd72c0684af687", "is_disabled": 0, "fusion_lat": 0.0, "fusion_lon": 0.0, "type": "electric_scooter", "lat": 38.891128333333334, "bike_id": "4dbcfc5c9770c3bd0afd72c0684af687", "is_reserved": 0, "lon": -76.99164483333334, "rental_uris": {"android": "https://dc.lft.to/lastmile_qr_scan", "ios": "https://dc.lft.to/lastmile_qr_scan"}}, {"name": "76070c9601da9444ce0acfbfe08e714e", "is_disabled": 0, "fusion_lat": 0.0, "fusion_lon": 0.0, "type": "electric_scooter", "lat": 38.909011666666665, "bike_id": "76070c9601da9444ce0acfbfe08e714e", "is_reserved": 0, "lon": -77.0414075, "rental_uris": {"android": "https://dc.lft.to/lastmile_qr_scan", "ios": "https://dc.lft.to/lastmile_qr_scan"}}, {"name": "5055938adf195c25e2ca044deaf8ee0c", "is_disabled": 0, "fusion_lat": 0.0, "fusion_lon": 0.0, "type": "electric_scooter", "lat": 38.920368, "bike_id": "5055938adf195c25e2ca044deaf8ee0c", "is_reserved": 0, "lon": -77.025907, "rental_uris": {"android": "https://dc.lft.to/lastmile_qr_scan", "ios": "https://dc.lft.to/lastmile_qr_scan"}}, {"name": "82bab515eb5f8ffde6f0b197e9f81ec6", "is_disabled": 0, "fusion_lat": 0.0, "fusion_lon": 0.0, "type": "electric_scooter", "lat": 38.916759166666665, "bike_id": "82bab515eb5f8ffde6f0b197e9f81ec6", "is_reserved": 0, "lon": -77.0340275, "rental_uris": {"android": "https://dc.lft.to/lastmile_qr_scan", "ios": "https://dc.lft.to/lastmile_qr_scan"}}, {"name": "bfa9e24100d4431a433c579e8ee2c03c", "is_disabled": 0, "fusion_lat": 0.0, "fusion_lon": 0.0, "type": "electric_scooter", "lat": 38.911918666666665, "bike_id": "bfa9e24100d4431a433c579e8ee2c03c", "is_reserved": 0, "lon": -77.0449395, "rental_uris": {"android": "https://dc.lft.to/lastmile_qr_scan", "ios": "https://dc.lft.to/lastmile_qr_scan"}}, {"name": "fde51dad670b4a74d62c2224527f8d22", "is_disabled": 0, "fusion_lat": 0.0, "fusion_lon": 0.0, "type": "electric_scooter", "lat": 38.906400833333336, "bike_id": "fde51dad670b4a74d62c2224527f8d22", "is_reserved": 0, "lon": -77.03841966666667, "rental_uris": {"android": "https://dc.lft.to/lastmile_qr_scan", "ios": "https://dc.lft.to/lastmile_qr_scan"}}, {"name": "965ea6b2cf816c2d106594ab34f9cb05", "is_disabled": 0, "fusion_lat": 0.0, "fusion_lon": 0.0, "type": "electric_scooter", "lat": 38.8442545, "bike_id": "965ea6b2cf816c2d106594ab34f9cb05", "is_reserved": 0, "lon": -76.99779133333334, "rental_uris": {"android": "https://dc.lft.to/lastmile_qr_scan", "ios": "https://dc.lft.to/lastmile_qr_scan"}}, {"name": "9b60d44fa906ee98e198cebed497ba19", "is_disabled": 0, "fusion_lat": 0.0, "fusion_lon": 0.0, "type": "electric_scooter", "lat": 38.92821883333333, "bike_id": "9b60d44fa906ee98e198cebed497ba19", "is_reserved": 0, "lon": -77.054235, "rental_uris": {"android": "https://dc.lft.to/lastmile_qr_scan", "ios": "https://dc.lft.to/lastmile_qr_scan"}}, {"name": "5706f2ec322822332ea91b487978d90d", "is_disabled": 0, "fusion_lat": 0.0, "fusion_lon": 0.0, "type": "electric_scooter", "lat": 38.885627, "bike_id": "5706f2ec322822332ea91b487978d90d", "is_reserved": 0, "lon": -77.02001483333333, "rental_uris": {"android": "https://dc.lft.to/lastmile_qr_scan", "ios": "https://dc.lft.to/lastmile_qr_scan"}}, {"name": "42e3a5c0b20d0081d5473cfe417aec08", "is_disabled": 0, "fusion_lat": 0.0, "fusion_lon": 0.0, "type": "electric_scooter", "lat": 38.90126983333333, "bike_id": "42e3a5c0b20d0081d5473cfe417aec08", "is_reserved": 0, "lon": -77.03186316666667, "rental_uris": {"android": "https://dc.lft.to/lastmile_qr_scan", "ios": "https://dc.lft.to/lastmile_qr_scan"}}, {"name": "d34566793cca79417853c0647609f894", "is_disabled": 0, "fusion_lat": 0.0, "fusion_lon": 0.0, "type": "electric_scooter", "lat": 38.88726066666667, "bike_id": "d34566793cca79417853c0647609f894", "is_reserved": 0, "lon": -77.02817083333333, "rental_uris": {"android": "https://dc.lft.to/lastmile_qr_scan", "ios": "https://dc.lft.to/lastmile_qr_scan"}}, {"name": "ca57b1b0c55c5982a23616786b9b8d97", "is_disabled": 0, "fusion_lat": 0.0, "fusion_lon": 0.0, "type": "electric_scooter", "lat": 38.892242833333334, "bike_id": "ca57b1b0c55c5982a23616786b9b8d97", "is_reserved": 0, "lon": -77.02866433333334, "rental_uris": {"android": "https://dc.lft.to/lastmile_qr_scan", "ios": "https://dc.lft.to/lastmile_qr_scan"}}, {"name": "63f992d8abc06a27e7bdacb67814251c", "is_disabled": 0, "fusion_lat": 0.0, "fusion_lon": 0.0, "type": "electric_scooter", "lat": 38.91797433333333, "bike_id": "63f992d8abc06a27e7bdacb67814251c", "is_reserved": 0, "lon": -77.040216, "rental_uris": {"android": "https://dc.lft.to/lastmile_qr_scan", "ios": "https://dc.lft.to/lastmile_qr_scan"}}, {"name": "7e408e5debac9283e481034f3beae4ca", "is_disabled": 0, "fusion_lat": 0.0, "fusion_lon": 0.0, "type": "electric_scooter", "lat": 38.885187, "bike_id": "7e408e5debac9283e481034f3beae4ca", "is_reserved": 0, "lon": -77.00566166666667, "rental_uris": {"android": "https://dc.lft.to/lastmile_qr_scan", "ios": "https://dc.lft.to/lastmile_qr_scan"}}, {"name": "c3274e955247f19c0b9b7eba9b7f53da", "is_disabled": 0, "fusion_lat": 0.0, "fusion_lon": 0.0, "type": "electric_scooter", "lat": 38.923107, "bike_id": "c3274e955247f19c0b9b7eba9b7f53da", "is_reserved": 0, "lon": -77.02759833333333, "rental_uris": {"android": "https://dc.lft.to/lastmile_qr_scan", "ios": "https://dc.lft.to/lastmile_qr_scan"}}, {"name": "da907a7ed828a6aba68380f7755736dd", "is_disabled": 0, "fusion_lat": 0.0, "fusion_lon": 0.0, "type": "electric_scooter", "lat": 38.8670055, "bike_id": "da907a7ed828a6aba68380f7755736dd", "is_reserved": 0, "lon": -76.985937, "rental_uris": {"android": "https://dc.lft.to/lastmile_qr_scan", "ios": "https://dc.lft.to/lastmile_qr_scan"}}, {"name": "43f4126d7361ea9ffbb3a119423e83be", "is_disabled": 0, "fusion_lat": 0.0, "fusion_lon": 0.0, "type": "electric_scooter", "lat": 38.942056666666666, "bike_id": "43f4126d7361ea9ffbb3a119423e83be", "is_reserved": 0, "lon": -77.025206, "rental_uris": {"android": "https://dc.lft.to/lastmile_qr_scan", "ios": "https://dc.lft.to/lastmile_qr_scan"}}, {"name": "7e339fec81661c1738bc7bc145d7cb1a", "is_disabled": 0, "fusion_lat": 0.0, "fusion_lon": 0.0, "type": "electric_scooter", "lat": 38.8625415, "bike_id": "7e339fec81661c1738bc7bc145d7cb1a", "is_reserved": 0, "lon": -76.99508616666667, "rental_uris": {"android": "https://dc.lft.to/lastmile_qr_scan", "ios": "https://dc.lft.to/lastmile_qr_scan"}}, {"name": "6555b1f97fe3d77907c988f0cce6e5ae", "is_disabled": 0, "fusion_lat": 0.0, "fusion_lon": 0.0, "type": "electric_bike", "lat": 38.91018966666667, "bike_id": "6555b1f97fe3d77907c988f0cce6e5ae", "is_reserved": 0, "lon": -77.22803266666666, "rental_uris": {"android": "https://dc.lft.to/lastmile_qr_scan", "ios": "https://dc.lft.to/lastmile_qr_scan"}}, {"name": "7f7af87bcf4e8f05afe906d9f6fe0bfb", "is_disabled": 0, "fusion_lat": 0.0, "fusion_lon": 0.0, "type": "electric_scooter", "lat": 38.89326033333333, "bike_id": "7f7af87bcf4e8f05afe906d9f6fe0bfb", "is_reserved": 0, "lon": -77.04867766666666, "rental_uris": {"android": "https://dc.lft.to/lastmile_qr_scan", "ios": "https://dc.lft.to/lastmile_qr_scan"}}, {"name": "bfa6f0769f0f833e22931a2e012985f3", "is_disabled": 0, "fusion_lat": 0.0, "fusion_lon": 0.0, "type": "electric_scooter", "lat": 38.907892, "bike_id": "bfa6f0769f0f833e22931a2e012985f3", "is_reserved": 0, "lon": -77.03868166666666, "rental_uris": {"android": "https://dc.lft.to/lastmile_qr_scan", "ios": "https://dc.lft.to/lastmile_qr_scan"}}, {"name": "41857f8a4f6e24197a14226edbaf5190", "is_disabled": 0, "fusion_lat": 0.0, "fusion_lon": 0.0, "type": "electric_scooter", "lat": 38.90394383333334, "bike_id": "41857f8a4f6e24197a14226edbaf5190", "is_reserved": 0, "lon": -77.038548, "rental_uris": {"android": "https://dc.lft.to/lastmile_qr_scan", "ios": "https://dc.lft.to/lastmile_qr_scan"}}, {"name": "c1921dcc4e16293b48ef5c4adc62bd95", "is_disabled": 0, "fusion_lat": 0.0, "fusion_lon": 0.0, "type": "electric_bike", "lat": 38.880612, "bike_id": "c1921dcc4e16293b48ef5c4adc62bd95", "is_reserved": 0, "lon": -76.962371, "rental_uris": {"android": "https://dc.lft.to/lastmile_qr_scan", "ios": "https://dc.lft.to/lastmile_qr_scan"}}, {"name": "498b3057c246474f3c7e745bc8827146", "is_disabled": 0, "fusion_lat": 0.0, "fusion_lon": 0.0, "type": "electric_scooter", "lat": 38.90542083333333, "bike_id": "498b3057c246474f3c7e745bc8827146", "is_reserved": 0, "lon": -77.02218366666666, "rental_uris": {"android": "https://dc.lft.to/lastmile_qr_scan", "ios": "https://dc.lft.to/lastmile_qr_scan"}}, {"name": "2aaa0dbf243ba02fe0421e5a9bdf30b1", "is_disabled": 0, "fusion_lat": 0.0, "fusion_lon": 0.0, "type": "electric_scooter", "lat": 38.92449333333333, "bike_id": "2aaa0dbf243ba02fe0421e5a9bdf30b1", "is_reserved": 0, "lon": -77.04112483333333, "rental_uris": {"android": "https://dc.lft.to/lastmile_qr_scan", "ios": "https://dc.lft.to/lastmile_qr_scan"}}, {"name": "d22bf94be86e5bf063318db926f38ccd", "is_disabled": 0, "fusion_lat": 0.0, "fusion_lon": 0.0, "type": "electric_bike", "lat": 38.87278366666666, "bike_id": "d22bf94be86e5bf063318db926f38ccd", "is_reserved": 0, "lon": -77.23321783333333, "rental_uris": {"android": "https://dc.lft.to/lastmile_qr_scan", "ios": "https://dc.lft.to/lastmile_qr_scan"}}, {"name": "c240fcd3587b5958bce3bd08f8bc9f54", "is_disabled": 0, "fusion_lat": 0.0, "fusion_lon": 0.0, "type": "electric_bike", "lat": 38.961395, "bike_id": "c240fcd3587b5958bce3bd08f8bc9f54", "is_reserved": 0, "lon": -77.02297066666667, "rental_uris": {"android": "https://dc.lft.to/lastmile_qr_scan", "ios": "https://dc.lft.to/lastmile_qr_scan"}}, {"name": "99704153d4e8b5b382110b07397e5fd5", "is_disabled": 0, "fusion_lat": 0.0, "fusion_lon": 0.0, "type": "electric_scooter", "lat": 38.9039115, "bike_id": "99704153d4e8b5b382110b07397e5fd5", "is_reserved": 0, "lon": -77.0402175, "rental_uris": {"android": "https://dc.lft.to/lastmile_qr_scan", "ios": "https://dc.lft.to/lastmile_qr_scan"}}, {"name": "06073284c210b57220dc4010f0610093", "is_disabled": 0, "fusion_lat": 0.0, "fusion_lon": 0.0, "type": "electric_scooter", "lat": 38.92111216666667, "bike_id": "06073284c210b57220dc4010f0610093", "is_reserved": 0, "lon": -77.0333405, "rental_uris": {"android": "https://dc.lft.to/lastmile_qr_scan", "ios": "https://dc.lft.to/lastmile_qr_scan"}}, {"name": "78eef6b3aa23445e0bf77914e02559ac", "is_disabled": 0, "fusion_lat": 0.0, "fusion_lon": 0.0, "type": "electric_scooter", "lat": 38.9300885, "bike_id": "78eef6b3aa23445e0bf77914e02559ac", "is_reserved": 0, "lon": -77.01290616666667, "rental_uris": {"android": "https://dc.lft.to/lastmile_qr_scan", "ios": "https://dc.lft.to/lastmile_qr_scan"}}, {"name": "bb41fdbeec248063fd22b2d6651a5cf9", "is_disabled": 0, "fusion_lat": 0.0, "fusion_lon": 0.0, "type": "electric_scooter", "lat": 38.92359283333333, "bike_id": "bb41fdbeec248063fd22b2d6651a5cf9", "is_reserved": 0, "lon": -77.05078016666667, "rental_uris": {"android": "https://dc.lft.to/lastmile_qr_scan", "ios": "https://dc.lft.to/lastmile_qr_scan"}}, {"name": "74b4a6252c48043132d1a7529993634b", "is_disabled": 0, "fusion_lat": 0.0, "fusion_lon": 0.0, "type": "electric_scooter", "lat": 38.90876633333333, "bike_id": "74b4a6252c48043132d1a7529993634b", "is_reserved": 0, "lon": -77.03765766666666, "rental_uris": {"android": "https://dc.lft.to/lastmile_qr_scan", "ios": "https://dc.lft.to/lastmile_qr_scan"}}, {"name": "6611c14849bb0ff957aac0bb195cf22f", "is_disabled": 0, "fusion_lat": 0.0, "fusion_lon": 0.0, "type": "electric_scooter", "lat": 38.934233666666664, "bike_id": "6611c14849bb0ff957aac0bb195cf22f", "is_reserved": 0, "lon": -77.04145566666666, "rental_uris": {"android": "https://dc.lft.to/lastmile_qr_scan", "ios": "https://dc.lft.to/lastmile_qr_scan"}}, {"name": "1bf87e95c4c9ce199c0e4c5ca86f7e8a", "is_disabled": 0, "fusion_lat": 0.0, "fusion_lon": 0.0, "type": "electric_scooter", "lat": 38.89224183333333, "bike_id": "1bf87e95c4c9ce199c0e4c5ca86f7e8a", "is_reserved": 0, "lon": -77.043748, "rental_uris": {"android": "https://dc.lft.to/lastmile_qr_scan", "ios": "https://dc.lft.to/lastmile_qr_scan"}}, {"name": "ad740e2ddae831ec3239ee1b384b8dde", "is_disabled": 0, "fusion_lat": 0.0, "fusion_lon": 0.0, "type": "electric_scooter", "lat": 38.89522433333333, "bike_id": "ad740e2ddae831ec3239ee1b384b8dde", "is_reserved": 0, "lon": -77.00345266666666, "rental_uris": {"android": "https://dc.lft.to/lastmile_qr_scan", "ios": "https://dc.lft.to/lastmile_qr_scan"}}, {"name": "ada964d1cf5b52d208c10d3fc3d74ffb", "is_disabled": 0, "fusion_lat": 0.0, "fusion_lon": 0.0, "type": "electric_scooter", "lat": 38.893613333333334, "bike_id": "ada964d1cf5b52d208c10d3fc3d74ffb", "is_reserved": 0, "lon": -77.0240915, "rental_uris": {"android": "https://dc.lft.to/lastmile_qr_scan", "ios": "https://dc.lft.to/lastmile_qr_scan"}}, {"name": "36543f294727689df2f3630b82f67bf3", "is_disabled": 0, "fusion_lat": 0.0, "fusion_lon": 0.0, "type": "electric_scooter", "lat": 38.87454416666667, "bike_id": "36543f294727689df2f3630b82f67bf3", "is_reserved": 0, "lon": -77.00545833333334, "rental_uris": {"android": "https://dc.lft.to/lastmile_qr_scan", "ios": "https://dc.lft.to/lastmile_qr_scan"}}, {"name": "76c0a2748382aac0bd29bc2bbc453d12", "is_disabled": 0, "fusion_lat": 0.0, "fusion_lon": 0.0, "type": "electric_scooter", "lat": 38.920019333333336, "bike_id": "76c0a2748382aac0bd29bc2bbc453d12", "is_reserved": 0, "lon": -77.03207066666667, "rental_uris": {"android": "https://dc.lft.to/lastmile_qr_scan", "ios": "https://dc.lft.to/lastmile_qr_scan"}}, {"name": "8bc6b35eb616f044abb5f47677837ba5", "is_disabled": 0, "fusion_lat": 0.0, "fusion_lon": 0.0, "type": "electric_scooter", "lat": 38.907706, "bike_id": "8bc6b35eb616f044abb5f47677837ba5", "is_reserved": 0, "lon": -77.0381925, "rental_uris": {"android": "https://dc.lft.to/lastmile_qr_scan", "ios": "https://dc.lft.to/lastmile_qr_scan"}}, {"name": "f3dd9800c05c468e92ea2e752ed6282c", "is_disabled": 0, "fusion_lat": 0.0, "fusion_lon": 0.0, "type": "electric_scooter", "lat": 38.9216855, "bike_id": "f3dd9800c05c468e92ea2e752ed6282c", "is_reserved": 0, "lon": -77.03213883333333, "rental_uris": {"android": "https://dc.lft.to/lastmile_qr_scan", "ios": "https://dc.lft.to/lastmile_qr_scan"}}, {"name": "25b0c45c08135c56d7fa0d0b36d228bf", "is_disabled": 0, "fusion_lat": 0.0, "fusion_lon": 0.0, "type": "electric_scooter", "lat": 38.917767, "bike_id": "25b0c45c08135c56d7fa0d0b36d228bf", "is_reserved": 0, "lon": -77.01469766666666, "rental_uris": {"android": "https://dc.lft.to/lastmile_qr_scan", "ios": "https://dc.lft.to/lastmile_qr_scan"}}, {"name": "fa198d5419451b478e6240668ba0521c", "is_disabled": 0, "fusion_lat": 0.0, "fusion_lon": 0.0, "type": "electric_scooter", "lat": 38.907863666666664, "bike_id": "fa198d5419451b478e6240668ba0521c", "is_reserved": 0, "lon": -77.07248433333334, "rental_uris": {"android": "https://dc.lft.to/lastmile_qr_scan", "ios": "https://dc.lft.to/lastmile_qr_scan"}}, {"name": "ea9eb148ddc203fbc86c87c3106d90be", "is_disabled": 0, "fusion_lat": 0.0, "fusion_lon": 0.0, "type": "electric_bike", "lat": 38.855660666666665, "bike_id": "ea9eb148ddc203fbc86c87c3106d90be", "is_reserved": 0, "lon": -77.08189216666666, "rental_uris": {"android": "https://dc.lft.to/lastmile_qr_scan", "ios": "https://dc.lft.to/lastmile_qr_scan"}}, {"name": "1a153bea35a17b770abc7e38f372381d", "is_disabled": 0, "fusion_lat": 0.0, "fusion_lon": 0.0, "type": "electric_scooter", "lat": 38.89614866666667, "bike_id": "1a153bea35a17b770abc7e38f372381d", "is_reserved": 0, "lon": -77.04339966666667, "rental_uris": {"android": "https://dc.lft.to/lastmile_qr_scan", "ios": "https://dc.lft.to/lastmile_qr_scan"}}, {"name": "b62805dcf73b33984c58a38f6b4778da", "is_disabled": 0, "fusion_lat": 0.0, "fusion_lon": 0.0, "type": "electric_scooter", "lat": 38.902886333333335, "bike_id": "b62805dcf73b33984c58a38f6b4778da", "is_reserved": 0, "lon": -77.05815183333333, "rental_uris": {"android": "https://dc.lft.to/lastmile_qr_scan", "ios": "https://dc.lft.to/lastmile_qr_scan"}}, {"name": "bfcd2a7ae23e7cfae3d79999356c35ba", "is_disabled": 0, "fusion_lat": 0.0, "fusion_lon": 0.0, "type": "electric_scooter", "lat": 38.93050016666667, "bike_id": "bfcd2a7ae23e7cfae3d79999356c35ba", "is_reserved": 0, "lon": -77.03793783333333, "rental_uris": {"android": "https://dc.lft.to/lastmile_qr_scan", "ios": "https://dc.lft.to/lastmile_qr_scan"}}, {"name": "7bc2dce2548723666985568d90fe31fa", "is_disabled": 0, "fusion_lat": 0.0, "fusion_lon": 0.0, "type": "electric_scooter", "lat": 38.921552, "bike_id": "7bc2dce2548723666985568d90fe31fa", "is_reserved": 0, "lon": -77.03315866666667, "rental_uris": {"android": "https://dc.lft.to/lastmile_qr_scan", "ios": "https://dc.lft.to/lastmile_qr_scan"}}, {"name": "2ccd6c1d75484bd3a0ec05a21855f60a", "is_disabled": 0, "fusion_lat": 0.0, "fusion_lon": 0.0, "type": "electric_scooter", "lat": 38.953304333333335, "bike_id": "2ccd6c1d75484bd3a0ec05a21855f60a", "is_reserved": 0, "lon": -77.07070433333334, "rental_uris": {"android": "https://dc.lft.to/lastmile_qr_scan", "ios": "https://dc.lft.to/lastmile_qr_scan"}}, {"name": "9b56124248770f943c7210422f98a82e", "is_disabled": 0, "fusion_lat": 0.0, "fusion_lon": 0.0, "type": "electric_scooter", "lat": 38.909558833333335, "bike_id": "9b56124248770f943c7210422f98a82e", "is_reserved": 0, "lon": -77.048174, "rental_uris": {"android": "https://dc.lft.to/lastmile_qr_scan", "ios": "https://dc.lft.to/lastmile_qr_scan"}}, {"name": "138678a929bdeca435377b8e87007be2", "is_disabled": 0, "fusion_lat": 0.0, "fusion_lon": 0.0, "type": "electric_scooter", "lat": 38.923189, "bike_id": "138678a929bdeca435377b8e87007be2", "is_reserved": 0, "lon": -77.02147883333333, "rental_uris": {"android": "https://dc.lft.to/lastmile_qr_scan", "ios": "https://dc.lft.to/lastmile_qr_scan"}}, {"name": "cafb8c7fc25f7812feb8407181219cc7", "is_disabled": 0, "fusion_lat": 0.0, "fusion_lon": 0.0, "type": "electric_scooter", "lat": 38.910696, "bike_id": "cafb8c7fc25f7812feb8407181219cc7", "is_reserved": 0, "lon": -77.04107516666667, "rental_uris": {"android": "https://dc.lft.to/lastmile_qr_scan", "ios": "https://dc.lft.to/lastmile_qr_scan"}}, {"name": "350eca1a9da5ae6b29baa907bebf7fad", "is_disabled": 0, "fusion_lat": 0.0, "fusion_lon": 0.0, "type": "electric_bike", "lat": 39.057927166666666, "bike_id": "350eca1a9da5ae6b29baa907bebf7fad", "is_reserved": 0, "lon": -77.15024233333334, "rental_uris": {"android": "https://dc.lft.to/lastmile_qr_scan", "ios": "https://dc.lft.to/lastmile_qr_scan"}}, {"name": "e4e64964e4d5065e4f26b2180b13dbb9", "is_disabled": 0, "fusion_lat": 0.0, "fusion_lon": 0.0, "type": "electric_scooter", "lat": 38.922010666666665, "bike_id": "e4e64964e4d5065e4f26b2180b13dbb9", "is_reserved": 0, "lon": -77.0426145, "rental_uris": {"android": "https://dc.lft.to/lastmile_qr_scan", "ios": "https://dc.lft.to/lastmile_qr_scan"}}, {"name": "f3d8a5f11c89bf7931b593618af91b04", "is_disabled": 0, "fusion_lat": 0.0, "fusion_lon": 0.0, "type": "electric_scooter", "lat": 38.9211295, "bike_id": "f3d8a5f11c89bf7931b593618af91b04", "is_reserved": 0, "lon": -77.04441566666667, "rental_uris": {"android": "https://dc.lft.to/lastmile_qr_scan", "ios": "https://dc.lft.to/lastmile_qr_scan"}}, {"name": "3c98b51fe53d4e87e3b3b8c9befc70fe", "is_disabled": 0, "fusion_lat": 0.0, "fusion_lon": 0.0, "type": "electric_scooter", "lat": 38.90392133333334, "bike_id": "3c98b51fe53d4e87e3b3b8c9befc70fe", "is_reserved": 0, "lon": -77.0342665, "rental_uris": {"android": "https://dc.lft.to/lastmile_qr_scan", "ios": "https://dc.lft.to/lastmile_qr_scan"}}, {"name": "f7d36f854a71161a21bfdb46703c96dc", "is_disabled": 0, "fusion_lat": 0.0, "fusion_lon": 0.0, "type": "electric_scooter", "lat": 38.87231533333333, "bike_id": "f7d36f854a71161a21bfdb46703c96dc", "is_reserved": 0, "lon": -77.01174783333333, "rental_uris": {"android": "https://dc.lft.to/lastmile_qr_scan", "ios": "https://dc.lft.to/lastmile_qr_scan"}}, {"name": "ccf3c8b3783f827157b06b265e376b3e", "is_disabled": 0, "fusion_lat": 0.0, "fusion_lon": 0.0, "type": "electric_scooter", "lat": 38.8973365, "bike_id": "ccf3c8b3783f827157b06b265e376b3e", "is_reserved": 0, "lon": -77.0465565, "rental_uris": {"android": "https://dc.lft.to/lastmile_qr_scan", "ios": "https://dc.lft.to/lastmile_qr_scan"}}, {"name": "d7d1ee4a943a3639fdbf0aebcdc3d082", "is_disabled": 0, "fusion_lat": 0.0, "fusion_lon": 0.0, "type": "electric_scooter", "lat": 38.87827266666667, "bike_id": "d7d1ee4a943a3639fdbf0aebcdc3d082", "is_reserved": 0, "lon": -77.01605016666667, "rental_uris": {"android": "https://dc.lft.to/lastmile_qr_scan", "ios": "https://dc.lft.to/lastmile_qr_scan"}}, {"name": "e7d1eb645b0d60e4e5b4e72f78d645ac", "is_disabled": 0, "fusion_lat": 0.0, "fusion_lon": 0.0, "type": "electric_scooter", "lat": 38.8922155, "bike_id": "e7d1eb645b0d60e4e5b4e72f78d645ac", "is_reserved": 0, "lon": -77.02443633333333, "rental_uris": {"android": "https://dc.lft.to/lastmile_qr_scan", "ios": "https://dc.lft.to/lastmile_qr_scan"}}, {"name": "5ec960ca5de8825f5301d9d013cb9973", "is_disabled": 0, "fusion_lat": 0.0, "fusion_lon": 0.0, "type": "electric_scooter", "lat": 38.9072825, "bike_id": "5ec960ca5de8825f5301d9d013cb9973", "is_reserved": 0, "lon": -76.987002, "rental_uris": {"android": "https://dc.lft.to/lastmile_qr_scan", "ios": "https://dc.lft.to/lastmile_qr_scan"}}, {"name": "2d2beacb95086004c96f560584771822", "is_disabled": 0, "fusion_lat": 0.0, "fusion_lon": 0.0, "type": "electric_scooter", "lat": 38.892229666666665, "bike_id": "2d2beacb95086004c96f560584771822", "is_reserved": 0, "lon": -77.04378, "rental_uris": {"android": "https://dc.lft.to/lastmile_qr_scan", "ios": "https://dc.lft.to/lastmile_qr_scan"}}, {"name": "3139fec79787c44389c65be9029f3c8e", "is_disabled": 0, "fusion_lat": 0.0, "fusion_lon": 0.0, "type": "electric_scooter", "lat": 38.892211333333336, "bike_id": "3139fec79787c44389c65be9029f3c8e", "is_reserved": 0, "lon": -77.04371333333333, "rental_uris": {"android": "https://dc.lft.to/lastmile_qr_scan", "ios": "https://dc.lft.to/lastmile_qr_scan"}}, {"name": "6af220891ded29d6c87824410b2f3442", "is_disabled": 0, "fusion_lat": 0.0, "fusion_lon": 0.0, "type": "electric_scooter", "lat": 38.927416, "bike_id": "6af220891ded29d6c87824410b2f3442", "is_reserved": 0, "lon": -77.03294366666667, "rental_uris": {"android": "https://dc.lft.to/lastmile_qr_scan", "ios": "https://dc.lft.to/lastmile_qr_scan"}}, {"name": "e976642f566532ad0b1f163dcb5d5d4b", "is_disabled": 0, "fusion_lat": 0.0, "fusion_lon": 0.0, "type": "electric_scooter", "lat": 38.9165985, "bike_id": "e976642f566532ad0b1f163dcb5d5d4b", "is_reserved": 0, "lon": -77.02968433333334, "rental_uris": {"android": "https://dc.lft.to/lastmile_qr_scan", "ios": "https://dc.lft.to/lastmile_qr_scan"}}, {"name": "8a088402ddaef834746324aafbc24ca1", "is_disabled": 0, "fusion_lat": 0.0, "fusion_lon": 0.0, "type": "electric_bike", "lat": 38.89597833333333, "bike_id": "8a088402ddaef834746324aafbc24ca1", "is_reserved": 0, "lon": -77.04149433333333, "rental_uris": {"android": "https://dc.lft.to/lastmile_qr_scan", "ios": "https://dc.lft.to/lastmile_qr_scan"}}, {"name": "fa1117b1b1648071c45a4ea79a471d74", "is_disabled": 0, "fusion_lat": 0.0, "fusion_lon": 0.0, "type": "electric_scooter", "lat": 38.936744, "bike_id": "fa1117b1b1648071c45a4ea79a471d74", "is_reserved": 0, "lon": -77.035777, "rental_uris": {"android": "https://dc.lft.to/lastmile_qr_scan", "ios": "https://dc.lft.to/lastmile_qr_scan"}}, {"name": "d1275132ccb206d5345527f2f9f345c3", "is_disabled": 0, "fusion_lat": 0.0, "fusion_lon": 0.0, "type": "electric_scooter", "lat": 38.894772, "bike_id": "d1275132ccb206d5345527f2f9f345c3", "is_reserved": 0, "lon": -77.0231755, "rental_uris": {"android": "https://dc.lft.to/lastmile_qr_scan", "ios": "https://dc.lft.to/lastmile_qr_scan"}}, {"name": "db65d7ede1ba1807817c7c562b12a063", "is_disabled": 0, "fusion_lat": 0.0, "fusion_lon": 0.0, "type": "electric_scooter", "lat": 38.90715516666667, "bike_id": "db65d7ede1ba1807817c7c562b12a063", "is_reserved": 0, "lon": -77.03358766666666, "rental_uris": {"android": "https://dc.lft.to/lastmile_qr_scan", "ios": "https://dc.lft.to/lastmile_qr_scan"}}, {"name": "e14615a6bdbf23cbe43b8b74d2feec4c", "is_disabled": 0, "fusion_lat": 0.0, "fusion_lon": 0.0, "type": "electric_scooter", "lat": 38.91814766666667, "bike_id": "e14615a6bdbf23cbe43b8b74d2feec4c", "is_reserved": 0, "lon": -77.0368615, "rental_uris": {"android": "https://dc.lft.to/lastmile_qr_scan", "ios": "https://dc.lft.to/lastmile_qr_scan"}}, {"name": "49fc2518191e25a00190fbc0227508f0", "is_disabled": 0, "fusion_lat": 0.0, "fusion_lon": 0.0, "type": "electric_scooter", "lat": 38.892965333333336, "bike_id": "49fc2518191e25a00190fbc0227508f0", "is_reserved": 0, "lon": -76.9392965, "rental_uris": {"android": "https://dc.lft.to/lastmile_qr_scan", "ios": "https://dc.lft.to/lastmile_qr_scan"}}, {"name": "1c9cde2e3345f3e923957cc6deeeb7fb", "is_disabled": 0, "fusion_lat": 0.0, "fusion_lon": 0.0, "type": "electric_scooter", "lat": 38.98451133333333, "bike_id": "1c9cde2e3345f3e923957cc6deeeb7fb", "is_reserved": 0, "lon": -77.02646366666667, "rental_uris": {"android": "https://dc.lft.to/lastmile_qr_scan", "ios": "https://dc.lft.to/lastmile_qr_scan"}}, {"name": "73d3a5f303de57ae969bbf14cc6025a6", "is_disabled": 0, "fusion_lat": 0.0, "fusion_lon": 0.0, "type": "electric_scooter", "lat": 38.936708333333335, "bike_id": "73d3a5f303de57ae969bbf14cc6025a6", "is_reserved": 0, "lon": -77.03592683333333, "rental_uris": {"android": "https://dc.lft.to/lastmile_qr_scan", "ios": "https://dc.lft.to/lastmile_qr_scan"}}, {"name": "e411609649e054c8eb38ca48aa739b94", "is_disabled": 0, "fusion_lat": 0.0, "fusion_lon": 0.0, "type": "electric_scooter", "lat": 38.898610166666664, "bike_id": "e411609649e054c8eb38ca48aa739b94", "is_reserved": 0, "lon": -77.02368666666666, "rental_uris": {"android": "https://dc.lft.to/lastmile_qr_scan", "ios": "https://dc.lft.to/lastmile_qr_scan"}}, {"name": "57288b7127a234d1ddb9ae9540b4c816", "is_disabled": 0, "fusion_lat": 0.0, "fusion_lon": 0.0, "type": "electric_scooter", "lat": 38.92386366666667, "bike_id": "57288b7127a234d1ddb9ae9540b4c816", "is_reserved": 0, "lon": -77.04068, "rental_uris": {"android": "https://dc.lft.to/lastmile_qr_scan", "ios": "https://dc.lft.to/lastmile_qr_scan"}}, {"name": "0b316fd12247909b2583827c37841a9f", "is_disabled": 0, "fusion_lat": 0.0, "fusion_lon": 0.0, "type": "electric_scooter", "lat": 38.88725383333333, "bike_id": "0b316fd12247909b2583827c37841a9f", "is_reserved": 0, "lon": -77.02823033333334, "rental_uris": {"android": "https://dc.lft.to/lastmile_qr_scan", "ios": "https://dc.lft.to/lastmile_qr_scan"}}, {"name": "55043cc7ac4a7610373a2e18b0a10dd6", "is_disabled": 0, "fusion_lat": 0.0, "fusion_lon": 0.0, "type": "electric_scooter", "lat": 38.907179666666664, "bike_id": "55043cc7ac4a7610373a2e18b0a10dd6", "is_reserved": 0, "lon": -77.028943, "rental_uris": {"android": "https://dc.lft.to/lastmile_qr_scan", "ios": "https://dc.lft.to/lastmile_qr_scan"}}, {"name": "42cea173a1ac063af19245623303e7ae", "is_disabled": 0, "fusion_lat": 0.0, "fusion_lon": 0.0, "type": "electric_scooter", "lat": 38.90457816666667, "bike_id": "42cea173a1ac063af19245623303e7ae", "is_reserved": 0, "lon": -77.03242083333333, "rental_uris": {"android": "https://dc.lft.to/lastmile_qr_scan", "ios": "https://dc.lft.to/lastmile_qr_scan"}}, {"name": "1dbbdd98cd20e255fd056bf8e3210527", "is_disabled": 0, "fusion_lat": 0.0, "fusion_lon": 0.0, "type": "electric_scooter", "lat": 38.94308983333333, "bike_id": "1dbbdd98cd20e255fd056bf8e3210527", "is_reserved": 0, "lon": -77.08832583333333, "rental_uris": {"android": "https://dc.lft.to/lastmile_qr_scan", "ios": "https://dc.lft.to/lastmile_qr_scan"}}, {"name": "2d3bac39ccf26f11a68f6f76f70886b0", "is_disabled": 0, "fusion_lat": 0.0, "fusion_lon": 0.0, "type": "electric_scooter", "lat": 38.866595333333336, "bike_id": "2d3bac39ccf26f11a68f6f76f70886b0", "is_reserved": 0, "lon": -76.988828, "rental_uris": {"android": "https://dc.lft.to/lastmile_qr_scan", "ios": "https://dc.lft.to/lastmile_qr_scan"}}, {"name": "562f04555a4f4e562b6a65bde4192dd9", "is_disabled": 0, "fusion_lat": 0.0, "fusion_lon": 0.0, "type": "electric_bike", "lat": 39.05277866666667, "bike_id": "562f04555a4f4e562b6a65bde4192dd9", "is_reserved": 0, "lon": -77.08072083333333, "rental_uris": {"android": "https://dc.lft.to/lastmile_qr_scan", "ios": "https://dc.lft.to/lastmile_qr_scan"}}, {"name": "1311659fb76a78751756c82444f1b1e9", "is_disabled": 0, "fusion_lat": 0.0, "fusion_lon": 0.0, "type": "electric_scooter", "lat": 38.869967333333335, "bike_id": "1311659fb76a78751756c82444f1b1e9", "is_reserved": 0, "lon": -76.975907, "rental_uris": {"android": "https://dc.lft.to/lastmile_qr_scan", "ios": "https://dc.lft.to/lastmile_qr_scan"}}, {"name": "047b2e4a6c511fc65635dd025e8aa244", "is_disabled": 0, "fusion_lat": 0.0, "fusion_lon": 0.0, "type": "electric_scooter", "lat": 38.914960666666666, "bike_id": "047b2e4a6c511fc65635dd025e8aa244", "is_reserved": 0, "lon": -77.01472733333334, "rental_uris": {"android": "https://dc.lft.to/lastmile_qr_scan", "ios": "https://dc.lft.to/lastmile_qr_scan"}}, {"name": "88967d3767eadc465559edad686d668e", "is_disabled": 0, "fusion_lat": 0.0, "fusion_lon": 0.0, "type": "electric_scooter", "lat": 38.90561616666667, "bike_id": "88967d3767eadc465559edad686d668e", "is_reserved": 0, "lon": -77.0415675, "rental_uris": {"android": "https://dc.lft.to/lastmile_qr_scan", "ios": "https://dc.lft.to/lastmile_qr_scan"}}, {"name": "04afa4466a4ad039e5e0653b03df2476", "is_disabled": 0, "fusion_lat": 0.0, "fusion_lon": 0.0, "type": "electric_scooter", "lat": 38.910288333333334, "bike_id": "04afa4466a4ad039e5e0653b03df2476", "is_reserved": 0, "lon": -76.99335516666666, "rental_uris": {"android": "https://dc.lft.to/lastmile_qr_scan", "ios": "https://dc.lft.to/lastmile_qr_scan"}}, {"name": "2894d84990481e26cc00e04c4a72d920", "is_disabled": 0, "fusion_lat": 0.0, "fusion_lon": 0.0, "type": "electric_scooter", "lat": 38.939546166666666, "bike_id": "2894d84990481e26cc00e04c4a72d920", "is_reserved": 0, "lon": -77.0274815, "rental_uris": {"android": "https://dc.lft.to/lastmile_qr_scan", "ios": "https://dc.lft.to/lastmile_qr_scan"}}, {"name": "a8a549335002a426f3c85a1621304e31", "is_disabled": 0, "fusion_lat": 0.0, "fusion_lon": 0.0, "type": "electric_scooter", "lat": 38.92050116666667, "bike_id": "a8a549335002a426f3c85a1621304e31", "is_reserved": 0, "lon": -77.029756, "rental_uris": {"android": "https://dc.lft.to/lastmile_qr_scan", "ios": "https://dc.lft.to/lastmile_qr_scan"}}, {"name": "399c749ada65eaa256bb9a156ba9df6f", "is_disabled": 0, "fusion_lat": 0.0, "fusion_lon": 0.0, "type": "electric_scooter", "lat": 38.885903666666664, "bike_id": "399c749ada65eaa256bb9a156ba9df6f", "is_reserved": 0, "lon": -76.99622633333334, "rental_uris": {"android": "https://dc.lft.to/lastmile_qr_scan", "ios": "https://dc.lft.to/lastmile_qr_scan"}}, {"name": "3af81ef8081111de2556852440d0ab66", "is_disabled": 0, "fusion_lat": 0.0, "fusion_lon": 0.0, "type": "electric_scooter", "lat": 38.929484333333335, "bike_id": "3af81ef8081111de2556852440d0ab66", "is_reserved": 0, "lon": -77.055104, "rental_uris": {"android": "https://dc.lft.to/lastmile_qr_scan", "ios": "https://dc.lft.to/lastmile_qr_scan"}}, {"name": "8c122bd9311c2b0aeee4afe3aa5c8cfd", "is_disabled": 0, "fusion_lat": 0.0, "fusion_lon": 0.0, "type": "electric_scooter", "lat": 38.935380333333335, "bike_id": "8c122bd9311c2b0aeee4afe3aa5c8cfd", "is_reserved": 0, "lon": -77.05750066666667, "rental_uris": {"android": "https://dc.lft.to/lastmile_qr_scan", "ios": "https://dc.lft.to/lastmile_qr_scan"}}, {"name": "43ff80a31128bca231b6ca7b63cc68de", "is_disabled": 0, "fusion_lat": 0.0, "fusion_lon": 0.0, "type": "electric_scooter", "lat": 38.89221166666667, "bike_id": "43ff80a31128bca231b6ca7b63cc68de", "is_reserved": 0, "lon": -77.04264416666666, "rental_uris": {"android": "https://dc.lft.to/lastmile_qr_scan", "ios": "https://dc.lft.to/lastmile_qr_scan"}}, {"name": "3fadd4a90731bd6fbd1d3d54c6339441", "is_disabled": 0, "fusion_lat": 0.0, "fusion_lon": 0.0, "type": "electric_scooter", "lat": 38.92325066666667, "bike_id": "3fadd4a90731bd6fbd1d3d54c6339441", "is_reserved": 0, "lon": -77.04322566666667, "rental_uris": {"android": "https://dc.lft.to/lastmile_qr_scan", "ios": "https://dc.lft.to/lastmile_qr_scan"}}, {"name": "c3a7e14bc18ee44208386a45801ac724", "is_disabled": 0, "fusion_lat": 0.0, "fusion_lon": 0.0, "type": "electric_scooter", "lat": 38.9172845, "bike_id": "c3a7e14bc18ee44208386a45801ac724", "is_reserved": 0, "lon": -77.02973933333334, "rental_uris": {"android": "https://dc.lft.to/lastmile_qr_scan", "ios": "https://dc.lft.to/lastmile_qr_scan"}}, {"name": "fa1bad38191d48552c2cb90a8f9057cc", "is_disabled": 0, "fusion_lat": 0.0, "fusion_lon": 0.0, "type": "electric_scooter", "lat": 38.877963666666666, "bike_id": "fa1bad38191d48552c2cb90a8f9057cc", "is_reserved": 0, "lon": -76.93088733333333, "rental_uris": {"android": "https://dc.lft.to/lastmile_qr_scan", "ios": "https://dc.lft.to/lastmile_qr_scan"}}, {"name": "549a959dc5e3abe3bf9c09379596da86", "is_disabled": 0, "fusion_lat": 0.0, "fusion_lon": 0.0, "type": "electric_scooter", "lat": 38.908157833333334, "bike_id": "549a959dc5e3abe3bf9c09379596da86", "is_reserved": 0, "lon": -77.0394705, "rental_uris": {"android": "https://dc.lft.to/lastmile_qr_scan", "ios": "https://dc.lft.to/lastmile_qr_scan"}}, {"name": "31d8248ce401ab50c37158fff3630147", "is_disabled": 0, "fusion_lat": 0.0, "fusion_lon": 0.0, "type": "electric_scooter", "lat": 38.922524333333335, "bike_id": "31d8248ce401ab50c37158fff3630147", "is_reserved": 0, "lon": -77.01956833333334, "rental_uris": {"android": "https://dc.lft.to/lastmile_qr_scan", "ios": "https://dc.lft.to/lastmile_qr_scan"}}, {"name": "dbff934a1d20c11f73a7aa1b1fac2222", "is_disabled": 0, "fusion_lat": 0.0, "fusion_lon": 0.0, "type": "electric_scooter", "lat": 38.93163033333333, "bike_id": "dbff934a1d20c11f73a7aa1b1fac2222", "is_reserved": 0, "lon": -77.05610783333333, "rental_uris": {"android": "https://dc.lft.to/lastmile_qr_scan", "ios": "https://dc.lft.to/lastmile_qr_scan"}}, {"name": "479d802b30ea7fb493d45f2fbbd11000", "is_disabled": 0, "fusion_lat": 0.0, "fusion_lon": 0.0, "type": "electric_scooter", "lat": 38.914913, "bike_id": "479d802b30ea7fb493d45f2fbbd11000", "is_reserved": 0, "lon": -77.01854266666666, "rental_uris": {"android": "https://dc.lft.to/lastmile_qr_scan", "ios": "https://dc.lft.to/lastmile_qr_scan"}}, {"name": "a46de09bdbd5f01b516e2f6ef67cd353", "is_disabled": 0, "fusion_lat": 0.0, "fusion_lon": 0.0, "type": "electric_scooter", "lat": 38.90090383333333, "bike_id": "a46de09bdbd5f01b516e2f6ef67cd353", "is_reserved": 0, "lon": -77.04658333333333, "rental_uris": {"android": "https://dc.lft.to/lastmile_qr_scan", "ios": "https://dc.lft.to/lastmile_qr_scan"}}, {"name": "f853532d158434bc1b0ec3f525f9657e", "is_disabled": 0, "fusion_lat": 0.0, "fusion_lon": 0.0, "type": "electric_scooter", "lat": 38.896070333333334, "bike_id": "f853532d158434bc1b0ec3f525f9657e", "is_reserved": 0, "lon": -77.03172316666667, "rental_uris": {"android": "https://dc.lft.to/lastmile_qr_scan", "ios": "https://dc.lft.to/lastmile_qr_scan"}}, {"name": "ed44517daa5b93d2e05c1f69e3dbb9bc", "is_disabled": 0, "fusion_lat": 0.0, "fusion_lon": 0.0, "type": "electric_scooter", "lat": 38.904421666666664, "bike_id": "ed44517daa5b93d2e05c1f69e3dbb9bc", "is_reserved": 0, "lon": -77.0383435, "rental_uris": {"android": "https://dc.lft.to/lastmile_qr_scan", "ios": "https://dc.lft.to/lastmile_qr_scan"}}, {"name": "da378a340b4424ea9bdeabc5b492aa18", "is_disabled": 0, "fusion_lat": 0.0, "fusion_lon": 0.0, "type": "electric_scooter", "lat": 38.90059016666667, "bike_id": "da378a340b4424ea9bdeabc5b492aa18", "is_reserved": 0, "lon": -77.01529583333334, "rental_uris": {"android": "https://dc.lft.to/lastmile_qr_scan", "ios": "https://dc.lft.to/lastmile_qr_scan"}}, {"name": "7c7504a8a5ee6c2e70f939ad8fe46b1b", "is_disabled": 0, "fusion_lat": 0.0, "fusion_lon": 0.0, "type": "electric_bike", "lat": 39.034275666666666, "bike_id": "7c7504a8a5ee6c2e70f939ad8fe46b1b", "is_reserved": 0, "lon": -77.04849016666667, "rental_uris": {"android": "https://dc.lft.to/lastmile_qr_scan", "ios": "https://dc.lft.to/lastmile_qr_scan"}}, {"name": "2971267a9b490b5170952924e869897b", "is_disabled": 0, "fusion_lat": 0.0, "fusion_lon": 0.0, "type": "electric_bike", "lat": 38.956497, "bike_id": "2971267a9b490b5170952924e869897b", "is_reserved": 0, "lon": -77.0127865, "rental_uris": {"android": "https://dc.lft.to/lastmile_qr_scan", "ios": "https://dc.lft.to/lastmile_qr_scan"}}, {"name": "74633132567cefb2c47fec884717a6ab", "is_disabled": 0, "fusion_lat": 0.0, "fusion_lon": 0.0, "type": "electric_scooter", "lat": 38.866621, "bike_id": "74633132567cefb2c47fec884717a6ab", "is_reserved": 0, "lon": -76.98882883333333, "rental_uris": {"android": "https://dc.lft.to/lastmile_qr_scan", "ios": "https://dc.lft.to/lastmile_qr_scan"}}, {"name": "a26df0219df63c0ae6a9aaf17424a376", "is_disabled": 0, "fusion_lat": 0.0, "fusion_lon": 0.0, "type": "electric_scooter", "lat": 38.907535, "bike_id": "a26df0219df63c0ae6a9aaf17424a376", "is_reserved": 0, "lon": -77.03105466666666, "rental_uris": {"android": "https://dc.lft.to/lastmile_qr_scan", "ios": "https://dc.lft.to/lastmile_qr_scan"}}, {"name": "8c1fbd505f899fc17311ab92b7f68b31", "is_disabled": 0, "fusion_lat": 0.0, "fusion_lon": 0.0, "type": "electric_scooter", "lat": 38.902401, "bike_id": "8c1fbd505f899fc17311ab92b7f68b31", "is_reserved": 0, "lon": -77.02693533333333, "rental_uris": {"android": "https://dc.lft.to/lastmile_qr_scan", "ios": "https://dc.lft.to/lastmile_qr_scan"}}, {"name": "4ed3f6f6f7002aa7599b0f4359cb687d", "is_disabled": 0, "fusion_lat": 0.0, "fusion_lon": 0.0, "type": "electric_scooter", "lat": 38.900019666666665, "bike_id": "4ed3f6f6f7002aa7599b0f4359cb687d", "is_reserved": 0, "lon": -77.01804433333334, "rental_uris": {"android": "https://dc.lft.to/lastmile_qr_scan", "ios": "https://dc.lft.to/lastmile_qr_scan"}}, {"name": "5b7f4bddd15a4c003cd95f418170442d", "is_disabled": 0, "fusion_lat": 0.0, "fusion_lon": 0.0, "type": "electric_scooter", "lat": 38.9181005, "bike_id": "5b7f4bddd15a4c003cd95f418170442d", "is_reserved": 0, "lon": -77.036988, "rental_uris": {"android": "https://dc.lft.to/lastmile_qr_scan", "ios": "https://dc.lft.to/lastmile_qr_scan"}}, {"name": "697010e2681446796cc56cdea15a7b9c", "is_disabled": 0, "fusion_lat": 0.0, "fusion_lon": 0.0, "type": "electric_scooter", "lat": 38.89669333333333, "bike_id": "697010e2681446796cc56cdea15a7b9c", "is_reserved": 0, "lon": -77.05028516666667, "rental_uris": {"android": "https://dc.lft.to/lastmile_qr_scan", "ios": "https://dc.lft.to/lastmile_qr_scan"}}, {"name": "3d3c8d06e32c78a1b8bba10d68db4fe3", "is_disabled": 0, "fusion_lat": 0.0, "fusion_lon": 0.0, "type": "electric_scooter", "lat": 38.90514833333334, "bike_id": "3d3c8d06e32c78a1b8bba10d68db4fe3", "is_reserved": 0, "lon": -77.00141833333333, "rental_uris": {"android": "https://dc.lft.to/lastmile_qr_scan", "ios": "https://dc.lft.to/lastmile_qr_scan"}}, {"name": "c28ef21c4562247cc4d500a8b89c4d01", "is_disabled": 0, "fusion_lat": 0.0, "fusion_lon": 0.0, "type": "electric_scooter", "lat": 38.918321166666665, "bike_id": "c28ef21c4562247cc4d500a8b89c4d01", "is_reserved": 0, "lon": -77.0415555, "rental_uris": {"android": "https://dc.lft.to/lastmile_qr_scan", "ios": "https://dc.lft.to/lastmile_qr_scan"}}, {"name": "dfce4fcd339c2bd2d435480686aabca7", "is_disabled": 0, "fusion_lat": 0.0, "fusion_lon": 0.0, "type": "electric_bike", "lat": 39.03989166666667, "bike_id": "dfce4fcd339c2bd2d435480686aabca7", "is_reserved": 0, "lon": -76.9993075, "rental_uris": {"android": "https://dc.lft.to/lastmile_qr_scan", "ios": "https://dc.lft.to/lastmile_qr_scan"}}, {"name": "bb15bdf6e8a326bf771ff854a745b16d", "is_disabled": 0, "fusion_lat": 0.0, "fusion_lon": 0.0, "type": "electric_scooter", "lat": 38.96627983333333, "bike_id": "bb15bdf6e8a326bf771ff854a745b16d", "is_reserved": 0, "lon": -77.01996133333333, "rental_uris": {"android": "https://dc.lft.to/lastmile_qr_scan", "ios": "https://dc.lft.to/lastmile_qr_scan"}}, {"name": "0780b3e4dcbdab4f8debea6de3e18d05", "is_disabled": 0, "fusion_lat": 0.0, "fusion_lon": 0.0, "type": "electric_scooter", "lat": 38.905456, "bike_id": "0780b3e4dcbdab4f8debea6de3e18d05", "is_reserved": 0, "lon": -77.04107183333333, "rental_uris": {"android": "https://dc.lft.to/lastmile_qr_scan", "ios": "https://dc.lft.to/lastmile_qr_scan"}}, {"name": "cc10dfc9fc027033f0118bcb026e05d7", "is_disabled": 0, "fusion_lat": 0.0, "fusion_lon": 0.0, "type": "electric_scooter", "lat": 38.911040666666665, "bike_id": "cc10dfc9fc027033f0118bcb026e05d7", "is_reserved": 0, "lon": -77.00211633333333, "rental_uris": {"android": "https://dc.lft.to/lastmile_qr_scan", "ios": "https://dc.lft.to/lastmile_qr_scan"}}, {"name": "bc52a5ca5a1f4d250c7a051e00bd8248", "is_disabled": 0, "fusion_lat": 0.0, "fusion_lon": 0.0, "type": "electric_scooter", "lat": 38.91797, "bike_id": "bc52a5ca5a1f4d250c7a051e00bd8248", "is_reserved": 0, "lon": -77.040217, "rental_uris": {"android": "https://dc.lft.to/lastmile_qr_scan", "ios": "https://dc.lft.to/lastmile_qr_scan"}}, {"name": "d40f08336bf72854352c9459f7408a72", "is_disabled": 0, "fusion_lat": 0.0, "fusion_lon": 0.0, "type": "electric_scooter", "lat": 38.91923033333333, "bike_id": "d40f08336bf72854352c9459f7408a72", "is_reserved": 0, "lon": -77.0319545, "rental_uris": {"android": "https://dc.lft.to/lastmile_qr_scan", "ios": "https://dc.lft.to/lastmile_qr_scan"}}, {"name": "200bc1543a7511e414ba6d6b1d4a53ed", "is_disabled": 0, "fusion_lat": 0.0, "fusion_lon": 0.0, "type": "electric_scooter", "lat": 38.87674633333334, "bike_id": "200bc1543a7511e414ba6d6b1d4a53ed", "is_reserved": 0, "lon": -76.99819566666666, "rental_uris": {"android": "https://dc.lft.to/lastmile_qr_scan", "ios": "https://dc.lft.to/lastmile_qr_scan"}}, {"name": "53867978c184d8da7da67418bbc2144b", "is_disabled": 0, "fusion_lat": 0.0, "fusion_lon": 0.0, "type": "electric_bike", "lat": 38.902683333333336, "bike_id": "53867978c184d8da7da67418bbc2144b", "is_reserved": 0, "lon": -76.92931033333333, "rental_uris": {"android": "https://dc.lft.to/lastmile_qr_scan", "ios": "https://dc.lft.to/lastmile_qr_scan"}}, {"name": "e41647f1c1364c8292cddb49a63403fd", "is_disabled": 0, "fusion_lat": 0.0, "fusion_lon": 0.0, "type": "electric_scooter", "lat": 38.923407833333336, "bike_id": "e41647f1c1364c8292cddb49a63403fd", "is_reserved": 0, "lon": -77.041291, "rental_uris": {"android": "https://dc.lft.to/lastmile_qr_scan", "ios": "https://dc.lft.to/lastmile_qr_scan"}}, {"name": "978ab81da15b6fa380b812971bbfa271", "is_disabled": 0, "fusion_lat": 0.0, "fusion_lon": 0.0, "type": "electric_scooter", "lat": 38.89221883333333, "bike_id": "978ab81da15b6fa380b812971bbfa271", "is_reserved": 0, "lon": -77.04374866666667, "rental_uris": {"android": "https://dc.lft.to/lastmile_qr_scan", "ios": "https://dc.lft.to/lastmile_qr_scan"}}, {"name": "7c2b201b22f7f8638c408ceb2092f22f", "is_disabled": 0, "fusion_lat": 0.0, "fusion_lon": 0.0, "type": "electric_scooter", "lat": 38.89898916666667, "bike_id": "7c2b201b22f7f8638c408ceb2092f22f", "is_reserved": 0, "lon": -77.03291166666666, "rental_uris": {"android": "https://dc.lft.to/lastmile_qr_scan", "ios": "https://dc.lft.to/lastmile_qr_scan"}}, {"name": "48837ef73711558402f7a56fd17a559c", "is_disabled": 0, "fusion_lat": 0.0, "fusion_lon": 0.0, "type": "electric_scooter", "lat": 38.895909833333334, "bike_id": "48837ef73711558402f7a56fd17a559c", "is_reserved": 0, "lon": -77.0076425, "rental_uris": {"android": "https://dc.lft.to/lastmile_qr_scan", "ios": "https://dc.lft.to/lastmile_qr_scan"}}, {"name": "2963913d7455244dae254ed6c8203dbd", "is_disabled": 0, "fusion_lat": 0.0, "fusion_lon": 0.0, "type": "electric_scooter", "lat": 38.8896155, "bike_id": "2963913d7455244dae254ed6c8203dbd", "is_reserved": 0, "lon": -76.93707166666667, "rental_uris": {"android": "https://dc.lft.to/lastmile_qr_scan", "ios": "https://dc.lft.to/lastmile_qr_scan"}}, {"name": "575c99fb1d32e5bbad4a52bac6a02d70", "is_disabled": 0, "fusion_lat": 0.0, "fusion_lon": 0.0, "type": "electric_scooter", "lat": 38.92031333333333, "bike_id": "575c99fb1d32e5bbad4a52bac6a02d70", "is_reserved": 0, "lon": -77.04547616666666, "rental_uris": {"android": "https://dc.lft.to/lastmile_qr_scan", "ios": "https://dc.lft.to/lastmile_qr_scan"}}, {"name": "934960b2a2fe76fd579ab4f244b7f610", "is_disabled": 0, "fusion_lat": 0.0, "fusion_lon": 0.0, "type": "electric_scooter", "lat": 38.9498855, "bike_id": "934960b2a2fe76fd579ab4f244b7f610", "is_reserved": 0, "lon": -77.027032, "rental_uris": {"android": "https://dc.lft.to/lastmile_qr_scan", "ios": "https://dc.lft.to/lastmile_qr_scan"}}, {"name": "1e9d99d5fab216ee3d628a8d6ea22d32", "is_disabled": 0, "fusion_lat": 0.0, "fusion_lon": 0.0, "type": "electric_scooter", "lat": 38.90554733333333, "bike_id": "1e9d99d5fab216ee3d628a8d6ea22d32", "is_reserved": 0, "lon": -77.02941316666667, "rental_uris": {"android": "https://dc.lft.to/lastmile_qr_scan", "ios": "https://dc.lft.to/lastmile_qr_scan"}}, {"name": "804177af5275edc7d42af245b3d9e038", "is_disabled": 0, "fusion_lat": 0.0, "fusion_lon": 0.0, "type": "electric_scooter", "lat": 38.904069166666666, "bike_id": "804177af5275edc7d42af245b3d9e038", "is_reserved": 0, "lon": -76.97330233333334, "rental_uris": {"android": "https://dc.lft.to/lastmile_qr_scan", "ios": "https://dc.lft.to/lastmile_qr_scan"}}, {"name": "8deb354aeaaeb495b46b338ad544ccb3", "is_disabled": 0, "fusion_lat": 0.0, "fusion_lon": 0.0, "type": "electric_scooter", "lat": 38.91536583333333, "bike_id": "8deb354aeaaeb495b46b338ad544ccb3", "is_reserved": 0, "lon": -77.04493533333333, "rental_uris": {"android": "https://dc.lft.to/lastmile_qr_scan", "ios": "https://dc.lft.to/lastmile_qr_scan"}}, {"name": "5f8e4e7e6ee19f311ca23b1540ec78ba", "is_disabled": 0, "fusion_lat": 0.0, "fusion_lon": 0.0, "type": "electric_scooter", "lat": 38.884069833333335, "bike_id": "5f8e4e7e6ee19f311ca23b1540ec78ba", "is_reserved": 0, "lon": -77.02592516666667, "rental_uris": {"android": "https://dc.lft.to/lastmile_qr_scan", "ios": "https://dc.lft.to/lastmile_qr_scan"}}, {"name": "c36dbd544f41e3fa95909992c9ef89e1", "is_disabled": 0, "fusion_lat": 0.0, "fusion_lon": 0.0, "type": "electric_bike", "lat": 38.89684583333333, "bike_id": "c36dbd544f41e3fa95909992c9ef89e1", "is_reserved": 0, "lon": -77.03044616666666, "rental_uris": {"android": "https://dc.lft.to/lastmile_qr_scan", "ios": "https://dc.lft.to/lastmile_qr_scan"}}, {"name": "830a138064ea41ec8d09e9b589137416", "is_disabled": 0, "fusion_lat": 0.0, "fusion_lon": 0.0, "type": "electric_scooter", "lat": 38.97183916666667, "bike_id": "830a138064ea41ec8d09e9b589137416", "is_reserved": 0, "lon": -77.02677933333334, "rental_uris": {"android": "https://dc.lft.to/lastmile_qr_scan", "ios": "https://dc.lft.to/lastmile_qr_scan"}}, {"name": "f190963c140a2acbe466d99538f25750", "is_disabled": 0, "fusion_lat": 0.0, "fusion_lon": 0.0, "type": "electric_scooter", "lat": 38.892255666666664, "bike_id": "f190963c140a2acbe466d99538f25750", "is_reserved": 0, "lon": -77.03154283333333, "rental_uris": {"android": "https://dc.lft.to/lastmile_qr_scan", "ios": "https://dc.lft.to/lastmile_qr_scan"}}, {"name": "a0ce4bee8b0d88c149f8e5ef3884c153", "is_disabled": 0, "fusion_lat": 0.0, "fusion_lon": 0.0, "type": "electric_scooter", "lat": 38.918407, "bike_id": "a0ce4bee8b0d88c149f8e5ef3884c153", "is_reserved": 0, "lon": -77.05950766666666, "rental_uris": {"android": "https://dc.lft.to/lastmile_qr_scan", "ios": "https://dc.lft.to/lastmile_qr_scan"}}, {"name": "44cf869b7707c20e282cf0e5e9c8392c", "is_disabled": 0, "fusion_lat": 0.0, "fusion_lon": 0.0, "type": "electric_scooter", "lat": 38.89471016666667, "bike_id": "44cf869b7707c20e282cf0e5e9c8392c", "is_reserved": 0, "lon": -77.02307783333333, "rental_uris": {"android": "https://dc.lft.to/lastmile_qr_scan", "ios": "https://dc.lft.to/lastmile_qr_scan"}}, {"name": "e1d66931abf78cc4315e9f6834aebc88", "is_disabled": 0, "fusion_lat": 0.0, "fusion_lon": 0.0, "type": "electric_bike", "lat": 38.96136633333333, "bike_id": "e1d66931abf78cc4315e9f6834aebc88", "is_reserved": 0, "lon": -77.02370716666667, "rental_uris": {"android": "https://dc.lft.to/lastmile_qr_scan", "ios": "https://dc.lft.to/lastmile_qr_scan"}}, {"name": "6e81d0c22936abdeb811ddef438e38b7", "is_disabled": 0, "fusion_lat": 0.0, "fusion_lon": 0.0, "type": "electric_scooter", "lat": 38.902859666666664, "bike_id": "6e81d0c22936abdeb811ddef438e38b7", "is_reserved": 0, "lon": -77.03643866666667, "rental_uris": {"android": "https://dc.lft.to/lastmile_qr_scan", "ios": "https://dc.lft.to/lastmile_qr_scan"}}, {"name": "e81732ae13f754368a4cb973f970dfd3", "is_disabled": 0, "fusion_lat": 0.0, "fusion_lon": 0.0, "type": "electric_scooter", "lat": 38.91822533333333, "bike_id": "e81732ae13f754368a4cb973f970dfd3", "is_reserved": 0, "lon": -77.0345595, "rental_uris": {"android": "https://dc.lft.to/lastmile_qr_scan", "ios": "https://dc.lft.to/lastmile_qr_scan"}}, {"name": "63152b8b95cf66bc4b928a8eab5c025c", "is_disabled": 0, "fusion_lat": 0.0, "fusion_lon": 0.0, "type": "electric_bike", "lat": 38.89631983333334, "bike_id": "63152b8b95cf66bc4b928a8eab5c025c", "is_reserved": 0, "lon": -76.907326, "rental_uris": {"android": "https://dc.lft.to/lastmile_qr_scan", "ios": "https://dc.lft.to/lastmile_qr_scan"}}, {"name": "40c020a1c51ecf3692a348db7386bdd9", "is_disabled": 0, "fusion_lat": 0.0, "fusion_lon": 0.0, "type": "electric_scooter", "lat": 38.89511733333333, "bike_id": "40c020a1c51ecf3692a348db7386bdd9", "is_reserved": 0, "lon": -77.04679016666667, "rental_uris": {"android": "https://dc.lft.to/lastmile_qr_scan", "ios": "https://dc.lft.to/lastmile_qr_scan"}}, {"name": "845f4deeb4642b4bf2088bceebf90024", "is_disabled": 0, "fusion_lat": 0.0, "fusion_lon": 0.0, "type": "electric_scooter", "lat": 38.900577, "bike_id": "845f4deeb4642b4bf2088bceebf90024", "is_reserved": 0, "lon": -77.0290675, "rental_uris": {"android": "https://dc.lft.to/lastmile_qr_scan", "ios": "https://dc.lft.to/lastmile_qr_scan"}}, {"name": "68998ff74dd66caa9149cd23448b25a2", "is_disabled": 0, "fusion_lat": 0.0, "fusion_lon": 0.0, "type": "electric_scooter", "lat": 38.8853285, "bike_id": "68998ff74dd66caa9149cd23448b25a2", "is_reserved": 0, "lon": -76.98271783333334, "rental_uris": {"android": "https://dc.lft.to/lastmile_qr_scan", "ios": "https://dc.lft.to/lastmile_qr_scan"}}, {"name": "7d9eacf850d8320ce9a2db48893aae56", "is_disabled": 0, "fusion_lat": 0.0, "fusion_lon": 0.0, "type": "electric_scooter", "lat": 38.897319, "bike_id": "7d9eacf850d8320ce9a2db48893aae56", "is_reserved": 0, "lon": -77.05576583333334, "rental_uris": {"android": "https://dc.lft.to/lastmile_qr_scan", "ios": "https://dc.lft.to/lastmile_qr_scan"}}, {"name": "46ed52fa3f708fd0bb6bd20ed7a38777", "is_disabled": 0, "fusion_lat": 0.0, "fusion_lon": 0.0, "type": "electric_scooter", "lat": 38.90737283333333, "bike_id": "46ed52fa3f708fd0bb6bd20ed7a38777", "is_reserved": 0, "lon": -77.02799316666666, "rental_uris": {"android": "https://dc.lft.to/lastmile_qr_scan", "ios": "https://dc.lft.to/lastmile_qr_scan"}}, {"name": "efa40997eca54847dbc031abad48780f", "is_disabled": 0, "fusion_lat": 0.0, "fusion_lon": 0.0, "type": "electric_scooter", "lat": 38.922685666666666, "bike_id": "efa40997eca54847dbc031abad48780f", "is_reserved": 0, "lon": -77.0218295, "rental_uris": {"android": "https://dc.lft.to/lastmile_qr_scan", "ios": "https://dc.lft.to/lastmile_qr_scan"}}, {"name": "ff00c6ba01db6797e390800ffa359b7b", "is_disabled": 0, "fusion_lat": 0.0, "fusion_lon": 0.0, "type": "electric_scooter", "lat": 38.919051333333336, "bike_id": "ff00c6ba01db6797e390800ffa359b7b", "is_reserved": 0, "lon": -77.01993383333334, "rental_uris": {"android": "https://dc.lft.to/lastmile_qr_scan", "ios": "https://dc.lft.to/lastmile_qr_scan"}}, {"name": "1eb7fb3247e580b288bdc0fc0272c76e", "is_disabled": 0, "fusion_lat": 0.0, "fusion_lon": 0.0, "type": "electric_scooter", "lat": 38.89739183333333, "bike_id": "1eb7fb3247e580b288bdc0fc0272c76e", "is_reserved": 0, "lon": -77.03349, "rental_uris": {"android": "https://dc.lft.to/lastmile_qr_scan", "ios": "https://dc.lft.to/lastmile_qr_scan"}}, {"name": "763a767f87e6d03cb96934e6a4de933a", "is_disabled": 0, "fusion_lat": 0.0, "fusion_lon": 0.0, "type": "electric_scooter", "lat": 38.917056, "bike_id": "763a767f87e6d03cb96934e6a4de933a", "is_reserved": 0, "lon": -77.04146216666666, "rental_uris": {"android": "https://dc.lft.to/lastmile_qr_scan", "ios": "https://dc.lft.to/lastmile_qr_scan"}}, {"name": "9925be20ee43b59284caea0af1a07474", "is_disabled": 0, "fusion_lat": 0.0, "fusion_lon": 0.0, "type": "electric_scooter", "lat": 38.92511783333333, "bike_id": "9925be20ee43b59284caea0af1a07474", "is_reserved": 0, "lon": -77.052551, "rental_uris": {"android": "https://dc.lft.to/lastmile_qr_scan", "ios": "https://dc.lft.to/lastmile_qr_scan"}}, {"name": "9e8a6d17438f5e286a05c8e269fbd29e", "is_disabled": 0, "fusion_lat": 0.0, "fusion_lon": 0.0, "type": "electric_scooter", "lat": 38.90234483333333, "bike_id": "9e8a6d17438f5e286a05c8e269fbd29e", "is_reserved": 0, "lon": -77.04351033333333, "rental_uris": {"android": "https://dc.lft.to/lastmile_qr_scan", "ios": "https://dc.lft.to/lastmile_qr_scan"}}, {"name": "d2728d19a47ede7d2dd55d5942657f0f", "is_disabled": 0, "fusion_lat": 0.0, "fusion_lon": 0.0, "type": "electric_scooter", "lat": 38.92297383333333, "bike_id": "d2728d19a47ede7d2dd55d5942657f0f", "is_reserved": 0, "lon": -77.042994, "rental_uris": {"android": "https://dc.lft.to/lastmile_qr_scan", "ios": "https://dc.lft.to/lastmile_qr_scan"}}, {"name": "5113aee5caa5bbd8819b4b8d45de72df", "is_disabled": 0, "fusion_lat": 0.0, "fusion_lon": 0.0, "type": "electric_scooter", "lat": 38.896182, "bike_id": "5113aee5caa5bbd8819b4b8d45de72df", "is_reserved": 0, "lon": -76.98162266666667, "rental_uris": {"android": "https://dc.lft.to/lastmile_qr_scan", "ios": "https://dc.lft.to/lastmile_qr_scan"}}, {"name": "d396c1ae1ee69617661f66bb9bdfce56", "is_disabled": 0, "fusion_lat": 0.0, "fusion_lon": 0.0, "type": "electric_scooter", "lat": 38.92501216666667, "bike_id": "d396c1ae1ee69617661f66bb9bdfce56", "is_reserved": 0, "lon": -77.02361533333334, "rental_uris": {"android": "https://dc.lft.to/lastmile_qr_scan", "ios": "https://dc.lft.to/lastmile_qr_scan"}}, {"name": "fe9bc60f2cd55bb4abb3b60a25448252", "is_disabled": 0, "fusion_lat": 0.0, "fusion_lon": 0.0, "type": "electric_scooter", "lat": 38.902193833333335, "bike_id": "fe9bc60f2cd55bb4abb3b60a25448252", "is_reserved": 0, "lon": -77.028641, "rental_uris": {"android": "https://dc.lft.to/lastmile_qr_scan", "ios": "https://dc.lft.to/lastmile_qr_scan"}}, {"name": "ca40d59697925133c16f12a7bf409568", "is_disabled": 0, "fusion_lat": 0.0, "fusion_lon": 0.0, "type": "electric_scooter", "lat": 38.883908166666664, "bike_id": "ca40d59697925133c16f12a7bf409568", "is_reserved": 0, "lon": -76.95448433333334, "rental_uris": {"android": "https://dc.lft.to/lastmile_qr_scan", "ios": "https://dc.lft.to/lastmile_qr_scan"}}, {"name": "876b26ae9d608e2374995b43655721ce", "is_disabled": 0, "fusion_lat": 0.0, "fusion_lon": 0.0, "type": "electric_scooter", "lat": 38.90211866666667, "bike_id": "876b26ae9d608e2374995b43655721ce", "is_reserved": 0, "lon": -77.04652766666666, "rental_uris": {"android": "https://dc.lft.to/lastmile_qr_scan", "ios": "https://dc.lft.to/lastmile_qr_scan"}}, {"name": "b3fbff8fe83e1914fd5686a5b9bd7f64", "is_disabled": 0, "fusion_lat": 0.0, "fusion_lon": 0.0, "type": "electric_scooter", "lat": 38.893013, "bike_id": "b3fbff8fe83e1914fd5686a5b9bd7f64", "is_reserved": 0, "lon": -76.9982245, "rental_uris": {"android": "https://dc.lft.to/lastmile_qr_scan", "ios": "https://dc.lft.to/lastmile_qr_scan"}}, {"name": "ad3e11abc36c29cfc733e6fc803e8ac4", "is_disabled": 0, "fusion_lat": 0.0, "fusion_lon": 0.0, "type": "electric_scooter", "lat": 38.922944, "bike_id": "ad3e11abc36c29cfc733e6fc803e8ac4", "is_reserved": 0, "lon": -77.04265766666667, "rental_uris": {"android": "https://dc.lft.to/lastmile_qr_scan", "ios": "https://dc.lft.to/lastmile_qr_scan"}}, {"name": "a04e11bff81363587ae6a9a35afd2fea", "is_disabled": 0, "fusion_lat": 0.0, "fusion_lon": 0.0, "type": "electric_scooter", "lat": 38.95178933333333, "bike_id": "a04e11bff81363587ae6a9a35afd2fea", "is_reserved": 0, "lon": -77.02614633333333, "rental_uris": {"android": "https://dc.lft.to/lastmile_qr_scan", "ios": "https://dc.lft.to/lastmile_qr_scan"}}, {"name": "24d42a8ad8307f08cec769da3c7ac0b6", "is_disabled": 0, "fusion_lat": 0.0, "fusion_lon": 0.0, "type": "electric_scooter", "lat": 38.8847905, "bike_id": "24d42a8ad8307f08cec769da3c7ac0b6", "is_reserved": 0, "lon": -77.0265345, "rental_uris": {"android": "https://dc.lft.to/lastmile_qr_scan", "ios": "https://dc.lft.to/lastmile_qr_scan"}}, {"name": "95ccdc901a32143012fa1554495c99e1", "is_disabled": 0, "fusion_lat": 0.0, "fusion_lon": 0.0, "type": "electric_scooter", "lat": 38.918201, "bike_id": "95ccdc901a32143012fa1554495c99e1", "is_reserved": 0, "lon": -77.0325605, "rental_uris": {"android": "https://dc.lft.to/lastmile_qr_scan", "ios": "https://dc.lft.to/lastmile_qr_scan"}}, {"name": "18167571f3d0ac71e14158594399bf2d", "is_disabled": 0, "fusion_lat": 0.0, "fusion_lon": 0.0, "type": "electric_scooter", "lat": 38.907495, "bike_id": "18167571f3d0ac71e14158594399bf2d", "is_reserved": 0, "lon": -77.030656, "rental_uris": {"android": "https://dc.lft.to/lastmile_qr_scan", "ios": "https://dc.lft.to/lastmile_qr_scan"}}, {"name": "4081b7f5c01a24c3c74c05cbdae0b160", "is_disabled": 0, "fusion_lat": 0.0, "fusion_lon": 0.0, "type": "electric_scooter", "lat": 38.89364, "bike_id": "4081b7f5c01a24c3c74c05cbdae0b160", "is_reserved": 0, "lon": -77.05495733333333, "rental_uris": {"android": "https://dc.lft.to/lastmile_qr_scan", "ios": "https://dc.lft.to/lastmile_qr_scan"}}, {"name": "96daedcce4c99b0220987cd69bd5d9ba", "is_disabled": 0, "fusion_lat": 0.0, "fusion_lon": 0.0, "type": "electric_scooter", "lat": 38.89792883333333, "bike_id": "96daedcce4c99b0220987cd69bd5d9ba", "is_reserved": 0, "lon": -77.02473466666666, "rental_uris": {"android": "https://dc.lft.to/lastmile_qr_scan", "ios": "https://dc.lft.to/lastmile_qr_scan"}}, {"name": "582cd4c00be1fcbe9baea931f345718a", "is_disabled": 0, "fusion_lat": 0.0, "fusion_lon": 0.0, "type": "electric_scooter", "lat": 38.9078075, "bike_id": "582cd4c00be1fcbe9baea931f345718a", "is_reserved": 0, "lon": -77.03827866666667, "rental_uris": {"android": "https://dc.lft.to/lastmile_qr_scan", "ios": "https://dc.lft.to/lastmile_qr_scan"}}, {"name": "5055757862e61cae5103ccb9dd6f7a08", "is_disabled": 0, "fusion_lat": 0.0, "fusion_lon": 0.0, "type": "electric_scooter", "lat": 38.901171166666664, "bike_id": "5055757862e61cae5103ccb9dd6f7a08", "is_reserved": 0, "lon": -77.039975, "rental_uris": {"android": "https://dc.lft.to/lastmile_qr_scan", "ios": "https://dc.lft.to/lastmile_qr_scan"}}, {"name": "da44a157ab0bd7f7eba6269c23681b4a", "is_disabled": 0, "fusion_lat": 0.0, "fusion_lon": 0.0, "type": "electric_scooter", "lat": 38.866817, "bike_id": "da44a157ab0bd7f7eba6269c23681b4a", "is_reserved": 0, "lon": -76.98610983333333, "rental_uris": {"android": "https://dc.lft.to/lastmile_qr_scan", "ios": "https://dc.lft.to/lastmile_qr_scan"}}, {"name": "d29ae3263118779b778b5cb9a9e52601", "is_disabled": 0, "fusion_lat": 0.0, "fusion_lon": 0.0, "type": "electric_scooter", "lat": 38.8987905, "bike_id": "d29ae3263118779b778b5cb9a9e52601", "is_reserved": 0, "lon": -76.9318705, "rental_uris": {"android": "https://dc.lft.to/lastmile_qr_scan", "ios": "https://dc.lft.to/lastmile_qr_scan"}}, {"name": "4c2fc6a30ee51df44b1147a6ca0e7329", "is_disabled": 0, "fusion_lat": 0.0, "fusion_lon": 0.0, "type": "electric_bike", "lat": 38.83791766666667, "bike_id": "4c2fc6a30ee51df44b1147a6ca0e7329", "is_reserved": 0, "lon": -76.9975335, "rental_uris": {"android": "https://dc.lft.to/lastmile_qr_scan", "ios": "https://dc.lft.to/lastmile_qr_scan"}}, {"name": "121644d8e0e8ea106fbbb3807da52184", "is_disabled": 0, "fusion_lat": 0.0, "fusion_lon": 0.0, "type": "electric_scooter", "lat": 38.91549883333333, "bike_id": "121644d8e0e8ea106fbbb3807da52184", "is_reserved": 0, "lon": -77.02366233333333, "rental_uris": {"android": "https://dc.lft.to/lastmile_qr_scan", "ios": "https://dc.lft.to/lastmile_qr_scan"}}, {"name": "73705ed01c47978b397a355d084774ae", "is_disabled": 0, "fusion_lat": 0.0, "fusion_lon": 0.0, "type": "electric_scooter", "lat": 38.90011333333333, "bike_id": "73705ed01c47978b397a355d084774ae", "is_reserved": 0, "lon": -76.99851766666667, "rental_uris": {"android": "https://dc.lft.to/lastmile_qr_scan", "ios": "https://dc.lft.to/lastmile_qr_scan"}}, {"name": "9ce7e6182ef8773c1482f5ebec73ed9e", "is_disabled": 0, "fusion_lat": 0.0, "fusion_lon": 0.0, "type": "electric_scooter", "lat": 38.879531666666665, "bike_id": "9ce7e6182ef8773c1482f5ebec73ed9e", "is_reserved": 0, "lon": -77.00671216666667, "rental_uris": {"android": "https://dc.lft.to/lastmile_qr_scan", "ios": "https://dc.lft.to/lastmile_qr_scan"}}, {"name": "dec6fe8dee684d05a224dccd2e53a3be", "is_disabled": 0, "fusion_lat": 0.0, "fusion_lon": 0.0, "type": "electric_scooter", "lat": 38.91027883333334, "bike_id": "dec6fe8dee684d05a224dccd2e53a3be", "is_reserved": 0, "lon": -76.99340583333333, "rental_uris": {"android": "https://dc.lft.to/lastmile_qr_scan", "ios": "https://dc.lft.to/lastmile_qr_scan"}}, {"name": "0dc00d96a3db31ed04bae1d09d9cd42a", "is_disabled": 0, "fusion_lat": 0.0, "fusion_lon": 0.0, "type": "electric_scooter", "lat": 38.90237483333333, "bike_id": "0dc00d96a3db31ed04bae1d09d9cd42a", "is_reserved": 0, "lon": -77.02696833333333, "rental_uris": {"android": "https://dc.lft.to/lastmile_qr_scan", "ios": "https://dc.lft.to/lastmile_qr_scan"}}, {"name": "587704a9105bceef022e64237289de65", "is_disabled": 0, "fusion_lat": 0.0, "fusion_lon": 0.0, "type": "electric_scooter", "lat": 38.914860166666664, "bike_id": "587704a9105bceef022e64237289de65", "is_reserved": 0, "lon": -77.0408975, "rental_uris": {"android": "https://dc.lft.to/lastmile_qr_scan", "ios": "https://dc.lft.to/lastmile_qr_scan"}}, {"name": "653a61f03f06c6cdba24ca4234269ee2", "is_disabled": 0, "fusion_lat": 0.0, "fusion_lon": 0.0, "type": "electric_scooter", "lat": 38.932495833333334, "bike_id": "653a61f03f06c6cdba24ca4234269ee2", "is_reserved": 0, "lon": -77.02858483333333, "rental_uris": {"android": "https://dc.lft.to/lastmile_qr_scan", "ios": "https://dc.lft.to/lastmile_qr_scan"}}, {"name": "fe176daa8bc2739250e4e68a0b3f0261", "is_disabled": 0, "fusion_lat": 0.0, "fusion_lon": 0.0, "type": "electric_scooter", "lat": 38.92866433333333, "bike_id": "fe176daa8bc2739250e4e68a0b3f0261", "is_reserved": 0, "lon": -77.0329145, "rental_uris": {"android": "https://dc.lft.to/lastmile_qr_scan", "ios": "https://dc.lft.to/lastmile_qr_scan"}}, {"name": "733c3747e7fb707d3fb8e5345fd8b38d", "is_disabled": 0, "fusion_lat": 0.0, "fusion_lon": 0.0, "type": "electric_bike", "lat": 38.95328533333333, "bike_id": "733c3747e7fb707d3fb8e5345fd8b38d", "is_reserved": 0, "lon": -76.95434433333334, "rental_uris": {"android": "https://dc.lft.to/lastmile_qr_scan", "ios": "https://dc.lft.to/lastmile_qr_scan"}}, {"name": "fc9c67ea8d5d7ef1011d86812b5fb944", "is_disabled": 0, "fusion_lat": 0.0, "fusion_lon": 0.0, "type": "electric_scooter", "lat": 38.894318, "bike_id": "fc9c67ea8d5d7ef1011d86812b5fb944", "is_reserved": 0, "lon": -77.03999183333333, "rental_uris": {"android": "https://dc.lft.to/lastmile_qr_scan", "ios": "https://dc.lft.to/lastmile_qr_scan"}}, {"name": "d609154c3f3e834af98372da67e41602", "is_disabled": 0, "fusion_lat": 0.0, "fusion_lon": 0.0, "type": "electric_scooter", "lat": 38.90490966666667, "bike_id": "d609154c3f3e834af98372da67e41602", "is_reserved": 0, "lon": -76.98720066666667, "rental_uris": {"android": "https://dc.lft.to/lastmile_qr_scan", "ios": "https://dc.lft.to/lastmile_qr_scan"}}, {"name": "315dc6710cf2837791e8a07daf4fcdc4", "is_disabled": 0, "fusion_lat": 0.0, "fusion_lon": 0.0, "type": "electric_scooter", "lat": 38.921648, "bike_id": "315dc6710cf2837791e8a07daf4fcdc4", "is_reserved": 0, "lon": -77.0337315, "rental_uris": {"android": "https://dc.lft.to/lastmile_qr_scan", "ios": "https://dc.lft.to/lastmile_qr_scan"}}, {"name": "5e87bf73cfe40416ca58050fd4a18ad3", "is_disabled": 0, "fusion_lat": 0.0, "fusion_lon": 0.0, "type": "electric_bike", "lat": 38.9322695, "bike_id": "5e87bf73cfe40416ca58050fd4a18ad3", "is_reserved": 0, "lon": -77.1812125, "rental_uris": {"android": "https://dc.lft.to/lastmile_qr_scan", "ios": "https://dc.lft.to/lastmile_qr_scan"}}, {"name": "92bc995067a6e7d6fb55dae9fed663c6", "is_disabled": 0, "fusion_lat": 0.0, "fusion_lon": 0.0, "type": "electric_scooter", "lat": 38.897321166666664, "bike_id": "92bc995067a6e7d6fb55dae9fed663c6", "is_reserved": 0, "lon": -77.02978066666667, "rental_uris": {"android": "https://dc.lft.to/lastmile_qr_scan", "ios": "https://dc.lft.to/lastmile_qr_scan"}}, {"name": "5fd445b669677123dd47af7dcd868d23", "is_disabled": 0, "fusion_lat": 0.0, "fusion_lon": 0.0, "type": "electric_scooter", "lat": 38.9072055, "bike_id": "5fd445b669677123dd47af7dcd868d23", "is_reserved": 0, "lon": -77.04338966666667, "rental_uris": {"android": "https://dc.lft.to/lastmile_qr_scan", "ios": "https://dc.lft.to/lastmile_qr_scan"}}, {"name": "22888761ae22a2349d2490437bfa73a3", "is_disabled": 0, "fusion_lat": 0.0, "fusion_lon": 0.0, "type": "electric_scooter", "lat": 38.9176965, "bike_id": "22888761ae22a2349d2490437bfa73a3", "is_reserved": 0, "lon": -77.04063216666667, "rental_uris": {"android": "https://dc.lft.to/lastmile_qr_scan", "ios": "https://dc.lft.to/lastmile_qr_scan"}}, {"name": "8dbd0c3375fa1b3693fa841fe6b31e59", "is_disabled": 0, "fusion_lat": 0.0, "fusion_lon": 0.0, "type": "electric_scooter", "lat": 38.926239833333334, "bike_id": "8dbd0c3375fa1b3693fa841fe6b31e59", "is_reserved": 0, "lon": -77.04324833333334, "rental_uris": {"android": "https://dc.lft.to/lastmile_qr_scan", "ios": "https://dc.lft.to/lastmile_qr_scan"}}, {"name": "3c7de87fd5cf243fad9ee91c63845480", "is_disabled": 0, "fusion_lat": 0.0, "fusion_lon": 0.0, "type": "electric_scooter", "lat": 38.90005283333333, "bike_id": "3c7de87fd5cf243fad9ee91c63845480", "is_reserved": 0, "lon": -77.04140083333333, "rental_uris": {"android": "https://dc.lft.to/lastmile_qr_scan", "ios": "https://dc.lft.to/lastmile_qr_scan"}}, {"name": "a01ef9ffaeb0e7a8f2875f2d1295f9cc", "is_disabled": 0, "fusion_lat": 0.0, "fusion_lon": 0.0, "type": "electric_scooter", "lat": 38.91635216666667, "bike_id": "a01ef9ffaeb0e7a8f2875f2d1295f9cc", "is_reserved": 0, "lon": -77.047937, "rental_uris": {"android": "https://dc.lft.to/lastmile_qr_scan", "ios": "https://dc.lft.to/lastmile_qr_scan"}}, {"name": "b3178d0d7dcdabcd47eb892015f8c714", "is_disabled": 0, "fusion_lat": 0.0, "fusion_lon": 0.0, "type": "electric_scooter", "lat": 38.885019666666665, "bike_id": "b3178d0d7dcdabcd47eb892015f8c714", "is_reserved": 0, "lon": -77.00566133333334, "rental_uris": {"android": "https://dc.lft.to/lastmile_qr_scan", "ios": "https://dc.lft.to/lastmile_qr_scan"}}, {"name": "c0615d45204afb25f48028820783a007", "is_disabled": 0, "fusion_lat": 0.0, "fusion_lon": 0.0, "type": "electric_scooter", "lat": 38.93674933333333, "bike_id": "c0615d45204afb25f48028820783a007", "is_reserved": 0, "lon": -77.03590783333334, "rental_uris": {"android": "https://dc.lft.to/lastmile_qr_scan", "ios": "https://dc.lft.to/lastmile_qr_scan"}}, {"name": "4507eb870daa8646219b55a28e9f8f16", "is_disabled": 0, "fusion_lat": 0.0, "fusion_lon": 0.0, "type": "electric_scooter", "lat": 38.93034466666667, "bike_id": "4507eb870daa8646219b55a28e9f8f16", "is_reserved": 0, "lon": -77.012971, "rental_uris": {"android": "https://dc.lft.to/lastmile_qr_scan", "ios": "https://dc.lft.to/lastmile_qr_scan"}}, {"name": "7acada2b6ee8b36d118c84124d29329c", "is_disabled": 0, "fusion_lat": 0.0, "fusion_lon": 0.0, "type": "electric_scooter", "lat": 38.915234833333336, "bike_id": "7acada2b6ee8b36d118c84124d29329c", "is_reserved": 0, "lon": -77.027028, "rental_uris": {"android": "https://dc.lft.to/lastmile_qr_scan", "ios": "https://dc.lft.to/lastmile_qr_scan"}}, {"name": "fca9026064101f4c9a4616163fee5e5f", "is_disabled": 0, "fusion_lat": 0.0, "fusion_lon": 0.0, "type": "electric_scooter", "lat": 38.8787885, "bike_id": "fca9026064101f4c9a4616163fee5e5f", "is_reserved": 0, "lon": -77.0232285, "rental_uris": {"android": "https://dc.lft.to/lastmile_qr_scan", "ios": "https://dc.lft.to/lastmile_qr_scan"}}, {"name": "613172513f900003af4729d1dac31a3f", "is_disabled": 0, "fusion_lat": 0.0, "fusion_lon": 0.0, "type": "electric_scooter", "lat": 38.90711566666667, "bike_id": "613172513f900003af4729d1dac31a3f", "is_reserved": 0, "lon": -77.0437055, "rental_uris": {"android": "https://dc.lft.to/lastmile_qr_scan", "ios": "https://dc.lft.to/lastmile_qr_scan"}}, {"name": "796bc28f19784bf5b3ae82948bf52607", "is_disabled": 0, "fusion_lat": 0.0, "fusion_lon": 0.0, "type": "electric_scooter", "lat": 38.924781333333335, "bike_id": "796bc28f19784bf5b3ae82948bf52607", "is_reserved": 0, "lon": -77.03501016666667, "rental_uris": {"android": "https://dc.lft.to/lastmile_qr_scan", "ios": "https://dc.lft.to/lastmile_qr_scan"}}, {"name": "f28359b0d84e4a80ea6ee182ed13ced6", "is_disabled": 0, "fusion_lat": 0.0, "fusion_lon": 0.0, "type": "electric_scooter", "lat": 38.900194, "bike_id": "f28359b0d84e4a80ea6ee182ed13ced6", "is_reserved": 0, "lon": -77.01194533333333, "rental_uris": {"android": "https://dc.lft.to/lastmile_qr_scan", "ios": "https://dc.lft.to/lastmile_qr_scan"}}, {"name": "14fc4e15f69c0dd06f4e131a7e0ecae2", "is_disabled": 0, "fusion_lat": 0.0, "fusion_lon": 0.0, "type": "electric_scooter", "lat": 38.92039333333334, "bike_id": "14fc4e15f69c0dd06f4e131a7e0ecae2", "is_reserved": 0, "lon": -77.025881, "rental_uris": {"android": "https://dc.lft.to/lastmile_qr_scan", "ios": "https://dc.lft.to/lastmile_qr_scan"}}, {"name": "c5cca9f8aed67485572f7b927e97cda2", "is_disabled": 0, "fusion_lat": 0.0, "fusion_lon": 0.0, "type": "electric_scooter", "lat": 38.8988115, "bike_id": "c5cca9f8aed67485572f7b927e97cda2", "is_reserved": 0, "lon": -77.0326875, "rental_uris": {"android": "https://dc.lft.to/lastmile_qr_scan", "ios": "https://dc.lft.to/lastmile_qr_scan"}}, {"name": "b84a304df10fe2c57421632888cc08a4", "is_disabled": 0, "fusion_lat": 0.0, "fusion_lon": 0.0, "type": "electric_scooter", "lat": 38.892190666666664, "bike_id": "b84a304df10fe2c57421632888cc08a4", "is_reserved": 0, "lon": -77.0450795, "rental_uris": {"android": "https://dc.lft.to/lastmile_qr_scan", "ios": "https://dc.lft.to/lastmile_qr_scan"}}, {"name": "ee976a393c6b9e7146766fc5f1e01bc2", "is_disabled": 0, "fusion_lat": 0.0, "fusion_lon": 0.0, "type": "electric_scooter", "lat": 38.92220733333333, "bike_id": "ee976a393c6b9e7146766fc5f1e01bc2", "is_reserved": 0, "lon": -77.07309216666667, "rental_uris": {"android": "https://dc.lft.to/lastmile_qr_scan", "ios": "https://dc.lft.to/lastmile_qr_scan"}}, {"name": "8d6c8e6e477a8662cafca9f0b5d8053a", "is_disabled": 0, "fusion_lat": 0.0, "fusion_lon": 0.0, "type": "electric_scooter", "lat": 38.87941333333333, "bike_id": "8d6c8e6e477a8662cafca9f0b5d8053a", "is_reserved": 0, "lon": -77.00912216666667, "rental_uris": {"android": "https://dc.lft.to/lastmile_qr_scan", "ios": "https://dc.lft.to/lastmile_qr_scan"}}, {"name": "a3170da6b22cffc70339377ca15db4f4", "is_disabled": 0, "fusion_lat": 0.0, "fusion_lon": 0.0, "type": "electric_scooter", "lat": 38.908318333333334, "bike_id": "a3170da6b22cffc70339377ca15db4f4", "is_reserved": 0, "lon": -77.009146, "rental_uris": {"android": "https://dc.lft.to/lastmile_qr_scan", "ios": "https://dc.lft.to/lastmile_qr_scan"}}, {"name": "c8ca03ba25ad9831dfb6d1bcc9fd5ed0", "is_disabled": 0, "fusion_lat": 0.0, "fusion_lon": 0.0, "type": "electric_scooter", "lat": 38.95229633333334, "bike_id": "c8ca03ba25ad9831dfb6d1bcc9fd5ed0", "is_reserved": 0, "lon": -77.01426516666666, "rental_uris": {"android": "https://dc.lft.to/lastmile_qr_scan", "ios": "https://dc.lft.to/lastmile_qr_scan"}}, {"name": "9a5167a617d136dfa3cae0ac59bf8382", "is_disabled": 0, "fusion_lat": 0.0, "fusion_lon": 0.0, "type": "electric_scooter", "lat": 38.900695, "bike_id": "9a5167a617d136dfa3cae0ac59bf8382", "is_reserved": 0, "lon": -77.04617833333333, "rental_uris": {"android": "https://dc.lft.to/lastmile_qr_scan", "ios": "https://dc.lft.to/lastmile_qr_scan"}}, {"name": "160f9cbf76c377e3cf15e887e69328e5", "is_disabled": 0, "fusion_lat": 0.0, "fusion_lon": 0.0, "type": "electric_scooter", "lat": 38.90338883333333, "bike_id": "160f9cbf76c377e3cf15e887e69328e5", "is_reserved": 0, "lon": -76.97584133333334, "rental_uris": {"android": "https://dc.lft.to/lastmile_qr_scan", "ios": "https://dc.lft.to/lastmile_qr_scan"}}, {"name": "6dbee206bb4446c29a36da5bee17b527", "is_disabled": 0, "fusion_lat": 0.0, "fusion_lon": 0.0, "type": "electric_scooter", "lat": 38.89962966666667, "bike_id": "6dbee206bb4446c29a36da5bee17b527", "is_reserved": 0, "lon": -77.033512, "rental_uris": {"android": "https://dc.lft.to/lastmile_qr_scan", "ios": "https://dc.lft.to/lastmile_qr_scan"}}, {"name": "a480e5bfde4c346c15287e45fa51b40b", "is_disabled": 0, "fusion_lat": 0.0, "fusion_lon": 0.0, "type": "electric_scooter", "lat": 38.89914816666667, "bike_id": "a480e5bfde4c346c15287e45fa51b40b", "is_reserved": 0, "lon": -76.9337985, "rental_uris": {"android": "https://dc.lft.to/lastmile_qr_scan", "ios": "https://dc.lft.to/lastmile_qr_scan"}}, {"name": "1e31ba69f28f3ad86cbdf35cce762d5f", "is_disabled": 0, "fusion_lat": 0.0, "fusion_lon": 0.0, "type": "electric_scooter", "lat": 38.92292283333333, "bike_id": "1e31ba69f28f3ad86cbdf35cce762d5f", "is_reserved": 0, "lon": -77.04266166666666, "rental_uris": {"android": "https://dc.lft.to/lastmile_qr_scan", "ios": "https://dc.lft.to/lastmile_qr_scan"}}, {"name": "384c0e7b0520ea039e4a4a238cf10215", "is_disabled": 0, "fusion_lat": 0.0, "fusion_lon": 0.0, "type": "electric_scooter", "lat": 38.907869833333336, "bike_id": "384c0e7b0520ea039e4a4a238cf10215", "is_reserved": 0, "lon": -77.03203533333334, "rental_uris": {"android": "https://dc.lft.to/lastmile_qr_scan", "ios": "https://dc.lft.to/lastmile_qr_scan"}}, {"name": "5529c313950503774a4d892525c2e50b", "is_disabled": 0, "fusion_lat": 0.0, "fusion_lon": 0.0, "type": "electric_scooter", "lat": 38.918702833333334, "bike_id": "5529c313950503774a4d892525c2e50b", "is_reserved": 0, "lon": -77.04447066666667, "rental_uris": {"android": "https://dc.lft.to/lastmile_qr_scan", "ios": "https://dc.lft.to/lastmile_qr_scan"}}, {"name": "37cdba556cdfc162e209ef71f8bbff7b", "is_disabled": 0, "fusion_lat": 0.0, "fusion_lon": 0.0, "type": "electric_scooter", "lat": 38.90265266666667, "bike_id": "37cdba556cdfc162e209ef71f8bbff7b", "is_reserved": 0, "lon": -77.01759666666666, "rental_uris": {"android": "https://dc.lft.to/lastmile_qr_scan", "ios": "https://dc.lft.to/lastmile_qr_scan"}}, {"name": "5261a535987e5723d65ca41f50419be9", "is_disabled": 0, "fusion_lat": 0.0, "fusion_lon": 0.0, "type": "electric_bike", "lat": 38.88291016666667, "bike_id": "5261a535987e5723d65ca41f50419be9", "is_reserved": 0, "lon": -77.17192633333333, "rental_uris": {"android": "https://dc.lft.to/lastmile_qr_scan", "ios": "https://dc.lft.to/lastmile_qr_scan"}}, {"name": "a7361aa87c6d515cf57fbe8fbad0a680", "is_disabled": 0, "fusion_lat": 0.0, "fusion_lon": 0.0, "type": "electric_scooter", "lat": 38.90238683333333, "bike_id": "a7361aa87c6d515cf57fbe8fbad0a680", "is_reserved": 0, "lon": -77.03325583333333, "rental_uris": {"android": "https://dc.lft.to/lastmile_qr_scan", "ios": "https://dc.lft.to/lastmile_qr_scan"}}, {"name": "6ed4eb09a45b125b8e2e2d7d2b95c18a", "is_disabled": 0, "fusion_lat": 0.0, "fusion_lon": 0.0, "type": "electric_scooter", "lat": 38.89932833333334, "bike_id": "6ed4eb09a45b125b8e2e2d7d2b95c18a", "is_reserved": 0, "lon": -76.94578233333333, "rental_uris": {"android": "https://dc.lft.to/lastmile_qr_scan", "ios": "https://dc.lft.to/lastmile_qr_scan"}}, {"name": "0d6a4c91a54a9c09c84ec1a1f69f5a97", "is_disabled": 0, "fusion_lat": 0.0, "fusion_lon": 0.0, "type": "electric_scooter", "lat": 38.90003883333333, "bike_id": "0d6a4c91a54a9c09c84ec1a1f69f5a97", "is_reserved": 0, "lon": -77.03357566666666, "rental_uris": {"android": "https://dc.lft.to/lastmile_qr_scan", "ios": "https://dc.lft.to/lastmile_qr_scan"}}, {"name": "195a3f37c869e9d31c202a7d147a4321", "is_disabled": 0, "fusion_lat": 0.0, "fusion_lon": 0.0, "type": "electric_scooter", "lat": 38.8922205, "bike_id": "195a3f37c869e9d31c202a7d147a4321", "is_reserved": 0, "lon": -77.0128835, "rental_uris": {"android": "https://dc.lft.to/lastmile_qr_scan", "ios": "https://dc.lft.to/lastmile_qr_scan"}}, {"name": "faab625e23b7abc0397aebafab7588a1", "is_disabled": 0, "fusion_lat": 0.0, "fusion_lon": 0.0, "type": "electric_scooter", "lat": 38.93235966666667, "bike_id": "faab625e23b7abc0397aebafab7588a1", "is_reserved": 0, "lon": -77.038542, "rental_uris": {"android": "https://dc.lft.to/lastmile_qr_scan", "ios": "https://dc.lft.to/lastmile_qr_scan"}},