{"data": {"bikes": [{"is_disabled": 0, "fusion_lon": 0.0, "fusion_lat": 0.0, "lat": 38.90440733333333, "type": "electric_scooter", "lon": -77.04832066666667, "bike_id": "8e0aa34e4963d4c5e9794e6d2fb91070", "rental_uris": {"android": "https://dc.lft.to/lastmile_qr_scan", "ios": "https://dc.lft.to/lastmile_qr_scan"}, "name": "8e0aa34e4963d4c5e9794e6d2fb91070", "is_reserved": 0}, {"is_disabled": 0, "fusion_lon": 0.0, "fusion_lat": 0.0, "lat": 38.918033, "type": "electric_scooter", "lon": -77.026885, "bike_id": "da02e7ece55c6283222cefea62144a1f", "rental_uris": {"android": "https://dc.lft.to/lastmile_qr_scan", "ios": "https://dc.lft.to/lastmile_qr_scan"}, "name": "da02e7ece55c6283222cefea62144a1f", "is_reserved": 0}, {"is_disabled": 0, "fusion_lon": 0.0, "fusion_lat": 0.0, "lat": 38.868905166666664, "type": "electric_scooter", "lon": -76.98309233333333, "bike_id": "f332c1b4d6c76bc92a05f96174f7fa45", "rental_uris": {"android": "https://dc.lft.to/lastmile_qr_scan", "ios": "https://dc.lft.to/lastmile_qr_scan"}, "name": "f332c1b4d6c76bc92a05f96174f7fa45", "is_reserved": 0}, {"is_disabled": 0, "fusion_lon": 0.0, "fusion_lat": 0.0, "lat": 38.85987016666667, "type": "electric_bike", "lon": -76.97050866666666, "bike_id": "3eadc7cc5927234042429bab80577552", "rental_uris": {"android": "https://dc.lft.to/lastmile_qr_scan", "ios": "https://dc.lft.to/lastmile_qr_scan"}, "name": "3eadc7cc5927234042429bab80577552", "is_reserved": 0}, {"is_disabled": 0, "fusion_lon": 0.0, "fusion_lat": 0.0, "lat": 38.99457483333333, "type": "electric_bike", "lon": -76.908173, "bike_id": "7ff98ec78d77c2e4ab50e93aa05c193b", "rental_uris": {"android": "https://dc.lft.to/lastmile_qr_scan", "ios": "https://dc.lft.to/lastmile_qr_scan"}, "name": "7ff98ec78d77c2e4ab50e93aa05c193b", "is_reserved": 0}, {"is_disabled": 0, "fusion_lon": 0.0, "fusion_lat": 0.0, "lat": 38.883715333333335, "type": "electric_scooter", "lon": -76.9855445, "bike_id": "f1e5f9091ecaf46c17aaee52d0734851", "rental_uris": {"android": "https://dc.lft.to/lastmile_qr_scan", "ios": "https://dc.lft.to/lastmile_qr_scan"}, "name": "f1e5f9091ecaf46c17aaee52d0734851", "is_reserved": 0}, {"is_disabled": 0, "fusion_lon": 0.0, "fusion_lat": 0.0, "lat": 38.9256245, "type": "electric_scooter", "lon": -77.02281216666667, "bike_id": "083e8663f879bf2e2719dede4cfddb63", "rental_uris": {"android": "https://dc.lft.to/lastmile_qr_scan", "ios": "https://dc.lft.to/lastmile_qr_scan"}, "name": "083e8663f879bf2e2719dede4cfddb63", "is_reserved": 0}, {"is_disabled": 0, "fusion_lon": 0.0, "fusion_lat": 0.0, "lat": 38.927488833333335, "type": "electric_scooter", "lon": -77.07592116666666, "bike_id": "438a8f7b5c5a1418c1f890b89f5d38a8", "rental_uris": {"android": "https://dc.lft.to/lastmile_qr_scan", "ios": "https://dc.lft.to/lastmile_qr_scan"}, "name": "438a8f7b5c5a1418c1f890b89f5d38a8", "is_reserved": 0}, {"is_disabled": 0, "fusion_lon": 0.0, "fusion_lat": 0.0, "lat": 38.921201833333335, "type": "electric_scooter", "lon": -77.01210266666666, "bike_id": "ecd911f00f15d1eecbd96f73fa909ca5", "rental_uris": {"android": "https://dc.lft.to/lastmile_qr_scan", "ios": "https://dc.lft.to/lastmile_qr_scan"}, "name": "ecd911f00f15d1eecbd96f73fa909ca5", "is_reserved": 0}, {"is_disabled": 0, "fusion_lon": 0.0, "fusion_lat": 0.0, "lat": 38.89502916666667, "type": "electric_scooter", "lon": -77.01609283333333, "bike_id": "0823d549ecf8171e657454e31ac74490", "rental_uris": {"android": "https://dc.lft.to/lastmile_qr_scan", "ios": "https://dc.lft.to/lastmile_qr_scan"}, "name": "0823d549ecf8171e657454e31ac74490", "is_reserved": 0}, {"is_disabled": 0, "fusion_lon": 0.0, "fusion_lat": 0.0, "lat": 38.95962983333333, "type": "electric_scooter", "lon": -77.02111383333333, "bike_id": "04db96ff3fdc99669494641fb798a02f", "rental_uris": {"android": "https://dc.lft.to/lastmile_qr_scan", "ios": "https://dc.lft.to/lastmile_qr_scan"}, "name": "04db96ff3fdc99669494641fb798a02f", "is_reserved": 0}, {"is_disabled": 0, "fusion_lon": 0.0, "fusion_lat": 0.0, "lat": 38.907564, "type": "electric_scooter", "lon": -77.03604516666667, "bike_id": "735eb190518c9346a1a9350942c957a6", "rental_uris": {"android": "https://dc.lft.to/lastmile_qr_scan", "ios": "https://dc.lft.to/lastmile_qr_scan"}, "name": "735eb190518c9346a1a9350942c957a6", "is_reserved": 0}, {"is_disabled": 0, "fusion_lon": 0.0, "fusion_lat": 0.0, "lat": 38.88348116666667, "type": "electric_bike", "lon": -77.03062083333333, "bike_id": "b70ec54e069843e109e1ba0cb5319af8", "rental_uris": {"android": "https://dc.lft.to/lastmile_qr_scan", "ios": "https://dc.lft.to/lastmile_qr_scan"}, "name": "b70ec54e069843e109e1ba0cb5319af8", "is_reserved": 0}, {"is_disabled": 0, "fusion_lon": 0.0, "fusion_lat": 0.0, "lat": 38.846003833333334, "type": "electric_bike", "lon": -76.96876116666667, "bike_id": "6d524c80ac18659125a4c962c45a8574", "rental_uris": {"android": "https://dc.lft.to/lastmile_qr_scan", "ios": "https://dc.lft.to/lastmile_qr_scan"}, "name": "6d524c80ac18659125a4c962c45a8574", "is_reserved": 0}, {"is_disabled": 0, "fusion_lon": 0.0, "fusion_lat": 0.0, "lat": 38.9563255, "type": "electric_scooter", "lon": -77.02982366666667, "bike_id": "8e6cb84ae28ef2b179e976a6d0f9cd41", "rental_uris": {"android": "https://dc.lft.to/lastmile_qr_scan", "ios": "https://dc.lft.to/lastmile_qr_scan"}, "name": "8e6cb84ae28ef2b179e976a6d0f9cd41", "is_reserved": 0}, {"is_disabled": 0, "fusion_lon": 0.0, "fusion_lat": 0.0, "lat": 38.93558816666667, "type": "electric_scooter", "lon": -77.08200566666666, "bike_id": "412bc72e9d6ec33a8a9fb12e4076f27f", "rental_uris": {"android": "https://dc.lft.to/lastmile_qr_scan", "ios": "https://dc.lft.to/lastmile_qr_scan"}, "name": "412bc72e9d6ec33a8a9fb12e4076f27f", "is_reserved": 0}, {"is_disabled": 0, "fusion_lon": 0.0, "fusion_lat": 0.0, "lat": 38.89909383333333, "type": "electric_scooter", "lon": -76.93396283333334, "bike_id": "b11476a316749104560bbefcea5fdb1a", "rental_uris": {"android": "https://dc.lft.to/lastmile_qr_scan", "ios": "https://dc.lft.to/lastmile_qr_scan"}, "name": "b11476a316749104560bbefcea5fdb1a", "is_reserved": 0}, {"is_disabled": 0, "fusion_lon": 0.0, "fusion_lat": 0.0, "lat": 38.9118955, "type": "electric_scooter", "lon": -77.001766, "bike_id": "e4d7029a98cd1c8d61d1c41d9a39a5f5", "rental_uris": {"android": "https://dc.lft.to/lastmile_qr_scan", "ios": "https://dc.lft.to/lastmile_qr_scan"}, "name": "e4d7029a98cd1c8d61d1c41d9a39a5f5", "is_reserved": 0}, {"is_disabled": 0, "fusion_lon": 0.0, "fusion_lat": 0.0, "lat": 38.91632366666666, "type": "electric_scooter", "lon": -77.04087533333333, "bike_id": "2da49af5edd06b95a920977a94b0e2f1", "rental_uris": {"android": "https://dc.lft.to/lastmile_qr_scan", "ios": "https://dc.lft.to/lastmile_qr_scan"}, "name": "2da49af5edd06b95a920977a94b0e2f1", "is_reserved": 0}, {"is_disabled": 0, "fusion_lon": 0.0, "fusion_lat": 0.0, "lat": 38.92564516666667, "type": "electric_scooter", "lon": -77.027101, "bike_id": "0fdb447b429e279bda07bdb95da736de", "rental_uris": {"android": "https://dc.lft.to/lastmile_qr_scan", "ios": "https://dc.lft.to/lastmile_qr_scan"}, "name": "0fdb447b429e279bda07bdb95da736de", "is_reserved": 0}, {"is_disabled": 0, "fusion_lon": 0.0, "fusion_lat": 0.0, "lat": 38.909773666666666, "type": "electric_scooter", "lon": -77.034643, "bike_id": "44bc2bdf9ca3bf52edb4cfc291256b9b", "rental_uris": {"android": "https://dc.lft.to/lastmile_qr_scan", "ios": "https://dc.lft.to/lastmile_qr_scan"}, "name": "44bc2bdf9ca3bf52edb4cfc291256b9b", "is_reserved": 0}, {"is_disabled": 0, "fusion_lon": 0.0, "fusion_lat": 0.0, "lat": 38.90711266666667, "type": "electric_scooter", "lon": -77.0286275, "bike_id": "84b966b47e2f007e193b1ab456a28dfe", "rental_uris": {"android": "https://dc.lft.to/lastmile_qr_scan", "ios": "https://dc.lft.to/lastmile_qr_scan"}, "name": "84b966b47e2f007e193b1ab456a28dfe", "is_reserved": 0}, {"is_disabled": 0, "fusion_lon": 0.0, "fusion_lat": 0.0, "lat": 38.910888, "type": "electric_bike", "lon": -77.08753616666667, "bike_id": "33c3631f9da9d2027060db3a6d65f4e0", "rental_uris": {"android": "https://dc.lft.to/lastmile_qr_scan", "ios": "https://dc.lft.to/lastmile_qr_scan"}, "name": "33c3631f9da9d2027060db3a6d65f4e0", "is_reserved": 0}, {"is_disabled": 0, "fusion_lon": 0.0, "fusion_lat": 0.0, "lat": 38.92562733333333, "type": "electric_scooter", "lon": -77.05274183333333, "bike_id": "38be4c9864e304f99b609ebbc1412891", "rental_uris": {"android": "https://dc.lft.to/lastmile_qr_scan", "ios": "https://dc.lft.to/lastmile_qr_scan"}, "name": "38be4c9864e304f99b609ebbc1412891", "is_reserved": 0}, {"is_disabled": 0, "fusion_lon": 0.0, "fusion_lat": 0.0, "lat": 38.939722333333336, "type": "electric_scooter", "lon": -77.03017433333333, "bike_id": "07ff78b65db322505aabd9b6709f171a", "rental_uris": {"android": "https://dc.lft.to/lastmile_qr_scan", "ios": "https://dc.lft.to/lastmile_qr_scan"}, "name": "07ff78b65db322505aabd9b6709f171a", "is_reserved": 0}, {"is_disabled": 0, "fusion_lon": 0.0, "fusion_lat": 0.0, "lat": 38.883731, "type": "electric_scooter", "lon": -76.923709, "bike_id": "3e2834e2d5615bb1ee5057d83e3d55c0", "rental_uris": {"android": "https://dc.lft.to/lastmile_qr_scan", "ios": "https://dc.lft.to/lastmile_qr_scan"}, "name": "3e2834e2d5615bb1ee5057d83e3d55c0", "is_reserved": 0}, {"is_disabled": 0, "fusion_lon": 0.0, "fusion_lat": 0.0, "lat": 38.9005235, "type": "electric_scooter", "lon": -76.986807, "bike_id": "d11aa0ba0c97b7df7327d586166110e1", "rental_uris": {"android": "https://dc.lft.to/lastmile_qr_scan", "ios": "https://dc.lft.to/lastmile_qr_scan"}, "name": "d11aa0ba0c97b7df7327d586166110e1", "is_reserved": 0}, {"is_disabled": 0, "fusion_lon": 0.0, "fusion_lat": 0.0, "lat": 38.913854666666666, "type": "electric_scooter", "lon": -77.029649, "bike_id": "736ce893b194d8976f44d240f7b587c5", "rental_uris": {"android": "https://dc.lft.to/lastmile_qr_scan", "ios": "https://dc.lft.to/lastmile_qr_scan"}, "name": "736ce893b194d8976f44d240f7b587c5", "is_reserved": 0}, {"is_disabled": 0, "fusion_lon": 0.0, "fusion_lat": 0.0, "lat": 38.91632, "type": "electric_scooter", "lon": -77.0416465, "bike_id": "35b9a3479ade4cc906081704b13caf30", "rental_uris": {"android": "https://dc.lft.to/lastmile_qr_scan", "ios": "https://dc.lft.to/lastmile_qr_scan"}, "name": "35b9a3479ade4cc906081704b13caf30", "is_reserved": 0}, {"is_disabled": 0, "fusion_lon": 0.0, "fusion_lat": 0.0, "lat": 38.887102166666665, "type": "electric_scooter", "lon": -76.95360016666666, "bike_id": "78e8d97be95fa4005ac0d591b3520c8e", "rental_uris": {"android": "https://dc.lft.to/lastmile_qr_scan", "ios": "https://dc.lft.to/lastmile_qr_scan"}, "name": "78e8d97be95fa4005ac0d591b3520c8e", "is_reserved": 0}, {"is_disabled": 0, "fusion_lon": 0.0, "fusion_lat": 0.0, "lat": 38.842913, "type": "electric_scooter", "lon": -76.999469, "bike_id": "7ac5b6dfc4eb60b56c30645d07197190", "rental_uris": {"android": "https://dc.lft.to/lastmile_qr_scan", "ios": "https://dc.lft.to/lastmile_qr_scan"}, "name": "7ac5b6dfc4eb60b56c30645d07197190", "is_reserved": 0}, {"is_disabled": 0, "fusion_lon": 0.0, "fusion_lat": 0.0, "lat": 38.919726833333335, "type": "electric_scooter", "lon": -77.00021516666666, "bike_id": "28e30da79628cbdf939a69cb62c941dc", "rental_uris": {"android": "https://dc.lft.to/lastmile_qr_scan", "ios": "https://dc.lft.to/lastmile_qr_scan"}, "name": "28e30da79628cbdf939a69cb62c941dc", "is_reserved": 0}, {"is_disabled": 0, "fusion_lon": 0.0, "fusion_lat": 0.0, "lat": 38.901512, "type": "electric_scooter", "lon": -77.039794, "bike_id": "597726e15eeed186b81ce336cbd80b18", "rental_uris": {"android": "https://dc.lft.to/lastmile_qr_scan", "ios": "https://dc.lft.to/lastmile_qr_scan"}, "name": "597726e15eeed186b81ce336cbd80b18", "is_reserved": 0}, {"is_disabled": 0, "fusion_lon": 0.0, "fusion_lat": 0.0, "lat": 38.90016116666666, "type": "electric_scooter", "lon": -76.99686833333334, "bike_id": "0caf43182cbea0f8c617c8c1031f496e", "rental_uris": {"android": "https://dc.lft.to/lastmile_qr_scan", "ios": "https://dc.lft.to/lastmile_qr_scan"}, "name": "0caf43182cbea0f8c617c8c1031f496e", "is_reserved": 0}, {"is_disabled": 0, "fusion_lon": 0.0, "fusion_lat": 0.0, "lat": 38.949757, "type": "electric_scooter", "lon": -77.06768883333334, "bike_id": "e8cc09eb74c601ed028906f983886f8e", "rental_uris": {"android": "https://dc.lft.to/lastmile_qr_scan", "ios": "https://dc.lft.to/lastmile_qr_scan"}, "name": "e8cc09eb74c601ed028906f983886f8e", "is_reserved": 0}, {"is_disabled": 0, "fusion_lon": 0.0, "fusion_lat": 0.0, "lat": 38.933246833333335, "type": "electric_scooter", "lon": -77.02932116666666, "bike_id": "0b277634f31140d05c709843d63f2a84", "rental_uris": {"android": "https://dc.lft.to/lastmile_qr_scan", "ios": "https://dc.lft.to/lastmile_qr_scan"}, "name": "0b277634f31140d05c709843d63f2a84", "is_reserved": 0}, {"is_disabled": 0, "fusion_lon": 0.0, "fusion_lat": 0.0, "lat": 39.0, "type": "electric_bike", "lon": -76.9180345, "bike_id": "79fa294f4efdee2f21834a20824efb51", "rental_uris": {"android": "https://dc.lft.to/lastmile_qr_scan", "ios": "https://dc.lft.to/lastmile_qr_scan"}, "name": "79fa294f4efdee2f21834a20824efb51", "is_reserved": 0}, {"is_disabled": 0, "fusion_lon": 0.0, "fusion_lat": 0.0, "lat": 38.89699866666667, "type": "electric_scooter", "lon": -77.02747016666666, "bike_id": "88436009a39384589f0871ad9728beef", "rental_uris": {"android": "https://dc.lft.to/lastmile_qr_scan", "ios": "https://dc.lft.to/lastmile_qr_scan"}, "name": "88436009a39384589f0871ad9728beef", "is_reserved": 0}, {"is_disabled": 0, "fusion_lon": 0.0, "fusion_lat": 0.0, "lat": 38.96829833333334, "type": "electric_scooter", "lon": -77.0151535, "bike_id": "17c9c17073bdacdacd4e69b745c18731", "rental_uris": {"android": "https://dc.lft.to/lastmile_qr_scan", "ios": "https://dc.lft.to/lastmile_qr_scan"}, "name": "17c9c17073bdacdacd4e69b745c18731", "is_reserved": 0}, {"is_disabled": 0, "fusion_lon": 0.0, "fusion_lat": 0.0, "lat": 38.92409166666667, "type": "electric_scooter", "lon": -77.05164566666667, "bike_id": "c4baaca2799cfe3c002c44224264ddb4", "rental_uris": {"android": "https://dc.lft.to/lastmile_qr_scan", "ios": "https://dc.lft.to/lastmile_qr_scan"}, "name": "c4baaca2799cfe3c002c44224264ddb4", "is_reserved": 0}, {"is_disabled": 0, "fusion_lon": 0.0, "fusion_lat": 0.0, "lat": 38.93535583333333, "type": "electric_scooter", "lon": -77.02066016666667, "bike_id": "b6f4ac31f7d5ad9b46c9873ecc172a58", "rental_uris": {"android": "https://dc.lft.to/lastmile_qr_scan", "ios": "https://dc.lft.to/lastmile_qr_scan"}, "name": "b6f4ac31f7d5ad9b46c9873ecc172a58", "is_reserved": 0}, {"is_disabled": 0, "fusion_lon": 0.0, "fusion_lat": 0.0, "lat": 38.918982666666665, "type": "electric_scooter", "lon": -77.0238275, "bike_id": "b79122305729b48644f60efd8c60dfd0", "rental_uris": {"android": "https://dc.lft.to/lastmile_qr_scan", "ios": "https://dc.lft.to/lastmile_qr_scan"}, "name": "b79122305729b48644f60efd8c60dfd0", "is_reserved": 0}, {"is_disabled": 0, "fusion_lon": 0.0, "fusion_lat": 0.0, "lat": 38.91410616666667, "type": "electric_scooter", "lon": -77.04173283333333, "bike_id": "802613f6bbc53329c8276ebe1c9c7597", "rental_uris": {"android": "https://dc.lft.to/lastmile_qr_scan", "ios": "https://dc.lft.to/lastmile_qr_scan"}, "name": "802613f6bbc53329c8276ebe1c9c7597", "is_reserved": 0}, {"is_disabled": 0, "fusion_lon": 0.0, "fusion_lat": 0.0, "lat": 38.924563, "type": "electric_scooter", "lon": -76.999054, "bike_id": "6b0bf0df1e82d136ead94b73087787a8", "rental_uris": {"android": "https://dc.lft.to/lastmile_qr_scan", "ios": "https://dc.lft.to/lastmile_qr_scan"}, "name": "6b0bf0df1e82d136ead94b73087787a8", "is_reserved": 0}, {"is_disabled": 0, "fusion_lon": 0.0, "fusion_lat": 0.0, "lat": 38.94193633333333, "type": "electric_scooter", "lon": -77.02577416666666, "bike_id": "78a4a416c5a103aa4558518ce842fe35", "rental_uris": {"android": "https://dc.lft.to/lastmile_qr_scan", "ios": "https://dc.lft.to/lastmile_qr_scan"}, "name": "78a4a416c5a103aa4558518ce842fe35", "is_reserved": 0}, {"is_disabled": 0, "fusion_lon": 0.0, "fusion_lat": 0.0, "lat": 38.90839283333333, "type": "electric_scooter", "lon": -77.02700766666666, "bike_id": "edceda51ed1b75417448e650e74a3d65", "rental_uris": {"android": "https://dc.lft.to/lastmile_qr_scan", "ios": "https://dc.lft.to/lastmile_qr_scan"}, "name": "edceda51ed1b75417448e650e74a3d65", "is_reserved": 0}, {"is_disabled": 0, "fusion_lon": 0.0, "fusion_lat": 0.0, "lat": 38.91265283333333, "type": "electric_scooter", "lon": -77.02235283333333, "bike_id": "50936d6fddf08550ccbe309b95142842", "rental_uris": {"android": "https://dc.lft.to/lastmile_qr_scan", "ios": "https://dc.lft.to/lastmile_qr_scan"}, "name": "50936d6fddf08550ccbe309b95142842", "is_reserved": 0}, {"is_disabled": 0, "fusion_lon": 0.0, "fusion_lat": 0.0, "lat": 38.827264166666666, "type": "electric_bike", "lon": -77.00863483333333, "bike_id": "5137fc1e9838bdf01cec438076026662", "rental_uris": {"android": "https://dc.lft.to/lastmile_qr_scan", "ios": "https://dc.lft.to/lastmile_qr_scan"}, "name": "5137fc1e9838bdf01cec438076026662", "is_reserved": 0}, {"is_disabled": 0, "fusion_lon": 0.0, "fusion_lat": 0.0, "lat": 38.89639183333333, "type": "electric_scooter", "lon": -77.04336916666666, "bike_id": "126be7a9131f562544009f22e556a57a", "rental_uris": {"android": "https://dc.lft.to/lastmile_qr_scan", "ios": "https://dc.lft.to/lastmile_qr_scan"}, "name": "126be7a9131f562544009f22e556a57a", "is_reserved": 0}, {"is_disabled": 0, "fusion_lon": 0.0, "fusion_lat": 0.0, "lat": 38.90582883333333, "type": "electric_scooter", "lon": -77.04100633333333, "bike_id": "980d8ad54f0dbb82caab0ac91be111f8", "rental_uris": {"android": "https://dc.lft.to/lastmile_qr_scan", "ios": "https://dc.lft.to/lastmile_qr_scan"}, "name": "980d8ad54f0dbb82caab0ac91be111f8", "is_reserved": 0}, {"is_disabled": 0, "fusion_lon": 0.0, "fusion_lat": 0.0, "lat": 38.93532733333333, "type": "electric_scooter", "lon": -77.02384, "bike_id": "31948de475f3d365493c9bf0d2932f53", "rental_uris": {"android": "https://dc.lft.to/lastmile_qr_scan", "ios": "https://dc.lft.to/lastmile_qr_scan"}, "name": "31948de475f3d365493c9bf0d2932f53", "is_reserved": 0}, {"is_disabled": 0, "fusion_lon": 0.0, "fusion_lat": 0.0, "lat": 38.90717933333333, "type": "electric_scooter", "lon": -77.03064383333333, "bike_id": "3caef469f1fd1414623782cffcd0e382", "rental_uris": {"android": "https://dc.lft.to/lastmile_qr_scan", "ios": "https://dc.lft.to/lastmile_qr_scan"}, "name": "3caef469f1fd1414623782cffcd0e382", "is_reserved": 0}, {"is_disabled": 0, "fusion_lon": 0.0, "fusion_lat": 0.0, "lat": 38.9058905, "type": "electric_scooter", "lon": -77.03014416666667, "bike_id": "c49789ced7af528604adf90ce6dba169", "rental_uris": {"android": "https://dc.lft.to/lastmile_qr_scan", "ios": "https://dc.lft.to/lastmile_qr_scan"}, "name": "c49789ced7af528604adf90ce6dba169", "is_reserved": 0}, {"is_disabled": 0, "fusion_lon": 0.0, "fusion_lat": 0.0, "lat": 38.89366283333333, "type": "electric_scooter", "lon": -77.022642, "bike_id": "e8eb199b5904b8287938f640457aeb22", "rental_uris": {"android": "https://dc.lft.to/lastmile_qr_scan", "ios": "https://dc.lft.to/lastmile_qr_scan"}, "name": "e8eb199b5904b8287938f640457aeb22", "is_reserved": 0}, {"is_disabled": 0, "fusion_lon": 0.0, "fusion_lat": 0.0, "lat": 38.8885995, "type": "electric_scooter", "lon": -76.97739166666666, "bike_id": "05106b8a4f15e3165897648f1d9981c2", "rental_uris": {"android": "https://dc.lft.to/lastmile_qr_scan", "ios": "https://dc.lft.to/lastmile_qr_scan"}, "name": "05106b8a4f15e3165897648f1d9981c2", "is_reserved": 0}, {"is_disabled": 0, "fusion_lon": 0.0, "fusion_lat": 0.0, "lat": 38.91042933333333, "type": "electric_scooter", "lon": -77.04076233333333, "bike_id": "a650953f18f015acf45627ed77bfe8ac", "rental_uris": {"android": "https://dc.lft.to/lastmile_qr_scan", "ios": "https://dc.lft.to/lastmile_qr_scan"}, "name": "a650953f18f015acf45627ed77bfe8ac", "is_reserved": 0}, {"is_disabled": 0, "fusion_lon": 0.0, "fusion_lat": 0.0, "lat": 38.931319333333334, "type": "electric_scooter", "lon": -77.0570905, "bike_id": "911451c9fe93cd51529c4fc41ec6ec32", "rental_uris": {"android": "https://dc.lft.to/lastmile_qr_scan", "ios": "https://dc.lft.to/lastmile_qr_scan"}, "name": "911451c9fe93cd51529c4fc41ec6ec32", "is_reserved": 0}, {"is_disabled": 0, "fusion_lon": 0.0, "fusion_lat": 0.0, "lat": 38.9208105, "type": "electric_bike", "lon": -77.00336883333334, "bike_id": "22aedc624a8195e7cd04eebe12bfb213", "rental_uris": {"android": "https://dc.lft.to/lastmile_qr_scan", "ios": "https://dc.lft.to/lastmile_qr_scan"}, "name": "22aedc624a8195e7cd04eebe12bfb213", "is_reserved": 0}, {"is_disabled": 0, "fusion_lon": 0.0, "fusion_lat": 0.0, "lat": 38.916438666666664, "type": "electric_scooter", "lon": -77.02814333333333, "bike_id": "3c119847b2286ee8c0f0cadd078ccc68", "rental_uris": {"android": "https://dc.lft.to/lastmile_qr_scan", "ios": "https://dc.lft.to/lastmile_qr_scan"}, "name": "3c119847b2286ee8c0f0cadd078ccc68", "is_reserved": 0}, {"is_disabled": 0, "fusion_lon": 0.0, "fusion_lat": 0.0, "lat": 38.90712516666667, "type": "electric_scooter", "lon": -77.02713566666667, "bike_id": "0df00d92e4bc785365691a8423efa89d", "rental_uris": {"android": "https://dc.lft.to/lastmile_qr_scan", "ios": "https://dc.lft.to/lastmile_qr_scan"}, "name": "0df00d92e4bc785365691a8423efa89d", "is_reserved": 0}, {"is_disabled": 0, "fusion_lon": 0.0, "fusion_lat": 0.0, "lat": 38.8450825, "type": "electric_bike", "lon": -76.97210766666667, "bike_id": "83cf267efd97ed85086270b41d72f041", "rental_uris": {"android": "https://dc.lft.to/lastmile_qr_scan", "ios": "https://dc.lft.to/lastmile_qr_scan"}, "name": "83cf267efd97ed85086270b41d72f041", "is_reserved": 0}, {"is_disabled": 0, "fusion_lon": 0.0, "fusion_lat": 0.0, "lat": 38.936293166666665, "type": "electric_scooter", "lon": -77.02464433333333, "bike_id": "0953616b6ae48c23eea103cdd3d0ea09", "rental_uris": {"android": "https://dc.lft.to/lastmile_qr_scan", "ios": "https://dc.lft.to/lastmile_qr_scan"}, "name": "0953616b6ae48c23eea103cdd3d0ea09", "is_reserved": 0}, {"is_disabled": 0, "fusion_lon": 0.0, "fusion_lat": 0.0, "lat": 38.865223666666665, "type": "electric_scooter", "lon": -76.98969783333334, "bike_id": "86a9791e0b833494e6e93934a7b9cdf8", "rental_uris": {"android": "https://dc.lft.to/lastmile_qr_scan", "ios": "https://dc.lft.to/lastmile_qr_scan"}, "name": "86a9791e0b833494e6e93934a7b9cdf8", "is_reserved": 0}, {"is_disabled": 0, "fusion_lon": 0.0, "fusion_lat": 0.0, "lat": 38.92440716666667, "type": "electric_scooter", "lon": -77.02609366666667, "bike_id": "ea3419ba62ebce5179706321370e8ec3", "rental_uris": {"android": "https://dc.lft.to/lastmile_qr_scan", "ios": "https://dc.lft.to/lastmile_qr_scan"}, "name": "ea3419ba62ebce5179706321370e8ec3", "is_reserved": 0}, {"is_disabled": 0, "fusion_lon": 0.0, "fusion_lat": 0.0, "lat": 38.84616116666667, "type": "electric_scooter", "lon": -76.99627583333333, "bike_id": "3fad418faac851d954e2b338644fd9db", "rental_uris": {"android": "https://dc.lft.to/lastmile_qr_scan", "ios": "https://dc.lft.to/lastmile_qr_scan"}, "name": "3fad418faac851d954e2b338644fd9db", "is_reserved": 0}, {"is_disabled": 0, "fusion_lon": 0.0, "fusion_lat": 0.0, "lat": 38.89904766666667, "type": "electric_scooter", "lon": -77.039489, "bike_id": "20ca7cb1cc4d37d1e4a68215a737ed57", "rental_uris": {"android": "https://dc.lft.to/lastmile_qr_scan", "ios": "https://dc.lft.to/lastmile_qr_scan"}, "name": "20ca7cb1cc4d37d1e4a68215a737ed57", "is_reserved": 0}, {"is_disabled": 0, "fusion_lon": 0.0, "fusion_lat": 0.0, "lat": 38.91814, "type": "electric_scooter", "lon": -77.0314125, "bike_id": "c1e98753c533ca81127f70915c02137a", "rental_uris": {"android": "https://dc.lft.to/lastmile_qr_scan", "ios": "https://dc.lft.to/lastmile_qr_scan"}, "name": "c1e98753c533ca81127f70915c02137a", "is_reserved": 0}, {"is_disabled": 0, "fusion_lon": 0.0, "fusion_lat": 0.0, "lat": 38.960172, "type": "electric_scooter", "lon": -77.03311316666667, "bike_id": "5b5ea7dc896e9a78595d4dba5bc64a53", "rental_uris": {"android": "https://dc.lft.to/lastmile_qr_scan", "ios": "https://dc.lft.to/lastmile_qr_scan"}, "name": "5b5ea7dc896e9a78595d4dba5bc64a53", "is_reserved": 0}, {"is_disabled": 0, "fusion_lon": 0.0, "fusion_lat": 0.0, "lat": 38.927747833333335, "type": "electric_scooter", "lon": -77.02782733333333, "bike_id": "97affdb70ad518b4b39b66119814b6d0", "rental_uris": {"android": "https://dc.lft.to/lastmile_qr_scan", "ios": "https://dc.lft.to/lastmile_qr_scan"}, "name": "97affdb70ad518b4b39b66119814b6d0", "is_reserved": 0}, {"is_disabled": 0, "fusion_lon": 0.0, "fusion_lat": 0.0, "lat": 38.9033115, "type": "electric_scooter", "lon": -76.98013883333333, "bike_id": "652e639afb5c65aec5c9cd2e28bda426", "rental_uris": {"android": "https://dc.lft.to/lastmile_qr_scan", "ios": "https://dc.lft.to/lastmile_qr_scan"}, "name": "652e639afb5c65aec5c9cd2e28bda426", "is_reserved": 0}, {"is_disabled": 0, "fusion_lon": 0.0, "fusion_lat": 0.0, "lat": 38.893938166666665, "type": "electric_scooter", "lon": -76.94991316666666, "bike_id": "db8365ec96774f0fa15026d939c39dce", "rental_uris": {"android": "https://dc.lft.to/lastmile_qr_scan", "ios": "https://dc.lft.to/lastmile_qr_scan"}, "name": "db8365ec96774f0fa15026d939c39dce", "is_reserved": 0}, {"is_disabled": 0, "fusion_lon": 0.0, "fusion_lat": 0.0, "lat": 38.91191516666667, "type": "electric_scooter", "lon": -77.03710433333333, "bike_id": "b1144bb32867f93d9edbafdf36a9f05c", "rental_uris": {"android": "https://dc.lft.to/lastmile_qr_scan", "ios": "https://dc.lft.to/lastmile_qr_scan"}, "name": "b1144bb32867f93d9edbafdf36a9f05c", "is_reserved": 0}, {"is_disabled": 0, "fusion_lon": 0.0, "fusion_lat": 0.0, "lat": 38.9182595, "type": "electric_scooter", "lon": -77.03176033333334, "bike_id": "532c0c234595f7fc27fc26d36ac21d13", "rental_uris": {"android": "https://dc.lft.to/lastmile_qr_scan", "ios": "https://dc.lft.to/lastmile_qr_scan"}, "name": "532c0c234595f7fc27fc26d36ac21d13", "is_reserved": 0}, {"is_disabled": 0, "fusion_lon": 0.0, "fusion_lat": 0.0, "lat": 38.90555666666667, "type": "electric_scooter", "lon": -77.04335433333334, "bike_id": "78a05ee89744d7f93e28496faa46548d", "rental_uris": {"android": "https://dc.lft.to/lastmile_qr_scan", "ios": "https://dc.lft.to/lastmile_qr_scan"}, "name": "78a05ee89744d7f93e28496faa46548d", "is_reserved": 0}, {"is_disabled": 0, "fusion_lon": 0.0, "fusion_lat": 0.0, "lat": 38.903315666666664, "type": "electric_scooter", "lon": -76.97592216666666, "bike_id": "ee35d06257c2df35b105c878cb8f32de", "rental_uris": {"android": "https://dc.lft.to/lastmile_qr_scan", "ios": "https://dc.lft.to/lastmile_qr_scan"}, "name": "ee35d06257c2df35b105c878cb8f32de", "is_reserved": 0}, {"is_disabled": 0, "fusion_lon": 0.0, "fusion_lat": 0.0, "lat": 38.905257166666665, "type": "electric_scooter", "lon": -77.06779383333334, "bike_id": "e42dedf7d585df34f4d8d0f8967d6684", "rental_uris": {"android": "https://dc.lft.to/lastmile_qr_scan", "ios": "https://dc.lft.to/lastmile_qr_scan"}, "name": "e42dedf7d585df34f4d8d0f8967d6684", "is_reserved": 0}, {"is_disabled": 0, "fusion_lon": 0.0, "fusion_lat": 0.0, "lat": 38.914124, "type": "electric_scooter", "lon": -77.02560716666666, "bike_id": "204b9d4ad452c3c8e0f746b7d571b6cf", "rental_uris": {"android": "https://dc.lft.to/lastmile_qr_scan", "ios": "https://dc.lft.to/lastmile_qr_scan"}, "name": "204b9d4ad452c3c8e0f746b7d571b6cf", "is_reserved": 0}, {"is_disabled": 0, "fusion_lon": 0.0, "fusion_lat": 0.0, "lat": 38.91306566666667, "type": "electric_scooter", "lon": -77.03195133333334, "bike_id": "e37715bbd363dd3911ede4848b86666d", "rental_uris": {"android": "https://dc.lft.to/lastmile_qr_scan", "ios": "https://dc.lft.to/lastmile_qr_scan"}, "name": "e37715bbd363dd3911ede4848b86666d", "is_reserved": 0}, {"is_disabled": 0, "fusion_lon": 0.0, "fusion_lat": 0.0, "lat": 38.912266333333335, "type": "electric_scooter", "lon": -76.98441683333333, "bike_id": "f0d0efc9164d34723f8c6a2a7810bafb", "rental_uris": {"android": "https://dc.lft.to/lastmile_qr_scan", "ios": "https://dc.lft.to/lastmile_qr_scan"}, "name": "f0d0efc9164d34723f8c6a2a7810bafb", "is_reserved": 0}, {"is_disabled": 0, "fusion_lon": 0.0, "fusion_lat": 0.0, "lat": 38.884730833333336, "type": "electric_scooter", "lon": -76.95223166666666, "bike_id": "7d50e9857d3a2fa4c003b9c02caa0629", "rental_uris": {"android": "https://dc.lft.to/lastmile_qr_scan", "ios": "https://dc.lft.to/lastmile_qr_scan"}, "name": "7d50e9857d3a2fa4c003b9c02caa0629", "is_reserved": 0}, {"is_disabled": 0, "fusion_lon": 0.0, "fusion_lat": 0.0, "lat": 38.911335333333334, "type": "electric_scooter", "lon": -77.02197983333333, "bike_id": "837cbe70b970207f811597813ab7ee20", "rental_uris": {"android": "https://dc.lft.to/lastmile_qr_scan", "ios": "https://dc.lft.to/lastmile_qr_scan"}, "name": "837cbe70b970207f811597813ab7ee20", "is_reserved": 0}, {"is_disabled": 0, "fusion_lon": 0.0, "fusion_lat": 0.0, "lat": 38.92674233333334, "type": "electric_scooter", "lon": -77.1030465, "bike_id": "c80474aea76b7e209d03218ea654a4df", "rental_uris": {"android": "https://dc.lft.to/lastmile_qr_scan", "ios": "https://dc.lft.to/lastmile_qr_scan"}, "name": "c80474aea76b7e209d03218ea654a4df", "is_reserved": 0}, {"is_disabled": 0, "fusion_lon": 0.0, "fusion_lat": 0.0, "lat": 38.906036666666665, "type": "electric_scooter", "lon": -77.05720516666666, "bike_id": "b70f6c20d986c11f247e61249c7edc71", "rental_uris": {"android": "https://dc.lft.to/lastmile_qr_scan", "ios": "https://dc.lft.to/lastmile_qr_scan"}, "name": "b70f6c20d986c11f247e61249c7edc71", "is_reserved": 0}, {"is_disabled": 0, "fusion_lon": 0.0, "fusion_lat": 0.0, "lat": 38.921705, "type": "electric_scooter", "lon": -77.05524133333333, "bike_id": "fc277d283b3faf22f72747961c7c36a3", "rental_uris": {"android": "https://dc.lft.to/lastmile_qr_scan", "ios": "https://dc.lft.to/lastmile_qr_scan"}, "name": "fc277d283b3faf22f72747961c7c36a3", "is_reserved": 0}, {"is_disabled": 0, "fusion_lon": 0.0, "fusion_lat": 0.0, "lat": 38.91961083333333, "type": "electric_scooter", "lon": -77.02711866666667, "bike_id": "9454d1dd496a191b4a6e3a4cf645aca6", "rental_uris": {"android": "https://dc.lft.to/lastmile_qr_scan", "ios": "https://dc.lft.to/lastmile_qr_scan"}, "name": "9454d1dd496a191b4a6e3a4cf645aca6", "is_reserved": 0}, {"is_disabled": 0, "fusion_lon": 0.0, "fusion_lat": 0.0, "lat": 38.92384933333334, "type": "electric_scooter", "lon": -77.02969016666667, "bike_id": "3e8dbfabaa1303973294b972d3aba63f", "rental_uris": {"android": "https://dc.lft.to/lastmile_qr_scan", "ios": "https://dc.lft.to/lastmile_qr_scan"}, "name": "3e8dbfabaa1303973294b972d3aba63f", "is_reserved": 0}, {"is_disabled": 0, "fusion_lon": 0.0, "fusion_lat": 0.0, "lat": 38.94703, "type": "electric_scooter", "lon": -77.01941083333334, "bike_id": "b6094bb9dba02604ed440f0cac999d5d", "rental_uris": {"android": "https://dc.lft.to/lastmile_qr_scan", "ios": "https://dc.lft.to/lastmile_qr_scan"}, "name": "b6094bb9dba02604ed440f0cac999d5d", "is_reserved": 0}, {"is_disabled": 0, "fusion_lon": 0.0, "fusion_lat": 0.0, "lat": 38.9222905, "type": "electric_scooter", "lon": -76.97531733333334, "bike_id": "c10dd5a7fc58e3639c58f38bbe85852b", "rental_uris": {"android": "https://dc.lft.to/lastmile_qr_scan", "ios": "https://dc.lft.to/lastmile_qr_scan"}, "name": "c10dd5a7fc58e3639c58f38bbe85852b", "is_reserved": 0}, {"is_disabled": 0, "fusion_lon": 0.0, "fusion_lat": 0.0, "lat": 38.924597, "type": "electric_scooter", "lon": -77.0215155, "bike_id": "b7739a9e5ee498cb2889096fca6ba023", "rental_uris": {"android": "https://dc.lft.to/lastmile_qr_scan", "ios": "https://dc.lft.to/lastmile_qr_scan"}, "name": "b7739a9e5ee498cb2889096fca6ba023", "is_reserved": 0}, {"is_disabled": 0, "fusion_lon": 0.0, "fusion_lat": 0.0, "lat": 38.89755616666667, "type": "electric_scooter", "lon": -77.02750516666667, "bike_id": "2821b67717b9c696d5ca1665f31843bb", "rental_uris": {"android": "https://dc.lft.to/lastmile_qr_scan", "ios": "https://dc.lft.to/lastmile_qr_scan"}, "name": "2821b67717b9c696d5ca1665f31843bb", "is_reserved": 0}, {"is_disabled": 0, "fusion_lon": 0.0, "fusion_lat": 0.0, "lat": 38.91906066666667, "type": "electric_scooter", "lon": -77.02749766666666, "bike_id": "b81f34d6a933dee1ced9a3f8559a04de", "rental_uris": {"android": "https://dc.lft.to/lastmile_qr_scan", "ios": "https://dc.lft.to/lastmile_qr_scan"}, "name": "b81f34d6a933dee1ced9a3f8559a04de", "is_reserved": 0}, {"is_disabled": 0, "fusion_lon": 0.0, "fusion_lat": 0.0, "lat": 38.900145, "type": "electric_scooter", "lon": -77.0468485, "bike_id": "e4629eaa3e8d55248966e3aee4619950", "rental_uris": {"android": "https://dc.lft.to/lastmile_qr_scan", "ios": "https://dc.lft.to/lastmile_qr_scan"}, "name": "e4629eaa3e8d55248966e3aee4619950", "is_reserved": 0}, {"is_disabled": 0, "fusion_lon": 0.0, "fusion_lat": 0.0, "lat": 38.94524666666667, "type": "electric_bike", "lon": -77.02648433333333, "bike_id": "619abb7e396f25bfa6d85db760fa370c", "rental_uris": {"android": "https://dc.lft.to/lastmile_qr_scan", "ios": "https://dc.lft.to/lastmile_qr_scan"}, "name": "619abb7e396f25bfa6d85db760fa370c", "is_reserved": 0}, {"is_disabled": 0, "fusion_lon": 0.0, "fusion_lat": 0.0, "lat": 38.873486, "type": "electric_scooter", "lon": -77.01741333333334, "bike_id": "b8ef9a313a6a653fc7fa94978631e4e8", "rental_uris": {"android": "https://dc.lft.to/lastmile_qr_scan", "ios": "https://dc.lft.to/lastmile_qr_scan"}, "name": "b8ef9a313a6a653fc7fa94978631e4e8", "is_reserved": 0}, {"is_disabled": 0, "fusion_lon": 0.0, "fusion_lat": 0.0, "lat": 38.9085115, "type": "electric_scooter", "lon": -77.06078616666667, "bike_id": "46a6f111799f8d0fcd146d4a5153a82f", "rental_uris": {"android": "https://dc.lft.to/lastmile_qr_scan", "ios": "https://dc.lft.to/lastmile_qr_scan"}, "name": "46a6f111799f8d0fcd146d4a5153a82f", "is_reserved": 0}, {"is_disabled": 0, "fusion_lon": 0.0, "fusion_lat": 0.0, "lat": 38.89747883333333, "type": "electric_scooter", "lon": -77.05103866666667, "bike_id": "36c271cf23f6f08e2ce14f5e40544990", "rental_uris": {"android": "https://dc.lft.to/lastmile_qr_scan", "ios": "https://dc.lft.to/lastmile_qr_scan"}, "name": "36c271cf23f6f08e2ce14f5e40544990", "is_reserved": 0}, {"is_disabled": 0, "fusion_lon": 0.0, "fusion_lat": 0.0, "lat": 38.92059966666667, "type": "electric_scooter", "lon": -77.03477683333334, "bike_id": "181d5ba15c13966645717b3210034525", "rental_uris": {"android": "https://dc.lft.to/lastmile_qr_scan", "ios": "https://dc.lft.to/lastmile_qr_scan"}, "name": "181d5ba15c13966645717b3210034525", "is_reserved": 0}, {"is_disabled": 0, "fusion_lon": 0.0, "fusion_lat": 0.0, "lat": 38.895273, "type": "electric_scooter", "lon": -76.94911333333333, "bike_id": "4c4b3b4bcb28d8e69049e122071aae77", "rental_uris": {"android": "https://dc.lft.to/lastmile_qr_scan", "ios": "https://dc.lft.to/lastmile_qr_scan"}, "name": "4c4b3b4bcb28d8e69049e122071aae77", "is_reserved": 0}, {"is_disabled": 0, "fusion_lon": 0.0, "fusion_lat": 0.0, "lat": 38.936431166666665, "type": "electric_scooter", "lon": -77.02696083333333, "bike_id": "635c03b0b03244be39712aa3dae7d7ca", "rental_uris": {"android": "https://dc.lft.to/lastmile_qr_scan", "ios": "https://dc.lft.to/lastmile_qr_scan"}, "name": "635c03b0b03244be39712aa3dae7d7ca", "is_reserved": 0}, {"is_disabled": 0, "fusion_lon": 0.0, "fusion_lat": 0.0, "lat": 38.9178155, "type": "electric_scooter", "lon": -77.04300283333333, "bike_id": "2a3360a27e299c5085a3e47228ef2680", "rental_uris": {"android": "https://dc.lft.to/lastmile_qr_scan", "ios": "https://dc.lft.to/lastmile_qr_scan"}, "name": "2a3360a27e299c5085a3e47228ef2680", "is_reserved": 0}, {"is_disabled": 0, "fusion_lon": 0.0, "fusion_lat": 0.0, "lat": 38.90351066666667, "type": "electric_scooter", "lon": -77.03998966666667, "bike_id": "71db237fdaaf514991108d6b5712bf77", "rental_uris": {"android": "https://dc.lft.to/lastmile_qr_scan", "ios": "https://dc.lft.to/lastmile_qr_scan"}, "name": "71db237fdaaf514991108d6b5712bf77", "is_reserved": 0}, {"is_disabled": 0, "fusion_lon": 0.0, "fusion_lat": 0.0, "lat": 38.9255315, "type": "electric_bike", "lon": -77.001377, "bike_id": "29458131e3f501c39390df8f44c4e037", "rental_uris": {"android": "https://dc.lft.to/lastmile_qr_scan", "ios": "https://dc.lft.to/lastmile_qr_scan"}, "name": "29458131e3f501c39390df8f44c4e037", "is_reserved": 0}, {"is_disabled": 0, "fusion_lon": 0.0, "fusion_lat": 0.0, "lat": 38.924591666666664, "type": "electric_bike", "lon": -76.999462, "bike_id": "318505eca75a8cd481376aeb627311f0", "rental_uris": {"android": "https://dc.lft.to/lastmile_qr_scan", "ios": "https://dc.lft.to/lastmile_qr_scan"}, "name": "318505eca75a8cd481376aeb627311f0", "is_reserved": 0}, {"is_disabled": 0, "fusion_lon": 0.0, "fusion_lat": 0.0, "lat": 38.906962666666665, "type": "electric_scooter", "lon": -76.98690566666667, "bike_id": "3ee4bc7b8897803ec4859a1e5a157a3f", "rental_uris": {"android": "https://dc.lft.to/lastmile_qr_scan", "ios": "https://dc.lft.to/lastmile_qr_scan"}, "name": "3ee4bc7b8897803ec4859a1e5a157a3f", "is_reserved": 0}, {"is_disabled": 0, "fusion_lon": 0.0, "fusion_lat": 0.0, "lat": 38.85811116666667, "type": "electric_scooter", "lon": -76.98964666666667, "bike_id": "ed5020d00e4a82e6243d2182a002ecfd", "rental_uris": {"android": "https://dc.lft.to/lastmile_qr_scan", "ios": "https://dc.lft.to/lastmile_qr_scan"}, "name": "ed5020d00e4a82e6243d2182a002ecfd", "is_reserved": 0}, {"is_disabled": 0, "fusion_lon": 0.0, "fusion_lat": 0.0, "lat": 38.907740833333335, "type": "electric_scooter", "lon": -77.03541933333334, "bike_id": "db20573f202eb5f25d694a3beac50950", "rental_uris": {"android": "https://dc.lft.to/lastmile_qr_scan", "ios": "https://dc.lft.to/lastmile_qr_scan"}, "name": "db20573f202eb5f25d694a3beac50950", "is_reserved": 0}, {"is_disabled": 0, "fusion_lon": 0.0, "fusion_lat": 0.0, "lat": 38.962191, "type": "electric_scooter", "lon": -77.0280335, "bike_id": "52bd71094784aa6cbf3c8be6792912de", "rental_uris": {"android": "https://dc.lft.to/lastmile_qr_scan", "ios": "https://dc.lft.to/lastmile_qr_scan"}, "name": "52bd71094784aa6cbf3c8be6792912de", "is_reserved": 0}, {"is_disabled": 0, "fusion_lon": 0.0, "fusion_lat": 0.0, "lat": 38.860373, "type": "electric_scooter", "lon": -76.98373466666666, "bike_id": "c4d9dcd01faa0a3efaeaf0052ee836bb", "rental_uris": {"android": "https://dc.lft.to/lastmile_qr_scan", "ios": "https://dc.lft.to/lastmile_qr_scan"}, "name": "c4d9dcd01faa0a3efaeaf0052ee836bb", "is_reserved": 0}, {"is_disabled": 0, "fusion_lon": 0.0, "fusion_lat": 0.0, "lat": 38.894551166666666, "type": "electric_scooter", "lon": -76.99521866666667, "bike_id": "7ca4a29bee7204e5713c10991f183342", "rental_uris": {"android": "https://dc.lft.to/lastmile_qr_scan", "ios": "https://dc.lft.to/lastmile_qr_scan"}, "name": "7ca4a29bee7204e5713c10991f183342", "is_reserved": 0}, {"is_disabled": 0, "fusion_lon": 0.0, "fusion_lat": 0.0, "lat": 38.926820666666664, "type": "electric_scooter", "lon": -77.02694166666667, "bike_id": "faf4990afaf9ee83ddef98408c3e30ad", "rental_uris": {"android": "https://dc.lft.to/lastmile_qr_scan", "ios": "https://dc.lft.to/lastmile_qr_scan"}, "name": "faf4990afaf9ee83ddef98408c3e30ad", "is_reserved": 0}, {"is_disabled": 0, "fusion_lon": 0.0, "fusion_lat": 0.0, "lat": 38.96126833333334, "type": "electric_scooter", "lon": -77.02820933333334, "bike_id": "22c0c57c9dd31d9d812b3d6c47802153", "rental_uris": {"android": "https://dc.lft.to/lastmile_qr_scan", "ios": "https://dc.lft.to/lastmile_qr_scan"}, "name": "22c0c57c9dd31d9d812b3d6c47802153", "is_reserved": 0}, {"is_disabled": 0, "fusion_lon": 0.0, "fusion_lat": 0.0, "lat": 38.921101666666665, "type": "electric_scooter", "lon": -77.0175945, "bike_id": "459b39d8ae8a2d7be90b0a59c691a363", "rental_uris": {"android": "https://dc.lft.to/lastmile_qr_scan", "ios": "https://dc.lft.to/lastmile_qr_scan"}, "name": "459b39d8ae8a2d7be90b0a59c691a363", "is_reserved": 0}, {"is_disabled": 0, "fusion_lon": 0.0, "fusion_lat": 0.0, "lat": 38.904200333333335, "type": "electric_scooter", "lon": -77.02438616666667, "bike_id": "72f1680f48c7c285a3ea6b17aa806c5c", "rental_uris": {"android": "https://dc.lft.to/lastmile_qr_scan", "ios": "https://dc.lft.to/lastmile_qr_scan"}, "name": "72f1680f48c7c285a3ea6b17aa806c5c", "is_reserved": 0}, {"is_disabled": 0, "fusion_lon": 0.0, "fusion_lat": 0.0, "lat": 38.893167, "type": "electric_scooter", "lon": -77.02121483333333, "bike_id": "505281dfac15bb35ea886a42f6b8e352", "rental_uris": {"android": "https://dc.lft.to/lastmile_qr_scan", "ios": "https://dc.lft.to/lastmile_qr_scan"}, "name": "505281dfac15bb35ea886a42f6b8e352", "is_reserved": 0}, {"is_disabled": 0, "fusion_lon": 0.0, "fusion_lat": 0.0, "lat": 38.949849666666665, "type": "electric_scooter", "lon": -77.02699966666667, "bike_id": "a19df3c420b8f492a5ad34caf2183541", "rental_uris": {"android": "https://dc.lft.to/lastmile_qr_scan", "ios": "https://dc.lft.to/lastmile_qr_scan"}, "name": "a19df3c420b8f492a5ad34caf2183541", "is_reserved": 0}, {"is_disabled": 0, "fusion_lon": 0.0, "fusion_lat": 0.0, "lat": 38.86518366666667, "type": "electric_scooter", "lon": -76.9733105, "bike_id": "ab449e740c2eb309c855561ad2cae6cb", "rental_uris": {"android": "https://dc.lft.to/lastmile_qr_scan", "ios": "https://dc.lft.to/lastmile_qr_scan"}, "name": "ab449e740c2eb309c855561ad2cae6cb", "is_reserved": 0}, {"is_disabled": 0, "fusion_lon": 0.0, "fusion_lat": 0.0, "lat": 38.867393666666665, "type": "electric_scooter", "lon": -76.98851283333333, "bike_id": "6f0d90aead35e572aa9c9d679a8e033e", "rental_uris": {"android": "https://dc.lft.to/lastmile_qr_scan", "ios": "https://dc.lft.to/lastmile_qr_scan"}, "name": "6f0d90aead35e572aa9c9d679a8e033e", "is_reserved": 0}, {"is_disabled": 0, "fusion_lon": 0.0, "fusion_lat": 0.0, "lat": 38.94983116666667, "type": "electric_scooter", "lon": -77.02700533333334, "bike_id": "c49dac0df0d68d36187e28adaa46591b", "rental_uris": {"android": "https://dc.lft.to/lastmile_qr_scan", "ios": "https://dc.lft.to/lastmile_qr_scan"}, "name": "c49dac0df0d68d36187e28adaa46591b", "is_reserved": 0}, {"is_disabled": 0, "fusion_lon": 0.0, "fusion_lat": 0.0, "lat": 38.831526833333335, "type": "electric_bike", "lon": -76.99693066666667, "bike_id": "e3923bbfc43b26b152f3cd09681612c5", "rental_uris": {"android": "https://dc.lft.to/lastmile_qr_scan", "ios": "https://dc.lft.to/lastmile_qr_scan"}, "name": "e3923bbfc43b26b152f3cd09681612c5", "is_reserved": 0}, {"is_disabled": 0, "fusion_lon": 0.0, "fusion_lat": 0.0, "lat": 38.9881505, "type": "electric_bike", "lon": -77.02648583333334, "bike_id": "0878c998a171f4564061473ccff5c2fc", "rental_uris": {"android": "https://dc.lft.to/lastmile_qr_scan", "ios": "https://dc.lft.to/lastmile_qr_scan"}, "name": "0878c998a171f4564061473ccff5c2fc", "is_reserved": 0}, {"is_disabled": 0, "fusion_lon": 0.0, "fusion_lat": 0.0, "lat": 38.94243316666667, "type": "electric_scooter", "lon": -77.02164916666666, "bike_id": "38af0e45936f20bd8d5ea732ec404235", "rental_uris": {"android": "https://dc.lft.to/lastmile_qr_scan", "ios": "https://dc.lft.to/lastmile_qr_scan"}, "name": "38af0e45936f20bd8d5ea732ec404235", "is_reserved": 0}, {"is_disabled": 0, "fusion_lon": 0.0, "fusion_lat": 0.0, "lat": 38.909499, "type": "electric_scooter", "lon": -77.02884616666667, "bike_id": "0d1a1319880a489d9b1b150cf53263c1", "rental_uris": {"android": "https://dc.lft.to/lastmile_qr_scan", "ios": "https://dc.lft.to/lastmile_qr_scan"}, "name": "0d1a1319880a489d9b1b150cf53263c1", "is_reserved": 0}, {"is_disabled": 0, "fusion_lon": 0.0, "fusion_lat": 0.0, "lat": 38.897953666666666, "type": "electric_scooter", "lon": -76.930557, "bike_id": "229d0a60c5734a1258bc6a55e1a66947", "rental_uris": {"android": "https://dc.lft.to/lastmile_qr_scan", "ios": "https://dc.lft.to/lastmile_qr_scan"}, "name": "229d0a60c5734a1258bc6a55e1a66947", "is_reserved": 0}, {"is_disabled": 0, "fusion_lon": 0.0, "fusion_lat": 0.0, "lat": 38.930916, "type": "electric_scooter", "lon": -77.0253975, "bike_id": "034831fc661ba7505e4520a2676d297b", "rental_uris": {"android": "https://dc.lft.to/lastmile_qr_scan", "ios": "https://dc.lft.to/lastmile_qr_scan"}, "name": "034831fc661ba7505e4520a2676d297b", "is_reserved": 0}, {"is_disabled": 0, "fusion_lon": 0.0, "fusion_lat": 0.0, "lat": 38.900494333333334, "type": "electric_scooter", "lon": -76.98327783333333, "bike_id": "4793f3cd148f8a3945a28d9ac33a3768", "rental_uris": {"android": "https://dc.lft.to/lastmile_qr_scan", "ios": "https://dc.lft.to/lastmile_qr_scan"}, "name": "4793f3cd148f8a3945a28d9ac33a3768", "is_reserved": 0}, {"is_disabled": 0, "fusion_lon": 0.0, "fusion_lat": 0.0, "lat": 38.904907333333334, "type": "electric_scooter", "lon": -77.04851166666667, "bike_id": "4cc2c68a3f292e18bd47efece4cef85a", "rental_uris": {"android": "https://dc.lft.to/lastmile_qr_scan", "ios": "https://dc.lft.to/lastmile_qr_scan"}, "name": "4cc2c68a3f292e18bd47efece4cef85a", "is_reserved": 0}, {"is_disabled": 0, "fusion_lon": 0.0, "fusion_lat": 0.0, "lat": 38.905561666666664, "type": "electric_scooter", "lon": -77.04349316666666, "bike_id": "854a9cf353ee145130f6f01ffe756d0f", "rental_uris": {"android": "https://dc.lft.to/lastmile_qr_scan", "ios": "https://dc.lft.to/lastmile_qr_scan"}, "name": "854a9cf353ee145130f6f01ffe756d0f", "is_reserved": 0}, {"is_disabled": 0, "fusion_lon": 0.0, "fusion_lat": 0.0, "lat": 38.874911, "type": "electric_scooter", "lon": -76.99795133333333, "bike_id": "d52870ce30010ae845a8e431669eb724", "rental_uris": {"android": "https://dc.lft.to/lastmile_qr_scan", "ios": "https://dc.lft.to/lastmile_qr_scan"}, "name": "d52870ce30010ae845a8e431669eb724", "is_reserved": 0}, {"is_disabled": 0, "fusion_lon": 0.0, "fusion_lat": 0.0, "lat": 38.89500366666667, "type": "electric_scooter", "lon": -77.00952366666667, "bike_id": "55f4927d6993a2d02c19f8834b262a37", "rental_uris": {"android": "https://dc.lft.to/lastmile_qr_scan", "ios": "https://dc.lft.to/lastmile_qr_scan"}, "name": "55f4927d6993a2d02c19f8834b262a37", "is_reserved": 0}, {"is_disabled": 0, "fusion_lon": 0.0, "fusion_lat": 0.0, "lat": 38.92990733333333, "type": "electric_scooter", "lon": -77.024008, "bike_id": "6985571599e91ddd7ba524ff0472e7fa", "rental_uris": {"android": "https://dc.lft.to/lastmile_qr_scan", "ios": "https://dc.lft.to/lastmile_qr_scan"}, "name": "6985571599e91ddd7ba524ff0472e7fa", "is_reserved": 0}, {"is_disabled": 0, "fusion_lon": 0.0, "fusion_lat": 0.0, "lat": 38.92116633333333, "type": "electric_scooter", "lon": -77.0120805, "bike_id": "68a7762409c55336178ca30ecedf9ace", "rental_uris": {"android": "https://dc.lft.to/lastmile_qr_scan", "ios": "https://dc.lft.to/lastmile_qr_scan"}, "name": "68a7762409c55336178ca30ecedf9ace", "is_reserved": 0}, {"is_disabled": 0, "fusion_lon": 0.0, "fusion_lat": 0.0, "lat": 38.9087705, "type": "electric_scooter", "lon": -77.07637883333334, "bike_id": "90dfd210fb43ae094a70c4ab4d929b11", "rental_uris": {"android": "https://dc.lft.to/lastmile_qr_scan", "ios": "https://dc.lft.to/lastmile_qr_scan"}, "name": "90dfd210fb43ae094a70c4ab4d929b11", "is_reserved": 0}, {"is_disabled": 0, "fusion_lon": 0.0, "fusion_lat": 0.0, "lat": 38.921755833333336, "type": "electric_scooter", "lon": -77.02516466666667, "bike_id": "2bfafef0b5c8f9a9c4290626ec115d2d", "rental_uris": {"android": "https://dc.lft.to/lastmile_qr_scan", "ios": "https://dc.lft.to/lastmile_qr_scan"}, "name": "2bfafef0b5c8f9a9c4290626ec115d2d", "is_reserved": 0}, {"is_disabled": 0, "fusion_lon": 0.0, "fusion_lat": 0.0, "lat": 38.918336833333335, "type": "electric_scooter", "lon": -77.03511983333334, "bike_id": "267d9ec9796b7d3b3ace18848e5b6936", "rental_uris": {"android": "https://dc.lft.to/lastmile_qr_scan", "ios": "https://dc.lft.to/lastmile_qr_scan"}, "name": "267d9ec9796b7d3b3ace18848e5b6936", "is_reserved": 0}, {"is_disabled": 0, "fusion_lon": 0.0, "fusion_lat": 0.0, "lat": 38.897442166666664, "type": "electric_scooter", "lon": -77.00317716666666, "bike_id": "6ea3b42ee9dc40b6c7ee15c03b00bd5f", "rental_uris": {"android": "https://dc.lft.to/lastmile_qr_scan", "ios": "https://dc.lft.to/lastmile_qr_scan"}, "name": "6ea3b42ee9dc40b6c7ee15c03b00bd5f", "is_reserved": 0}, {"is_disabled": 0, "fusion_lon": 0.0, "fusion_lat": 0.0, "lat": 38.85971683333333, "type": "electric_scooter", "lon": -76.98408016666667, "bike_id": "a16eb8630839b327aa78408e878a14fa", "rental_uris": {"android": "https://dc.lft.to/lastmile_qr_scan", "ios": "https://dc.lft.to/lastmile_qr_scan"}, "name": "a16eb8630839b327aa78408e878a14fa", "is_reserved": 0}, {"is_disabled": 0, "fusion_lon": 0.0, "fusion_lat": 0.0, "lat": 38.902627833333334, "type": "electric_scooter", "lon": -77.03453316666666, "bike_id": "688de13764da398029961c54caeaa9ff", "rental_uris": {"android": "https://dc.lft.to/lastmile_qr_scan", "ios": "https://dc.lft.to/lastmile_qr_scan"}, "name": "688de13764da398029961c54caeaa9ff", "is_reserved": 0}, {"is_disabled": 0, "fusion_lon": 0.0, "fusion_lat": 0.0, "lat": 38.90568016666667, "type": "electric_scooter", "lon": -77.04167116666666, "bike_id": "9605a226fc4061468ad95d0cd91da1ee", "rental_uris": {"android": "https://dc.lft.to/lastmile_qr_scan", "ios": "https://dc.lft.to/lastmile_qr_scan"}, "name": "9605a226fc4061468ad95d0cd91da1ee", "is_reserved": 0}, {"is_disabled": 0, "fusion_lon": 0.0, "fusion_lat": 0.0, "lat": 38.91900366666667, "type": "electric_scooter", "lon": -77.02757983333333, "bike_id": "1a1e7315828b7f245b63b4f10d880639", "rental_uris": {"android": "https://dc.lft.to/lastmile_qr_scan", "ios": "https://dc.lft.to/lastmile_qr_scan"}, "name": "1a1e7315828b7f245b63b4f10d880639", "is_reserved": 0}, {"is_disabled": 0, "fusion_lon": 0.0, "fusion_lat": 0.0, "lat": 38.917985, "type": "electric_scooter", "lon": -77.03554166666666, "bike_id": "d352f54d9b56d101639b7cd28e29f5a4", "rental_uris": {"android": "https://dc.lft.to/lastmile_qr_scan", "ios": "https://dc.lft.to/lastmile_qr_scan"}, "name": "d352f54d9b56d101639b7cd28e29f5a4", "is_reserved": 0}, {"is_disabled": 0, "fusion_lon": 0.0, "fusion_lat": 0.0, "lat": 38.927938833333336, "type": "electric_scooter", "lon": -77.02298066666667, "bike_id": "aa03753807a68e263b828ddf7986a8cf", "rental_uris": {"android": "https://dc.lft.to/lastmile_qr_scan", "ios": "https://dc.lft.to/lastmile_qr_scan"}, "name": "aa03753807a68e263b828ddf7986a8cf", "is_reserved": 0}, {"is_disabled": 0, "fusion_lon": 0.0, "fusion_lat": 0.0, "lat": 38.92736883333333, "type": "electric_bike", "lon": -76.99362683333334, "bike_id": "cab4f2f918b7587b00b3e850697fc615", "rental_uris": {"android": "https://dc.lft.to/lastmile_qr_scan", "ios": "https://dc.lft.to/lastmile_qr_scan"}, "name": "cab4f2f918b7587b00b3e850697fc615", "is_reserved": 0}, {"is_disabled": 0, "fusion_lon": 0.0, "fusion_lat": 0.0, "lat": 38.90481183333333, "type": "electric_scooter", "lon": -77.029786, "bike_id": "0045e69ac0910a8187b8b542df282c0a", "rental_uris": {"android": "https://dc.lft.to/lastmile_qr_scan", "ios": "https://dc.lft.to/lastmile_qr_scan"}, "name": "0045e69ac0910a8187b8b542df282c0a", "is_reserved": 0}, {"is_disabled": 0, "fusion_lon": 0.0, "fusion_lat": 0.0, "lat": 38.917159833333336, "type": "electric_scooter", "lon": -77.02861633333333, "bike_id": "4b40df8d17011ef078812272c210ebba", "rental_uris": {"android": "https://dc.lft.to/lastmile_qr_scan", "ios": "https://dc.lft.to/lastmile_qr_scan"}, "name": "4b40df8d17011ef078812272c210ebba", "is_reserved": 0}, {"is_disabled": 0, "fusion_lon": 0.0, "fusion_lat": 0.0, "lat": 38.9563585, "type": "electric_scooter", "lon": -77.02980683333334, "bike_id": "1b3f0dd03fc8e8d3fd0403e1f5f45e6e", "rental_uris": {"android": "https://dc.lft.to/lastmile_qr_scan", "ios": "https://dc.lft.to/lastmile_qr_scan"}, "name": "1b3f0dd03fc8e8d3fd0403e1f5f45e6e", "is_reserved": 0}, {"is_disabled": 0, "fusion_lon": 0.0, "fusion_lat": 0.0, "lat": 38.850676666666665, "type": "electric_bike", "lon": -76.973304, "bike_id": "2d50dff734494e26877bee6ee11aa4b1", "rental_uris": {"android": "https://dc.lft.to/lastmile_qr_scan", "ios": "https://dc.lft.to/lastmile_qr_scan"}, "name": "2d50dff734494e26877bee6ee11aa4b1", "is_reserved": 0}, {"is_disabled": 0, "fusion_lon": 0.0, "fusion_lat": 0.0, "lat": 38.881633666666666, "type": "electric_scooter", "lon": -77.00901283333333, "bike_id": "b8b1558b4e22a496dc9f16bd5b58ed11", "rental_uris": {"android": "https://dc.lft.to/lastmile_qr_scan", "ios": "https://dc.lft.to/lastmile_qr_scan"}, "name": "b8b1558b4e22a496dc9f16bd5b58ed11", "is_reserved": 0}, {"is_disabled": 0, "fusion_lon": 0.0, "fusion_lat": 0.0, "lat": 38.83806116666667, "type": "electric_scooter", "lon": -77.00433316666667, "bike_id": "968bbfcce8c1a1197c2827e91a28baf5", "rental_uris": {"android": "https://dc.lft.to/lastmile_qr_scan", "ios": "https://dc.lft.to/lastmile_qr_scan"}, "name": "968bbfcce8c1a1197c2827e91a28baf5", "is_reserved": 0}, {"is_disabled": 0, "fusion_lon": 0.0, "fusion_lat": 0.0, "lat": 38.886312, "type": "electric_scooter", "lon": -76.99850166666667, "bike_id": "1f0d2b541c9f47e49f8064345868e1ac", "rental_uris": {"android": "https://dc.lft.to/lastmile_qr_scan", "ios": "https://dc.lft.to/lastmile_qr_scan"}, "name": "1f0d2b541c9f47e49f8064345868e1ac", "is_reserved": 0}, {"is_disabled": 0, "fusion_lon": 0.0, "fusion_lat": 0.0, "lat": 38.94651183333333, "type": "electric_scooter", "lon": -77.065306, "bike_id": "acd2730f66853251fd28a3fa280fd928", "rental_uris": {"android": "https://dc.lft.to/lastmile_qr_scan", "ios": "https://dc.lft.to/lastmile_qr_scan"}, "name": "acd2730f66853251fd28a3fa280fd928", "is_reserved": 0}, {"is_disabled": 0, "fusion_lon": 0.0, "fusion_lat": 0.0, "lat": 38.922989666666666, "type": "electric_scooter", "lon": -77.041476, "bike_id": "79a7fe599787a82ea05be74a15477b23", "rental_uris": {"android": "https://dc.lft.to/lastmile_qr_scan", "ios": "https://dc.lft.to/lastmile_qr_scan"}, "name": "79a7fe599787a82ea05be74a15477b23", "is_reserved": 0}, {"is_disabled": 0, "fusion_lon": 0.0, "fusion_lat": 0.0, "lat": 38.84291016666667, "type": "electric_scooter", "lon": -76.99947016666667, "bike_id": "f5c51dcab74d23766e937d6f3c65f55c", "rental_uris": {"android": "https://dc.lft.to/lastmile_qr_scan", "ios": "https://dc.lft.to/lastmile_qr_scan"}, "name": "f5c51dcab74d23766e937d6f3c65f55c", "is_reserved": 0}, {"is_disabled": 0, "fusion_lon": 0.0, "fusion_lat": 0.0, "lat": 38.96614866666667, "type": "electric_bike", "lon": -77.03432283333333, "bike_id": "e12856ed89a383fdd5b8e82f8a6ea57c", "rental_uris": {"android": "https://dc.lft.to/lastmile_qr_scan", "ios": "https://dc.lft.to/lastmile_qr_scan"}, "name": "e12856ed89a383fdd5b8e82f8a6ea57c", "is_reserved": 0}, {"is_disabled": 0, "fusion_lon": 0.0, "fusion_lat": 0.0, "lat": 38.897327, "type": "electric_scooter", "lon": -77.0282405, "bike_id": "90555e4aeb837ca252a1885de1280a26", "rental_uris": {"android": "https://dc.lft.to/lastmile_qr_scan", "ios": "https://dc.lft.to/lastmile_qr_scan"}, "name": "90555e4aeb837ca252a1885de1280a26", "is_reserved": 0}, {"is_disabled": 0, "fusion_lon": 0.0, "fusion_lat": 0.0, "lat": 38.895145, "type": "electric_scooter", "lon": -77.01112016666667, "bike_id": "e45aa994d75e9a24cd35e7b2feaa1a78", "rental_uris": {"android": "https://dc.lft.to/lastmile_qr_scan", "ios": "https://dc.lft.to/lastmile_qr_scan"}, "name": "e45aa994d75e9a24cd35e7b2feaa1a78", "is_reserved": 0}, {"is_disabled": 0, "fusion_lon": 0.0, "fusion_lat": 0.0, "lat": 38.90795983333334, "type": "electric_scooter", "lon": -77.04984416666667, "bike_id": "65293aef96fa8e8c218a4a7f090c4464", "rental_uris": {"android": "https://dc.lft.to/lastmile_qr_scan", "ios": "https://dc.lft.to/lastmile_qr_scan"}, "name": "65293aef96fa8e8c218a4a7f090c4464", "is_reserved": 0}, {"is_disabled": 0, "fusion_lon": 0.0, "fusion_lat": 0.0, "lat": 38.894610166666666, "type": "electric_scooter", "lon": -76.99487833333333, "bike_id": "db39614fab932ffd40c881dd8a5d82a8", "rental_uris": {"android": "https://dc.lft.to/lastmile_qr_scan", "ios": "https://dc.lft.to/lastmile_qr_scan"}, "name": "db39614fab932ffd40c881dd8a5d82a8", "is_reserved": 0}, {"is_disabled": 0, "fusion_lon": 0.0, "fusion_lat": 0.0, "lat": 39.09944516666667, "type": "electric_bike", "lon": -77.18789033333333, "bike_id": "42d8a4cbd987840970e5b3dd84b34fb8", "rental_uris": {"android": "https://dc.lft.to/lastmile_qr_scan", "ios": "https://dc.lft.to/lastmile_qr_scan"}, "name": "42d8a4cbd987840970e5b3dd84b34fb8", "is_reserved": 0}, {"is_disabled": 0, "fusion_lon": 0.0, "fusion_lat": 0.0, "lat": 38.9350175, "type": "electric_bike", "lon": -76.94949416666667, "bike_id": "8d19ad8ca1aeaf7be5581debdb845bf7", "rental_uris": {"android": "https://dc.lft.to/lastmile_qr_scan", "ios": "https://dc.lft.to/lastmile_qr_scan"}, "name": "8d19ad8ca1aeaf7be5581debdb845bf7", "is_reserved": 0}, {"is_disabled": 0, "fusion_lon": 0.0, "fusion_lat": 0.0, "lat": 38.903997, "type": "electric_scooter", "lon": -77.017216, "bike_id": "4dd2a46ea6a70ba30848890bc599d1d5", "rental_uris": {"android": "https://dc.lft.to/lastmile_qr_scan", "ios": "https://dc.lft.to/lastmile_qr_scan"}, "name": "4dd2a46ea6a70ba30848890bc599d1d5", "is_reserved": 0}, {"is_disabled": 0, "fusion_lon": 0.0, "fusion_lat": 0.0, "lat": 38.90985666666667, "type": "electric_scooter", "lon": -77.03721783333333, "bike_id": "100bd2dba135cb5a0fdec71fee01709c", "rental_uris": {"android": "https://dc.lft.to/lastmile_qr_scan", "ios": "https://dc.lft.to/lastmile_qr_scan"}, "name": "100bd2dba135cb5a0fdec71fee01709c", "is_reserved": 0}, {"is_disabled": 0, "fusion_lon": 0.0, "fusion_lat": 0.0, "lat": 38.921588666666665, "type": "electric_scooter", "lon": -77.03401416666667, "bike_id": "82ad0ceb7ecc728f27bf631845686575", "rental_uris": {"android": "https://dc.lft.to/lastmile_qr_scan", "ios": "https://dc.lft.to/lastmile_qr_scan"}, "name": "82ad0ceb7ecc728f27bf631845686575", "is_reserved": 0}, {"is_disabled": 0, "fusion_lon": 0.0, "fusion_lat": 0.0, "lat": 38.90270616666667, "type": "electric_scooter", "lon": -77.05321133333334, "bike_id": "c52a7eb42e06e87e190fe9511521b169", "rental_uris": {"android": "https://dc.lft.to/lastmile_qr_scan", "ios": "https://dc.lft.to/lastmile_qr_scan"}, "name": "c52a7eb42e06e87e190fe9511521b169", "is_reserved": 0}, {"is_disabled": 0, "fusion_lon": 0.0, "fusion_lat": 0.0, "lat": 38.8847995, "type": "electric_scooter", "lon": -76.92991783333333, "bike_id": "af457b4a22a622d8b3387a519daeb25b", "rental_uris": {"android": "https://dc.lft.to/lastmile_qr_scan", "ios": "https://dc.lft.to/lastmile_qr_scan"}, "name": "af457b4a22a622d8b3387a519daeb25b", "is_reserved": 0}, {"is_disabled": 0, "fusion_lon": 0.0, "fusion_lat": 0.0, "lat": 38.911269, "type": "electric_scooter", "lon": -77.05936266666667, "bike_id": "123ea7c0569ce4bc96132ba65c2d8cf5", "rental_uris": {"android": "https://dc.lft.to/lastmile_qr_scan", "ios": "https://dc.lft.to/lastmile_qr_scan"}, "name": "123ea7c0569ce4bc96132ba65c2d8cf5", "is_reserved": 0}, {"is_disabled": 0, "fusion_lon": 0.0, "fusion_lat": 0.0, "lat": 38.89678383333333, "type": "electric_scooter", "lon": -77.01162966666666, "bike_id": "75f221a4a4a7ab0d06f062e87d409330", "rental_uris": {"android": "https://dc.lft.to/lastmile_qr_scan", "ios": "https://dc.lft.to/lastmile_qr_scan"}, "name": "75f221a4a4a7ab0d06f062e87d409330", "is_reserved": 0}, {"is_disabled": 0, "fusion_lon": 0.0, "fusion_lat": 0.0, "lat": 38.8729245, "type": "electric_scooter", "lon": -77.00984966666667, "bike_id": "f0f226cbb834d04e5e65e2fe20caa041", "rental_uris": {"android": "https://dc.lft.to/lastmile_qr_scan", "ios": "https://dc.lft.to/lastmile_qr_scan"}, "name": "f0f226cbb834d04e5e65e2fe20caa041", "is_reserved": 0}, {"is_disabled": 0, "fusion_lon": 0.0, "fusion_lat": 0.0, "lat": 38.91937716666666, "type": "electric_scooter", "lon": -77.08134, "bike_id": "7bb505bf26c1d8963fa7232ca568ec9d", "rental_uris": {"android": "https://dc.lft.to/lastmile_qr_scan", "ios": "https://dc.lft.to/lastmile_qr_scan"}, "name": "7bb505bf26c1d8963fa7232ca568ec9d", "is_reserved": 0}, {"is_disabled": 0, "fusion_lon": 0.0, "fusion_lat": 0.0, "lat": 38.86032383333333, "type": "electric_scooter", "lon": -76.99693583333334, "bike_id": "3b00172e9a8c8ffeeb05a1798f39dc37", "rental_uris": {"android": "https://dc.lft.to/lastmile_qr_scan", "ios": "https://dc.lft.to/lastmile_qr_scan"}, "name": "3b00172e9a8c8ffeeb05a1798f39dc37", "is_reserved": 0}, {"is_disabled": 0, "fusion_lon": 0.0, "fusion_lat": 0.0, "lat": 38.8950045, "type": "electric_scooter", "lon": -76.94879866666666, "bike_id": "e8d7d3c56e723bd9b4becc1bf8e3ced0", "rental_uris": {"android": "https://dc.lft.to/lastmile_qr_scan", "ios": "https://dc.lft.to/lastmile_qr_scan"}, "name": "e8d7d3c56e723bd9b4becc1bf8e3ced0", "is_reserved": 0}, {"is_disabled": 0, "fusion_lon": 0.0, "fusion_lat": 0.0, "lat": 38.91618866666666, "type": "electric_scooter", "lon": -77.04865616666666, "bike_id": "0832a13a5f60bd6774ee809d929c18a9", "rental_uris": {"android": "https://dc.lft.to/lastmile_qr_scan", "ios": "https://dc.lft.to/lastmile_qr_scan"}, "name": "0832a13a5f60bd6774ee809d929c18a9", "is_reserved": 0}, {"is_disabled": 0, "fusion_lon": 0.0, "fusion_lat": 0.0, "lat": 38.906294, "type": "electric_scooter", "lon": -77.02502716666666, "bike_id": "793539bb4a5f3d98e1e6aad3cebbbeda", "rental_uris": {"android": "https://dc.lft.to/lastmile_qr_scan", "ios": "https://dc.lft.to/lastmile_qr_scan"}, "name": "793539bb4a5f3d98e1e6aad3cebbbeda", "is_reserved": 0}, {"is_disabled": 0, "fusion_lon": 0.0, "fusion_lat": 0.0, "lat": 38.999335, "type": "electric_bike", "lon": -77.00121183333333, "bike_id": "407c7ce8161b7e361f998c02491ae5f7", "rental_uris": {"android": "https://dc.lft.to/lastmile_qr_scan", "ios": "https://dc.lft.to/lastmile_qr_scan"}, "name": "407c7ce8161b7e361f998c02491ae5f7", "is_reserved": 0}, {"is_disabled": 0, "fusion_lon": 0.0, "fusion_lat": 0.0, "lat": 39.095890833333335, "type": "electric_bike", "lon": -77.14774666666666, "bike_id": "7c176e683742115ecb38b8d048162fad", "rental_uris": {"android": "https://dc.lft.to/lastmile_qr_scan", "ios": "https://dc.lft.to/lastmile_qr_scan"}, "name": "7c176e683742115ecb38b8d048162fad", "is_reserved": 0}, {"is_disabled": 0, "fusion_lon": 0.0, "fusion_lat": 0.0, "lat": 38.898374, "type": "electric_scooter", "lon": -76.94557183333333, "bike_id": "66a52ea856dcca3b191e589fe3b2f5d8", "rental_uris": {"android": "https://dc.lft.to/lastmile_qr_scan", "ios": "https://dc.lft.to/lastmile_qr_scan"}, "name": "66a52ea856dcca3b191e589fe3b2f5d8", "is_reserved": 0}, {"is_disabled": 0, "fusion_lon": 0.0, "fusion_lat": 0.0, "lat": 38.85514716666667, "type": "electric_bike", "lon": -77.10719116666667, "bike_id": "f66a8e3d0d75dfd90108fdf2f0fac476", "rental_uris": {"android": "https://dc.lft.to/lastmile_qr_scan", "ios": "https://dc.lft.to/lastmile_qr_scan"}, "name": "f66a8e3d0d75dfd90108fdf2f0fac476", "is_reserved": 0}, {"is_disabled": 0, "fusion_lon": 0.0, "fusion_lat": 0.0, "lat": 38.873077, "type": "electric_bike", "lon": -76.9710235, "bike_id": "2296e6da3524351e997d615331ab77f6", "rental_uris": {"android": "https://dc.lft.to/lastmile_qr_scan", "ios": "https://dc.lft.to/lastmile_qr_scan"}, "name": "2296e6da3524351e997d615331ab77f6", "is_reserved": 0}, {"is_disabled": 0, "fusion_lon": 0.0, "fusion_lat": 0.0, "lat": 38.91916466666667, "type": "electric_scooter", "lon": -77.02481816666666, "bike_id": "47c951af9353c5d5a7f0d2ff6612260a", "rental_uris": {"android": "https://dc.lft.to/lastmile_qr_scan", "ios": "https://dc.lft.to/lastmile_qr_scan"}, "name": "47c951af9353c5d5a7f0d2ff6612260a", "is_reserved": 0}, {"is_disabled": 0, "fusion_lon": 0.0, "fusion_lat": 0.0, "lat": 38.96651166666667, "type": "electric_bike", "lon": -76.93023416666666, "bike_id": "1a13d9aa1656d061d106a55fb83994bc", "rental_uris": {"android": "https://dc.lft.to/lastmile_qr_scan", "ios": "https://dc.lft.to/lastmile_qr_scan"}, "name": "1a13d9aa1656d061d106a55fb83994bc", "is_reserved": 0}, {"is_disabled": 0, "fusion_lon": 0.0, "fusion_lat": 0.0, "lat": 38.91105966666667, "type": "electric_scooter", "lon": -77.00839033333334, "bike_id": "6ec3d47b09fecbe216123ccf9d23f6ae", "rental_uris": {"android": "https://dc.lft.to/lastmile_qr_scan", "ios": "https://dc.lft.to/lastmile_qr_scan"}, "name": "6ec3d47b09fecbe216123ccf9d23f6ae", "is_reserved": 0}, {"is_disabled": 0, "fusion_lon": 0.0, "fusion_lat": 0.0, "lat": 38.897253166666665, "type": "electric_scooter", "lon": -77.04814, "bike_id": "6725235aaf489265d794a0d2eba6a4a3", "rental_uris": {"android": "https://dc.lft.to/lastmile_qr_scan", "ios": "https://dc.lft.to/lastmile_qr_scan"}, "name": "6725235aaf489265d794a0d2eba6a4a3", "is_reserved": 0}, {"is_disabled": 0, "fusion_lon": 0.0, "fusion_lat": 0.0, "lat": 38.903730833333334, "type": "electric_scooter", "lon": -77.03718266666667, "bike_id": "2d459135d8e5d669f710be2dd46bf717", "rental_uris": {"android": "https://dc.lft.to/lastmile_qr_scan", "ios": "https://dc.lft.to/lastmile_qr_scan"}, "name": "2d459135d8e5d669f710be2dd46bf717", "is_reserved": 0}, {"is_disabled": 0, "fusion_lon": 0.0, "fusion_lat": 0.0, "lat": 38.9172565, "type": "electric_scooter", "lon": -77.0460005, "bike_id": "6b36c15a375dbb0ee6643f975100ef17", "rental_uris": {"android": "https://dc.lft.to/lastmile_qr_scan", "ios": "https://dc.lft.to/lastmile_qr_scan"}, "name": "6b36c15a375dbb0ee6643f975100ef17", "is_reserved": 0}, {"is_disabled": 0, "fusion_lon": 0.0, "fusion_lat": 0.0, "lat": 38.9162505, "type": "electric_scooter", "lon": -77.0239415, "bike_id": "332a9debcda2be65b641828197fb5feb", "rental_uris": {"android": "https://dc.lft.to/lastmile_qr_scan", "ios": "https://dc.lft.to/lastmile_qr_scan"}, "name": "332a9debcda2be65b641828197fb5feb", "is_reserved": 0}, {"is_disabled": 0, "fusion_lon": 0.0, "fusion_lat": 0.0, "lat": 38.953759833333336, "type": "electric_scooter", "lon": -77.02552483333334, "bike_id": "55c20046999990ab007e491b2b047759", "rental_uris": {"android": "https://dc.lft.to/lastmile_qr_scan", "ios": "https://dc.lft.to/lastmile_qr_scan"}, "name": "55c20046999990ab007e491b2b047759", "is_reserved": 0}, {"is_disabled": 0, "fusion_lon": 0.0, "fusion_lat": 0.0, "lat": 38.965053166666664, "type": "electric_scooter", "lon": -77.0248015, "bike_id": "269ebddbc1c47d8f1c3890c3d3001f2d", "rental_uris": {"android": "https://dc.lft.to/lastmile_qr_scan", "ios": "https://dc.lft.to/lastmile_qr_scan"}, "name": "269ebddbc1c47d8f1c3890c3d3001f2d", "is_reserved": 0}, {"is_disabled": 0, "fusion_lon": 0.0, "fusion_lat": 0.0, "lat": 38.92994183333333, "type": "electric_scooter", "lon": -77.0782445, "bike_id": "6fbbdee7836316b1a4eeba6702f8680c", "rental_uris": {"android": "https://dc.lft.to/lastmile_qr_scan", "ios": "https://dc.lft.to/lastmile_qr_scan"}, "name": "6fbbdee7836316b1a4eeba6702f8680c", "is_reserved": 0}, {"is_disabled": 0, "fusion_lon": 0.0, "fusion_lat": 0.0, "lat": 38.92417433333333, "type": "electric_scooter", "lon": -77.04156116666667, "bike_id": "2014ffff6a48e9e28acd373d7d8e1423", "rental_uris": {"android": "https://dc.lft.to/lastmile_qr_scan", "ios": "https://dc.lft.to/lastmile_qr_scan"}, "name": "2014ffff6a48e9e28acd373d7d8e1423", "is_reserved": 0}, {"is_disabled": 0, "fusion_lon": 0.0, "fusion_lat": 0.0, "lat": 38.892241166666665, "type": "electric_scooter", "lon": -77.03340233333333, "bike_id": "7301dac5d6549c634cd634c9d6166798", "rental_uris": {"android": "https://dc.lft.to/lastmile_qr_scan", "ios": "https://dc.lft.to/lastmile_qr_scan"}, "name": "7301dac5d6549c634cd634c9d6166798", "is_reserved": 0}, {"is_disabled": 0, "fusion_lon": 0.0, "fusion_lat": 0.0, "lat": 38.917171, "type": "electric_scooter", "lon": -77.03183466666667, "bike_id": "1719ec91b67585296f0bc01e63d12db9", "rental_uris": {"android": "https://dc.lft.to/lastmile_qr_scan", "ios": "https://dc.lft.to/lastmile_qr_scan"}, "name": "1719ec91b67585296f0bc01e63d12db9", "is_reserved": 0}, {"is_disabled": 0, "fusion_lon": 0.0, "fusion_lat": 0.0, "lat": 38.91174983333333, "type": "electric_scooter", "lon": -77.00459233333333, "bike_id": "ecc33be03464cf22e436ac67528089a3", "rental_uris": {"android": "https://dc.lft.to/lastmile_qr_scan", "ios": "https://dc.lft.to/lastmile_qr_scan"}, "name": "ecc33be03464cf22e436ac67528089a3", "is_reserved": 0}, {"is_disabled": 0, "fusion_lon": 0.0, "fusion_lat": 0.0, "lat": 38.933729166666666, "type": "electric_scooter", "lon": -77.05741083333334, "bike_id": "3a20db681ac62f6841dd52004c8a94a3", "rental_uris": {"android": "https://dc.lft.to/lastmile_qr_scan", "ios": "https://dc.lft.to/lastmile_qr_scan"}, "name": "3a20db681ac62f6841dd52004c8a94a3", "is_reserved": 0}, {"is_disabled": 0, "fusion_lon": 0.0, "fusion_lat": 0.0, "lat": 38.902770833333335, "type": "electric_scooter", "lon": -77.0385915, "bike_id": "f24b18e00d07c3188ceeef8325424638", "rental_uris": {"android": "https://dc.lft.to/lastmile_qr_scan", "ios": "https://dc.lft.to/lastmile_qr_scan"}, "name": "f24b18e00d07c3188ceeef8325424638", "is_reserved": 0}, {"is_disabled": 0, "fusion_lon": 0.0, "fusion_lat": 0.0, "lat": 38.880523333333336, "type": "electric_scooter", "lon": -77.01671966666666, "bike_id": "e6f02932db729418c8467b385289a0f8", "rental_uris": {"android": "https://dc.lft.to/lastmile_qr_scan", "ios": "https://dc.lft.to/lastmile_qr_scan"}, "name": "e6f02932db729418c8467b385289a0f8", "is_reserved": 0}, {"is_disabled": 0, "fusion_lon": 0.0, "fusion_lat": 0.0, "lat": 38.902814666666664, "type": "electric_scooter", "lon": -77.034369, "bike_id": "4e6b7bbf1a913c57c2dbe4a9dcbea267", "rental_uris": {"android": "https://dc.lft.to/lastmile_qr_scan", "ios": "https://dc.lft.to/lastmile_qr_scan"}, "name": "4e6b7bbf1a913c57c2dbe4a9dcbea267", "is_reserved": 0}, {"is_disabled": 0, "fusion_lon": 0.0, "fusion_lat": 0.0, "lat": 38.90364016666667, "type": "electric_scooter", "lon": -77.050245, "bike_id": "fc12ed2e3b53169bcc3f8c09a10ecea2", "rental_uris": {"android": "https://dc.lft.to/lastmile_qr_scan", "ios": "https://dc.lft.to/lastmile_qr_scan"}, "name": "fc12ed2e3b53169bcc3f8c09a10ecea2", "is_reserved": 0}, {"is_disabled": 0, "fusion_lon": 0.0, "fusion_lat": 0.0, "lat": 38.9190915, "type": "electric_scooter", "lon": -77.0239005, "bike_id": "581fa1acf519fccd8a8eebf8885befd8", "rental_uris": {"android": "https://dc.lft.to/lastmile_qr_scan", "ios": "https://dc.lft.to/lastmile_qr_scan"}, "name": "581fa1acf519fccd8a8eebf8885befd8", "is_reserved": 0}, {"is_disabled": 0, "fusion_lon": 0.0, "fusion_lat": 0.0, "lat": 38.91146083333334, "type": "electric_scooter", "lon": -77.08788566666666, "bike_id": "d23793db9634d6ffe4a21fcac5b9431b", "rental_uris": {"android": "https://dc.lft.to/lastmile_qr_scan", "ios": "https://dc.lft.to/lastmile_qr_scan"}, "name": "d23793db9634d6ffe4a21fcac5b9431b", "is_reserved": 0}, {"is_disabled": 0, "fusion_lon": 0.0, "fusion_lat": 0.0, "lat": 38.907324833333334, "type": "electric_scooter", "lon": -77.03832866666667, "bike_id": "ee51ec22b85fe47c4c5f3c83c4b455c3", "rental_uris": {"android": "https://dc.lft.to/lastmile_qr_scan", "ios": "https://dc.lft.to/lastmile_qr_scan"}, "name": "ee51ec22b85fe47c4c5f3c83c4b455c3", "is_reserved": 0}, {"is_disabled": 0, "fusion_lon": 0.0, "fusion_lat": 0.0, "lat": 38.87985716666667, "type": "electric_bike", "lon": -76.9159935, "bike_id": "1aeaaf02b278a0cbc4b96d7e1d4ebfbc", "rental_uris": {"android": "https://dc.lft.to/lastmile_qr_scan", "ios": "https://dc.lft.to/lastmile_qr_scan"}, "name": "1aeaaf02b278a0cbc4b96d7e1d4ebfbc", "is_reserved": 0}, {"is_disabled": 0, "fusion_lon": 0.0, "fusion_lat": 0.0, "lat": 38.916174166666664, "type": "electric_bike", "lon": -77.013556, "bike_id": "9eb0ff35cc6d535e2890428cef85aa72", "rental_uris": {"android": "https://dc.lft.to/lastmile_qr_scan", "ios": "https://dc.lft.to/lastmile_qr_scan"}, "name": "9eb0ff35cc6d535e2890428cef85aa72", "is_reserved": 0}, {"is_disabled": 0, "fusion_lon": 0.0, "fusion_lat": 0.0, "lat": 38.85835816666667, "type": "electric_bike", "lon": -76.99284033333333, "bike_id": "f10667ba4568192021572d31118f91ab", "rental_uris": {"android": "https://dc.lft.to/lastmile_qr_scan", "ios": "https://dc.lft.to/lastmile_qr_scan"}, "name": "f10667ba4568192021572d31118f91ab", "is_reserved": 0}, {"is_disabled": 0, "fusion_lon": 0.0, "fusion_lat": 0.0, "lat": 38.911136166666665, "type": "electric_scooter", "lon": -76.9976545, "bike_id": "e36c6f86846cab60666d1172d4541253", "rental_uris": {"android": "https://dc.lft.to/lastmile_qr_scan", "ios": "https://dc.lft.to/lastmile_qr_scan"}, "name": "e36c6f86846cab60666d1172d4541253", "is_reserved": 0}, {"is_disabled": 0, "fusion_lon": 0.0, "fusion_lat": 0.0, "lat": 38.88915566666667, "type": "electric_scooter", "lon": -76.98001383333333, "bike_id": "ac4ac94d4e4ceadc353e61bfd3bccf23", "rental_uris": {"android": "https://dc.lft.to/lastmile_qr_scan", "ios": "https://dc.lft.to/lastmile_qr_scan"}, "name": "ac4ac94d4e4ceadc353e61bfd3bccf23", "is_reserved": 0}, {"is_disabled": 0, "fusion_lon": 0.0, "fusion_lat": 0.0, "lat": 38.9288055, "type": "electric_scooter", "lon": -77.03744433333334, "bike_id": "8f32977c630ab5b2115e9667dc13fcef", "rental_uris": {"android": "https://dc.lft.to/lastmile_qr_scan", "ios": "https://dc.lft.to/lastmile_qr_scan"}, "name": "8f32977c630ab5b2115e9667dc13fcef", "is_reserved": 0}, {"is_disabled": 0, "fusion_lon": 0.0, "fusion_lat": 0.0, "lat": 38.90349583333333, "type": "electric_scooter", "lon": -77.0386375, "bike_id": "3251f0ac64b8240ccc02b1432441f82d", "rental_uris": {"android": "https://dc.lft.to/lastmile_qr_scan", "ios": "https://dc.lft.to/lastmile_qr_scan"}, "name": "3251f0ac64b8240ccc02b1432441f82d", "is_reserved": 0}, {"is_disabled": 0, "fusion_lon": 0.0, "fusion_lat": 0.0, "lat": 38.924360166666666, "type": "electric_bike", "lon": -76.90756983333333, "bike_id": "8f57050d24862b32f0dcdfcab62860cf", "rental_uris": {"android": "https://dc.lft.to/lastmile_qr_scan", "ios": "https://dc.lft.to/lastmile_qr_scan"}, "name": "8f57050d24862b32f0dcdfcab62860cf", "is_reserved": 0}, {"is_disabled": 0, "fusion_lon": 0.0, "fusion_lat": 0.0, "lat": 38.90017366666667, "type": "electric_scooter", "lon": -77.033862, "bike_id": "2df7f217d2d80082e0a5abc25eb0478b", "rental_uris": {"android": "https://dc.lft.to/lastmile_qr_scan", "ios": "https://dc.lft.to/lastmile_qr_scan"}, "name": "2df7f217d2d80082e0a5abc25eb0478b", "is_reserved": 0}, {"is_disabled": 0, "fusion_lon": 0.0, "fusion_lat": 0.0, "lat": 38.89949283333333, "type": "electric_scooter", "lon": -77.00206383333334, "bike_id": "276ac18b9948a2dcabc25c77662f1d10", "rental_uris": {"android": "https://dc.lft.to/lastmile_qr_scan", "ios": "https://dc.lft.to/lastmile_qr_scan"}, "name": "276ac18b9948a2dcabc25c77662f1d10", "is_reserved": 0}, {"is_disabled": 0, "fusion_lon": 0.0, "fusion_lat": 0.0, "lat": 38.871932, "type": "electric_scooter", "lon": -76.9782195, "bike_id": "c4316fcfe93edc12ec054f51f1cbbab2", "rental_uris": {"android": "https://dc.lft.to/lastmile_qr_scan", "ios": "https://dc.lft.to/lastmile_qr_scan"}, "name": "c4316fcfe93edc12ec054f51f1cbbab2", "is_reserved": 0}, {"is_disabled": 0, "fusion_lon": 0.0, "fusion_lat": 0.0, "lat": 38.9058525, "type": "electric_scooter", "lon": -77.06902566666666, "bike_id": "058f84fe989c47b4b1136dafe84e13ea", "rental_uris": {"android": "https://dc.lft.to/lastmile_qr_scan", "ios": "https://dc.lft.to/lastmile_qr_scan"}, "name": "058f84fe989c47b4b1136dafe84e13ea", "is_reserved": 0}, {"is_disabled": 0, "fusion_lon": 0.0, "fusion_lat": 0.0, "lat": 38.961284166666665, "type": "electric_scooter", "lon": -77.02808433333334, "bike_id": "7093297a15609a687d2dc3d4ba2168b8", "rental_uris": {"android": "https://dc.lft.to/lastmile_qr_scan", "ios": "https://dc.lft.to/lastmile_qr_scan"}, "name": "7093297a15609a687d2dc3d4ba2168b8", "is_reserved": 0}, {"is_disabled": 0, "fusion_lon": 0.0, "fusion_lat": 0.0, "lat": 38.89661516666666, "type": "electric_scooter", "lon": -77.01200283333333, "bike_id": "beab30f81f73673325f2a903147a54f4", "rental_uris": {"android": "https://dc.lft.to/lastmile_qr_scan", "ios": "https://dc.lft.to/lastmile_qr_scan"}, "name": "beab30f81f73673325f2a903147a54f4", "is_reserved": 0}, {"is_disabled": 0, "fusion_lon": 0.0, "fusion_lat": 0.0, "lat": 38.9040855, "type": "electric_scooter", "lon": -77.06878666666667, "bike_id": "a6aa6c585434a31f4c8f2e1c72a7a3ef", "rental_uris": {"android": "https://dc.lft.to/lastmile_qr_scan", "ios": "https://dc.lft.to/lastmile_qr_scan"}, "name": "a6aa6c585434a31f4c8f2e1c72a7a3ef", "is_reserved": 0}, {"is_disabled": 0, "fusion_lon": 0.0, "fusion_lat": 0.0, "lat": 38.90792166666667, "type": "electric_scooter", "lon": -77.001385, "bike_id": "e43fd8ffa60a142a1ab2ec968b53bcbb", "rental_uris": {"android": "https://dc.lft.to/lastmile_qr_scan", "ios": "https://dc.lft.to/lastmile_qr_scan"}, "name": "e43fd8ffa60a142a1ab2ec968b53bcbb", "is_reserved": 0}, {"is_disabled": 0, "fusion_lon": 0.0, "fusion_lat": 0.0, "lat": 38.901491166666666, "type": "electric_scooter", "lon": -77.0228835, "bike_id": "3f7243b244475117655f508070caddbb", "rental_uris": {"android": "https://dc.lft.to/lastmile_qr_scan", "ios": "https://dc.lft.to/lastmile_qr_scan"}, "name": "3f7243b244475117655f508070caddbb", "is_reserved": 0}, {"is_disabled": 0, "fusion_lon": 0.0, "fusion_lat": 0.0, "lat": 38.90684, "type": "electric_scooter", "lon": -76.98000666666667, "bike_id": "1af4f45f782764ac222e5e3654740d5e", "rental_uris": {"android": "https://dc.lft.to/lastmile_qr_scan", "ios": "https://dc.lft.to/lastmile_qr_scan"}, "name": "1af4f45f782764ac222e5e3654740d5e", "is_reserved": 0}, {"is_disabled": 0, "fusion_lon": 0.0, "fusion_lat": 0.0, "lat": 38.91043233333333, "type": "electric_scooter", "lon": -77.04010866666667, "bike_id": "7b35ab27f22704516aeef96b98d871bd", "rental_uris": {"android": "https://dc.lft.to/lastmile_qr_scan", "ios": "https://dc.lft.to/lastmile_qr_scan"}, "name": "7b35ab27f22704516aeef96b98d871bd", "is_reserved": 0}, {"is_disabled": 0, "fusion_lon": 0.0, "fusion_lat": 0.0, "lat": 38.858067166666665, "type": "electric_scooter", "lon": -76.98654916666666, "bike_id": "da47aad481ae546f73f2bc9181a9a78c", "rental_uris": {"android": "https://dc.lft.to/lastmile_qr_scan", "ios": "https://dc.lft.to/lastmile_qr_scan"}, "name": "da47aad481ae546f73f2bc9181a9a78c", "is_reserved": 0}, {"is_disabled": 0, "fusion_lon": 0.0, "fusion_lat": 0.0, "lat": 38.941981, "type": "electric_scooter", "lon": -77.02588366666667, "bike_id": "40f7bea1263e24aba2e9ed139d336fc3", "rental_uris": {"android": "https://dc.lft.to/lastmile_qr_scan", "ios": "https://dc.lft.to/lastmile_qr_scan"}, "name": "40f7bea1263e24aba2e9ed139d336fc3", "is_reserved": 0}, {"is_disabled": 0, "fusion_lon": 0.0, "fusion_lat": 0.0, "lat": 38.903743, "type": "electric_scooter", "lon": -77.01618616666667, "bike_id": "205df20fbe2c30aec53701aeeabc7a34", "rental_uris": {"android": "https://dc.lft.to/lastmile_qr_scan", "ios": "https://dc.lft.to/lastmile_qr_scan"}, "name": "205df20fbe2c30aec53701aeeabc7a34", "is_reserved": 0}, {"is_disabled": 0, "fusion_lon": 0.0, "fusion_lat": 0.0, "lat": 38.935301, "type": "electric_scooter", "lon": -77.0544275, "bike_id": "9983a77943d492c7813b7d975b8e1d42", "rental_uris": {"android": "https://dc.lft.to/lastmile_qr_scan", "ios": "https://dc.lft.to/lastmile_qr_scan"}, "name": "9983a77943d492c7813b7d975b8e1d42", "is_reserved": 0}, {"is_disabled": 0, "fusion_lon": 0.0, "fusion_lat": 0.0, "lat": 38.926015166666666, "type": "electric_scooter", "lon": -77.057073, "bike_id": "96fca0731da8d3f68f5ddf43a08bdec3", "rental_uris": {"android": "https://dc.lft.to/lastmile_qr_scan", "ios": "https://dc.lft.to/lastmile_qr_scan"}, "name": "96fca0731da8d3f68f5ddf43a08bdec3", "is_reserved": 0}, {"is_disabled": 0, "fusion_lon": 0.0, "fusion_lat": 0.0, "lat": 38.9118215, "type": "electric_scooter", "lon": -77.03500866666667, "bike_id": "439c07a65df6c761d803e21bc0d64dd0", "rental_uris": {"android": "https://dc.lft.to/lastmile_qr_scan", "ios": "https://dc.lft.to/lastmile_qr_scan"}, "name": "439c07a65df6c761d803e21bc0d64dd0", "is_reserved": 0}, {"is_disabled": 0, "fusion_lon": 0.0, "fusion_lat": 0.0, "lat": 38.90872, "type": "electric_scooter", "lon": -77.03535466666666, "bike_id": "4b8fc80e2a2247ddb22c455e5f966683", "rental_uris": {"android": "https://dc.lft.to/lastmile_qr_scan", "ios": "https://dc.lft.to/lastmile_qr_scan"}, "name": "4b8fc80e2a2247ddb22c455e5f966683", "is_reserved": 0}, {"is_disabled": 0, "fusion_lon": 0.0, "fusion_lat": 0.0, "lat": 38.96097666666667, "type": "electric_scooter", "lon": -77.068953, "bike_id": "c1ea666e27157056423516fd0da47643", "rental_uris": {"android": "https://dc.lft.to/lastmile_qr_scan", "ios": "https://dc.lft.to/lastmile_qr_scan"}, "name": "c1ea666e27157056423516fd0da47643", "is_reserved": 0}, {"is_disabled": 0, "fusion_lon": 0.0, "fusion_lat": 0.0, "lat": 38.9146545, "type": "electric_scooter", "lon": -77.03211633333333, "bike_id": "bdb38281aa68223488c1d73406742057", "rental_uris": {"android": "https://dc.lft.to/lastmile_qr_scan", "ios": "https://dc.lft.to/lastmile_qr_scan"}, "name": "bdb38281aa68223488c1d73406742057", "is_reserved": 0}, {"is_disabled": 0, "fusion_lon": 0.0, "fusion_lat": 0.0, "lat": 38.934037833333335, "type": "electric_scooter", "lon": -77.03262183333334, "bike_id": "613b122a6247c6785b000b6450cbf044", "rental_uris": {"android": "https://dc.lft.to/lastmile_qr_scan", "ios": "https://dc.lft.to/lastmile_qr_scan"}, "name": "613b122a6247c6785b000b6450cbf044", "is_reserved": 0}, {"is_disabled": 0, "fusion_lon": 0.0, "fusion_lat": 0.0, "lat": 38.92974016666667, "type": "electric_scooter", "lon": -77.02071983333333, "bike_id": "7c7e7d99f1b03817dff2634597b043a2", "rental_uris": {"android": "https://dc.lft.to/lastmile_qr_scan", "ios": "https://dc.lft.to/lastmile_qr_scan"}, "name": "7c7e7d99f1b03817dff2634597b043a2", "is_reserved": 0}, {"is_disabled": 0, "fusion_lon": 0.0, "fusion_lat": 0.0, "lat": 38.86521366666667, "type": "electric_scooter", "lon": -76.989638, "bike_id": "17a65584756c085ccc64ac41ef934328", "rental_uris": {"android": "https://dc.lft.to/lastmile_qr_scan", "ios": "https://dc.lft.to/lastmile_qr_scan"}, "name": "17a65584756c085ccc64ac41ef934328", "is_reserved": 0}, {"is_disabled": 0, "fusion_lon": 0.0, "fusion_lat": 0.0, "lat": 38.8959885, "type": "electric_scooter", "lon": -77.0092525, "bike_id": "17e716ec85084a174a262549b2ed2aa3", "rental_uris": {"android": "https://dc.lft.to/lastmile_qr_scan", "ios": "https://dc.lft.to/lastmile_qr_scan"}, "name": "17e716ec85084a174a262549b2ed2aa3", "is_reserved": 0}, {"is_disabled": 0, "fusion_lon": 0.0, "fusion_lat": 0.0, "lat": 38.91598183333333, "type": "electric_scooter", "lon": -77.0311835, "bike_id": "a927e703c1094a82117bf6291337aabb", "rental_uris": {"android": "https://dc.lft.to/lastmile_qr_scan", "ios": "https://dc.lft.to/lastmile_qr_scan"}, "name": "a927e703c1094a82117bf6291337aabb", "is_reserved": 0}, {"is_disabled": 0, "fusion_lon": 0.0, "fusion_lat": 0.0, "lat": 38.90934583333333, "type": "electric_scooter", "lon": -77.02302466666667, "bike_id": "e93b743011ace879765d7d315f66ed09", "rental_uris": {"android": "https://dc.lft.to/lastmile_qr_scan", "ios": "https://dc.lft.to/lastmile_qr_scan"}, "name": "e93b743011ace879765d7d315f66ed09", "is_reserved": 0}, {"is_disabled": 0, "fusion_lon": 0.0, "fusion_lat": 0.0, "lat": 38.985056666666665, "type": "electric_bike", "lon": -76.98207333333333, "bike_id": "05093d14c69db53c206a92d1166a6a09", "rental_uris": {"android": "https://dc.lft.to/lastmile_qr_scan", "ios": "https://dc.lft.to/lastmile_qr_scan"}, "name": "05093d14c69db53c206a92d1166a6a09", "is_reserved": 0}, {"is_disabled": 0, "fusion_lon": 0.0, "fusion_lat": 0.0, "lat": 38.918008, "type": "electric_scooter", "lon": -77.02397283333333, "bike_id": "90c32ed4b66ae87b02b7008f72423f3a", "rental_uris": {"android": "https://dc.lft.to/lastmile_qr_scan", "ios": "https://dc.lft.to/lastmile_qr_scan"}, "name": "90c32ed4b66ae87b02b7008f72423f3a", "is_reserved": 0}, {"is_disabled": 0, "fusion_lon": 0.0, "fusion_lat": 0.0, "lat": 38.915595333333336, "type": "electric_scooter", "lon": -77.01019916666667, "bike_id": "62a3112ab2cb3c183539307acd18010b", "rental_uris": {"android": "https://dc.lft.to/lastmile_qr_scan", "ios": "https://dc.lft.to/lastmile_qr_scan"}, "name": "62a3112ab2cb3c183539307acd18010b", "is_reserved": 0}, {"is_disabled": 0, "fusion_lon": 0.0, "fusion_lat": 0.0, "lat": 38.9050295, "type": "electric_scooter", "lon": -77.025007, "bike_id": "2e64c49e34fd82ae00d133910256d10b", "rental_uris": {"android": "https://dc.lft.to/lastmile_qr_scan", "ios": "https://dc.lft.to/lastmile_qr_scan"}, "name": "2e64c49e34fd82ae00d133910256d10b", "is_reserved": 0}, {"is_disabled": 0, "fusion_lon": 0.0, "fusion_lat": 0.0, "lat": 38.914644833333334, "type": "electric_scooter", "lon": -77.03189766666667, "bike_id": "3df8a1d7792c71aeefc2bd58e0d91d74", "rental_uris": {"android": "https://dc.lft.to/lastmile_qr_scan", "ios": "https://dc.lft.to/lastmile_qr_scan"}, "name": "3df8a1d7792c71aeefc2bd58e0d91d74", "is_reserved": 0}, {"is_disabled": 0, "fusion_lon": 0.0, "fusion_lat": 0.0, "lat": 38.87679966666666, "type": "electric_scooter", "lon": -77.00883266666666, "bike_id": "c44e773de956c7a45dddb083f1eb7e87", "rental_uris": {"android": "https://dc.lft.to/lastmile_qr_scan", "ios": "https://dc.lft.to/lastmile_qr_scan"}, "name": "c44e773de956c7a45dddb083f1eb7e87", "is_reserved": 0}, {"is_disabled": 0, "fusion_lon": 0.0, "fusion_lat": 0.0, "lat": 38.9170125, "type": "electric_scooter", "lon": -77.001127, "bike_id": "a11259420dca39b9f107f51840da3249", "rental_uris": {"android": "https://dc.lft.to/lastmile_qr_scan", "ios": "https://dc.lft.to/lastmile_qr_scan"}, "name": "a11259420dca39b9f107f51840da3249", "is_reserved": 0}, {"is_disabled": 0, "fusion_lon": 0.0, "fusion_lat": 0.0, "lat": 38.89515566666667, "type": "electric_scooter", "lon": -77.0111085, "bike_id": "bd62cfbb78ddde1814e86489eef6b371", "rental_uris": {"android": "https://dc.lft.to/lastmile_qr_scan", "ios": "https://dc.lft.to/lastmile_qr_scan"}, "name": "bd62cfbb78ddde1814e86489eef6b371", "is_reserved": 0}, {"is_disabled": 0, "fusion_lon": 0.0, "fusion_lat": 0.0, "lat": 38.917328833333336, "type": "electric_scooter", "lon": -77.03644633333333, "bike_id": "10835e8aa0c9f644c49336dd574c5636", "rental_uris": {"android": "https://dc.lft.to/lastmile_qr_scan", "ios": "https://dc.lft.to/lastmile_qr_scan"}, "name": "10835e8aa0c9f644c49336dd574c5636", "is_reserved": 0}, {"is_disabled": 0, "fusion_lon": 0.0, "fusion_lat": 0.0, "lat": 38.9057305, "type": "electric_scooter", "lon": -77.02503433333334, "bike_id": "dc5e6a8e6e1d317731f2139ef16a7a2c", "rental_uris": {"android": "https://dc.lft.to/lastmile_qr_scan", "ios": "https://dc.lft.to/lastmile_qr_scan"}, "name": "dc5e6a8e6e1d317731f2139ef16a7a2c", "is_reserved": 0}, {"is_disabled": 0, "fusion_lon": 0.0, "fusion_lat": 0.0, "lat": 38.86846233333333, "type": "electric_bike", "lon": -77.09729216666666, "bike_id": "bd572257439c1de428fd81a876ada672", "rental_uris": {"android": "https://dc.lft.to/lastmile_qr_scan", "ios": "https://dc.lft.to/lastmile_qr_scan"}, "name": "bd572257439c1de428fd81a876ada672", "is_reserved": 0}, {"is_disabled": 0, "fusion_lon": 0.0, "fusion_lat": 0.0, "lat": 38.918629333333335, "type": "electric_bike", "lon": -76.9608725, "bike_id": "334bfd293ba3ca185f40cceccfafd6cd", "rental_uris": {"android": "https://dc.lft.to/lastmile_qr_scan", "ios": "https://dc.lft.to/lastmile_qr_scan"}, "name": "334bfd293ba3ca185f40cceccfafd6cd", "is_reserved": 0}, {"is_disabled": 0, "fusion_lon": 0.0, "fusion_lat": 0.0, "lat": 38.8334845, "type": "electric_bike", "lon": -76.96552133333333, "bike_id": "f01931b8f718dce7a8f3c5b5780d6f36", "rental_uris": {"android": "https://dc.lft.to/lastmile_qr_scan", "ios": "https://dc.lft.to/lastmile_qr_scan"}, "name": "f01931b8f718dce7a8f3c5b5780d6f36", "is_reserved": 0}, {"is_disabled": 0, "fusion_lon": 0.0, "fusion_lat": 0.0, "lat": 38.89033633333333, "type": "electric_scooter", "lon": -77.00127516666667, "bike_id": "0a28df6375b8604acdc438d9d5feca49", "rental_uris": {"android": "https://dc.lft.to/lastmile_qr_scan", "ios": "https://dc.lft.to/lastmile_qr_scan"}, "name": "0a28df6375b8604acdc438d9d5feca49", "is_reserved": 0}, {"is_disabled": 0, "fusion_lon": 0.0, "fusion_lat": 0.0, "lat": 38.904596, "type": "electric_scooter", "lon": -77.037814, "bike_id": "7b2f2582280f0decc88f9e44afec2120", "rental_uris": {"android": "https://dc.lft.to/lastmile_qr_scan", "ios": "https://dc.lft.to/lastmile_qr_scan"}, "name": "7b2f2582280f0decc88f9e44afec2120", "is_reserved": 0}, {"is_disabled": 0, "fusion_lon": 0.0, "fusion_lat": 0.0, "lat": 38.91690666666667, "type": "electric_scooter", "lon": -77.02428, "bike_id": "72179b47cbc6f3c9fc0cfbb9480fefb6", "rental_uris": {"android": "https://dc.lft.to/lastmile_qr_scan", "ios": "https://dc.lft.to/lastmile_qr_scan"}, "name": "72179b47cbc6f3c9fc0cfbb9480fefb6", "is_reserved": 0}, {"is_disabled": 0, "fusion_lon": 0.0, "fusion_lat": 0.0, "lat": 38.90111383333333, "type": "electric_scooter", "lon": -77.03045883333333, "bike_id": "1743e8ef9f510e01e487ab9b3fa49dca", "rental_uris": {"android": "https://dc.lft.to/lastmile_qr_scan", "ios": "https://dc.lft.to/lastmile_qr_scan"}, "name": "1743e8ef9f510e01e487ab9b3fa49dca", "is_reserved": 0}, {"is_disabled": 0, "fusion_lon": 0.0, "fusion_lat": 0.0, "lat": 38.94923516666667, "type": "electric_scooter", "lon": -77.02305983333333, "bike_id": "fce2e06dffa9d0a30233eb6942813975", "rental_uris": {"android": "https://dc.lft.to/lastmile_qr_scan", "ios": "https://dc.lft.to/lastmile_qr_scan"}, "name": "fce2e06dffa9d0a30233eb6942813975", "is_reserved": 0}, {"is_disabled": 0, "fusion_lon": 0.0, "fusion_lat": 0.0, "lat": 38.88045733333333, "type": "electric_scooter", "lon": -77.0037245, "bike_id": "7b2002a7799c9701fa96d65ec9e827f7", "rental_uris": {"android": "https://dc.lft.to/lastmile_qr_scan", "ios": "https://dc.lft.to/lastmile_qr_scan"}, "name": "7b2002a7799c9701fa96d65ec9e827f7", "is_reserved": 0}, {"is_disabled": 0, "fusion_lon": 0.0, "fusion_lat": 0.0, "lat": 38.915711333333334, "type": "electric_scooter", "lon": -77.04645766666667, "bike_id": "0a435ea84b89283a3be9844c823dedcf", "rental_uris": {"android": "https://dc.lft.to/lastmile_qr_scan", "ios": "https://dc.lft.to/lastmile_qr_scan"}, "name": "0a435ea84b89283a3be9844c823dedcf", "is_reserved": 0}, {"is_disabled": 0, "fusion_lon": 0.0, "fusion_lat": 0.0, "lat": 38.899975166666664, "type": "electric_scooter", "lon": -77.039739, "bike_id": "7249006ac3406a7eac09e9a6a9ceff0b", "rental_uris": {"android": "https://dc.lft.to/lastmile_qr_scan", "ios": "https://dc.lft.to/lastmile_qr_scan"}, "name": "7249006ac3406a7eac09e9a6a9ceff0b", "is_reserved": 0}, {"is_disabled": 0, "fusion_lon": 0.0, "fusion_lat": 0.0, "lat": 38.9058215, "type": "electric_scooter", "lon": -77.04659016666666, "bike_id": "5c337ef6a8887e1eab4308b0e7144b35", "rental_uris": {"android": "https://dc.lft.to/lastmile_qr_scan", "ios": "https://dc.lft.to/lastmile_qr_scan"}, "name": "5c337ef6a8887e1eab4308b0e7144b35", "is_reserved": 0}, {"is_disabled": 0, "fusion_lon": 0.0, "fusion_lat": 0.0, "lat": 38.905624, "type": "electric_scooter", "lon": -77.03381216666666, "bike_id": "95b45504ecb89a65cec13cb3625c1d9b", "rental_uris": {"android": "https://dc.lft.to/lastmile_qr_scan", "ios": "https://dc.lft.to/lastmile_qr_scan"}, "name": "95b45504ecb89a65cec13cb3625c1d9b", "is_reserved": 0}, {"is_disabled": 0, "fusion_lon": 0.0, "fusion_lat": 0.0, "lat": 38.906597833333336, "type": "electric_scooter", "lon": -77.02684016666667, "bike_id": "9765066b6eb8759db91728178f1c9058", "rental_uris": {"android": "https://dc.lft.to/lastmile_qr_scan", "ios": "https://dc.lft.to/lastmile_qr_scan"}, "name": "9765066b6eb8759db91728178f1c9058", "is_reserved": 0}, {"is_disabled": 0, "fusion_lon": 0.0, "fusion_lat": 0.0, "lat": 38.90465783333333, "type": "electric_scooter", "lon": -76.99210533333333, "bike_id": "5dc42c85ecf789c74682ef619af66b10", "rental_uris": {"android": "https://dc.lft.to/lastmile_qr_scan", "ios": "https://dc.lft.to/lastmile_qr_scan"}, "name": "5dc42c85ecf789c74682ef619af66b10", "is_reserved": 0}, {"is_disabled": 0, "fusion_lon": 0.0, "fusion_lat": 0.0, "lat": 38.930496166666664, "type": "electric_scooter", "lon": -76.99633916666667, "bike_id": "017ab54ea6e03874e4aba8f5314c0435", "rental_uris": {"android": "https://dc.lft.to/lastmile_qr_scan", "ios": "https://dc.lft.to/lastmile_qr_scan"}, "name": "017ab54ea6e03874e4aba8f5314c0435", "is_reserved": 0}, {"is_disabled": 0, "fusion_lon": 0.0, "fusion_lat": 0.0, "lat": 38.922281166666664, "type": "electric_scooter", "lon": -77.02330166666667, "bike_id": "1693aff66a5476fcd5a757004b58cdb1", "rental_uris": {"android": "https://dc.lft.to/lastmile_qr_scan", "ios": "https://dc.lft.to/lastmile_qr_scan"}, "name": "1693aff66a5476fcd5a757004b58cdb1", "is_reserved": 0}, {"is_disabled": 0, "fusion_lon": 0.0, "fusion_lat": 0.0, "lat": 38.922602499999996, "type": "electric_scooter", "lon": -77.07129633333334, "bike_id": "c924ac6a723afaf30631b7d72632177e", "rental_uris": {"android": "https://dc.lft.to/lastmile_qr_scan", "ios": "https://dc.lft.to/lastmile_qr_scan"}, "name": "c924ac6a723afaf30631b7d72632177e", "is_reserved": 0}, {"is_disabled": 0, "fusion_lon": 0.0, "fusion_lat": 0.0, "lat": 38.914264333333335, "type": "electric_scooter", "lon": -77.02809983333333, "bike_id": "58b3ab7b9361c87c705a0328c2515a78", "rental_uris": {"android": "https://dc.lft.to/lastmile_qr_scan", "ios": "https://dc.lft.to/lastmile_qr_scan"}, "name": "58b3ab7b9361c87c705a0328c2515a78", "is_reserved": 0}, {"is_disabled": 0, "fusion_lon": 0.0, "fusion_lat": 0.0, "lat": 38.9111245, "type": "electric_scooter", "lon": -77.03250516666667, "bike_id": "f7f10083b5ad77b339c7757f73847daf", "rental_uris": {"android": "https://dc.lft.to/lastmile_qr_scan", "ios": "https://dc.lft.to/lastmile_qr_scan"}, "name": "f7f10083b5ad77b339c7757f73847daf", "is_reserved": 0}, {"is_disabled": 0, "fusion_lon": 0.0, "fusion_lat": 0.0, "lat": 38.916176666666665, "type": "electric_scooter", "lon": -77.04874, "bike_id": "b753477eba49d25cf479a44a67060c96", "rental_uris": {"android": "https://dc.lft.to/lastmile_qr_scan", "ios": "https://dc.lft.to/lastmile_qr_scan"}, "name": "b753477eba49d25cf479a44a67060c96", "is_reserved": 0}, {"is_disabled": 0, "fusion_lon": 0.0, "fusion_lat": 0.0, "lat": 38.9142685, "type": "electric_scooter", "lon": -77.03458133333334, "bike_id": "8081794dd7041171455748fd260f55e4", "rental_uris": {"android": "https://dc.lft.to/lastmile_qr_scan", "ios": "https://dc.lft.to/lastmile_qr_scan"}, "name": "8081794dd7041171455748fd260f55e4", "is_reserved": 0}, {"is_disabled": 0, "fusion_lon": 0.0, "fusion_lat": 0.0, "lat": 38.92047916666667, "type": "electric_scooter", "lon": -77.033891, "bike_id": "a4f0c0b07889bc580a2a94d3a579aad7", "rental_uris": {"android": "https://dc.lft.to/lastmile_qr_scan", "ios": "https://dc.lft.to/lastmile_qr_scan"}, "name": "a4f0c0b07889bc580a2a94d3a579aad7", "is_reserved": 0}, {"is_disabled": 0, "fusion_lon": 0.0, "fusion_lat": 0.0, "lat": 38.9418145, "type": "electric_scooter", "lon": -77.02387116666667, "bike_id": "7d66a4cb224408b146f9f833e095e965", "rental_uris": {"android": "https://dc.lft.to/lastmile_qr_scan", "ios": "https://dc.lft.to/lastmile_qr_scan"}, "name": "7d66a4cb224408b146f9f833e095e965", "is_reserved": 0}, {"is_disabled": 0, "fusion_lon": 0.0, "fusion_lat": 0.0, "lat": 38.833725666666666, "type": "electric_scooter", "lon": -76.9929745, "bike_id": "9f856be7e954da1d64e965d3ac7eac5d", "rental_uris": {"android": "https://dc.lft.to/lastmile_qr_scan", "ios": "https://dc.lft.to/lastmile_qr_scan"}, "name": "9f856be7e954da1d64e965d3ac7eac5d", "is_reserved": 0}, {"is_disabled": 0, "fusion_lon": 0.0, "fusion_lat": 0.0, "lat": 38.90097466666667, "type": "electric_scooter", "lon": -76.98833516666667, "bike_id": "0f34759925dfd2d530674c1e69c41d9a", "rental_uris": {"android": "https://dc.lft.to/lastmile_qr_scan", "ios": "https://dc.lft.to/lastmile_qr_scan"}, "name": "0f34759925dfd2d530674c1e69c41d9a", "is_reserved": 0}, {"is_disabled": 0, "fusion_lon": 0.0, "fusion_lat": 0.0, "lat": 38.919045833333335, "type": "electric_scooter", "lon": -77.017654, "bike_id": "fd568e55a9c1a02d7e8367709befd00f", "rental_uris": {"android": "https://dc.lft.to/lastmile_qr_scan", "ios": "https://dc.lft.to/lastmile_qr_scan"}, "name": "fd568e55a9c1a02d7e8367709befd00f", "is_reserved": 0}, {"is_disabled": 0, "fusion_lon": 0.0, "fusion_lat": 0.0, "lat": 38.907283166666666, "type": "electric_scooter", "lon": -77.03832883333334, "bike_id": "bd8a70dbf802c9639ca538c5c9abba1c", "rental_uris": {"android": "https://dc.lft.to/lastmile_qr_scan", "ios": "https://dc.lft.to/lastmile_qr_scan"}, "name": "bd8a70dbf802c9639ca538c5c9abba1c", "is_reserved": 0}, {"is_disabled": 0, "fusion_lon": 0.0, "fusion_lat": 0.0, "lat": 38.91687866666667, "type": "electric_scooter", "lon": -77.016135, "bike_id": "3e4893a9f83f1c2d46ffe63abf03d208", "rental_uris": {"android": "https://dc.lft.to/lastmile_qr_scan", "ios": "https://dc.lft.to/lastmile_qr_scan"}, "name": "3e4893a9f83f1c2d46ffe63abf03d208", "is_reserved": 0}, {"is_disabled": 0, "fusion_lon": 0.0, "fusion_lat": 0.0, "lat": 38.892373666666664, "type": "electric_scooter", "lon": -77.03357316666667, "bike_id": "9809f6e97327745ca6d4e1e9f593e9d2", "rental_uris": {"android": "https://dc.lft.to/lastmile_qr_scan", "ios": "https://dc.lft.to/lastmile_qr_scan"}, "name": "9809f6e97327745ca6d4e1e9f593e9d2", "is_reserved": 0}, {"is_disabled": 0, "fusion_lon": 0.0, "fusion_lat": 0.0, "lat": 38.928201333333334, "type": "electric_scooter", "lon": -77.022542, "bike_id": "04988b1ea51393da3bbd3b791a2ad56e", "rental_uris": {"android": "https://dc.lft.to/lastmile_qr_scan", "ios": "https://dc.lft.to/lastmile_qr_scan"}, "name": "04988b1ea51393da3bbd3b791a2ad56e", "is_reserved": 0}, {"is_disabled": 0, "fusion_lon": 0.0, "fusion_lat": 0.0, "lat": 38.86959316666667, "type": "electric_scooter", "lon": -76.979366, "bike_id": "dccc3fd1435e3ecb0afb432cf4bfa19a", "rental_uris": {"android": "https://dc.lft.to/lastmile_qr_scan", "ios": "https://dc.lft.to/lastmile_qr_scan"}, "name": "dccc3fd1435e3ecb0afb432cf4bfa19a", "is_reserved": 0}, {"is_disabled": 0, "fusion_lon": 0.0, "fusion_lat": 0.0, "lat": 38.89523066666667, "type": "electric_scooter", "lon": -77.0091555, "bike_id": "24397a2014ffefc459e5f31578436f9d", "rental_uris": {"android": "https://dc.lft.to/lastmile_qr_scan", "ios": "https://dc.lft.to/lastmile_qr_scan"}, "name": "24397a2014ffefc459e5f31578436f9d", "is_reserved": 0}, {"is_disabled": 0, "fusion_lon": 0.0, "fusion_lat": 0.0, "lat": 38.918052833333334, "type": "electric_scooter", "lon": -77.0239755, "bike_id": "97e9fe9758f731cf7a1f8638af59bad5", "rental_uris": {"android": "https://dc.lft.to/lastmile_qr_scan", "ios": "https://dc.lft.to/lastmile_qr_scan"}, "name": "97e9fe9758f731cf7a1f8638af59bad5", "is_reserved": 0}, {"is_disabled": 0, "fusion_lon": 0.0, "fusion_lat": 0.0, "lat": 38.925528, "type": "electric_scooter", "lon": -77.025689, "bike_id": "690f1152841e378a01f1056e369446c8", "rental_uris": {"android": "https://dc.lft.to/lastmile_qr_scan", "ios": "https://dc.lft.to/lastmile_qr_scan"}, "name": "690f1152841e378a01f1056e369446c8", "is_reserved": 0}, {"is_disabled": 0, "fusion_lon": 0.0, "fusion_lat": 0.0, "lat": 38.906604333333334, "type": "electric_scooter", "lon": -77.026924, "bike_id": "8cd34edb57c3c9ada253c349cfde8d5e", "rental_uris": {"android": "https://dc.lft.to/lastmile_qr_scan", "ios": "https://dc.lft.to/lastmile_qr_scan"}, "name": "8cd34edb57c3c9ada253c349cfde8d5e", "is_reserved": 0}, {"is_disabled": 0, "fusion_lon": 0.0, "fusion_lat": 0.0, "lat": 38.91382266666667, "type": "electric_scooter", "lon": -77.029669, "bike_id": "81f04db3de289a4051365f8cb6fdcf11", "rental_uris": {"android": "https://dc.lft.to/lastmile_qr_scan", "ios": "https://dc.lft.to/lastmile_qr_scan"}, "name": "81f04db3de289a4051365f8cb6fdcf11", "is_reserved": 0}, {"is_disabled": 0, "fusion_lon": 0.0, "fusion_lat": 0.0, "lat": 38.962636333333336, "type": "electric_scooter", "lon": -77.02770183333334, "bike_id": "128da869b1fdc0c7114e0a76f65d9d38", "rental_uris": {"android": "https://dc.lft.to/lastmile_qr_scan", "ios": "https://dc.lft.to/lastmile_qr_scan"}, "name": "128da869b1fdc0c7114e0a76f65d9d38", "is_reserved": 0}, {"is_disabled": 0, "fusion_lon": 0.0, "fusion_lat": 0.0, "lat": 38.909462166666664, "type": "electric_scooter", "lon": -77.01526816666667, "bike_id": "af1472fd2840c4bde83915061cd9e339", "rental_uris": {"android": "https://dc.lft.to/lastmile_qr_scan", "ios": "https://dc.lft.to/lastmile_qr_scan"}, "name": "af1472fd2840c4bde83915061cd9e339", "is_reserved": 0},