{"data": {"bikes": [{"rental_uris": {"ios": "https://dc.lft.to/lastmile_qr_scan", "android": "https://dc.lft.to/lastmile_qr_scan"}, "lon": -76.99567983333333, "type": "electric_scooter", "fusion_lat": 0.0, "lat": 38.9288015, "name": "a5f293d4abc023c22f50ee4866679fcc", "fusion_lon": 0.0, "bike_id": "a5f293d4abc023c22f50ee4866679fcc", "is_disabled": 0, "is_reserved": 0}, {"rental_uris": {"ios": "https://dc.lft.to/lastmile_qr_scan", "android": "https://dc.lft.to/lastmile_qr_scan"}, "lon": -77.0240195, "type": "electric_scooter", "fusion_lat": 0.0, "lat": 38.901192333333334, "name": "1a6220c0236cc70b4512b2508abf4e34", "fusion_lon": 0.0, "bike_id": "1a6220c0236cc70b4512b2508abf4e34", "is_disabled": 0, "is_reserved": 0}, {"rental_uris": {"ios": "https://dc.lft.to/lastmile_qr_scan", "android": "https://dc.lft.to/lastmile_qr_scan"}, "lon": -76.93880283333333, "type": "electric_scooter", "fusion_lat": 0.0, "lat": 38.900876333333336, "name": "9490d3bf19fef4c02ae070476f21dc34", "fusion_lon": 0.0, "bike_id": "9490d3bf19fef4c02ae070476f21dc34", "is_disabled": 0, "is_reserved": 0}, {"rental_uris": {"ios": "https://dc.lft.to/lastmile_qr_scan", "android": "https://dc.lft.to/lastmile_qr_scan"}, "lon": -77.037229, "type": "electric_scooter", "fusion_lat": 0.0, "lat": 38.9112485, "name": "382c8f9d6fb6316f42478c0a6a824852", "fusion_lon": 0.0, "bike_id": "382c8f9d6fb6316f42478c0a6a824852", "is_disabled": 0, "is_reserved": 0}, {"rental_uris": {"ios": "https://dc.lft.to/lastmile_qr_scan", "android": "https://dc.lft.to/lastmile_qr_scan"}, "lon": -77.01188116666667, "type": "electric_scooter", "fusion_lat": 0.0, "lat": 38.900328, "name": "f559b776f2fe4cb69d68d5f8a6a3f311", "fusion_lon": 0.0, "bike_id": "f559b776f2fe4cb69d68d5f8a6a3f311", "is_disabled": 0, "is_reserved": 0}, {"rental_uris": {"ios": "https://dc.lft.to/lastmile_qr_scan", "android": "https://dc.lft.to/lastmile_qr_scan"}, "lon": -77.02680583333333, "type": "electric_scooter", "fusion_lat": 0.0, "lat": 38.8923085, "name": "5afe45d188db0288ddcec4f844165f0d", "fusion_lon": 0.0, "bike_id": "5afe45d188db0288ddcec4f844165f0d", "is_disabled": 0, "is_reserved": 0}, {"rental_uris": {"ios": "https://dc.lft.to/lastmile_qr_scan", "android": "https://dc.lft.to/lastmile_qr_scan"}, "lon": -77.02950083333333, "type": "electric_scooter", "fusion_lat": 0.0, "lat": 38.905074166666665, "name": "8d881b9bf6d335266e850b769d445abb", "fusion_lon": 0.0, "bike_id": "8d881b9bf6d335266e850b769d445abb", "is_disabled": 0, "is_reserved": 0}, {"rental_uris": {"ios": "https://dc.lft.to/lastmile_qr_scan", "android": "https://dc.lft.to/lastmile_qr_scan"}, "lon": -76.99673033333333, "type": "electric_scooter", "fusion_lat": 0.0, "lat": 38.91017866666667, "name": "be014194e1d0ea85a7058782277f8dc7", "fusion_lon": 0.0, "bike_id": "be014194e1d0ea85a7058782277f8dc7", "is_disabled": 0, "is_reserved": 0}, {"rental_uris": {"ios": "https://dc.lft.to/lastmile_qr_scan", "android": "https://dc.lft.to/lastmile_qr_scan"}, "lon": -77.039599, "type": "electric_scooter", "fusion_lat": 0.0, "lat": 38.9148305, "name": "c49d8d977d6edf388f8fdb633697e071", "fusion_lon": 0.0, "bike_id": "c49d8d977d6edf388f8fdb633697e071", "is_disabled": 0, "is_reserved": 0}, {"rental_uris": {"ios": "https://dc.lft.to/lastmile_qr_scan", "android": "https://dc.lft.to/lastmile_qr_scan"}, "lon": -77.04029583333333, "type": "electric_scooter", "fusion_lat": 0.0, "lat": 38.924484, "name": "e766f665195a6d745271d154bec73b0d", "fusion_lon": 0.0, "bike_id": "e766f665195a6d745271d154bec73b0d", "is_disabled": 0, "is_reserved": 0}, {"rental_uris": {"ios": "https://dc.lft.to/lastmile_qr_scan", "android": "https://dc.lft.to/lastmile_qr_scan"}, "lon": -77.013878, "type": "electric_scooter", "fusion_lat": 0.0, "lat": 38.919566333333336, "name": "f34be8fe734d16d278062317822c2bad", "fusion_lon": 0.0, "bike_id": "f34be8fe734d16d278062317822c2bad", "is_disabled": 0, "is_reserved": 0}, {"rental_uris": {"ios": "https://dc.lft.to/lastmile_qr_scan", "android": "https://dc.lft.to/lastmile_qr_scan"}, "lon": -77.04811266666667, "type": "electric_scooter", "fusion_lat": 0.0, "lat": 38.897436666666664, "name": "8ec7446d90898ac382b1aaae8645424f", "fusion_lon": 0.0, "bike_id": "8ec7446d90898ac382b1aaae8645424f", "is_disabled": 0, "is_reserved": 0}, {"rental_uris": {"ios": "https://dc.lft.to/lastmile_qr_scan", "android": "https://dc.lft.to/lastmile_qr_scan"}, "lon": -77.031802, "type": "electric_scooter", "fusion_lat": 0.0, "lat": 38.917966, "name": "b54f08f1baf31ef11fdea3b740b82824", "fusion_lon": 0.0, "bike_id": "b54f08f1baf31ef11fdea3b740b82824", "is_disabled": 0, "is_reserved": 0}, {"rental_uris": {"ios": "https://dc.lft.to/lastmile_qr_scan", "android": "https://dc.lft.to/lastmile_qr_scan"}, "lon": -77.07273066666667, "type": "electric_scooter", "fusion_lat": 0.0, "lat": 38.934882, "name": "153a977145c01a17419bc8497d0392aa", "fusion_lon": 0.0, "bike_id": "153a977145c01a17419bc8497d0392aa", "is_disabled": 0, "is_reserved": 0}, {"rental_uris": {"ios": "https://dc.lft.to/lastmile_qr_scan", "android": "https://dc.lft.to/lastmile_qr_scan"}, "lon": -77.0438475, "type": "electric_scooter", "fusion_lat": 0.0, "lat": 38.9235795, "name": "4a3263e26dde8b2174ba686198f99a58", "fusion_lon": 0.0, "bike_id": "4a3263e26dde8b2174ba686198f99a58", "is_disabled": 0, "is_reserved": 0}, {"rental_uris": {"ios": "https://dc.lft.to/lastmile_qr_scan", "android": "https://dc.lft.to/lastmile_qr_scan"}, "lon": -77.02341866666667, "type": "electric_scooter", "fusion_lat": 0.0, "lat": 38.962108666666666, "name": "2c2fe9700780d161f44e07caa47f400c", "fusion_lon": 0.0, "bike_id": "2c2fe9700780d161f44e07caa47f400c", "is_disabled": 0, "is_reserved": 0}, {"rental_uris": {"ios": "https://dc.lft.to/lastmile_qr_scan", "android": "https://dc.lft.to/lastmile_qr_scan"}, "lon": -77.04650816666667, "type": "electric_scooter", "fusion_lat": 0.0, "lat": 38.912822166666665, "name": "4b1aed8078567c9bec4ccd18f06488c3", "fusion_lon": 0.0, "bike_id": "4b1aed8078567c9bec4ccd18f06488c3", "is_disabled": 0, "is_reserved": 0}, {"rental_uris": {"ios": "https://dc.lft.to/lastmile_qr_scan", "android": "https://dc.lft.to/lastmile_qr_scan"}, "lon": -77.01187516666667, "type": "electric_scooter", "fusion_lat": 0.0, "lat": 38.900272, "name": "131d38f24c85643647d89ac77cef9b8b", "fusion_lon": 0.0, "bike_id": "131d38f24c85643647d89ac77cef9b8b", "is_disabled": 0, "is_reserved": 0}, {"rental_uris": {"ios": "https://dc.lft.to/lastmile_qr_scan", "android": "https://dc.lft.to/lastmile_qr_scan"}, "lon": -77.05634033333334, "type": "electric_scooter", "fusion_lat": 0.0, "lat": 38.92759133333333, "name": "28c53e5bf41267a9b8b93fce03436b59", "fusion_lon": 0.0, "bike_id": "28c53e5bf41267a9b8b93fce03436b59", "is_disabled": 0, "is_reserved": 0}, {"rental_uris": {"ios": "https://dc.lft.to/lastmile_qr_scan", "android": "https://dc.lft.to/lastmile_qr_scan"}, "lon": -77.00522483333333, "type": "electric_scooter", "fusion_lat": 0.0, "lat": 38.92900433333333, "name": "a34df05e74d7b7f84936a10fff2cf2e6", "fusion_lon": 0.0, "bike_id": "a34df05e74d7b7f84936a10fff2cf2e6", "is_disabled": 0, "is_reserved": 0}, {"rental_uris": {"ios": "https://dc.lft.to/lastmile_qr_scan", "android": "https://dc.lft.to/lastmile_qr_scan"}, "lon": -77.03219583333333, "type": "electric_scooter", "fusion_lat": 0.0, "lat": 38.903992833333334, "name": "1d629d2db65576e6c89869ecc5cd6164", "fusion_lon": 0.0, "bike_id": "1d629d2db65576e6c89869ecc5cd6164", "is_disabled": 0, "is_reserved": 0}, {"rental_uris": {"ios": "https://dc.lft.to/lastmile_qr_scan", "android": "https://dc.lft.to/lastmile_qr_scan"}, "lon": -77.0249855, "type": "electric_scooter", "fusion_lat": 0.0, "lat": 38.9363875, "name": "3d3b2c49711373e8d38e3fc2177c47b6", "fusion_lon": 0.0, "bike_id": "3d3b2c49711373e8d38e3fc2177c47b6", "is_disabled": 0, "is_reserved": 0}, {"rental_uris": {"ios": "https://dc.lft.to/lastmile_qr_scan", "android": "https://dc.lft.to/lastmile_qr_scan"}, "lon": -77.026137, "type": "electric_scooter", "fusion_lat": 0.0, "lat": 38.92000483333333, "name": "2eb0959285eb3d1542a8115e8fec05b2", "fusion_lon": 0.0, "bike_id": "2eb0959285eb3d1542a8115e8fec05b2", "is_disabled": 0, "is_reserved": 0}, {"rental_uris": {"ios": "https://dc.lft.to/lastmile_qr_scan", "android": "https://dc.lft.to/lastmile_qr_scan"}, "lon": -77.03342116666667, "type": "electric_scooter", "fusion_lat": 0.0, "lat": 38.8988185, "name": "ee0045ed4a860ef53789278c7fb72e0c", "fusion_lon": 0.0, "bike_id": "ee0045ed4a860ef53789278c7fb72e0c", "is_disabled": 0, "is_reserved": 0}, {"rental_uris": {"ios": "https://dc.lft.to/lastmile_qr_scan", "android": "https://dc.lft.to/lastmile_qr_scan"}, "lon": -77.02288283333333, "type": "electric_scooter", "fusion_lat": 0.0, "lat": 38.9087095, "name": "6162612596798c8b58ed57926b22c38f", "fusion_lon": 0.0, "bike_id": "6162612596798c8b58ed57926b22c38f", "is_disabled": 0, "is_reserved": 0}, {"rental_uris": {"ios": "https://dc.lft.to/lastmile_qr_scan", "android": "https://dc.lft.to/lastmile_qr_scan"}, "lon": -77.0486865, "type": "electric_scooter", "fusion_lat": 0.0, "lat": 38.91238583333333, "name": "5a24ce4e0ad212d95968afd6ca472d06", "fusion_lon": 0.0, "bike_id": "5a24ce4e0ad212d95968afd6ca472d06", "is_disabled": 0, "is_reserved": 0}, {"rental_uris": {"ios": "https://dc.lft.to/lastmile_qr_scan", "android": "https://dc.lft.to/lastmile_qr_scan"}, "lon": -77.03575333333333, "type": "electric_scooter", "fusion_lat": 0.0, "lat": 38.902477166666664, "name": "2d7c68fca8b398d4c6b3887d5f3456a6", "fusion_lon": 0.0, "bike_id": "2d7c68fca8b398d4c6b3887d5f3456a6", "is_disabled": 0, "is_reserved": 0}, {"rental_uris": {"ios": "https://dc.lft.to/lastmile_qr_scan", "android": "https://dc.lft.to/lastmile_qr_scan"}, "lon": -76.90438483333334, "type": "electric_bike", "fusion_lat": 0.0, "lat": 38.897749166666664, "name": "d1cfa4f60e5d5dc1c4eac1ad933818fa", "fusion_lon": 0.0, "bike_id": "d1cfa4f60e5d5dc1c4eac1ad933818fa", "is_disabled": 0, "is_reserved": 0}, {"rental_uris": {"ios": "https://dc.lft.to/lastmile_qr_scan", "android": "https://dc.lft.to/lastmile_qr_scan"}, "lon": -77.02473133333334, "type": "electric_scooter", "fusion_lat": 0.0, "lat": 38.933077, "name": "0aff47d25d9f7fd86e11b62f8b69d9ec", "fusion_lon": 0.0, "bike_id": "0aff47d25d9f7fd86e11b62f8b69d9ec", "is_disabled": 0, "is_reserved": 0}, {"rental_uris": {"ios": "https://dc.lft.to/lastmile_qr_scan", "android": "https://dc.lft.to/lastmile_qr_scan"}, "lon": -77.01207966666666, "type": "electric_scooter", "fusion_lat": 0.0, "lat": 38.915196, "name": "1fe3c21b43c7a2b02362f0ad525eeb58", "fusion_lon": 0.0, "bike_id": "1fe3c21b43c7a2b02362f0ad525eeb58", "is_disabled": 0, "is_reserved": 0}, {"rental_uris": {"ios": "https://dc.lft.to/lastmile_qr_scan", "android": "https://dc.lft.to/lastmile_qr_scan"}, "lon": -77.03078966666666, "type": "electric_scooter", "fusion_lat": 0.0, "lat": 38.90984483333333, "name": "a3d17f540c10cb743a4e5a496190902c", "fusion_lon": 0.0, "bike_id": "a3d17f540c10cb743a4e5a496190902c", "is_disabled": 0, "is_reserved": 0}, {"rental_uris": {"ios": "https://dc.lft.to/lastmile_qr_scan", "android": "https://dc.lft.to/lastmile_qr_scan"}, "lon": -77.0057785, "type": "electric_scooter", "fusion_lat": 0.0, "lat": 38.8860405, "name": "81f30c1fd3c63a99bdcacf01f475c643", "fusion_lon": 0.0, "bike_id": "81f30c1fd3c63a99bdcacf01f475c643", "is_disabled": 0, "is_reserved": 0}, {"rental_uris": {"ios": "https://dc.lft.to/lastmile_qr_scan", "android": "https://dc.lft.to/lastmile_qr_scan"}, "lon": -77.04619983333333, "type": "electric_scooter", "fusion_lat": 0.0, "lat": 38.914014, "name": "bb92c079edbaec26c8e86e14e5327d76", "fusion_lon": 0.0, "bike_id": "bb92c079edbaec26c8e86e14e5327d76", "is_disabled": 0, "is_reserved": 0}, {"rental_uris": {"ios": "https://dc.lft.to/lastmile_qr_scan", "android": "https://dc.lft.to/lastmile_qr_scan"}, "lon": -77.0633675, "type": "electric_bike", "fusion_lat": 0.0, "lat": 38.908422333333334, "name": "fbf8b3e41f9b10c866b0f9a4ff620396", "fusion_lon": 0.0, "bike_id": "fbf8b3e41f9b10c866b0f9a4ff620396", "is_disabled": 0, "is_reserved": 0}, {"rental_uris": {"ios": "https://dc.lft.to/lastmile_qr_scan", "android": "https://dc.lft.to/lastmile_qr_scan"}, "lon": -77.0320935, "type": "electric_scooter", "fusion_lat": 0.0, "lat": 38.93761466666667, "name": "306e3ac3786f18f48e23724b1b64d60b", "fusion_lon": 0.0, "bike_id": "306e3ac3786f18f48e23724b1b64d60b", "is_disabled": 0, "is_reserved": 0}, {"rental_uris": {"ios": "https://dc.lft.to/lastmile_qr_scan", "android": "https://dc.lft.to/lastmile_qr_scan"}, "lon": -77.02405133333333, "type": "electric_scooter", "fusion_lat": 0.0, "lat": 38.916089, "name": "5a9d258550ff01f10add06d9eaf69540", "fusion_lon": 0.0, "bike_id": "5a9d258550ff01f10add06d9eaf69540", "is_disabled": 0, "is_reserved": 0}, {"rental_uris": {"ios": "https://dc.lft.to/lastmile_qr_scan", "android": "https://dc.lft.to/lastmile_qr_scan"}, "lon": -77.01536633333333, "type": "electric_scooter", "fusion_lat": 0.0, "lat": 38.902657166666664, "name": "3528552cd1c669b6268c993fdc3594ff", "fusion_lon": 0.0, "bike_id": "3528552cd1c669b6268c993fdc3594ff", "is_disabled": 0, "is_reserved": 0}, {"rental_uris": {"ios": "https://dc.lft.to/lastmile_qr_scan", "android": "https://dc.lft.to/lastmile_qr_scan"}, "lon": -77.049931, "type": "electric_scooter", "fusion_lat": 0.0, "lat": 38.90427716666667, "name": "b77eec73161537cf9cf75bce2041463a", "fusion_lon": 0.0, "bike_id": "b77eec73161537cf9cf75bce2041463a", "is_disabled": 0, "is_reserved": 0}, {"rental_uris": {"ios": "https://dc.lft.to/lastmile_qr_scan", "android": "https://dc.lft.to/lastmile_qr_scan"}, "lon": -77.03372016666667, "type": "electric_scooter", "fusion_lat": 0.0, "lat": 38.90963833333333, "name": "9bb096b2d3a0f28eccb8b5606ee5de4d", "fusion_lon": 0.0, "bike_id": "9bb096b2d3a0f28eccb8b5606ee5de4d", "is_disabled": 0, "is_reserved": 0}, {"rental_uris": {"ios": "https://dc.lft.to/lastmile_qr_scan", "android": "https://dc.lft.to/lastmile_qr_scan"}, "lon": -77.01528433333333, "type": "electric_scooter", "fusion_lat": 0.0, "lat": 38.9135015, "name": "3c26a403c9b2f5d69f17e020b4903cc9", "fusion_lon": 0.0, "bike_id": "3c26a403c9b2f5d69f17e020b4903cc9", "is_disabled": 0, "is_reserved": 0}, {"rental_uris": {"ios": "https://dc.lft.to/lastmile_qr_scan", "android": "https://dc.lft.to/lastmile_qr_scan"}, "lon": -77.0216035, "type": "electric_scooter", "fusion_lat": 0.0, "lat": 38.916238666666665, "name": "6d7132cc5d65fec5f760c8215dc483d5", "fusion_lon": 0.0, "bike_id": "6d7132cc5d65fec5f760c8215dc483d5", "is_disabled": 0, "is_reserved": 0}, {"rental_uris": {"ios": "https://dc.lft.to/lastmile_qr_scan", "android": "https://dc.lft.to/lastmile_qr_scan"}, "lon": -76.94654183333333, "type": "electric_scooter", "fusion_lat": 0.0, "lat": 38.89826583333333, "name": "de8a3b20fa2bd03fce3fc4dc3c207bf0", "fusion_lon": 0.0, "bike_id": "de8a3b20fa2bd03fce3fc4dc3c207bf0", "is_disabled": 0, "is_reserved": 0}, {"rental_uris": {"ios": "https://dc.lft.to/lastmile_qr_scan", "android": "https://dc.lft.to/lastmile_qr_scan"}, "lon": -77.05885533333333, "type": "electric_scooter", "fusion_lat": 0.0, "lat": 38.936386666666664, "name": "b5a8569e34ea479e106e89dced591670", "fusion_lon": 0.0, "bike_id": "b5a8569e34ea479e106e89dced591670", "is_disabled": 0, "is_reserved": 0}, {"rental_uris": {"ios": "https://dc.lft.to/lastmile_qr_scan", "android": "https://dc.lft.to/lastmile_qr_scan"}, "lon": -77.03454366666666, "type": "electric_scooter", "fusion_lat": 0.0, "lat": 38.91806866666667, "name": "80ba09ede5f9e4b117097c03cdc2845c", "fusion_lon": 0.0, "bike_id": "80ba09ede5f9e4b117097c03cdc2845c", "is_disabled": 0, "is_reserved": 0}, {"rental_uris": {"ios": "https://dc.lft.to/lastmile_qr_scan", "android": "https://dc.lft.to/lastmile_qr_scan"}, "lon": -76.972529, "type": "electric_bike", "fusion_lat": 0.0, "lat": 38.95744716666667, "name": "ae15416e1f709b74b97d1ea69ca398f1", "fusion_lon": 0.0, "bike_id": "ae15416e1f709b74b97d1ea69ca398f1", "is_disabled": 0, "is_reserved": 0}, {"rental_uris": {"ios": "https://dc.lft.to/lastmile_qr_scan", "android": "https://dc.lft.to/lastmile_qr_scan"}, "lon": -77.031829, "type": "electric_scooter", "fusion_lat": 0.0, "lat": 38.919267166666664, "name": "f73c412cf40875962b6cf3a4dfe1342a", "fusion_lon": 0.0, "bike_id": "f73c412cf40875962b6cf3a4dfe1342a", "is_disabled": 0, "is_reserved": 0}, {"rental_uris": {"ios": "https://dc.lft.to/lastmile_qr_scan", "android": "https://dc.lft.to/lastmile_qr_scan"}, "lon": -77.03029766666667, "type": "electric_scooter", "fusion_lat": 0.0, "lat": 38.896195, "name": "3a7a20eeedd57de1e92115902af944e2", "fusion_lon": 0.0, "bike_id": "3a7a20eeedd57de1e92115902af944e2", "is_disabled": 0, "is_reserved": 0}, {"rental_uris": {"ios": "https://dc.lft.to/lastmile_qr_scan", "android": "https://dc.lft.to/lastmile_qr_scan"}, "lon": -77.0363435, "type": "electric_scooter", "fusion_lat": 0.0, "lat": 38.912353333333336, "name": "e49270f3a4d81f2d4fcdcba264ab5e1e", "fusion_lon": 0.0, "bike_id": "e49270f3a4d81f2d4fcdcba264ab5e1e", "is_disabled": 0, "is_reserved": 0}, {"rental_uris": {"ios": "https://dc.lft.to/lastmile_qr_scan", "android": "https://dc.lft.to/lastmile_qr_scan"}, "lon": -77.0694735, "type": "electric_bike", "fusion_lat": 0.0, "lat": 38.990489, "name": "c7600ce513d7aceba8990f118e062c87", "fusion_lon": 0.0, "bike_id": "c7600ce513d7aceba8990f118e062c87", "is_disabled": 0, "is_reserved": 0}, {"rental_uris": {"ios": "https://dc.lft.to/lastmile_qr_scan", "android": "https://dc.lft.to/lastmile_qr_scan"}, "lon": -77.03284566666666, "type": "electric_scooter", "fusion_lat": 0.0, "lat": 38.93781883333333, "name": "8d79d322ac3ccf3c95a2936943ce1c01", "fusion_lon": 0.0, "bike_id": "8d79d322ac3ccf3c95a2936943ce1c01", "is_disabled": 0, "is_reserved": 0}, {"rental_uris": {"ios": "https://dc.lft.to/lastmile_qr_scan", "android": "https://dc.lft.to/lastmile_qr_scan"}, "lon": -77.05888633333333, "type": "electric_scooter", "fusion_lat": 0.0, "lat": 38.93641083333333, "name": "12b04115a3880169599371ea9d81f60f", "fusion_lon": 0.0, "bike_id": "12b04115a3880169599371ea9d81f60f", "is_disabled": 0, "is_reserved": 0}, {"rental_uris": {"ios": "https://dc.lft.to/lastmile_qr_scan", "android": "https://dc.lft.to/lastmile_qr_scan"}, "lon": -77.027089, "type": "electric_scooter", "fusion_lat": 0.0, "lat": 38.90675383333333, "name": "ea5ac72d3f1fee31bc2e0a135856e801", "fusion_lon": 0.0, "bike_id": "ea5ac72d3f1fee31bc2e0a135856e801", "is_disabled": 0, "is_reserved": 0}, {"rental_uris": {"ios": "https://dc.lft.to/lastmile_qr_scan", "android": "https://dc.lft.to/lastmile_qr_scan"}, "lon": -77.02158566666667, "type": "electric_scooter", "fusion_lat": 0.0, "lat": 38.9260885, "name": "1c419dc6d25d5983f7d98306da5a4189", "fusion_lon": 0.0, "bike_id": "1c419dc6d25d5983f7d98306da5a4189", "is_disabled": 0, "is_reserved": 0}, {"rental_uris": {"ios": "https://dc.lft.to/lastmile_qr_scan", "android": "https://dc.lft.to/lastmile_qr_scan"}, "lon": -77.033455, "type": "electric_scooter", "fusion_lat": 0.0, "lat": 38.89734283333333, "name": "03e14cf27f26acaae4a6fbcc72843080", "fusion_lon": 0.0, "bike_id": "03e14cf27f26acaae4a6fbcc72843080", "is_disabled": 0, "is_reserved": 0}, {"rental_uris": {"ios": "https://dc.lft.to/lastmile_qr_scan", "android": "https://dc.lft.to/lastmile_qr_scan"}, "lon": -77.00208783333333, "type": "electric_scooter", "fusion_lat": 0.0, "lat": 38.9007, "name": "654846043db80a1ab2f6600c5542b34a", "fusion_lon": 0.0, "bike_id": "654846043db80a1ab2f6600c5542b34a", "is_disabled": 0, "is_reserved": 0}, {"rental_uris": {"ios": "https://dc.lft.to/lastmile_qr_scan", "android": "https://dc.lft.to/lastmile_qr_scan"}, "lon": -77.0391655, "type": "electric_scooter", "fusion_lat": 0.0, "lat": 38.91841733333333, "name": "8e8e658c6d1fa67cfbe74577c7fd5893", "fusion_lon": 0.0, "bike_id": "8e8e658c6d1fa67cfbe74577c7fd5893", "is_disabled": 0, "is_reserved": 0}, {"rental_uris": {"ios": "https://dc.lft.to/lastmile_qr_scan", "android": "https://dc.lft.to/lastmile_qr_scan"}, "lon": -77.00773666666667, "type": "electric_scooter", "fusion_lat": 0.0, "lat": 38.87667033333334, "name": "be975ac4e0a1fb58863f141265136ba7", "fusion_lon": 0.0, "bike_id": "be975ac4e0a1fb58863f141265136ba7", "is_disabled": 0, "is_reserved": 0}, {"rental_uris": {"ios": "https://dc.lft.to/lastmile_qr_scan", "android": "https://dc.lft.to/lastmile_qr_scan"}, "lon": -77.00683266666667, "type": "electric_bike", "fusion_lat": 0.0, "lat": 38.9451855, "name": "63a50f0bd940d671d0ca025b629ede32", "fusion_lon": 0.0, "bike_id": "63a50f0bd940d671d0ca025b629ede32", "is_disabled": 0, "is_reserved": 0}, {"rental_uris": {"ios": "https://dc.lft.to/lastmile_qr_scan", "android": "https://dc.lft.to/lastmile_qr_scan"}, "lon": -77.04189116666667, "type": "electric_scooter", "fusion_lat": 0.0, "lat": 38.91947283333333, "name": "30fb75b8dc237343acd80159422e1c24", "fusion_lon": 0.0, "bike_id": "30fb75b8dc237343acd80159422e1c24", "is_disabled": 0, "is_reserved": 0}, {"rental_uris": {"ios": "https://dc.lft.to/lastmile_qr_scan", "android": "https://dc.lft.to/lastmile_qr_scan"}, "lon": -77.0356915, "type": "electric_scooter", "fusion_lat": 0.0, "lat": 38.918234, "name": "0a07a33613e000382ec9a3f9e952fa9c", "fusion_lon": 0.0, "bike_id": "0a07a33613e000382ec9a3f9e952fa9c", "is_disabled": 0, "is_reserved": 0}, {"rental_uris": {"ios": "https://dc.lft.to/lastmile_qr_scan", "android": "https://dc.lft.to/lastmile_qr_scan"}, "lon": -77.03215516666667, "type": "electric_scooter", "fusion_lat": 0.0, "lat": 38.92014783333333, "name": "45faba60bf4ad25fa6b312c351baff50", "fusion_lon": 0.0, "bike_id": "45faba60bf4ad25fa6b312c351baff50", "is_disabled": 0, "is_reserved": 0}, {"rental_uris": {"ios": "https://dc.lft.to/lastmile_qr_scan", "android": "https://dc.lft.to/lastmile_qr_scan"}, "lon": -77.01865516666666, "type": "electric_scooter", "fusion_lat": 0.0, "lat": 38.902676666666665, "name": "71b9568c0a0f5be61dc4718050404dba", "fusion_lon": 0.0, "bike_id": "71b9568c0a0f5be61dc4718050404dba", "is_disabled": 0, "is_reserved": 0}, {"rental_uris": {"ios": "https://dc.lft.to/lastmile_qr_scan", "android": "https://dc.lft.to/lastmile_qr_scan"}, "lon": -77.03191883333334, "type": "electric_scooter", "fusion_lat": 0.0, "lat": 38.919245333333336, "name": "3571cc65922f00f550d05cf14d29154a", "fusion_lon": 0.0, "bike_id": "3571cc65922f00f550d05cf14d29154a", "is_disabled": 0, "is_reserved": 0}, {"rental_uris": {"ios": "https://dc.lft.to/lastmile_qr_scan", "android": "https://dc.lft.to/lastmile_qr_scan"}, "lon": -76.93809133333333, "type": "electric_scooter", "fusion_lat": 0.0, "lat": 38.91310216666667, "name": "523a3f7fd802075eb8e7889851a81b24", "fusion_lon": 0.0, "bike_id": "523a3f7fd802075eb8e7889851a81b24", "is_disabled": 0, "is_reserved": 0}, {"rental_uris": {"ios": "https://dc.lft.to/lastmile_qr_scan", "android": "https://dc.lft.to/lastmile_qr_scan"}, "lon": -77.0404405, "type": "electric_scooter", "fusion_lat": 0.0, "lat": 38.92564266666667, "name": "1aa9db653576c0a41e98b65267dc4b1e", "fusion_lon": 0.0, "bike_id": "1aa9db653576c0a41e98b65267dc4b1e", "is_disabled": 0, "is_reserved": 0}, {"rental_uris": {"ios": "https://dc.lft.to/lastmile_qr_scan", "android": "https://dc.lft.to/lastmile_qr_scan"}, "lon": -77.031684, "type": "electric_scooter", "fusion_lat": 0.0, "lat": 38.896081333333335, "name": "81297a52de5fbea7164f5db6766dbeba", "fusion_lon": 0.0, "bike_id": "81297a52de5fbea7164f5db6766dbeba", "is_disabled": 0, "is_reserved": 0}, {"rental_uris": {"ios": "https://dc.lft.to/lastmile_qr_scan", "android": "https://dc.lft.to/lastmile_qr_scan"}, "lon": -77.02839133333333, "type": "electric_scooter", "fusion_lat": 0.0, "lat": 38.8877095, "name": "e4fbdc0b8cbec4adcf5f7f6e4bf0a7b4", "fusion_lon": 0.0, "bike_id": "e4fbdc0b8cbec4adcf5f7f6e4bf0a7b4", "is_disabled": 0, "is_reserved": 0}, {"rental_uris": {"ios": "https://dc.lft.to/lastmile_qr_scan", "android": "https://dc.lft.to/lastmile_qr_scan"}, "lon": -77.0615475, "type": "electric_scooter", "fusion_lat": 0.0, "lat": 38.942110166666666, "name": "4c3a5c84d70d832bd33af09d77e03bdb", "fusion_lon": 0.0, "bike_id": "4c3a5c84d70d832bd33af09d77e03bdb", "is_disabled": 0, "is_reserved": 0}, {"rental_uris": {"ios": "https://dc.lft.to/lastmile_qr_scan", "android": "https://dc.lft.to/lastmile_qr_scan"}, "lon": -76.98772133333334, "type": "electric_scooter", "fusion_lat": 0.0, "lat": 38.911696166666665, "name": "4337d7e11fff9c2fdaf4112a9cb49fee", "fusion_lon": 0.0, "bike_id": "4337d7e11fff9c2fdaf4112a9cb49fee", "is_disabled": 0, "is_reserved": 0}, {"rental_uris": {"ios": "https://dc.lft.to/lastmile_qr_scan", "android": "https://dc.lft.to/lastmile_qr_scan"}, "lon": -77.02624483333334, "type": "electric_scooter", "fusion_lat": 0.0, "lat": 38.93347, "name": "15b1c0a23ec8372bf72fa1f6bd7311a0", "fusion_lon": 0.0, "bike_id": "15b1c0a23ec8372bf72fa1f6bd7311a0", "is_disabled": 0, "is_reserved": 0}, {"rental_uris": {"ios": "https://dc.lft.to/lastmile_qr_scan", "android": "https://dc.lft.to/lastmile_qr_scan"}, "lon": -77.03249233333334, "type": "electric_scooter", "fusion_lat": 0.0, "lat": 38.90986316666667, "name": "bd5542558d9f135693709a7b5b600af9", "fusion_lon": 0.0, "bike_id": "bd5542558d9f135693709a7b5b600af9", "is_disabled": 0, "is_reserved": 0}, {"rental_uris": {"ios": "https://dc.lft.to/lastmile_qr_scan", "android": "https://dc.lft.to/lastmile_qr_scan"}, "lon": -77.04923066666667, "type": "electric_scooter", "fusion_lat": 0.0, "lat": 38.8968165, "name": "6efd76f843eff47bc047d4832cab81b9", "fusion_lon": 0.0, "bike_id": "6efd76f843eff47bc047d4832cab81b9", "is_disabled": 0, "is_reserved": 0}, {"rental_uris": {"ios": "https://dc.lft.to/lastmile_qr_scan", "android": "https://dc.lft.to/lastmile_qr_scan"}, "lon": -76.9788675, "type": "electric_scooter", "fusion_lat": 0.0, "lat": 38.916767, "name": "5c2aa14c732c269023ba57b9a25b63e9", "fusion_lon": 0.0, "bike_id": "5c2aa14c732c269023ba57b9a25b63e9", "is_disabled": 0, "is_reserved": 0}, {"rental_uris": {"ios": "https://dc.lft.to/lastmile_qr_scan", "android": "https://dc.lft.to/lastmile_qr_scan"}, "lon": -77.02376583333333, "type": "electric_scooter", "fusion_lat": 0.0, "lat": 38.90597416666667, "name": "6ee6688a9e5c448b1b5d563a21d0cc03", "fusion_lon": 0.0, "bike_id": "6ee6688a9e5c448b1b5d563a21d0cc03", "is_disabled": 0, "is_reserved": 0}, {"rental_uris": {"ios": "https://dc.lft.to/lastmile_qr_scan", "android": "https://dc.lft.to/lastmile_qr_scan"}, "lon": -77.12731083333334, "type": "electric_bike", "fusion_lat": 0.0, "lat": 38.88815183333333, "name": "1d19900926704a3a5f6cf43c73920033", "fusion_lon": 0.0, "bike_id": "1d19900926704a3a5f6cf43c73920033", "is_disabled": 0, "is_reserved": 0}, {"rental_uris": {"ios": "https://dc.lft.to/lastmile_qr_scan", "android": "https://dc.lft.to/lastmile_qr_scan"}, "lon": -77.03351, "type": "electric_scooter", "fusion_lat": 0.0, "lat": 38.8953235, "name": "fcb5b4c92c0f97b5157323cbafbd85f0", "fusion_lon": 0.0, "bike_id": "fcb5b4c92c0f97b5157323cbafbd85f0", "is_disabled": 0, "is_reserved": 0}, {"rental_uris": {"ios": "https://dc.lft.to/lastmile_qr_scan", "android": "https://dc.lft.to/lastmile_qr_scan"}, "lon": -77.05516683333333, "type": "electric_scooter", "fusion_lat": 0.0, "lat": 38.93001483333333, "name": "066195c1b371916f5ebe6979d78d90f9", "fusion_lon": 0.0, "bike_id": "066195c1b371916f5ebe6979d78d90f9", "is_disabled": 0, "is_reserved": 0}, {"rental_uris": {"ios": "https://dc.lft.to/lastmile_qr_scan", "android": "https://dc.lft.to/lastmile_qr_scan"}, "lon": -77.01773616666667, "type": "electric_scooter", "fusion_lat": 0.0, "lat": 38.8772565, "name": "8805c7a91ad81c3e67a78748f2842d9c", "fusion_lon": 0.0, "bike_id": "8805c7a91ad81c3e67a78748f2842d9c", "is_disabled": 0, "is_reserved": 0}, {"rental_uris": {"ios": "https://dc.lft.to/lastmile_qr_scan", "android": "https://dc.lft.to/lastmile_qr_scan"}, "lon": -77.02225283333334, "type": "electric_scooter", "fusion_lat": 0.0, "lat": 38.92101016666667, "name": "b0a28cadacae71222eabf2477f513bca", "fusion_lon": 0.0, "bike_id": "b0a28cadacae71222eabf2477f513bca", "is_disabled": 0, "is_reserved": 0}, {"rental_uris": {"ios": "https://dc.lft.to/lastmile_qr_scan", "android": "https://dc.lft.to/lastmile_qr_scan"}, "lon": -77.06352483333333, "type": "electric_bike", "fusion_lat": 0.0, "lat": 38.8628355, "name": "bc57fbbe2153aa9a86e5a286396085a6", "fusion_lon": 0.0, "bike_id": "bc57fbbe2153aa9a86e5a286396085a6", "is_disabled": 0, "is_reserved": 0}, {"rental_uris": {"ios": "https://dc.lft.to/lastmile_qr_scan", "android": "https://dc.lft.to/lastmile_qr_scan"}, "lon": -77.03152716666666, "type": "electric_scooter", "fusion_lat": 0.0, "lat": 38.9453245, "name": "b935243e93b018720ab54c4a4baac354", "fusion_lon": 0.0, "bike_id": "b935243e93b018720ab54c4a4baac354", "is_disabled": 0, "is_reserved": 0}, {"rental_uris": {"ios": "https://dc.lft.to/lastmile_qr_scan", "android": "https://dc.lft.to/lastmile_qr_scan"}, "lon": -77.029516, "type": "electric_scooter", "fusion_lat": 0.0, "lat": 38.91727983333333, "name": "5126f7cc13ae707458b55230a682b3b6", "fusion_lon": 0.0, "bike_id": "5126f7cc13ae707458b55230a682b3b6", "is_disabled": 0, "is_reserved": 0}, {"rental_uris": {"ios": "https://dc.lft.to/lastmile_qr_scan", "android": "https://dc.lft.to/lastmile_qr_scan"}, "lon": -76.97319, "type": "electric_scooter", "fusion_lat": 0.0, "lat": 38.917776, "name": "805bb4c8e883eab2d506dc8fe4226e4f", "fusion_lon": 0.0, "bike_id": "805bb4c8e883eab2d506dc8fe4226e4f", "is_disabled": 0, "is_reserved": 0}, {"rental_uris": {"ios": "https://dc.lft.to/lastmile_qr_scan", "android": "https://dc.lft.to/lastmile_qr_scan"}, "lon": -77.03964233333333, "type": "electric_scooter", "fusion_lat": 0.0, "lat": 38.898918333333334, "name": "c0311271d83e3c925ddb7ebb2f8b6c99", "fusion_lon": 0.0, "bike_id": "c0311271d83e3c925ddb7ebb2f8b6c99", "is_disabled": 0, "is_reserved": 0}, {"rental_uris": {"ios": "https://dc.lft.to/lastmile_qr_scan", "android": "https://dc.lft.to/lastmile_qr_scan"}, "lon": -77.02172966666667, "type": "electric_scooter", "fusion_lat": 0.0, "lat": 38.879955, "name": "3812cdc20473511ca95855009bd36dcf", "fusion_lon": 0.0, "bike_id": "3812cdc20473511ca95855009bd36dcf", "is_disabled": 0, "is_reserved": 0}, {"rental_uris": {"ios": "https://dc.lft.to/lastmile_qr_scan", "android": "https://dc.lft.to/lastmile_qr_scan"}, "lon": -77.04495816666666, "type": "electric_scooter", "fusion_lat": 0.0, "lat": 38.909475666666665, "name": "802c151486f1aceea8347857a23e231a", "fusion_lon": 0.0, "bike_id": "802c151486f1aceea8347857a23e231a", "is_disabled": 0, "is_reserved": 0}, {"rental_uris": {"ios": "https://dc.lft.to/lastmile_qr_scan", "android": "https://dc.lft.to/lastmile_qr_scan"}, "lon": -76.996157, "type": "electric_scooter", "fusion_lat": 0.0, "lat": 38.885602666666664, "name": "10e0f663b1e26c2f957736b5b4290a53", "fusion_lon": 0.0, "bike_id": "10e0f663b1e26c2f957736b5b4290a53", "is_disabled": 0, "is_reserved": 0}, {"rental_uris": {"ios": "https://dc.lft.to/lastmile_qr_scan", "android": "https://dc.lft.to/lastmile_qr_scan"}, "lon": -77.00580883333333, "type": "electric_scooter", "fusion_lat": 0.0, "lat": 38.8449575, "name": "8f68b1995b2404ae2b606f01192f61e5", "fusion_lon": 0.0, "bike_id": "8f68b1995b2404ae2b606f01192f61e5", "is_disabled": 0, "is_reserved": 0}, {"rental_uris": {"ios": "https://dc.lft.to/lastmile_qr_scan", "android": "https://dc.lft.to/lastmile_qr_scan"}, "lon": -77.0499955, "type": "electric_scooter", "fusion_lat": 0.0, "lat": 38.89232616666666, "name": "13f29d18cf360fa7e83d47bd860d9ff5", "fusion_lon": 0.0, "bike_id": "13f29d18cf360fa7e83d47bd860d9ff5", "is_disabled": 0, "is_reserved": 0}, {"rental_uris": {"ios": "https://dc.lft.to/lastmile_qr_scan", "android": "https://dc.lft.to/lastmile_qr_scan"}, "lon": -77.03186066666666, "type": "electric_scooter", "fusion_lat": 0.0, "lat": 38.91245583333333, "name": "e795104cab1d9c502649fe9c214b9f49", "fusion_lon": 0.0, "bike_id": "e795104cab1d9c502649fe9c214b9f49", "is_disabled": 0, "is_reserved": 0}, {"rental_uris": {"ios": "https://dc.lft.to/lastmile_qr_scan", "android": "https://dc.lft.to/lastmile_qr_scan"}, "lon": -77.04645733333334, "type": "electric_scooter", "fusion_lat": 0.0, "lat": 38.89656683333333, "name": "a8de57d54f41dce0cff6b610322c5c05", "fusion_lon": 0.0, "bike_id": "a8de57d54f41dce0cff6b610322c5c05", "is_disabled": 0, "is_reserved": 0}, {"rental_uris": {"ios": "https://dc.lft.to/lastmile_qr_scan", "android": "https://dc.lft.to/lastmile_qr_scan"}, "lon": -77.046413, "type": "electric_scooter", "fusion_lat": 0.0, "lat": 38.9159705, "name": "27aea8b302b7ad1b0cd5512f731a8810", "fusion_lon": 0.0, "bike_id": "27aea8b302b7ad1b0cd5512f731a8810", "is_disabled": 0, "is_reserved": 0}, {"rental_uris": {"ios": "https://dc.lft.to/lastmile_qr_scan", "android": "https://dc.lft.to/lastmile_qr_scan"}, "lon": -76.9755825, "type": "electric_scooter", "fusion_lat": 0.0, "lat": 38.904447, "name": "cdef4186b9158c432637b11a5989770d", "fusion_lon": 0.0, "bike_id": "cdef4186b9158c432637b11a5989770d", "is_disabled": 0, "is_reserved": 0}, {"rental_uris": {"ios": "https://dc.lft.to/lastmile_qr_scan", "android": "https://dc.lft.to/lastmile_qr_scan"}, "lon": -76.9732655, "type": "electric_scooter", "fusion_lat": 0.0, "lat": 38.930285, "name": "df556b74713966c65c1920aa284c7405", "fusion_lon": 0.0, "bike_id": "df556b74713966c65c1920aa284c7405", "is_disabled": 0, "is_reserved": 0}, {"rental_uris": {"ios": "https://dc.lft.to/lastmile_qr_scan", "android": "https://dc.lft.to/lastmile_qr_scan"}, "lon": -76.97502166666666, "type": "electric_bike", "fusion_lat": 0.0, "lat": 38.919438166666666, "name": "ae9f879a92739abf528cb98957623c3c", "fusion_lon": 0.0, "bike_id": "ae9f879a92739abf528cb98957623c3c", "is_disabled": 0, "is_reserved": 0}, {"rental_uris": {"ios": "https://dc.lft.to/lastmile_qr_scan", "android": "https://dc.lft.to/lastmile_qr_scan"}, "lon": -76.98568883333333, "type": "electric_scooter", "fusion_lat": 0.0, "lat": 38.86148883333333, "name": "65c87d08599443e14ff86d7d65ad1ad5", "fusion_lon": 0.0, "bike_id": "65c87d08599443e14ff86d7d65ad1ad5", "is_disabled": 0, "is_reserved": 0}, {"rental_uris": {"ios": "https://dc.lft.to/lastmile_qr_scan", "android": "https://dc.lft.to/lastmile_qr_scan"}, "lon": -76.99613233333334, "type": "electric_scooter", "fusion_lat": 0.0, "lat": 38.88627566666667, "name": "2247b8a5a211175a10a9c8f33a42a91e", "fusion_lon": 0.0, "bike_id": "2247b8a5a211175a10a9c8f33a42a91e", "is_disabled": 0, "is_reserved": 0}, {"rental_uris": {"ios": "https://dc.lft.to/lastmile_qr_scan", "android": "https://dc.lft.to/lastmile_qr_scan"}, "lon": -77.04493, "type": "electric_scooter", "fusion_lat": 0.0, "lat": 38.91520883333333, "name": "41970c6020ca3c2650876f094aa0f980", "fusion_lon": 0.0, "bike_id": "41970c6020ca3c2650876f094aa0f980", "is_disabled": 0, "is_reserved": 0}, {"rental_uris": {"ios": "https://dc.lft.to/lastmile_qr_scan", "android": "https://dc.lft.to/lastmile_qr_scan"}, "lon": -77.03213433333333, "type": "electric_scooter", "fusion_lat": 0.0, "lat": 38.91679216666667, "name": "20d1a8c81facdc260043dddc3549677b", "fusion_lon": 0.0, "bike_id": "20d1a8c81facdc260043dddc3549677b", "is_disabled": 0, "is_reserved": 0}, {"rental_uris": {"ios": "https://dc.lft.to/lastmile_qr_scan", "android": "https://dc.lft.to/lastmile_qr_scan"}, "lon": -76.99865916666667, "type": "electric_scooter", "fusion_lat": 0.0, "lat": 38.900287166666665, "name": "9b36b678c5c92dee3699acad12d37194", "fusion_lon": 0.0, "bike_id": "9b36b678c5c92dee3699acad12d37194", "is_disabled": 0, "is_reserved": 0}, {"rental_uris": {"ios": "https://dc.lft.to/lastmile_qr_scan", "android": "https://dc.lft.to/lastmile_qr_scan"}, "lon": -76.947377, "type": "electric_scooter", "fusion_lat": 0.0, "lat": 38.89670916666667, "name": "d51e0f829ca8bb9305913934766c5351", "fusion_lon": 0.0, "bike_id": "d51e0f829ca8bb9305913934766c5351", "is_disabled": 0, "is_reserved": 0}, {"rental_uris": {"ios": "https://dc.lft.to/lastmile_qr_scan", "android": "https://dc.lft.to/lastmile_qr_scan"}, "lon": -77.080862, "type": "electric_bike", "fusion_lat": 0.0, "lat": 38.906915, "name": "f5e0569cc902849199bbfb029dbee4fd", "fusion_lon": 0.0, "bike_id": "f5e0569cc902849199bbfb029dbee4fd", "is_disabled": 0, "is_reserved": 0}, {"rental_uris": {"ios": "https://dc.lft.to/lastmile_qr_scan", "android": "https://dc.lft.to/lastmile_qr_scan"}, "lon": -77.02223933333333, "type": "electric_scooter", "fusion_lat": 0.0, "lat": 38.89205583333333, "name": "87d6c2fb8a56ae62b6c1021a63c23da7", "fusion_lon": 0.0, "bike_id": "87d6c2fb8a56ae62b6c1021a63c23da7", "is_disabled": 0, "is_reserved": 0}, {"rental_uris": {"ios": "https://dc.lft.to/lastmile_qr_scan", "android": "https://dc.lft.to/lastmile_qr_scan"}, "lon": -77.05001016666667, "type": "electric_scooter", "fusion_lat": 0.0, "lat": 38.892304833333334, "name": "503fa45f5950fe247ae9d59d948688c3", "fusion_lon": 0.0, "bike_id": "503fa45f5950fe247ae9d59d948688c3", "is_disabled": 0, "is_reserved": 0}, {"rental_uris": {"ios": "https://dc.lft.to/lastmile_qr_scan", "android": "https://dc.lft.to/lastmile_qr_scan"}, "lon": -77.03563166666666, "type": "electric_scooter", "fusion_lat": 0.0, "lat": 38.90852966666667, "name": "6f978276d0b581a3b704e8efbf50119d", "fusion_lon": 0.0, "bike_id": "6f978276d0b581a3b704e8efbf50119d", "is_disabled": 0, "is_reserved": 0}, {"rental_uris": {"ios": "https://dc.lft.to/lastmile_qr_scan", "android": "https://dc.lft.to/lastmile_qr_scan"}, "lon": -77.0238765, "type": "electric_scooter", "fusion_lat": 0.0, "lat": 38.90702, "name": "70747ced7523e0fee3e5043a993ed482", "fusion_lon": 0.0, "bike_id": "70747ced7523e0fee3e5043a993ed482", "is_disabled": 0, "is_reserved": 0}, {"rental_uris": {"ios": "https://dc.lft.to/lastmile_qr_scan", "android": "https://dc.lft.to/lastmile_qr_scan"}, "lon": -77.0321625, "type": "electric_scooter", "fusion_lat": 0.0, "lat": 38.9127545, "name": "7b32bc6728339a0c0b847afe246bc23d", "fusion_lon": 0.0, "bike_id": "7b32bc6728339a0c0b847afe246bc23d", "is_disabled": 0, "is_reserved": 0}, {"rental_uris": {"ios": "https://dc.lft.to/lastmile_qr_scan", "android": "https://dc.lft.to/lastmile_qr_scan"}, "lon": -77.08946266666666, "type": "electric_bike", "fusion_lat": 0.0, "lat": 38.84118016666667, "name": "ce48f8f96d0629861fea9652fb4d51f4", "fusion_lon": 0.0, "bike_id": "ce48f8f96d0629861fea9652fb4d51f4", "is_disabled": 0, "is_reserved": 0}, {"rental_uris": {"ios": "https://dc.lft.to/lastmile_qr_scan", "android": "https://dc.lft.to/lastmile_qr_scan"}, "lon": -77.04162283333334, "type": "electric_scooter", "fusion_lat": 0.0, "lat": 38.919936666666665, "name": "c74050e03b0b56ea600418067205bc09", "fusion_lon": 0.0, "bike_id": "c74050e03b0b56ea600418067205bc09", "is_disabled": 0, "is_reserved": 0}, {"rental_uris": {"ios": "https://dc.lft.to/lastmile_qr_scan", "android": "https://dc.lft.to/lastmile_qr_scan"}, "lon": -77.088252, "type": "electric_bike", "fusion_lat": 0.0, "lat": 38.909801, "name": "cb9ad6f89d6783dd731dbb6ea1ff55ec", "fusion_lon": 0.0, "bike_id": "cb9ad6f89d6783dd731dbb6ea1ff55ec", "is_disabled": 0, "is_reserved": 0}, {"rental_uris": {"ios": "https://dc.lft.to/lastmile_qr_scan", "android": "https://dc.lft.to/lastmile_qr_scan"}, "lon": -77.0345865, "type": "electric_scooter", "fusion_lat": 0.0, "lat": 38.90270366666667, "name": "859769081974d05fe32c109a5626ec73", "fusion_lon": 0.0, "bike_id": "859769081974d05fe32c109a5626ec73", "is_disabled": 0, "is_reserved": 0}, {"rental_uris": {"ios": "https://dc.lft.to/lastmile_qr_scan", "android": "https://dc.lft.to/lastmile_qr_scan"}, "lon": -77.04054133333334, "type": "electric_scooter", "fusion_lat": 0.0, "lat": 38.9272715, "name": "98b5d4e4c89fc476ce10cd1d7bc5ad63", "fusion_lon": 0.0, "bike_id": "98b5d4e4c89fc476ce10cd1d7bc5ad63", "is_disabled": 0, "is_reserved": 0}, {"rental_uris": {"ios": "https://dc.lft.to/lastmile_qr_scan", "android": "https://dc.lft.to/lastmile_qr_scan"}, "lon": -77.03632833333333, "type": "electric_scooter", "fusion_lat": 0.0, "lat": 38.9563925, "name": "34418567ba852f7b03b3c4a342c8a636", "fusion_lon": 0.0, "bike_id": "34418567ba852f7b03b3c4a342c8a636", "is_disabled": 0, "is_reserved": 0}, {"rental_uris": {"ios": "https://dc.lft.to/lastmile_qr_scan", "android": "https://dc.lft.to/lastmile_qr_scan"}, "lon": -77.0449815, "type": "electric_scooter", "fusion_lat": 0.0, "lat": 38.905687666666665, "name": "f32d76489b85c113e9a060ef74f44413", "fusion_lon": 0.0, "bike_id": "f32d76489b85c113e9a060ef74f44413", "is_disabled": 0, "is_reserved": 0}, {"rental_uris": {"ios": "https://dc.lft.to/lastmile_qr_scan", "android": "https://dc.lft.to/lastmile_qr_scan"}, "lon": -77.057145, "type": "electric_scooter", "fusion_lat": 0.0, "lat": 38.9054175, "name": "7740c17b3985589d5f400cb27e3524c4", "fusion_lon": 0.0, "bike_id": "7740c17b3985589d5f400cb27e3524c4", "is_disabled": 0, "is_reserved": 0}, {"rental_uris": {"ios": "https://dc.lft.to/lastmile_qr_scan", "android": "https://dc.lft.to/lastmile_qr_scan"}, "lon": -77.04224566666667, "type": "electric_scooter", "fusion_lat": 0.0, "lat": 38.9077065, "name": "630bcbb18b4512ba2ce00c026bf0220d", "fusion_lon": 0.0, "bike_id": "630bcbb18b4512ba2ce00c026bf0220d", "is_disabled": 0, "is_reserved": 0}, {"rental_uris": {"ios": "https://dc.lft.to/lastmile_qr_scan", "android": "https://dc.lft.to/lastmile_qr_scan"}, "lon": -77.02848333333333, "type": "electric_scooter", "fusion_lat": 0.0, "lat": 38.93082533333333, "name": "ccd08544ac42c3892bef18b23ad2e483", "fusion_lon": 0.0, "bike_id": "ccd08544ac42c3892bef18b23ad2e483", "is_disabled": 0, "is_reserved": 0}, {"rental_uris": {"ios": "https://dc.lft.to/lastmile_qr_scan", "android": "https://dc.lft.to/lastmile_qr_scan"}, "lon": -77.01398383333333, "type": "electric_scooter", "fusion_lat": 0.0, "lat": 38.92856233333333, "name": "ab5431b7236489d073d6a1a50f47afe6", "fusion_lon": 0.0, "bike_id": "ab5431b7236489d073d6a1a50f47afe6", "is_disabled": 0, "is_reserved": 0}, {"rental_uris": {"ios": "https://dc.lft.to/lastmile_qr_scan", "android": "https://dc.lft.to/lastmile_qr_scan"}, "lon": -77.0260075, "type": "electric_scooter", "fusion_lat": 0.0, "lat": 38.9260635, "name": "5113b3a3b1e49ee13d608975e0df3d5c", "fusion_lon": 0.0, "bike_id": "5113b3a3b1e49ee13d608975e0df3d5c", "is_disabled": 0, "is_reserved": 0}, {"rental_uris": {"ios": "https://dc.lft.to/lastmile_qr_scan", "android": "https://dc.lft.to/lastmile_qr_scan"}, "lon": -77.032512, "type": "electric_scooter", "fusion_lat": 0.0, "lat": 38.9290185, "name": "d6407f7865626d5fe461718a431e73bf", "fusion_lon": 0.0, "bike_id": "d6407f7865626d5fe461718a431e73bf", "is_disabled": 0, "is_reserved": 0}, {"rental_uris": {"ios": "https://dc.lft.to/lastmile_qr_scan", "android": "https://dc.lft.to/lastmile_qr_scan"}, "lon": -77.00589133333334, "type": "electric_scooter", "fusion_lat": 0.0, "lat": 38.915636, "name": "ab04dbbeedf4ef3b116b0913263da6b0", "fusion_lon": 0.0, "bike_id": "ab04dbbeedf4ef3b116b0913263da6b0", "is_disabled": 0, "is_reserved": 0}, {"rental_uris": {"ios": "https://dc.lft.to/lastmile_qr_scan", "android": "https://dc.lft.to/lastmile_qr_scan"}, "lon": -77.04986966666667, "type": "electric_scooter", "fusion_lat": 0.0, "lat": 38.90799366666667, "name": "fc37b51f48cf0cb20d3f96e448a0b94a", "fusion_lon": 0.0, "bike_id": "fc37b51f48cf0cb20d3f96e448a0b94a", "is_disabled": 0, "is_reserved": 0}, {"rental_uris": {"ios": "https://dc.lft.to/lastmile_qr_scan", "android": "https://dc.lft.to/lastmile_qr_scan"}, "lon": -77.12502916666666, "type": "electric_bike", "fusion_lat": 0.0, "lat": 39.0242105, "name": "098404de7e9434fe9664d506362ac7c6", "fusion_lon": 0.0, "bike_id": "098404de7e9434fe9664d506362ac7c6", "is_disabled": 0, "is_reserved": 0}, {"rental_uris": {"ios": "https://dc.lft.to/lastmile_qr_scan", "android": "https://dc.lft.to/lastmile_qr_scan"}, "lon": -77.11706816666667, "type": "electric_bike", "fusion_lat": 0.0, "lat": 38.885577833333336, "name": "1fb1bd135b3159a75de44a692cdee018", "fusion_lon": 0.0, "bike_id": "1fb1bd135b3159a75de44a692cdee018", "is_disabled": 0, "is_reserved": 0}, {"rental_uris": {"ios": "https://dc.lft.to/lastmile_qr_scan", "android": "https://dc.lft.to/lastmile_qr_scan"}, "lon": -77.0234285, "type": "electric_scooter", "fusion_lat": 0.0, "lat": 38.96213, "name": "9d5d18eb42d9c269c9434d7628ebf5d8", "fusion_lon": 0.0, "bike_id": "9d5d18eb42d9c269c9434d7628ebf5d8", "is_disabled": 0, "is_reserved": 0}, {"rental_uris": {"ios": "https://dc.lft.to/lastmile_qr_scan", "android": "https://dc.lft.to/lastmile_qr_scan"}, "lon": -77.03470333333334, "type": "electric_scooter", "fusion_lat": 0.0, "lat": 38.917141, "name": "ad3b20a947f3131b1fcb2543dcd0b5ed", "fusion_lon": 0.0, "bike_id": "ad3b20a947f3131b1fcb2543dcd0b5ed", "is_disabled": 0, "is_reserved": 0}, {"rental_uris": {"ios": "https://dc.lft.to/lastmile_qr_scan", "android": "https://dc.lft.to/lastmile_qr_scan"}, "lon": -77.00210733333333, "type": "electric_scooter", "fusion_lat": 0.0, "lat": 38.900339, "name": "f6fe429e0ce246586a466aff4be543d5", "fusion_lon": 0.0, "bike_id": "f6fe429e0ce246586a466aff4be543d5", "is_disabled": 0, "is_reserved": 0}, {"rental_uris": {"ios": "https://dc.lft.to/lastmile_qr_scan", "android": "https://dc.lft.to/lastmile_qr_scan"}, "lon": -77.053484, "type": "electric_scooter", "fusion_lat": 0.0, "lat": 38.90279266666667, "name": "58f6896420ff4c827d52a4de2b37441c", "fusion_lon": 0.0, "bike_id": "58f6896420ff4c827d52a4de2b37441c", "is_disabled": 0, "is_reserved": 0}, {"rental_uris": {"ios": "https://dc.lft.to/lastmile_qr_scan", "android": "https://dc.lft.to/lastmile_qr_scan"}, "lon": -77.05000983333333, "type": "electric_scooter", "fusion_lat": 0.0, "lat": 38.892307833333334, "name": "c42a00cf8abf008d20f88b245686ae56", "fusion_lon": 0.0, "bike_id": "c42a00cf8abf008d20f88b245686ae56", "is_disabled": 0, "is_reserved": 0}, {"rental_uris": {"ios": "https://dc.lft.to/lastmile_qr_scan", "android": "https://dc.lft.to/lastmile_qr_scan"}, "lon": -76.98159183333334, "type": "electric_scooter", "fusion_lat": 0.0, "lat": 38.900047666666666, "name": "21c8ad82693435cfecbffe116c3451b7", "fusion_lon": 0.0, "bike_id": "21c8ad82693435cfecbffe116c3451b7", "is_disabled": 0, "is_reserved": 0}, {"rental_uris": {"ios": "https://dc.lft.to/lastmile_qr_scan", "android": "https://dc.lft.to/lastmile_qr_scan"}, "lon": -76.93158, "type": "electric_scooter", "fusion_lat": 0.0, "lat": 38.898775666666666, "name": "b98ae34d8e509390bc50c3c894a9c37d", "fusion_lon": 0.0, "bike_id": "b98ae34d8e509390bc50c3c894a9c37d", "is_disabled": 0, "is_reserved": 0}, {"rental_uris": {"ios": "https://dc.lft.to/lastmile_qr_scan", "android": "https://dc.lft.to/lastmile_qr_scan"}, "lon": -76.96305533333333, "type": "electric_bike", "fusion_lat": 0.0, "lat": 38.92710016666667, "name": "f5d905d1bd8cc657e10b9b7488c14e80", "fusion_lon": 0.0, "bike_id": "f5d905d1bd8cc657e10b9b7488c14e80", "is_disabled": 0, "is_reserved": 0}, {"rental_uris": {"ios": "https://dc.lft.to/lastmile_qr_scan", "android": "https://dc.lft.to/lastmile_qr_scan"}, "lon": -77.01879416666667, "type": "electric_scooter", "fusion_lat": 0.0, "lat": 38.90312733333333, "name": "f2553cdc4ce9ee8b956aaa49edbcff1b", "fusion_lon": 0.0, "bike_id": "f2553cdc4ce9ee8b956aaa49edbcff1b", "is_disabled": 0, "is_reserved": 0}, {"rental_uris": {"ios": "https://dc.lft.to/lastmile_qr_scan", "android": "https://dc.lft.to/lastmile_qr_scan"}, "lon": -77.01187616666667, "type": "electric_scooter", "fusion_lat": 0.0, "lat": 38.900328, "name": "37b8fe40e7af33361d17aad562bc5b27", "fusion_lon": 0.0, "bike_id": "37b8fe40e7af33361d17aad562bc5b27", "is_disabled": 0, "is_reserved": 0}, {"rental_uris": {"ios": "https://dc.lft.to/lastmile_qr_scan", "android": "https://dc.lft.to/lastmile_qr_scan"}, "lon": -77.0446345, "type": "electric_scooter", "fusion_lat": 0.0, "lat": 38.911236833333334, "name": "5ce8a0220af94aec447cc6267d04048f", "fusion_lon": 0.0, "bike_id": "5ce8a0220af94aec447cc6267d04048f", "is_disabled": 0, "is_reserved": 0}, {"rental_uris": {"ios": "https://dc.lft.to/lastmile_qr_scan", "android": "https://dc.lft.to/lastmile_qr_scan"}, "lon": -76.94178783333334, "type": "electric_scooter", "fusion_lat": 0.0, "lat": 38.88222666666667, "name": "5f172ee8a055bdca48505109fb049f17", "fusion_lon": 0.0, "bike_id": "5f172ee8a055bdca48505109fb049f17", "is_disabled": 0, "is_reserved": 0}, {"rental_uris": {"ios": "https://dc.lft.to/lastmile_qr_scan", "android": "https://dc.lft.to/lastmile_qr_scan"}, "lon": -77.020135, "type": "electric_scooter", "fusion_lat": 0.0, "lat": 38.9497745, "name": "e86fe2c69e199f000ec4cd9fc4e5a8e8", "fusion_lon": 0.0, "bike_id": "e86fe2c69e199f000ec4cd9fc4e5a8e8", "is_disabled": 0, "is_reserved": 0}, {"rental_uris": {"ios": "https://dc.lft.to/lastmile_qr_scan", "android": "https://dc.lft.to/lastmile_qr_scan"}, "lon": -77.0326535, "type": "electric_scooter", "fusion_lat": 0.0, "lat": 38.929192, "name": "63f2d09cfa30e8deb25411db9af3a0f7", "fusion_lon": 0.0, "bike_id": "63f2d09cfa30e8deb25411db9af3a0f7", "is_disabled": 0, "is_reserved": 0}, {"rental_uris": {"ios": "https://dc.lft.to/lastmile_qr_scan", "android": "https://dc.lft.to/lastmile_qr_scan"}, "lon": -76.987188, "type": "electric_scooter", "fusion_lat": 0.0, "lat": 38.862635833333336, "name": "fd9e849670de1b51cb6332b3eaeee716", "fusion_lon": 0.0, "bike_id": "fd9e849670de1b51cb6332b3eaeee716", "is_disabled": 0, "is_reserved": 0}, {"rental_uris": {"ios": "https://dc.lft.to/lastmile_qr_scan", "android": "https://dc.lft.to/lastmile_qr_scan"}, "lon": -77.02182766666667, "type": "electric_scooter", "fusion_lat": 0.0, "lat": 38.89924633333333, "name": "e6fdbd5296e72fe1b863937b64800149", "fusion_lon": 0.0, "bike_id": "e6fdbd5296e72fe1b863937b64800149", "is_disabled": 0, "is_reserved": 0}, {"rental_uris": {"ios": "https://dc.lft.to/lastmile_qr_scan", "android": "https://dc.lft.to/lastmile_qr_scan"}, "lon": -77.0261415, "type": "electric_scooter", "fusion_lat": 0.0, "lat": 38.892473333333335, "name": "9419b486abe70cf446c29bb1f48d806b", "fusion_lon": 0.0, "bike_id": "9419b486abe70cf446c29bb1f48d806b", "is_disabled": 0, "is_reserved": 0}, {"rental_uris": {"ios": "https://dc.lft.to/lastmile_qr_scan", "android": "https://dc.lft.to/lastmile_qr_scan"}, "lon": -77.0466235, "type": "electric_scooter", "fusion_lat": 0.0, "lat": 38.919187666666666, "name": "1464b09bc06f14b307a5e8f9c1837292", "fusion_lon": 0.0, "bike_id": "1464b09bc06f14b307a5e8f9c1837292", "is_disabled": 0, "is_reserved": 0}, {"rental_uris": {"ios": "https://dc.lft.to/lastmile_qr_scan", "android": "https://dc.lft.to/lastmile_qr_scan"}, "lon": -76.94720716666667, "type": "electric_scooter", "fusion_lat": 0.0, "lat": 38.897419666666664, "name": "2b7e74e2e18890ef38766bc3cb6efbae", "fusion_lon": 0.0, "bike_id": "2b7e74e2e18890ef38766bc3cb6efbae", "is_disabled": 0, "is_reserved": 0}, {"rental_uris": {"ios": "https://dc.lft.to/lastmile_qr_scan", "android": "https://dc.lft.to/lastmile_qr_scan"}, "lon": -77.05481583333334, "type": "electric_scooter", "fusion_lat": 0.0, "lat": 38.921107, "name": "de5a5d2b251b3ea1d4338aca7621dce3", "fusion_lon": 0.0, "bike_id": "de5a5d2b251b3ea1d4338aca7621dce3", "is_disabled": 0, "is_reserved": 0}, {"rental_uris": {"ios": "https://dc.lft.to/lastmile_qr_scan", "android": "https://dc.lft.to/lastmile_qr_scan"}, "lon": -77.051585, "type": "electric_scooter", "fusion_lat": 0.0, "lat": 38.897834333333336, "name": "7e0c525d57463bc8704adbd3d76d423f", "fusion_lon": 0.0, "bike_id": "7e0c525d57463bc8704adbd3d76d423f", "is_disabled": 0, "is_reserved": 0}, {"rental_uris": {"ios": "https://dc.lft.to/lastmile_qr_scan", "android": "https://dc.lft.to/lastmile_qr_scan"}, "lon": -77.002094, "type": "electric_scooter", "fusion_lat": 0.0, "lat": 38.902223166666666, "name": "89dbab3f620f48d07e6b13e25cf8bb97", "fusion_lon": 0.0, "bike_id": "89dbab3f620f48d07e6b13e25cf8bb97", "is_disabled": 0, "is_reserved": 0}, {"rental_uris": {"ios": "https://dc.lft.to/lastmile_qr_scan", "android": "https://dc.lft.to/lastmile_qr_scan"}, "lon": -76.94977616666667, "type": "electric_scooter", "fusion_lat": 0.0, "lat": 38.893682166666665, "name": "b3baccd4810fe10cd83765586cafeab9", "fusion_lon": 0.0, "bike_id": "b3baccd4810fe10cd83765586cafeab9", "is_disabled": 0, "is_reserved": 0}, {"rental_uris": {"ios": "https://dc.lft.to/lastmile_qr_scan", "android": "https://dc.lft.to/lastmile_qr_scan"}, "lon": -77.1203075, "type": "electric_bike", "fusion_lat": 0.0, "lat": 38.8551015, "name": "66ed6be126fef8a8be667ce053ddf3da", "fusion_lon": 0.0, "bike_id": "66ed6be126fef8a8be667ce053ddf3da", "is_disabled": 0, "is_reserved": 0}, {"rental_uris": {"ios": "https://dc.lft.to/lastmile_qr_scan", "android": "https://dc.lft.to/lastmile_qr_scan"}, "lon": -77.03180383333333, "type": "electric_scooter", "fusion_lat": 0.0, "lat": 38.886273333333335, "name": "cddb93798baf15f04a5b582ed480875b", "fusion_lon": 0.0, "bike_id": "cddb93798baf15f04a5b582ed480875b", "is_disabled": 0, "is_reserved": 0}, {"rental_uris": {"ios": "https://dc.lft.to/lastmile_qr_scan", "android": "https://dc.lft.to/lastmile_qr_scan"}, "lon": -76.93179416666666, "type": "electric_scooter", "fusion_lat": 0.0, "lat": 38.89887816666667, "name": "ea4e8ee1942e14293df40fae1fb68830", "fusion_lon": 0.0, "bike_id": "ea4e8ee1942e14293df40fae1fb68830", "is_disabled": 0, "is_reserved": 0}, {"rental_uris": {"ios": "https://dc.lft.to/lastmile_qr_scan", "android": "https://dc.lft.to/lastmile_qr_scan"}, "lon": -77.0466225, "type": "electric_scooter", "fusion_lat": 0.0, "lat": 38.89336516666667, "name": "7d889f3128473727cb35e9abd0275bb5", "fusion_lon": 0.0, "bike_id": "7d889f3128473727cb35e9abd0275bb5", "is_disabled": 0, "is_reserved": 0}, {"rental_uris": {"ios": "https://dc.lft.to/lastmile_qr_scan", "android": "https://dc.lft.to/lastmile_qr_scan"}, "lon": -76.94883166666666, "type": "electric_scooter", "fusion_lat": 0.0, "lat": 38.89506333333333, "name": "94e520c15b435437876b9e33cbe79cf7", "fusion_lon": 0.0, "bike_id": "94e520c15b435437876b9e33cbe79cf7", "is_disabled": 0, "is_reserved": 0}, {"rental_uris": {"ios": "https://dc.lft.to/lastmile_qr_scan", "android": "https://dc.lft.to/lastmile_qr_scan"}, "lon": -76.94721033333333, "type": "electric_scooter", "fusion_lat": 0.0, "lat": 38.8968075, "name": "a1b209954c96dc29141958f15cd7b0bc", "fusion_lon": 0.0, "bike_id": "a1b209954c96dc29141958f15cd7b0bc", "is_disabled": 0, "is_reserved": 0}, {"rental_uris": {"ios": "https://dc.lft.to/lastmile_qr_scan", "android": "https://dc.lft.to/lastmile_qr_scan"}, "lon": -77.03306683333334, "type": "electric_scooter", "fusion_lat": 0.0, "lat": 38.90122933333333, "name": "9797499ee7c0d25757fe2c889afc71cd", "fusion_lon": 0.0, "bike_id": "9797499ee7c0d25757fe2c889afc71cd", "is_disabled": 0, "is_reserved": 0}, {"rental_uris": {"ios": "https://dc.lft.to/lastmile_qr_scan", "android": "https://dc.lft.to/lastmile_qr_scan"}, "lon": -77.02790233333333, "type": "electric_scooter", "fusion_lat": 0.0, "lat": 38.9238555, "name": "15237a6ef4a2cb4e9dae39df751f77d8", "fusion_lon": 0.0, "bike_id": "15237a6ef4a2cb4e9dae39df751f77d8", "is_disabled": 0, "is_reserved": 0}, {"rental_uris": {"ios": "https://dc.lft.to/lastmile_qr_scan", "android": "https://dc.lft.to/lastmile_qr_scan"}, "lon": -77.047027, "type": "electric_scooter", "fusion_lat": 0.0, "lat": 38.90989783333333, "name": "19e52623e2db45c1ed4e71ca79fbe043", "fusion_lon": 0.0, "bike_id": "19e52623e2db45c1ed4e71ca79fbe043", "is_disabled": 0, "is_reserved": 0}, {"rental_uris": {"ios": "https://dc.lft.to/lastmile_qr_scan", "android": "https://dc.lft.to/lastmile_qr_scan"}, "lon": -77.05323283333334, "type": "electric_scooter", "fusion_lat": 0.0, "lat": 38.93967266666667, "name": "db945c76d778b8e851f435742cbdcc9e", "fusion_lon": 0.0, "bike_id": "db945c76d778b8e851f435742cbdcc9e", "is_disabled": 0, "is_reserved": 0}, {"rental_uris": {"ios": "https://dc.lft.to/lastmile_qr_scan", "android": "https://dc.lft.to/lastmile_qr_scan"}, "lon": -77.0214895, "type": "electric_scooter", "fusion_lat": 0.0, "lat": 38.928288, "name": "f3d1547f4cbfe8a12bf8df5623f208f9", "fusion_lon": 0.0, "bike_id": "f3d1547f4cbfe8a12bf8df5623f208f9", "is_disabled": 0, "is_reserved": 0}, {"rental_uris": {"ios": "https://dc.lft.to/lastmile_qr_scan", "android": "https://dc.lft.to/lastmile_qr_scan"}, "lon": -77.02475, "type": "electric_scooter", "fusion_lat": 0.0, "lat": 38.89767416666667, "name": "754475cef542bca2bd91049ce544a7d3", "fusion_lon": 0.0, "bike_id": "754475cef542bca2bd91049ce544a7d3", "is_disabled": 0, "is_reserved": 0}, {"rental_uris": {"ios": "https://dc.lft.to/lastmile_qr_scan", "android": "https://dc.lft.to/lastmile_qr_scan"}, "lon": -76.99851016666666, "type": "electric_scooter", "fusion_lat": 0.0, "lat": 38.900422, "name": "6ed95f7f7600797f428529b31c1a0978", "fusion_lon": 0.0, "bike_id": "6ed95f7f7600797f428529b31c1a0978", "is_disabled": 0, "is_reserved": 0}, {"rental_uris": {"ios": "https://dc.lft.to/lastmile_qr_scan", "android": "https://dc.lft.to/lastmile_qr_scan"}, "lon": -77.0170165, "type": "electric_scooter", "fusion_lat": 0.0, "lat": 38.905268666666665, "name": "d47f88c8a947c138322e59070be8dc06", "fusion_lon": 0.0, "bike_id": "d47f88c8a947c138322e59070be8dc06", "is_disabled": 0, "is_reserved": 0}, {"rental_uris": {"ios": "https://dc.lft.to/lastmile_qr_scan", "android": "https://dc.lft.to/lastmile_qr_scan"}, "lon": -76.98851033333334, "type": "electric_scooter", "fusion_lat": 0.0, "lat": 38.903448166666664, "name": "2bc1e4b8d6e691cb8fc53aecaedfbac5", "fusion_lon": 0.0, "bike_id": "2bc1e4b8d6e691cb8fc53aecaedfbac5", "is_disabled": 0, "is_reserved": 0}, {"rental_uris": {"ios": "https://dc.lft.to/lastmile_qr_scan", "android": "https://dc.lft.to/lastmile_qr_scan"}, "lon": -77.07617683333334, "type": "electric_scooter", "fusion_lat": 0.0, "lat": 38.91261216666667, "name": "03b573a9c87dae8183c27074427b551d", "fusion_lon": 0.0, "bike_id": "03b573a9c87dae8183c27074427b551d", "is_disabled": 0, "is_reserved": 0}, {"rental_uris": {"ios": "https://dc.lft.to/lastmile_qr_scan", "android": "https://dc.lft.to/lastmile_qr_scan"}, "lon": -77.03840333333333, "type": "electric_scooter", "fusion_lat": 0.0, "lat": 38.91100083333333, "name": "ec58a8a24fb70b10db8e7c845a6d7ca2", "fusion_lon": 0.0, "bike_id": "ec58a8a24fb70b10db8e7c845a6d7ca2", "is_disabled": 0, "is_reserved": 0}, {"rental_uris": {"ios": "https://dc.lft.to/lastmile_qr_scan", "android": "https://dc.lft.to/lastmile_qr_scan"}, "lon": -77.03657066666666, "type": "electric_scooter", "fusion_lat": 0.0, "lat": 38.93160483333333, "name": "fbe1d8aa91f38a6e7fdebb07215dc343", "fusion_lon": 0.0, "bike_id": "fbe1d8aa91f38a6e7fdebb07215dc343", "is_disabled": 0, "is_reserved": 0}, {"rental_uris": {"ios": "https://dc.lft.to/lastmile_qr_scan", "android": "https://dc.lft.to/lastmile_qr_scan"}, "lon": -77.04182683333333, "type": "electric_scooter", "fusion_lat": 0.0, "lat": 38.90358466666667, "name": "e4bdd8d6d1964afc9d98e8cb12655cf0", "fusion_lon": 0.0, "bike_id": "e4bdd8d6d1964afc9d98e8cb12655cf0", "is_disabled": 0, "is_reserved": 0}, {"rental_uris": {"ios": "https://dc.lft.to/lastmile_qr_scan", "android": "https://dc.lft.to/lastmile_qr_scan"}, "lon": -77.02201366666667, "type": "electric_scooter", "fusion_lat": 0.0, "lat": 38.915408166666666, "name": "b81fbe8dbeb0079edb054f9d10d9c84d", "fusion_lon": 0.0, "bike_id": "b81fbe8dbeb0079edb054f9d10d9c84d", "is_disabled": 0, "is_reserved": 0}, {"rental_uris": {"ios": "https://dc.lft.to/lastmile_qr_scan", "android": "https://dc.lft.to/lastmile_qr_scan"}, "lon": -77.03433833333334, "type": "electric_scooter", "fusion_lat": 0.0, "lat": 38.9275185, "name": "2869f299ae8f94366e186b743bdcd1cf", "fusion_lon": 0.0, "bike_id": "2869f299ae8f94366e186b743bdcd1cf", "is_disabled": 0, "is_reserved": 0}, {"rental_uris": {"ios": "https://dc.lft.to/lastmile_qr_scan", "android": "https://dc.lft.to/lastmile_qr_scan"}, "lon": -76.99168783333333, "type": "electric_scooter", "fusion_lat": 0.0, "lat": 38.8793215, "name": "d05a36aa77bdbd506ce4e464ee2a877b", "fusion_lon": 0.0, "bike_id": "d05a36aa77bdbd506ce4e464ee2a877b", "is_disabled": 0, "is_reserved": 0}, {"rental_uris": {"ios": "https://dc.lft.to/lastmile_qr_scan", "android": "https://dc.lft.to/lastmile_qr_scan"}, "lon": -77.02498433333334, "type": "electric_scooter", "fusion_lat": 0.0, "lat": 38.942937666666666, "name": "03c9de049733d4a360f86e34f833b4f3", "fusion_lon": 0.0, "bike_id": "03c9de049733d4a360f86e34f833b4f3", "is_disabled": 0, "is_reserved": 0}, {"rental_uris": {"ios": "https://dc.lft.to/lastmile_qr_scan", "android": "https://dc.lft.to/lastmile_qr_scan"}, "lon": -77.02067266666667, "type": "electric_scooter", "fusion_lat": 0.0, "lat": 38.904186, "name": "80102f9c092eabeaca575ad7ce098142", "fusion_lon": 0.0, "bike_id": "80102f9c092eabeaca575ad7ce098142", "is_disabled": 0, "is_reserved": 0}, {"rental_uris": {"ios": "https://dc.lft.to/lastmile_qr_scan", "android": "https://dc.lft.to/lastmile_qr_scan"}, "lon": -77.04612633333333, "type": "electric_bike", "fusion_lat": 0.0, "lat": 38.99908966666667, "name": "8945f234c227204186769cac487055dd", "fusion_lon": 0.0, "bike_id": "8945f234c227204186769cac487055dd", "is_disabled": 0, "is_reserved": 0}, {"rental_uris": {"ios": "https://dc.lft.to/lastmile_qr_scan", "android": "https://dc.lft.to/lastmile_qr_scan"}, "lon": -77.00252783333333, "type": "electric_scooter", "fusion_lat": 0.0, "lat": 38.901259333333336, "name": "987985e8f5cda452bec24b5220b33a2b", "fusion_lon": 0.0, "bike_id": "987985e8f5cda452bec24b5220b33a2b", "is_disabled": 0, "is_reserved": 0}, {"rental_uris": {"ios": "https://dc.lft.to/lastmile_qr_scan", "android": "https://dc.lft.to/lastmile_qr_scan"}, "lon": -77.00210816666667, "type": "electric_scooter", "fusion_lat": 0.0, "lat": 38.904846, "name": "5479662ee297960d7db037aac3260f12", "fusion_lon": 0.0, "bike_id": "5479662ee297960d7db037aac3260f12", "is_disabled": 0, "is_reserved": 0}, {"rental_uris": {"ios": "https://dc.lft.to/lastmile_qr_scan", "android": "https://dc.lft.to/lastmile_qr_scan"}, "lon": -77.00069016666667, "type": "electric_scooter", "fusion_lat": 0.0, "lat": 38.923962333333336, "name": "3a306d2c081d9d215dfe9cf6cc7daec9", "fusion_lon": 0.0, "bike_id": "3a306d2c081d9d215dfe9cf6cc7daec9", "is_disabled": 0, "is_reserved": 0}, {"rental_uris": {"ios": "https://dc.lft.to/lastmile_qr_scan", "android": "https://dc.lft.to/lastmile_qr_scan"}, "lon": -77.02684466666666, "type": "electric_scooter", "fusion_lat": 0.0, "lat": 38.90020616666666, "name": "f7d052d5392d78bf1070b39de2ad8f12", "fusion_lon": 0.0, "bike_id": "f7d052d5392d78bf1070b39de2ad8f12", "is_disabled": 0, "is_reserved": 0}, {"rental_uris": {"ios": "https://dc.lft.to/lastmile_qr_scan", "android": "https://dc.lft.to/lastmile_qr_scan"}, "lon": -77.0647995, "type": "electric_bike", "fusion_lat": 0.0, "lat": 38.973882333333336, "name": "eb7393647aca37f11bd770a4517110e0", "fusion_lon": 0.0, "bike_id": "eb7393647aca37f11bd770a4517110e0", "is_disabled": 0, "is_reserved": 0}, {"rental_uris": {"ios": "https://dc.lft.to/lastmile_qr_scan", "android": "https://dc.lft.to/lastmile_qr_scan"}, "lon": -77.00504766666667, "type": "electric_scooter", "fusion_lat": 0.0, "lat": 38.87537116666667, "name": "160b11205f9d17f21fe321040e88dc90", "fusion_lon": 0.0, "bike_id": "160b11205f9d17f21fe321040e88dc90", "is_disabled": 0, "is_reserved": 0}, {"rental_uris": {"ios": "https://dc.lft.to/lastmile_qr_scan", "android": "https://dc.lft.to/lastmile_qr_scan"}, "lon": -77.023113, "type": "electric_scooter", "fusion_lat": 0.0, "lat": 38.92787083333333, "name": "248ff142ef4c1d16b2e328613249a974", "fusion_lon": 0.0, "bike_id": "248ff142ef4c1d16b2e328613249a974", "is_disabled": 0, "is_reserved": 0}, {"rental_uris": {"ios": "https://dc.lft.to/lastmile_qr_scan", "android": "https://dc.lft.to/lastmile_qr_scan"}, "lon": -77.041609, "type": "electric_scooter", "fusion_lat": 0.0, "lat": 38.91026133333333, "name": "1819966e1a11544ef79495bf7a01222d", "fusion_lon": 0.0, "bike_id": "1819966e1a11544ef79495bf7a01222d", "is_disabled": 0, "is_reserved": 0}, {"rental_uris": {"ios": "https://dc.lft.to/lastmile_qr_scan", "android": "https://dc.lft.to/lastmile_qr_scan"}, "lon": -77.02392916666666, "type": "electric_scooter", "fusion_lat": 0.0, "lat": 38.90707466666667, "name": "4f5f70d76abf683a4e126b4b919574bc", "fusion_lon": 0.0, "bike_id": "4f5f70d76abf683a4e126b4b919574bc", "is_disabled": 0, "is_reserved": 0}, {"rental_uris": {"ios": "https://dc.lft.to/lastmile_qr_scan", "android": "https://dc.lft.to/lastmile_qr_scan"}, "lon": -77.03039, "type": "electric_scooter", "fusion_lat": 0.0, "lat": 38.917118333333335, "name": "db11514359766821b4b7138b46b3e223", "fusion_lon": 0.0, "bike_id": "db11514359766821b4b7138b46b3e223", "is_disabled": 0, "is_reserved": 0}, {"rental_uris": {"ios": "https://dc.lft.to/lastmile_qr_scan", "android": "https://dc.lft.to/lastmile_qr_scan"}, "lon": -77.01488666666667, "type": "electric_scooter", "fusion_lat": 0.0, "lat": 38.872254, "name": "82bec249c70af6b523c79979bf96585b", "fusion_lon": 0.0, "bike_id": "82bec249c70af6b523c79979bf96585b", "is_disabled": 0, "is_reserved": 0}, {"rental_uris": {"ios": "https://dc.lft.to/lastmile_qr_scan", "android": "https://dc.lft.to/lastmile_qr_scan"}, "lon": -77.02706983333333, "type": "electric_scooter", "fusion_lat": 0.0, "lat": 38.9067595, "name": "85710dae80677a6a843e3ed15a1dc55c", "fusion_lon": 0.0, "bike_id": "85710dae80677a6a843e3ed15a1dc55c", "is_disabled": 0, "is_reserved": 0}, {"rental_uris": {"ios": "https://dc.lft.to/lastmile_qr_scan", "android": "https://dc.lft.to/lastmile_qr_scan"}, "lon": -77.02572183333334, "type": "electric_scooter", "fusion_lat": 0.0, "lat": 38.89760616666667, "name": "419d4773ff29c6f57fc1b9c712d67f51", "fusion_lon": 0.0, "bike_id": "419d4773ff29c6f57fc1b9c712d67f51", "is_disabled": 0, "is_reserved": 0}, {"rental_uris": {"ios": "https://dc.lft.to/lastmile_qr_scan", "android": "https://dc.lft.to/lastmile_qr_scan"}, "lon": -77.066014, "type": "electric_scooter", "fusion_lat": 0.0, "lat": 38.905283, "name": "a2a610f81db0abc08dc368c561a51ff7", "fusion_lon": 0.0, "bike_id": "a2a610f81db0abc08dc368c561a51ff7", "is_disabled": 0, "is_reserved": 0}, {"rental_uris": {"ios": "https://dc.lft.to/lastmile_qr_scan", "android": "https://dc.lft.to/lastmile_qr_scan"}, "lon": -77.023687, "type": "electric_scooter", "fusion_lat": 0.0, "lat": 38.892221666666664, "name": "5af96aabd2d40145479cb214e55fe9e0", "fusion_lon": 0.0, "bike_id": "5af96aabd2d40145479cb214e55fe9e0", "is_disabled": 0, "is_reserved": 0}, {"rental_uris": {"ios": "https://dc.lft.to/lastmile_qr_scan", "android": "https://dc.lft.to/lastmile_qr_scan"}, "lon": -77.0240895, "type": "electric_scooter", "fusion_lat": 0.0, "lat": 38.90583733333333, "name": "8f180e25c242ad1130abeb9a0cb61ea9", "fusion_lon": 0.0, "bike_id": "8f180e25c242ad1130abeb9a0cb61ea9", "is_disabled": 0, "is_reserved": 0}, {"rental_uris": {"ios": "https://dc.lft.to/lastmile_qr_scan", "android": "https://dc.lft.to/lastmile_qr_scan"}, "lon": -77.06673083333334, "type": "electric_scooter", "fusion_lat": 0.0, "lat": 38.914106, "name": "107c48eb58bd39c6d40f0e63a8894d05", "fusion_lon": 0.0, "bike_id": "107c48eb58bd39c6d40f0e63a8894d05", "is_disabled": 0, "is_reserved": 0}, {"rental_uris": {"ios": "https://dc.lft.to/lastmile_qr_scan", "android": "https://dc.lft.to/lastmile_qr_scan"}, "lon": -76.99878533333333, "type": "electric_scooter", "fusion_lat": 0.0, "lat": 38.907515, "name": "fd8e8c9e32f5d236d550bc0da2ec8201", "fusion_lon": 0.0, "bike_id": "fd8e8c9e32f5d236d550bc0da2ec8201", "is_disabled": 0, "is_reserved": 0}, {"rental_uris": {"ios": "https://dc.lft.to/lastmile_qr_scan", "android": "https://dc.lft.to/lastmile_qr_scan"}, "lon": -77.02840833333333, "type": "electric_scooter", "fusion_lat": 0.0, "lat": 38.942694333333336, "name": "fc1b9933ab4fafbc86fe5909d7a24439", "fusion_lon": 0.0, "bike_id": "fc1b9933ab4fafbc86fe5909d7a24439", "is_disabled": 0, "is_reserved": 0}, {"rental_uris": {"ios": "https://dc.lft.to/lastmile_qr_scan", "android": "https://dc.lft.to/lastmile_qr_scan"}, "lon": -77.35314066666666, "type": "electric_bike", "fusion_lat": 0.0, "lat": 38.950078500000004, "name": "66ca225d43d8673990d2de1f228d05d3", "fusion_lon": 0.0, "bike_id": "66ca225d43d8673990d2de1f228d05d3", "is_disabled": 0, "is_reserved": 0}, {"rental_uris": {"ios": "https://dc.lft.to/lastmile_qr_scan", "android": "https://dc.lft.to/lastmile_qr_scan"}, "lon": -76.99489583333333, "type": "electric_scooter", "fusion_lat": 0.0, "lat": 38.862457, "name": "cc1feb1f08f0795383d74a86f425ff6f", "fusion_lon": 0.0, "bike_id": "cc1feb1f08f0795383d74a86f425ff6f", "is_disabled": 0, "is_reserved": 0}, {"rental_uris": {"ios": "https://dc.lft.to/lastmile_qr_scan", "android": "https://dc.lft.to/lastmile_qr_scan"}, "lon": -77.00577383333334, "type": "electric_scooter", "fusion_lat": 0.0, "lat": 38.88601216666667, "name": "1c203a62758568f9665426000fede2bd", "fusion_lon": 0.0, "bike_id": "1c203a62758568f9665426000fede2bd", "is_disabled": 0, "is_reserved": 0}, {"rental_uris": {"ios": "https://dc.lft.to/lastmile_qr_scan", "android": "https://dc.lft.to/lastmile_qr_scan"}, "lon": -76.93174633333334, "type": "electric_scooter", "fusion_lat": 0.0, "lat": 38.898888, "name": "54cbb04fc27fdde7f9bd285bb7e08e08", "fusion_lon": 0.0, "bike_id": "54cbb04fc27fdde7f9bd285bb7e08e08", "is_disabled": 0, "is_reserved": 0}, {"rental_uris": {"ios": "https://dc.lft.to/lastmile_qr_scan", "android": "https://dc.lft.to/lastmile_qr_scan"}, "lon": -77.02974416666666, "type": "electric_scooter", "fusion_lat": 0.0, "lat": 38.9062205, "name": "d341abea07bb9d385d7b4f008155ee38", "fusion_lon": 0.0, "bike_id": "d341abea07bb9d385d7b4f008155ee38", "is_disabled": 0, "is_reserved": 0}, {"rental_uris": {"ios": "https://dc.lft.to/lastmile_qr_scan", "android": "https://dc.lft.to/lastmile_qr_scan"}, "lon": -77.03186683333334, "type": "electric_scooter", "fusion_lat": 0.0, "lat": 38.91924866666667, "name": "ea90a4526540857dcddf2f93ffb72065", "fusion_lon": 0.0, "bike_id": "ea90a4526540857dcddf2f93ffb72065", "is_disabled": 0, "is_reserved": 0}, {"rental_uris": {"ios": "https://dc.lft.to/lastmile_qr_scan", "android": "https://dc.lft.to/lastmile_qr_scan"}, "lon": -77.0475615, "type": "electric_scooter", "fusion_lat": 0.0, "lat": 38.917809, "name": "3e6a42f0237c7b5243ebfd83e3dd6bf3", "fusion_lon": 0.0, "bike_id": "3e6a42f0237c7b5243ebfd83e3dd6bf3", "is_disabled": 0, "is_reserved": 0}, {"rental_uris": {"ios": "https://dc.lft.to/lastmile_qr_scan", "android": "https://dc.lft.to/lastmile_qr_scan"}, "lon": -77.0378925, "type": "electric_scooter", "fusion_lat": 0.0, "lat": 38.92633216666667, "name": "1df079fcdc129c88e9c1f2be10d28dd8", "fusion_lon": 0.0, "bike_id": "1df079fcdc129c88e9c1f2be10d28dd8", "is_disabled": 0, "is_reserved": 0}, {"rental_uris": {"ios": "https://dc.lft.to/lastmile_qr_scan", "android": "https://dc.lft.to/lastmile_qr_scan"}, "lon": -76.87827083333333, "type": "electric_bike", "fusion_lat": 0.0, "lat": 38.99228083333333, "name": "9528cd0333d941cc80a732db4a1adea9", "fusion_lon": 0.0, "bike_id": "9528cd0333d941cc80a732db4a1adea9", "is_disabled": 0, "is_reserved": 0}, {"rental_uris": {"ios": "https://dc.lft.to/lastmile_qr_scan", "android": "https://dc.lft.to/lastmile_qr_scan"}, "lon": -77.02062016666666, "type": "electric_scooter", "fusion_lat": 0.0, "lat": 38.901523833333336, "name": "7c4cfab67b3baf0f2ba834a5b06d27f2", "fusion_lon": 0.0, "bike_id": "7c4cfab67b3baf0f2ba834a5b06d27f2", "is_disabled": 0, "is_reserved": 0}, {"rental_uris": {"ios": "https://dc.lft.to/lastmile_qr_scan", "android": "https://dc.lft.to/lastmile_qr_scan"}, "lon": -76.946349, "type": "electric_scooter", "fusion_lat": 0.0, "lat": 38.898398, "name": "14114f664144efcf15b29920717d2a48", "fusion_lon": 0.0, "bike_id": "14114f664144efcf15b29920717d2a48", "is_disabled": 0, "is_reserved": 0}, {"rental_uris": {"ios": "https://dc.lft.to/lastmile_qr_scan", "android": "https://dc.lft.to/lastmile_qr_scan"}, "lon": -76.97617883333334, "type": "electric_scooter", "fusion_lat": 0.0, "lat": 38.903854, "name": "44bd148f2c807b67b9c270cc249b453c", "fusion_lon": 0.0, "bike_id": "44bd148f2c807b67b9c270cc249b453c", "is_disabled": 0, "is_reserved": 0}, {"rental_uris": {"ios": "https://dc.lft.to/lastmile_qr_scan", "android": "https://dc.lft.to/lastmile_qr_scan"}, "lon": -77.038342, "type": "electric_scooter", "fusion_lat": 0.0, "lat": 38.9218035, "name": "7ddd15bdb0d3946a2c6a38969ea2c3ef", "fusion_lon": 0.0, "bike_id": "7ddd15bdb0d3946a2c6a38969ea2c3ef", "is_disabled": 0, "is_reserved": 0}, {"rental_uris": {"ios": "https://dc.lft.to/lastmile_qr_scan", "android": "https://dc.lft.to/lastmile_qr_scan"}, "lon": -76.957634, "type": "electric_bike", "fusion_lat": 0.0, "lat": 38.8842065, "name": "db381ce447314ed3d5973f729fb2c81e", "fusion_lon": 0.0, "bike_id": "db381ce447314ed3d5973f729fb2c81e", "is_disabled": 0, "is_reserved": 0}, {"rental_uris": {"ios": "https://dc.lft.to/lastmile_qr_scan", "android": "https://dc.lft.to/lastmile_qr_scan"}, "lon": -76.97748466666667, "type": "electric_scooter", "fusion_lat": 0.0, "lat": 38.900131333333334, "name": "83a7b6ce12de0b703140e5e8646b154f", "fusion_lon": 0.0, "bike_id": "83a7b6ce12de0b703140e5e8646b154f", "is_disabled": 0, "is_reserved": 0}, {"rental_uris": {"ios": "https://dc.lft.to/lastmile_qr_scan", "android": "https://dc.lft.to/lastmile_qr_scan"}, "lon": -77.0302135, "type": "electric_scooter", "fusion_lat": 0.0, "lat": 38.910122, "name": "44d9a97a806e266d8cd5d39397c69123", "fusion_lon": 0.0, "bike_id": "44d9a97a806e266d8cd5d39397c69123", "is_disabled": 0, "is_reserved": 0}, {"rental_uris": {"ios": "https://dc.lft.to/lastmile_qr_scan", "android": "https://dc.lft.to/lastmile_qr_scan"}, "lon": -77.045474, "type": "electric_scooter", "fusion_lat": 0.0, "lat": 38.93400333333334, "name": "03fee45a722365f1cb4331a9e53f16f3", "fusion_lon": 0.0, "bike_id": "03fee45a722365f1cb4331a9e53f16f3", "is_disabled": 0, "is_reserved": 0}, {"rental_uris": {"ios": "https://dc.lft.to/lastmile_qr_scan", "android": "https://dc.lft.to/lastmile_qr_scan"}, "lon": -76.948887, "type": "electric_scooter", "fusion_lat": 0.0, "lat": 38.895329833333335, "name": "b592c5f7702bb9d32976913028ab321d", "fusion_lon": 0.0, "bike_id": "b592c5f7702bb9d32976913028ab321d", "is_disabled": 0, "is_reserved": 0}, {"rental_uris": {"ios": "https://dc.lft.to/lastmile_qr_scan", "android": "https://dc.lft.to/lastmile_qr_scan"}, "lon": -77.09563083333333, "type": "electric_bike", "fusion_lat": 0.0, "lat": 38.9171075, "name": "8eb6a59bc12ab72b0ab38ff4eaae87bf", "fusion_lon": 0.0, "bike_id": "8eb6a59bc12ab72b0ab38ff4eaae87bf", "is_disabled": 0, "is_reserved": 0}, {"rental_uris": {"ios": "https://dc.lft.to/lastmile_qr_scan", "android": "https://dc.lft.to/lastmile_qr_scan"}, "lon": -77.032207, "type": "electric_scooter", "fusion_lat": 0.0, "lat": 38.913234, "name": "d6f3d01e7510ecea2f9857d25b41c861", "fusion_lon": 0.0, "bike_id": "d6f3d01e7510ecea2f9857d25b41c861", "is_disabled": 0, "is_reserved": 0}, {"rental_uris": {"ios": "https://dc.lft.to/lastmile_qr_scan", "android": "https://dc.lft.to/lastmile_qr_scan"}, "lon": -77.04196666666667, "type": "electric_scooter", "fusion_lat": 0.0, "lat": 38.92026766666667, "name": "b16c4402cfcb6d52406eb7748de7f028", "fusion_lon": 0.0, "bike_id": "b16c4402cfcb6d52406eb7748de7f028", "is_disabled": 0, "is_reserved": 0}, {"rental_uris": {"ios": "https://dc.lft.to/lastmile_qr_scan", "android": "https://dc.lft.to/lastmile_qr_scan"}, "lon": -76.9817585, "type": "electric_scooter", "fusion_lat": 0.0, "lat": 38.89588533333333, "name": "847bc4b21f46a1046d990986ca3895f1", "fusion_lon": 0.0, "bike_id": "847bc4b21f46a1046d990986ca3895f1", "is_disabled": 0, "is_reserved": 0}, {"rental_uris": {"ios": "https://dc.lft.to/lastmile_qr_scan", "android": "https://dc.lft.to/lastmile_qr_scan"}, "lon": -77.04657, "type": "electric_scooter", "fusion_lat": 0.0, "lat": 38.901525666666664, "name": "febd90611796924c2f73e425e3935662", "fusion_lon": 0.0, "bike_id": "febd90611796924c2f73e425e3935662", "is_disabled": 0, "is_reserved": 0}, {"rental_uris": {"ios": "https://dc.lft.to/lastmile_qr_scan", "android": "https://dc.lft.to/lastmile_qr_scan"}, "lon": -77.03146116666667, "type": "electric_scooter", "fusion_lat": 0.0, "lat": 38.9127505, "name": "e8d0f8a55c210e1802a81f52a11f211b", "fusion_lon": 0.0, "bike_id": "e8d0f8a55c210e1802a81f52a11f211b", "is_disabled": 0, "is_reserved": 0}, {"rental_uris": {"ios": "https://dc.lft.to/lastmile_qr_scan", "android": "https://dc.lft.to/lastmile_qr_scan"}, "lon": -77.02949, "type": "electric_scooter", "fusion_lat": 0.0, "lat": 38.915903166666666, "name": "a26306e2630e76d942697bdc8d6e1142", "fusion_lon": 0.0, "bike_id": "a26306e2630e76d942697bdc8d6e1142", "is_disabled": 0, "is_reserved": 0}, {"rental_uris": {"ios": "https://dc.lft.to/lastmile_qr_scan", "android": "https://dc.lft.to/lastmile_qr_scan"}, "lon": -77.01870083333333, "type": "electric_scooter", "fusion_lat": 0.0, "lat": 38.887529, "name": "2207bea3c457aa35ed2a04556f950c86", "fusion_lon": 0.0, "bike_id": "2207bea3c457aa35ed2a04556f950c86", "is_disabled": 0, "is_reserved": 0}, {"rental_uris": {"ios": "https://dc.lft.to/lastmile_qr_scan", "android": "https://dc.lft.to/lastmile_qr_scan"}, "lon": -77.04454166666666, "type": "electric_scooter", "fusion_lat": 0.0, "lat": 38.908695333333334, "name": "9176114d347d1ad2f5f5a7b524c5bb7f", "fusion_lon": 0.0, "bike_id": "9176114d347d1ad2f5f5a7b524c5bb7f", "is_disabled": 0, "is_reserved": 0}, {"rental_uris": {"ios": "https://dc.lft.to/lastmile_qr_scan", "android": "https://dc.lft.to/lastmile_qr_scan"}, "lon": -76.98260166666667, "type": "electric_scooter", "fusion_lat": 0.0, "lat": 38.908732666666666, "name": "1ff36cae980966932e8f8ae90b21018a", "fusion_lon": 0.0, "bike_id": "1ff36cae980966932e8f8ae90b21018a", "is_disabled": 0, "is_reserved": 0}, {"rental_uris": {"ios": "https://dc.lft.to/lastmile_qr_scan", "android": "https://dc.lft.to/lastmile_qr_scan"}, "lon": -76.90965783333333, "type": "electric_bike", "fusion_lat": 0.0, "lat": 38.8543115, "name": "6543a3c0278d2c93142c494dd3eb1b92", "fusion_lon": 0.0, "bike_id": "6543a3c0278d2c93142c494dd3eb1b92", "is_disabled": 0, "is_reserved": 0}, {"rental_uris": {"ios": "https://dc.lft.to/lastmile_qr_scan", "android": "https://dc.lft.to/lastmile_qr_scan"}, "lon": -77.00980916666667, "type": "electric_scooter", "fusion_lat": 0.0, "lat": 38.9192385, "name": "f5267e07129cce7ad04ccda9eec65dab", "fusion_lon": 0.0, "bike_id": "f5267e07129cce7ad04ccda9eec65dab", "is_disabled": 0, "is_reserved": 0}, {"rental_uris": {"ios": "https://dc.lft.to/lastmile_qr_scan", "android": "https://dc.lft.to/lastmile_qr_scan"}, "lon": -77.02184983333333, "type": "electric_scooter", "fusion_lat": 0.0, "lat": 38.9395525, "name": "6c16558fbb95204610a4fe3559329da8", "fusion_lon": 0.0, "bike_id": "6c16558fbb95204610a4fe3559329da8", "is_disabled": 0, "is_reserved": 0}, {"rental_uris": {"ios": "https://dc.lft.to/lastmile_qr_scan", "android": "https://dc.lft.to/lastmile_qr_scan"}, "lon": -77.0174445, "type": "electric_scooter", "fusion_lat": 0.0, "lat": 38.87731316666667, "name": "08ade42e2ec0245a3d8a6f432400afc9", "fusion_lon": 0.0, "bike_id": "08ade42e2ec0245a3d8a6f432400afc9", "is_disabled": 0, "is_reserved": 0}, {"rental_uris": {"ios": "https://dc.lft.to/lastmile_qr_scan", "android": "https://dc.lft.to/lastmile_qr_scan"}, "lon": -77.01435683333334, "type": "electric_scooter", "fusion_lat": 0.0, "lat": 38.92994183333333, "name": "b0746dec23f6aeab4502f65339decd09", "fusion_lon": 0.0, "bike_id": "b0746dec23f6aeab4502f65339decd09", "is_disabled": 0, "is_reserved": 0}, {"rental_uris": {"ios": "https://dc.lft.to/lastmile_qr_scan", "android": "https://dc.lft.to/lastmile_qr_scan"}, "lon": -77.04993316666666, "type": "electric_scooter", "fusion_lat": 0.0, "lat": 38.904296333333335, "name": "fb9dd1463ea32805071d593c0d65ec8e", "fusion_lon": 0.0, "bike_id": "fb9dd1463ea32805071d593c0d65ec8e", "is_disabled": 0, "is_reserved": 0}, {"rental_uris": {"ios": "https://dc.lft.to/lastmile_qr_scan", "android": "https://dc.lft.to/lastmile_qr_scan"}, "lon": -76.99504983333334, "type": "electric_scooter", "fusion_lat": 0.0, "lat": 38.88182533333333, "name": "27f65b1a11cbbddcee367443a5153a0a", "fusion_lon": 0.0, "bike_id": "27f65b1a11cbbddcee367443a5153a0a", "is_disabled": 0, "is_reserved": 0}, {"rental_uris": {"ios": "https://dc.lft.to/lastmile_qr_scan", "android": "https://dc.lft.to/lastmile_qr_scan"}, "lon": -76.96549016666667, "type": "electric_bike", "fusion_lat": 0.0, "lat": 38.951013833333334, "name": "de2d3db2692ce11211b1ecf3520cea30", "fusion_lon": 0.0, "bike_id": "de2d3db2692ce11211b1ecf3520cea30", "is_disabled": 0, "is_reserved": 0}, {"rental_uris": {"ios": "https://dc.lft.to/lastmile_qr_scan", "android": "https://dc.lft.to/lastmile_qr_scan"}, "lon": -77.022035, "type": "electric_scooter", "fusion_lat": 0.0, "lat": 38.897760166666664, "name": "0d054e2ae343a5e73463ee1b84ec0c7f", "fusion_lon": 0.0, "bike_id": "0d054e2ae343a5e73463ee1b84ec0c7f", "is_disabled": 0, "is_reserved": 0}, {"rental_uris": {"ios": "https://dc.lft.to/lastmile_qr_scan", "android": "https://dc.lft.to/lastmile_qr_scan"}, "lon": -77.00066416666667, "type": "electric_scooter", "fusion_lat": 0.0, "lat": 38.90058766666667, "name": "fef0a4eb023a3820e67f4c88d8607b00", "fusion_lon": 0.0, "bike_id": "fef0a4eb023a3820e67f4c88d8607b00", "is_disabled": 0, "is_reserved": 0}, {"rental_uris": {"ios": "https://dc.lft.to/lastmile_qr_scan", "android": "https://dc.lft.to/lastmile_qr_scan"}, "lon": -77.05158466666667, "type": "electric_scooter", "fusion_lat": 0.0, "lat": 38.897845, "name": "f99513234edf62e8e0503088a18e20f3", "fusion_lon": 0.0, "bike_id": "f99513234edf62e8e0503088a18e20f3", "is_disabled": 0, "is_reserved": 0}, {"rental_uris": {"ios": "https://dc.lft.to/lastmile_qr_scan", "android": "https://dc.lft.to/lastmile_qr_scan"}, "lon": -77.0238755, "type": "electric_scooter", "fusion_lat": 0.0, "lat": 38.90590016666667, "name": "5667efd24be5f5f87e2690713f13fb1f", "fusion_lon": 0.0, "bike_id": "5667efd24be5f5f87e2690713f13fb1f", "is_disabled": 0, "is_reserved": 0}, {"rental_uris": {"ios": "https://dc.lft.to/lastmile_qr_scan", "android": "https://dc.lft.to/lastmile_qr_scan"}, "lon": -77.10721666666667, "type": "electric_bike", "fusion_lat": 0.0, "lat": 38.8556265, "name": "f9e039a000af32c9fcefb2b5919b88da", "fusion_lon": 0.0, "bike_id": "f9e039a000af32c9fcefb2b5919b88da", "is_disabled": 0, "is_reserved": 0}, {"rental_uris": {"ios": "https://dc.lft.to/lastmile_qr_scan", "android": "https://dc.lft.to/lastmile_qr_scan"}, "lon": -77.03631916666667, "type": "electric_scooter", "fusion_lat": 0.0, "lat": 38.907924666666666, "name": "728722714597133815f919aa5d97f17a", "fusion_lon": 0.0, "bike_id": "728722714597133815f919aa5d97f17a", "is_disabled": 0, "is_reserved": 0}, {"rental_uris": {"ios": "https://dc.lft.to/lastmile_qr_scan", "android": "https://dc.lft.to/lastmile_qr_scan"}, "lon": -77.01510983333333, "type": "electric_scooter", "fusion_lat": 0.0, "lat": 38.90727616666667, "name": "9ebea4fc60300875cffab8a9362a91ae", "fusion_lon": 0.0, "bike_id": "9ebea4fc60300875cffab8a9362a91ae", "is_disabled": 0, "is_reserved": 0}, {"rental_uris": {"ios": "https://dc.lft.to/lastmile_qr_scan", "android": "https://dc.lft.to/lastmile_qr_scan"}, "lon": -76.99755966666666, "type": "electric_scooter", "fusion_lat": 0.0, "lat": 38.90018716666667, "name": "564fd0044e4d050cd66a374863eef8bd", "fusion_lon": 0.0, "bike_id": "564fd0044e4d050cd66a374863eef8bd", "is_disabled": 0, "is_reserved": 0}, {"rental_uris": {"ios": "https://dc.lft.to/lastmile_qr_scan", "android": "https://dc.lft.to/lastmile_qr_scan"}, "lon": -77.03281583333333, "type": "electric_scooter", "fusion_lat": 0.0, "lat": 38.938834166666666, "name": "8406d57721b597daa1d1e297d8a4e4d2", "fusion_lon": 0.0, "bike_id": "8406d57721b597daa1d1e297d8a4e4d2", "is_disabled": 0, "is_reserved": 0}, {"rental_uris": {"ios": "https://dc.lft.to/lastmile_qr_scan", "android": "https://dc.lft.to/lastmile_qr_scan"}, "lon": -77.0320285, "type": "electric_scooter", "fusion_lat": 0.0, "lat": 38.91154866666667, "name": "197fe0707d1d4a8bf99fe9433570505f", "fusion_lon": 0.0, "bike_id": "197fe0707d1d4a8bf99fe9433570505f", "is_disabled": 0, "is_reserved": 0}, {"rental_uris": {"ios": "https://dc.lft.to/lastmile_qr_scan", "android": "https://dc.lft.to/lastmile_qr_scan"}, "lon": -77.05005416666667, "type": "electric_scooter", "fusion_lat": 0.0, "lat": 38.89228766666667, "name": "6052ca2b942b420b12aac93ce2dd152e", "fusion_lon": 0.0, "bike_id": "6052ca2b942b420b12aac93ce2dd152e", "is_disabled": 0, "is_reserved": 0}, {"rental_uris": {"ios": "https://dc.lft.to/lastmile_qr_scan", "android": "https://dc.lft.to/lastmile_qr_scan"}, "lon": -76.98840733333333, "type": "electric_scooter", "fusion_lat": 0.0, "lat": 38.892950166666665, "name": "8be0286482700a62271fe2b8f04c9988", "fusion_lon": 0.0, "bike_id": "8be0286482700a62271fe2b8f04c9988", "is_disabled": 0, "is_reserved": 0}, {"rental_uris": {"ios": "https://dc.lft.to/lastmile_qr_scan", "android": "https://dc.lft.to/lastmile_qr_scan"}, "lon": -77.0335105, "type": "electric_scooter", "fusion_lat": 0.0, "lat": 38.88509033333333, "name": "5701f95f348b7218e34f8d0a2499a64e", "fusion_lon": 0.0, "bike_id": "5701f95f348b7218e34f8d0a2499a64e", "is_disabled": 0, "is_reserved": 0}, {"rental_uris": {"ios": "https://dc.lft.to/lastmile_qr_scan", "android": "https://dc.lft.to/lastmile_qr_scan"}, "lon": -77.06926866666667, "type": "electric_bike", "fusion_lat": 0.0, "lat": 38.90987366666667, "name": "456d0800e8b1800cdab58d02275fa636", "fusion_lon": 0.0, "bike_id": "456d0800e8b1800cdab58d02275fa636", "is_disabled": 0, "is_reserved": 0}, {"rental_uris": {"ios": "https://dc.lft.to/lastmile_qr_scan", "android": "https://dc.lft.to/lastmile_qr_scan"}, "lon": -77.03185483333333, "type": "electric_scooter", "fusion_lat": 0.0, "lat": 38.91561083333333, "name": "517c27d4d3fd3c22c08e59ff001c6f3e", "fusion_lon": 0.0, "bike_id": "517c27d4d3fd3c22c08e59ff001c6f3e", "is_disabled": 0, "is_reserved": 0}, {"rental_uris": {"ios": "https://dc.lft.to/lastmile_qr_scan", "android": "https://dc.lft.to/lastmile_qr_scan"}, "lon": -77.02363533333333, "type": "electric_scooter", "fusion_lat": 0.0, "lat": 38.9205335, "name": "4214de267edf13fe79aa09ca550d11ce", "fusion_lon": 0.0, "bike_id": "4214de267edf13fe79aa09ca550d11ce", "is_disabled": 0, "is_reserved": 0}, {"rental_uris": {"ios": "https://dc.lft.to/lastmile_qr_scan", "android": "https://dc.lft.to/lastmile_qr_scan"}, "lon": -77.01368466666666, "type": "electric_scooter", "fusion_lat": 0.0, "lat": 38.863727, "name": "ef3ed1f4ecbc85de95537a993210ead2", "fusion_lon": 0.0, "bike_id": "ef3ed1f4ecbc85de95537a993210ead2", "is_disabled": 0, "is_reserved": 0}, {"rental_uris": {"ios": "https://dc.lft.to/lastmile_qr_scan", "android": "https://dc.lft.to/lastmile_qr_scan"}, "lon": -77.00588033333334, "type": "electric_scooter", "fusion_lat": 0.0, "lat": 38.874265, "name": "26210759bcef5a5906bb5c0a1c04a5e8", "fusion_lon": 0.0, "bike_id": "26210759bcef5a5906bb5c0a1c04a5e8", "is_disabled": 0, "is_reserved": 0}, {"rental_uris": {"ios": "https://dc.lft.to/lastmile_qr_scan", "android": "https://dc.lft.to/lastmile_qr_scan"}, "lon": -77.14123783333334, "type": "electric_bike", "fusion_lat": 0.0, "lat": 38.8160425, "name": "ac363f57ecde460e1b10e522ab54bb0d", "fusion_lon": 0.0, "bike_id": "ac363f57ecde460e1b10e522ab54bb0d", "is_disabled": 0, "is_reserved": 0}, {"rental_uris": {"ios": "https://dc.lft.to/lastmile_qr_scan", "android": "https://dc.lft.to/lastmile_qr_scan"}, "lon": -77.0212985, "type": "electric_scooter", "fusion_lat": 0.0, "lat": 38.897277833333334, "name": "12288d58c3d184fcaa8ac077796b4e79", "fusion_lon": 0.0, "bike_id": "12288d58c3d184fcaa8ac077796b4e79", "is_disabled": 0, "is_reserved": 0}, {"rental_uris": {"ios": "https://dc.lft.to/lastmile_qr_scan", "android": "https://dc.lft.to/lastmile_qr_scan"}, "lon": -77.02770633333333, "type": "electric_scooter", "fusion_lat": 0.0, "lat": 38.891934166666665, "name": "26b19f0546e508eedc2a9b2557cb710e", "fusion_lon": 0.0, "bike_id": "26b19f0546e508eedc2a9b2557cb710e", "is_disabled": 0, "is_reserved": 0}, {"rental_uris": {"ios": "https://dc.lft.to/lastmile_qr_scan", "android": "https://dc.lft.to/lastmile_qr_scan"}, "lon": -77.05343766666667, "type": "electric_scooter", "fusion_lat": 0.0, "lat": 38.90237916666667, "name": "4b0daaefbb19a04b54595bcc4568837b", "fusion_lon": 0.0, "bike_id": "4b0daaefbb19a04b54595bcc4568837b", "is_disabled": 0, "is_reserved": 0}, {"rental_uris": {"ios": "https://dc.lft.to/lastmile_qr_scan", "android": "https://dc.lft.to/lastmile_qr_scan"}, "lon": -77.039324, "type": "electric_scooter", "fusion_lat": 0.0, "lat": 38.9175975, "name": "9ecbd2c4ddea9835f6e09f959988a5f6", "fusion_lon": 0.0, "bike_id": "9ecbd2c4ddea9835f6e09f959988a5f6", "is_disabled": 0, "is_reserved": 0}, {"rental_uris": {"ios": "https://dc.lft.to/lastmile_qr_scan", "android": "https://dc.lft.to/lastmile_qr_scan"}, "lon": -77.02371666666667, "type": "electric_scooter", "fusion_lat": 0.0, "lat": 38.898596, "name": "e7a8fdfaee9f4477e96449ecc529db03", "fusion_lon": 0.0, "bike_id": "e7a8fdfaee9f4477e96449ecc529db03", "is_disabled": 0, "is_reserved": 0}, {"rental_uris": {"ios": "https://dc.lft.to/lastmile_qr_scan", "android": "https://dc.lft.to/lastmile_qr_scan"}, "lon": -77.04171283333334, "type": "electric_scooter", "fusion_lat": 0.0, "lat": 38.905466, "name": "6fd0cf1fc1cb238a4e93ee97b0096872", "fusion_lon": 0.0, "bike_id": "6fd0cf1fc1cb238a4e93ee97b0096872", "is_disabled": 0, "is_reserved": 0}, {"rental_uris": {"ios": "https://dc.lft.to/lastmile_qr_scan", "android": "https://dc.lft.to/lastmile_qr_scan"}, "lon": -76.99585383333333, "type": "electric_scooter", "fusion_lat": 0.0, "lat": 38.92026883333333, "name": "f69343050e6ceadc63d5e89631797125", "fusion_lon": 0.0, "bike_id": "f69343050e6ceadc63d5e89631797125", "is_disabled": 0, "is_reserved": 0}, {"rental_uris": {"ios": "https://dc.lft.to/lastmile_qr_scan", "android": "https://dc.lft.to/lastmile_qr_scan"}, "lon": -77.03297816666667, "type": "electric_scooter", "fusion_lat": 0.0, "lat": 38.900086333333334, "name": "39dcdbf1cf67192de832abf9b574494d", "fusion_lon": 0.0, "bike_id": "39dcdbf1cf67192de832abf9b574494d", "is_disabled": 0, "is_reserved": 0}, {"rental_uris": {"ios": "https://dc.lft.to/lastmile_qr_scan", "android": "https://dc.lft.to/lastmile_qr_scan"}, "lon": -77.03593066666667, "type": "electric_scooter", "fusion_lat": 0.0, "lat": 38.95303916666667, "name": "7df8457184c3743244d72de5583f01aa", "fusion_lon": 0.0, "bike_id": "7df8457184c3743244d72de5583f01aa", "is_disabled": 0, "is_reserved": 0}, {"rental_uris": {"ios": "https://dc.lft.to/lastmile_qr_scan", "android": "https://dc.lft.to/lastmile_qr_scan"}, "lon": -77.03283433333333, "type": "electric_scooter", "fusion_lat": 0.0, "lat": 38.9193435, "name": "f1c5c764ed50ac1dd6dc5fc0e8943ea1", "fusion_lon": 0.0, "bike_id": "f1c5c764ed50ac1dd6dc5fc0e8943ea1", "is_disabled": 0, "is_reserved": 0}, {"rental_uris": {"ios": "https://dc.lft.to/lastmile_qr_scan", "android": "https://dc.lft.to/lastmile_qr_scan"}, "lon": -77.00269133333333, "type": "electric_bike", "fusion_lat": 0.0, "lat": 38.95210516666667, "name": "582d9d9e232309085cfe38711ef32d5e", "fusion_lon": 0.0, "bike_id": "582d9d9e232309085cfe38711ef32d5e", "is_disabled": 0, "is_reserved": 0}, {"rental_uris": {"ios": "https://dc.lft.to/lastmile_qr_scan", "android": "https://dc.lft.to/lastmile_qr_scan"}, "lon": -77.03662283333334, "type": "electric_scooter", "fusion_lat": 0.0, "lat": 38.954985, "name": "d73bc745716a9b649772275273e035e7", "fusion_lon": 0.0, "bike_id": "d73bc745716a9b649772275273e035e7", "is_disabled": 0, "is_reserved": 0}, {"rental_uris": {"ios": "https://dc.lft.to/lastmile_qr_scan", "android": "https://dc.lft.to/lastmile_qr_scan"}, "lon": -77.01870516666666, "type": "electric_scooter", "fusion_lat": 0.0, "lat": 38.948978833333335, "name": "15ab6ebedbf5d77190f5cc40e9cdc62f", "fusion_lon": 0.0, "bike_id": "15ab6ebedbf5d77190f5cc40e9cdc62f", "is_disabled": 0, "is_reserved": 0}, {"rental_uris": {"ios": "https://dc.lft.to/lastmile_qr_scan", "android": "https://dc.lft.to/lastmile_qr_scan"}, "lon": -76.99343516666667, "type": "electric_bike", "fusion_lat": 0.0, "lat": 38.96194883333333, "name": "3ba7142df98fbdbda38cfa17c8ce7993", "fusion_lon": 0.0, "bike_id": "3ba7142df98fbdbda38cfa17c8ce7993", "is_disabled": 0, "is_reserved": 0}, {"rental_uris": {"ios": "https://dc.lft.to/lastmile_qr_scan", "android": "https://dc.lft.to/lastmile_qr_scan"}, "lon": -76.96529166666667, "type": "electric_scooter", "fusion_lat": 0.0, "lat": 38.87632216666667, "name": "41c3ef6e43104cbb79263d24e577e6e7", "fusion_lon": 0.0, "bike_id": "41c3ef6e43104cbb79263d24e577e6e7", "is_disabled": 0, "is_reserved": 0}, {"rental_uris": {"ios": "https://dc.lft.to/lastmile_qr_scan", "android": "https://dc.lft.to/lastmile_qr_scan"}, "lon": -77.04610683333334, "type": "electric_scooter", "fusion_lat": 0.0, "lat": 38.90263866666667, "name": "c0742c7017735e8d6b9adbe2564c049c", "fusion_lon": 0.0, "bike_id": "c0742c7017735e8d6b9adbe2564c049c", "is_disabled": 0, "is_reserved": 0}, {"rental_uris": {"ios": "https://dc.lft.to/lastmile_qr_scan", "android": "https://dc.lft.to/lastmile_qr_scan"}, "lon": -77.0660665, "type": "electric_scooter", "fusion_lat": 0.0, "lat": 38.905466833333335, "name": "d6578d9988b8373b3b1450baaf6caeb5", "fusion_lon": 0.0, "bike_id": "d6578d9988b8373b3b1450baaf6caeb5", "is_disabled": 0, "is_reserved": 0}, {"rental_uris": {"ios": "https://dc.lft.to/lastmile_qr_scan", "android": "https://dc.lft.to/lastmile_qr_scan"}, "lon": -77.015268, "type": "electric_scooter", "fusion_lat": 0.0, "lat": 38.9161595, "name": "618206e023947250ca2ba05b92e57f2b", "fusion_lon": 0.0, "bike_id": "618206e023947250ca2ba05b92e57f2b", "is_disabled": 0, "is_reserved": 0}, {"rental_uris": {"ios": "https://dc.lft.to/lastmile_qr_scan", "android": "https://dc.lft.to/lastmile_qr_scan"}, "lon": -77.02320466666667, "type": "electric_scooter", "fusion_lat": 0.0, "lat": 38.93533133333333, "name": "0b0292f8918d89c1cd380411ba768117", "fusion_lon": 0.0, "bike_id": "0b0292f8918d89c1cd380411ba768117", "is_disabled": 0, "is_reserved": 0}, {"rental_uris": {"ios": "https://dc.lft.to/lastmile_qr_scan", "android": "https://dc.lft.to/lastmile_qr_scan"}, "lon": -77.07363716666667, "type": "electric_scooter", "fusion_lat": 0.0, "lat": 38.937423833333334, "name": "9692347373102aa2237b5509bb1f3275", "fusion_lon": 0.0, "bike_id": "9692347373102aa2237b5509bb1f3275", "is_disabled": 0, "is_reserved": 0}, {"rental_uris": {"ios": "https://dc.lft.to/lastmile_qr_scan", "android": "https://dc.lft.to/lastmile_qr_scan"}, "lon": -77.02925316666666, "type": "electric_scooter", "fusion_lat": 0.0, "lat": 38.8822475, "name": "5cb95a8f63744a2978a7f77dc8bdea07", "fusion_lon": 0.0, "bike_id": "5cb95a8f63744a2978a7f77dc8bdea07", "is_disabled": 0, "is_reserved": 0}, {"rental_uris": {"ios": "https://dc.lft.to/lastmile_qr_scan", "android": "https://dc.lft.to/lastmile_qr_scan"}, "lon": -77.055787, "type": "electric_scooter", "fusion_lat": 0.0, "lat": 38.899667666666666, "name": "56f619ef948cce1f565ad5c2f7b6603a", "fusion_lon": 0.0, "bike_id": "56f619ef948cce1f565ad5c2f7b6603a", "is_disabled": 0, "is_reserved": 0}, {"rental_uris": {"ios": "https://dc.lft.to/lastmile_qr_scan", "android": "https://dc.lft.to/lastmile_qr_scan"}, "lon": -77.0010635, "type": "electric_scooter", "fusion_lat": 0.0, "lat": 38.894347333333336, "name": "b27928a31b746f65076d0636e9a9b102", "fusion_lon": 0.0, "bike_id": "b27928a31b746f65076d0636e9a9b102", "is_disabled": 0, "is_reserved": 0}, {"rental_uris": {"ios": "https://dc.lft.to/lastmile_qr_scan", "android": "https://dc.lft.to/lastmile_qr_scan"}, "lon": -77.0081565, "type": "electric_scooter", "fusion_lat": 0.0, "lat": 38.9058245, "name": "372770c156a025a3f06f02e5390b04e0", "fusion_lon": 0.0, "bike_id": "372770c156a025a3f06f02e5390b04e0", "is_disabled": 0, "is_reserved": 0}, {"rental_uris": {"ios": "https://dc.lft.to/lastmile_qr_scan", "android": "https://dc.lft.to/lastmile_qr_scan"}, "lon": -77.04304816666667, "type": "electric_scooter", "fusion_lat": 0.0, "lat": 38.90887683333333, "name": "45e9d230e6f0f50962c3a96ff69925ac", "fusion_lon": 0.0, "bike_id": "45e9d230e6f0f50962c3a96ff69925ac", "is_disabled": 0, "is_reserved": 0}, {"rental_uris": {"ios": "https://dc.lft.to/lastmile_qr_scan", "android": "https://dc.lft.to/lastmile_qr_scan"}, "lon": -77.04498966666667, "type": "electric_scooter", "fusion_lat": 0.0, "lat": 38.91115116666667, "name": "e6bf3c92ea679b80b5b9f8c43831764d", "fusion_lon": 0.0, "bike_id": "e6bf3c92ea679b80b5b9f8c43831764d", "is_disabled": 0, "is_reserved": 0}, {"rental_uris": {"ios": "https://dc.lft.to/lastmile_qr_scan", "android": "https://dc.lft.to/lastmile_qr_scan"}, "lon": -77.00585233333334, "type": "electric_scooter", "fusion_lat": 0.0, "lat": 38.90548116666667, "name": "bc502c92f96d7252db5fb8e2ddccca49", "fusion_lon": 0.0, "bike_id": "bc502c92f96d7252db5fb8e2ddccca49", "is_disabled": 0, "is_reserved": 0}, {"rental_uris": {"ios": "https://dc.lft.to/lastmile_qr_scan", "android": "https://dc.lft.to/lastmile_qr_scan"}, "lon": -77.02290583333334, "type": "electric_scooter", "fusion_lat": 0.0, "lat": 38.901462, "name": "aacc4e311297a67832e89eec1e7ec116", "fusion_lon": 0.0, "bike_id": "aacc4e311297a67832e89eec1e7ec116", "is_disabled": 0, "is_reserved": 0}, {"rental_uris": {"ios": "https://dc.lft.to/lastmile_qr_scan", "android": "https://dc.lft.to/lastmile_qr_scan"}, "lon": -77.03948666666666, "type": "electric_scooter", "fusion_lat": 0.0, "lat": 38.9043885, "name": "b67b1ee24c26299d8335542d72510911", "fusion_lon": 0.0, "bike_id": "b67b1ee24c26299d8335542d72510911", "is_disabled": 0, "is_reserved": 0}, {"rental_uris": {"ios": "https://dc.lft.to/lastmile_qr_scan", "android": "https://dc.lft.to/lastmile_qr_scan"}, "lon": -77.02370183333333, "type": "electric_scooter", "fusion_lat": 0.0, "lat": 38.92065216666667, "name": "45bf4cc8be8fed3537498702a56427f1", "fusion_lon": 0.0, "bike_id": "45bf4cc8be8fed3537498702a56427f1", "is_disabled": 0, "is_reserved": 0}, {"rental_uris": {"ios": "https://dc.lft.to/lastmile_qr_scan", "android": "https://dc.lft.to/lastmile_qr_scan"}, "lon": -77.050209, "type": "electric_scooter", "fusion_lat": 0.0, "lat": 38.92361866666667, "name": "4ada75d2f7931b7c2bf9025140238e4e", "fusion_lon": 0.0, "bike_id": "4ada75d2f7931b7c2bf9025140238e4e", "is_disabled": 0, "is_reserved": 0}, {"rental_uris": {"ios": "https://dc.lft.to/lastmile_qr_scan", "android": "https://dc.lft.to/lastmile_qr_scan"}, "lon": -77.09883, "type": "electric_bike", "fusion_lat": 0.0, "lat": 38.947891166666665, "name": "596fb49334b8030bac5c7cb5854b6089", "fusion_lon": 0.0, "bike_id": "596fb49334b8030bac5c7cb5854b6089", "is_disabled": 0, "is_reserved": 0}, {"rental_uris": {"ios": "https://dc.lft.to/lastmile_qr_scan", "android": "https://dc.lft.to/lastmile_qr_scan"}, "lon": -76.93176816666667, "type": "electric_scooter", "fusion_lat": 0.0, "lat": 38.8988775, "name": "b4ee990d560cd0682056d019548c7f9b", "fusion_lon": 0.0, "bike_id": "b4ee990d560cd0682056d019548c7f9b", "is_disabled": 0, "is_reserved": 0}, {"rental_uris": {"ios": "https://dc.lft.to/lastmile_qr_scan", "android": "https://dc.lft.to/lastmile_qr_scan"}, "lon": -77.00250283333334, "type": "electric_scooter", "fusion_lat": 0.0, "lat": 38.91196583333333, "name": "1c2555988b502b5e5a48d9facba2e08f", "fusion_lon": 0.0, "bike_id": "1c2555988b502b5e5a48d9facba2e08f", "is_disabled": 0, "is_reserved": 0}, {"rental_uris": {"ios": "https://dc.lft.to/lastmile_qr_scan", "android": "https://dc.lft.to/lastmile_qr_scan"}, "lon": -77.04679633333333, "type": "electric_scooter", "fusion_lat": 0.0, "lat": 38.909829, "name": "c3c4c42fe701f2f68b7442a0d64da043", "fusion_lon": 0.0, "bike_id": "c3c4c42fe701f2f68b7442a0d64da043", "is_disabled": 0, "is_reserved": 0}, {"rental_uris": {"ios": "https://dc.lft.to/lastmile_qr_scan", "android": "https://dc.lft.to/lastmile_qr_scan"}, "lon": -77.01995883333333, "type": "electric_scooter", "fusion_lat": 0.0, "lat": 38.914223, "name": "4b7a4c1de0758f3d994f4978a2c4d06f", "fusion_lon": 0.0, "bike_id": "4b7a4c1de0758f3d994f4978a2c4d06f", "is_disabled": 0, "is_reserved": 0}, {"rental_uris": {"ios": "https://dc.lft.to/lastmile_qr_scan", "android": "https://dc.lft.to/lastmile_qr_scan"},