{"data": {"bikes": [{"is_reserved": 0, "fusion_lon": 0.0, "fusion_lat": 0.0, "name": "670b201e1f810f8cc52e52879f611a4e", "type": "electric_scooter", "is_disabled": 0, "lat": 38.92403233333334, "rental_uris": {"android": "https://dc.lft.to/lastmile_qr_scan", "ios": "https://dc.lft.to/lastmile_qr_scan"}, "bike_id": "670b201e1f810f8cc52e52879f611a4e", "lon": -77.020867}, {"is_reserved": 0, "fusion_lon": 0.0, "fusion_lat": 0.0, "name": "e4bab42554f931ec834c18b1de387020", "type": "electric_scooter", "is_disabled": 0, "lat": 38.909557666666664, "rental_uris": {"android": "https://dc.lft.to/lastmile_qr_scan", "ios": "https://dc.lft.to/lastmile_qr_scan"}, "bike_id": "e4bab42554f931ec834c18b1de387020", "lon": -77.0386325}, {"is_reserved": 0, "fusion_lon": 0.0, "fusion_lat": 0.0, "name": "ee80f10efcf6215f88e3e8ce7bc91489", "type": "electric_scooter", "is_disabled": 0, "lat": 38.905545000000004, "rental_uris": {"android": "https://dc.lft.to/lastmile_qr_scan", "ios": "https://dc.lft.to/lastmile_qr_scan"}, "bike_id": "ee80f10efcf6215f88e3e8ce7bc91489", "lon": -77.04495716666666}, {"is_reserved": 0, "fusion_lon": 0.0, "fusion_lat": 0.0, "name": "00d6565d4be2429e6419bfee43405d92", "type": "electric_scooter", "is_disabled": 0, "lat": 38.899799, "rental_uris": {"android": "https://dc.lft.to/lastmile_qr_scan", "ios": "https://dc.lft.to/lastmile_qr_scan"}, "bike_id": "00d6565d4be2429e6419bfee43405d92", "lon": -77.02690383333334}, {"is_reserved": 0, "fusion_lon": 0.0, "fusion_lat": 0.0, "name": "6587b5c1cfd468fe7a33f6e717eba5b8", "type": "electric_scooter", "is_disabled": 0, "lat": 38.897153333333335, "rental_uris": {"android": "https://dc.lft.to/lastmile_qr_scan", "ios": "https://dc.lft.to/lastmile_qr_scan"}, "bike_id": "6587b5c1cfd468fe7a33f6e717eba5b8", "lon": -77.02120616666667}, {"is_reserved": 0, "fusion_lon": 0.0, "fusion_lat": 0.0, "name": "6d7596e2eb2cd2e7451aceb4afd3d2b8", "type": "electric_scooter", "is_disabled": 0, "lat": 38.895712833333334, "rental_uris": {"android": "https://dc.lft.to/lastmile_qr_scan", "ios": "https://dc.lft.to/lastmile_qr_scan"}, "bike_id": "6d7596e2eb2cd2e7451aceb4afd3d2b8", "lon": -77.04674716666666}, {"is_reserved": 0, "fusion_lon": 0.0, "fusion_lat": 0.0, "name": "53236c9a77608906b1f64260f4f6494d", "type": "electric_scooter", "is_disabled": 0, "lat": 38.880867, "rental_uris": {"android": "https://dc.lft.to/lastmile_qr_scan", "ios": "https://dc.lft.to/lastmile_qr_scan"}, "bike_id": "53236c9a77608906b1f64260f4f6494d", "lon": -76.98507166666667}, {"is_reserved": 0, "fusion_lon": 0.0, "fusion_lat": 0.0, "name": "ecfca75eb13c7f9c2ba479284357b6de", "type": "electric_scooter", "is_disabled": 0, "lat": 38.926444000000004, "rental_uris": {"android": "https://dc.lft.to/lastmile_qr_scan", "ios": "https://dc.lft.to/lastmile_qr_scan"}, "bike_id": "ecfca75eb13c7f9c2ba479284357b6de", "lon": -77.04129}, {"is_reserved": 0, "fusion_lon": 0.0, "fusion_lat": 0.0, "name": "124dde26fd6447f8a81de1b91630df4c", "type": "electric_bike", "is_disabled": 0, "lat": 38.819121, "rental_uris": {"android": "https://dc.lft.to/lastmile_qr_scan", "ios": "https://dc.lft.to/lastmile_qr_scan"}, "bike_id": "124dde26fd6447f8a81de1b91630df4c", "lon": -76.99908733333334}, {"is_reserved": 0, "fusion_lon": 0.0, "fusion_lat": 0.0, "name": "02391c2ca84e55ff4a32326d74fc13c1", "type": "electric_scooter", "is_disabled": 0, "lat": 38.9139285, "rental_uris": {"android": "https://dc.lft.to/lastmile_qr_scan", "ios": "https://dc.lft.to/lastmile_qr_scan"}, "bike_id": "02391c2ca84e55ff4a32326d74fc13c1", "lon": -77.04604416666666}, {"is_reserved": 0, "fusion_lon": 0.0, "fusion_lat": 0.0, "name": "f52c1f00af58d3593b8ce44277346cdc", "type": "electric_scooter", "is_disabled": 0, "lat": 38.8923175, "rental_uris": {"android": "https://dc.lft.to/lastmile_qr_scan", "ios": "https://dc.lft.to/lastmile_qr_scan"}, "bike_id": "f52c1f00af58d3593b8ce44277346cdc", "lon": -77.03212033333334}, {"is_reserved": 0, "fusion_lon": 0.0, "fusion_lat": 0.0, "name": "7755085be85fa6c203bae31b8ac6f398", "type": "electric_scooter", "is_disabled": 0, "lat": 38.921343666666665, "rental_uris": {"android": "https://dc.lft.to/lastmile_qr_scan", "ios": "https://dc.lft.to/lastmile_qr_scan"}, "bike_id": "7755085be85fa6c203bae31b8ac6f398", "lon": -77.00401533333333}, {"is_reserved": 0, "fusion_lon": 0.0, "fusion_lat": 0.0, "name": "4418aa33486d55dcfae0d963bea27d2b", "type": "electric_scooter", "is_disabled": 0, "lat": 38.90047583333333, "rental_uris": {"android": "https://dc.lft.to/lastmile_qr_scan", "ios": "https://dc.lft.to/lastmile_qr_scan"}, "bike_id": "4418aa33486d55dcfae0d963bea27d2b", "lon": -77.043328}, {"is_reserved": 0, "fusion_lon": 0.0, "fusion_lat": 0.0, "name": "3bc814a6d0d322b20bbaf7aa407d38a7", "type": "electric_scooter", "is_disabled": 0, "lat": 38.97379766666667, "rental_uris": {"android": "https://dc.lft.to/lastmile_qr_scan", "ios": "https://dc.lft.to/lastmile_qr_scan"}, "bike_id": "3bc814a6d0d322b20bbaf7aa407d38a7", "lon": -77.018131}, {"is_reserved": 0, "fusion_lon": 0.0, "fusion_lat": 0.0, "name": "3ad399345a980613b65f80d20fd9451e", "type": "electric_scooter", "is_disabled": 0, "lat": 38.903089, "rental_uris": {"android": "https://dc.lft.to/lastmile_qr_scan", "ios": "https://dc.lft.to/lastmile_qr_scan"}, "bike_id": "3ad399345a980613b65f80d20fd9451e", "lon": -77.0385765}, {"is_reserved": 0, "fusion_lon": 0.0, "fusion_lat": 0.0, "name": "6439e0feae569f0a2b2e77d7dabfdb30", "type": "electric_scooter", "is_disabled": 0, "lat": 38.87009916666667, "rental_uris": {"android": "https://dc.lft.to/lastmile_qr_scan", "ios": "https://dc.lft.to/lastmile_qr_scan"}, "bike_id": "6439e0feae569f0a2b2e77d7dabfdb30", "lon": -76.98082383333333}, {"is_reserved": 0, "fusion_lon": 0.0, "fusion_lat": 0.0, "name": "1f9fae4f4a72cb43eb869bf0587289e9", "type": "electric_scooter", "is_disabled": 0, "lat": 38.9141505, "rental_uris": {"android": "https://dc.lft.to/lastmile_qr_scan", "ios": "https://dc.lft.to/lastmile_qr_scan"}, "bike_id": "1f9fae4f4a72cb43eb869bf0587289e9", "lon": -77.03148533333334}, {"is_reserved": 0, "fusion_lon": 0.0, "fusion_lat": 0.0, "name": "118d6557f2b77a872f2c22cb47753797", "type": "electric_scooter", "is_disabled": 0, "lat": 38.87726516666667, "rental_uris": {"android": "https://dc.lft.to/lastmile_qr_scan", "ios": "https://dc.lft.to/lastmile_qr_scan"}, "bike_id": "118d6557f2b77a872f2c22cb47753797", "lon": -77.00590333333334}, {"is_reserved": 0, "fusion_lon": 0.0, "fusion_lat": 0.0, "name": "aa095183cd9e861370c7825feed75cd0", "type": "electric_scooter", "is_disabled": 0, "lat": 38.9260975, "rental_uris": {"android": "https://dc.lft.to/lastmile_qr_scan", "ios": "https://dc.lft.to/lastmile_qr_scan"}, "bike_id": "aa095183cd9e861370c7825feed75cd0", "lon": -77.02156183333334}, {"is_reserved": 0, "fusion_lon": 0.0, "fusion_lat": 0.0, "name": "14af3548b8b7ae8abcb185d8fe9746a3", "type": "electric_scooter", "is_disabled": 0, "lat": 38.880649, "rental_uris": {"android": "https://dc.lft.to/lastmile_qr_scan", "ios": "https://dc.lft.to/lastmile_qr_scan"}, "bike_id": "14af3548b8b7ae8abcb185d8fe9746a3", "lon": -77.00583283333333}, {"is_reserved": 0, "fusion_lon": 0.0, "fusion_lat": 0.0, "name": "fd583f0312ab681dda5295edb9e40731", "type": "electric_scooter", "is_disabled": 0, "lat": 38.90578516666667, "rental_uris": {"android": "https://dc.lft.to/lastmile_qr_scan", "ios": "https://dc.lft.to/lastmile_qr_scan"}, "bike_id": "fd583f0312ab681dda5295edb9e40731", "lon": -77.008882}, {"is_reserved": 0, "fusion_lon": 0.0, "fusion_lat": 0.0, "name": "dfb0595e1d95020f0237dc0d2bbc36c0", "type": "electric_bike", "is_disabled": 0, "lat": 38.8824335, "rental_uris": {"android": "https://dc.lft.to/lastmile_qr_scan", "ios": "https://dc.lft.to/lastmile_qr_scan"}, "bike_id": "dfb0595e1d95020f0237dc0d2bbc36c0", "lon": -76.96252016666666}, {"is_reserved": 0, "fusion_lon": 0.0, "fusion_lat": 0.0, "name": "b97a68af1c6ef0078405b8b7ea86376f", "type": "electric_scooter", "is_disabled": 0, "lat": 38.91912333333333, "rental_uris": {"android": "https://dc.lft.to/lastmile_qr_scan", "ios": "https://dc.lft.to/lastmile_qr_scan"}, "bike_id": "b97a68af1c6ef0078405b8b7ea86376f", "lon": -77.02400266666666}, {"is_reserved": 0, "fusion_lon": 0.0, "fusion_lat": 0.0, "name": "1899544f72798598e705f7945e55de1c", "type": "electric_scooter", "is_disabled": 0, "lat": 38.90852533333333, "rental_uris": {"android": "https://dc.lft.to/lastmile_qr_scan", "ios": "https://dc.lft.to/lastmile_qr_scan"}, "bike_id": "1899544f72798598e705f7945e55de1c", "lon": -77.0405125}, {"is_reserved": 0, "fusion_lon": 0.0, "fusion_lat": 0.0, "name": "ac401b02ef92a0441925ef946c5202f2", "type": "electric_bike", "is_disabled": 0, "lat": 38.90226333333333, "rental_uris": {"android": "https://dc.lft.to/lastmile_qr_scan", "ios": "https://dc.lft.to/lastmile_qr_scan"}, "bike_id": "ac401b02ef92a0441925ef946c5202f2", "lon": -77.04500583333333}, {"is_reserved": 0, "fusion_lon": 0.0, "fusion_lat": 0.0, "name": "ca0b7e2106bb91aab2d817ba8ecc4625", "type": "electric_scooter", "is_disabled": 0, "lat": 38.903521166666664, "rental_uris": {"android": "https://dc.lft.to/lastmile_qr_scan", "ios": "https://dc.lft.to/lastmile_qr_scan"}, "bike_id": "ca0b7e2106bb91aab2d817ba8ecc4625", "lon": -77.041766}, {"is_reserved": 0, "fusion_lon": 0.0, "fusion_lat": 0.0, "name": "dbc8cbda5150663ad24549de32910f48", "type": "electric_scooter", "is_disabled": 0, "lat": 38.900528333333334, "rental_uris": {"android": "https://dc.lft.to/lastmile_qr_scan", "ios": "https://dc.lft.to/lastmile_qr_scan"}, "bike_id": "dbc8cbda5150663ad24549de32910f48", "lon": -77.04822666666666}, {"is_reserved": 0, "fusion_lon": 0.0, "fusion_lat": 0.0, "name": "4cc59fac534b02aa6a6269c267b23777", "type": "electric_scooter", "is_disabled": 0, "lat": 38.9052305, "rental_uris": {"android": "https://dc.lft.to/lastmile_qr_scan", "ios": "https://dc.lft.to/lastmile_qr_scan"}, "bike_id": "4cc59fac534b02aa6a6269c267b23777", "lon": -77.06380166666666}, {"is_reserved": 0, "fusion_lon": 0.0, "fusion_lat": 0.0, "name": "b64a6ba259454eaf0ca40a8fb91b56bb", "type": "electric_scooter", "is_disabled": 0, "lat": 38.96111333333333, "rental_uris": {"android": "https://dc.lft.to/lastmile_qr_scan", "ios": "https://dc.lft.to/lastmile_qr_scan"}, "bike_id": "b64a6ba259454eaf0ca40a8fb91b56bb", "lon": -77.00945166666666}, {"is_reserved": 0, "fusion_lon": 0.0, "fusion_lat": 0.0, "name": "c149198bf53dadd0c4ce600d5581f74c", "type": "electric_scooter", "is_disabled": 0, "lat": 38.903684, "rental_uris": {"android": "https://dc.lft.to/lastmile_qr_scan", "ios": "https://dc.lft.to/lastmile_qr_scan"}, "bike_id": "c149198bf53dadd0c4ce600d5581f74c", "lon": -77.04019666666667}, {"is_reserved": 0, "fusion_lon": 0.0, "fusion_lat": 0.0, "name": "b5daddc14927742508dcc79399e7af94", "type": "electric_scooter", "is_disabled": 0, "lat": 38.910603333333334, "rental_uris": {"android": "https://dc.lft.to/lastmile_qr_scan", "ios": "https://dc.lft.to/lastmile_qr_scan"}, "bike_id": "b5daddc14927742508dcc79399e7af94", "lon": -77.021951}, {"is_reserved": 0, "fusion_lon": 0.0, "fusion_lat": 0.0, "name": "6022617f782389d05568a3bf0be05c70", "type": "electric_scooter", "is_disabled": 0, "lat": 38.90102566666667, "rental_uris": {"android": "https://dc.lft.to/lastmile_qr_scan", "ios": "https://dc.lft.to/lastmile_qr_scan"}, "bike_id": "6022617f782389d05568a3bf0be05c70", "lon": -77.05077333333334}, {"is_reserved": 0, "fusion_lon": 0.0, "fusion_lat": 0.0, "name": "72948755c1b770cbb97c648ac831da4e", "type": "electric_scooter", "is_disabled": 0, "lat": 38.91692783333333, "rental_uris": {"android": "https://dc.lft.to/lastmile_qr_scan", "ios": "https://dc.lft.to/lastmile_qr_scan"}, "bike_id": "72948755c1b770cbb97c648ac831da4e", "lon": -77.025984}, {"is_reserved": 0, "fusion_lon": 0.0, "fusion_lat": 0.0, "name": "ed7899e007d322309066359cdd2aab49", "type": "electric_scooter", "is_disabled": 0, "lat": 38.906931166666666, "rental_uris": {"android": "https://dc.lft.to/lastmile_qr_scan", "ios": "https://dc.lft.to/lastmile_qr_scan"}, "bike_id": "ed7899e007d322309066359cdd2aab49", "lon": -77.04345783333333}, {"is_reserved": 0, "fusion_lon": 0.0, "fusion_lat": 0.0, "name": "22ac754b095821efdac4fca62e299d45", "type": "electric_scooter", "is_disabled": 0, "lat": 38.923246666666664, "rental_uris": {"android": "https://dc.lft.to/lastmile_qr_scan", "ios": "https://dc.lft.to/lastmile_qr_scan"}, "bike_id": "22ac754b095821efdac4fca62e299d45", "lon": -76.999013}, {"is_reserved": 0, "fusion_lon": 0.0, "fusion_lat": 0.0, "name": "8600c417cf2402743605580454e8e579", "type": "electric_scooter", "is_disabled": 0, "lat": 38.9080785, "rental_uris": {"android": "https://dc.lft.to/lastmile_qr_scan", "ios": "https://dc.lft.to/lastmile_qr_scan"}, "bike_id": "8600c417cf2402743605580454e8e579", "lon": -77.0394125}, {"is_reserved": 0, "fusion_lon": 0.0, "fusion_lat": 0.0, "name": "4bbd57d63714dc6e7f59bac48ec4d22b", "type": "electric_scooter", "is_disabled": 0, "lat": 38.919158333333336, "rental_uris": {"android": "https://dc.lft.to/lastmile_qr_scan", "ios": "https://dc.lft.to/lastmile_qr_scan"}, "bike_id": "4bbd57d63714dc6e7f59bac48ec4d22b", "lon": -77.04805316666666}, {"is_reserved": 0, "fusion_lon": 0.0, "fusion_lat": 0.0, "name": "6f117ef060389738b6e77a53b77a2e3f", "type": "electric_scooter", "is_disabled": 0, "lat": 38.88029016666667, "rental_uris": {"android": "https://dc.lft.to/lastmile_qr_scan", "ios": "https://dc.lft.to/lastmile_qr_scan"}, "bike_id": "6f117ef060389738b6e77a53b77a2e3f", "lon": -76.984848}, {"is_reserved": 0, "fusion_lon": 0.0, "fusion_lat": 0.0, "name": "8b4d088138fad9dd53764663e543c58f", "type": "electric_scooter", "is_disabled": 0, "lat": 38.86659216666666, "rental_uris": {"android": "https://dc.lft.to/lastmile_qr_scan", "ios": "https://dc.lft.to/lastmile_qr_scan"}, "bike_id": "8b4d088138fad9dd53764663e543c58f", "lon": -76.98882183333333}, {"is_reserved": 0, "fusion_lon": 0.0, "fusion_lat": 0.0, "name": "04366c768d414fa899497b941c9d618f", "type": "electric_scooter", "is_disabled": 0, "lat": 38.9047495, "rental_uris": {"android": "https://dc.lft.to/lastmile_qr_scan", "ios": "https://dc.lft.to/lastmile_qr_scan"}, "bike_id": "04366c768d414fa899497b941c9d618f", "lon": -77.03803}, {"is_reserved": 0, "fusion_lon": 0.0, "fusion_lat": 0.0, "name": "5ddf84447a25d71bf2807ef8167f37cf", "type": "electric_scooter", "is_disabled": 0, "lat": 38.90058783333333, "rental_uris": {"android": "https://dc.lft.to/lastmile_qr_scan", "ios": "https://dc.lft.to/lastmile_qr_scan"}, "bike_id": "5ddf84447a25d71bf2807ef8167f37cf", "lon": -77.01525783333334}, {"is_reserved": 0, "fusion_lon": 0.0, "fusion_lat": 0.0, "name": "4a3c7b3b33b69dd1b982386ab3c0e616", "type": "electric_scooter", "is_disabled": 0, "lat": 38.9181845, "rental_uris": {"android": "https://dc.lft.to/lastmile_qr_scan", "ios": "https://dc.lft.to/lastmile_qr_scan"}, "bike_id": "4a3c7b3b33b69dd1b982386ab3c0e616", "lon": -77.03693266666667}, {"is_reserved": 0, "fusion_lon": 0.0, "fusion_lat": 0.0, "name": "52967f4c353464557f9d3b4167e71f50", "type": "electric_scooter", "is_disabled": 0, "lat": 38.90237, "rental_uris": {"android": "https://dc.lft.to/lastmile_qr_scan", "ios": "https://dc.lft.to/lastmile_qr_scan"}, "bike_id": "52967f4c353464557f9d3b4167e71f50", "lon": -77.02694566666666}, {"is_reserved": 0, "fusion_lon": 0.0, "fusion_lat": 0.0, "name": "bc6a15fce815cfc8ea82c89719f352aa", "type": "electric_scooter", "is_disabled": 0, "lat": 38.871353666666664, "rental_uris": {"android": "https://dc.lft.to/lastmile_qr_scan", "ios": "https://dc.lft.to/lastmile_qr_scan"}, "bike_id": "bc6a15fce815cfc8ea82c89719f352aa", "lon": -77.0070065}, {"is_reserved": 0, "fusion_lon": 0.0, "fusion_lat": 0.0, "name": "ba99c6a87b5b0d868d56ed1cc5d0ae95", "type": "electric_bike", "is_disabled": 0, "lat": 38.956497166666665, "rental_uris": {"android": "https://dc.lft.to/lastmile_qr_scan", "ios": "https://dc.lft.to/lastmile_qr_scan"}, "bike_id": "ba99c6a87b5b0d868d56ed1cc5d0ae95", "lon": -77.012777}, {"is_reserved": 0, "fusion_lon": 0.0, "fusion_lat": 0.0, "name": "722567f234f3e1b911fc1517f78adaf1", "type": "electric_scooter", "is_disabled": 0, "lat": 38.896045666666666, "rental_uris": {"android": "https://dc.lft.to/lastmile_qr_scan", "ios": "https://dc.lft.to/lastmile_qr_scan"}, "bike_id": "722567f234f3e1b911fc1517f78adaf1", "lon": -77.03170566666667}, {"is_reserved": 0, "fusion_lon": 0.0, "fusion_lat": 0.0, "name": "8f267420248cfd2d6f46f2dd76679b15", "type": "electric_scooter", "is_disabled": 0, "lat": 38.9173755, "rental_uris": {"android": "https://dc.lft.to/lastmile_qr_scan", "ios": "https://dc.lft.to/lastmile_qr_scan"}, "bike_id": "8f267420248cfd2d6f46f2dd76679b15", "lon": -77.02117516666667}, {"is_reserved": 0, "fusion_lon": 0.0, "fusion_lat": 0.0, "name": "a16fe54eb93666a85ab69f28c69809e3", "type": "electric_scooter", "is_disabled": 0, "lat": 38.90677633333333, "rental_uris": {"android": "https://dc.lft.to/lastmile_qr_scan", "ios": "https://dc.lft.to/lastmile_qr_scan"}, "bike_id": "a16fe54eb93666a85ab69f28c69809e3", "lon": -77.0383615}, {"is_reserved": 0, "fusion_lon": 0.0, "fusion_lat": 0.0, "name": "3fb0bdb7d869469104e3bed0b75a023e", "type": "electric_bike", "is_disabled": 0, "lat": 38.98819483333333, "rental_uris": {"android": "https://dc.lft.to/lastmile_qr_scan", "ios": "https://dc.lft.to/lastmile_qr_scan"}, "bike_id": "3fb0bdb7d869469104e3bed0b75a023e", "lon": -77.02661033333334}, {"is_reserved": 0, "fusion_lon": 0.0, "fusion_lat": 0.0, "name": "37bc9514532132371f1d609995d4a091", "type": "electric_scooter", "is_disabled": 0, "lat": 38.932756166666664, "rental_uris": {"android": "https://dc.lft.to/lastmile_qr_scan", "ios": "https://dc.lft.to/lastmile_qr_scan"}, "bike_id": "37bc9514532132371f1d609995d4a091", "lon": -77.0284305}, {"is_reserved": 0, "fusion_lon": 0.0, "fusion_lat": 0.0, "name": "6cc959c12cd4adbbbf5a73ecdb194e64", "type": "electric_scooter", "is_disabled": 0, "lat": 38.904728666666664, "rental_uris": {"android": "https://dc.lft.to/lastmile_qr_scan", "ios": "https://dc.lft.to/lastmile_qr_scan"}, "bike_id": "6cc959c12cd4adbbbf5a73ecdb194e64", "lon": -77.03799166666667}, {"is_reserved": 0, "fusion_lon": 0.0, "fusion_lat": 0.0, "name": "e15b7a6002b1e67e69aa9a3f38b4cf0c", "type": "electric_scooter", "is_disabled": 0, "lat": 38.908251666666665, "rental_uris": {"android": "https://dc.lft.to/lastmile_qr_scan", "ios": "https://dc.lft.to/lastmile_qr_scan"}, "bike_id": "e15b7a6002b1e67e69aa9a3f38b4cf0c", "lon": -77.03552416666666}, {"is_reserved": 0, "fusion_lon": 0.0, "fusion_lat": 0.0, "name": "89c16896fe04ae1c274ec79d73a184ca", "type": "electric_bike", "is_disabled": 0, "lat": 39.04236866666667, "rental_uris": {"android": "https://dc.lft.to/lastmile_qr_scan", "ios": "https://dc.lft.to/lastmile_qr_scan"}, "bike_id": "89c16896fe04ae1c274ec79d73a184ca", "lon": -77.03081833333333}, {"is_reserved": 0, "fusion_lon": 0.0, "fusion_lat": 0.0, "name": "6f401cc040476c9e2c5279d6d7447509", "type": "electric_scooter", "is_disabled": 0, "lat": 38.91439616666667, "rental_uris": {"android": "https://dc.lft.to/lastmile_qr_scan", "ios": "https://dc.lft.to/lastmile_qr_scan"}, "bike_id": "6f401cc040476c9e2c5279d6d7447509", "lon": -77.020422}, {"is_reserved": 0, "fusion_lon": 0.0, "fusion_lat": 0.0, "name": "30ea2ec5ed9d50e488f0711925945653", "type": "electric_scooter", "is_disabled": 0, "lat": 38.876468833333334, "rental_uris": {"android": "https://dc.lft.to/lastmile_qr_scan", "ios": "https://dc.lft.to/lastmile_qr_scan"}, "bike_id": "30ea2ec5ed9d50e488f0711925945653", "lon": -76.96503116666666}, {"is_reserved": 0, "fusion_lon": 0.0, "fusion_lat": 0.0, "name": "11befd48a5fe44b9bb1262cc477e00a8", "type": "electric_scooter", "is_disabled": 0, "lat": 38.8697805, "rental_uris": {"android": "https://dc.lft.to/lastmile_qr_scan", "ios": "https://dc.lft.to/lastmile_qr_scan"}, "bike_id": "11befd48a5fe44b9bb1262cc477e00a8", "lon": -77.0122365}, {"is_reserved": 0, "fusion_lon": 0.0, "fusion_lat": 0.0, "name": "03216bb6dfba9d3df3a5fbe982722b29", "type": "electric_scooter", "is_disabled": 0, "lat": 38.919497, "rental_uris": {"android": "https://dc.lft.to/lastmile_qr_scan", "ios": "https://dc.lft.to/lastmile_qr_scan"}, "bike_id": "03216bb6dfba9d3df3a5fbe982722b29", "lon": -77.028877}, {"is_reserved": 0, "fusion_lon": 0.0, "fusion_lat": 0.0, "name": "aa17b5783ccbbf91830bab7928699d93", "type": "electric_bike", "is_disabled": 0, "lat": 38.955017, "rental_uris": {"android": "https://dc.lft.to/lastmile_qr_scan", "ios": "https://dc.lft.to/lastmile_qr_scan"}, "bike_id": "aa17b5783ccbbf91830bab7928699d93", "lon": -76.9935395}, {"is_reserved": 0, "fusion_lon": 0.0, "fusion_lat": 0.0, "name": "e304a5f5160c198689ddc6bed3df16b5", "type": "electric_scooter", "is_disabled": 0, "lat": 38.942053666666666, "rental_uris": {"android": "https://dc.lft.to/lastmile_qr_scan", "ios": "https://dc.lft.to/lastmile_qr_scan"}, "bike_id": "e304a5f5160c198689ddc6bed3df16b5", "lon": -77.0251135}, {"is_reserved": 0, "fusion_lon": 0.0, "fusion_lat": 0.0, "name": "2b42a97f1a1132e2f27e2b109ef08507", "type": "electric_bike", "is_disabled": 0, "lat": 38.93235266666667, "rental_uris": {"android": "https://dc.lft.to/lastmile_qr_scan", "ios": "https://dc.lft.to/lastmile_qr_scan"}, "bike_id": "2b42a97f1a1132e2f27e2b109ef08507", "lon": -76.97425783333334}, {"is_reserved": 0, "fusion_lon": 0.0, "fusion_lat": 0.0, "name": "fd92152fce6fd0ca310530de2c343ca3", "type": "electric_scooter", "is_disabled": 0, "lat": 38.913489, "rental_uris": {"android": "https://dc.lft.to/lastmile_qr_scan", "ios": "https://dc.lft.to/lastmile_qr_scan"}, "bike_id": "fd92152fce6fd0ca310530de2c343ca3", "lon": -77.02054683333333}, {"is_reserved": 0, "fusion_lon": 0.0, "fusion_lat": 0.0, "name": "9dd15f8bf9ae596b26ab28316651762b", "type": "electric_scooter", "is_disabled": 0, "lat": 38.92935933333333, "rental_uris": {"android": "https://dc.lft.to/lastmile_qr_scan", "ios": "https://dc.lft.to/lastmile_qr_scan"}, "bike_id": "9dd15f8bf9ae596b26ab28316651762b", "lon": -77.03656416666666}, {"is_reserved": 0, "fusion_lon": 0.0, "fusion_lat": 0.0, "name": "1c394836e303265c0c64ae91c3d931c2", "type": "electric_scooter", "is_disabled": 0, "lat": 38.892236833333335, "rental_uris": {"android": "https://dc.lft.to/lastmile_qr_scan", "ios": "https://dc.lft.to/lastmile_qr_scan"}, "bike_id": "1c394836e303265c0c64ae91c3d931c2", "lon": -77.04309466666666}, {"is_reserved": 0, "fusion_lon": 0.0, "fusion_lat": 0.0, "name": "49c6241a20596f888a039cc1c2119f9b", "type": "electric_scooter", "is_disabled": 0, "lat": 38.93258633333333, "rental_uris": {"android": "https://dc.lft.to/lastmile_qr_scan", "ios": "https://dc.lft.to/lastmile_qr_scan"}, "bike_id": "49c6241a20596f888a039cc1c2119f9b", "lon": -77.0209955}, {"is_reserved": 0, "fusion_lon": 0.0, "fusion_lat": 0.0, "name": "783af95ff8c1d929a8c2a048372a4642", "type": "electric_scooter", "is_disabled": 0, "lat": 38.9309665, "rental_uris": {"android": "https://dc.lft.to/lastmile_qr_scan", "ios": "https://dc.lft.to/lastmile_qr_scan"}, "bike_id": "783af95ff8c1d929a8c2a048372a4642", "lon": -77.028007}, {"is_reserved": 0, "fusion_lon": 0.0, "fusion_lat": 0.0, "name": "ca969543febdcadd7cce9de17cc41c2d", "type": "electric_scooter", "is_disabled": 0, "lat": 38.9583785, "rental_uris": {"android": "https://dc.lft.to/lastmile_qr_scan", "ios": "https://dc.lft.to/lastmile_qr_scan"}, "bike_id": "ca969543febdcadd7cce9de17cc41c2d", "lon": -77.01514533333334}, {"is_reserved": 0, "fusion_lon": 0.0, "fusion_lat": 0.0, "name": "1b014b512c0283c95c17f03eaced5048", "type": "electric_scooter", "is_disabled": 0, "lat": 38.922047166666665, "rental_uris": {"android": "https://dc.lft.to/lastmile_qr_scan", "ios": "https://dc.lft.to/lastmile_qr_scan"}, "bike_id": "1b014b512c0283c95c17f03eaced5048", "lon": -77.02961583333334}, {"is_reserved": 0, "fusion_lon": 0.0, "fusion_lat": 0.0, "name": "ad87845c9f9ee599fffb6c845b6fc80b", "type": "electric_scooter", "is_disabled": 0, "lat": 38.950696666666666, "rental_uris": {"android": "https://dc.lft.to/lastmile_qr_scan", "ios": "https://dc.lft.to/lastmile_qr_scan"}, "bike_id": "ad87845c9f9ee599fffb6c845b6fc80b", "lon": -77.06534066666667}, {"is_reserved": 0, "fusion_lon": 0.0, "fusion_lat": 0.0, "name": "e7a6383477e260bb34706bafb26abaf6", "type": "electric_scooter", "is_disabled": 0, "lat": 38.917245666666666, "rental_uris": {"android": "https://dc.lft.to/lastmile_qr_scan", "ios": "https://dc.lft.to/lastmile_qr_scan"}, "bike_id": "e7a6383477e260bb34706bafb26abaf6", "lon": -77.04086583333333}, {"is_reserved": 0, "fusion_lon": 0.0, "fusion_lat": 0.0, "name": "b79f72bb90890fe7bbb7c0e2a70446e5", "type": "electric_scooter", "is_disabled": 0, "lat": 38.85062683333334, "rental_uris": {"android": "https://dc.lft.to/lastmile_qr_scan", "ios": "https://dc.lft.to/lastmile_qr_scan"}, "bike_id": "b79f72bb90890fe7bbb7c0e2a70446e5", "lon": -76.97010716666666}, {"is_reserved": 0, "fusion_lon": 0.0, "fusion_lat": 0.0, "name": "4a32489703acd3910f6214cf81b8133a", "type": "electric_scooter", "is_disabled": 0, "lat": 38.90638833333333, "rental_uris": {"android": "https://dc.lft.to/lastmile_qr_scan", "ios": "https://dc.lft.to/lastmile_qr_scan"}, "bike_id": "4a32489703acd3910f6214cf81b8133a", "lon": -77.0347155}, {"is_reserved": 0, "fusion_lon": 0.0, "fusion_lat": 0.0, "name": "99e4470f74257adcaf55f49064e9a2f9", "type": "electric_scooter", "is_disabled": 0, "lat": 38.899852, "rental_uris": {"android": "https://dc.lft.to/lastmile_qr_scan", "ios": "https://dc.lft.to/lastmile_qr_scan"}, "bike_id": "99e4470f74257adcaf55f49064e9a2f9", "lon": -77.00903433333333}, {"is_reserved": 0, "fusion_lon": 0.0, "fusion_lat": 0.0, "name": "8dcf2e954a8d130e8ebdfb04c7438918", "type": "electric_scooter", "is_disabled": 0, "lat": 38.90923333333333, "rental_uris": {"android": "https://dc.lft.to/lastmile_qr_scan", "ios": "https://dc.lft.to/lastmile_qr_scan"}, "bike_id": "8dcf2e954a8d130e8ebdfb04c7438918", "lon": -77.07273166666667}, {"is_reserved": 0, "fusion_lon": 0.0, "fusion_lat": 0.0, "name": "666156cabf1ba2e381fce678d1a109c9", "type": "electric_scooter", "is_disabled": 0, "lat": 38.92245233333333, "rental_uris": {"android": "https://dc.lft.to/lastmile_qr_scan", "ios": "https://dc.lft.to/lastmile_qr_scan"}, "bike_id": "666156cabf1ba2e381fce678d1a109c9", "lon": -77.03070416666667}, {"is_reserved": 0, "fusion_lon": 0.0, "fusion_lat": 0.0, "name": "4e70c132420ed71b5f86b6b1be065d1a", "type": "electric_scooter", "is_disabled": 0, "lat": 38.9201415, "rental_uris": {"android": "https://dc.lft.to/lastmile_qr_scan", "ios": "https://dc.lft.to/lastmile_qr_scan"}, "bike_id": "4e70c132420ed71b5f86b6b1be065d1a", "lon": -77.02142033333334}, {"is_reserved": 0, "fusion_lon": 0.0, "fusion_lat": 0.0, "name": "9ce510e2500733bbab11f61429356d91", "type": "electric_scooter", "is_disabled": 0, "lat": 38.89314916666667, "rental_uris": {"android": "https://dc.lft.to/lastmile_qr_scan", "ios": "https://dc.lft.to/lastmile_qr_scan"}, "bike_id": "9ce510e2500733bbab11f61429356d91", "lon": -76.9397115}, {"is_reserved": 0, "fusion_lon": 0.0, "fusion_lat": 0.0, "name": "6c21e2ddfe48973790f180b547c81a23", "type": "electric_scooter", "is_disabled": 0, "lat": 38.92851916666667, "rental_uris": {"android": "https://dc.lft.to/lastmile_qr_scan", "ios": "https://dc.lft.to/lastmile_qr_scan"}, "bike_id": "6c21e2ddfe48973790f180b547c81a23", "lon": -77.02741683333333}, {"is_reserved": 0, "fusion_lon": 0.0, "fusion_lat": 0.0, "name": "a37ee4d7c44dfa83a8d17e897f74b0e9", "type": "electric_scooter", "is_disabled": 0, "lat": 38.901376166666665, "rental_uris": {"android": "https://dc.lft.to/lastmile_qr_scan", "ios": "https://dc.lft.to/lastmile_qr_scan"}, "bike_id": "a37ee4d7c44dfa83a8d17e897f74b0e9", "lon": -77.01308533333334}, {"is_reserved": 0, "fusion_lon": 0.0, "fusion_lat": 0.0, "name": "b19cbe9b329d1e162cf9d3689306414d", "type": "electric_scooter", "is_disabled": 0, "lat": 38.926535333333334, "rental_uris": {"android": "https://dc.lft.to/lastmile_qr_scan", "ios": "https://dc.lft.to/lastmile_qr_scan"}, "bike_id": "b19cbe9b329d1e162cf9d3689306414d", "lon": -77.0372965}, {"is_reserved": 0, "fusion_lon": 0.0, "fusion_lat": 0.0, "name": "747e5f651e82a7de00480ff1f654befc", "type": "electric_bike", "is_disabled": 0, "lat": 38.901085, "rental_uris": {"android": "https://dc.lft.to/lastmile_qr_scan", "ios": "https://dc.lft.to/lastmile_qr_scan"}, "bike_id": "747e5f651e82a7de00480ff1f654befc", "lon": -77.01745883333334}, {"is_reserved": 0, "fusion_lon": 0.0, "fusion_lat": 0.0, "name": "0eefb1d0a2802bceb2f66911cc617589", "type": "electric_scooter", "is_disabled": 0, "lat": 38.918556, "rental_uris": {"android": "https://dc.lft.to/lastmile_qr_scan", "ios": "https://dc.lft.to/lastmile_qr_scan"}, "bike_id": "0eefb1d0a2802bceb2f66911cc617589", "lon": -77.02554283333333}, {"is_reserved": 0, "fusion_lon": 0.0, "fusion_lat": 0.0, "name": "41adf88a831f5910b9d1f927d58836b9", "type": "electric_scooter", "is_disabled": 0, "lat": 38.934916333333334, "rental_uris": {"android": "https://dc.lft.to/lastmile_qr_scan", "ios": "https://dc.lft.to/lastmile_qr_scan"}, "bike_id": "41adf88a831f5910b9d1f927d58836b9", "lon": -77.03653516666667}, {"is_reserved": 0, "fusion_lon": 0.0, "fusion_lat": 0.0, "name": "5dd5ade13907c3d1f97dc3d62b04927b", "type": "electric_scooter", "is_disabled": 0, "lat": 38.92143133333333, "rental_uris": {"android": "https://dc.lft.to/lastmile_qr_scan", "ios": "https://dc.lft.to/lastmile_qr_scan"}, "bike_id": "5dd5ade13907c3d1f97dc3d62b04927b", "lon": -77.02091083333333}, {"is_reserved": 0, "fusion_lon": 0.0, "fusion_lat": 0.0, "name": "0fd717f426e138d033f54a313f0a84f6", "type": "electric_scooter", "is_disabled": 0, "lat": 38.92315683333333, "rental_uris": {"android": "https://dc.lft.to/lastmile_qr_scan", "ios": "https://dc.lft.to/lastmile_qr_scan"}, "bike_id": "0fd717f426e138d033f54a313f0a84f6", "lon": -77.043461}, {"is_reserved": 0, "fusion_lon": 0.0, "fusion_lat": 0.0, "name": "f3f3ce4fa049ceb9f2416e692e475475", "type": "electric_scooter", "is_disabled": 0, "lat": 38.893545833333334, "rental_uris": {"android": "https://dc.lft.to/lastmile_qr_scan", "ios": "https://dc.lft.to/lastmile_qr_scan"}, "bike_id": "f3f3ce4fa049ceb9f2416e692e475475", "lon": -77.003377}, {"is_reserved": 0, "fusion_lon": 0.0, "fusion_lat": 0.0, "name": "d271ba9a2b6fbbcb8190a8edb114e645", "type": "electric_scooter", "is_disabled": 0, "lat": 38.8827685, "rental_uris": {"android": "https://dc.lft.to/lastmile_qr_scan", "ios": "https://dc.lft.to/lastmile_qr_scan"}, "bike_id": "d271ba9a2b6fbbcb8190a8edb114e645", "lon": -76.98777466666667}, {"is_reserved": 0, "fusion_lon": 0.0, "fusion_lat": 0.0, "name": "c56ed851d8ef7f13de148b480b0c6324", "type": "electric_scooter", "is_disabled": 0, "lat": 38.921450166666666, "rental_uris": {"android": "https://dc.lft.to/lastmile_qr_scan", "ios": "https://dc.lft.to/lastmile_qr_scan"}, "bike_id": "c56ed851d8ef7f13de148b480b0c6324", "lon": -77.03442716666666}, {"is_reserved": 0, "fusion_lon": 0.0, "fusion_lat": 0.0, "name": "941c658359652a114154d7d61c91a8d2", "type": "electric_scooter", "is_disabled": 0, "lat": 38.92438116666667, "rental_uris": {"android": "https://dc.lft.to/lastmile_qr_scan", "ios": "https://dc.lft.to/lastmile_qr_scan"}, "bike_id": "941c658359652a114154d7d61c91a8d2", "lon": -77.0215785}, {"is_reserved": 0, "fusion_lon": 0.0, "fusion_lat": 0.0, "name": "255a1d1f09febd485d220947ed30d9cb", "type": "electric_scooter", "is_disabled": 0, "lat": 38.935294999999996, "rental_uris": {"android": "https://dc.lft.to/lastmile_qr_scan", "ios": "https://dc.lft.to/lastmile_qr_scan"}, "bike_id": "255a1d1f09febd485d220947ed30d9cb", "lon": -77.02349483333333}, {"is_reserved": 0, "fusion_lon": 0.0, "fusion_lat": 0.0, "name": "b68b3ae838897bab841a548797eee3b8", "type": "electric_scooter", "is_disabled": 0, "lat": 38.905623, "rental_uris": {"android": "https://dc.lft.to/lastmile_qr_scan", "ios": "https://dc.lft.to/lastmile_qr_scan"}, "bike_id": "b68b3ae838897bab841a548797eee3b8", "lon": -77.03455883333334}, {"is_reserved": 0, "fusion_lon": 0.0, "fusion_lat": 0.0, "name": "dfa7dce288dc2cfcbf48f12f208440cf", "type": "electric_scooter", "is_disabled": 0, "lat": 38.90395916666667, "rental_uris": {"android": "https://dc.lft.to/lastmile_qr_scan", "ios": "https://dc.lft.to/lastmile_qr_scan"}, "bike_id": "dfa7dce288dc2cfcbf48f12f208440cf", "lon": -77.06294716666666}, {"is_reserved": 0, "fusion_lon": 0.0, "fusion_lat": 0.0, "name": "68f42f3043fa107961e2ce20394bef83", "type": "electric_bike", "is_disabled": 0, "lat": 38.945523333333334, "rental_uris": {"android": "https://dc.lft.to/lastmile_qr_scan", "ios": "https://dc.lft.to/lastmile_qr_scan"}, "bike_id": "68f42f3043fa107961e2ce20394bef83", "lon": -76.89536016666666}, {"is_reserved": 0, "fusion_lon": 0.0, "fusion_lat": 0.0, "name": "e3d364b402da94e4eef58e979d4a5e06", "type": "electric_scooter", "is_disabled": 0, "lat": 38.95153666666667, "rental_uris": {"android": "https://dc.lft.to/lastmile_qr_scan", "ios": "https://dc.lft.to/lastmile_qr_scan"}, "bike_id": "e3d364b402da94e4eef58e979d4a5e06", "lon": -77.018673}, {"is_reserved": 0, "fusion_lon": 0.0, "fusion_lat": 0.0, "name": "9ceeb4fd82ff30196e7b86f08e8cf9ed", "type": "electric_scooter", "is_disabled": 0, "lat": 38.94261933333333, "rental_uris": {"android": "https://dc.lft.to/lastmile_qr_scan", "ios": "https://dc.lft.to/lastmile_qr_scan"}, "bike_id": "9ceeb4fd82ff30196e7b86f08e8cf9ed", "lon": -77.02842533333333}, {"is_reserved": 0, "fusion_lon": 0.0, "fusion_lat": 0.0, "name": "0be0d9132a77d1cc10519cd005eb2b5b", "type": "electric_bike", "is_disabled": 0, "lat": 38.9056125, "rental_uris": {"android": "https://dc.lft.to/lastmile_qr_scan", "ios": "https://dc.lft.to/lastmile_qr_scan"}, "bike_id": "0be0d9132a77d1cc10519cd005eb2b5b", "lon": -77.06275683333334}, {"is_reserved": 0, "fusion_lon": 0.0, "fusion_lat": 0.0, "name": "a5db2ac4cf79589b683d66f85819b57f", "type": "electric_bike", "is_disabled": 0, "lat": 38.90406566666667, "rental_uris": {"android": "https://dc.lft.to/lastmile_qr_scan", "ios": "https://dc.lft.to/lastmile_qr_scan"}, "bike_id": "a5db2ac4cf79589b683d66f85819b57f", "lon": -77.0448425}, {"is_reserved": 0, "fusion_lon": 0.0, "fusion_lat": 0.0, "name": "f32e9e19a285f9354eec6a8e07437f8a", "type": "electric_scooter", "is_disabled": 0, "lat": 38.90744333333333, "rental_uris": {"android": "https://dc.lft.to/lastmile_qr_scan", "ios": "https://dc.lft.to/lastmile_qr_scan"}, "bike_id": "f32e9e19a285f9354eec6a8e07437f8a", "lon": -77.00379333333333}, {"is_reserved": 0, "fusion_lon": 0.0, "fusion_lat": 0.0, "name": "82b0d7b5ea7bb1326e6de3d985290bfe", "type": "electric_scooter", "is_disabled": 0, "lat": 38.9054085, "rental_uris": {"android": "https://dc.lft.to/lastmile_qr_scan", "ios": "https://dc.lft.to/lastmile_qr_scan"}, "bike_id": "82b0d7b5ea7bb1326e6de3d985290bfe", "lon": -77.02963383333334}, {"is_reserved": 0, "fusion_lon": 0.0, "fusion_lat": 0.0, "name": "ef3703832928063d4a48925b76599d9a", "type": "electric_scooter", "is_disabled": 0, "lat": 38.90680716666667, "rental_uris": {"android": "https://dc.lft.to/lastmile_qr_scan", "ios": "https://dc.lft.to/lastmile_qr_scan"}, "bike_id": "ef3703832928063d4a48925b76599d9a", "lon": -76.98665283333334}, {"is_reserved": 0, "fusion_lon": 0.0, "fusion_lat": 0.0, "name": "d805b3ee560282f8c62945602176afe7", "type": "electric_scooter", "is_disabled": 0, "lat": 38.92250416666667, "rental_uris": {"android": "https://dc.lft.to/lastmile_qr_scan", "ios": "https://dc.lft.to/lastmile_qr_scan"}, "bike_id": "d805b3ee560282f8c62945602176afe7", "lon": -77.0195095}, {"is_reserved": 0, "fusion_lon": 0.0, "fusion_lat": 0.0, "name": "ac127c890068d7f2d906437980b6472e", "type": "electric_bike", "is_disabled": 0, "lat": 38.95331766666666, "rental_uris": {"android": "https://dc.lft.to/lastmile_qr_scan", "ios": "https://dc.lft.to/lastmile_qr_scan"}, "bike_id": "ac127c890068d7f2d906437980b6472e", "lon": -76.98248066666666}, {"is_reserved": 0, "fusion_lon": 0.0, "fusion_lat": 0.0, "name": "105dd97bfa2c8d8d570deaca39c24a3e", "type": "electric_bike", "is_disabled": 0, "lat": 38.931649166666666, "rental_uris": {"android": "https://dc.lft.to/lastmile_qr_scan", "ios": "https://dc.lft.to/lastmile_qr_scan"}, "bike_id": "105dd97bfa2c8d8d570deaca39c24a3e", "lon": -76.88401083333333}, {"is_reserved": 0, "fusion_lon": 0.0, "fusion_lat": 0.0, "name": "3da4bf9b293f7581a6b0c6916cc107aa", "type": "electric_bike", "is_disabled": 0, "lat": 39.0550055, "rental_uris": {"android": "https://dc.lft.to/lastmile_qr_scan", "ios": "https://dc.lft.to/lastmile_qr_scan"}, "bike_id": "3da4bf9b293f7581a6b0c6916cc107aa", "lon": -77.04650666666667}, {"is_reserved": 0, "fusion_lon": 0.0, "fusion_lat": 0.0, "name": "d895b94ceebd2e49a4534bc9aa9890ac", "type": "electric_scooter", "is_disabled": 0, "lat": 38.920190166666664, "rental_uris": {"android": "https://dc.lft.to/lastmile_qr_scan", "ios": "https://dc.lft.to/lastmile_qr_scan"}, "bike_id": "d895b94ceebd2e49a4534bc9aa9890ac", "lon": -77.03656266666667}, {"is_reserved": 0, "fusion_lon": 0.0, "fusion_lat": 0.0, "name": "f79afd87d09f439ffc52536f2f2b87b5", "type": "electric_bike", "is_disabled": 0, "lat": 38.929655333333336, "rental_uris": {"android": "https://dc.lft.to/lastmile_qr_scan", "ios": "https://dc.lft.to/lastmile_qr_scan"}, "bike_id": "f79afd87d09f439ffc52536f2f2b87b5", "lon": -77.18562916666667}, {"is_reserved": 0, "fusion_lon": 0.0, "fusion_lat": 0.0, "name": "e19e0c9c49a65d69bf9ffbe66207cef9", "type": "electric_scooter", "is_disabled": 0, "lat": 38.89233733333333, "rental_uris": {"android": "https://dc.lft.to/lastmile_qr_scan", "ios": "https://dc.lft.to/lastmile_qr_scan"}, "bike_id": "e19e0c9c49a65d69bf9ffbe66207cef9", "lon": -77.050027}, {"is_reserved": 0, "fusion_lon": 0.0, "fusion_lat": 0.0, "name": "6cc8b8c23ede7639692d16415c0a1830", "type": "electric_scooter", "is_disabled": 0, "lat": 38.886090333333335, "rental_uris": {"android": "https://dc.lft.to/lastmile_qr_scan", "ios": "https://dc.lft.to/lastmile_qr_scan"}, "bike_id": "6cc8b8c23ede7639692d16415c0a1830", "lon": -76.995092}, {"is_reserved": 0, "fusion_lon": 0.0, "fusion_lat": 0.0, "name": "17d4b9b2fd53343404b9982ac1774eb1", "type": "electric_scooter", "is_disabled": 0, "lat": 38.9074385, "rental_uris": {"android": "https://dc.lft.to/lastmile_qr_scan", "ios": "https://dc.lft.to/lastmile_qr_scan"}, "bike_id": "17d4b9b2fd53343404b9982ac1774eb1", "lon": -77.04156333333333}, {"is_reserved": 0, "fusion_lon": 0.0, "fusion_lat": 0.0, "name": "a48d5161602ddd94cd7808e85d256aba", "type": "electric_scooter", "is_disabled": 0, "lat": 38.91796316666667, "rental_uris": {"android": "https://dc.lft.to/lastmile_qr_scan", "ios": "https://dc.lft.to/lastmile_qr_scan"}, "bike_id": "a48d5161602ddd94cd7808e85d256aba", "lon": -77.03458233333333}, {"is_reserved": 0, "fusion_lon": 0.0, "fusion_lat": 0.0, "name": "4dfe0fe5274a5e34859d794da7b2ea00", "type": "electric_scooter", "is_disabled": 0, "lat": 38.9170915, "rental_uris": {"android": "https://dc.lft.to/lastmile_qr_scan", "ios": "https://dc.lft.to/lastmile_qr_scan"}, "bike_id": "4dfe0fe5274a5e34859d794da7b2ea00", "lon": -77.03861566666667}, {"is_reserved": 0, "fusion_lon": 0.0, "fusion_lat": 0.0, "name": "602b2a42e36b15be47fc0a4ce5534aa6", "type": "electric_scooter", "is_disabled": 0, "lat": 38.9340165, "rental_uris": {"android": "https://dc.lft.to/lastmile_qr_scan", "ios": "https://dc.lft.to/lastmile_qr_scan"}, "bike_id": "602b2a42e36b15be47fc0a4ce5534aa6", "lon": -77.0399055}, {"is_reserved": 0, "fusion_lon": 0.0, "fusion_lat": 0.0, "name": "117f18360e30422e118ad63dc56bde33", "type": "electric_scooter", "is_disabled": 0, "lat": 38.907841833333336, "rental_uris": {"android": "https://dc.lft.to/lastmile_qr_scan", "ios": "https://dc.lft.to/lastmile_qr_scan"}, "bike_id": "117f18360e30422e118ad63dc56bde33", "lon": -77.03445366666666}, {"is_reserved": 0, "fusion_lon": 0.0, "fusion_lat": 0.0, "name": "26ff2c7d3474d5a097d9365b4cb63377", "type": "electric_scooter", "is_disabled": 0, "lat": 38.925106666666665, "rental_uris": {"android": "https://dc.lft.to/lastmile_qr_scan", "ios": "https://dc.lft.to/lastmile_qr_scan"}, "bike_id": "26ff2c7d3474d5a097d9365b4cb63377", "lon": -77.03880416666667}, {"is_reserved": 0, "fusion_lon": 0.0, "fusion_lat": 0.0, "name": "8a336385666032174d91bedc7ce99ab5", "type": "electric_bike", "is_disabled": 0, "lat": 38.9544125, "rental_uris": {"android": "https://dc.lft.to/lastmile_qr_scan", "ios": "https://dc.lft.to/lastmile_qr_scan"}, "bike_id": "8a336385666032174d91bedc7ce99ab5", "lon": -76.989131}, {"is_reserved": 0, "fusion_lon": 0.0, "fusion_lat": 0.0, "name": "d079171a2e425adb8c39fb857a0c9025", "type": "electric_scooter", "is_disabled": 0, "lat": 38.910547666666666, "rental_uris": {"android": "https://dc.lft.to/lastmile_qr_scan", "ios": "https://dc.lft.to/lastmile_qr_scan"}, "bike_id": "d079171a2e425adb8c39fb857a0c9025", "lon": -77.040953}, {"is_reserved": 0, "fusion_lon": 0.0, "fusion_lat": 0.0, "name": "1aa2bf1da5dc04e50933ea2e0f89d37f", "type": "electric_scooter", "is_disabled": 0, "lat": 38.93050483333333, "rental_uris": {"android": "https://dc.lft.to/lastmile_qr_scan", "ios": "https://dc.lft.to/lastmile_qr_scan"}, "bike_id": "1aa2bf1da5dc04e50933ea2e0f89d37f", "lon": -77.037944}, {"is_reserved": 0, "fusion_lon": 0.0, "fusion_lat": 0.0, "name": "4b9642b90884922ecfc7cb5a252fcc8d", "type": "electric_scooter", "is_disabled": 0, "lat": 38.95325883333334, "rental_uris": {"android": "https://dc.lft.to/lastmile_qr_scan", "ios": "https://dc.lft.to/lastmile_qr_scan"}, "bike_id": "4b9642b90884922ecfc7cb5a252fcc8d", "lon": -77.0706735}, {"is_reserved": 0, "fusion_lon": 0.0, "fusion_lat": 0.0, "name": "176e3014492f77b16c9763f5ecc744cf", "type": "electric_scooter", "is_disabled": 0, "lat": 38.902834, "rental_uris": {"android": "https://dc.lft.to/lastmile_qr_scan", "ios": "https://dc.lft.to/lastmile_qr_scan"}, "bike_id": "176e3014492f77b16c9763f5ecc744cf", "lon": -77.05806566666666}, {"is_reserved": 0, "fusion_lon": 0.0, "fusion_lat": 0.0, "name": "00018ec5c207bc8d3aa22a42b27ea374", "type": "electric_scooter", "is_disabled": 0, "lat": 38.9215035, "rental_uris": {"android": "https://dc.lft.to/lastmile_qr_scan", "ios": "https://dc.lft.to/lastmile_qr_scan"}, "bike_id": "00018ec5c207bc8d3aa22a42b27ea374", "lon": -77.0331285}, {"is_reserved": 0, "fusion_lon": 0.0, "fusion_lat": 0.0, "name": "c796c9728c82ecf0706bdb3abe205dbd", "type": "electric_scooter", "is_disabled": 0, "lat": 38.9034055, "rental_uris": {"android": "https://dc.lft.to/lastmile_qr_scan", "ios": "https://dc.lft.to/lastmile_qr_scan"}, "bike_id": "c796c9728c82ecf0706bdb3abe205dbd", "lon": -77.046523}, {"is_reserved": 0, "fusion_lon": 0.0, "fusion_lat": 0.0, "name": "3d5a294c95b84753f339b4ddfbde3fa6", "type": "electric_scooter", "is_disabled": 0, "lat": 38.90780816666667, "rental_uris": {"android": "https://dc.lft.to/lastmile_qr_scan", "ios": "https://dc.lft.to/lastmile_qr_scan"}, "bike_id": "3d5a294c95b84753f339b4ddfbde3fa6", "lon": -77.07250033333334}, {"is_reserved": 0, "fusion_lon": 0.0, "fusion_lat": 0.0, "name": "1e7bf06828089603c358021eb6253a8a", "type": "electric_scooter", "is_disabled": 0, "lat": 38.90370016666667, "rental_uris": {"android": "https://dc.lft.to/lastmile_qr_scan", "ios": "https://dc.lft.to/lastmile_qr_scan"}, "bike_id": "1e7bf06828089603c358021eb6253a8a", "lon": -77.03451316666667}, {"is_reserved": 0, "fusion_lon": 0.0, "fusion_lat": 0.0, "name": "3a94da5fb7523b9aa46a6d60f244d02c", "type": "electric_scooter", "is_disabled": 0, "lat": 38.89518266666666, "rental_uris": {"android": "https://dc.lft.to/lastmile_qr_scan", "ios": "https://dc.lft.to/lastmile_qr_scan"}, "bike_id": "3a94da5fb7523b9aa46a6d60f244d02c", "lon": -77.03956683333334}, {"is_reserved": 0, "fusion_lon": 0.0, "fusion_lat": 0.0, "name": "d29340883fb42ed142b4ee3eb581ff20", "type": "electric_bike", "is_disabled": 0, "lat": 39.057862166666666, "rental_uris": {"android": "https://dc.lft.to/lastmile_qr_scan", "ios": "https://dc.lft.to/lastmile_qr_scan"}, "bike_id": "d29340883fb42ed142b4ee3eb581ff20", "lon": -77.15020066666666}, {"is_reserved": 0, "fusion_lon": 0.0, "fusion_lat": 0.0, "name": "ddd113a5520bd9bc03337954d8438a07", "type": "electric_scooter", "is_disabled": 0, "lat": 38.9244605, "rental_uris": {"android": "https://dc.lft.to/lastmile_qr_scan", "ios": "https://dc.lft.to/lastmile_qr_scan"}, "bike_id": "ddd113a5520bd9bc03337954d8438a07", "lon": -77.057456}, {"is_reserved": 0, "fusion_lon": 0.0, "fusion_lat": 0.0, "name": "ff2818c5ffda08fe043923fb23f996e6", "type": "electric_scooter", "is_disabled": 0, "lat": 38.90554933333333, "rental_uris": {"android": "https://dc.lft.to/lastmile_qr_scan", "ios": "https://dc.lft.to/lastmile_qr_scan"}, "bike_id": "ff2818c5ffda08fe043923fb23f996e6", "lon": -77.04194533333333}, {"is_reserved": 0, "fusion_lon": 0.0, "fusion_lat": 0.0, "name": "c8f62f21726635ccf3c6c1373d28a1bd", "type": "electric_bike", "is_disabled": 0, "lat": 38.929677166666664, "rental_uris": {"android": "https://dc.lft.to/lastmile_qr_scan", "ios": "https://dc.lft.to/lastmile_qr_scan"}, "bike_id": "c8f62f21726635ccf3c6c1373d28a1bd", "lon": -77.22571883333333}, {"is_reserved": 0, "fusion_lon": 0.0, "fusion_lat": 0.0, "name": "bd2d38e32892d432928c9e230c3fb5e8", "type": "electric_scooter", "is_disabled": 0, "lat": 38.9082035, "rental_uris": {"android": "https://dc.lft.to/lastmile_qr_scan", "ios": "https://dc.lft.to/lastmile_qr_scan"}, "bike_id": "bd2d38e32892d432928c9e230c3fb5e8", "lon": -77.074153}, {"is_reserved": 0, "fusion_lon": 0.0, "fusion_lat": 0.0, "name": "acb92ac14271f7e0e6c8d8db21702821", "type": "electric_scooter", "is_disabled": 0, "lat": 38.9507365, "rental_uris": {"android": "https://dc.lft.to/lastmile_qr_scan", "ios": "https://dc.lft.to/lastmile_qr_scan"}, "bike_id": "acb92ac14271f7e0e6c8d8db21702821", "lon": -76.99565916666667}, {"is_reserved": 0, "fusion_lon": 0.0, "fusion_lat": 0.0, "name": "4490509f06e48304a1f1fc5006326840", "type": "electric_scooter", "is_disabled": 0, "lat": 38.89548283333333, "rental_uris": {"android": "https://dc.lft.to/lastmile_qr_scan", "ios": "https://dc.lft.to/lastmile_qr_scan"}, "bike_id": "4490509f06e48304a1f1fc5006326840", "lon": -77.05660083333333}, {"is_reserved": 0, "fusion_lon": 0.0, "fusion_lat": 0.0, "name": "15d5a3b62f44d7572a78ff350625fbef", "type": "electric_scooter", "is_disabled": 0, "lat": 38.90234266666667, "rental_uris": {"android": "https://dc.lft.to/lastmile_qr_scan", "ios": "https://dc.lft.to/lastmile_qr_scan"}, "bike_id": "15d5a3b62f44d7572a78ff350625fbef", "lon": -77.0268875}, {"is_reserved": 0, "fusion_lon": 0.0, "fusion_lat": 0.0, "name": "24d6756cf8cc82b01a11f4c789168bca", "type": "electric_scooter", "is_disabled": 0, "lat": 38.903973, "rental_uris": {"android": "https://dc.lft.to/lastmile_qr_scan", "ios": "https://dc.lft.to/lastmile_qr_scan"}, "bike_id": "24d6756cf8cc82b01a11f4c789168bca", "lon": -77.04333166666666}, {"is_reserved": 0, "fusion_lon": 0.0, "fusion_lat": 0.0, "name": "ac05011f85e3043cc2d579cb23baa30f", "type": "electric_scooter", "is_disabled": 0, "lat": 38.903493833333336, "rental_uris": {"android": "https://dc.lft.to/lastmile_qr_scan", "ios": "https://dc.lft.to/lastmile_qr_scan"}, "bike_id": "ac05011f85e3043cc2d579cb23baa30f", "lon": -77.0391385}, {"is_reserved": 0, "fusion_lon": 0.0, "fusion_lat": 0.0, "name": "ca20fb13048fa976ca2c7546bb2aeeed", "type": "electric_scooter", "is_disabled": 0, "lat": 38.908292833333334, "rental_uris": {"android": "https://dc.lft.to/lastmile_qr_scan", "ios": "https://dc.lft.to/lastmile_qr_scan"}, "bike_id": "ca20fb13048fa976ca2c7546bb2aeeed", "lon": -77.03312833333334}, {"is_reserved": 0, "fusion_lon": 0.0, "fusion_lat": 0.0, "name": "c590c3311bdba1addedd25d30ebf5327", "type": "electric_bike", "is_disabled": 0, "lat": 38.956878333333336, "rental_uris": {"android": "https://dc.lft.to/lastmile_qr_scan", "ios": "https://dc.lft.to/lastmile_qr_scan"}, "bike_id": "c590c3311bdba1addedd25d30ebf5327", "lon": -77.02229383333334}, {"is_reserved": 0, "fusion_lon": 0.0, "fusion_lat": 0.0, "name": "8f6e2f3d8617cd5fa299d5eac50d9af0", "type": "electric_scooter", "is_disabled": 0, "lat": 38.89998116666666, "rental_uris": {"android": "https://dc.lft.to/lastmile_qr_scan", "ios": "https://dc.lft.to/lastmile_qr_scan"}, "bike_id": "8f6e2f3d8617cd5fa299d5eac50d9af0", "lon": -77.04843083333333}, {"is_reserved": 0, "fusion_lon": 0.0, "fusion_lat": 0.0, "name": "27274344c9010f50dc29cf414e979fbc", "type": "electric_scooter", "is_disabled": 0, "lat": 38.915464166666666, "rental_uris": {"android": "https://dc.lft.to/lastmile_qr_scan", "ios": "https://dc.lft.to/lastmile_qr_scan"}, "bike_id": "27274344c9010f50dc29cf414e979fbc", "lon": -77.02553166666667}, {"is_reserved": 0, "fusion_lon": 0.0, "fusion_lat": 0.0, "name": "3518a397e286674e2f41bd72fa5c5bb4", "type": "electric_scooter", "is_disabled": 0, "lat": 38.900754666666664, "rental_uris": {"android": "https://dc.lft.to/lastmile_qr_scan", "ios": "https://dc.lft.to/lastmile_qr_scan"}, "bike_id": "3518a397e286674e2f41bd72fa5c5bb4", "lon": -77.04875433333333}, {"is_reserved": 0, "fusion_lon": 0.0, "fusion_lat": 0.0, "name": "99ec9ac49a15c3a32c08b751f320f665", "type": "electric_scooter", "is_disabled": 0, "lat": 38.909438333333334, "rental_uris": {"android": "https://dc.lft.to/lastmile_qr_scan", "ios": "https://dc.lft.to/lastmile_qr_scan"}, "bike_id": "99ec9ac49a15c3a32c08b751f320f665", "lon": -77.04480883333333}, {"is_reserved": 0, "fusion_lon": 0.0, "fusion_lat": 0.0, "name": "f215d30bb34b36c91fb6cda74965033c", "type": "electric_scooter", "is_disabled": 0, "lat": 38.9378525, "rental_uris": {"android": "https://dc.lft.to/lastmile_qr_scan", "ios": "https://dc.lft.to/lastmile_qr_scan"}, "bike_id": "f215d30bb34b36c91fb6cda74965033c", "lon": -77.03292916666666}, {"is_reserved": 0, "fusion_lon": 0.0, "fusion_lat": 0.0, "name": "41f59f5dcb743c7e0def378866f5b952", "type": "electric_scooter", "is_disabled": 0, "lat": 38.8357395, "rental_uris": {"android": "https://dc.lft.to/lastmile_qr_scan", "ios": "https://dc.lft.to/lastmile_qr_scan"}, "bike_id": "41f59f5dcb743c7e0def378866f5b952", "lon": -76.99486616666667}, {"is_reserved": 0, "fusion_lon": 0.0, "fusion_lat": 0.0, "name": "6f49e2cc8983d5ecb304074954e540ee", "type": "electric_scooter", "is_disabled": 0, "lat": 38.900906, "rental_uris": {"android": "https://dc.lft.to/lastmile_qr_scan", "ios": "https://dc.lft.to/lastmile_qr_scan"}, "bike_id": "6f49e2cc8983d5ecb304074954e540ee", "lon": -77.04756083333334}, {"is_reserved": 0, "fusion_lon": 0.0, "fusion_lat": 0.0, "name": "07b207925bace1cf158ac2adf7e5b642", "type": "electric_scooter", "is_disabled": 0, "lat": 38.90742316666667, "rental_uris": {"android": "https://dc.lft.to/lastmile_qr_scan", "ios": "https://dc.lft.to/lastmile_qr_scan"}, "bike_id": "07b207925bace1cf158ac2adf7e5b642", "lon": -77.04285233333333}, {"is_reserved": 0, "fusion_lon": 0.0, "fusion_lat": 0.0, "name": "e33724872e4bdffb98ee0deb9eb8a449", "type": "electric_scooter", "is_disabled": 0, "lat": 38.923499666666665, "rental_uris": {"android": "https://dc.lft.to/lastmile_qr_scan", "ios": "https://dc.lft.to/lastmile_qr_scan"}, "bike_id": "e33724872e4bdffb98ee0deb9eb8a449", "lon": -77.0415125}, {"is_reserved": 0, "fusion_lon": 0.0, "fusion_lat": 0.0, "name": "b7b75475f9bd56da8953cab0978705c0", "type": "electric_scooter", "is_disabled": 0, "lat": 38.923981166666664, "rental_uris": {"android": "https://dc.lft.to/lastmile_qr_scan", "ios": "https://dc.lft.to/lastmile_qr_scan"}, "bike_id": "b7b75475f9bd56da8953cab0978705c0", "lon": -77.02432383333333}, {"is_reserved": 0, "fusion_lon": 0.0, "fusion_lat": 0.0, "name": "cf57d9474bad2f44023cadebb0138683", "type": "electric_scooter", "is_disabled": 0, "lat": 38.89530083333333, "rental_uris": {"android": "https://dc.lft.to/lastmile_qr_scan", "ios": "https://dc.lft.to/lastmile_qr_scan"}, "bike_id": "cf57d9474bad2f44023cadebb0138683", "lon": -77.00345183333333}, {"is_reserved": 0, "fusion_lon": 0.0, "fusion_lat": 0.0, "name": "a03d0c40657a3f53babd2af9950eec52", "type": "electric_bike", "is_disabled": 0, "lat": 38.80023166666667, "rental_uris": {"android": "https://dc.lft.to/lastmile_qr_scan", "ios": "https://dc.lft.to/lastmile_qr_scan"}, "bike_id": "a03d0c40657a3f53babd2af9950eec52", "lon": -77.05478}, {"is_reserved": 0, "fusion_lon": 0.0, "fusion_lat": 0.0, "name": "612587f4f430183d5edc816db914d6e4", "type": "electric_scooter", "is_disabled": 0, "lat": 38.920081333333336, "rental_uris": {"android": "https://dc.lft.to/lastmile_qr_scan", "ios": "https://dc.lft.to/lastmile_qr_scan"}, "bike_id": "612587f4f430183d5edc816db914d6e4", "lon": -77.0388365}, {"is_reserved": 0, "fusion_lon": 0.0, "fusion_lat": 0.0, "name": "4baa1ab56e6357671f861075586b9182", "type": "electric_scooter", "is_disabled": 0, "lat": 38.9235875, "rental_uris": {"android": "https://dc.lft.to/lastmile_qr_scan", "ios": "https://dc.lft.to/lastmile_qr_scan"}, "bike_id": "4baa1ab56e6357671f861075586b9182", "lon": -77.042338}, {"is_reserved": 0, "fusion_lon": 0.0, "fusion_lat": 0.0, "name": "088cf5fad37c5ff2d9bbc7bc7aa26321", "type": "electric_scooter", "is_disabled": 0, "lat": 38.916553666666665, "rental_uris": {"android": "https://dc.lft.to/lastmile_qr_scan", "ios": "https://dc.lft.to/lastmile_qr_scan"}, "bike_id": "088cf5fad37c5ff2d9bbc7bc7aa26321", "lon": -77.02970183333333}, {"is_reserved": 0, "fusion_lon": 0.0, "fusion_lat": 0.0, "name": "74a35a66392cb284b5df5335113c3e30", "type": "electric_scooter", "is_disabled": 0, "lat": 38.91120016666667, "rental_uris": {"android": "https://dc.lft.to/lastmile_qr_scan", "ios": "https://dc.lft.to/lastmile_qr_scan"}, "bike_id": "74a35a66392cb284b5df5335113c3e30", "lon": -77.03826766666667}, {"is_reserved": 0, "fusion_lon": 0.0, "fusion_lat": 0.0, "name": "9ab45d8bde4ceeb12e6fbc667e866f08", "type": "electric_scooter", "is_disabled": 0, "lat": 38.9573455, "rental_uris": {"android": "https://dc.lft.to/lastmile_qr_scan", "ios": "https://dc.lft.to/lastmile_qr_scan"}, "bike_id": "9ab45d8bde4ceeb12e6fbc667e866f08", "lon": -77.02402466666666}, {"is_reserved": 0, "fusion_lon": 0.0, "fusion_lat": 0.0, "name": "0e0691aaa2193d4429f625bb04c93aa4", "type": "electric_scooter", "is_disabled": 0, "lat": 38.90366483333333, "rental_uris": {"android": "https://dc.lft.to/lastmile_qr_scan", "ios": "https://dc.lft.to/lastmile_qr_scan"}, "bike_id": "0e0691aaa2193d4429f625bb04c93aa4", "lon": -77.04205083333333}, {"is_reserved": 0, "fusion_lon": 0.0, "fusion_lat": 0.0, "name": "0a5ec1a3d283300f2bcf86a7ff2ce587", "type": "electric_scooter", "is_disabled": 0, "lat": 38.887224, "rental_uris": {"android": "https://dc.lft.to/lastmile_qr_scan", "ios": "https://dc.lft.to/lastmile_qr_scan"}, "bike_id": "0a5ec1a3d283300f2bcf86a7ff2ce587", "lon": -77.02182133333334}, {"is_reserved": 0, "fusion_lon": 0.0, "fusion_lat": 0.0, "name": "44df9d341b74f93ee92431249b1142b5", "type": "electric_scooter", "is_disabled": 0, "lat": 38.8964215, "rental_uris": {"android": "https://dc.lft.to/lastmile_qr_scan", "ios": "https://dc.lft.to/lastmile_qr_scan"}, "bike_id": "44df9d341b74f93ee92431249b1142b5", "lon": -77.0330085}, {"is_reserved": 0, "fusion_lon": 0.0, "fusion_lat": 0.0, "name": "ad0de0f39efca44c5bbfb0a26a7f1008", "type": "electric_scooter", "is_disabled": 0, "lat": 38.901991833333334, "rental_uris": {"android": "https://dc.lft.to/lastmile_qr_scan", "ios": "https://dc.lft.to/lastmile_qr_scan"}, "bike_id": "ad0de0f39efca44c5bbfb0a26a7f1008", "lon": -77.02181}, {"is_reserved": 0, "fusion_lon": 0.0, "fusion_lat": 0.0, "name": "6297422b431414381e4cf77c557dc849", "type": "electric_scooter", "is_disabled": 0, "lat": 38.91706466666667, "rental_uris": {"android": "https://dc.lft.to/lastmile_qr_scan", "ios": "https://dc.lft.to/lastmile_qr_scan"}, "bike_id": "6297422b431414381e4cf77c557dc849", "lon": -77.02418016666667}, {"is_reserved": 0, "fusion_lon": 0.0, "fusion_lat": 0.0, "name": "4e4ae5b74bfefd7d52868fd15dafd37a", "type": "electric_bike", "is_disabled": 0, "lat": 38.911260166666665, "rental_uris": {"android": "https://dc.lft.to/lastmile_qr_scan", "ios": "https://dc.lft.to/lastmile_qr_scan"}, "bike_id": "4e4ae5b74bfefd7d52868fd15dafd37a", "lon": -77.0861275}, {"is_reserved": 0, "fusion_lon": 0.0, "fusion_lat": 0.0, "name": "27b018faea277853546a5a952b3fa58d", "type": "electric_scooter", "is_disabled": 0, "lat": 38.91796166666666, "rental_uris": {"android": "https://dc.lft.to/lastmile_qr_scan", "ios": "https://dc.lft.to/lastmile_qr_scan"}, "bike_id": "27b018faea277853546a5a952b3fa58d", "lon": -77.03450566666666}, {"is_reserved": 0, "fusion_lon": 0.0, "fusion_lat": 0.0, "name": "72973120e25808047e15443159546512", "type": "electric_scooter", "is_disabled": 0, "lat": 38.9106605, "rental_uris": {"android": "https://dc.lft.to/lastmile_qr_scan", "ios": "https://dc.lft.to/lastmile_qr_scan"}, "bike_id": "72973120e25808047e15443159546512", "lon": -77.03089866666667}, {"is_reserved": 0, "fusion_lon": 0.0, "fusion_lat": 0.0, "name": "6f27f50b5d39f752785b915abd6d75f2", "type": "electric_scooter", "is_disabled": 0, "lat": 38.883637666666665, "rental_uris": {"android": "https://dc.lft.to/lastmile_qr_scan", "ios": "https://dc.lft.to/lastmile_qr_scan"}, "bike_id": "6f27f50b5d39f752785b915abd6d75f2", "lon": -76.941543}, {"is_reserved": 0, "fusion_lon": 0.0, "fusion_lat": 0.0, "name": "30ce33980a798bf5c99935954027a21a", "type": "electric_scooter", "is_disabled": 0, "lat": 38.928626666666666, "rental_uris": {"android": "https://dc.lft.to/lastmile_qr_scan", "ios": "https://dc.lft.to/lastmile_qr_scan"}, "bike_id": "30ce33980a798bf5c99935954027a21a", "lon": -77.03320283333333}, {"is_reserved": 0, "fusion_lon": 0.0, "fusion_lat": 0.0, "name": "9779f18d7e5be34ecf4bdfb1a3883b01", "type": "electric_scooter", "is_disabled": 0, "lat": 38.9002945, "rental_uris": {"android": "https://dc.lft.to/lastmile_qr_scan", "ios": "https://dc.lft.to/lastmile_qr_scan"}, "bike_id": "9779f18d7e5be34ecf4bdfb1a3883b01", "lon": -77.03299866666667}, {"is_reserved": 0, "fusion_lon": 0.0, "fusion_lat": 0.0, "name": "df4d26dd1fd8ea6272484d0c2ceb744d", "type": "electric_scooter", "is_disabled": 0, "lat": 38.892158, "rental_uris": {"android": "https://dc.lft.to/lastmile_qr_scan", "ios": "https://dc.lft.to/lastmile_qr_scan"}, "bike_id": "df4d26dd1fd8ea6272484d0c2ceb744d", "lon": -76.99258216666666}, {"is_reserved": 0, "fusion_lon": 0.0, "fusion_lat": 0.0, "name": "0501f15b92854b1580635ec79ba9fc6b", "type": "electric_scooter", "is_disabled": 0, "lat": 38.9222265, "rental_uris": {"android": "https://dc.lft.to/lastmile_qr_scan", "ios": "https://dc.lft.to/lastmile_qr_scan"}, "bike_id": "0501f15b92854b1580635ec79ba9fc6b", "lon": -77.04496166666667}, {"is_reserved": 0, "fusion_lon": 0.0, "fusion_lat": 0.0, "name": "8e0ef8344563a1b0f92421f084d6af5d", "type": "electric_scooter", "is_disabled": 0, "lat": 38.919203333333336, "rental_uris": {"android": "https://dc.lft.to/lastmile_qr_scan", "ios": "https://dc.lft.to/lastmile_qr_scan"}, "bike_id": "8e0ef8344563a1b0f92421f084d6af5d", "lon": -77.0789525}, {"is_reserved": 0, "fusion_lon": 0.0, "fusion_lat": 0.0, "name": "ad42a538dcbaefb7a952fda8aeb300b7", "type": "electric_scooter", "is_disabled": 0, "lat": 38.90318383333333, "rental_uris": {"android": "https://dc.lft.to/lastmile_qr_scan", "ios": "https://dc.lft.to/lastmile_qr_scan"}, "bike_id": "ad42a538dcbaefb7a952fda8aeb300b7", "lon": -76.98138733333333}, {"is_reserved": 0, "fusion_lon": 0.0, "fusion_lat": 0.0, "name": "0744244a31960edb3c8c2dc2c4017691", "type": "electric_scooter", "is_disabled": 0, "lat": 38.906013333333334, "rental_uris": {"android": "https://dc.lft.to/lastmile_qr_scan", "ios": "https://dc.lft.to/lastmile_qr_scan"}, "bike_id": "0744244a31960edb3c8c2dc2c4017691", "lon": -77.02215633333333}, {"is_reserved": 0, "fusion_lon": 0.0, "fusion_lat": 0.0, "name": "2656d820892bdbf684fa6502df880e48", "type": "electric_scooter", "is_disabled": 0, "lat": 38.902488166666664, "rental_uris": {"android": "https://dc.lft.to/lastmile_qr_scan", "ios": "https://dc.lft.to/lastmile_qr_scan"}, "bike_id": "2656d820892bdbf684fa6502df880e48", "lon": -77.03890916666667}, {"is_reserved": 0, "fusion_lon": 0.0, "fusion_lat": 0.0, "name": "d4b23b3a31e35c4c99077c8dd5d72993", "type": "electric_scooter", "is_disabled": 0, "lat": 38.84994783333333, "rental_uris": {"android": "https://dc.lft.to/lastmile_qr_scan", "ios": "https://dc.lft.to/lastmile_qr_scan"}, "bike_id": "d4b23b3a31e35c4c99077c8dd5d72993", "lon": -76.9834525}, {"is_reserved": 0, "fusion_lon": 0.0, "fusion_lat": 0.0, "name": "b86281909a23c9214cd041b1b0497af3", "type": "electric_bike", "is_disabled": 0, "lat": 38.83606916666667, "rental_uris": {"android": "https://dc.lft.to/lastmile_qr_scan", "ios": "https://dc.lft.to/lastmile_qr_scan"}, "bike_id": "b86281909a23c9214cd041b1b0497af3", "lon": -77.00378566666667}, {"is_reserved": 0, "fusion_lon": 0.0, "fusion_lat": 0.0, "name": "5d7e5dc61f41bd186df8891f4f8f583f", "type": "electric_scooter", "is_disabled": 0, "lat": 38.9018585, "rental_uris": {"android": "https://dc.lft.to/lastmile_qr_scan", "ios": "https://dc.lft.to/lastmile_qr_scan"}, "bike_id": "5d7e5dc61f41bd186df8891f4f8f583f", "lon": -76.9337145}, {"is_reserved": 0, "fusion_lon": 0.0, "fusion_lat": 0.0, "name": "eb68b9c8d0a3901f4750114f7a02833c", "type": "electric_scooter", "is_disabled": 0, "lat": 38.9215725, "rental_uris": {"android": "https://dc.lft.to/lastmile_qr_scan", "ios": "https://dc.lft.to/lastmile_qr_scan"}, "bike_id": "eb68b9c8d0a3901f4750114f7a02833c", "lon": -77.04227266666666}, {"is_reserved": 0, "fusion_lon": 0.0, "fusion_lat": 0.0, "name": "1cc6b4c78a4f56e9d82e1f69451e1878", "type": "electric_scooter", "is_disabled": 0, "lat": 38.8584765, "rental_uris": {"android": "https://dc.lft.to/lastmile_qr_scan", "ios": "https://dc.lft.to/lastmile_qr_scan"}, "bike_id": "1cc6b4c78a4f56e9d82e1f69451e1878", "lon": -76.985661}, {"is_reserved": 0, "fusion_lon": 0.0, "fusion_lat": 0.0, "name": "fc22b6d63dfda9ba7288737798f6f762", "type": "electric_scooter", "is_disabled": 0, "lat": 38.87727816666667, "rental_uris": {"android": "https://dc.lft.to/lastmile_qr_scan", "ios": "https://dc.lft.to/lastmile_qr_scan"}, "bike_id": "fc22b6d63dfda9ba7288737798f6f762", "lon": -77.01660066666666}, {"is_reserved": 0, "fusion_lon": 0.0, "fusion_lat": 0.0, "name": "a742f69b8903c2d1316e7d3ef694bae5", "type": "electric_scooter", "is_disabled": 0, "lat": 38.89874566666667, "rental_uris": {"android": "https://dc.lft.to/lastmile_qr_scan", "ios": "https://dc.lft.to/lastmile_qr_scan"}, "bike_id": "a742f69b8903c2d1316e7d3ef694bae5", "lon": -76.93184466666666}, {"is_reserved": 0, "fusion_lon": 0.0, "fusion_lat": 0.0, "name": "353d14b5060fe8dff338558e374a2429", "type": "electric_scooter", "is_disabled": 0, "lat": 38.893542333333336, "rental_uris": {"android": "https://dc.lft.to/lastmile_qr_scan", "ios": "https://dc.lft.to/lastmile_qr_scan"}, "bike_id": "353d14b5060fe8dff338558e374a2429", "lon": -77.0033555}, {"is_reserved": 0, "fusion_lon": 0.0, "fusion_lat": 0.0, "name": "ff41b49bdccfaedac6f4e4e64ff53001", "type": "electric_bike", "is_disabled": 0, "lat": 38.903988166666664, "rental_uris": {"android": "https://dc.lft.to/lastmile_qr_scan", "ios": "https://dc.lft.to/lastmile_qr_scan"}, "bike_id": "ff41b49bdccfaedac6f4e4e64ff53001", "lon": -77.04490916666667}, {"is_reserved": 0, "fusion_lon": 0.0, "fusion_lat": 0.0, "name": "3a063550369aa06e1d6c03eead91f327", "type": "electric_scooter", "is_disabled": 0, "lat": 38.905712, "rental_uris": {"android": "https://dc.lft.to/lastmile_qr_scan", "ios": "https://dc.lft.to/lastmile_qr_scan"}, "bike_id": "3a063550369aa06e1d6c03eead91f327", "lon": -77.00579316666666}, {"is_reserved": 0, "fusion_lon": 0.0, "fusion_lat": 0.0, "name": "f8c4a91e30b786b006bf7aafc0802b1a", "type": "electric_scooter", "is_disabled": 0, "lat": 38.88077233333333, "rental_uris": {"android": "https://dc.lft.to/lastmile_qr_scan", "ios": "https://dc.lft.to/lastmile_qr_scan"}, "bike_id": "f8c4a91e30b786b006bf7aafc0802b1a", "lon": -76.99835316666666}, {"is_reserved": 0, "fusion_lon": 0.0, "fusion_lat": 0.0, "name": "425f1f656d52e35795022fc63b348467", "type": "electric_scooter", "is_disabled": 0, "lat": 38.9061165, "rental_uris": {"android": "https://dc.lft.to/lastmile_qr_scan", "ios": "https://dc.lft.to/lastmile_qr_scan"}, "bike_id": "425f1f656d52e35795022fc63b348467", "lon": -76.98686566666666}, {"is_reserved": 0, "fusion_lon": 0.0, "fusion_lat": 0.0, "name": "898c15beb0caca3ba609d63fb4fde63a", "type": "electric_scooter", "is_disabled": 0, "lat": 38.914150666666664, "rental_uris": {"android": "https://dc.lft.to/lastmile_qr_scan", "ios": "https://dc.lft.to/lastmile_qr_scan"}, "bike_id": "898c15beb0caca3ba609d63fb4fde63a", "lon": -77.04920883333334}, {"is_reserved": 0, "fusion_lon": 0.0, "fusion_lat": 0.0, "name": "f1a5003b0c115d82916ef038d27ce01f", "type": "electric_scooter", "is_disabled": 0, "lat": 38.916102, "rental_uris": {"android": "https://dc.lft.to/lastmile_qr_scan", "ios": "https://dc.lft.to/lastmile_qr_scan"}, "bike_id": "f1a5003b0c115d82916ef038d27ce01f", "lon": -77.03196233333334}, {"is_reserved": 0, "fusion_lon": 0.0, "fusion_lat": 0.0, "name": "30e2803eeb45114a37f90321dadfbc2e", "type": "electric_scooter", "is_disabled": 0, "lat": 38.874702, "rental_uris": {"android": "https://dc.lft.to/lastmile_qr_scan", "ios": "https://dc.lft.to/lastmile_qr_scan"}, "bike_id": "30e2803eeb45114a37f90321dadfbc2e", "lon": -77.005546}, {"is_reserved": 0, "fusion_lon": 0.0, "fusion_lat": 0.0, "name": "c9b81cce0e2861282bdfad022bb931c6", "type": "electric_scooter", "is_disabled": 0, "lat": 38.87630566666667, "rental_uris": {"android": "https://dc.lft.to/lastmile_qr_scan", "ios": "https://dc.lft.to/lastmile_qr_scan"}, "bike_id": "c9b81cce0e2861282bdfad022bb931c6", "lon": -77.01259066666667}, {"is_reserved": 0, "fusion_lon": 0.0, "fusion_lat": 0.0, "name": "7d7efb1e248e37b6d562244741e9de9c", "type": "electric_scooter", "is_disabled": 0, "lat": 38.883862666666666, "rental_uris": {"android": "https://dc.lft.to/lastmile_qr_scan", "ios": "https://dc.lft.to/lastmile_qr_scan"}, "bike_id": "7d7efb1e248e37b6d562244741e9de9c", "lon": -77.030347}, {"is_reserved": 0, "fusion_lon": 0.0, "fusion_lat": 0.0, "name": "6bad77b503590df741d1a0e44827befc", "type": "electric_scooter", "is_disabled": 0, "lat": 38.86008316666667, "rental_uris": {"android": "https://dc.lft.to/lastmile_qr_scan", "ios": "https://dc.lft.to/lastmile_qr_scan"}, "bike_id": "6bad77b503590df741d1a0e44827befc", "lon": -76.98516616666667}, {"is_reserved": 0, "fusion_lon": 0.0, "fusion_lat": 0.0, "name": "c6ad30234a97feb457bd9de915b37030", "type": "electric_scooter", "is_disabled": 0, "lat": 38.90306533333333, "rental_uris": {"android": "https://dc.lft.to/lastmile_qr_scan", "ios": "https://dc.lft.to/lastmile_qr_scan"}, "bike_id": "c6ad30234a97feb457bd9de915b37030", "lon": -77.05055866666666}, {"is_reserved": 0, "fusion_lon": 0.0, "fusion_lat": 0.0, "name": "eb987c7d10d84bfe940cae62dcb5725a", "type": "electric_scooter", "is_disabled": 0, "lat": 38.9034205, "rental_uris": {"android": "https://dc.lft.to/lastmile_qr_scan", "ios": "https://dc.lft.to/lastmile_qr_scan"}, "bike_id": "eb987c7d10d84bfe940cae62dcb5725a", "lon": -76.982748}, {"is_reserved": 0, "fusion_lon": 0.0, "fusion_lat": 0.0, "name": "a00b8f8c79071154173e3b709a3a2308", "type": "electric_scooter", "is_disabled": 0, "lat": 38.91181183333333, "rental_uris": {"android": "https://dc.lft.to/lastmile_qr_scan", "ios": "https://dc.lft.to/lastmile_qr_scan"}, "bike_id": "a00b8f8c79071154173e3b709a3a2308", "lon": -77.02971766666667}, {"is_reserved": 0, "fusion_lon": 0.0, "fusion_lat": 0.0, "name": "fe7a52aab69a2edb283d6ea4a917b415", "type": "electric_scooter", "is_disabled": 0, "lat": 38.93115266666667, "rental_uris": {"android": "https://dc.lft.to/lastmile_qr_scan", "ios": "https://dc.lft.to/lastmile_qr_scan"}, "bike_id": "fe7a52aab69a2edb283d6ea4a917b415", "lon": -77.0303185}, {"is_reserved": 0, "fusion_lon": 0.0, "fusion_lat": 0.0, "name": "702b2c6fc1dc8b5c778b85282e1d7b8f", "type": "electric_scooter", "is_disabled": 0, "lat": 38.876833, "rental_uris": {"android": "https://dc.lft.to/lastmile_qr_scan", "ios": "https://dc.lft.to/lastmile_qr_scan"}, "bike_id": "702b2c6fc1dc8b5c778b85282e1d7b8f", "lon": -77.00407233333334}, {"is_reserved": 0, "fusion_lon": 0.0, "fusion_lat": 0.0, "name": "4044f5fb22953823cb1a5cc30f15dc3c", "type": "electric_scooter", "is_disabled": 0, "lat": 38.91494866666667, "rental_uris": {"android": "https://dc.lft.to/lastmile_qr_scan", "ios": "https://dc.lft.to/lastmile_qr_scan"}, "bike_id": "4044f5fb22953823cb1a5cc30f15dc3c", "lon": -77.01996366666667}, {"is_reserved": 0, "fusion_lon": 0.0, "fusion_lat": 0.0, "name": "164abd8be7bc0ca24bf03167eb8d6621", "type": "electric_scooter", "is_disabled": 0, "lat": 38.90733083333333, "rental_uris": {"android": "https://dc.lft.to/lastmile_qr_scan", "ios": "https://dc.lft.to/lastmile_qr_scan"}, "bike_id": "164abd8be7bc0ca24bf03167eb8d6621", "lon": -76.98630466666667}, {"is_reserved": 0, "fusion_lon": 0.0, "fusion_lat": 0.0, "name": "a56531911e1cec09a743456d83e05aa3", "type": "electric_scooter", "is_disabled": 0, "lat": 38.903777833333336, "rental_uris": {"android": "https://dc.lft.to/lastmile_qr_scan", "ios": "https://dc.lft.to/lastmile_qr_scan"}, "bike_id": "a56531911e1cec09a743456d83e05aa3", "lon": -77.04230366666667}, {"is_reserved": 0, "fusion_lon": 0.0, "fusion_lat": 0.0, "name": "862bdf4c19b3e5f56abb18eb16a7e07e", "type": "electric_scooter", "is_disabled": 0, "lat": 38.86381266666667, "rental_uris": {"android": "https://dc.lft.to/lastmile_qr_scan", "ios": "https://dc.lft.to/lastmile_qr_scan"}, "bike_id": "862bdf4c19b3e5f56abb18eb16a7e07e", "lon": -76.98925016666666}, {"is_reserved": 0, "fusion_lon": 0.0, "fusion_lat": 0.0, "name": "34c48000e3eeebfbf5162258ec1d9624", "type": "electric_scooter", "is_disabled": 0, "lat": 38.91868633333333, "rental_uris": {"android": "https://dc.lft.to/lastmile_qr_scan", "ios": "https://dc.lft.to/lastmile_qr_scan"}, "bike_id": "34c48000e3eeebfbf5162258ec1d9624", "lon": -77.04445983333333}, {"is_reserved": 0, "fusion_lon": 0.0, "fusion_lat": 0.0, "name": "a17b6017b546b29d328a1353bba928ff", "type": "electric_bike", "is_disabled": 0, "lat": 38.9621715, "rental_uris": {"android": "https://dc.lft.to/lastmile_qr_scan", "ios": "https://dc.lft.to/lastmile_qr_scan"}, "bike_id": "a17b6017b546b29d328a1353bba928ff", "lon": -77.02630633333334}, {"is_reserved": 0, "fusion_lon": 0.0, "fusion_lat": 0.0, "name": "e455fce542c0bc6d0c908163bdabdb18", "type": "electric_scooter", "is_disabled": 0, "lat": 38.9274645, "rental_uris": {"android": "https://dc.lft.to/lastmile_qr_scan", "ios": "https://dc.lft.to/lastmile_qr_scan"}, "bike_id": "e455fce542c0bc6d0c908163bdabdb18", "lon": -77.02534683333333}, {"is_reserved": 0, "fusion_lon": 0.0, "fusion_lat": 0.0, "name": "bf5ca496e537f161a7072fed538bed9f", "type": "electric_bike", "is_disabled": 0, "lat": 38.96469316666666, "rental_uris": {"android": "https://dc.lft.to/lastmile_qr_scan", "ios": "https://dc.lft.to/lastmile_qr_scan"}, "bike_id": "bf5ca496e537f161a7072fed538bed9f", "lon": -77.03561416666666}, {"is_reserved": 0, "fusion_lon": 0.0, "fusion_lat": 0.0, "name": "f36c6543539f40514e8c144206e508f2", "type": "electric_bike", "is_disabled": 0, "lat": 38.812022666666664, "rental_uris": {"android": "https://dc.lft.to/lastmile_qr_scan", "ios": "https://dc.lft.to/lastmile_qr_scan"}, "bike_id": "f36c6543539f40514e8c144206e508f2", "lon": -77.108394}, {"is_reserved": 0, "fusion_lon": 0.0, "fusion_lat": 0.0, "name": "da9cfe8a55dd2f359ece5c1a19ef07ed", "type": "electric_scooter", "is_disabled": 0, "lat": 38.90971616666667, "rental_uris": {"android": "https://dc.lft.to/lastmile_qr_scan", "ios": "https://dc.lft.to/lastmile_qr_scan"}, "bike_id": "da9cfe8a55dd2f359ece5c1a19ef07ed", "lon": -77.03439383333334}, {"is_reserved": 0, "fusion_lon": 0.0, "fusion_lat": 0.0, "name": "319a99884de335337c8197fc1e2cd8ac", "type": "electric_scooter", "is_disabled": 0, "lat": 38.90114233333333, "rental_uris": {"android": "https://dc.lft.to/lastmile_qr_scan", "ios": "https://dc.lft.to/lastmile_qr_scan"}, "bike_id": "319a99884de335337c8197fc1e2cd8ac", "lon": -77.03998816666666}, {"is_reserved": 0, "fusion_lon": 0.0, "fusion_lat": 0.0, "name": "e0e34505393780bf7d8a2d7a796f030b", "type": "electric_scooter", "is_disabled": 0, "lat": 38.90219416666667, "rental_uris": {"android": "https://dc.lft.to/lastmile_qr_scan", "ios": "https://dc.lft.to/lastmile_qr_scan"}, "bike_id": "e0e34505393780bf7d8a2d7a796f030b", "lon": -77.04387033333333}, {"is_reserved": 0, "fusion_lon": 0.0, "fusion_lat": 0.0, "name": "87047b87f5dd25240dab435a4a8d499f", "type": "electric_scooter", "is_disabled": 0, "lat": 38.905721166666666, "rental_uris": {"android": "https://dc.lft.to/lastmile_qr_scan", "ios": "https://dc.lft.to/lastmile_qr_scan"}, "bike_id": "87047b87f5dd25240dab435a4a8d499f", "lon": -77.04133966666667}, {"is_reserved": 0, "fusion_lon": 0.0, "fusion_lat": 0.0, "name": "a34410aece6d3254397a1f7bdeed90cb", "type": "electric_scooter", "is_disabled": 0, "lat": 38.89641666666667, "rental_uris": {"android": "https://dc.lft.to/lastmile_qr_scan", "ios": "https://dc.lft.to/lastmile_qr_scan"}, "bike_id": "a34410aece6d3254397a1f7bdeed90cb", "lon": -77.02196533333333}, {"is_reserved": 0, "fusion_lon": 0.0, "fusion_lat": 0.0, "name": "823b27756c9063a589e2d99f3bd6e112", "type": "electric_bike", "is_disabled": 0, "lat": 38.9489385, "rental_uris": {"android": "https://dc.lft.to/lastmile_qr_scan", "ios": "https://dc.lft.to/lastmile_qr_scan"}, "bike_id": "823b27756c9063a589e2d99f3bd6e112", "lon": -77.03446066666666}, {"is_reserved": 0, "fusion_lon": 0.0, "fusion_lat": 0.0, "name": "a2c7eac3095b71dd3fafe5fedafdbc4a", "type": "electric_scooter", "is_disabled": 0, "lat": 38.915809833333334, "rental_uris": {"android": "https://dc.lft.to/lastmile_qr_scan", "ios": "https://dc.lft.to/lastmile_qr_scan"}, "bike_id": "a2c7eac3095b71dd3fafe5fedafdbc4a", "lon": -77.03193483333334}, {"is_reserved": 0, "fusion_lon": 0.0, "fusion_lat": 0.0, "name": "fb2fa20391a21a432fd37ec03639fb6f", "type": "electric_scooter", "is_disabled": 0, "lat": 38.882066333333334, "rental_uris": {"android": "https://dc.lft.to/lastmile_qr_scan", "ios": "https://dc.lft.to/lastmile_qr_scan"}, "bike_id": "fb2fa20391a21a432fd37ec03639fb6f", "lon": -76.927008}, {"is_reserved": 0, "fusion_lon": 0.0, "fusion_lat": 0.0, "name": "42307693f3a5f7a400d10e9c3a336bc6", "type": "electric_scooter", "is_disabled": 0, "lat": 38.916828833333334, "rental_uris": {"android": "https://dc.lft.to/lastmile_qr_scan", "ios": "https://dc.lft.to/lastmile_qr_scan"}, "bike_id": "42307693f3a5f7a400d10e9c3a336bc6", "lon": -77.02970233333333}, {"is_reserved": 0, "fusion_lon": 0.0, "fusion_lat": 0.0, "name": "c791d1b2c1ddbb92897decbe757157db", "type": "electric_scooter", "is_disabled": 0, "lat": 38.89744533333333, "rental_uris": {"android": "https://dc.lft.to/lastmile_qr_scan", "ios": "https://dc.lft.to/lastmile_qr_scan"}, "bike_id": "c791d1b2c1ddbb92897decbe757157db", "lon": -77.020183}, {"is_reserved": 0, "fusion_lon": 0.0, "fusion_lat": 0.0, "name": "fd15f70e4123c2269b50b95d1fc388d1", "type": "electric_scooter", "is_disabled": 0, "lat": 38.90001783333334, "rental_uris": {"android": "https://dc.lft.to/lastmile_qr_scan", "ios": "https://dc.lft.to/lastmile_qr_scan"}, "bike_id": "fd15f70e4123c2269b50b95d1fc388d1", "lon": -77.03368616666667}, {"is_reserved": 0, "fusion_lon": 0.0, "fusion_lat": 0.0, "name": "69d01d4d8081d62aa828aeffcac1a45d", "type": "electric_scooter", "is_disabled": 0, "lat": 38.8922165, "rental_uris": {"android": "https://dc.lft.to/lastmile_qr_scan", "ios": "https://dc.lft.to/lastmile_qr_scan"}, "bike_id": "69d01d4d8081d62aa828aeffcac1a45d", "lon": -77.022265}, {"is_reserved": 0, "fusion_lon": 0.0, "fusion_lat": 0.0, "name": "122e23a57db462f0090438267360e6b3", "type": "electric_scooter", "is_disabled": 0, "lat": 38.917079666666666, "rental_uris": {"android": "https://dc.lft.to/lastmile_qr_scan", "ios": "https://dc.lft.to/lastmile_qr_scan"}, "bike_id": "122e23a57db462f0090438267360e6b3", "lon": -77.03864266666666}, {"is_reserved": 0, "fusion_lon": 0.0, "fusion_lat": 0.0, "name": "050f8a51cb1fe6413e6f0aeeb6d47e8e", "type": "electric_scooter", "is_disabled": 0, "lat": 38.896087666666666, "rental_uris": {"android": "https://dc.lft.to/lastmile_qr_scan", "ios": "https://dc.lft.to/lastmile_qr_scan"}, "bike_id": "050f8a51cb1fe6413e6f0aeeb6d47e8e", "lon": -77.02155933333333}, {"is_reserved": 0, "fusion_lon": 0.0, "fusion_lat": 0.0, "name": "821e4f87f0174f476e00b51f4acce85c", "type": "electric_scooter", "is_disabled": 0, "lat": 38.90534866666667, "rental_uris": {"android": "https://dc.lft.to/lastmile_qr_scan", "ios": "https://dc.lft.to/lastmile_qr_scan"}, "bike_id": "821e4f87f0174f476e00b51f4acce85c", "lon": -77.029664}, {"is_reserved": 0, "fusion_lon": 0.0, "fusion_lat": 0.0, "name": "f46340b483b0ac739b373ed8c3cf4f6e", "type": "electric_scooter", "is_disabled": 0, "lat": 38.88045016666667, "rental_uris": {"android": "https://dc.lft.to/lastmile_qr_scan", "ios": "https://dc.lft.to/lastmile_qr_scan"}, "bike_id": "f46340b483b0ac739b373ed8c3cf4f6e", "lon": -77.01999166666667}, {"is_reserved": 0, "fusion_lon": 0.0, "fusion_lat": 0.0, "name": "ee9c300d05019c54706529e8648768b3", "type": "electric_scooter", "is_disabled": 0, "lat": 38.902147, "rental_uris": {"android": "https://dc.lft.to/lastmile_qr_scan", "ios": "https://dc.lft.to/lastmile_qr_scan"}, "bike_id": "ee9c300d05019c54706529e8648768b3", "lon": -77.021729}, {"is_reserved": 0, "fusion_lon": 0.0, "fusion_lat": 0.0, "name": "e96e8b9a9a245ff75239f225ccb27871", "type": "electric_scooter", "is_disabled": 0, "lat": 38.938626, "rental_uris": {"android": "https://dc.lft.to/lastmile_qr_scan", "ios": "https://dc.lft.to/lastmile_qr_scan"}, "bike_id": "e96e8b9a9a245ff75239f225ccb27871", "lon": -77.02654116666666}, {"is_reserved": 0, "fusion_lon": 0.0, "fusion_lat": 0.0, "name": "4c32b349e054c7dd85e392289dfb2da7", "type": "electric_scooter", "is_disabled": 0, "lat": 38.89965, "rental_uris": {"android": "https://dc.lft.to/lastmile_qr_scan", "ios": "https://dc.lft.to/lastmile_qr_scan"}, "bike_id": "4c32b349e054c7dd85e392289dfb2da7", "lon": -77.03344466666667}, {"is_reserved": 0, "fusion_lon": 0.0, "fusion_lat": 0.0, "name": "fb12f767ceed4c52e4dfe7acbc951c7f", "type": "electric_scooter", "is_disabled": 0, "lat": 38.89891683333333, "rental_uris": {"android": "https://dc.lft.to/lastmile_qr_scan", "ios": "https://dc.lft.to/lastmile_qr_scan"}, "bike_id": "fb12f767ceed4c52e4dfe7acbc951c7f", "lon": -76.93398083333334}, {"is_reserved": 0, "fusion_lon": 0.0, "fusion_lat": 0.0, "name": "8c39734bebb00b05b536cce538791379", "type": "electric_scooter", "is_disabled": 0, "lat": 38.92902266666667, "rental_uris": {"android": "https://dc.lft.to/lastmile_qr_scan", "ios": "https://dc.lft.to/lastmile_qr_scan"}, "bike_id": "8c39734bebb00b05b536cce538791379", "lon": -77.032545}, {"is_reserved": 0, "fusion_lon": 0.0, "fusion_lat": 0.0, "name": "de85666b6a933b493fa32176ce92c1ab", "type": "electric_scooter", "is_disabled": 0, "lat": 38.90290683333333, "rental_uris": {"android": "https://dc.lft.to/lastmile_qr_scan", "ios": "https://dc.lft.to/lastmile_qr_scan"}, "bike_id": "de85666b6a933b493fa32176ce92c1ab", "lon": -77.04588816666667}, {"is_reserved": 0, "fusion_lon": 0.0, "fusion_lat": 0.0, "name": "1ac149da773132ece8e43993b9e131a1", "type": "electric_scooter", "is_disabled": 0, "lat": 38.923286833333336, "rental_uris": {"android": "https://dc.lft.to/lastmile_qr_scan", "ios": "https://dc.lft.to/lastmile_qr_scan"}, "bike_id": "1ac149da773132ece8e43993b9e131a1", "lon": -77.04320983333334}, {"is_reserved": 0, "fusion_lon": 0.0, "fusion_lat": 0.0, "name": "17f54de142fdcf932869cd4af7f97734", "type": "electric_scooter", "is_disabled": 0, "lat": 38.934812666666666, "rental_uris": {"android": "https://dc.lft.to/lastmile_qr_scan", "ios": "https://dc.lft.to/lastmile_qr_scan"}, "bike_id": "17f54de142fdcf932869cd4af7f97734", "lon": -77.0579475}, {"is_reserved": 0, "fusion_lon": 0.0, "fusion_lat": 0.0, "name": "15146222c592e6afdf1df6c3f3d9fb82", "type": "electric_scooter", "is_disabled": 0, "lat": 38.89351083333333, "rental_uris": {"android": "https://dc.lft.to/lastmile_qr_scan", "ios": "https://dc.lft.to/lastmile_qr_scan"}, "bike_id": "15146222c592e6afdf1df6c3f3d9fb82", "lon": -77.003308}, {"is_reserved": 0, "fusion_lon": 0.0, "fusion_lat": 0.0, "name": "f939c01abe1bce9782f25e3dadc24451", "type": "electric_scooter", "is_disabled": 0, "lat": 38.90332983333333, "rental_uris": {"android": "https://dc.lft.to/lastmile_qr_scan", "ios": "https://dc.lft.to/lastmile_qr_scan"}, "bike_id": "f939c01abe1bce9782f25e3dadc24451", "lon": -77.04345116666667}, {"is_reserved": 0, "fusion_lon": 0.0, "fusion_lat": 0.0, "name": "0f7f78d6efff86a678b399c8e75a7a09", "type": "electric_scooter", "is_disabled": 0, "lat": 38.920585333333335, "rental_uris": {"android": "https://dc.lft.to/lastmile_qr_scan", "ios": "https://dc.lft.to/lastmile_qr_scan"}, "bike_id": "0f7f78d6efff86a678b399c8e75a7a09", "lon": -77.025592}, {"is_reserved": 0, "fusion_lon": 0.0, "fusion_lat": 0.0, "name": "b0f12945aff62df4b9b179ec2fe77151", "type": "electric_scooter", "is_disabled": 0, "lat": 38.90571883333333, "rental_uris": {"android": "https://dc.lft.to/lastmile_qr_scan", "ios": "https://dc.lft.to/lastmile_qr_scan"}, "bike_id": "b0f12945aff62df4b9b179ec2fe77151", "lon": -77.00590216666667}, {"is_reserved": 0, "fusion_lon": 0.0, "fusion_lat": 0.0, "name": "6ce43f7b835be9fe8dfac5f156ff5359", "type": "electric_scooter", "is_disabled": 0, "lat": 38.907278833333336, "rental_uris": {"android": "https://dc.lft.to/lastmile_qr_scan", "ios": "https://dc.lft.to/lastmile_qr_scan"}, "bike_id": "6ce43f7b835be9fe8dfac5f156ff5359", "lon": -77.032718}, {"is_reserved": 0, "fusion_lon": 0.0, "fusion_lat": 0.0, "name": "7d5122d95f393ff997aa2f6fd2948fca", "type": "electric_scooter", "is_disabled": 0, "lat": 38.860592, "rental_uris": {"android": "https://dc.lft.to/lastmile_qr_scan", "ios": "https://dc.lft.to/lastmile_qr_scan"}, "bike_id": "7d5122d95f393ff997aa2f6fd2948fca", "lon": -76.98423316666667}, {"is_reserved": 0, "fusion_lon": 0.0, "fusion_lat": 0.0, "name": "a1818ce7265c13514e1b724ea3f78849", "type": "electric_bike", "is_disabled": 0, "lat": 38.8773075, "rental_uris": {"android": "https://dc.lft.to/lastmile_qr_scan", "ios": "https://dc.lft.to/lastmile_qr_scan"}, "bike_id": "a1818ce7265c13514e1b724ea3f78849", "lon": -76.98107066666667}, {"is_reserved": 0, "fusion_lon": 0.0, "fusion_lat": 0.0, "name": "d6a465b2cd51decc87cdc9e44c7a2e4b", "type": "electric_scooter", "is_disabled": 0, "lat": 38.91457616666667, "rental_uris": {"android": "https://dc.lft.to/lastmile_qr_scan", "ios": "https://dc.lft.to/lastmile_qr_scan"}, "bike_id": "d6a465b2cd51decc87cdc9e44c7a2e4b", "lon": -77.02287933333334}, {"is_reserved": 0, "fusion_lon": 0.0, "fusion_lat": 0.0, "name": "e64cf2cebbe976fe1cc38eb161f51f82", "type": "electric_scooter", "is_disabled": 0, "lat": 38.899281, "rental_uris": {"android": "https://dc.lft.to/lastmile_qr_scan", "ios": "https://dc.lft.to/lastmile_qr_scan"}, "bike_id": "e64cf2cebbe976fe1cc38eb161f51f82", "lon": -77.04014266666667}, {"is_reserved": 0, "fusion_lon": 0.0, "fusion_lat": 0.0, "name": "9393d037f95160f0c3217a2142838aa1", "type": "electric_scooter", "is_disabled": 0, "lat": 38.905554333333335, "rental_uris": {"android": "https://dc.lft.to/lastmile_qr_scan", "ios": "https://dc.lft.to/lastmile_qr_scan"}, "bike_id": "9393d037f95160f0c3217a2142838aa1", "lon": -77.02216766666666}, {"is_reserved": 0, "fusion_lon": 0.0, "fusion_lat": 0.0, "name": "7c68c29cc13709ccd867e01347770f96", "type": "electric_scooter", "is_disabled": 0, "lat": 38.900338833333336, "rental_uris": {"android": "https://dc.lft.to/lastmile_qr_scan", "ios": "https://dc.lft.to/lastmile_qr_scan"}, "bike_id": "7c68c29cc13709ccd867e01347770f96", "lon": -77.011881}, {"is_reserved": 0, "fusion_lon": 0.0, "fusion_lat": 0.0, "name": "e2b8b54ba97a764f5cf96bb90038e96a", "type": "electric_scooter", "is_disabled": 0, "lat": 38.88519733333333, "rental_uris": {"android": "https://dc.lft.to/lastmile_qr_scan", "ios": "https://dc.lft.to/lastmile_qr_scan"}, "bike_id": "e2b8b54ba97a764f5cf96bb90038e96a", "lon": -76.99630833333333}, {"is_reserved": 0, "fusion_lon": 0.0, "fusion_lat": 0.0, "name": "b1c86dc6a620aa343606e2663f6b7acc", "type": "electric_scooter", "is_disabled": 0, "lat": 38.923345, "rental_uris": {"android": "https://dc.lft.to/lastmile_qr_scan", "ios": "https://dc.lft.to/lastmile_qr_scan"}, "bike_id": "b1c86dc6a620aa343606e2663f6b7acc", "lon": -77.035014}, {"is_reserved": 0, "fusion_lon": 0.0, "fusion_lat": 0.0, "name": "2d675fbe33c66d5ac6d4bcab6fe87cb1", "type": "electric_scooter", "is_disabled": 0, "lat": 38.92689283333333, "rental_uris": {"android": "https://dc.lft.to/lastmile_qr_scan", "ios": "https://dc.lft.to/lastmile_qr_scan"}, "bike_id": "2d675fbe33c66d5ac6d4bcab6fe87cb1", "lon": -77.03776466666666}, {"is_reserved": 0, "fusion_lon": 0.0, "fusion_lat": 0.0, "name": "e14c0bb394727fa107392232e45cf8ee", "type": "electric_bike", "is_disabled": 0, "lat": 38.938679, "rental_uris": {"android": "https://dc.lft.to/lastmile_qr_scan", "ios": "https://dc.lft.to/lastmile_qr_scan"}, "bike_id": "e14c0bb394727fa107392232e45cf8ee", "lon": -76.9429175}, {"is_reserved": 0, "fusion_lon": 0.0, "fusion_lat": 0.0, "name": "b9b3f5bb19d2797cc61d813cabef2541", "type": "electric_scooter", "is_disabled": 0, "lat": 38.911115833333334, "rental_uris": {"android": "https://dc.lft.to/lastmile_qr_scan", "ios": "https://dc.lft.to/lastmile_qr_scan"}, "bike_id": "b9b3f5bb19d2797cc61d813cabef2541", "lon": -77.044674}, {"is_reserved": 0, "fusion_lon": 0.0, "fusion_lat": 0.0, "name": "41a9deed6feb7cec9a3bc65a6e1bbc74", "type": "electric_scooter", "is_disabled": 0, "lat": 38.884598833333335, "rental_uris": {"android": "https://dc.lft.to/lastmile_qr_scan", "ios": "https://dc.lft.to/lastmile_qr_scan"}, "bike_id": "41a9deed6feb7cec9a3bc65a6e1bbc74", "lon": -76.9262485}, {"is_reserved": 0, "fusion_lon": 0.0, "fusion_lat": 0.0, "name": "b8fb187887ae72241772ab6b7c18c606", "type": "electric_scooter", "is_disabled": 0, "lat": 38.9140595, "rental_uris": {"android": "https://dc.lft.to/lastmile_qr_scan", "ios": "https://dc.lft.to/lastmile_qr_scan"}, "bike_id": "b8fb187887ae72241772ab6b7c18c606", "lon": -77.0325505}, {"is_reserved": 0, "fusion_lon": 0.0, "fusion_lat": 0.0, "name": "5e3216361a3e36073bda194d1ba126d5", "type": "electric_scooter", "is_disabled": 0, "lat": 38.917018166666665, "rental_uris": {"android": "https://dc.lft.to/lastmile_qr_scan", "ios": "https://dc.lft.to/lastmile_qr_scan"}, "bike_id": "5e3216361a3e36073bda194d1ba126d5", "lon": -77.03047266666667}, {"is_reserved": 0, "fusion_lon": 0.0, "fusion_lat": 0.0, "name": "ca8d94d9583a8a829134a9ef783b70c6", "type": "electric_scooter", "is_disabled": 0, "lat": 38.928737, "rental_uris": {"android": "https://dc.lft.to/lastmile_qr_scan", "ios": "https://dc.lft.to/lastmile_qr_scan"}, "bike_id": "ca8d94d9583a8a829134a9ef783b70c6", "lon": -77.03337766666667}, {"is_reserved": 0, "fusion_lon": 0.0, "fusion_lat": 0.0, "name": "766bffa1966da9f49392832969a3b23f", "type": "electric_scooter", "is_disabled": 0, "lat": 38.872871833333335, "rental_uris": {"android": "https://dc.lft.to/lastmile_qr_scan", "ios": "https://dc.lft.to/lastmile_qr_scan"}, "bike_id": "766bffa1966da9f49392832969a3b23f", "lon": -77.009861}, {"is_reserved": 0, "fusion_lon": 0.0, "fusion_lat": 0.0, "name": "6d7c4c78f6400035b6f7e48dc78408a9", "type": "electric_scooter", "is_disabled": 0, "lat": 38.9051775, "rental_uris": {"android": "https://dc.lft.to/lastmile_qr_scan", "ios": "https://dc.lft.to/lastmile_qr_scan"}, "bike_id": "6d7c4c78f6400035b6f7e48dc78408a9", "lon": -77.05068616666667}, {"is_reserved": 0, "fusion_lon": 0.0, "fusion_lat": 0.0, "name": "45bfbdee855f6fff6b57bd1d4fb1d3ac", "type": "electric_bike", "is_disabled": 0, "lat": 38.962112166666664, "rental_uris": {"android": "https://dc.lft.to/lastmile_qr_scan", "ios": "https://dc.lft.to/lastmile_qr_scan"}, "bike_id": "45bfbdee855f6fff6b57bd1d4fb1d3ac", "lon": -77.02620033333334}, {"is_reserved": 0, "fusion_lon": 0.0, "fusion_lat": 0.0, "name": "ae84998928d767cf77b7a717e74af36f", "type": "electric_scooter", "is_disabled": 0, "lat": 38.886075, "rental_uris": {"android": "https://dc.lft.to/lastmile_qr_scan", "ios": "https://dc.lft.to/lastmile_qr_scan"}, "bike_id": "ae84998928d767cf77b7a717e74af36f", "lon": -76.9951085}, {"is_reserved": 0, "fusion_lon": 0.0, "fusion_lat": 0.0, "name": "0526391fd60a8151e19b58a42c6e775d", "type": "electric_bike", "is_disabled": 0, "lat": 38.812033666666665, "rental_uris": {"android": "https://dc.lft.to/lastmile_qr_scan", "ios": "https://dc.lft.to/lastmile_qr_scan"}, "bike_id": "0526391fd60a8151e19b58a42c6e775d", "lon": -77.10831816666666}, {"is_reserved": 0, "fusion_lon": 0.0, "fusion_lat": 0.0, "name": "6f148ad5715522923faeb5fa27e43ba8", "type": "electric_scooter", "is_disabled": 0, "lat": 38.896841, "rental_uris": {"android": "https://dc.lft.to/lastmile_qr_scan", "ios": "https://dc.lft.to/lastmile_qr_scan"}, "bike_id": "6f148ad5715522923faeb5fa27e43ba8", "lon": -77.00494933333333}, {"is_reserved": 0, "fusion_lon": 0.0, "fusion_lat": 0.0, "name": "04adcf87686f45af18ed967e6a404066", "type": "electric_scooter", "is_disabled": 0, "lat": 38.918159333333335, "rental_uris": {"android": "https://dc.lft.to/lastmile_qr_scan", "ios": "https://dc.lft.to/lastmile_qr_scan"}, "bike_id": "04adcf87686f45af18ed967e6a404066", "lon": -77.02585266666667}, {"is_reserved": 0, "fusion_lon": 0.0, "fusion_lat": 0.0, "name": "1c8a8ca2477e7740cb7525d32318c26e", "type": "electric_scooter", "is_disabled": 0, "lat": 38.931181, "rental_uris": {"android": "https://dc.lft.to/lastmile_qr_scan", "ios": "https://dc.lft.to/lastmile_qr_scan"}, "bike_id": "1c8a8ca2477e7740cb7525d32318c26e", "lon": -77.02362766666667}, {"is_reserved": 0, "fusion_lon": 0.0, "fusion_lat": 0.0, "name": "2531d74b7126827c8a8398165958f08a", "type": "electric_scooter", "is_disabled": 0, "lat": 38.9548555, "rental_uris": {"android": "https://dc.lft.to/lastmile_qr_scan", "ios": "https://dc.lft.to/lastmile_qr_scan"}, "bike_id": "2531d74b7126827c8a8398165958f08a", "lon": -76.98874016666667}, {"is_reserved": 0, "fusion_lon": 0.0, "fusion_lat": 0.0, "name": "ec190b870fa3296c233efda0ad46b09a", "type": "electric_scooter", "is_disabled": 0, "lat": 38.913978666666665, "rental_uris": {"android": "https://dc.lft.to/lastmile_qr_scan", "ios": "https://dc.lft.to/lastmile_qr_scan"}, "bike_id": "ec190b870fa3296c233efda0ad46b09a", "lon": -77.021847}, {"is_reserved": 0, "fusion_lon": 0.0, "fusion_lat": 0.0, "name": "4debbae8ece97843063bacfb5b999693", "type": "electric_scooter", "is_disabled": 0, "lat": 38.922279333333336, "rental_uris": {"android": "https://dc.lft.to/lastmile_qr_scan", "ios": "https://dc.lft.to/lastmile_qr_scan"}, "bike_id": "4debbae8ece97843063bacfb5b999693", "lon": -77.04495083333333}, {"is_reserved": 0, "fusion_lon": 0.0, "fusion_lat": 0.0, "name": "c84966a25d2ee45e4d7f43065266196e", "type": "electric_scooter", "is_disabled": 0, "lat": 38.892189, "rental_uris": {"android": "https://dc.lft.to/lastmile_qr_scan", "ios": "https://dc.lft.to/lastmile_qr_scan"}, "bike_id": "c84966a25d2ee45e4d7f43065266196e", "lon": -77.02349766666667}, {"is_reserved": 0, "fusion_lon": 0.0, "fusion_lat": 0.0, "name": "5e51c07c9d6bb4aeab7a88aa763bb354", "type": "electric_scooter", "is_disabled": 0, "lat": 38.893690666666664, "rental_uris": {"android": "https://dc.lft.to/lastmile_qr_scan", "ios": "https://dc.lft.to/lastmile_qr_scan"}, "bike_id": "5e51c07c9d6bb4aeab7a88aa763bb354", "lon": -77.04777733333333}, {"is_reserved": 0, "fusion_lon": 0.0, "fusion_lat": 0.0, "name": "224ad6b3b8c1102e743fa4af9ae7c0d3", "type": "electric_scooter", "is_disabled": 0, "lat": 38.920321333333334, "rental_uris": {"android": "https://dc.lft.to/lastmile_qr_scan", "ios": "https://dc.lft.to/lastmile_qr_scan"}, "bike_id": "224ad6b3b8c1102e743fa4af9ae7c0d3", "lon": -76.98487216666666}, {"is_reserved": 0, "fusion_lon": 0.0, "fusion_lat": 0.0, "name": "0adbb901c45de4c1ee1aa8f3477d0896", "type": "electric_scooter", "is_disabled": 0, "lat": 38.892238166666665, "rental_uris": {"android": "https://dc.lft.to/lastmile_qr_scan", "ios": "https://dc.lft.to/lastmile_qr_scan"}, "bike_id": "0adbb901c45de4c1ee1aa8f3477d0896", "lon": -77.04863966666667}, {"is_reserved": 0, "fusion_lon": 0.0, "fusion_lat": 0.0, "name": "083ecf8f8d357f47affd43d2b0fbf841", "type": "electric_scooter", "is_disabled": 0, "lat": 38.88492933333333, "rental_uris": {"android": "https://dc.lft.to/lastmile_qr_scan", "ios": "https://dc.lft.to/lastmile_qr_scan"}, "bike_id": "083ecf8f8d357f47affd43d2b0fbf841", "lon": -77.00716366666667}, {"is_reserved": 0, "fusion_lon": 0.0, "fusion_lat": 0.0, "name": "bd339a5dbced85bb051885c9ff775f8a", "type": "electric_scooter", "is_disabled": 0, "lat": 38.926127, "rental_uris": {"android": "https://dc.lft.to/lastmile_qr_scan", "ios": "https://dc.lft.to/lastmile_qr_scan"}, "bike_id": "bd339a5dbced85bb051885c9ff775f8a", "lon": -77.02161433333333}, {"is_reserved": 0, "fusion_lon": 0.0, "fusion_lat": 0.0, "name": "0de7cc6b843ff6501400ede1873dfd58", "type": "electric_scooter", "is_disabled": 0, "lat": 38.88301233333333, "rental_uris": {"android": "https://dc.lft.to/lastmile_qr_scan", "ios": "https://dc.lft.to/lastmile_qr_scan"}, "bike_id": "0de7cc6b843ff6501400ede1873dfd58", "lon": -77.0314235}, {"is_reserved": 0, "fusion_lon": 0.0, "fusion_lat": 0.0, "name": "f4c922122f2c4c7728f4a025a65edede", "type": "electric_scooter", "is_disabled": 0, "lat": 38.93819833333333, "rental_uris": {"android": "https://dc.lft.to/lastmile_qr_scan", "ios": "https://dc.lft.to/lastmile_qr_scan"}, "bike_id": "f4c922122f2c4c7728f4a025a65edede", "lon": -77.03385216666666}, {"is_reserved": 0, "fusion_lon": 0.0, "fusion_lat": 0.0, "name": "5f55466f39815141262d9f4140dc2f76", "type": "electric_scooter", "is_disabled": 0, "lat": 38.88707333333333, "rental_uris": {"android": "https://dc.lft.to/lastmile_qr_scan", "ios": "https://dc.lft.to/lastmile_qr_scan"}, "bike_id": "5f55466f39815141262d9f4140dc2f76", "lon": -77.01365433333333}, {"is_reserved": 0, "fusion_lon": 0.0, "fusion_lat": 0.0, "name": "2b078794db9d432358005fe00fdc549d", "type": "electric_scooter", "is_disabled": 0, "lat": 38.923095833333335, "rental_uris": {"android": "https://dc.lft.to/lastmile_qr_scan", "ios": "https://dc.lft.to/lastmile_qr_scan"}, "bike_id": "2b078794db9d432358005fe00fdc549d", "lon": -77.03118783333333}, {"is_reserved": 0, "fusion_lon": 0.0, "fusion_lat": 0.0, "name": "d98a24a154bd3ed7ac6de591a4c663dc", "type": "electric_scooter", "is_disabled": 0, "lat": 38.870716, "rental_uris": {"android": "https://dc.lft.to/lastmile_qr_scan", "ios": "https://dc.lft.to/lastmile_qr_scan"}, "bike_id": "d98a24a154bd3ed7ac6de591a4c663dc", "lon": -76.98903883333334}, {"is_reserved": 0, "fusion_lon": 0.0, "fusion_lat": 0.0, "name": "888d2ad3fb92a478d96c87e89af14421", "type": "electric_scooter", "is_disabled": 0, "lat": 38.93190033333333, "rental_uris": {"android": "https://dc.lft.to/lastmile_qr_scan", "ios": "https://dc.lft.to/lastmile_qr_scan"}, "bike_id": "888d2ad3fb92a478d96c87e89af14421", "lon": -77.0413715}, {"is_reserved": 0, "fusion_lon": 0.0, "fusion_lat": 0.0, "name": "80123ec6fa4841707230b16bca4a452b", "type": "electric_scooter", "is_disabled": 0, "lat": 38.89223616666666, "rental_uris": {"android": "https://dc.lft.to/lastmile_qr_scan", "ios": "https://dc.lft.to/lastmile_qr_scan"}, "bike_id": "80123ec6fa4841707230b16bca4a452b", "lon": -77.0233795}, {"is_reserved": 0, "fusion_lon": 0.0, "fusion_lat": 0.0, "name": "e446d70f33940bc73b265b19f8bd007f", "type": "electric_scooter", "is_disabled": 0, "lat": 38.90633483333333, "rental_uris": {"android": "https://dc.lft.to/lastmile_qr_scan", "ios": "https://dc.lft.to/lastmile_qr_scan"}, "bike_id": "e446d70f33940bc73b265b19f8bd007f", "lon": -77.03917633333333}, {"is_reserved": 0, "fusion_lon": 0.0, "fusion_lat": 0.0, "name": "3e494987ae8811036d48b0d815717f26", "type": "electric_scooter", "is_disabled": 0, "lat": 38.9181745, "rental_uris": {"android": "https://dc.lft.to/lastmile_qr_scan", "ios": "https://dc.lft.to/lastmile_qr_scan"}, "bike_id": "3e494987ae8811036d48b0d815717f26", "lon": -77.032489}, {"is_reserved": 0, "fusion_lon": 0.0, "fusion_lat": 0.0, "name": "6c04c9d707898be3515d35f4e268d1ad", "type": "electric_scooter", "is_disabled": 0, "lat": 38.91950933333333, "rental_uris": {"android": "https://dc.lft.to/lastmile_qr_scan", "ios": "https://dc.lft.to/lastmile_qr_scan"}, "bike_id": "6c04c9d707898be3515d35f4e268d1ad", "lon": -77.01385883333333}, {"is_reserved": 0, "fusion_lon": 0.0, "fusion_lat": 0.0, "name": "b0eb6082d1f8b2fec6cafb714c9ff6e6", "type": "electric_scooter", "is_disabled": 0, "lat": 38.9156715, "rental_uris": {"android": "https://dc.lft.to/lastmile_qr_scan", "ios": "https://dc.lft.to/lastmile_qr_scan"}, "bike_id": "b0eb6082d1f8b2fec6cafb714c9ff6e6", "lon": -77.03185966666666}, {"is_reserved": 0, "fusion_lon": 0.0, "fusion_lat": 0.0, "name": "2c6f06f88aad5e99184aaab8a3ba1d72", "type": "electric_scooter", "is_disabled": 0, "lat": 38.88264133333333, "rental_uris": {"android": "https://dc.lft.to/lastmile_qr_scan", "ios": "https://dc.lft.to/lastmile_qr_scan"}, "bike_id": "2c6f06f88aad5e99184aaab8a3ba1d72", "lon": -77.00593316666667}, {"is_reserved": 0, "fusion_lon": 0.0, "fusion_lat": 0.0, "name": "30112af210a5c3c0ef8de592520a7721", "type": "electric_scooter", "is_disabled": 0, "lat": 38.916140666666664, "rental_uris": {"android": "https://dc.lft.to/lastmile_qr_scan", "ios": "https://dc.lft.to/lastmile_qr_scan"}, "bike_id": "30112af210a5c3c0ef8de592520a7721", "lon": -77.02304766666667}, {"is_reserved": 0, "fusion_lon": 0.0, "fusion_lat": 0.0, "name": "dc252d75667ec42e28858f2ecc1958bf", "type": "electric_scooter", "is_disabled": 0, "lat": 38.9246965, "rental_uris": {"android": "https://dc.lft.to/lastmile_qr_scan", "ios": "https://dc.lft.to/lastmile_qr_scan"}, "bike_id": "dc252d75667ec42e28858f2ecc1958bf", "lon": -77.02200166666667}, {"is_reserved": 0, "fusion_lon": 0.0, "fusion_lat": 0.0, "name": "253dbf2d756f678543c64a9f70585f2b", "type": "electric_scooter", "is_disabled": 0, "lat": 38.94517833333333, "rental_uris": {"android": "https://dc.lft.to/lastmile_qr_scan", "ios": "https://dc.lft.to/lastmile_qr_scan"}, "bike_id": "253dbf2d756f678543c64a9f70585f2b", "lon": -77.01977283333333}, {"is_reserved": 0, "fusion_lon": 0.0, "fusion_lat": 0.0, "name": "be980e7f216f76051b59ca5e39550c1f", "type": "electric_scooter", "is_disabled": 0, "lat": 38.898900166666664, "rental_uris": {"android": "https://dc.lft.to/lastmile_qr_scan", "ios": "https://dc.lft.to/lastmile_qr_scan"}, "bike_id": "be980e7f216f76051b59ca5e39550c1f", "lon": -77.04873816666667}, {"is_reserved": 0, "fusion_lon": 0.0, "fusion_lat": 0.0, "name": "2b271fd25303d988f05013d4e1b2b7e6", "type": "electric_scooter", "is_disabled": 0, "lat": 38.89870633333334, "rental_uris": {"android": "https://dc.lft.to/lastmile_qr_scan", "ios": "https://dc.lft.to/lastmile_qr_scan"}, "bike_id": "2b271fd25303d988f05013d4e1b2b7e6", "lon": -77.01372866666667}, {"is_reserved": 0, "fusion_lon": 0.0, "fusion_lat": 0.0, "name": "50d2ad10f410dab19312d7e37ebbdd22", "type": "electric_scooter", "is_disabled": 0, "lat": 38.90622916666667, "rental_uris": {"android": "https://dc.lft.to/lastmile_qr_scan", "ios": "https://dc.lft.to/lastmile_qr_scan"}, "bike_id": "50d2ad10f410dab19312d7e37ebbdd22", "lon": -77.04772983333334}, {"is_reserved": 0, "fusion_lon": 0.0, "fusion_lat": 0.0, "name": "f79f63f1c79abdb5b9f621ddecc81ee7", "type": "electric_scooter", "is_disabled": 0, "lat": 38.90800766666667, "rental_uris": {"android": "https://dc.lft.to/lastmile_qr_scan", "ios": "https://dc.lft.to/lastmile_qr_scan"}, "bike_id": "f79f63f1c79abdb5b9f621ddecc81ee7", "lon": -77.023827}, {"is_reserved": 0, "fusion_lon": 0.0, "fusion_lat": 0.0, "name": "ef6c86b702213b698b57058431b081e9", "type": "electric_bike", "is_disabled": 0, "lat": 38.947862, "rental_uris": {"android": "https://dc.lft.to/lastmile_qr_scan", "ios": "https://dc.lft.to/lastmile_qr_scan"}, "bike_id": "ef6c86b702213b698b57058431b081e9", "lon": -76.972107},