{"data": {"bikes": [{"bike_id": "340865ce3dd11d051e6d65960835b943", "type": "electric_scooter", "is_disabled": 0, "lat": 38.91951533333334, "rental_uris": {"ios": "https://dc.lft.to/lastmile_qr_scan", "android": "https://dc.lft.to/lastmile_qr_scan"}, "is_reserved": 0, "fusion_lon": 0.0, "fusion_lat": 0.0, "lon": -77.04492883333333, "name": "340865ce3dd11d051e6d65960835b943"}, {"bike_id": "49028c8e52957e25244d32f459d2f43e", "type": "electric_scooter", "is_disabled": 0, "lat": 38.90962916666667, "rental_uris": {"ios": "https://dc.lft.to/lastmile_qr_scan", "android": "https://dc.lft.to/lastmile_qr_scan"}, "is_reserved": 0, "fusion_lon": 0.0, "fusion_lat": 0.0, "lon": -77.04545666666667, "name": "49028c8e52957e25244d32f459d2f43e"}, {"bike_id": "bcd1f3ae0a178629b6d6f8af3b077604", "type": "electric_bike", "is_disabled": 0, "lat": 38.831553, "rental_uris": {"ios": "https://dc.lft.to/lastmile_qr_scan", "android": "https://dc.lft.to/lastmile_qr_scan"}, "is_reserved": 0, "fusion_lon": 0.0, "fusion_lat": 0.0, "lon": -76.99545766666667, "name": "bcd1f3ae0a178629b6d6f8af3b077604"}, {"bike_id": "a81f07e307f14c975003b72842dfd408", "type": "electric_scooter", "is_disabled": 0, "lat": 38.90067033333333, "rental_uris": {"ios": "https://dc.lft.to/lastmile_qr_scan", "android": "https://dc.lft.to/lastmile_qr_scan"}, "is_reserved": 0, "fusion_lon": 0.0, "fusion_lat": 0.0, "lon": -77.03076566666667, "name": "a81f07e307f14c975003b72842dfd408"}, {"bike_id": "5551067b72445bac36c4d1fd6d3a9a7b", "type": "electric_scooter", "is_disabled": 0, "lat": 38.92048533333333, "rental_uris": {"ios": "https://dc.lft.to/lastmile_qr_scan", "android": "https://dc.lft.to/lastmile_qr_scan"}, "is_reserved": 0, "fusion_lon": 0.0, "fusion_lat": 0.0, "lon": -77.03406616666666, "name": "5551067b72445bac36c4d1fd6d3a9a7b"}, {"bike_id": "4abe5d0a79e7b52c36ed13af4244e2e8", "type": "electric_scooter", "is_disabled": 0, "lat": 38.91563383333333, "rental_uris": {"ios": "https://dc.lft.to/lastmile_qr_scan", "android": "https://dc.lft.to/lastmile_qr_scan"}, "is_reserved": 0, "fusion_lon": 0.0, "fusion_lat": 0.0, "lon": -77.03125416666667, "name": "4abe5d0a79e7b52c36ed13af4244e2e8"}, {"bike_id": "dbde2b8094349364bfe463b399123b6c", "type": "electric_scooter", "is_disabled": 0, "lat": 38.904997333333334, "rental_uris": {"ios": "https://dc.lft.to/lastmile_qr_scan", "android": "https://dc.lft.to/lastmile_qr_scan"}, "is_reserved": 0, "fusion_lon": 0.0, "fusion_lat": 0.0, "lon": -77.06885616666666, "name": "dbde2b8094349364bfe463b399123b6c"}, {"bike_id": "341549845d53a5a6a13eb559799dbec7", "type": "electric_scooter", "is_disabled": 0, "lat": 38.905266833333336, "rental_uris": {"ios": "https://dc.lft.to/lastmile_qr_scan", "android": "https://dc.lft.to/lastmile_qr_scan"}, "is_reserved": 0, "fusion_lon": 0.0, "fusion_lat": 0.0, "lon": -77.065089, "name": "341549845d53a5a6a13eb559799dbec7"}, {"bike_id": "0b1ed56ca023fbdaa46c369b388479b0", "type": "electric_scooter", "is_disabled": 0, "lat": 38.908712333333334, "rental_uris": {"ios": "https://dc.lft.to/lastmile_qr_scan", "android": "https://dc.lft.to/lastmile_qr_scan"}, "is_reserved": 0, "fusion_lon": 0.0, "fusion_lat": 0.0, "lon": -76.9981805, "name": "0b1ed56ca023fbdaa46c369b388479b0"}, {"bike_id": "ffad7356dcb52e27b073946addc42061", "type": "electric_scooter", "is_disabled": 0, "lat": 38.91824, "rental_uris": {"ios": "https://dc.lft.to/lastmile_qr_scan", "android": "https://dc.lft.to/lastmile_qr_scan"}, "is_reserved": 0, "fusion_lon": 0.0, "fusion_lat": 0.0, "lon": -77.049459, "name": "ffad7356dcb52e27b073946addc42061"}, {"bike_id": "053bb06dfabb9d7d8a1ceec64f430376", "type": "electric_scooter", "is_disabled": 0, "lat": 38.943048, "rental_uris": {"ios": "https://dc.lft.to/lastmile_qr_scan", "android": "https://dc.lft.to/lastmile_qr_scan"}, "is_reserved": 0, "fusion_lon": 0.0, "fusion_lat": 0.0, "lon": -77.06207083333334, "name": "053bb06dfabb9d7d8a1ceec64f430376"}, {"bike_id": "a6430e0df2a1a09c66e2562f14302a0b", "type": "electric_scooter", "is_disabled": 0, "lat": 38.909570333333335, "rental_uris": {"ios": "https://dc.lft.to/lastmile_qr_scan", "android": "https://dc.lft.to/lastmile_qr_scan"}, "is_reserved": 0, "fusion_lon": 0.0, "fusion_lat": 0.0, "lon": -77.0363895, "name": "a6430e0df2a1a09c66e2562f14302a0b"}, {"bike_id": "6d955c59b07a1c0d88e46aadad0249be", "type": "electric_scooter", "is_disabled": 0, "lat": 38.921862833333336, "rental_uris": {"ios": "https://dc.lft.to/lastmile_qr_scan", "android": "https://dc.lft.to/lastmile_qr_scan"}, "is_reserved": 0, "fusion_lon": 0.0, "fusion_lat": 0.0, "lon": -77.01969983333333, "name": "6d955c59b07a1c0d88e46aadad0249be"}, {"bike_id": "004eced659932eb0f6c737c88ddeef51", "type": "electric_scooter", "is_disabled": 0, "lat": 38.92208633333333, "rental_uris": {"ios": "https://dc.lft.to/lastmile_qr_scan", "android": "https://dc.lft.to/lastmile_qr_scan"}, "is_reserved": 0, "fusion_lon": 0.0, "fusion_lat": 0.0, "lon": -77.032939, "name": "004eced659932eb0f6c737c88ddeef51"}, {"bike_id": "bc50e41569d7b55460f46fe0fef16019", "type": "electric_scooter", "is_disabled": 0, "lat": 38.8762585, "rental_uris": {"ios": "https://dc.lft.to/lastmile_qr_scan", "android": "https://dc.lft.to/lastmile_qr_scan"}, "is_reserved": 0, "fusion_lon": 0.0, "fusion_lat": 0.0, "lon": -77.000758, "name": "bc50e41569d7b55460f46fe0fef16019"}, {"bike_id": "f2b433dca6494e87c882516ebf71b0bc", "type": "electric_scooter", "is_disabled": 0, "lat": 38.918383, "rental_uris": {"ios": "https://dc.lft.to/lastmile_qr_scan", "android": "https://dc.lft.to/lastmile_qr_scan"}, "is_reserved": 0, "fusion_lon": 0.0, "fusion_lat": 0.0, "lon": -76.96555266666667, "name": "f2b433dca6494e87c882516ebf71b0bc"}, {"bike_id": "f216fd37675718c31e1d1141f964dad4", "type": "electric_scooter", "is_disabled": 0, "lat": 38.92832516666667, "rental_uris": {"ios": "https://dc.lft.to/lastmile_qr_scan", "android": "https://dc.lft.to/lastmile_qr_scan"}, "is_reserved": 0, "fusion_lon": 0.0, "fusion_lat": 0.0, "lon": -77.05519316666667, "name": "f216fd37675718c31e1d1141f964dad4"}, {"bike_id": "84b955c08798feba8161cc87b62595d5", "type": "electric_scooter", "is_disabled": 0, "lat": 38.911099666666665, "rental_uris": {"ios": "https://dc.lft.to/lastmile_qr_scan", "android": "https://dc.lft.to/lastmile_qr_scan"}, "is_reserved": 0, "fusion_lon": 0.0, "fusion_lat": 0.0, "lon": -77.03789333333333, "name": "84b955c08798feba8161cc87b62595d5"}, {"bike_id": "ec503f1c931755d598a304b587ea070e", "type": "electric_scooter", "is_disabled": 0, "lat": 38.91746916666666, "rental_uris": {"ios": "https://dc.lft.to/lastmile_qr_scan", "android": "https://dc.lft.to/lastmile_qr_scan"}, "is_reserved": 0, "fusion_lon": 0.0, "fusion_lat": 0.0, "lon": -77.03861083333334, "name": "ec503f1c931755d598a304b587ea070e"}, {"bike_id": "dc8d9ac5c8c8c1323ff62e8941a6eea5", "type": "electric_scooter", "is_disabled": 0, "lat": 38.89468083333333, "rental_uris": {"ios": "https://dc.lft.to/lastmile_qr_scan", "android": "https://dc.lft.to/lastmile_qr_scan"}, "is_reserved": 0, "fusion_lon": 0.0, "fusion_lat": 0.0, "lon": -77.019945, "name": "dc8d9ac5c8c8c1323ff62e8941a6eea5"}, {"bike_id": "50f5da5e97b3f213979b16d74fbc2ea2", "type": "electric_scooter", "is_disabled": 0, "lat": 38.89218783333333, "rental_uris": {"ios": "https://dc.lft.to/lastmile_qr_scan", "android": "https://dc.lft.to/lastmile_qr_scan"}, "is_reserved": 0, "fusion_lon": 0.0, "fusion_lat": 0.0, "lon": -77.02609416666667, "name": "50f5da5e97b3f213979b16d74fbc2ea2"}, {"bike_id": "963472c62b1e2c10ac76863744e33cf9", "type": "electric_scooter", "is_disabled": 0, "lat": 38.90319016666667, "rental_uris": {"ios": "https://dc.lft.to/lastmile_qr_scan", "android": "https://dc.lft.to/lastmile_qr_scan"}, "is_reserved": 0, "fusion_lon": 0.0, "fusion_lat": 0.0, "lon": -77.05185816666666, "name": "963472c62b1e2c10ac76863744e33cf9"}, {"bike_id": "7d55657961c76198678575e924ebf3fe", "type": "electric_scooter", "is_disabled": 0, "lat": 38.90969716666667, "rental_uris": {"ios": "https://dc.lft.to/lastmile_qr_scan", "android": "https://dc.lft.to/lastmile_qr_scan"}, "is_reserved": 0, "fusion_lon": 0.0, "fusion_lat": 0.0, "lon": -77.03859466666667, "name": "7d55657961c76198678575e924ebf3fe"}, {"bike_id": "8f5a958a1d71457b2d811936f8e6aea6", "type": "electric_bike", "is_disabled": 0, "lat": 38.897401, "rental_uris": {"ios": "https://dc.lft.to/lastmile_qr_scan", "android": "https://dc.lft.to/lastmile_qr_scan"}, "is_reserved": 0, "fusion_lon": 0.0, "fusion_lat": 0.0, "lon": -76.92048816666667, "name": "8f5a958a1d71457b2d811936f8e6aea6"}, {"bike_id": "1b69b1d7463a9a8021b870aa4d933392", "type": "electric_scooter", "is_disabled": 0, "lat": 38.9279335, "rental_uris": {"ios": "https://dc.lft.to/lastmile_qr_scan", "android": "https://dc.lft.to/lastmile_qr_scan"}, "is_reserved": 0, "fusion_lon": 0.0, "fusion_lat": 0.0, "lon": -77.04338083333333, "name": "1b69b1d7463a9a8021b870aa4d933392"}, {"bike_id": "ba821ad53c282334aaf18f71bf5d58e0", "type": "electric_scooter", "is_disabled": 0, "lat": 38.915989833333335, "rental_uris": {"ios": "https://dc.lft.to/lastmile_qr_scan", "android": "https://dc.lft.to/lastmile_qr_scan"}, "is_reserved": 0, "fusion_lon": 0.0, "fusion_lat": 0.0, "lon": -77.00197066666667, "name": "ba821ad53c282334aaf18f71bf5d58e0"}, {"bike_id": "c1a1a7ba831bf9fc288d2ecef030ef4d", "type": "electric_scooter", "is_disabled": 0, "lat": 38.923238, "rental_uris": {"ios": "https://dc.lft.to/lastmile_qr_scan", "android": "https://dc.lft.to/lastmile_qr_scan"}, "is_reserved": 0, "fusion_lon": 0.0, "fusion_lat": 0.0, "lon": -77.02980916666667, "name": "c1a1a7ba831bf9fc288d2ecef030ef4d"}, {"bike_id": "9c52e91e6ac83c082f75e039e17e879f", "type": "electric_scooter", "is_disabled": 0, "lat": 38.915518666666664, "rental_uris": {"ios": "https://dc.lft.to/lastmile_qr_scan", "android": "https://dc.lft.to/lastmile_qr_scan"}, "is_reserved": 0, "fusion_lon": 0.0, "fusion_lat": 0.0, "lon": -77.03323433333334, "name": "9c52e91e6ac83c082f75e039e17e879f"}, {"bike_id": "c73c3c63636f9db559727c746579093f", "type": "electric_scooter", "is_disabled": 0, "lat": 38.921409833333335, "rental_uris": {"ios": "https://dc.lft.to/lastmile_qr_scan", "android": "https://dc.lft.to/lastmile_qr_scan"}, "is_reserved": 0, "fusion_lon": 0.0, "fusion_lat": 0.0, "lon": -77.03443116666666, "name": "c73c3c63636f9db559727c746579093f"}, {"bike_id": "ad84de4a8af32216af463de058f1ac81", "type": "electric_scooter", "is_disabled": 0, "lat": 38.91217866666667, "rental_uris": {"ios": "https://dc.lft.to/lastmile_qr_scan", "android": "https://dc.lft.to/lastmile_qr_scan"}, "is_reserved": 0, "fusion_lon": 0.0, "fusion_lat": 0.0, "lon": -77.02716833333334, "name": "ad84de4a8af32216af463de058f1ac81"}, {"bike_id": "99d85e33893145c8650edcd0474368be", "type": "electric_scooter", "is_disabled": 0, "lat": 38.91913183333333, "rental_uris": {"ios": "https://dc.lft.to/lastmile_qr_scan", "android": "https://dc.lft.to/lastmile_qr_scan"}, "is_reserved": 0, "fusion_lon": 0.0, "fusion_lat": 0.0, "lon": -77.03029383333333, "name": "99d85e33893145c8650edcd0474368be"}, {"bike_id": "720ce87e2dbc9e33820bf372518f5d17", "type": "electric_scooter", "is_disabled": 0, "lat": 38.914024166666664, "rental_uris": {"ios": "https://dc.lft.to/lastmile_qr_scan", "android": "https://dc.lft.to/lastmile_qr_scan"}, "is_reserved": 0, "fusion_lon": 0.0, "fusion_lat": 0.0, "lon": -77.03997833333334, "name": "720ce87e2dbc9e33820bf372518f5d17"}, {"bike_id": "7336eebdb829529f008f7a72f08db566", "type": "electric_scooter", "is_disabled": 0, "lat": 38.928679, "rental_uris": {"ios": "https://dc.lft.to/lastmile_qr_scan", "android": "https://dc.lft.to/lastmile_qr_scan"}, "is_reserved": 0, "fusion_lon": 0.0, "fusion_lat": 0.0, "lon": -77.0329735, "name": "7336eebdb829529f008f7a72f08db566"}, {"bike_id": "c897eb1136ee0f8081a91334aafb3a92", "type": "electric_scooter", "is_disabled": 0, "lat": 38.927045666666665, "rental_uris": {"ios": "https://dc.lft.to/lastmile_qr_scan", "android": "https://dc.lft.to/lastmile_qr_scan"}, "is_reserved": 0, "fusion_lon": 0.0, "fusion_lat": 0.0, "lon": -77.02073616666667, "name": "c897eb1136ee0f8081a91334aafb3a92"}, {"bike_id": "21234ac843c256fad1cf29b02cea08db", "type": "electric_scooter", "is_disabled": 0, "lat": 38.923559833333336, "rental_uris": {"ios": "https://dc.lft.to/lastmile_qr_scan", "android": "https://dc.lft.to/lastmile_qr_scan"}, "is_reserved": 0, "fusion_lon": 0.0, "fusion_lat": 0.0, "lon": -77.07643216666666, "name": "21234ac843c256fad1cf29b02cea08db"}, {"bike_id": "f71cbb563e9a567768e63a81ee6d4d4b", "type": "electric_bike", "is_disabled": 0, "lat": 38.96954983333333, "rental_uris": {"ios": "https://dc.lft.to/lastmile_qr_scan", "android": "https://dc.lft.to/lastmile_qr_scan"}, "is_reserved": 0, "fusion_lon": 0.0, "fusion_lat": 0.0, "lon": -76.957529, "name": "f71cbb563e9a567768e63a81ee6d4d4b"}, {"bike_id": "8837124ab72b6085f05c3af6bf7bbfe4", "type": "electric_scooter", "is_disabled": 0, "lat": 38.921063333333336, "rental_uris": {"ios": "https://dc.lft.to/lastmile_qr_scan", "android": "https://dc.lft.to/lastmile_qr_scan"}, "is_reserved": 0, "fusion_lon": 0.0, "fusion_lat": 0.0, "lon": -77.01771316666667, "name": "8837124ab72b6085f05c3af6bf7bbfe4"}, {"bike_id": "4779833f1bb5df9270a063898b8490ad", "type": "electric_scooter", "is_disabled": 0, "lat": 38.91975266666667, "rental_uris": {"ios": "https://dc.lft.to/lastmile_qr_scan", "android": "https://dc.lft.to/lastmile_qr_scan"}, "is_reserved": 0, "fusion_lon": 0.0, "fusion_lat": 0.0, "lon": -77.03963, "name": "4779833f1bb5df9270a063898b8490ad"}, {"bike_id": "b457ba48e6067f536daa01278045e453", "type": "electric_scooter", "is_disabled": 0, "lat": 38.92463383333333, "rental_uris": {"ios": "https://dc.lft.to/lastmile_qr_scan", "android": "https://dc.lft.to/lastmile_qr_scan"}, "is_reserved": 0, "fusion_lon": 0.0, "fusion_lat": 0.0, "lon": -77.02835433333334, "name": "b457ba48e6067f536daa01278045e453"}, {"bike_id": "c8a927659b3da0b5c2c3c190c973c9ee", "type": "electric_scooter", "is_disabled": 0, "lat": 38.854507, "rental_uris": {"ios": "https://dc.lft.to/lastmile_qr_scan", "android": "https://dc.lft.to/lastmile_qr_scan"}, "is_reserved": 0, "fusion_lon": 0.0, "fusion_lat": 0.0, "lon": -76.97225433333334, "name": "c8a927659b3da0b5c2c3c190c973c9ee"}, {"bike_id": "ab35590a9f6587ee300e17657bb88692", "type": "electric_scooter", "is_disabled": 0, "lat": 38.92185883333333, "rental_uris": {"ios": "https://dc.lft.to/lastmile_qr_scan", "android": "https://dc.lft.to/lastmile_qr_scan"}, "is_reserved": 0, "fusion_lon": 0.0, "fusion_lat": 0.0, "lon": -76.9970735, "name": "ab35590a9f6587ee300e17657bb88692"}, {"bike_id": "58465eb7e4a49efe4eae865bd8eca2d0", "type": "electric_scooter", "is_disabled": 0, "lat": 38.901594, "rental_uris": {"ios": "https://dc.lft.to/lastmile_qr_scan", "android": "https://dc.lft.to/lastmile_qr_scan"}, "is_reserved": 0, "fusion_lon": 0.0, "fusion_lat": 0.0, "lon": -76.93025716666666, "name": "58465eb7e4a49efe4eae865bd8eca2d0"}, {"bike_id": "de2eb2efdcb4f37d19757ac0b82ca1c5", "type": "electric_scooter", "is_disabled": 0, "lat": 38.886989666666665, "rental_uris": {"ios": "https://dc.lft.to/lastmile_qr_scan", "android": "https://dc.lft.to/lastmile_qr_scan"}, "is_reserved": 0, "fusion_lon": 0.0, "fusion_lat": 0.0, "lon": -76.99621116666667, "name": "de2eb2efdcb4f37d19757ac0b82ca1c5"}, {"bike_id": "ee82020967a0ad9113754be9ed4a2050", "type": "electric_scooter", "is_disabled": 0, "lat": 38.892200333333335, "rental_uris": {"ios": "https://dc.lft.to/lastmile_qr_scan", "android": "https://dc.lft.to/lastmile_qr_scan"}, "is_reserved": 0, "fusion_lon": 0.0, "fusion_lat": 0.0, "lon": -77.04375116666667, "name": "ee82020967a0ad9113754be9ed4a2050"}, {"bike_id": "3761f9fd0b9a6ed40a0239cf4535caab", "type": "electric_scooter", "is_disabled": 0, "lat": 38.95651566666667, "rental_uris": {"ios": "https://dc.lft.to/lastmile_qr_scan", "android": "https://dc.lft.to/lastmile_qr_scan"}, "is_reserved": 0, "fusion_lon": 0.0, "fusion_lat": 0.0, "lon": -77.0100305, "name": "3761f9fd0b9a6ed40a0239cf4535caab"}, {"bike_id": "8ece9f9070d5483f230681536a59d5c5", "type": "electric_bike", "is_disabled": 0, "lat": 38.798484333333334, "rental_uris": {"ios": "https://dc.lft.to/lastmile_qr_scan", "android": "https://dc.lft.to/lastmile_qr_scan"}, "is_reserved": 0, "fusion_lon": 0.0, "fusion_lat": 0.0, "lon": -77.063131, "name": "8ece9f9070d5483f230681536a59d5c5"}, {"bike_id": "dbf14f3e246cec101b8343ff42d25cdd", "type": "electric_scooter", "is_disabled": 0, "lat": 38.956335, "rental_uris": {"ios": "https://dc.lft.to/lastmile_qr_scan", "android": "https://dc.lft.to/lastmile_qr_scan"}, "is_reserved": 0, "fusion_lon": 0.0, "fusion_lat": 0.0, "lon": -77.01164766666666, "name": "dbf14f3e246cec101b8343ff42d25cdd"}, {"bike_id": "e1164af9fd07cc8fed6ec98be02e15e6", "type": "electric_scooter", "is_disabled": 0, "lat": 38.905197333333334, "rental_uris": {"ios": "https://dc.lft.to/lastmile_qr_scan", "android": "https://dc.lft.to/lastmile_qr_scan"}, "is_reserved": 0, "fusion_lon": 0.0, "fusion_lat": 0.0, "lon": -77.06384266666667, "name": "e1164af9fd07cc8fed6ec98be02e15e6"}, {"bike_id": "30d94a0e148f311a538a64bffe4fc00e", "type": "electric_scooter", "is_disabled": 0, "lat": 38.900600833333336, "rental_uris": {"ios": "https://dc.lft.to/lastmile_qr_scan", "android": "https://dc.lft.to/lastmile_qr_scan"}, "is_reserved": 0, "fusion_lon": 0.0, "fusion_lat": 0.0, "lon": -77.012181, "name": "30d94a0e148f311a538a64bffe4fc00e"}, {"bike_id": "1a443af0e46ee145e723e32c8d407c2f", "type": "electric_bike", "is_disabled": 0, "lat": 38.87472233333333, "rental_uris": {"ios": "https://dc.lft.to/lastmile_qr_scan", "android": "https://dc.lft.to/lastmile_qr_scan"}, "is_reserved": 0, "fusion_lon": 0.0, "fusion_lat": 0.0, "lon": -76.96528866666667, "name": "1a443af0e46ee145e723e32c8d407c2f"}, {"bike_id": "e23144006107d0b57778166856f5974a", "type": "electric_scooter", "is_disabled": 0, "lat": 38.9150065, "rental_uris": {"ios": "https://dc.lft.to/lastmile_qr_scan", "android": "https://dc.lft.to/lastmile_qr_scan"}, "is_reserved": 0, "fusion_lon": 0.0, "fusion_lat": 0.0, "lon": -77.0177835, "name": "e23144006107d0b57778166856f5974a"}, {"bike_id": "15e84bbccff0c461cb0962ab392ad0b1", "type": "electric_scooter", "is_disabled": 0, "lat": 38.92450983333333, "rental_uris": {"ios": "https://dc.lft.to/lastmile_qr_scan", "android": "https://dc.lft.to/lastmile_qr_scan"}, "is_reserved": 0, "fusion_lon": 0.0, "fusion_lat": 0.0, "lon": -77.04401383333334, "name": "15e84bbccff0c461cb0962ab392ad0b1"}, {"bike_id": "768428235911e73a93ed563da5e8a15f", "type": "electric_scooter", "is_disabled": 0, "lat": 38.907277666666666, "rental_uris": {"ios": "https://dc.lft.to/lastmile_qr_scan", "android": "https://dc.lft.to/lastmile_qr_scan"}, "is_reserved": 0, "fusion_lon": 0.0, "fusion_lat": 0.0, "lon": -77.03941533333334, "name": "768428235911e73a93ed563da5e8a15f"}, {"bike_id": "d74bccfc6374ffb96eb70e5146cd6ad6", "type": "electric_scooter", "is_disabled": 0, "lat": 38.8864985, "rental_uris": {"ios": "https://dc.lft.to/lastmile_qr_scan", "android": "https://dc.lft.to/lastmile_qr_scan"}, "is_reserved": 0, "fusion_lon": 0.0, "fusion_lat": 0.0, "lon": -77.00120116666666, "name": "d74bccfc6374ffb96eb70e5146cd6ad6"}, {"bike_id": "24defd0372095df526a0e1d60bdd7fce", "type": "electric_scooter", "is_disabled": 0, "lat": 38.918469, "rental_uris": {"ios": "https://dc.lft.to/lastmile_qr_scan", "android": "https://dc.lft.to/lastmile_qr_scan"}, "is_reserved": 0, "fusion_lon": 0.0, "fusion_lat": 0.0, "lon": -76.965551, "name": "24defd0372095df526a0e1d60bdd7fce"}, {"bike_id": "4a502c5a2a3df7f0d0e9f36cf0e5a7c5", "type": "electric_scooter", "is_disabled": 0, "lat": 38.8842465, "rental_uris": {"ios": "https://dc.lft.to/lastmile_qr_scan", "android": "https://dc.lft.to/lastmile_qr_scan"}, "is_reserved": 0, "fusion_lon": 0.0, "fusion_lat": 0.0, "lon": -76.95752966666667, "name": "4a502c5a2a3df7f0d0e9f36cf0e5a7c5"}, {"bike_id": "05392aedd5b3cefa080fe31f6d9a847e", "type": "electric_scooter", "is_disabled": 0, "lat": 38.889998166666665, "rental_uris": {"ios": "https://dc.lft.to/lastmile_qr_scan", "android": "https://dc.lft.to/lastmile_qr_scan"}, "is_reserved": 0, "fusion_lon": 0.0, "fusion_lat": 0.0, "lon": -76.93750283333333, "name": "05392aedd5b3cefa080fe31f6d9a847e"}, {"bike_id": "4b252fa227ee8e4bb4528e3c1b3bfa55", "type": "electric_scooter", "is_disabled": 0, "lat": 38.887355, "rental_uris": {"ios": "https://dc.lft.to/lastmile_qr_scan", "android": "https://dc.lft.to/lastmile_qr_scan"}, "is_reserved": 0, "fusion_lon": 0.0, "fusion_lat": 0.0, "lon": -77.023998, "name": "4b252fa227ee8e4bb4528e3c1b3bfa55"}, {"bike_id": "26470fd307bd90cf7938afb7cc5f96d7", "type": "electric_scooter", "is_disabled": 0, "lat": 38.91778866666667, "rental_uris": {"ios": "https://dc.lft.to/lastmile_qr_scan", "android": "https://dc.lft.to/lastmile_qr_scan"}, "is_reserved": 0, "fusion_lon": 0.0, "fusion_lat": 0.0, "lon": -77.0229975, "name": "26470fd307bd90cf7938afb7cc5f96d7"}, {"bike_id": "8d6ea3afc0ae4c2c009590441398c36f", "type": "electric_scooter", "is_disabled": 0, "lat": 38.92233066666667, "rental_uris": {"ios": "https://dc.lft.to/lastmile_qr_scan", "android": "https://dc.lft.to/lastmile_qr_scan"}, "is_reserved": 0, "fusion_lon": 0.0, "fusion_lat": 0.0, "lon": -77.02126616666666, "name": "8d6ea3afc0ae4c2c009590441398c36f"}, {"bike_id": "110de3c0b77c3cbeadb718d6db26e703", "type": "electric_scooter", "is_disabled": 0, "lat": 38.9144235, "rental_uris": {"ios": "https://dc.lft.to/lastmile_qr_scan", "android": "https://dc.lft.to/lastmile_qr_scan"}, "is_reserved": 0, "fusion_lon": 0.0, "fusion_lat": 0.0, "lon": -77.02598583333334, "name": "110de3c0b77c3cbeadb718d6db26e703"}, {"bike_id": "4c386229daab2aa50fe58c73af9fee8a", "type": "electric_scooter", "is_disabled": 0, "lat": 38.91032366666666, "rental_uris": {"ios": "https://dc.lft.to/lastmile_qr_scan", "android": "https://dc.lft.to/lastmile_qr_scan"}, "is_reserved": 0, "fusion_lon": 0.0, "fusion_lat": 0.0, "lon": -77.03803, "name": "4c386229daab2aa50fe58c73af9fee8a"}, {"bike_id": "a01fc6f212b05b5a79a05b0f45101a80", "type": "electric_scooter", "is_disabled": 0, "lat": 38.918363166666666, "rental_uris": {"ios": "https://dc.lft.to/lastmile_qr_scan", "android": "https://dc.lft.to/lastmile_qr_scan"}, "is_reserved": 0, "fusion_lon": 0.0, "fusion_lat": 0.0, "lon": -77.04533633333334, "name": "a01fc6f212b05b5a79a05b0f45101a80"}, {"bike_id": "9d90b79b297a959e26eb5b1af47dd320", "type": "electric_scooter", "is_disabled": 0, "lat": 38.9011025, "rental_uris": {"ios": "https://dc.lft.to/lastmile_qr_scan", "android": "https://dc.lft.to/lastmile_qr_scan"}, "is_reserved": 0, "fusion_lon": 0.0, "fusion_lat": 0.0, "lon": -77.01789333333333, "name": "9d90b79b297a959e26eb5b1af47dd320"}, {"bike_id": "aa89a84ddae1b72db5458a2e1b8c2fdf", "type": "electric_scooter", "is_disabled": 0, "lat": 38.9050485, "rental_uris": {"ios": "https://dc.lft.to/lastmile_qr_scan", "android": "https://dc.lft.to/lastmile_qr_scan"}, "is_reserved": 0, "fusion_lon": 0.0, "fusion_lat": 0.0, "lon": -77.02988466666666, "name": "aa89a84ddae1b72db5458a2e1b8c2fdf"}, {"bike_id": "0c821a8ee62b383bfc1f24ecd23c01b0", "type": "electric_scooter", "is_disabled": 0, "lat": 38.91766616666666, "rental_uris": {"ios": "https://dc.lft.to/lastmile_qr_scan", "android": "https://dc.lft.to/lastmile_qr_scan"}, "is_reserved": 0, "fusion_lon": 0.0, "fusion_lat": 0.0, "lon": -77.022831, "name": "0c821a8ee62b383bfc1f24ecd23c01b0"}, {"bike_id": "21d7b34e9e734c934e8ef98b8ba184ca", "type": "electric_scooter", "is_disabled": 0, "lat": 38.900483666666666, "rental_uris": {"ios": "https://dc.lft.to/lastmile_qr_scan", "android": "https://dc.lft.to/lastmile_qr_scan"}, "is_reserved": 0, "fusion_lon": 0.0, "fusion_lat": 0.0, "lon": -77.01718233333334, "name": "21d7b34e9e734c934e8ef98b8ba184ca"}, {"bike_id": "4b096203563d38f18d8962dc9397e893", "type": "electric_scooter", "is_disabled": 0, "lat": 38.9270675, "rental_uris": {"ios": "https://dc.lft.to/lastmile_qr_scan", "android": "https://dc.lft.to/lastmile_qr_scan"}, "is_reserved": 0, "fusion_lon": 0.0, "fusion_lat": 0.0, "lon": -77.02396966666667, "name": "4b096203563d38f18d8962dc9397e893"}, {"bike_id": "9c73056eedca1d484f0349a32d314fc4", "type": "electric_scooter", "is_disabled": 0, "lat": 38.92062333333333, "rental_uris": {"ios": "https://dc.lft.to/lastmile_qr_scan", "android": "https://dc.lft.to/lastmile_qr_scan"}, "is_reserved": 0, "fusion_lon": 0.0, "fusion_lat": 0.0, "lon": -77.04258516666667, "name": "9c73056eedca1d484f0349a32d314fc4"}, {"bike_id": "976ed20c07c9a62a8657ca6865daf718", "type": "electric_scooter", "is_disabled": 0, "lat": 38.90708, "rental_uris": {"ios": "https://dc.lft.to/lastmile_qr_scan", "android": "https://dc.lft.to/lastmile_qr_scan"}, "is_reserved": 0, "fusion_lon": 0.0, "fusion_lat": 0.0, "lon": -77.0290025, "name": "976ed20c07c9a62a8657ca6865daf718"}, {"bike_id": "f8fe22ecf5b81d79921347b451c68977", "type": "electric_scooter", "is_disabled": 0, "lat": 38.92746416666667, "rental_uris": {"ios": "https://dc.lft.to/lastmile_qr_scan", "android": "https://dc.lft.to/lastmile_qr_scan"}, "is_reserved": 0, "fusion_lon": 0.0, "fusion_lat": 0.0, "lon": -77.02536766666667, "name": "f8fe22ecf5b81d79921347b451c68977"}, {"bike_id": "c5bcf3b6f4ca65026ee03376c384d1b4", "type": "electric_scooter", "is_disabled": 0, "lat": 38.9169245, "rental_uris": {"ios": "https://dc.lft.to/lastmile_qr_scan", "android": "https://dc.lft.to/lastmile_qr_scan"}, "is_reserved": 0, "fusion_lon": 0.0, "fusion_lat": 0.0, "lon": -77.0377465, "name": "c5bcf3b6f4ca65026ee03376c384d1b4"}, {"bike_id": "68334390931791cc3d2978b8147e7afd", "type": "electric_scooter", "is_disabled": 0, "lat": 38.911195666666664, "rental_uris": {"ios": "https://dc.lft.to/lastmile_qr_scan", "android": "https://dc.lft.to/lastmile_qr_scan"}, "is_reserved": 0, "fusion_lon": 0.0, "fusion_lat": 0.0, "lon": -77.047232, "name": "68334390931791cc3d2978b8147e7afd"}, {"bike_id": "41a19327794b49427f1fcdf179e342b2", "type": "electric_scooter", "is_disabled": 0, "lat": 38.90736, "rental_uris": {"ios": "https://dc.lft.to/lastmile_qr_scan", "android": "https://dc.lft.to/lastmile_qr_scan"}, "is_reserved": 0, "fusion_lon": 0.0, "fusion_lat": 0.0, "lon": -77.021838, "name": "41a19327794b49427f1fcdf179e342b2"}, {"bike_id": "77762c9be36645bd0fe2dfc77e7698e0", "type": "electric_scooter", "is_disabled": 0, "lat": 38.89738233333333, "rental_uris": {"ios": "https://dc.lft.to/lastmile_qr_scan", "android": "https://dc.lft.to/lastmile_qr_scan"}, "is_reserved": 0, "fusion_lon": 0.0, "fusion_lat": 0.0, "lon": -77.00359883333333, "name": "77762c9be36645bd0fe2dfc77e7698e0"}, {"bike_id": "d3734654a60560848909986fec81bcc1", "type": "electric_bike", "is_disabled": 0, "lat": 38.853542833333336, "rental_uris": {"ios": "https://dc.lft.to/lastmile_qr_scan", "android": "https://dc.lft.to/lastmile_qr_scan"}, "is_reserved": 0, "fusion_lon": 0.0, "fusion_lat": 0.0, "lon": -77.134685, "name": "d3734654a60560848909986fec81bcc1"}, {"bike_id": "1bf1badf436a97415c05bdb79559ea92", "type": "electric_scooter", "is_disabled": 0, "lat": 38.9428895, "rental_uris": {"ios": "https://dc.lft.to/lastmile_qr_scan", "android": "https://dc.lft.to/lastmile_qr_scan"}, "is_reserved": 0, "fusion_lon": 0.0, "fusion_lat": 0.0, "lon": -77.0217175, "name": "1bf1badf436a97415c05bdb79559ea92"}, {"bike_id": "90525ff14bd12a07162ec53394a6b85e", "type": "electric_scooter", "is_disabled": 0, "lat": 38.9173745, "rental_uris": {"ios": "https://dc.lft.to/lastmile_qr_scan", "android": "https://dc.lft.to/lastmile_qr_scan"}, "is_reserved": 0, "fusion_lon": 0.0, "fusion_lat": 0.0, "lon": -77.040701, "name": "90525ff14bd12a07162ec53394a6b85e"}, {"bike_id": "051f2e7666dd95cf686a0ee31f1e2e04", "type": "electric_scooter", "is_disabled": 0, "lat": 38.895878333333336, "rental_uris": {"ios": "https://dc.lft.to/lastmile_qr_scan", "android": "https://dc.lft.to/lastmile_qr_scan"}, "is_reserved": 0, "fusion_lon": 0.0, "fusion_lat": 0.0, "lon": -77.00507183333333, "name": "051f2e7666dd95cf686a0ee31f1e2e04"}, {"bike_id": "cd1f998de55db5451de2f9c1a276ba25", "type": "electric_scooter", "is_disabled": 0, "lat": 38.90716233333333, "rental_uris": {"ios": "https://dc.lft.to/lastmile_qr_scan", "android": "https://dc.lft.to/lastmile_qr_scan"}, "is_reserved": 0, "fusion_lon": 0.0, "fusion_lat": 0.0, "lon": -77.04032833333333, "name": "cd1f998de55db5451de2f9c1a276ba25"}, {"bike_id": "698b99cb8c793bff664f4972ad2f1d8c", "type": "electric_scooter", "is_disabled": 0, "lat": 38.90197833333333, "rental_uris": {"ios": "https://dc.lft.to/lastmile_qr_scan", "android": "https://dc.lft.to/lastmile_qr_scan"}, "is_reserved": 0, "fusion_lon": 0.0, "fusion_lat": 0.0, "lon": -77.02192366666667, "name": "698b99cb8c793bff664f4972ad2f1d8c"}, {"bike_id": "a4ea9930be0968fce952232b4a01cb13", "type": "electric_scooter", "is_disabled": 0, "lat": 38.9251355, "rental_uris": {"ios": "https://dc.lft.to/lastmile_qr_scan", "android": "https://dc.lft.to/lastmile_qr_scan"}, "is_reserved": 0, "fusion_lon": 0.0, "fusion_lat": 0.0, "lon": -77.05130133333333, "name": "a4ea9930be0968fce952232b4a01cb13"}, {"bike_id": "22d05449a847716210625b17423d03c2", "type": "electric_scooter", "is_disabled": 0, "lat": 38.8974285, "rental_uris": {"ios": "https://dc.lft.to/lastmile_qr_scan", "android": "https://dc.lft.to/lastmile_qr_scan"}, "is_reserved": 0, "fusion_lon": 0.0, "fusion_lat": 0.0, "lon": -76.979741, "name": "22d05449a847716210625b17423d03c2"}, {"bike_id": "f45115a401a46896e4b68a412d0d7911", "type": "electric_scooter", "is_disabled": 0, "lat": 38.896044833333335, "rental_uris": {"ios": "https://dc.lft.to/lastmile_qr_scan", "android": "https://dc.lft.to/lastmile_qr_scan"}, "is_reserved": 0, "fusion_lon": 0.0, "fusion_lat": 0.0, "lon": -77.02219916666667, "name": "f45115a401a46896e4b68a412d0d7911"}, {"bike_id": "2ace259b2e48a11a6f1f3dc91d9db047", "type": "electric_scooter", "is_disabled": 0, "lat": 38.9183655, "rental_uris": {"ios": "https://dc.lft.to/lastmile_qr_scan", "android": "https://dc.lft.to/lastmile_qr_scan"}, "is_reserved": 0, "fusion_lon": 0.0, "fusion_lat": 0.0, "lon": -76.96556966666667, "name": "2ace259b2e48a11a6f1f3dc91d9db047"}, {"bike_id": "98046c888009cbcdf3984738fdbe0f78", "type": "electric_scooter", "is_disabled": 0, "lat": 38.9241425, "rental_uris": {"ios": "https://dc.lft.to/lastmile_qr_scan", "android": "https://dc.lft.to/lastmile_qr_scan"}, "is_reserved": 0, "fusion_lon": 0.0, "fusion_lat": 0.0, "lon": -77.0201685, "name": "98046c888009cbcdf3984738fdbe0f78"}, {"bike_id": "a082bd6bd835be96e48079265bd2200f", "type": "electric_scooter", "is_disabled": 0, "lat": 38.947318, "rental_uris": {"ios": "https://dc.lft.to/lastmile_qr_scan", "android": "https://dc.lft.to/lastmile_qr_scan"}, "is_reserved": 0, "fusion_lon": 0.0, "fusion_lat": 0.0, "lon": -77.07867466666667, "name": "a082bd6bd835be96e48079265bd2200f"}, {"bike_id": "547aa2bf60eef48d12ecf77e9e6e4eb4", "type": "electric_scooter", "is_disabled": 0, "lat": 38.904127333333335, "rental_uris": {"ios": "https://dc.lft.to/lastmile_qr_scan", "android": "https://dc.lft.to/lastmile_qr_scan"}, "is_reserved": 0, "fusion_lon": 0.0, "fusion_lat": 0.0, "lon": -76.97333116666667, "name": "547aa2bf60eef48d12ecf77e9e6e4eb4"}, {"bike_id": "9b9ac430f0abda3088cc6bf3bd2ae708", "type": "electric_scooter", "is_disabled": 0, "lat": 38.915569, "rental_uris": {"ios": "https://dc.lft.to/lastmile_qr_scan", "android": "https://dc.lft.to/lastmile_qr_scan"}, "is_reserved": 0, "fusion_lon": 0.0, "fusion_lat": 0.0, "lon": -77.03125, "name": "9b9ac430f0abda3088cc6bf3bd2ae708"}, {"bike_id": "d2d6dd803d0eb7fd69b906b63242b0f1", "type": "electric_scooter", "is_disabled": 0, "lat": 38.91759033333334, "rental_uris": {"ios": "https://dc.lft.to/lastmile_qr_scan", "android": "https://dc.lft.to/lastmile_qr_scan"}, "is_reserved": 0, "fusion_lon": 0.0, "fusion_lat": 0.0, "lon": -77.031878, "name": "d2d6dd803d0eb7fd69b906b63242b0f1"}, {"bike_id": "713cc42674904b381780ba1b51befbab", "type": "electric_bike", "is_disabled": 0, "lat": 38.99672283333334, "rental_uris": {"ios": "https://dc.lft.to/lastmile_qr_scan", "android": "https://dc.lft.to/lastmile_qr_scan"}, "is_reserved": 0, "fusion_lon": 0.0, "fusion_lat": 0.0, "lon": -77.03783716666666, "name": "713cc42674904b381780ba1b51befbab"}, {"bike_id": "1e241c08e1e8811d27ad339eaee7774f", "type": "electric_bike", "is_disabled": 0, "lat": 38.89610883333334, "rental_uris": {"ios": "https://dc.lft.to/lastmile_qr_scan", "android": "https://dc.lft.to/lastmile_qr_scan"}, "is_reserved": 0, "fusion_lon": 0.0, "fusion_lat": 0.0, "lon": -76.90734766666667, "name": "1e241c08e1e8811d27ad339eaee7774f"}, {"bike_id": "4a9e5625e1bd0a718bef60613c504c0f", "type": "electric_scooter", "is_disabled": 0, "lat": 38.90402383333333, "rental_uris": {"ios": "https://dc.lft.to/lastmile_qr_scan", "android": "https://dc.lft.to/lastmile_qr_scan"}, "is_reserved": 0, "fusion_lon": 0.0, "fusion_lat": 0.0, "lon": -77.02415566666667, "name": "4a9e5625e1bd0a718bef60613c504c0f"}, {"bike_id": "10d575559e061473846050923ea1a214", "type": "electric_scooter", "is_disabled": 0, "lat": 38.92494, "rental_uris": {"ios": "https://dc.lft.to/lastmile_qr_scan", "android": "https://dc.lft.to/lastmile_qr_scan"}, "is_reserved": 0, "fusion_lon": 0.0, "fusion_lat": 0.0, "lon": -77.0215585, "name": "10d575559e061473846050923ea1a214"}, {"bike_id": "3303daa3d5b1e3491f5fe487ec131a22", "type": "electric_scooter", "is_disabled": 0, "lat": 38.83824966666667, "rental_uris": {"ios": "https://dc.lft.to/lastmile_qr_scan", "android": "https://dc.lft.to/lastmile_qr_scan"}, "is_reserved": 0, "fusion_lon": 0.0, "fusion_lat": 0.0, "lon": -77.00268216666667, "name": "3303daa3d5b1e3491f5fe487ec131a22"}, {"bike_id": "d75a41dbda2fb3a1b0f8f741070de230", "type": "electric_scooter", "is_disabled": 0, "lat": 38.917539833333336, "rental_uris": {"ios": "https://dc.lft.to/lastmile_qr_scan", "android": "https://dc.lft.to/lastmile_qr_scan"}, "is_reserved": 0, "fusion_lon": 0.0, "fusion_lat": 0.0, "lon": -77.02497783333334, "name": "d75a41dbda2fb3a1b0f8f741070de230"}, {"bike_id": "ccfb0ffb1b59c0340308a9121547b275", "type": "electric_scooter", "is_disabled": 0, "lat": 38.9330045, "rental_uris": {"ios": "https://dc.lft.to/lastmile_qr_scan", "android": "https://dc.lft.to/lastmile_qr_scan"}, "is_reserved": 0, "fusion_lon": 0.0, "fusion_lat": 0.0, "lon": -77.03266933333333, "name": "ccfb0ffb1b59c0340308a9121547b275"}, {"bike_id": "b188236d06a4e4233138434066020dd8", "type": "electric_scooter", "is_disabled": 0, "lat": 38.904743, "rental_uris": {"ios": "https://dc.lft.to/lastmile_qr_scan", "android": "https://dc.lft.to/lastmile_qr_scan"}, "is_reserved": 0, "fusion_lon": 0.0, "fusion_lat": 0.0, "lon": -77.00745233333333, "name": "b188236d06a4e4233138434066020dd8"}, {"bike_id": "5fead067c1405dca2f603813e75b8f2c", "type": "electric_scooter", "is_disabled": 0, "lat": 38.93108083333333, "rental_uris": {"ios": "https://dc.lft.to/lastmile_qr_scan", "android": "https://dc.lft.to/lastmile_qr_scan"}, "is_reserved": 0, "fusion_lon": 0.0, "fusion_lat": 0.0, "lon": -77.03845033333333, "name": "5fead067c1405dca2f603813e75b8f2c"}, {"bike_id": "6ce11a6ab3447831df0b2bb3facd6558", "type": "electric_scooter", "is_disabled": 0, "lat": 38.896622666666666, "rental_uris": {"ios": "https://dc.lft.to/lastmile_qr_scan", "android": "https://dc.lft.to/lastmile_qr_scan"}, "is_reserved": 0, "fusion_lon": 0.0, "fusion_lat": 0.0, "lon": -77.023956, "name": "6ce11a6ab3447831df0b2bb3facd6558"}, {"bike_id": "9d32a390228f4f28a506c07dd1af47c6", "type": "electric_scooter", "is_disabled": 0, "lat": 38.921529, "rental_uris": {"ios": "https://dc.lft.to/lastmile_qr_scan", "android": "https://dc.lft.to/lastmile_qr_scan"}, "is_reserved": 0, "fusion_lon": 0.0, "fusion_lat": 0.0, "lon": -77.03322683333333, "name": "9d32a390228f4f28a506c07dd1af47c6"}, {"bike_id": "a425e250b612450ae5ea395f18be09c1", "type": "electric_scooter", "is_disabled": 0, "lat": 38.88725733333333, "rental_uris": {"ios": "https://dc.lft.to/lastmile_qr_scan", "android": "https://dc.lft.to/lastmile_qr_scan"}, "is_reserved": 0, "fusion_lon": 0.0, "fusion_lat": 0.0, "lon": -77.0283895, "name": "a425e250b612450ae5ea395f18be09c1"}, {"bike_id": "f85c46e1b9f87c60edfff41c7ceb6ca0", "type": "electric_scooter", "is_disabled": 0, "lat": 38.91565383333333, "rental_uris": {"ios": "https://dc.lft.to/lastmile_qr_scan", "android": "https://dc.lft.to/lastmile_qr_scan"}, "is_reserved": 0, "fusion_lon": 0.0, "fusion_lat": 0.0, "lon": -77.020178, "name": "f85c46e1b9f87c60edfff41c7ceb6ca0"}, {"bike_id": "d0925d54d4340213c822a8b6875a735c", "type": "electric_scooter", "is_disabled": 0, "lat": 38.91412566666666, "rental_uris": {"ios": "https://dc.lft.to/lastmile_qr_scan", "android": "https://dc.lft.to/lastmile_qr_scan"}, "is_reserved": 0, "fusion_lon": 0.0, "fusion_lat": 0.0, "lon": -77.01232316666666, "name": "d0925d54d4340213c822a8b6875a735c"}, {"bike_id": "cb45dc6697cd7ef4c04438bac5a02c6b", "type": "electric_scooter", "is_disabled": 0, "lat": 38.9006115, "rental_uris": {"ios": "https://dc.lft.to/lastmile_qr_scan", "android": "https://dc.lft.to/lastmile_qr_scan"}, "is_reserved": 0, "fusion_lon": 0.0, "fusion_lat": 0.0, "lon": -76.99759816666666, "name": "cb45dc6697cd7ef4c04438bac5a02c6b"}, {"bike_id": "b65348dc2b8adaa320864fc3144a614e", "type": "electric_scooter", "is_disabled": 0, "lat": 38.92374783333333, "rental_uris": {"ios": "https://dc.lft.to/lastmile_qr_scan", "android": "https://dc.lft.to/lastmile_qr_scan"}, "is_reserved": 0, "fusion_lon": 0.0, "fusion_lat": 0.0, "lon": -77.04312483333334, "name": "b65348dc2b8adaa320864fc3144a614e"}, {"bike_id": "cf5481285d37b9ff154a18b6c4aa30b7", "type": "electric_scooter", "is_disabled": 0, "lat": 38.9075275, "rental_uris": {"ios": "https://dc.lft.to/lastmile_qr_scan", "android": "https://dc.lft.to/lastmile_qr_scan"}, "is_reserved": 0, "fusion_lon": 0.0, "fusion_lat": 0.0, "lon": -77.04157066666667, "name": "cf5481285d37b9ff154a18b6c4aa30b7"}, {"bike_id": "9055f4c27bd1db2b78490588d2845ceb", "type": "electric_scooter", "is_disabled": 0, "lat": 38.874742499999996, "rental_uris": {"ios": "https://dc.lft.to/lastmile_qr_scan", "android": "https://dc.lft.to/lastmile_qr_scan"}, "is_reserved": 0, "fusion_lon": 0.0, "fusion_lat": 0.0, "lon": -77.01073933333333, "name": "9055f4c27bd1db2b78490588d2845ceb"}, {"bike_id": "c9c169888d2859ce349b802dcfc7bdd6", "type": "electric_bike", "is_disabled": 0, "lat": 38.87884233333333, "rental_uris": {"ios": "https://dc.lft.to/lastmile_qr_scan", "android": "https://dc.lft.to/lastmile_qr_scan"}, "is_reserved": 0, "fusion_lon": 0.0, "fusion_lat": 0.0, "lon": -77.09616716666666, "name": "c9c169888d2859ce349b802dcfc7bdd6"}, {"bike_id": "4d31185b494bc9b57347a88988265b70", "type": "electric_scooter", "is_disabled": 0, "lat": 38.912608, "rental_uris": {"ios": "https://dc.lft.to/lastmile_qr_scan", "android": "https://dc.lft.to/lastmile_qr_scan"}, "is_reserved": 0, "fusion_lon": 0.0, "fusion_lat": 0.0, "lon": -77.04716983333333, "name": "4d31185b494bc9b57347a88988265b70"}, {"bike_id": "bb2207ba7602ac3b771c9fc42dca0240", "type": "electric_scooter", "is_disabled": 0, "lat": 38.91548133333333, "rental_uris": {"ios": "https://dc.lft.to/lastmile_qr_scan", "android": "https://dc.lft.to/lastmile_qr_scan"}, "is_reserved": 0, "fusion_lon": 0.0, "fusion_lat": 0.0, "lon": -77.03219766666666, "name": "bb2207ba7602ac3b771c9fc42dca0240"}, {"bike_id": "0a55a5338d07bda9b88fb4f6b6615d59", "type": "electric_scooter", "is_disabled": 0, "lat": 38.9031815, "rental_uris": {"ios": "https://dc.lft.to/lastmile_qr_scan", "android": "https://dc.lft.to/lastmile_qr_scan"}, "is_reserved": 0, "fusion_lon": 0.0, "fusion_lat": 0.0, "lon": -77.02887833333334, "name": "0a55a5338d07bda9b88fb4f6b6615d59"}, {"bike_id": "8ccfee33c389e497157dfd18657f57cb", "type": "electric_scooter", "is_disabled": 0, "lat": 38.90735633333333, "rental_uris": {"ios": "https://dc.lft.to/lastmile_qr_scan", "android": "https://dc.lft.to/lastmile_qr_scan"}, "is_reserved": 0, "fusion_lon": 0.0, "fusion_lat": 0.0, "lon": -77.03099983333334, "name": "8ccfee33c389e497157dfd18657f57cb"}, {"bike_id": "ef1984d517215d453b831e1348db8cd8", "type": "electric_scooter", "is_disabled": 0, "lat": 38.915242666666664, "rental_uris": {"ios": "https://dc.lft.to/lastmile_qr_scan", "android": "https://dc.lft.to/lastmile_qr_scan"}, "is_reserved": 0, "fusion_lon": 0.0, "fusion_lat": 0.0, "lon": -77.02202466666667, "name": "ef1984d517215d453b831e1348db8cd8"}, {"bike_id": "8f034a41c57673855b7ff117acd85a85", "type": "electric_scooter", "is_disabled": 0, "lat": 38.94142816666667, "rental_uris": {"ios": "https://dc.lft.to/lastmile_qr_scan", "android": "https://dc.lft.to/lastmile_qr_scan"}, "is_reserved": 0, "fusion_lon": 0.0, "fusion_lat": 0.0, "lon": -77.0233295, "name": "8f034a41c57673855b7ff117acd85a85"}, {"bike_id": "9b2bb5b0d8f5f4c61ca13ec0e4bdb93a", "type": "electric_scooter", "is_disabled": 0, "lat": 38.92973833333333, "rental_uris": {"ios": "https://dc.lft.to/lastmile_qr_scan", "android": "https://dc.lft.to/lastmile_qr_scan"}, "is_reserved": 0, "fusion_lon": 0.0, "fusion_lat": 0.0, "lon": -77.01303716666666, "name": "9b2bb5b0d8f5f4c61ca13ec0e4bdb93a"}, {"bike_id": "bbf0fe69765a4a28b11f449fb26187fa", "type": "electric_scooter", "is_disabled": 0, "lat": 38.89529533333334, "rental_uris": {"ios": "https://dc.lft.to/lastmile_qr_scan", "android": "https://dc.lft.to/lastmile_qr_scan"}, "is_reserved": 0, "fusion_lon": 0.0, "fusion_lat": 0.0, "lon": -76.948926, "name": "bbf0fe69765a4a28b11f449fb26187fa"}, {"bike_id": "26d7694f4f2a72065459476c82ff6bc7", "type": "electric_scooter", "is_disabled": 0, "lat": 38.90483183333333, "rental_uris": {"ios": "https://dc.lft.to/lastmile_qr_scan", "android": "https://dc.lft.to/lastmile_qr_scan"}, "is_reserved": 0, "fusion_lon": 0.0, "fusion_lat": 0.0, "lon": -77.029401, "name": "26d7694f4f2a72065459476c82ff6bc7"}, {"bike_id": "5229156abeb22992b07f78823c4d0eb4", "type": "electric_scooter", "is_disabled": 0, "lat": 38.928819, "rental_uris": {"ios": "https://dc.lft.to/lastmile_qr_scan", "android": "https://dc.lft.to/lastmile_qr_scan"}, "is_reserved": 0, "fusion_lon": 0.0, "fusion_lat": 0.0, "lon": -77.02709366666667, "name": "5229156abeb22992b07f78823c4d0eb4"}, {"bike_id": "84fdda82385f43ba0e1537d0b2aeb6cf", "type": "electric_scooter", "is_disabled": 0, "lat": 38.89738166666667, "rental_uris": {"ios": "https://dc.lft.to/lastmile_qr_scan", "android": "https://dc.lft.to/lastmile_qr_scan"}, "is_reserved": 0, "fusion_lon": 0.0, "fusion_lat": 0.0, "lon": -76.9473105, "name": "84fdda82385f43ba0e1537d0b2aeb6cf"}, {"bike_id": "a388d2c185fd74c17a238b4feb3210e9", "type": "electric_scooter", "is_disabled": 0, "lat": 38.90052, "rental_uris": {"ios": "https://dc.lft.to/lastmile_qr_scan", "android": "https://dc.lft.to/lastmile_qr_scan"}, "is_reserved": 0, "fusion_lon": 0.0, "fusion_lat": 0.0, "lon": -77.00070433333333, "name": "a388d2c185fd74c17a238b4feb3210e9"}, {"bike_id": "1ce083b52affe387ebdcfde0075aeeaa", "type": "electric_scooter", "is_disabled": 0, "lat": 38.903535833333336, "rental_uris": {"ios": "https://dc.lft.to/lastmile_qr_scan", "android": "https://dc.lft.to/lastmile_qr_scan"}, "is_reserved": 0, "fusion_lon": 0.0, "fusion_lat": 0.0, "lon": -77.03548366666666, "name": "1ce083b52affe387ebdcfde0075aeeaa"}, {"bike_id": "51971b13fbb5dbd510f90fdd8d8ce9df", "type": "electric_scooter", "is_disabled": 0, "lat": 38.922792333333334, "rental_uris": {"ios": "https://dc.lft.to/lastmile_qr_scan", "android": "https://dc.lft.to/lastmile_qr_scan"}, "is_reserved": 0, "fusion_lon": 0.0, "fusion_lat": 0.0, "lon": -77.02247616666666, "name": "51971b13fbb5dbd510f90fdd8d8ce9df"}, {"bike_id": "be0008428dc5c66a3f1edad1cf80cefc", "type": "electric_bike", "is_disabled": 0, "lat": 38.91012166666667, "rental_uris": {"ios": "https://dc.lft.to/lastmile_qr_scan", "android": "https://dc.lft.to/lastmile_qr_scan"}, "is_reserved": 0, "fusion_lon": 0.0, "fusion_lat": 0.0, "lon": -77.22802866666666, "name": "be0008428dc5c66a3f1edad1cf80cefc"}, {"bike_id": "a83a0b659f62817fefbf522939821947", "type": "electric_scooter", "is_disabled": 0, "lat": 38.924386, "rental_uris": {"ios": "https://dc.lft.to/lastmile_qr_scan", "android": "https://dc.lft.to/lastmile_qr_scan"}, "is_reserved": 0, "fusion_lon": 0.0, "fusion_lat": 0.0, "lon": -77.040297, "name": "a83a0b659f62817fefbf522939821947"}, {"bike_id": "58a2a5b93cb54a68fb77a4c8c8b6af66", "type": "electric_scooter", "is_disabled": 0, "lat": 38.9141565, "rental_uris": {"ios": "https://dc.lft.to/lastmile_qr_scan", "android": "https://dc.lft.to/lastmile_qr_scan"}, "is_reserved": 0, "fusion_lon": 0.0, "fusion_lat": 0.0, "lon": -77.04817383333334, "name": "58a2a5b93cb54a68fb77a4c8c8b6af66"}, {"bike_id": "bf4f181859ed6cc089663917e321b694", "type": "electric_scooter", "is_disabled": 0, "lat": 38.90241733333333, "rental_uris": {"ios": "https://dc.lft.to/lastmile_qr_scan", "android": "https://dc.lft.to/lastmile_qr_scan"}, "is_reserved": 0, "fusion_lon": 0.0, "fusion_lat": 0.0, "lon": -77.040474, "name": "bf4f181859ed6cc089663917e321b694"}, {"bike_id": "3e356e10ad63c144f25b338392028f5d", "type": "electric_scooter", "is_disabled": 0, "lat": 38.935156666666664, "rental_uris": {"ios": "https://dc.lft.to/lastmile_qr_scan", "android": "https://dc.lft.to/lastmile_qr_scan"}, "is_reserved": 0, "fusion_lon": 0.0, "fusion_lat": 0.0, "lon": -77.03395766666667, "name": "3e356e10ad63c144f25b338392028f5d"}, {"bike_id": "a93d2811f0be2ffdbe41d7cca576a14f", "type": "electric_bike", "is_disabled": 0, "lat": 38.88054833333333, "rental_uris": {"ios": "https://dc.lft.to/lastmile_qr_scan", "android": "https://dc.lft.to/lastmile_qr_scan"}, "is_reserved": 0, "fusion_lon": 0.0, "fusion_lat": 0.0, "lon": -76.96244216666666, "name": "a93d2811f0be2ffdbe41d7cca576a14f"}, {"bike_id": "8f6583b9332f9a9f4caedce6e8730e47", "type": "electric_bike", "is_disabled": 0, "lat": 38.8727095, "rental_uris": {"ios": "https://dc.lft.to/lastmile_qr_scan", "android": "https://dc.lft.to/lastmile_qr_scan"}, "is_reserved": 0, "fusion_lon": 0.0, "fusion_lat": 0.0, "lon": -77.23249683333333, "name": "8f6583b9332f9a9f4caedce6e8730e47"}, {"bike_id": "a837084865bcbfdc8dfb500a9dc59cfd", "type": "electric_scooter", "is_disabled": 0, "lat": 38.947919666666664, "rental_uris": {"ios": "https://dc.lft.to/lastmile_qr_scan", "android": "https://dc.lft.to/lastmile_qr_scan"}, "is_reserved": 0, "fusion_lon": 0.0, "fusion_lat": 0.0, "lon": -77.021393, "name": "a837084865bcbfdc8dfb500a9dc59cfd"}, {"bike_id": "0be4dc931acd2544ec60e98e03780912", "type": "electric_scooter", "is_disabled": 0, "lat": 38.912911666666666, "rental_uris": {"ios": "https://dc.lft.to/lastmile_qr_scan", "android": "https://dc.lft.to/lastmile_qr_scan"}, "is_reserved": 0, "fusion_lon": 0.0, "fusion_lat": 0.0, "lon": -77.0453365, "name": "0be4dc931acd2544ec60e98e03780912"}, {"bike_id": "de3925871aba7f8d291a75211a6596d1", "type": "electric_bike", "is_disabled": 0, "lat": 38.9958875, "rental_uris": {"ios": "https://dc.lft.to/lastmile_qr_scan", "android": "https://dc.lft.to/lastmile_qr_scan"}, "is_reserved": 0, "fusion_lon": 0.0, "fusion_lat": 0.0, "lon": -77.02677866666667, "name": "de3925871aba7f8d291a75211a6596d1"}, {"bike_id": "c2c22b823748b1a9a2fae771b571ccb7", "type": "electric_scooter", "is_disabled": 0, "lat": 38.901416166666664, "rental_uris": {"ios": "https://dc.lft.to/lastmile_qr_scan", "android": "https://dc.lft.to/lastmile_qr_scan"}, "is_reserved": 0, "fusion_lon": 0.0, "fusion_lat": 0.0, "lon": -77.000737, "name": "c2c22b823748b1a9a2fae771b571ccb7"}, {"bike_id": "887ab145d39e89bb179f423b7796a4c0", "type": "electric_scooter", "is_disabled": 0, "lat": 38.8996755, "rental_uris": {"ios": "https://dc.lft.to/lastmile_qr_scan", "android": "https://dc.lft.to/lastmile_qr_scan"}, "is_reserved": 0, "fusion_lon": 0.0, "fusion_lat": 0.0, "lon": -77.03369216666667, "name": "887ab145d39e89bb179f423b7796a4c0"}, {"bike_id": "33156490e003cf07018896be9df4d5c9", "type": "electric_scooter", "is_disabled": 0, "lat": 38.90417433333333, "rental_uris": {"ios": "https://dc.lft.to/lastmile_qr_scan", "android": "https://dc.lft.to/lastmile_qr_scan"}, "is_reserved": 0, "fusion_lon": 0.0, "fusion_lat": 0.0, "lon": -76.998464, "name": "33156490e003cf07018896be9df4d5c9"}, {"bike_id": "0d0ab11ca84a6695e48f54846f19f0c5", "type": "electric_scooter", "is_disabled": 0, "lat": 38.877153166666666, "rental_uris": {"ios": "https://dc.lft.to/lastmile_qr_scan", "android": "https://dc.lft.to/lastmile_qr_scan"}, "is_reserved": 0, "fusion_lon": 0.0, "fusion_lat": 0.0, "lon": -77.01879816666667, "name": "0d0ab11ca84a6695e48f54846f19f0c5"}, {"bike_id": "740fc6bfa06a14b0ce6178c67550147b", "type": "electric_scooter", "is_disabled": 0, "lat": 38.866575166666664, "rental_uris": {"ios": "https://dc.lft.to/lastmile_qr_scan", "android": "https://dc.lft.to/lastmile_qr_scan"}, "is_reserved": 0, "fusion_lon": 0.0, "fusion_lat": 0.0, "lon": -76.98894516666667, "name": "740fc6bfa06a14b0ce6178c67550147b"}, {"bike_id": "cecb776ab2a59d70a2bf2635c8b3e74d", "type": "electric_scooter", "is_disabled": 0, "lat": 38.918457833333335, "rental_uris": {"ios": "https://dc.lft.to/lastmile_qr_scan", "android": "https://dc.lft.to/lastmile_qr_scan"}, "is_reserved": 0, "fusion_lon": 0.0, "fusion_lat": 0.0, "lon": -77.02531983333333, "name": "cecb776ab2a59d70a2bf2635c8b3e74d"}, {"bike_id": "9fa902a8e1311a1f3efdfc24285ce676", "type": "electric_scooter", "is_disabled": 0, "lat": 38.86979683333333, "rental_uris": {"ios": "https://dc.lft.to/lastmile_qr_scan", "android": "https://dc.lft.to/lastmile_qr_scan"}, "is_reserved": 0, "fusion_lon": 0.0, "fusion_lat": 0.0, "lon": -76.9817785, "name": "9fa902a8e1311a1f3efdfc24285ce676"}, {"bike_id": "0a84ed8657081bff11225bed8c11abfe", "type": "electric_scooter", "is_disabled": 0, "lat": 38.93395366666667, "rental_uris": {"ios": "https://dc.lft.to/lastmile_qr_scan", "android": "https://dc.lft.to/lastmile_qr_scan"}, "is_reserved": 0, "fusion_lon": 0.0, "fusion_lat": 0.0, "lon": -77.02213816666666, "name": "0a84ed8657081bff11225bed8c11abfe"}, {"bike_id": "b8c99e810fce569fc83e98637837387a", "type": "electric_scooter", "is_disabled": 0, "lat": 38.91111883333333, "rental_uris": {"ios": "https://dc.lft.to/lastmile_qr_scan", "android": "https://dc.lft.to/lastmile_qr_scan"}, "is_reserved": 0, "fusion_lon": 0.0, "fusion_lat": 0.0, "lon": -77.0223665, "name": "b8c99e810fce569fc83e98637837387a"}, {"bike_id": "4e6dbc2e2d61ba8efd98ee10f547b66c", "type": "electric_scooter", "is_disabled": 0, "lat": 38.889625, "rental_uris": {"ios": "https://dc.lft.to/lastmile_qr_scan", "android": "https://dc.lft.to/lastmile_qr_scan"}, "is_reserved": 0, "fusion_lon": 0.0, "fusion_lat": 0.0, "lon": -77.0282485, "name": "4e6dbc2e2d61ba8efd98ee10f547b66c"}, {"bike_id": "c529f440140f707031d6c697448bbab3", "type": "electric_scooter", "is_disabled": 0, "lat": 38.91962083333333, "rental_uris": {"ios": "https://dc.lft.to/lastmile_qr_scan", "android": "https://dc.lft.to/lastmile_qr_scan"}, "is_reserved": 0, "fusion_lon": 0.0, "fusion_lat": 0.0, "lon": -77.01444233333334, "name": "c529f440140f707031d6c697448bbab3"}, {"bike_id": "fda5e21b02df70fc2723ebfebbcc6429", "type": "electric_scooter", "is_disabled": 0, "lat": 38.91724083333333, "rental_uris": {"ios": "https://dc.lft.to/lastmile_qr_scan", "android": "https://dc.lft.to/lastmile_qr_scan"}, "is_reserved": 0, "fusion_lon": 0.0, "fusion_lat": 0.0, "lon": -77.02886183333334, "name": "fda5e21b02df70fc2723ebfebbcc6429"}, {"bike_id": "b12021919d5f23b302217fef94c18a7a", "type": "electric_scooter", "is_disabled": 0, "lat": 38.894780833333336, "rental_uris": {"ios": "https://dc.lft.to/lastmile_qr_scan", "android": "https://dc.lft.to/lastmile_qr_scan"}, "is_reserved": 0, "fusion_lon": 0.0, "fusion_lat": 0.0, "lon": -76.99489333333334, "name": "b12021919d5f23b302217fef94c18a7a"}, {"bike_id": "8386f9a866a66484aa3d26372c953700", "type": "electric_bike", "is_disabled": 0, "lat": 39.014767, "rental_uris": {"ios": "https://dc.lft.to/lastmile_qr_scan", "android": "https://dc.lft.to/lastmile_qr_scan"}, "is_reserved": 0, "fusion_lon": 0.0, "fusion_lat": 0.0, "lon": -77.05498266666666, "name": "8386f9a866a66484aa3d26372c953700"}, {"bike_id": "b7c5e4bbd3d5719778d4e854527e4052", "type": "electric_scooter", "is_disabled": 0, "lat": 38.89835183333334, "rental_uris": {"ios": "https://dc.lft.to/lastmile_qr_scan", "android": "https://dc.lft.to/lastmile_qr_scan"}, "is_reserved": 0, "fusion_lon": 0.0, "fusion_lat": 0.0, "lon": -76.94641483333334, "name": "b7c5e4bbd3d5719778d4e854527e4052"}, {"bike_id": "556517f463f65ecacb914f01f4fae975", "type": "electric_scooter", "is_disabled": 0, "lat": 38.906139, "rental_uris": {"ios": "https://dc.lft.to/lastmile_qr_scan", "android": "https://dc.lft.to/lastmile_qr_scan"}, "is_reserved": 0, "fusion_lon": 0.0, "fusion_lat": 0.0, "lon": -77.003751, "name": "556517f463f65ecacb914f01f4fae975"}, {"bike_id": "e42db7b81926fcd847c771a6e2abe444", "type": "electric_bike", "is_disabled": 0, "lat": 38.90867, "rental_uris": {"ios": "https://dc.lft.to/lastmile_qr_scan", "android": "https://dc.lft.to/lastmile_qr_scan"}, "is_reserved": 0, "fusion_lon": 0.0, "fusion_lat": 0.0, "lon": -77.07648333333333, "name": "e42db7b81926fcd847c771a6e2abe444"}, {"bike_id": "ad0968c307ba27a9725de782ba2731dc", "type": "electric_scooter", "is_disabled": 0, "lat": 38.916452, "rental_uris": {"ios": "https://dc.lft.to/lastmile_qr_scan", "android": "https://dc.lft.to/lastmile_qr_scan"}, "is_reserved": 0, "fusion_lon": 0.0, "fusion_lat": 0.0, "lon": -77.0226645, "name": "ad0968c307ba27a9725de782ba2731dc"}, {"bike_id": "561dbbf7e119af177bc11f51809eb010", "type": "electric_scooter", "is_disabled": 0, "lat": 38.90208883333333, "rental_uris": {"ios": "https://dc.lft.to/lastmile_qr_scan", "android": "https://dc.lft.to/lastmile_qr_scan"}, "is_reserved": 0, "fusion_lon": 0.0, "fusion_lat": 0.0, "lon": -77.02318883333334, "name": "561dbbf7e119af177bc11f51809eb010"}, {"bike_id": "ba515031f95f6d03fa868f0e586f5928", "type": "electric_scooter", "is_disabled": 0, "lat": 38.93464866666667, "rental_uris": {"ios": "https://dc.lft.to/lastmile_qr_scan", "android": "https://dc.lft.to/lastmile_qr_scan"}, "is_reserved": 0, "fusion_lon": 0.0, "fusion_lat": 0.0, "lon": -77.04546833333333, "name": "ba515031f95f6d03fa868f0e586f5928"}, {"bike_id": "500c2412698dcfc7839f99fb0ae56a2e", "type": "electric_scooter", "is_disabled": 0, "lat": 38.88274583333333, "rental_uris": {"ios": "https://dc.lft.to/lastmile_qr_scan", "android": "https://dc.lft.to/lastmile_qr_scan"}, "is_reserved": 0, "fusion_lon": 0.0, "fusion_lat": 0.0, "lon": -77.02149566666667, "name": "500c2412698dcfc7839f99fb0ae56a2e"}, {"bike_id": "035b297dd8371c6bf569657e5021908b", "type": "electric_scooter", "is_disabled": 0, "lat": 38.92255766666667, "rental_uris": {"ios": "https://dc.lft.to/lastmile_qr_scan", "android": "https://dc.lft.to/lastmile_qr_scan"}, "is_reserved": 0, "fusion_lon": 0.0, "fusion_lat": 0.0, "lon": -77.0422305, "name": "035b297dd8371c6bf569657e5021908b"}, {"bike_id": "8301e0d6af19a8d6ccc72175cd092049", "type": "electric_scooter", "is_disabled": 0, "lat": 38.91841766666667, "rental_uris": {"ios": "https://dc.lft.to/lastmile_qr_scan", "android": "https://dc.lft.to/lastmile_qr_scan"}, "is_reserved": 0, "fusion_lon": 0.0, "fusion_lat": 0.0, "lon": -76.9655155, "name": "8301e0d6af19a8d6ccc72175cd092049"}, {"bike_id": "4e6a7e05a4351157e12068c56a1f98a2", "type": "electric_bike", "is_disabled": 0, "lat": 38.9223315, "rental_uris": {"ios": "https://dc.lft.to/lastmile_qr_scan", "android": "https://dc.lft.to/lastmile_qr_scan"}, "is_reserved": 0, "fusion_lon": 0.0, "fusion_lat": 0.0, "lon": -77.04483683333333, "name": "4e6a7e05a4351157e12068c56a1f98a2"}, {"bike_id": "99f4092a1f56386c116511385b34faf8", "type": "electric_scooter", "is_disabled": 0, "lat": 38.899142499999996, "rental_uris": {"ios": "https://dc.lft.to/lastmile_qr_scan", "android": "https://dc.lft.to/lastmile_qr_scan"}, "is_reserved": 0, "fusion_lon": 0.0, "fusion_lat": 0.0, "lon": -76.93380383333333, "name": "99f4092a1f56386c116511385b34faf8"}, {"bike_id": "c779017e978f2d2ec177bef937ecd619", "type": "electric_bike", "is_disabled": 0, "lat": 38.85717983333333, "rental_uris": {"ios": "https://dc.lft.to/lastmile_qr_scan", "android": "https://dc.lft.to/lastmile_qr_scan"}, "is_reserved": 0, "fusion_lon": 0.0, "fusion_lat": 0.0, "lon": -77.07963283333333, "name": "c779017e978f2d2ec177bef937ecd619"}, {"bike_id": "2b0fdbb1a090f3a8398df0cacc2f9391", "type": "electric_scooter", "is_disabled": 0, "lat": 38.91358733333333, "rental_uris": {"ios": "https://dc.lft.to/lastmile_qr_scan", "android": "https://dc.lft.to/lastmile_qr_scan"}, "is_reserved": 0, "fusion_lon": 0.0, "fusion_lat": 0.0, "lon": -77.01998316666666, "name": "2b0fdbb1a090f3a8398df0cacc2f9391"}, {"bike_id": "1bc5f1ef75ef91ad274c11325dfa3236", "type": "electric_scooter", "is_disabled": 0, "lat": 38.916876333333335, "rental_uris": {"ios": "https://dc.lft.to/lastmile_qr_scan", "android": "https://dc.lft.to/lastmile_qr_scan"}, "is_reserved": 0, "fusion_lon": 0.0, "fusion_lat": 0.0, "lon": -77.03134183333333, "name": "1bc5f1ef75ef91ad274c11325dfa3236"}, {"bike_id": "0bc70ad17ac4433c8926f9344da3397e", "type": "electric_scooter", "is_disabled": 0, "lat": 38.905045, "rental_uris": {"ios": "https://dc.lft.to/lastmile_qr_scan", "android": "https://dc.lft.to/lastmile_qr_scan"}, "is_reserved": 0, "fusion_lon": 0.0, "fusion_lat": 0.0, "lon": -77.02978816666666, "name": "0bc70ad17ac4433c8926f9344da3397e"}, {"bike_id": "6df2a79bf5dcc60c226af27ff5bfa477", "type": "electric_scooter", "is_disabled": 0, "lat": 38.916835666666664, "rental_uris": {"ios": "https://dc.lft.to/lastmile_qr_scan", "android": "https://dc.lft.to/lastmile_qr_scan"}, "is_reserved": 0, "fusion_lon": 0.0, "fusion_lat": 0.0, "lon": -77.028954, "name": "6df2a79bf5dcc60c226af27ff5bfa477"}, {"bike_id": "7f7e40d65fbd5f0a2f6f8cc57f10bdd1", "type": "electric_scooter", "is_disabled": 0, "lat": 38.899617, "rental_uris": {"ios": "https://dc.lft.to/lastmile_qr_scan", "android": "https://dc.lft.to/lastmile_qr_scan"}, "is_reserved": 0, "fusion_lon": 0.0, "fusion_lat": 0.0, "lon": -76.9830705, "name": "7f7e40d65fbd5f0a2f6f8cc57f10bdd1"}, {"bike_id": "c87a082502589ca0d5611e0e7c2c7548", "type": "electric_scooter", "is_disabled": 0, "lat": 38.91597016666667, "rental_uris": {"ios": "https://dc.lft.to/lastmile_qr_scan", "android": "https://dc.lft.to/lastmile_qr_scan"}, "is_reserved": 0, "fusion_lon": 0.0, "fusion_lat": 0.0, "lon": -77.03986633333334, "name": "c87a082502589ca0d5611e0e7c2c7548"}, {"bike_id": "17ab47b5f0394e8b6e77f267deba9388", "type": "electric_bike", "is_disabled": 0, "lat": 38.94362616666667, "rental_uris": {"ios": "https://dc.lft.to/lastmile_qr_scan", "android": "https://dc.lft.to/lastmile_qr_scan"}, "is_reserved": 0, "fusion_lon": 0.0, "fusion_lat": 0.0, "lon": -77.00353933333334, "name": "17ab47b5f0394e8b6e77f267deba9388"}, {"bike_id": "ec35f65bdb688b620e45ce7ab678f2af", "type": "electric_scooter", "is_disabled": 0, "lat": 38.907894666666664, "rental_uris": {"ios": "https://dc.lft.to/lastmile_qr_scan", "android": "https://dc.lft.to/lastmile_qr_scan"}, "is_reserved": 0, "fusion_lon": 0.0, "fusion_lat": 0.0, "lon": -76.99457066666666, "name": "ec35f65bdb688b620e45ce7ab678f2af"}, {"bike_id": "631ef139eda6883fbd9189fd2d74dec6", "type": "electric_scooter", "is_disabled": 0, "lat": 38.93975616666667, "rental_uris": {"ios": "https://dc.lft.to/lastmile_qr_scan", "android": "https://dc.lft.to/lastmile_qr_scan"}, "is_reserved": 0, "fusion_lon": 0.0, "fusion_lat": 0.0, "lon": -77.02875933333333, "name": "631ef139eda6883fbd9189fd2d74dec6"}, {"bike_id": "dd275e1d5a7399f3579cddee6ea8cd9e", "type": "electric_scooter", "is_disabled": 0, "lat": 38.9461445, "rental_uris": {"ios": "https://dc.lft.to/lastmile_qr_scan", "android": "https://dc.lft.to/lastmile_qr_scan"}, "is_reserved": 0, "fusion_lon": 0.0, "fusion_lat": 0.0, "lon": -77.02269016666666, "name": "dd275e1d5a7399f3579cddee6ea8cd9e"}, {"bike_id": "7a829ee637e14d76520c3512e8f565b4", "type": "electric_scooter", "is_disabled": 0, "lat": 38.92704633333334, "rental_uris": {"ios": "https://dc.lft.to/lastmile_qr_scan", "android": "https://dc.lft.to/lastmile_qr_scan"}, "is_reserved": 0, "fusion_lon": 0.0, "fusion_lat": 0.0, "lon": -77.02076083333333, "name": "7a829ee637e14d76520c3512e8f565b4"}, {"bike_id": "ca37f31ece8593e352c3cc58069343d1", "type": "electric_scooter", "is_disabled": 0, "lat": 38.933178166666664, "rental_uris": {"ios": "https://dc.lft.to/lastmile_qr_scan", "android": "https://dc.lft.to/lastmile_qr_scan"}, "is_reserved": 0, "fusion_lon": 0.0, "fusion_lat": 0.0, "lon": -77.0239225, "name": "ca37f31ece8593e352c3cc58069343d1"}, {"bike_id": "9571f62133c97dabf8141d223b8709be", "type": "electric_scooter", "is_disabled": 0, "lat": 38.86625133333333, "rental_uris": {"ios": "https://dc.lft.to/lastmile_qr_scan", "android": "https://dc.lft.to/lastmile_qr_scan"}, "is_reserved": 0, "fusion_lon": 0.0, "fusion_lat": 0.0, "lon": -76.98717533333334, "name": "9571f62133c97dabf8141d223b8709be"}, {"bike_id": "44d6ccfd480af28f4d36a429ad43c51e", "type": "electric_scooter", "is_disabled": 0, "lat": 38.90549, "rental_uris": {"ios": "https://dc.lft.to/lastmile_qr_scan", "android": "https://dc.lft.to/lastmile_qr_scan"}, "is_reserved": 0, "fusion_lon": 0.0, "fusion_lat": 0.0, "lon": -77.021862, "name": "44d6ccfd480af28f4d36a429ad43c51e"}, {"bike_id": "ab35b3a73ddb014d02c4cb9ac6c40497", "type": "electric_scooter", "is_disabled": 0, "lat": 38.89485916666667, "rental_uris": {"ios": "https://dc.lft.to/lastmile_qr_scan", "android": "https://dc.lft.to/lastmile_qr_scan"}, "is_reserved": 0, "fusion_lon": 0.0, "fusion_lat": 0.0, "lon": -76.9878475, "name": "ab35b3a73ddb014d02c4cb9ac6c40497"}, {"bike_id": "7fae69bc690e6e3ca1e94ce09e25e238", "type": "electric_scooter", "is_disabled": 0, "lat": 38.91689183333333, "rental_uris": {"ios": "https://dc.lft.to/lastmile_qr_scan", "android": "https://dc.lft.to/lastmile_qr_scan"}, "is_reserved": 0, "fusion_lon": 0.0, "fusion_lat": 0.0, "lon": -77.0317945, "name": "7fae69bc690e6e3ca1e94ce09e25e238"}, {"bike_id": "9f6d71fd236425d800d2315a8f721e97", "type": "electric_scooter", "is_disabled": 0, "lat": 38.858073833333336, "rental_uris": {"ios": "https://dc.lft.to/lastmile_qr_scan", "android": "https://dc.lft.to/lastmile_qr_scan"}, "is_reserved": 0, "fusion_lon": 0.0, "fusion_lat": 0.0, "lon": -76.98926833333333, "name": "9f6d71fd236425d800d2315a8f721e97"}, {"bike_id": "1e1edbc40641b13c36e6f35540ca2ecd", "type": "electric_scooter", "is_disabled": 0, "lat": 38.870618666666665, "rental_uris": {"ios": "https://dc.lft.to/lastmile_qr_scan", "android": "https://dc.lft.to/lastmile_qr_scan"}, "is_reserved": 0, "fusion_lon": 0.0, "fusion_lat": 0.0, "lon": -76.98133033333333, "name": "1e1edbc40641b13c36e6f35540ca2ecd"}, {"bike_id": "178434e3463dec9f7d4fc81751ee09da", "type": "electric_scooter", "is_disabled": 0, "lat": 38.89296083333333, "rental_uris": {"ios": "https://dc.lft.to/lastmile_qr_scan", "android": "https://dc.lft.to/lastmile_qr_scan"}, "is_reserved": 0, "fusion_lon": 0.0, "fusion_lat": 0.0, "lon": -77.02024416666667, "name": "178434e3463dec9f7d4fc81751ee09da"}, {"bike_id": "54665f39d739b61aaa404ee77069eef4", "type": "electric_scooter", "is_disabled": 0, "lat": 38.88636483333333, "rental_uris": {"ios": "https://dc.lft.to/lastmile_qr_scan", "android": "https://dc.lft.to/lastmile_qr_scan"}, "is_reserved": 0, "fusion_lon": 0.0, "fusion_lat": 0.0, "lon": -77.0136325, "name": "54665f39d739b61aaa404ee77069eef4"}, {"bike_id": "68c89d6d66c7991680f701c90e4b24b5", "type": "electric_scooter", "is_disabled": 0, "lat": 38.897175833333336, "rental_uris": {"ios": "https://dc.lft.to/lastmile_qr_scan", "android": "https://dc.lft.to/lastmile_qr_scan"}, "is_reserved": 0, "fusion_lon": 0.0, "fusion_lat": 0.0, "lon": -77.0271215, "name": "68c89d6d66c7991680f701c90e4b24b5"}, {"bike_id": "db18ad6ad53c3baa2bac9f436e45be0c", "type": "electric_scooter", "is_disabled": 0, "lat": 38.935022833333335, "rental_uris": {"ios": "https://dc.lft.to/lastmile_qr_scan", "android": "https://dc.lft.to/lastmile_qr_scan"}, "is_reserved": 0, "fusion_lon": 0.0, "fusion_lat": 0.0, "lon": -77.02548766666666, "name": "db18ad6ad53c3baa2bac9f436e45be0c"}, {"bike_id": "69de86ae3b7dd0a3ff404d82208941b8", "type": "electric_scooter", "is_disabled": 0, "lat": 38.92285233333333, "rental_uris": {"ios": "https://dc.lft.to/lastmile_qr_scan", "android": "https://dc.lft.to/lastmile_qr_scan"}, "is_reserved": 0, "fusion_lon": 0.0, "fusion_lat": 0.0, "lon": -77.04473783333333, "name": "69de86ae3b7dd0a3ff404d82208941b8"}, {"bike_id": "2471a59be3eff371c58a16973dc1cf89", "type": "electric_scooter", "is_disabled": 0, "lat": 38.89670383333333, "rental_uris": {"ios": "https://dc.lft.to/lastmile_qr_scan", "android": "https://dc.lft.to/lastmile_qr_scan"}, "is_reserved": 0, "fusion_lon": 0.0, "fusion_lat": 0.0, "lon": -77.07110133333333, "name": "2471a59be3eff371c58a16973dc1cf89"}, {"bike_id": "231bcfb2255f919317ec0fc82ab656bb", "type": "electric_scooter", "is_disabled": 0, "lat": 38.910160166666664, "rental_uris": {"ios": "https://dc.lft.to/lastmile_qr_scan", "android": "https://dc.lft.to/lastmile_qr_scan"}, "is_reserved": 0, "fusion_lon": 0.0, "fusion_lat": 0.0, "lon": -77.03220266666666, "name": "231bcfb2255f919317ec0fc82ab656bb"}, {"bike_id": "967022c2c6b66217f43687e3ed070aab", "type": "electric_scooter", "is_disabled": 0, "lat": 38.90792366666667, "rental_uris": {"ios": "https://dc.lft.to/lastmile_qr_scan", "android": "https://dc.lft.to/lastmile_qr_scan"}, "is_reserved": 0, "fusion_lon": 0.0, "fusion_lat": 0.0, "lon": -77.04835466666667, "name": "967022c2c6b66217f43687e3ed070aab"}, {"bike_id": "f05a825ae08ff80ab9865a1397bf24ee", "type": "electric_scooter", "is_disabled": 0, "lat": 38.91836633333333, "rental_uris": {"ios": "https://dc.lft.to/lastmile_qr_scan", "android": "https://dc.lft.to/lastmile_qr_scan"}, "is_reserved": 0, "fusion_lon": 0.0, "fusion_lat": 0.0, "lon": -77.02302633333333, "name": "f05a825ae08ff80ab9865a1397bf24ee"}, {"bike_id": "e95c7124977cf76c40e0137dbbda4e0d", "type": "electric_bike", "is_disabled": 0, "lat": 38.8887765, "rental_uris": {"ios": "https://dc.lft.to/lastmile_qr_scan", "android": "https://dc.lft.to/lastmile_qr_scan"}, "is_reserved": 0, "fusion_lon": 0.0, "fusion_lat": 0.0, "lon": -77.0285955, "name": "e95c7124977cf76c40e0137dbbda4e0d"}, {"bike_id": "209a8d92a9ca81712cd581847a5fc1d7", "type": "electric_bike", "is_disabled": 0, "lat": 38.93144933333333, "rental_uris": {"ios": "https://dc.lft.to/lastmile_qr_scan", "android": "https://dc.lft.to/lastmile_qr_scan"}, "is_reserved": 0, "fusion_lon": 0.0, "fusion_lat": 0.0, "lon": -77.07858716666667, "name": "209a8d92a9ca81712cd581847a5fc1d7"}, {"bike_id": "50d7c85f9da1b120914e0e255430b7f8", "type": "electric_scooter", "is_disabled": 0, "lat": 38.90135466666667, "rental_uris": {"ios": "https://dc.lft.to/lastmile_qr_scan", "android": "https://dc.lft.to/lastmile_qr_scan"}, "is_reserved": 0, "fusion_lon": 0.0, "fusion_lat": 0.0, "lon": -77.02415383333333, "name": "50d7c85f9da1b120914e0e255430b7f8"}, {"bike_id": "66a8ec7e0a2203a4a43d4fcec31354b6", "type": "electric_scooter", "is_disabled": 0, "lat": 38.88774983333333, "rental_uris": {"ios": "https://dc.lft.to/lastmile_qr_scan", "android": "https://dc.lft.to/lastmile_qr_scan"}, "is_reserved": 0, "fusion_lon": 0.0, "fusion_lat": 0.0, "lon": -76.955274, "name": "66a8ec7e0a2203a4a43d4fcec31354b6"}, {"bike_id": "e370246c2a6e8c0766b0b40154745a29", "type": "electric_scooter", "is_disabled": 0, "lat": 38.9154845, "rental_uris": {"ios": "https://dc.lft.to/lastmile_qr_scan", "android": "https://dc.lft.to/lastmile_qr_scan"}, "is_reserved": 0, "fusion_lon": 0.0, "fusion_lat": 0.0, "lon": -77.03262283333333, "name": "e370246c2a6e8c0766b0b40154745a29"}, {"bike_id": "991efacb47c9b8377e2c150e4fc41f7f", "type": "electric_scooter", "is_disabled": 0, "lat": 38.90152633333334, "rental_uris": {"ios": "https://dc.lft.to/lastmile_qr_scan", "android": "https://dc.lft.to/lastmile_qr_scan"}, "is_reserved": 0, "fusion_lon": 0.0, "fusion_lat": 0.0, "lon": -77.03232616666666, "name": "991efacb47c9b8377e2c150e4fc41f7f"}, {"bike_id": "781ccddc6a02e102f37ab72b3a47036c", "type": "electric_scooter", "is_disabled": 0, "lat": 38.90953433333333, "rental_uris": {"ios": "https://dc.lft.to/lastmile_qr_scan", "android": "https://dc.lft.to/lastmile_qr_scan"}, "is_reserved": 0, "fusion_lon": 0.0, "fusion_lat": 0.0, "lon": -77.05575516666667, "name": "781ccddc6a02e102f37ab72b3a47036c"}, {"bike_id": "5a94fb82a05468094360ea7223c38483", "type": "electric_scooter", "is_disabled": 0, "lat": 38.86624366666667, "rental_uris": {"ios": "https://dc.lft.to/lastmile_qr_scan", "android": "https://dc.lft.to/lastmile_qr_scan"}, "is_reserved": 0, "fusion_lon": 0.0, "fusion_lat": 0.0, "lon": -76.987186, "name": "5a94fb82a05468094360ea7223c38483"}, {"bike_id": "483ecd660f60ebe2d95cf44c10aef210", "type": "electric_scooter", "is_disabled": 0, "lat": 38.876575333333335, "rental_uris": {"ios": "https://dc.lft.to/lastmile_qr_scan", "android": "https://dc.lft.to/lastmile_qr_scan"}, "is_reserved": 0, "fusion_lon": 0.0, "fusion_lat": 0.0, "lon": -77.0086635, "name": "483ecd660f60ebe2d95cf44c10aef210"}, {"bike_id": "32a20eb0b54bcad8514b14c93be70595", "type": "electric_scooter", "is_disabled": 0, "lat": 38.940174, "rental_uris": {"ios": "https://dc.lft.to/lastmile_qr_scan", "android": "https://dc.lft.to/lastmile_qr_scan"}, "is_reserved": 0, "fusion_lon": 0.0, "fusion_lat": 0.0, "lon": -77.02643383333333, "name": "32a20eb0b54bcad8514b14c93be70595"}, {"bike_id": "4809b5081f9f487c8d9917a6becc43d5", "type": "electric_scooter", "is_disabled": 0, "lat": 38.917248, "rental_uris": {"ios": "https://dc.lft.to/lastmile_qr_scan", "android": "https://dc.lft.to/lastmile_qr_scan"}, "is_reserved": 0, "fusion_lon": 0.0, "fusion_lat": 0.0, "lon": -77.01913033333334, "name": "4809b5081f9f487c8d9917a6becc43d5"}, {"bike_id": "ac068db38b571d8cb3e32085a834efca", "type": "electric_scooter", "is_disabled": 0, "lat": 38.90389616666667, "rental_uris": {"ios": "https://dc.lft.to/lastmile_qr_scan", "android": "https://dc.lft.to/lastmile_qr_scan"}, "is_reserved": 0, "fusion_lon": 0.0, "fusion_lat": 0.0, "lon": -77.00889316666667, "name": "ac068db38b571d8cb3e32085a834efca"}, {"bike_id": "4c1bfa1ecc696e06a3953ec531033eed", "type": "electric_scooter", "is_disabled": 0, "lat": 38.87444466666667, "rental_uris": {"ios": "https://dc.lft.to/lastmile_qr_scan", "android": "https://dc.lft.to/lastmile_qr_scan"}, "is_reserved": 0, "fusion_lon": 0.0, "fusion_lat": 0.0, "lon": -77.00920666666667, "name": "4c1bfa1ecc696e06a3953ec531033eed"}, {"bike_id": "0802f4d47e982c88a43c57da5f59a7a8", "type": "electric_scooter", "is_disabled": 0, "lat": 38.87628766666667, "rental_uris": {"ios": "https://dc.lft.to/lastmile_qr_scan", "android": "https://dc.lft.to/lastmile_qr_scan"}, "is_reserved": 0, "fusion_lon": 0.0, "fusion_lat": 0.0, "lon": -76.965285, "name": "0802f4d47e982c88a43c57da5f59a7a8"}, {"bike_id": "090c8421e3215dda737fd81ec89f2677", "type": "electric_scooter", "is_disabled": 0, "lat": 38.930336, "rental_uris": {"ios": "https://dc.lft.to/lastmile_qr_scan", "android": "https://dc.lft.to/lastmile_qr_scan"}, "is_reserved": 0, "fusion_lon": 0.0, "fusion_lat": 0.0, "lon": -77.02972766666667, "name": "090c8421e3215dda737fd81ec89f2677"}, {"bike_id": "dff741cb68cce44b2a72a30cb6a987e6", "type": "electric_scooter", "is_disabled": 0, "lat": 38.906972333333336, "rental_uris": {"ios": "https://dc.lft.to/lastmile_qr_scan", "android": "https://dc.lft.to/lastmile_qr_scan"}, "is_reserved": 0, "fusion_lon": 0.0, "fusion_lat": 0.0, "lon": -77.044976, "name": "dff741cb68cce44b2a72a30cb6a987e6"}, {"bike_id": "b60fa2ce37d2a3ec1f05879a92601ed1", "type": "electric_scooter", "is_disabled": 0, "lat": 38.92052916666667, "rental_uris": {"ios": "https://dc.lft.to/lastmile_qr_scan", "android": "https://dc.lft.to/lastmile_qr_scan"}, "is_reserved": 0, "fusion_lon": 0.0, "fusion_lat": 0.0, "lon": -76.99876316666666, "name": "b60fa2ce37d2a3ec1f05879a92601ed1"}, {"bike_id": "7458ab0a633d1aff15acbd2142096354", "type": "electric_scooter", "is_disabled": 0, "lat": 38.95616916666667, "rental_uris": {"ios": "https://dc.lft.to/lastmile_qr_scan", "android": "https://dc.lft.to/lastmile_qr_scan"}, "is_reserved": 0, "fusion_lon": 0.0, "fusion_lat": 0.0, "lon": -77.0102, "name": "7458ab0a633d1aff15acbd2142096354"}, {"bike_id": "4df21996564f608318990ea2ec4fc26b", "type": "electric_scooter", "is_disabled": 0, "lat": 38.901867, "rental_uris": {"ios": "https://dc.lft.to/lastmile_qr_scan", "android": "https://dc.lft.to/lastmile_qr_scan"}, "is_reserved": 0, "fusion_lon": 0.0, "fusion_lat": 0.0, "lon": -77.053437, "name": "4df21996564f608318990ea2ec4fc26b"}, {"bike_id": "4073aabd23fe80f4b7333a15d7beed0f", "type": "electric_scooter", "is_disabled": 0, "lat": 38.93953533333333, "rental_uris": {"ios": "https://dc.lft.to/lastmile_qr_scan", "android": "https://dc.lft.to/lastmile_qr_scan"}, "is_reserved": 0, "fusion_lon": 0.0, "fusion_lat": 0.0, "lon": -77.06074133333334, "name": "4073aabd23fe80f4b7333a15d7beed0f"}, {"bike_id": "ffc25c70f57ad43b0d44fd790ef2d48e", "type": "electric_scooter", "is_disabled": 0, "lat": 38.91561383333333, "rental_uris": {"ios": "https://dc.lft.to/lastmile_qr_scan", "android": "https://dc.lft.to/lastmile_qr_scan"}, "is_reserved": 0, "fusion_lon": 0.0, "fusion_lat": 0.0, "lon": -77.06756016666667, "name": "ffc25c70f57ad43b0d44fd790ef2d48e"}, {"bike_id": "89963eb284c25a3f6c17a0c35fd5f533", "type": "electric_scooter", "is_disabled": 0, "lat": 38.89882216666667, "rental_uris": {"ios": "https://dc.lft.to/lastmile_qr_scan", "android": "https://dc.lft.to/lastmile_qr_scan"}, "is_reserved": 0, "fusion_lon": 0.0, "fusion_lat": 0.0, "lon": -76.9318315, "name": "89963eb284c25a3f6c17a0c35fd5f533"}, {"bike_id": "d1e155aa55be77503c19482cafd44215", "type": "electric_scooter", "is_disabled": 0, "lat": 38.91990583333333, "rental_uris": {"ios": "https://dc.lft.to/lastmile_qr_scan", "android": "https://dc.lft.to/lastmile_qr_scan"}, "is_reserved": 0, "fusion_lon": 0.0, "fusion_lat": 0.0, "lon": -77.02228583333333, "name": "d1e155aa55be77503c19482cafd44215"}, {"bike_id": "c5ea091160b26cbc3db79b79d60276e3", "type": "electric_scooter", "is_disabled": 0, "lat": 38.9279295, "rental_uris": {"ios": "https://dc.lft.to/lastmile_qr_scan", "android": "https://dc.lft.to/lastmile_qr_scan"}, "is_reserved": 0, "fusion_lon": 0.0, "fusion_lat": 0.0, "lon": -77.0261055, "name": "c5ea091160b26cbc3db79b79d60276e3"}, {"bike_id": "d1834cf15f6c2ca3075acd4ebf605e62", "type": "electric_scooter", "is_disabled": 0, "lat": 38.909539, "rental_uris": {"ios": "https://dc.lft.to/lastmile_qr_scan", "android": "https://dc.lft.to/lastmile_qr_scan"}, "is_reserved": 0, "fusion_lon": 0.0, "fusion_lat": 0.0, "lon": -77.03304416666667, "name": "d1834cf15f6c2ca3075acd4ebf605e62"}, {"bike_id": "1ed8435954d14891de9044df3ae9c054", "type": "electric_scooter", "is_disabled": 0, "lat": 38.909242166666665, "rental_uris": {"ios": "https://dc.lft.to/lastmile_qr_scan", "android": "https://dc.lft.to/lastmile_qr_scan"}, "is_reserved": 0, "fusion_lon": 0.0, "fusion_lat": 0.0, "lon": -77.06085566666667, "name": "1ed8435954d14891de9044df3ae9c054"}, {"bike_id": "2a6927e582e1cebe296c64e58ad5df7b", "type": "electric_scooter", "is_disabled": 0, "lat": 38.9033785, "rental_uris": {"ios": "https://dc.lft.to/lastmile_qr_scan", "android": "https://dc.lft.to/lastmile_qr_scan"}, "is_reserved": 0, "fusion_lon": 0.0, "fusion_lat": 0.0, "lon": -77.061913, "name": "2a6927e582e1cebe296c64e58ad5df7b"}, {"bike_id": "cfaa67e7221531d5aa716ef29468ce25", "type": "electric_scooter", "is_disabled": 0, "lat": 38.9291615, "rental_uris": {"ios": "https://dc.lft.to/lastmile_qr_scan", "android": "https://dc.lft.to/lastmile_qr_scan"}, "is_reserved": 0, "fusion_lon": 0.0, "fusion_lat": 0.0, "lon": -77.020903, "name": "cfaa67e7221531d5aa716ef29468ce25"}, {"bike_id": "f2f7b11a02dbc9e7d4e9435a780fc8aa", "type": "electric_scooter", "is_disabled": 0, "lat": 38.9030835, "rental_uris": {"ios": "https://dc.lft.to/lastmile_qr_scan", "android": "https://dc.lft.to/lastmile_qr_scan"}, "is_reserved": 0, "fusion_lon": 0.0, "fusion_lat": 0.0, "lon": -77.038346, "name": "f2f7b11a02dbc9e7d4e9435a780fc8aa"}, {"bike_id": "6686e14270cb4cb5079fc666a1261151", "type": "electric_scooter", "is_disabled": 0, "lat": 38.89594683333333, "rental_uris": {"ios": "https://dc.lft.to/lastmile_qr_scan", "android": "https://dc.lft.to/lastmile_qr_scan"}, "is_reserved": 0, "fusion_lon": 0.0, "fusion_lat": 0.0, "lon": -77.0278955, "name": "6686e14270cb4cb5079fc666a1261151"}, {"bike_id": "6dde2157df6177309b7d8f9e8a921fdd", "type": "electric_scooter", "is_disabled": 0, "lat": 38.862057, "rental_uris": {"ios": "https://dc.lft.to/lastmile_qr_scan", "android": "https://dc.lft.to/lastmile_qr_scan"}, "is_reserved": 0, "fusion_lon": 0.0, "fusion_lat": 0.0, "lon": -76.99468033333333, "name": "6dde2157df6177309b7d8f9e8a921fdd"}, {"bike_id": "7010f6cd5a4a79410331a96725779ad7", "type": "electric_bike", "is_disabled": 0, "lat": 38.866150166666664, "rental_uris": {"ios": "https://dc.lft.to/lastmile_qr_scan", "android": "https://dc.lft.to/lastmile_qr_scan"}, "is_reserved": 0, "fusion_lon": 0.0, "fusion_lat": 0.0, "lon": -76.94573166666666, "name": "7010f6cd5a4a79410331a96725779ad7"}, {"bike_id": "01ccf19a417974aeba83f7a86c147c14", "type": "electric_scooter", "is_disabled": 0, "lat": 38.906993166666666, "rental_uris": {"ios": "https://dc.lft.to/lastmile_qr_scan", "android": "https://dc.lft.to/lastmile_qr_scan"}, "is_reserved": 0, "fusion_lon": 0.0, "fusion_lat": 0.0, "lon": -77.02391066666667, "name": "01ccf19a417974aeba83f7a86c147c14"}, {"bike_id": "18ec28bac5870be2b4e54000f21cd750", "type": "electric_scooter", "is_disabled": 0, "lat": 38.903600833333336, "rental_uris": {"ios": "https://dc.lft.to/lastmile_qr_scan", "android": "https://dc.lft.to/lastmile_qr_scan"}, "is_reserved": 0, "fusion_lon": 0.0, "fusion_lat": 0.0, "lon": -77.02940716666667, "name": "18ec28bac5870be2b4e54000f21cd750"}, {"bike_id": "7d7c8ccd3929d6e01d459db472180ab4", "type": "electric_bike", "is_disabled": 0, "lat": 38.936710833333336, "rental_uris": {"ios": "https://dc.lft.to/lastmile_qr_scan", "android": "https://dc.lft.to/lastmile_qr_scan"}, "is_reserved": 0, "fusion_lon": 0.0, "fusion_lat": 0.0, "lon": -76.95208416666667, "name": "7d7c8ccd3929d6e01d459db472180ab4"}, {"bike_id": "7f8a40e4de336db94f4d6967f8632614", "type": "electric_bike", "is_disabled": 0, "lat": 38.902040166666666, "rental_uris": {"ios": "https://dc.lft.to/lastmile_qr_scan", "android": "https://dc.lft.to/lastmile_qr_scan"}, "is_reserved": 0, "fusion_lon": 0.0, "fusion_lat": 0.0, "lon": -76.97411716666667, "name": "7f8a40e4de336db94f4d6967f8632614"}, {"bike_id": "2ede32c4319a0ce715d7a63fa84af7fc", "type": "electric_scooter", "is_disabled": 0, "lat": 38.914593333333336, "rental_uris": {"ios": "https://dc.lft.to/lastmile_qr_scan", "android": "https://dc.lft.to/lastmile_qr_scan"}, "is_reserved": 0, "fusion_lon": 0.0, "fusion_lat": 0.0, "lon": -77.022942, "name": "2ede32c4319a0ce715d7a63fa84af7fc"}, {"bike_id": "b8041d0e77f5ed34fd56e1e139b21873", "type": "electric_scooter", "is_disabled": 0, "lat": 38.91685233333333, "rental_uris": {"ios": "https://dc.lft.to/lastmile_qr_scan", "android": "https://dc.lft.to/lastmile_qr_scan"}, "is_reserved": 0, "fusion_lon": 0.0, "fusion_lat": 0.0, "lon": -77.029561, "name": "b8041d0e77f5ed34fd56e1e139b21873"}, {"bike_id": "ded2fd7fa340615e428907ba0f1e8f21", "type": "electric_scooter", "is_disabled": 0, "lat": 38.8984235, "rental_uris": {"ios": "https://dc.lft.to/lastmile_qr_scan", "android": "https://dc.lft.to/lastmile_qr_scan"}, "is_reserved": 0, "fusion_lon": 0.0, "fusion_lat": 0.0, "lon": -76.94636216666666, "name": "ded2fd7fa340615e428907ba0f1e8f21"}, {"bike_id": "4afc685b58577a19e8103265680b576e", "type": "electric_bike", "is_disabled": 0, "lat": 38.926383, "rental_uris": {"ios": "https://dc.lft.to/lastmile_qr_scan", "android": "https://dc.lft.to/lastmile_qr_scan"}, "is_reserved": 0, "fusion_lon": 0.0, "fusion_lat": 0.0, "lon": -76.98429533333334, "name": "4afc685b58577a19e8103265680b576e"}, {"bike_id": "e436f775bdf4d5911fad7ba5d06c596c", "type": "electric_scooter", "is_disabled": 0, "lat": 38.906585666666665, "rental_uris": {"ios": "https://dc.lft.to/lastmile_qr_scan", "android": "https://dc.lft.to/lastmile_qr_scan"}, "is_reserved": 0, "fusion_lon": 0.0, "fusion_lat": 0.0, "lon": -77.00987083333334, "name": "e436f775bdf4d5911fad7ba5d06c596c"}, {"bike_id": "88a9005927c8175e58f385d68e8db4e3", "type": "electric_bike", "is_disabled": 0, "lat": 38.92452566666667, "rental_uris": {"ios": "https://dc.lft.to/lastmile_qr_scan", "android": "https://dc.lft.to/lastmile_qr_scan"}, "is_reserved": 0, "fusion_lon": 0.0, "fusion_lat": 0.0, "lon": -77.22566933333333, "name": "88a9005927c8175e58f385d68e8db4e3"}, {"bike_id": "0fb5ce714bda091c3f5d1e55a51426f1", "type": "electric_scooter", "is_disabled": 0, "lat": 38.94196383333333, "rental_uris": {"ios": "https://dc.lft.to/lastmile_qr_scan", "android": "https://dc.lft.to/lastmile_qr_scan"}, "is_reserved": 0, "fusion_lon": 0.0, "fusion_lat": 0.0, "lon": -77.0243665, "name": "0fb5ce714bda091c3f5d1e55a51426f1"}, {"bike_id": "2598e3210574eeb37d90dc3ae79cdcd7", "type": "electric_scooter", "is_disabled": 0, "lat": 38.8668135, "rental_uris": {"ios": "https://dc.lft.to/lastmile_qr_scan", "android": "https://dc.lft.to/lastmile_qr_scan"}, "is_reserved": 0, "fusion_lon": 0.0, "fusion_lat": 0.0, "lon": -76.98578233333333, "name": "2598e3210574eeb37d90dc3ae79cdcd7"}, {"bike_id": "569f6f267f2b246928b4348205c24de8", "type": "electric_scooter", "is_disabled": 0, "lat": 38.9185365, "rental_uris": {"ios": "https://dc.lft.to/lastmile_qr_scan", "android": "https://dc.lft.to/lastmile_qr_scan"}, "is_reserved": 0, "fusion_lon": 0.0, "fusion_lat": 0.0, "lon": -77.041771, "name": "569f6f267f2b246928b4348205c24de8"}, {"bike_id": "78ddec2a4e054cea86caeffdf7b749b2", "type": "electric_scooter", "is_disabled": 0, "lat": 38.90235366666667, "rental_uris": {"ios": "https://dc.lft.to/lastmile_qr_scan", "android": "https://dc.lft.to/lastmile_qr_scan"}, "is_reserved": 0, "fusion_lon": 0.0, "fusion_lat": 0.0, "lon": -77.04331066666667, "name": "78ddec2a4e054cea86caeffdf7b749b2"}, {"bike_id": "0544b44efe278eb8ee8fbdaad1baecfb", "type": "electric_scooter", "is_disabled": 0, "lat": 38.897178, "rental_uris": {"ios": "https://dc.lft.to/lastmile_qr_scan", "android": "https://dc.lft.to/lastmile_qr_scan"}, "is_reserved": 0, "fusion_lon": 0.0, "fusion_lat": 0.0, "lon": -77.025036, "name": "0544b44efe278eb8ee8fbdaad1baecfb"}, {"bike_id": "20e9e6bc48e277a1e1dfce16e66a32fb", "type": "electric_scooter", "is_disabled": 0, "lat": 38.878658, "rental_uris": {"ios": "https://dc.lft.to/lastmile_qr_scan", "android": "https://dc.lft.to/lastmile_qr_scan"}, "is_reserved": 0, "fusion_lon": 0.0, "fusion_lat": 0.0, "lon": -76.96987366666667, "name": "20e9e6bc48e277a1e1dfce16e66a32fb"}, {"bike_id": "9e60cc181252c64e769baad59b9f1cd2", "type": "electric_scooter", "is_disabled": 0, "lat": 38.888494, "rental_uris": {"ios": "https://dc.lft.to/lastmile_qr_scan", "android": "https://dc.lft.to/lastmile_qr_scan"}, "is_reserved": 0, "fusion_lon": 0.0, "fusion_lat": 0.0, "lon": -76.926844, "name": "9e60cc181252c64e769baad59b9f1cd2"}, {"bike_id": "7828887dd4b9e60d0404997f06be62cb", "type": "electric_scooter", "is_disabled": 0, "lat": 38.874214333333335, "rental_uris": {"ios": "https://dc.lft.to/lastmile_qr_scan", "android": "https://dc.lft.to/lastmile_qr_scan"}, "is_reserved": 0, "fusion_lon": 0.0, "fusion_lat": 0.0, "lon": -76.96909116666667, "name": "7828887dd4b9e60d0404997f06be62cb"}, {"bike_id": "167df36bdb608bb938a65bdc2375d9e7", "type": "electric_scooter", "is_disabled": 0, "lat": 38.924765, "rental_uris": {"ios": "https://dc.lft.to/lastmile_qr_scan", "android": "https://dc.lft.to/lastmile_qr_scan"}, "is_reserved": 0, "fusion_lon": 0.0, "fusion_lat": 0.0, "lon": -77.02839216666666, "name": "167df36bdb608bb938a65bdc2375d9e7"}, {"bike_id": "de7a8c0ae94719703a1e7addc6d33802", "type": "electric_scooter", "is_disabled": 0, "lat": 38.92909216666666, "rental_uris": {"ios": "https://dc.lft.to/lastmile_qr_scan", "android": "https://dc.lft.to/lastmile_qr_scan"}, "is_reserved": 0, "fusion_lon": 0.0, "fusion_lat": 0.0, "lon": -77.02089083333334, "name": "de7a8c0ae94719703a1e7addc6d33802"}, {"bike_id": "141ac57d9c071267883f30d38070501e", "type": "electric_scooter", "is_disabled": 0, "lat": 38.853217666666666, "rental_uris": {"ios": "https://dc.lft.to/lastmile_qr_scan", "android": "https://dc.lft.to/lastmile_qr_scan"}, "is_reserved": 0, "fusion_lon": 0.0, "fusion_lat": 0.0, "lon": -76.98030533333333, "name": "141ac57d9c071267883f30d38070501e"}, {"bike_id": "3de92d4b39c6e62531f1cddade8d9399", "type": "electric_scooter", "is_disabled": 0, "lat": 38.906556, "rental_uris": {"ios": "https://dc.lft.to/lastmile_qr_scan", "android": "https://dc.lft.to/lastmile_qr_scan"}, "is_reserved": 0, "fusion_lon": 0.0, "fusion_lat": 0.0, "lon": -77.014682, "name": "3de92d4b39c6e62531f1cddade8d9399"}, {"bike_id": "f0b1ede8f67c3770d3dcd8cdff089f33", "type": "electric_scooter", "is_disabled": 0, "lat": 38.898686166666664, "rental_uris": {"ios": "https://dc.lft.to/lastmile_qr_scan", "android": "https://dc.lft.to/lastmile_qr_scan"}, "is_reserved": 0, "fusion_lon": 0.0, "fusion_lat": 0.0, "lon": -77.02700433333334, "name": "f0b1ede8f67c3770d3dcd8cdff089f33"}, {"bike_id": "7db99a0b8d6668c4f8f11d9bad0728f0", "type": "electric_scooter", "is_disabled": 0, "lat": 38.907486666666664, "rental_uris": {"ios": "https://dc.lft.to/lastmile_qr_scan", "android": "https://dc.lft.to/lastmile_qr_scan"}, "is_reserved": 0, "fusion_lon": 0.0, "fusion_lat": 0.0, "lon": -77.02386933333334, "name": "7db99a0b8d6668c4f8f11d9bad0728f0"}, {"bike_id": "7f6039e29ca2729838847b21e08ffd63", "type": "electric_bike", "is_disabled": 0, "lat": 39.04300216666667, "rental_uris": {"ios": "https://dc.lft.to/lastmile_qr_scan", "android": "https://dc.lft.to/lastmile_qr_scan"}, "is_reserved": 0, "fusion_lon": 0.0, "fusion_lat": 0.0, "lon": -77.0516195, "name": "7f6039e29ca2729838847b21e08ffd63"}, {"bike_id": "e6253168d4c688574ce0f0a81ef04c3b", "type": "electric_scooter", "is_disabled": 0, "lat": 38.92059316666667, "rental_uris": {"ios": "https://dc.lft.to/lastmile_qr_scan", "android": "https://dc.lft.to/lastmile_qr_scan"}, "is_reserved": 0, "fusion_lon": 0.0, "fusion_lat": 0.0, "lon": -77.02405366666666, "name": "e6253168d4c688574ce0f0a81ef04c3b"}, {"bike_id": "339358ebb1a7f86b8b964a556787bfc2", "type": "electric_scooter", "is_disabled": 0, "lat": 38.93096216666667, "rental_uris": {"ios": "https://dc.lft.to/lastmile_qr_scan", "android": "https://dc.lft.to/lastmile_qr_scan"}, "is_reserved": 0, "fusion_lon": 0.0, "fusion_lat": 0.0, "lon": -77.02464233333333, "name": "339358ebb1a7f86b8b964a556787bfc2"}, {"bike_id": "0623051eb2a5c8f165b508349d3cedc4", "type": "electric_scooter", "is_disabled": 0, "lat": 38.8893675, "rental_uris": {"ios": "https://dc.lft.to/lastmile_qr_scan", "android": "https://dc.lft.to/lastmile_qr_scan"}, "is_reserved": 0, "fusion_lon": 0.0, "fusion_lat": 0.0, "lon": -76.93582183333334, "name": "0623051eb2a5c8f165b508349d3cedc4"}, {"bike_id": "7be7e61894bda05c4f847e0e19260422", "type": "electric_scooter", "is_disabled": 0, "lat": 38.91811666666667, "rental_uris": {"ios": "https://dc.lft.to/lastmile_qr_scan", "android": "https://dc.lft.to/lastmile_qr_scan"}, "is_reserved": 0, "fusion_lon": 0.0, "fusion_lat": 0.0, "lon": -77.02530033333333, "name": "7be7e61894bda05c4f847e0e19260422"}, {"bike_id": "f24987b4353a870a81fee1e67b00f33b", "type": "electric_scooter", "is_disabled": 0, "lat": 38.90347633333333, "rental_uris": {"ios": "https://dc.lft.to/lastmile_qr_scan", "android": "https://dc.lft.to/lastmile_qr_scan"}, "is_reserved": 0, "fusion_lon": 0.0, "fusion_lat": 0.0, "lon": -77.03213416666667, "name": "f24987b4353a870a81fee1e67b00f33b"}, {"bike_id": "9619a9e62de50295d01b1ad0d045e56f", "type": "electric_scooter", "is_disabled": 0, "lat": 38.892249666666665, "rental_uris": {"ios": "https://dc.lft.to/lastmile_qr_scan", "android": "https://dc.lft.to/lastmile_qr_scan"}, "is_reserved": 0, "fusion_lon": 0.0, "fusion_lat": 0.0, "lon": -77.03236, "name": "9619a9e62de50295d01b1ad0d045e56f"}, {"bike_id": "d43cdd925845b4b661aa597357f47c27", "type": "electric_scooter", "is_disabled": 0, "lat": 38.90394933333334, "rental_uris": {"ios": "https://dc.lft.to/lastmile_qr_scan", "android": "https://dc.lft.to/lastmile_qr_scan"}, "is_reserved": 0, "fusion_lon": 0.0, "fusion_lat": 0.0, "lon": -77.0405755, "name": "d43cdd925845b4b661aa597357f47c27"}, {"bike_id": "dc653ca2f9c3f929b79a3d8deec5984d", "type": "electric_scooter", "is_disabled": 0, "lat": 38.905543, "rental_uris": {"ios": "https://dc.lft.to/lastmile_qr_scan", "android": "https://dc.lft.to/lastmile_qr_scan"}, "is_reserved": 0, "fusion_lon": 0.0, "fusion_lat": 0.0, "lon": -77.06512333333333, "name": "dc653ca2f9c3f929b79a3d8deec5984d"}, {"bike_id": "0f544d37b6dacb9438b9e51db9dc6569", "type": "electric_scooter", "is_disabled": 0, "lat": 38.84641, "rental_uris": {"ios": "https://dc.lft.to/lastmile_qr_scan", "android": "https://dc.lft.to/lastmile_qr_scan"}, "is_reserved": 0, "fusion_lon": 0.0, "fusion_lat": 0.0, "lon": -76.991382, "name": "0f544d37b6dacb9438b9e51db9dc6569"}, {"bike_id": "3771a97361df6683a1510391bedac9fb", "type": "electric_scooter", "is_disabled": 0, "lat": 38.905505833333336, "rental_uris": {"ios": "https://dc.lft.to/lastmile_qr_scan", "android": "https://dc.lft.to/lastmile_qr_scan"}, "is_reserved": 0, "fusion_lon": 0.0, "fusion_lat": 0.0, "lon": -77.004994, "name": "3771a97361df6683a1510391bedac9fb"}, {"bike_id": "700a66a3237a0216b470626170dd7aa5", "type": "electric_scooter", "is_disabled": 0, "lat": 38.91967483333333, "rental_uris": {"ios": "https://dc.lft.to/lastmile_qr_scan", "android": "https://dc.lft.to/lastmile_qr_scan"}, "is_reserved": 0, "fusion_lon": 0.0, "fusion_lat": 0.0, "lon": -77.0428505, "name": "700a66a3237a0216b470626170dd7aa5"}, {"bike_id": "83873c5bff752cbc8d030640dca28cec", "type": "electric_scooter", "is_disabled": 0, "lat": 38.89360333333333, "rental_uris": {"ios": "https://dc.lft.to/lastmile_qr_scan", "android": "https://dc.lft.to/lastmile_qr_scan"}, "is_reserved": 0, "fusion_lon": 0.0, "fusion_lat": 0.0, "lon": -76.94935983333333, "name": "83873c5bff752cbc8d030640dca28cec"}, {"bike_id": "1a6183f36e93ab4226ffe4e921c984b4", "type": "electric_scooter", "is_disabled": 0, "lat": 38.8885595, "rental_uris": {"ios": "https://dc.lft.to/lastmile_qr_scan", "android": "https://dc.lft.to/lastmile_qr_scan"}, "is_reserved": 0, "fusion_lon": 0.0, "fusion_lat": 0.0, "lon": -76.991474, "name": "1a6183f36e93ab4226ffe4e921c984b4"}, {"bike_id": "d5804402a48fa636eb41ca5ab0c4c5b7", "type": "electric_scooter", "is_disabled": 0, "lat": 38.87159466666667, "rental_uris": {"ios": "https://dc.lft.to/lastmile_qr_scan", "android": "https://dc.lft.to/lastmile_qr_scan"}, "is_reserved": 0, "fusion_lon": 0.0, "fusion_lat": 0.0, "lon": -77.01360816666667, "name": "d5804402a48fa636eb41ca5ab0c4c5b7"}, {"bike_id": "0f53dbef4c82ecfc359843162f72e999", "type": "electric_scooter", "is_disabled": 0, "lat": 38.918353, "rental_uris": {"ios": "https://dc.lft.to/lastmile_qr_scan", "android": "https://dc.lft.to/lastmile_qr_scan"}, "is_reserved": 0, "fusion_lon": 0.0, "fusion_lat": 0.0, "lon": -77.03941716666667, "name": "0f53dbef4c82ecfc359843162f72e999"}, {"bike_id": "a3ca8bca117d425f5b9f3ab66c55442a", "type": "electric_bike", "is_disabled": 0, "lat": 38.89605233333333, "rental_uris": {"ios": "https://dc.lft.to/lastmile_qr_scan", "android": "https://dc.lft.to/lastmile_qr_scan"}, "is_reserved": 0, "fusion_lon": 0.0, "fusion_lat": 0.0, "lon": -77.03010333333333, "name": "a3ca8bca117d425f5b9f3ab66c55442a"}, {"bike_id": "a2e457cbd80e993e8e09ed74a5014748", "type": "electric_bike", "is_disabled": 0, "lat": 38.8217535, "rental_uris": {"ios": "https://dc.lft.to/lastmile_qr_scan", "android": "https://dc.lft.to/lastmile_qr_scan"}, "is_reserved": 0, "fusion_lon": 0.0, "fusion_lat": 0.0, "lon": -76.99516316666667, "name": "a2e457cbd80e993e8e09ed74a5014748"}, {"bike_id": "4000203d251c545a9902676a8df4c19e", "type": "electric_scooter", "is_disabled": 0, "lat": 38.89747833333333, "rental_uris": {"ios": "https://dc.lft.to/lastmile_qr_scan", "android": "https://dc.lft.to/lastmile_qr_scan"}, "is_reserved": 0, "fusion_lon": 0.0, "fusion_lat": 0.0, "lon": -77.02644833333333, "name": "4000203d251c545a9902676a8df4c19e"}, {"bike_id": "f3c1d19e8bce5a4e0b261253d93d54df", "type": "electric_scooter", "is_disabled": 0, "lat": 38.928546833333336, "rental_uris": {"ios": "https://dc.lft.to/lastmile_qr_scan", "android": "https://dc.lft.to/lastmile_qr_scan"}, "is_reserved": 0, "fusion_lon": 0.0, "fusion_lat": 0.0, "lon": -77.014043, "name": "f3c1d19e8bce5a4e0b261253d93d54df"}, {"bike_id": "235a4b8eff107268438bcc4d7bd7a4bf", "type": "electric_scooter", "is_disabled": 0, "lat": 38.91382766666667, "rental_uris": {"ios": "https://dc.lft.to/lastmile_qr_scan", "android": "https://dc.lft.to/lastmile_qr_scan"}, "is_reserved": 0, "fusion_lon": 0.0, "fusion_lat": 0.0, "lon": -77.017126, "name": "235a4b8eff107268438bcc4d7bd7a4bf"}, {"bike_id": "ee4891d10e0b048bc36fded684075add", "type": "electric_bike", "is_disabled": 0, "lat": 38.908569, "rental_uris": {"ios": "https://dc.lft.to/lastmile_qr_scan", "android": "https://dc.lft.to/lastmile_qr_scan"}, "is_reserved": 0, "fusion_lon": 0.0, "fusion_lat": 0.0, "lon": -76.99143166666667, "name": "ee4891d10e0b048bc36fded684075add"}, {"bike_id": "beeddbdb43c7c521449756fea7986053", "type": "electric_scooter", "is_disabled": 0, "lat": 38.92731966666667, "rental_uris": {"ios": "https://dc.lft.to/lastmile_qr_scan", "android": "https://dc.lft.to/lastmile_qr_scan"}, "is_reserved": 0, "fusion_lon": 0.0, "fusion_lat": 0.0, "lon": -77.03426616666667, "name": "beeddbdb43c7c521449756fea7986053"}, {"bike_id": "25d66f9783c57651f65048d67bf9bbc6", "type": "electric_scooter", "is_disabled": 0, "lat": 38.91843, "rental_uris": {"ios": "https://dc.lft.to/lastmile_qr_scan", "android": "https://dc.lft.to/lastmile_qr_scan"}, "is_reserved": 0, "fusion_lon": 0.0, "fusion_lat": 0.0, "lon": -76.96552883333334, "name": "25d66f9783c57651f65048d67bf9bbc6"}, {"bike_id": "541dad9873fb97d911bd08d9886f9d64", "type": "electric_scooter", "is_disabled": 0, "lat": 38.879057833333334, "rental_uris": {"ios": "https://dc.lft.to/lastmile_qr_scan", "android": "https://dc.lft.to/lastmile_qr_scan"}, "is_reserved": 0, "fusion_lon": 0.0, "fusion_lat": 0.0, "lon": -77.0220275, "name": "541dad9873fb97d911bd08d9886f9d64"}, {"bike_id": "c2a83236eca8817c164f6d6165168554", "type": "electric_scooter", "is_disabled": 0, "lat": 38.910914, "rental_uris": {"ios": "https://dc.lft.to/lastmile_qr_scan", "android": "https://dc.lft.to/lastmile_qr_scan"}, "is_reserved": 0, "fusion_lon": 0.0, "fusion_lat": 0.0, "lon": -77.04218566666667, "name": "c2a83236eca8817c164f6d6165168554"}, {"bike_id": "20040bb0dd83b5db299965fe707da80c", "type": "electric_scooter", "is_disabled": 0, "lat": 38.9141535, "rental_uris": {"ios": "https://dc.lft.to/lastmile_qr_scan", "android": "https://dc.lft.to/lastmile_qr_scan"}, "is_reserved": 0, "fusion_lon": 0.0, "fusion_lat": 0.0, "lon": -77.03223983333334, "name": "20040bb0dd83b5db299965fe707da80c"}, {"bike_id": "e89b9c108b8e77aa9b935591a1228e58", "type": "electric_scooter", "is_disabled": 0, "lat": 38.880267833333335, "rental_uris": {"ios": "https://dc.lft.to/lastmile_qr_scan", "android": "https://dc.lft.to/lastmile_qr_scan"}, "is_reserved": 0, "fusion_lon": 0.0, "fusion_lat": 0.0, "lon": -77.01006866666667, "name": "e89b9c108b8e77aa9b935591a1228e58"}, {"bike_id": "6019252b519cb4e45758698c54c64dca", "type": "electric_scooter", "is_disabled": 0, "lat": 38.928493833333334, "rental_uris": {"ios": "https://dc.lft.to/lastmile_qr_scan", "android": "https://dc.lft.to/lastmile_qr_scan"}, "is_reserved": 0, "fusion_lon": 0.0, "fusion_lat": 0.0, "lon": -77.03307783333334, "name": "6019252b519cb4e45758698c54c64dca"}, {"bike_id": "d496e1154bda0f1c5108bbc1139ad5ae", "type": "electric_scooter", "is_disabled": 0, "lat": 38.9168675, "rental_uris": {"ios": "https://dc.lft.to/lastmile_qr_scan", "android": "https://dc.lft.to/lastmile_qr_scan"}, "is_reserved": 0, "fusion_lon": 0.0, "fusion_lat": 0.0, "lon": -77.02874316666667, "name": "d496e1154bda0f1c5108bbc1139ad5ae"}, {"bike_id": "0082e29aa962643505c6462052002cf5", "type": "electric_scooter", "is_disabled": 0, "lat": 38.876457, "rental_uris": {"ios": "https://dc.lft.to/lastmile_qr_scan", "android": "https://dc.lft.to/lastmile_qr_scan"}, "is_reserved": 0, "fusion_lon": 0.0, "fusion_lat": 0.0, "lon": -76.965102, "name": "0082e29aa962643505c6462052002cf5"}, {"bike_id": "b154cafd695930b7706cc6503a640f1a", "type": "electric_scooter", "is_disabled": 0, "lat": 38.922510833333334, "rental_uris": {"ios": "https://dc.lft.to/lastmile_qr_scan", "android": "https://dc.lft.to/lastmile_qr_scan"}, "is_reserved": 0, "fusion_lon": 0.0, "fusion_lat": 0.0, "lon": -77.04283533333333, "name": "b154cafd695930b7706cc6503a640f1a"}, {"bike_id": "97c4bb268e05f156c4255ea58b433940", "type": "electric_scooter", "is_disabled": 0, "lat": 38.899673, "rental_uris": {"ios": "https://dc.lft.to/lastmile_qr_scan", "android": "https://dc.lft.to/lastmile_qr_scan"}, "is_reserved": 0, "fusion_lon": 0.0, "fusion_lat": 0.0, "lon": -77.02158716666666, "name": "97c4bb268e05f156c4255ea58b433940"}, {"bike_id": "90321edbf2fa3561b88f85b66a24e734", "type": "electric_scooter", "is_disabled": 0, "lat": 38.909139833333334, "rental_uris": {"ios": "https://dc.lft.to/lastmile_qr_scan", "android": "https://dc.lft.to/lastmile_qr_scan"}, "is_reserved": 0, "fusion_lon": 0.0, "fusion_lat": 0.0, "lon": -77.03211833333333, "name": "90321edbf2fa3561b88f85b66a24e734"}, {"bike_id": "71a3e371dd43d1566f6488b49c41a9a3", "type": "electric_scooter", "is_disabled": 0, "lat": 38.930799666666665, "rental_uris": {"ios": "https://dc.lft.to/lastmile_qr_scan", "android": "https://dc.lft.to/lastmile_qr_scan"}, "is_reserved": 0, "fusion_lon": 0.0, "fusion_lat": 0.0, "lon": -77.03747966666667, "name": "71a3e371dd43d1566f6488b49c41a9a3"}, {"bike_id": "deaf35b727cd21148da9b458e12742d4", "type": "electric_scooter", "is_disabled": 0, "lat": 38.89912266666666, "rental_uris": {"ios": "https://dc.lft.to/lastmile_qr_scan", "android": "https://dc.lft.to/lastmile_qr_scan"}, "is_reserved": 0, "fusion_lon": 0.0, "fusion_lat": 0.0, "lon": -76.93381283333333, "name": "deaf35b727cd21148da9b458e12742d4"}, {"bike_id": "a01ee827dff89d87029cdb72e1dce24e", "type": "electric_scooter", "is_disabled": 0, "lat": 38.915360666666665, "rental_uris": {"ios": "https://dc.lft.to/lastmile_qr_scan", "android": "https://dc.lft.to/lastmile_qr_scan"}, "is_reserved": 0, "fusion_lon": 0.0, "fusion_lat": 0.0, "lon": -77.032001, "name": "a01ee827dff89d87029cdb72e1dce24e"}, {"bike_id": "090f66e69b016c039762e962f502f0ce", "type": "electric_scooter", "is_disabled": 0, "lat": 38.8970575, "rental_uris": {"ios": "https://dc.lft.to/lastmile_qr_scan", "android": "https://dc.lft.to/lastmile_qr_scan"}, "is_reserved": 0, "fusion_lon": 0.0, "fusion_lat": 0.0, "lon": -77.04877766666667, "name": "090f66e69b016c039762e962f502f0ce"}, {"bike_id": "83eeb4c3d003ae7b0b99a4476d78d62e", "type": "electric_scooter", "is_disabled": 0, "lat": 38.9479065, "rental_uris": {"ios": "https://dc.lft.to/lastmile_qr_scan", "android": "https://dc.lft.to/lastmile_qr_scan"}, "is_reserved": 0, "fusion_lon": 0.0, "fusion_lat": 0.0, "lon": -77.0213265, "name": "83eeb4c3d003ae7b0b99a4476d78d62e"}, {"bike_id": "f955b58b0256d9754a2a9d4dad2c45a7", "type": "electric_scooter", "is_disabled": 0, "lat": 38.89189366666667, "rental_uris": {"ios": "https://dc.lft.to/lastmile_qr_scan", "android": "https://dc.lft.to/lastmile_qr_scan"}, "is_reserved": 0, "fusion_lon": 0.0, "fusion_lat": 0.0, "lon": -77.03640116666666, "name": "f955b58b0256d9754a2a9d4dad2c45a7"},