{"data": {"bikes": [{"bike_id": "86fec0e85ef372d473225eca896a2150", "name": "86fec0e85ef372d473225eca896a2150", "lat": 38.923267833333334, "fusion_lat": 0.0, "type": "electric_scooter", "lon": -77.019577, "is_disabled": 0, "fusion_lon": 0.0, "rental_uris": {"android": "https://dc.lft.to/lastmile_qr_scan", "ios": "https://dc.lft.to/lastmile_qr_scan"}, "is_reserved": 0}, {"bike_id": "510abc72dc192ef06b54965bacfbb516", "name": "510abc72dc192ef06b54965bacfbb516", "lat": 38.862842666666666, "fusion_lat": 0.0, "type": "electric_bike", "lon": -76.98004833333333, "is_disabled": 0, "fusion_lon": 0.0, "rental_uris": {"android": "https://dc.lft.to/lastmile_qr_scan", "ios": "https://dc.lft.to/lastmile_qr_scan"}, "is_reserved": 0}, {"bike_id": "ca60badef8f1a25cff2372504e3a6cfe", "name": "ca60badef8f1a25cff2372504e3a6cfe", "lat": 38.91713766666667, "fusion_lat": 0.0, "type": "electric_scooter", "lon": -77.03337833333333, "is_disabled": 0, "fusion_lon": 0.0, "rental_uris": {"android": "https://dc.lft.to/lastmile_qr_scan", "ios": "https://dc.lft.to/lastmile_qr_scan"}, "is_reserved": 0}, {"bike_id": "ba90c5df5130c2faf5e09eccfd31d377", "name": "ba90c5df5130c2faf5e09eccfd31d377", "lat": 39.010931666666664, "fusion_lat": 0.0, "type": "electric_bike", "lon": -77.04953616666667, "is_disabled": 0, "fusion_lon": 0.0, "rental_uris": {"android": "https://dc.lft.to/lastmile_qr_scan", "ios": "https://dc.lft.to/lastmile_qr_scan"}, "is_reserved": 0}, {"bike_id": "6964482ee0d4d226993f099985da605c", "name": "6964482ee0d4d226993f099985da605c", "lat": 39.0000045, "fusion_lat": 0.0, "type": "electric_bike", "lon": -76.91802916666667, "is_disabled": 0, "fusion_lon": 0.0, "rental_uris": {"android": "https://dc.lft.to/lastmile_qr_scan", "ios": "https://dc.lft.to/lastmile_qr_scan"}, "is_reserved": 0}, {"bike_id": "eacf0ed2cdd738544d052e5975f71476", "name": "eacf0ed2cdd738544d052e5975f71476", "lat": 38.8578185, "fusion_lat": 0.0, "type": "electric_bike", "lon": -76.987468, "is_disabled": 0, "fusion_lon": 0.0, "rental_uris": {"android": "https://dc.lft.to/lastmile_qr_scan", "ios": "https://dc.lft.to/lastmile_qr_scan"}, "is_reserved": 0}, {"bike_id": "5e330b3617d7c44095ecac23067ec565", "name": "5e330b3617d7c44095ecac23067ec565", "lat": 38.92994733333333, "fusion_lat": 0.0, "type": "electric_scooter", "lon": -77.0326995, "is_disabled": 0, "fusion_lon": 0.0, "rental_uris": {"android": "https://dc.lft.to/lastmile_qr_scan", "ios": "https://dc.lft.to/lastmile_qr_scan"}, "is_reserved": 0}, {"bike_id": "2c6e0a4bdd0d75dcce7c2327b2c24ee7", "name": "2c6e0a4bdd0d75dcce7c2327b2c24ee7", "lat": 38.92435433333333, "fusion_lat": 0.0, "type": "electric_scooter", "lon": -76.996657, "is_disabled": 0, "fusion_lon": 0.0, "rental_uris": {"android": "https://dc.lft.to/lastmile_qr_scan", "ios": "https://dc.lft.to/lastmile_qr_scan"}, "is_reserved": 0}, {"bike_id": "a3fd289ab040c3d9950555ece3ee4c57", "name": "a3fd289ab040c3d9950555ece3ee4c57", "lat": 38.88502666666667, "fusion_lat": 0.0, "type": "electric_scooter", "lon": -77.0022045, "is_disabled": 0, "fusion_lon": 0.0, "rental_uris": {"android": "https://dc.lft.to/lastmile_qr_scan", "ios": "https://dc.lft.to/lastmile_qr_scan"}, "is_reserved": 0}, {"bike_id": "6bf4d095d974363bb3ab484b490bde36", "name": "6bf4d095d974363bb3ab484b490bde36", "lat": 38.9168015, "fusion_lat": 0.0, "type": "electric_scooter", "lon": -77.02953766666667, "is_disabled": 0, "fusion_lon": 0.0, "rental_uris": {"android": "https://dc.lft.to/lastmile_qr_scan", "ios": "https://dc.lft.to/lastmile_qr_scan"}, "is_reserved": 0}, {"bike_id": "f666353e3252fca80fd65c6babb655b2", "name": "f666353e3252fca80fd65c6babb655b2", "lat": 38.89815983333333, "fusion_lat": 0.0, "type": "electric_scooter", "lon": -77.04888566666666, "is_disabled": 0, "fusion_lon": 0.0, "rental_uris": {"android": "https://dc.lft.to/lastmile_qr_scan", "ios": "https://dc.lft.to/lastmile_qr_scan"}, "is_reserved": 0}, {"bike_id": "1d4bc0f07e6e392e779e2c10430497c3", "name": "1d4bc0f07e6e392e779e2c10430497c3", "lat": 38.924805666666664, "fusion_lat": 0.0, "type": "electric_scooter", "lon": -77.02714533333334, "is_disabled": 0, "fusion_lon": 0.0, "rental_uris": {"android": "https://dc.lft.to/lastmile_qr_scan", "ios": "https://dc.lft.to/lastmile_qr_scan"}, "is_reserved": 0}, {"bike_id": "c211e356f934db10fab67829e1f74289", "name": "c211e356f934db10fab67829e1f74289", "lat": 38.91604016666667, "fusion_lat": 0.0, "type": "electric_scooter", "lon": -77.023897, "is_disabled": 0, "fusion_lon": 0.0, "rental_uris": {"android": "https://dc.lft.to/lastmile_qr_scan", "ios": "https://dc.lft.to/lastmile_qr_scan"}, "is_reserved": 0}, {"bike_id": "474569163171d6633660f805facf60a6", "name": "474569163171d6633660f805facf60a6", "lat": 38.92326333333333, "fusion_lat": 0.0, "type": "electric_scooter", "lon": -77.02073666666666, "is_disabled": 0, "fusion_lon": 0.0, "rental_uris": {"android": "https://dc.lft.to/lastmile_qr_scan", "ios": "https://dc.lft.to/lastmile_qr_scan"}, "is_reserved": 0}, {"bike_id": "368118a5e33cbf0d833774e91b3bb9a1", "name": "368118a5e33cbf0d833774e91b3bb9a1", "lat": 38.899815333333336, "fusion_lat": 0.0, "type": "electric_scooter", "lon": -77.020751, "is_disabled": 0, "fusion_lon": 0.0, "rental_uris": {"android": "https://dc.lft.to/lastmile_qr_scan", "ios": "https://dc.lft.to/lastmile_qr_scan"}, "is_reserved": 0}, {"bike_id": "02fa1e2602addbe8211125a1ee544c97", "name": "02fa1e2602addbe8211125a1ee544c97", "lat": 38.9325485, "fusion_lat": 0.0, "type": "electric_scooter", "lon": -77.0309545, "is_disabled": 0, "fusion_lon": 0.0, "rental_uris": {"android": "https://dc.lft.to/lastmile_qr_scan", "ios": "https://dc.lft.to/lastmile_qr_scan"}, "is_reserved": 0}, {"bike_id": "8a09ad1ce9396741062e63f7578b87c8", "name": "8a09ad1ce9396741062e63f7578b87c8", "lat": 38.88734866666667, "fusion_lat": 0.0, "type": "electric_scooter", "lon": -77.02614566666666, "is_disabled": 0, "fusion_lon": 0.0, "rental_uris": {"android": "https://dc.lft.to/lastmile_qr_scan", "ios": "https://dc.lft.to/lastmile_qr_scan"}, "is_reserved": 0}, {"bike_id": "c98d3245d99cae6ab72ce92f5fe061f4", "name": "c98d3245d99cae6ab72ce92f5fe061f4", "lat": 38.915651, "fusion_lat": 0.0, "type": "electric_scooter", "lon": -76.98391066666667, "is_disabled": 0, "fusion_lon": 0.0, "rental_uris": {"android": "https://dc.lft.to/lastmile_qr_scan", "ios": "https://dc.lft.to/lastmile_qr_scan"}, "is_reserved": 0}, {"bike_id": "a15c72d7e32daef86d718622bdcd5614", "name": "a15c72d7e32daef86d718622bdcd5614", "lat": 38.899881666666666, "fusion_lat": 0.0, "type": "electric_scooter", "lon": -77.02928383333334, "is_disabled": 0, "fusion_lon": 0.0, "rental_uris": {"android": "https://dc.lft.to/lastmile_qr_scan", "ios": "https://dc.lft.to/lastmile_qr_scan"}, "is_reserved": 0}, {"bike_id": "90b6766477359c1f8e3c34a0563bf334", "name": "90b6766477359c1f8e3c34a0563bf334", "lat": 38.900599166666666, "fusion_lat": 0.0, "type": "electric_scooter", "lon": -77.048206, "is_disabled": 0, "fusion_lon": 0.0, "rental_uris": {"android": "https://dc.lft.to/lastmile_qr_scan", "ios": "https://dc.lft.to/lastmile_qr_scan"}, "is_reserved": 0}, {"bike_id": "b2a1c5718a57cd2b124abdb335e79d54", "name": "b2a1c5718a57cd2b124abdb335e79d54", "lat": 38.9096655, "fusion_lat": 0.0, "type": "electric_scooter", "lon": -77.0381485, "is_disabled": 0, "fusion_lon": 0.0, "rental_uris": {"android": "https://dc.lft.to/lastmile_qr_scan", "ios": "https://dc.lft.to/lastmile_qr_scan"}, "is_reserved": 0}, {"bike_id": "ca1df2c808a49bb5ca52678f5b15344d", "name": "ca1df2c808a49bb5ca52678f5b15344d", "lat": 38.91094316666667, "fusion_lat": 0.0, "type": "electric_scooter", "lon": -76.984725, "is_disabled": 0, "fusion_lon": 0.0, "rental_uris": {"android": "https://dc.lft.to/lastmile_qr_scan", "ios": "https://dc.lft.to/lastmile_qr_scan"}, "is_reserved": 0}, {"bike_id": "4e6bed04976a632239ceaf96146dbaae", "name": "4e6bed04976a632239ceaf96146dbaae", "lat": 38.9181435, "fusion_lat": 0.0, "type": "electric_scooter", "lon": -77.04519233333333, "is_disabled": 0, "fusion_lon": 0.0, "rental_uris": {"android": "https://dc.lft.to/lastmile_qr_scan", "ios": "https://dc.lft.to/lastmile_qr_scan"}, "is_reserved": 0}, {"bike_id": "5d070e0cce9a850e48aef19470e515fb", "name": "5d070e0cce9a850e48aef19470e515fb", "lat": 38.886897166666664, "fusion_lat": 0.0, "type": "electric_bike", "lon": -76.97630816666667, "is_disabled": 0, "fusion_lon": 0.0, "rental_uris": {"android": "https://dc.lft.to/lastmile_qr_scan", "ios": "https://dc.lft.to/lastmile_qr_scan"}, "is_reserved": 0}, {"bike_id": "4063ca3bf6dbb136ff89de2a9d6d137f", "name": "4063ca3bf6dbb136ff89de2a9d6d137f", "lat": 38.89344533333333, "fusion_lat": 0.0, "type": "electric_scooter", "lon": -76.9937585, "is_disabled": 0, "fusion_lon": 0.0, "rental_uris": {"android": "https://dc.lft.to/lastmile_qr_scan", "ios": "https://dc.lft.to/lastmile_qr_scan"}, "is_reserved": 0}, {"bike_id": "3542acfb3d6fbad40982a3375d2fd09b", "name": "3542acfb3d6fbad40982a3375d2fd09b", "lat": 38.91958616666667, "fusion_lat": 0.0, "type": "electric_scooter", "lon": -77.023853, "is_disabled": 0, "fusion_lon": 0.0, "rental_uris": {"android": "https://dc.lft.to/lastmile_qr_scan", "ios": "https://dc.lft.to/lastmile_qr_scan"}, "is_reserved": 0}, {"bike_id": "e14119a96aa926cfd5a3dc89e7e3e77c", "name": "e14119a96aa926cfd5a3dc89e7e3e77c", "lat": 38.9083385, "fusion_lat": 0.0, "type": "electric_scooter", "lon": -76.996918, "is_disabled": 0, "fusion_lon": 0.0, "rental_uris": {"android": "https://dc.lft.to/lastmile_qr_scan", "ios": "https://dc.lft.to/lastmile_qr_scan"}, "is_reserved": 0}, {"bike_id": "92d888de57a8e9bdb088137dca767569", "name": "92d888de57a8e9bdb088137dca767569", "lat": 38.907829666666665, "fusion_lat": 0.0, "type": "electric_scooter", "lon": -77.044982, "is_disabled": 0, "fusion_lon": 0.0, "rental_uris": {"android": "https://dc.lft.to/lastmile_qr_scan", "ios": "https://dc.lft.to/lastmile_qr_scan"}, "is_reserved": 0}, {"bike_id": "503adc40de766b64b45730367cbf75ea", "name": "503adc40de766b64b45730367cbf75ea", "lat": 38.9053675, "fusion_lat": 0.0, "type": "electric_scooter", "lon": -77.05915633333333, "is_disabled": 0, "fusion_lon": 0.0, "rental_uris": {"android": "https://dc.lft.to/lastmile_qr_scan", "ios": "https://dc.lft.to/lastmile_qr_scan"}, "is_reserved": 0}, {"bike_id": "f4847f3633ea2cc97995f7d568bbff0c", "name": "f4847f3633ea2cc97995f7d568bbff0c", "lat": 38.920737, "fusion_lat": 0.0, "type": "electric_scooter", "lon": -77.02522116666667, "is_disabled": 0, "fusion_lon": 0.0, "rental_uris": {"android": "https://dc.lft.to/lastmile_qr_scan", "ios": "https://dc.lft.to/lastmile_qr_scan"}, "is_reserved": 0}, {"bike_id": "b6938dc5c434a5016c8b830714306395", "name": "b6938dc5c434a5016c8b830714306395", "lat": 38.9331255, "fusion_lat": 0.0, "type": "electric_scooter", "lon": -77.02904183333334, "is_disabled": 0, "fusion_lon": 0.0, "rental_uris": {"android": "https://dc.lft.to/lastmile_qr_scan", "ios": "https://dc.lft.to/lastmile_qr_scan"}, "is_reserved": 0}, {"bike_id": "aa949904e2950ce187dd863b5515ba6b", "name": "aa949904e2950ce187dd863b5515ba6b", "lat": 38.846174500000004, "fusion_lat": 0.0, "type": "electric_scooter", "lon": -76.98119083333333, "is_disabled": 0, "fusion_lon": 0.0, "rental_uris": {"android": "https://dc.lft.to/lastmile_qr_scan", "ios": "https://dc.lft.to/lastmile_qr_scan"}, "is_reserved": 0}, {"bike_id": "c32602103f59efdbccaea8931aff433e", "name": "c32602103f59efdbccaea8931aff433e", "lat": 38.83607683333334, "fusion_lat": 0.0, "type": "electric_bike", "lon": -77.00383383333333, "is_disabled": 0, "fusion_lon": 0.0, "rental_uris": {"android": "https://dc.lft.to/lastmile_qr_scan", "ios": "https://dc.lft.to/lastmile_qr_scan"}, "is_reserved": 0}, {"bike_id": "96e614016284bfe91ad7f8627b556192", "name": "96e614016284bfe91ad7f8627b556192", "lat": 38.924781333333335, "fusion_lat": 0.0, "type": "electric_scooter", "lon": -77.0271265, "is_disabled": 0, "fusion_lon": 0.0, "rental_uris": {"android": "https://dc.lft.to/lastmile_qr_scan", "ios": "https://dc.lft.to/lastmile_qr_scan"}, "is_reserved": 0}, {"bike_id": "7ea1698f8ee4a6111fa470ca2f89592b", "name": "7ea1698f8ee4a6111fa470ca2f89592b", "lat": 38.97418483333333, "fusion_lat": 0.0, "type": "electric_bike", "lon": -77.01256033333334, "is_disabled": 0, "fusion_lon": 0.0, "rental_uris": {"android": "https://dc.lft.to/lastmile_qr_scan", "ios": "https://dc.lft.to/lastmile_qr_scan"}, "is_reserved": 0}, {"bike_id": "94b671c5709520ff2a9ad2fdb1e34d6e", "name": "94b671c5709520ff2a9ad2fdb1e34d6e", "lat": 38.92744366666667, "fusion_lat": 0.0, "type": "electric_scooter", "lon": -77.014496, "is_disabled": 0, "fusion_lon": 0.0, "rental_uris": {"android": "https://dc.lft.to/lastmile_qr_scan", "ios": "https://dc.lft.to/lastmile_qr_scan"}, "is_reserved": 0}, {"bike_id": "ff78296d8bbf31771df4fe49376d166b", "name": "ff78296d8bbf31771df4fe49376d166b", "lat": 38.89720916666667, "fusion_lat": 0.0, "type": "electric_scooter", "lon": -77.02531683333333, "is_disabled": 0, "fusion_lon": 0.0, "rental_uris": {"android": "https://dc.lft.to/lastmile_qr_scan", "ios": "https://dc.lft.to/lastmile_qr_scan"}, "is_reserved": 0}, {"bike_id": "bfd850a6adee179c5e0c3f16cc4690fc", "name": "bfd850a6adee179c5e0c3f16cc4690fc", "lat": 38.93269166666666, "fusion_lat": 0.0, "type": "electric_scooter", "lon": -77.0349295, "is_disabled": 0, "fusion_lon": 0.0, "rental_uris": {"android": "https://dc.lft.to/lastmile_qr_scan", "ios": "https://dc.lft.to/lastmile_qr_scan"}, "is_reserved": 0}, {"bike_id": "b5065e26fc064d44c6222d23fe81d602", "name": "b5065e26fc064d44c6222d23fe81d602", "lat": 38.920211, "fusion_lat": 0.0, "type": "electric_scooter", "lon": -77.0179565, "is_disabled": 0, "fusion_lon": 0.0, "rental_uris": {"android": "https://dc.lft.to/lastmile_qr_scan", "ios": "https://dc.lft.to/lastmile_qr_scan"}, "is_reserved": 0}, {"bike_id": "d7a1c6191d401e40a4865c87719fda04", "name": "d7a1c6191d401e40a4865c87719fda04", "lat": 38.99517983333333, "fusion_lat": 0.0, "type": "electric_bike", "lon": -77.03781366666666, "is_disabled": 0, "fusion_lon": 0.0, "rental_uris": {"android": "https://dc.lft.to/lastmile_qr_scan", "ios": "https://dc.lft.to/lastmile_qr_scan"}, "is_reserved": 0}, {"bike_id": "ac12ba463fbd6ce795bd9a0d7727258c", "name": "ac12ba463fbd6ce795bd9a0d7727258c", "lat": 38.90039483333334, "fusion_lat": 0.0, "type": "electric_scooter", "lon": -77.0031255, "is_disabled": 0, "fusion_lon": 0.0, "rental_uris": {"android": "https://dc.lft.to/lastmile_qr_scan", "ios": "https://dc.lft.to/lastmile_qr_scan"}, "is_reserved": 0}, {"bike_id": "68727151e5cdd8f5260303dc04bcb350", "name": "68727151e5cdd8f5260303dc04bcb350", "lat": 38.920168333333336, "fusion_lat": 0.0, "type": "electric_scooter", "lon": -77.03123483333333, "is_disabled": 0, "fusion_lon": 0.0, "rental_uris": {"android": "https://dc.lft.to/lastmile_qr_scan", "ios": "https://dc.lft.to/lastmile_qr_scan"}, "is_reserved": 0}, {"bike_id": "cc14de3c0aa4f53d860591cce46809fa", "name": "cc14de3c0aa4f53d860591cce46809fa", "lat": 38.91912766666667, "fusion_lat": 0.0, "type": "electric_scooter", "lon": -77.033318, "is_disabled": 0, "fusion_lon": 0.0, "rental_uris": {"android": "https://dc.lft.to/lastmile_qr_scan", "ios": "https://dc.lft.to/lastmile_qr_scan"}, "is_reserved": 0}, {"bike_id": "cbde868669c1d1345b1b7a0660b6b0f7", "name": "cbde868669c1d1345b1b7a0660b6b0f7", "lat": 38.863724500000004, "fusion_lat": 0.0, "type": "electric_scooter", "lon": -76.99056633333333, "is_disabled": 0, "fusion_lon": 0.0, "rental_uris": {"android": "https://dc.lft.to/lastmile_qr_scan", "ios": "https://dc.lft.to/lastmile_qr_scan"}, "is_reserved": 0}, {"bike_id": "dab01110e91c2f8dca86c86991433fa5", "name": "dab01110e91c2f8dca86c86991433fa5", "lat": 38.898641, "fusion_lat": 0.0, "type": "electric_scooter", "lon": -77.04876483333334, "is_disabled": 0, "fusion_lon": 0.0, "rental_uris": {"android": "https://dc.lft.to/lastmile_qr_scan", "ios": "https://dc.lft.to/lastmile_qr_scan"}, "is_reserved": 0}, {"bike_id": "7541a3ef80d5247a636d521246e528b6", "name": "7541a3ef80d5247a636d521246e528b6", "lat": 38.899472333333335, "fusion_lat": 0.0, "type": "electric_scooter", "lon": -76.97699266666666, "is_disabled": 0, "fusion_lon": 0.0, "rental_uris": {"android": "https://dc.lft.to/lastmile_qr_scan", "ios": "https://dc.lft.to/lastmile_qr_scan"}, "is_reserved": 0}, {"bike_id": "2d76c7a60c83f22d50674ae5e3fa1525", "name": "2d76c7a60c83f22d50674ae5e3fa1525", "lat": 38.919982833333336, "fusion_lat": 0.0, "type": "electric_scooter", "lon": -77.07118683333333, "is_disabled": 0, "fusion_lon": 0.0, "rental_uris": {"android": "https://dc.lft.to/lastmile_qr_scan", "ios": "https://dc.lft.to/lastmile_qr_scan"}, "is_reserved": 0}, {"bike_id": "ca4c19bcbe867646aa3ff6c34c068780", "name": "ca4c19bcbe867646aa3ff6c34c068780", "lat": 38.92128366666667, "fusion_lat": 0.0, "type": "electric_scooter", "lon": -77.045665, "is_disabled": 0, "fusion_lon": 0.0, "rental_uris": {"android": "https://dc.lft.to/lastmile_qr_scan", "ios": "https://dc.lft.to/lastmile_qr_scan"}, "is_reserved": 0}, {"bike_id": "f09bdcc40c968562e28361dd86065676", "name": "f09bdcc40c968562e28361dd86065676", "lat": 38.90521966666667, "fusion_lat": 0.0, "type": "electric_scooter", "lon": -77.0188635, "is_disabled": 0, "fusion_lon": 0.0, "rental_uris": {"android": "https://dc.lft.to/lastmile_qr_scan", "ios": "https://dc.lft.to/lastmile_qr_scan"}, "is_reserved": 0}, {"bike_id": "6212256acee663686e10cdcf84bbe5dc", "name": "6212256acee663686e10cdcf84bbe5dc", "lat": 38.886043, "fusion_lat": 0.0, "type": "electric_bike", "lon": -77.1423385, "is_disabled": 0, "fusion_lon": 0.0, "rental_uris": {"android": "https://dc.lft.to/lastmile_qr_scan", "ios": "https://dc.lft.to/lastmile_qr_scan"}, "is_reserved": 0}, {"bike_id": "73dc06037d4a609862fd41d1e47abc10", "name": "73dc06037d4a609862fd41d1e47abc10", "lat": 38.920219, "fusion_lat": 0.0, "type": "electric_scooter", "lon": -77.03155866666667, "is_disabled": 0, "fusion_lon": 0.0, "rental_uris": {"android": "https://dc.lft.to/lastmile_qr_scan", "ios": "https://dc.lft.to/lastmile_qr_scan"}, "is_reserved": 0}, {"bike_id": "9c98a47663ace2b2b38dd4ddf43d9cd0", "name": "9c98a47663ace2b2b38dd4ddf43d9cd0", "lat": 38.86622533333333, "fusion_lat": 0.0, "type": "electric_bike", "lon": -76.9457065, "is_disabled": 0, "fusion_lon": 0.0, "rental_uris": {"android": "https://dc.lft.to/lastmile_qr_scan", "ios": "https://dc.lft.to/lastmile_qr_scan"}, "is_reserved": 0}, {"bike_id": "d2bf6279e1482c2f16d3f48881896ae2", "name": "d2bf6279e1482c2f16d3f48881896ae2", "lat": 38.8936515, "fusion_lat": 0.0, "type": "electric_scooter", "lon": -77.0032945, "is_disabled": 0, "fusion_lon": 0.0, "rental_uris": {"android": "https://dc.lft.to/lastmile_qr_scan", "ios": "https://dc.lft.to/lastmile_qr_scan"}, "is_reserved": 0}, {"bike_id": "c4224aeb68264c18cbb06343f513d470", "name": "c4224aeb68264c18cbb06343f513d470", "lat": 38.912728666666666, "fusion_lat": 0.0, "type": "electric_scooter", "lon": -77.02385916666667, "is_disabled": 0, "fusion_lon": 0.0, "rental_uris": {"android": "https://dc.lft.to/lastmile_qr_scan", "ios": "https://dc.lft.to/lastmile_qr_scan"}, "is_reserved": 0}, {"bike_id": "80f2bc19f6d1622928fa1895a7ba1f1a", "name": "80f2bc19f6d1622928fa1895a7ba1f1a", "lat": 38.93043733333333, "fusion_lat": 0.0, "type": "electric_scooter", "lon": -77.01222933333334, "is_disabled": 0, "fusion_lon": 0.0, "rental_uris": {"android": "https://dc.lft.to/lastmile_qr_scan", "ios": "https://dc.lft.to/lastmile_qr_scan"}, "is_reserved": 0}, {"bike_id": "389a130af4b847021aeb9957b6df4d72", "name": "389a130af4b847021aeb9957b6df4d72", "lat": 38.91797116666667, "fusion_lat": 0.0, "type": "electric_scooter", "lon": -77.0344025, "is_disabled": 0, "fusion_lon": 0.0, "rental_uris": {"android": "https://dc.lft.to/lastmile_qr_scan", "ios": "https://dc.lft.to/lastmile_qr_scan"}, "is_reserved": 0}, {"bike_id": "4c6ca3be496d10d0684c83ab8d82e24c", "name": "4c6ca3be496d10d0684c83ab8d82e24c", "lat": 38.9119455, "fusion_lat": 0.0, "type": "electric_scooter", "lon": -77.038583, "is_disabled": 0, "fusion_lon": 0.0, "rental_uris": {"android": "https://dc.lft.to/lastmile_qr_scan", "ios": "https://dc.lft.to/lastmile_qr_scan"}, "is_reserved": 0}, {"bike_id": "c2523ec0a14bff51d8287ea552184279", "name": "c2523ec0a14bff51d8287ea552184279", "lat": 38.89994516666667, "fusion_lat": 0.0, "type": "electric_scooter", "lon": -77.02385483333333, "is_disabled": 0, "fusion_lon": 0.0, "rental_uris": {"android": "https://dc.lft.to/lastmile_qr_scan", "ios": "https://dc.lft.to/lastmile_qr_scan"}, "is_reserved": 0}, {"bike_id": "e0cce0fb74f15565f1479626f001d579", "name": "e0cce0fb74f15565f1479626f001d579", "lat": 38.894465, "fusion_lat": 0.0, "type": "electric_scooter", "lon": -77.01987183333334, "is_disabled": 0, "fusion_lon": 0.0, "rental_uris": {"android": "https://dc.lft.to/lastmile_qr_scan", "ios": "https://dc.lft.to/lastmile_qr_scan"}, "is_reserved": 0}, {"bike_id": "a2a07e01ebf636aeb1d7ed681c04aed1", "name": "a2a07e01ebf636aeb1d7ed681c04aed1", "lat": 38.90646483333333, "fusion_lat": 0.0, "type": "electric_scooter", "lon": -77.029324, "is_disabled": 0, "fusion_lon": 0.0, "rental_uris": {"android": "https://dc.lft.to/lastmile_qr_scan", "ios": "https://dc.lft.to/lastmile_qr_scan"}, "is_reserved": 0}, {"bike_id": "aae8e72c37fed5b2dcf7b197772a6e03", "name": "aae8e72c37fed5b2dcf7b197772a6e03", "lat": 38.885093, "fusion_lat": 0.0, "type": "electric_scooter", "lon": -77.01116183333333, "is_disabled": 0, "fusion_lon": 0.0, "rental_uris": {"android": "https://dc.lft.to/lastmile_qr_scan", "ios": "https://dc.lft.to/lastmile_qr_scan"}, "is_reserved": 0}, {"bike_id": "4c85b4061371a7e14672c812c24b45f5", "name": "4c85b4061371a7e14672c812c24b45f5", "lat": 38.898412666666665, "fusion_lat": 0.0, "type": "electric_scooter", "lon": -77.02943416666666, "is_disabled": 0, "fusion_lon": 0.0, "rental_uris": {"android": "https://dc.lft.to/lastmile_qr_scan", "ios": "https://dc.lft.to/lastmile_qr_scan"}, "is_reserved": 0}, {"bike_id": "fafbf3d21338088125088d06fef86986", "name": "fafbf3d21338088125088d06fef86986", "lat": 38.9466585, "fusion_lat": 0.0, "type": "electric_bike", "lon": -76.9932915, "is_disabled": 0, "fusion_lon": 0.0, "rental_uris": {"android": "https://dc.lft.to/lastmile_qr_scan", "ios": "https://dc.lft.to/lastmile_qr_scan"}, "is_reserved": 0}, {"bike_id": "f00a35ad70142b744f67e53c816337a8", "name": "f00a35ad70142b744f67e53c816337a8", "lat": 38.91440766666667, "fusion_lat": 0.0, "type": "electric_scooter", "lon": -77.0318495, "is_disabled": 0, "fusion_lon": 0.0, "rental_uris": {"android": "https://dc.lft.to/lastmile_qr_scan", "ios": "https://dc.lft.to/lastmile_qr_scan"}, "is_reserved": 0}, {"bike_id": "c564c3874f32ba778ddb80730491feee", "name": "c564c3874f32ba778ddb80730491feee", "lat": 38.936962, "fusion_lat": 0.0, "type": "electric_scooter", "lon": -77.02392483333334, "is_disabled": 0, "fusion_lon": 0.0, "rental_uris": {"android": "https://dc.lft.to/lastmile_qr_scan", "ios": "https://dc.lft.to/lastmile_qr_scan"}, "is_reserved": 0}, {"bike_id": "69d3dd1f0dac6f141e81a0e497a3d19f", "name": "69d3dd1f0dac6f141e81a0e497a3d19f", "lat": 38.901808, "fusion_lat": 0.0, "type": "electric_scooter", "lon": -77.0466005, "is_disabled": 0, "fusion_lon": 0.0, "rental_uris": {"android": "https://dc.lft.to/lastmile_qr_scan", "ios": "https://dc.lft.to/lastmile_qr_scan"}, "is_reserved": 0}, {"bike_id": "03ac91e85e57571abb507531c1a7059c", "name": "03ac91e85e57571abb507531c1a7059c", "lat": 38.907379666666664, "fusion_lat": 0.0, "type": "electric_scooter", "lon": -76.9347825, "is_disabled": 0, "fusion_lon": 0.0, "rental_uris": {"android": "https://dc.lft.to/lastmile_qr_scan", "ios": "https://dc.lft.to/lastmile_qr_scan"}, "is_reserved": 0}, {"bike_id": "9cdb37dadf868c03ca14e3a64119a5db", "name": "9cdb37dadf868c03ca14e3a64119a5db", "lat": 38.9119265, "fusion_lat": 0.0, "type": "electric_scooter", "lon": -77.03850566666667, "is_disabled": 0, "fusion_lon": 0.0, "rental_uris": {"android": "https://dc.lft.to/lastmile_qr_scan", "ios": "https://dc.lft.to/lastmile_qr_scan"}, "is_reserved": 0}, {"bike_id": "4e586cf92a2236ba0ea84d445fd3635b", "name": "4e586cf92a2236ba0ea84d445fd3635b", "lat": 38.903862, "fusion_lat": 0.0, "type": "electric_scooter", "lon": -77.01220916666666, "is_disabled": 0, "fusion_lon": 0.0, "rental_uris": {"android": "https://dc.lft.to/lastmile_qr_scan", "ios": "https://dc.lft.to/lastmile_qr_scan"}, "is_reserved": 0}, {"bike_id": "076cf1ce729faf61df30a9c19752fd11", "name": "076cf1ce729faf61df30a9c19752fd11", "lat": 38.924042, "fusion_lat": 0.0, "type": "electric_scooter", "lon": -77.03539333333333, "is_disabled": 0, "fusion_lon": 0.0, "rental_uris": {"android": "https://dc.lft.to/lastmile_qr_scan", "ios": "https://dc.lft.to/lastmile_qr_scan"}, "is_reserved": 0}, {"bike_id": "89be1985f0e41b5d6425a4bdacd7fc9f", "name": "89be1985f0e41b5d6425a4bdacd7fc9f", "lat": 38.89791133333333, "fusion_lat": 0.0, "type": "electric_bike", "lon": -77.00752033333333, "is_disabled": 0, "fusion_lon": 0.0, "rental_uris": {"android": "https://dc.lft.to/lastmile_qr_scan", "ios": "https://dc.lft.to/lastmile_qr_scan"}, "is_reserved": 0}, {"bike_id": "ea1eaa34955f2f35ec4e8b0be54502d8", "name": "ea1eaa34955f2f35ec4e8b0be54502d8", "lat": 38.9058085, "fusion_lat": 0.0, "type": "electric_scooter", "lon": -76.9841275, "is_disabled": 0, "fusion_lon": 0.0, "rental_uris": {"android": "https://dc.lft.to/lastmile_qr_scan", "ios": "https://dc.lft.to/lastmile_qr_scan"}, "is_reserved": 0}, {"bike_id": "ecc0077016dc33747d6b34a669aa0fd9", "name": "ecc0077016dc33747d6b34a669aa0fd9", "lat": 38.95761366666667, "fusion_lat": 0.0, "type": "electric_scooter", "lon": -77.01490583333333, "is_disabled": 0, "fusion_lon": 0.0, "rental_uris": {"android": "https://dc.lft.to/lastmile_qr_scan", "ios": "https://dc.lft.to/lastmile_qr_scan"}, "is_reserved": 0}, {"bike_id": "f500c5babfe6da69514d9e04272f122d", "name": "f500c5babfe6da69514d9e04272f122d", "lat": 38.924759333333334, "fusion_lat": 0.0, "type": "electric_scooter", "lon": -77.0304445, "is_disabled": 0, "fusion_lon": 0.0, "rental_uris": {"android": "https://dc.lft.to/lastmile_qr_scan", "ios": "https://dc.lft.to/lastmile_qr_scan"}, "is_reserved": 0}, {"bike_id": "334cc4faf13af1b72f14df8671f3cbbb", "name": "334cc4faf13af1b72f14df8671f3cbbb", "lat": 38.92043283333334, "fusion_lat": 0.0, "type": "electric_scooter", "lon": -77.04190766666666, "is_disabled": 0, "fusion_lon": 0.0, "rental_uris": {"android": "https://dc.lft.to/lastmile_qr_scan", "ios": "https://dc.lft.to/lastmile_qr_scan"}, "is_reserved": 0}, {"bike_id": "d3ed4b95664d9cbee15aa67f77f036d3", "name": "d3ed4b95664d9cbee15aa67f77f036d3", "lat": 38.9175415, "fusion_lat": 0.0, "type": "electric_scooter", "lon": -77.038602, "is_disabled": 0, "fusion_lon": 0.0, "rental_uris": {"android": "https://dc.lft.to/lastmile_qr_scan", "ios": "https://dc.lft.to/lastmile_qr_scan"}, "is_reserved": 0}, {"bike_id": "8e28d6f70c7dd4d4ff8e000fe45c9103", "name": "8e28d6f70c7dd4d4ff8e000fe45c9103", "lat": 38.893964833333335, "fusion_lat": 0.0, "type": "electric_bike", "lon": -76.86843683333333, "is_disabled": 0, "fusion_lon": 0.0, "rental_uris": {"android": "https://dc.lft.to/lastmile_qr_scan", "ios": "https://dc.lft.to/lastmile_qr_scan"}, "is_reserved": 0}, {"bike_id": "ce5b6ef26703221254b274d542d37485", "name": "ce5b6ef26703221254b274d542d37485", "lat": 38.895227166666665, "fusion_lat": 0.0, "type": "electric_scooter", "lon": -77.0113275, "is_disabled": 0, "fusion_lon": 0.0, "rental_uris": {"android": "https://dc.lft.to/lastmile_qr_scan", "ios": "https://dc.lft.to/lastmile_qr_scan"}, "is_reserved": 0}, {"bike_id": "43797af48d5831a05455add308250798", "name": "43797af48d5831a05455add308250798", "lat": 38.902042, "fusion_lat": 0.0, "type": "electric_scooter", "lon": -77.02367716666667, "is_disabled": 0, "fusion_lon": 0.0, "rental_uris": {"android": "https://dc.lft.to/lastmile_qr_scan", "ios": "https://dc.lft.to/lastmile_qr_scan"}, "is_reserved": 0}, {"bike_id": "8c409ff04dd2d3aefbb5bc31a60946f7", "name": "8c409ff04dd2d3aefbb5bc31a60946f7", "lat": 38.908598833333336, "fusion_lat": 0.0, "type": "electric_scooter", "lon": -77.02352216666667, "is_disabled": 0, "fusion_lon": 0.0, "rental_uris": {"android": "https://dc.lft.to/lastmile_qr_scan", "ios": "https://dc.lft.to/lastmile_qr_scan"}, "is_reserved": 0}, {"bike_id": "38c26ff2445bc22149c02cc2ee5160b4", "name": "38c26ff2445bc22149c02cc2ee5160b4", "lat": 38.91185083333333, "fusion_lat": 0.0, "type": "electric_bike", "lon": -77.04170866666666, "is_disabled": 0, "fusion_lon": 0.0, "rental_uris": {"android": "https://dc.lft.to/lastmile_qr_scan", "ios": "https://dc.lft.to/lastmile_qr_scan"}, "is_reserved": 0}, {"bike_id": "7286114fc971801aa6ab57e3ea7b5c0c", "name": "7286114fc971801aa6ab57e3ea7b5c0c", "lat": 38.898034333333335, "fusion_lat": 0.0, "type": "electric_scooter", "lon": -77.02683533333334, "is_disabled": 0, "fusion_lon": 0.0, "rental_uris": {"android": "https://dc.lft.to/lastmile_qr_scan", "ios": "https://dc.lft.to/lastmile_qr_scan"}, "is_reserved": 0}, {"bike_id": "d7c02531230583406b941d60038f0549", "name": "d7c02531230583406b941d60038f0549", "lat": 38.924867666666664, "fusion_lat": 0.0, "type": "electric_scooter", "lon": -77.03190583333334, "is_disabled": 0, "fusion_lon": 0.0, "rental_uris": {"android": "https://dc.lft.to/lastmile_qr_scan", "ios": "https://dc.lft.to/lastmile_qr_scan"}, "is_reserved": 0}, {"bike_id": "14cf929239aad46482ad912de6643821", "name": "14cf929239aad46482ad912de6643821", "lat": 38.902880333333336, "fusion_lat": 0.0, "type": "electric_scooter", "lon": -77.04189233333334, "is_disabled": 0, "fusion_lon": 0.0, "rental_uris": {"android": "https://dc.lft.to/lastmile_qr_scan", "ios": "https://dc.lft.to/lastmile_qr_scan"}, "is_reserved": 0}, {"bike_id": "8c28750f434cf33f3ac0da1aa4f8f8d7", "name": "8c28750f434cf33f3ac0da1aa4f8f8d7", "lat": 38.917900333333336, "fusion_lat": 0.0, "type": "electric_scooter", "lon": -77.02202433333333, "is_disabled": 0, "fusion_lon": 0.0, "rental_uris": {"android": "https://dc.lft.to/lastmile_qr_scan", "ios": "https://dc.lft.to/lastmile_qr_scan"}, "is_reserved": 0}, {"bike_id": "2bba1c22e7edac8fd02e31192346adf3", "name": "2bba1c22e7edac8fd02e31192346adf3", "lat": 38.89354633333333, "fusion_lat": 0.0, "type": "electric_scooter", "lon": -77.031956, "is_disabled": 0, "fusion_lon": 0.0, "rental_uris": {"android": "https://dc.lft.to/lastmile_qr_scan", "ios": "https://dc.lft.to/lastmile_qr_scan"}, "is_reserved": 0}, {"bike_id": "c3a4f689a7ab20fa4eab574f0ce01bf3", "name": "c3a4f689a7ab20fa4eab574f0ce01bf3", "lat": 38.950974, "fusion_lat": 0.0, "type": "electric_scooter", "lon": -77.018774, "is_disabled": 0, "fusion_lon": 0.0, "rental_uris": {"android": "https://dc.lft.to/lastmile_qr_scan", "ios": "https://dc.lft.to/lastmile_qr_scan"}, "is_reserved": 0}, {"bike_id": "942f54dcf7af3c5a7bdb183e953c9587", "name": "942f54dcf7af3c5a7bdb183e953c9587", "lat": 38.899524666666665, "fusion_lat": 0.0, "type": "electric_scooter", "lon": -77.0261915, "is_disabled": 0, "fusion_lon": 0.0, "rental_uris": {"android": "https://dc.lft.to/lastmile_qr_scan", "ios": "https://dc.lft.to/lastmile_qr_scan"}, "is_reserved": 0}, {"bike_id": "c46cb60743e993106f729771437966c0", "name": "c46cb60743e993106f729771437966c0", "lat": 38.87953183333333, "fusion_lat": 0.0, "type": "electric_scooter", "lon": -77.00597983333333, "is_disabled": 0, "fusion_lon": 0.0, "rental_uris": {"android": "https://dc.lft.to/lastmile_qr_scan", "ios": "https://dc.lft.to/lastmile_qr_scan"}, "is_reserved": 0}, {"bike_id": "69a6eec07039056c06e0e10f42b35948", "name": "69a6eec07039056c06e0e10f42b35948", "lat": 38.92358333333333, "fusion_lat": 0.0, "type": "electric_scooter", "lon": -77.05035333333333, "is_disabled": 0, "fusion_lon": 0.0, "rental_uris": {"android": "https://dc.lft.to/lastmile_qr_scan", "ios": "https://dc.lft.to/lastmile_qr_scan"}, "is_reserved": 0}, {"bike_id": "dbb11f309e4e032a307ac2fc70b8b62a", "name": "dbb11f309e4e032a307ac2fc70b8b62a", "lat": 38.909215, "fusion_lat": 0.0, "type": "electric_scooter", "lon": -77.03203566666667, "is_disabled": 0, "fusion_lon": 0.0, "rental_uris": {"android": "https://dc.lft.to/lastmile_qr_scan", "ios": "https://dc.lft.to/lastmile_qr_scan"}, "is_reserved": 0}, {"bike_id": "f9be9b53f88e7b7f52a1655c249c0fd3", "name": "f9be9b53f88e7b7f52a1655c249c0fd3", "lat": 38.92505, "fusion_lat": 0.0, "type": "electric_scooter", "lon": -77.02273316666667, "is_disabled": 0, "fusion_lon": 0.0, "rental_uris": {"android": "https://dc.lft.to/lastmile_qr_scan", "ios": "https://dc.lft.to/lastmile_qr_scan"}, "is_reserved": 0}, {"bike_id": "8d0420927f013873103c5962ae9d22c8", "name": "8d0420927f013873103c5962ae9d22c8", "lat": 38.94316966666667, "fusion_lat": 0.0, "type": "electric_bike", "lon": -76.9901235, "is_disabled": 0, "fusion_lon": 0.0, "rental_uris": {"android": "https://dc.lft.to/lastmile_qr_scan", "ios": "https://dc.lft.to/lastmile_qr_scan"}, "is_reserved": 0}, {"bike_id": "a26c93b30f2e7f74ff08561ae63b2a3e", "name": "a26c93b30f2e7f74ff08561ae63b2a3e", "lat": 38.89219633333333, "fusion_lat": 0.0, "type": "electric_scooter", "lon": -77.0330075, "is_disabled": 0, "fusion_lon": 0.0, "rental_uris": {"android": "https://dc.lft.to/lastmile_qr_scan", "ios": "https://dc.lft.to/lastmile_qr_scan"}, "is_reserved": 0}, {"bike_id": "1356f82f303970f501a0c78b1bbe7834", "name": "1356f82f303970f501a0c78b1bbe7834", "lat": 38.9389365, "fusion_lat": 0.0, "type": "electric_scooter", "lon": -77.01764783333333, "is_disabled": 0, "fusion_lon": 0.0, "rental_uris": {"android": "https://dc.lft.to/lastmile_qr_scan", "ios": "https://dc.lft.to/lastmile_qr_scan"}, "is_reserved": 0}, {"bike_id": "a15fed74bba79964c652848f356ba726", "name": "a15fed74bba79964c652848f356ba726", "lat": 38.90422733333333, "fusion_lat": 0.0, "type": "electric_scooter", "lon": -77.02575166666666, "is_disabled": 0, "fusion_lon": 0.0, "rental_uris": {"android": "https://dc.lft.to/lastmile_qr_scan", "ios": "https://dc.lft.to/lastmile_qr_scan"}, "is_reserved": 0}, {"bike_id": "eaa9d1cf233cf64757e9727e607fa7ec", "name": "eaa9d1cf233cf64757e9727e607fa7ec", "lat": 38.883162666666664, "fusion_lat": 0.0, "type": "electric_scooter", "lon": -77.00360566666667, "is_disabled": 0, "fusion_lon": 0.0, "rental_uris": {"android": "https://dc.lft.to/lastmile_qr_scan", "ios": "https://dc.lft.to/lastmile_qr_scan"}, "is_reserved": 0}, {"bike_id": "22e63e116ce4034f8655a33e43e1cb9c", "name": "22e63e116ce4034f8655a33e43e1cb9c", "lat": 38.900293, "fusion_lat": 0.0, "type": "electric_scooter", "lon": -77.04321533333334, "is_disabled": 0, "fusion_lon": 0.0, "rental_uris": {"android": "https://dc.lft.to/lastmile_qr_scan", "ios": "https://dc.lft.to/lastmile_qr_scan"}, "is_reserved": 0}, {"bike_id": "dd738cfd7a7c69b98cb251e80ea93b8e", "name": "dd738cfd7a7c69b98cb251e80ea93b8e", "lat": 38.9069315, "fusion_lat": 0.0, "type": "electric_scooter", "lon": -77.03621283333334, "is_disabled": 0, "fusion_lon": 0.0, "rental_uris": {"android": "https://dc.lft.to/lastmile_qr_scan", "ios": "https://dc.lft.to/lastmile_qr_scan"}, "is_reserved": 0}, {"bike_id": "dc1ecfc21f14608aca5f642123b01ae7", "name": "dc1ecfc21f14608aca5f642123b01ae7", "lat": 38.9058595, "fusion_lat": 0.0, "type": "electric_scooter", "lon": -77.06279583333334, "is_disabled": 0, "fusion_lon": 0.0, "rental_uris": {"android": "https://dc.lft.to/lastmile_qr_scan", "ios": "https://dc.lft.to/lastmile_qr_scan"}, "is_reserved": 0}, {"bike_id": "463830232d206dc32ba8f633a90b0aa0", "name": "463830232d206dc32ba8f633a90b0aa0", "lat": 38.80671866666667, "fusion_lat": 0.0, "type": "electric_bike", "lon": -77.087577, "is_disabled": 0, "fusion_lon": 0.0, "rental_uris": {"android": "https://dc.lft.to/lastmile_qr_scan", "ios": "https://dc.lft.to/lastmile_qr_scan"}, "is_reserved": 0}, {"bike_id": "0f2f904231726f3a188fa972d42a35da", "name": "0f2f904231726f3a188fa972d42a35da", "lat": 38.897481, "fusion_lat": 0.0, "type": "electric_scooter", "lon": -76.976888, "is_disabled": 0, "fusion_lon": 0.0, "rental_uris": {"android": "https://dc.lft.to/lastmile_qr_scan", "ios": "https://dc.lft.to/lastmile_qr_scan"}, "is_reserved": 0}, {"bike_id": "e09f0a4b7b1693dc19373356fbb8008b", "name": "e09f0a4b7b1693dc19373356fbb8008b", "lat": 38.917026666666665, "fusion_lat": 0.0, "type": "electric_scooter", "lon": -77.02373983333334, "is_disabled": 0, "fusion_lon": 0.0, "rental_uris": {"android": "https://dc.lft.to/lastmile_qr_scan", "ios": "https://dc.lft.to/lastmile_qr_scan"}, "is_reserved": 0}, {"bike_id": "e3b4b15fa35d96c49e9df82bc3a91bba", "name": "e3b4b15fa35d96c49e9df82bc3a91bba", "lat": 38.929008, "fusion_lat": 0.0, "type": "electric_scooter", "lon": -77.016526, "is_disabled": 0, "fusion_lon": 0.0, "rental_uris": {"android": "https://dc.lft.to/lastmile_qr_scan", "ios": "https://dc.lft.to/lastmile_qr_scan"}, "is_reserved": 0}, {"bike_id": "0338c9664161441a2b874eb1efe916cb", "name": "0338c9664161441a2b874eb1efe916cb", "lat": 38.916709166666664, "fusion_lat": 0.0, "type": "electric_scooter", "lon": -77.02949966666667, "is_disabled": 0, "fusion_lon": 0.0, "rental_uris": {"android": "https://dc.lft.to/lastmile_qr_scan", "ios": "https://dc.lft.to/lastmile_qr_scan"}, "is_reserved": 0}, {"bike_id": "883984c3495502fd66c5c94baaa6a9f0", "name": "883984c3495502fd66c5c94baaa6a9f0", "lat": 38.903755, "fusion_lat": 0.0, "type": "electric_scooter", "lon": -77.0480085, "is_disabled": 0, "fusion_lon": 0.0, "rental_uris": {"android": "https://dc.lft.to/lastmile_qr_scan", "ios": "https://dc.lft.to/lastmile_qr_scan"}, "is_reserved": 0}, {"bike_id": "fb62e791ef851292e38d7454e9cf251e", "name": "fb62e791ef851292e38d7454e9cf251e", "lat": 38.893220666666664, "fusion_lat": 0.0, "type": "electric_scooter", "lon": -77.0205195, "is_disabled": 0, "fusion_lon": 0.0, "rental_uris": {"android": "https://dc.lft.to/lastmile_qr_scan", "ios": "https://dc.lft.to/lastmile_qr_scan"}, "is_reserved": 0}, {"bike_id": "0c833712cc8f147bb058e99e907f126a", "name": "0c833712cc8f147bb058e99e907f126a", "lat": 38.91264416666667, "fusion_lat": 0.0, "type": "electric_scooter", "lon": -77.02250116666667, "is_disabled": 0, "fusion_lon": 0.0, "rental_uris": {"android": "https://dc.lft.to/lastmile_qr_scan", "ios": "https://dc.lft.to/lastmile_qr_scan"}, "is_reserved": 0}, {"bike_id": "165717391b06992f2540bdd9c28e3117", "name": "165717391b06992f2540bdd9c28e3117", "lat": 38.892269666666664, "fusion_lat": 0.0, "type": "electric_scooter", "lon": -77.0318115, "is_disabled": 0, "fusion_lon": 0.0, "rental_uris": {"android": "https://dc.lft.to/lastmile_qr_scan", "ios": "https://dc.lft.to/lastmile_qr_scan"}, "is_reserved": 0}, {"bike_id": "27dd5a1d8c1240a07ab8d7c1c2b17cea", "name": "27dd5a1d8c1240a07ab8d7c1c2b17cea", "lat": 38.855994333333335, "fusion_lat": 0.0, "type": "electric_bike", "lon": -76.97448883333334, "is_disabled": 0, "fusion_lon": 0.0, "rental_uris": {"android": "https://dc.lft.to/lastmile_qr_scan", "ios": "https://dc.lft.to/lastmile_qr_scan"}, "is_reserved": 0}, {"bike_id": "32726835760e6a8df0691d5f06fc5ba9", "name": "32726835760e6a8df0691d5f06fc5ba9", "lat": 38.9576125, "fusion_lat": 0.0, "type": "electric_scooter", "lon": -77.014833, "is_disabled": 0, "fusion_lon": 0.0, "rental_uris": {"android": "https://dc.lft.to/lastmile_qr_scan", "ios": "https://dc.lft.to/lastmile_qr_scan"}, "is_reserved": 0}, {"bike_id": "2664712e68e1f13891df9f533e954f31", "name": "2664712e68e1f13891df9f533e954f31", "lat": 38.91689483333333, "fusion_lat": 0.0, "type": "electric_scooter", "lon": -77.0259615, "is_disabled": 0, "fusion_lon": 0.0, "rental_uris": {"android": "https://dc.lft.to/lastmile_qr_scan", "ios": "https://dc.lft.to/lastmile_qr_scan"}, "is_reserved": 0}, {"bike_id": "cb778ab7181f4862224de5b5a8d8a971", "name": "cb778ab7181f4862224de5b5a8d8a971", "lat": 38.932728, "fusion_lat": 0.0, "type": "electric_scooter", "lon": -77.0283525, "is_disabled": 0, "fusion_lon": 0.0, "rental_uris": {"android": "https://dc.lft.to/lastmile_qr_scan", "ios": "https://dc.lft.to/lastmile_qr_scan"}, "is_reserved": 0}, {"bike_id": "2d9a7e514713b13d80bb25c8b8da43d4", "name": "2d9a7e514713b13d80bb25c8b8da43d4", "lat": 39.03902933333333, "fusion_lat": 0.0, "type": "electric_bike", "lon": -77.0502725, "is_disabled": 0, "fusion_lon": 0.0, "rental_uris": {"android": "https://dc.lft.to/lastmile_qr_scan", "ios": "https://dc.lft.to/lastmile_qr_scan"}, "is_reserved": 0}, {"bike_id": "58b1923794d30167e52150ba38363913", "name": "58b1923794d30167e52150ba38363913", "lat": 38.9206075, "fusion_lat": 0.0, "type": "electric_scooter", "lon": -77.0252085, "is_disabled": 0, "fusion_lon": 0.0, "rental_uris": {"android": "https://dc.lft.to/lastmile_qr_scan", "ios": "https://dc.lft.to/lastmile_qr_scan"}, "is_reserved": 0}, {"bike_id": "19fc64b180ff4e51357b7f3840291cc5", "name": "19fc64b180ff4e51357b7f3840291cc5", "lat": 38.90258633333333, "fusion_lat": 0.0, "type": "electric_scooter", "lon": -77.0268555, "is_disabled": 0, "fusion_lon": 0.0, "rental_uris": {"android": "https://dc.lft.to/lastmile_qr_scan", "ios": "https://dc.lft.to/lastmile_qr_scan"}, "is_reserved": 0}, {"bike_id": "d74cfededad7c1bdede2582a27606cec", "name": "d74cfededad7c1bdede2582a27606cec", "lat": 38.92326116666667, "fusion_lat": 0.0, "type": "electric_scooter", "lon": -77.01957716666666, "is_disabled": 0, "fusion_lon": 0.0, "rental_uris": {"android": "https://dc.lft.to/lastmile_qr_scan", "ios": "https://dc.lft.to/lastmile_qr_scan"}, "is_reserved": 0}, {"bike_id": "ad31b05dbacece41cb60f31c239ad066", "name": "ad31b05dbacece41cb60f31c239ad066", "lat": 38.93757516666667, "fusion_lat": 0.0, "type": "electric_scooter", "lon": -77.03251066666667, "is_disabled": 0, "fusion_lon": 0.0, "rental_uris": {"android": "https://dc.lft.to/lastmile_qr_scan", "ios": "https://dc.lft.to/lastmile_qr_scan"}, "is_reserved": 0}, {"bike_id": "9ec5a80e7524caffbe54b0af06e463a8", "name": "9ec5a80e7524caffbe54b0af06e463a8", "lat": 38.92523216666667, "fusion_lat": 0.0, "type": "electric_scooter", "lon": -77.0505255, "is_disabled": 0, "fusion_lon": 0.0, "rental_uris": {"android": "https://dc.lft.to/lastmile_qr_scan", "ios": "https://dc.lft.to/lastmile_qr_scan"}, "is_reserved": 0}, {"bike_id": "e9c6711f2119084e397443555b49f6f2", "name": "e9c6711f2119084e397443555b49f6f2", "lat": 38.920527, "fusion_lat": 0.0, "type": "electric_scooter", "lon": -77.03285566666666, "is_disabled": 0, "fusion_lon": 0.0, "rental_uris": {"android": "https://dc.lft.to/lastmile_qr_scan", "ios": "https://dc.lft.to/lastmile_qr_scan"}, "is_reserved": 0}, {"bike_id": "c9e968484dfdecccbc04f56a0220d5bb", "name": "c9e968484dfdecccbc04f56a0220d5bb", "lat": 38.89840683333333, "fusion_lat": 0.0, "type": "electric_scooter", "lon": -77.02816416666667, "is_disabled": 0, "fusion_lon": 0.0, "rental_uris": {"android": "https://dc.lft.to/lastmile_qr_scan", "ios": "https://dc.lft.to/lastmile_qr_scan"}, "is_reserved": 0}, {"bike_id": "984a66cd1080f555462b2b097c00da1c", "name": "984a66cd1080f555462b2b097c00da1c", "lat": 38.85431833333333, "fusion_lat": 0.0, "type": "electric_bike", "lon": -77.08319283333333, "is_disabled": 0, "fusion_lon": 0.0, "rental_uris": {"android": "https://dc.lft.to/lastmile_qr_scan", "ios": "https://dc.lft.to/lastmile_qr_scan"}, "is_reserved": 0}, {"bike_id": "bdd640582bd3b5504f8ac707ecd48529", "name": "bdd640582bd3b5504f8ac707ecd48529", "lat": 38.947076333333335, "fusion_lat": 0.0, "type": "electric_scooter", "lon": -77.041504, "is_disabled": 0, "fusion_lon": 0.0, "rental_uris": {"android": "https://dc.lft.to/lastmile_qr_scan", "ios": "https://dc.lft.to/lastmile_qr_scan"}, "is_reserved": 0}, {"bike_id": "f0ba49bd196f668f0a35732738476651", "name": "f0ba49bd196f668f0a35732738476651", "lat": 38.92080816666667, "fusion_lat": 0.0, "type": "electric_scooter", "lon": -77.02319, "is_disabled": 0, "fusion_lon": 0.0, "rental_uris": {"android": "https://dc.lft.to/lastmile_qr_scan", "ios": "https://dc.lft.to/lastmile_qr_scan"}, "is_reserved": 0}, {"bike_id": "1d6963eea71dfd7a0f2a3441e937ef34", "name": "1d6963eea71dfd7a0f2a3441e937ef34", "lat": 38.89185483333333, "fusion_lat": 0.0, "type": "electric_scooter", "lon": -76.99944266666667, "is_disabled": 0, "fusion_lon": 0.0, "rental_uris": {"android": "https://dc.lft.to/lastmile_qr_scan", "ios": "https://dc.lft.to/lastmile_qr_scan"}, "is_reserved": 0}, {"bike_id": "f1a5c05edaa45d221aa2a5f82eb88734", "name": "f1a5c05edaa45d221aa2a5f82eb88734", "lat": 38.86631966666667, "fusion_lat": 0.0, "type": "electric_scooter", "lon": -76.98287033333334, "is_disabled": 0, "fusion_lon": 0.0, "rental_uris": {"android": "https://dc.lft.to/lastmile_qr_scan", "ios": "https://dc.lft.to/lastmile_qr_scan"}, "is_reserved": 0}, {"bike_id": "eb2d26e9a4e57bfe3318597016969984", "name": "eb2d26e9a4e57bfe3318597016969984", "lat": 38.9213015, "fusion_lat": 0.0, "type": "electric_scooter", "lon": -77.04136933333334, "is_disabled": 0, "fusion_lon": 0.0, "rental_uris": {"android": "https://dc.lft.to/lastmile_qr_scan", "ios": "https://dc.lft.to/lastmile_qr_scan"}, "is_reserved": 0}, {"bike_id": "5ea2ec7399047f029a2e23a2290e66cf", "name": "5ea2ec7399047f029a2e23a2290e66cf", "lat": 38.89350533333333, "fusion_lat": 0.0, "type": "electric_scooter", "lon": -77.00336766666666, "is_disabled": 0, "fusion_lon": 0.0, "rental_uris": {"android": "https://dc.lft.to/lastmile_qr_scan", "ios": "https://dc.lft.to/lastmile_qr_scan"}, "is_reserved": 0}, {"bike_id": "bd97231e4c566ff13cad9759186907d5", "name": "bd97231e4c566ff13cad9759186907d5", "lat": 38.936015, "fusion_lat": 0.0, "type": "electric_scooter", "lon": -77.05862283333333, "is_disabled": 0, "fusion_lon": 0.0, "rental_uris": {"android": "https://dc.lft.to/lastmile_qr_scan", "ios": "https://dc.lft.to/lastmile_qr_scan"}, "is_reserved": 0}, {"bike_id": "a5d5c7879db873fe21a6a97962455c78", "name": "a5d5c7879db873fe21a6a97962455c78", "lat": 38.92790016666667, "fusion_lat": 0.0, "type": "electric_scooter", "lon": -77.026042, "is_disabled": 0, "fusion_lon": 0.0, "rental_uris": {"android": "https://dc.lft.to/lastmile_qr_scan", "ios": "https://dc.lft.to/lastmile_qr_scan"}, "is_reserved": 0}, {"bike_id": "6c0cf7ecf8767d1eca35e4e5694a5867", "name": "6c0cf7ecf8767d1eca35e4e5694a5867", "lat": 38.8715345, "fusion_lat": 0.0, "type": "electric_scooter", "lon": -77.01320866666667, "is_disabled": 0, "fusion_lon": 0.0, "rental_uris": {"android": "https://dc.lft.to/lastmile_qr_scan", "ios": "https://dc.lft.to/lastmile_qr_scan"}, "is_reserved": 0}, {"bike_id": "09662c0b59f6f7b84bbb5f3df5c7f496", "name": "09662c0b59f6f7b84bbb5f3df5c7f496", "lat": 38.957589166666665, "fusion_lat": 0.0, "type": "electric_bike", "lon": -76.9675715, "is_disabled": 0, "fusion_lon": 0.0, "rental_uris": {"android": "https://dc.lft.to/lastmile_qr_scan", "ios": "https://dc.lft.to/lastmile_qr_scan"}, "is_reserved": 0}, {"bike_id": "a7f3a4e11e2d6b87b991635c02003ddd", "name": "a7f3a4e11e2d6b87b991635c02003ddd", "lat": 38.907092666666664, "fusion_lat": 0.0, "type": "electric_bike", "lon": -77.030968, "is_disabled": 0, "fusion_lon": 0.0, "rental_uris": {"android": "https://dc.lft.to/lastmile_qr_scan", "ios": "https://dc.lft.to/lastmile_qr_scan"}, "is_reserved": 0}, {"bike_id": "4f2a6c976779f589995268825472ddb8", "name": "4f2a6c976779f589995268825472ddb8", "lat": 38.80866183333333, "fusion_lat": 0.0, "type": "electric_bike", "lon": -77.11253316666667, "is_disabled": 0, "fusion_lon": 0.0, "rental_uris": {"android": "https://dc.lft.to/lastmile_qr_scan", "ios": "https://dc.lft.to/lastmile_qr_scan"}, "is_reserved": 0}, {"bike_id": "4151a58a5609efc2c07ab7b74c390cfc", "name": "4151a58a5609efc2c07ab7b74c390cfc", "lat": 38.892074, "fusion_lat": 0.0, "type": "electric_scooter", "lon": -76.92921083333333, "is_disabled": 0, "fusion_lon": 0.0, "rental_uris": {"android": "https://dc.lft.to/lastmile_qr_scan", "ios": "https://dc.lft.to/lastmile_qr_scan"}, "is_reserved": 0}, {"bike_id": "f8de9db28eef850e4a389326b5ce342a", "name": "f8de9db28eef850e4a389326b5ce342a", "lat": 38.91575616666667, "fusion_lat": 0.0, "type": "electric_bike", "lon": -77.07558916666666, "is_disabled": 0, "fusion_lon": 0.0, "rental_uris": {"android": "https://dc.lft.to/lastmile_qr_scan", "ios": "https://dc.lft.to/lastmile_qr_scan"}, "is_reserved": 0}, {"bike_id": "feb3162084a67792c228df1343e2b4ff", "name": "feb3162084a67792c228df1343e2b4ff", "lat": 38.900425, "fusion_lat": 0.0, "type": "electric_bike", "lon": -76.977924, "is_disabled": 0, "fusion_lon": 0.0, "rental_uris": {"android": "https://dc.lft.to/lastmile_qr_scan", "ios": "https://dc.lft.to/lastmile_qr_scan"}, "is_reserved": 0}, {"bike_id": "cbc1fc9281fd650d5c9fadc662337c0f", "name": "cbc1fc9281fd650d5c9fadc662337c0f", "lat": 38.91348883333333, "fusion_lat": 0.0, "type": "electric_scooter", "lon": -77.03182266666667, "is_disabled": 0, "fusion_lon": 0.0, "rental_uris": {"android": "https://dc.lft.to/lastmile_qr_scan", "ios": "https://dc.lft.to/lastmile_qr_scan"}, "is_reserved": 0}, {"bike_id": "24e28982e8f732e436a1fdc09e3355db", "name": "24e28982e8f732e436a1fdc09e3355db", "lat": 38.89727466666667, "fusion_lat": 0.0, "type": "electric_scooter", "lon": -77.05520933333334, "is_disabled": 0, "fusion_lon": 0.0, "rental_uris": {"android": "https://dc.lft.to/lastmile_qr_scan", "ios": "https://dc.lft.to/lastmile_qr_scan"}, "is_reserved": 0}, {"bike_id": "d117b31f82a85013b32a4579e801bf95", "name": "d117b31f82a85013b32a4579e801bf95", "lat": 38.87266366666667, "fusion_lat": 0.0, "type": "electric_scooter", "lon": -77.017162, "is_disabled": 0, "fusion_lon": 0.0, "rental_uris": {"android": "https://dc.lft.to/lastmile_qr_scan", "ios": "https://dc.lft.to/lastmile_qr_scan"}, "is_reserved": 0}, {"bike_id": "962dc484fd23d38972beca94370348a7", "name": "962dc484fd23d38972beca94370348a7", "lat": 38.90470283333333, "fusion_lat": 0.0, "type": "electric_scooter", "lon": -77.04341566666666, "is_disabled": 0, "fusion_lon": 0.0, "rental_uris": {"android": "https://dc.lft.to/lastmile_qr_scan", "ios": "https://dc.lft.to/lastmile_qr_scan"}, "is_reserved": 0}, {"bike_id": "cc5cb0e2b1fd5c7d60bd7f73ca0b4ce3", "name": "cc5cb0e2b1fd5c7d60bd7f73ca0b4ce3", "lat": 38.9141885, "fusion_lat": 0.0, "type": "electric_scooter", "lon": -77.0399505, "is_disabled": 0, "fusion_lon": 0.0, "rental_uris": {"android": "https://dc.lft.to/lastmile_qr_scan", "ios": "https://dc.lft.to/lastmile_qr_scan"}, "is_reserved": 0}, {"bike_id": "1db1b8089c5f3c8ab00af908e7d2b4ba", "name": "1db1b8089c5f3c8ab00af908e7d2b4ba", "lat": 38.92358516666667, "fusion_lat": 0.0, "type": "electric_scooter", "lon": -77.0191615, "is_disabled": 0, "fusion_lon": 0.0, "rental_uris": {"android": "https://dc.lft.to/lastmile_qr_scan", "ios": "https://dc.lft.to/lastmile_qr_scan"}, "is_reserved": 0}, {"bike_id": "21bb18f9c4dd3cc56096706e3c2a4c11", "name": "21bb18f9c4dd3cc56096706e3c2a4c11", "lat": 38.9136275, "fusion_lat": 0.0, "type": "electric_scooter", "lon": -77.04488566666667, "is_disabled": 0, "fusion_lon": 0.0, "rental_uris": {"android": "https://dc.lft.to/lastmile_qr_scan", "ios": "https://dc.lft.to/lastmile_qr_scan"}, "is_reserved": 0}, {"bike_id": "72919e5928da36aecc16b78902297cb4", "name": "72919e5928da36aecc16b78902297cb4", "lat": 38.93697816666667, "fusion_lat": 0.0, "type": "electric_scooter", "lon": -77.05598483333333, "is_disabled": 0, "fusion_lon": 0.0, "rental_uris": {"android": "https://dc.lft.to/lastmile_qr_scan", "ios": "https://dc.lft.to/lastmile_qr_scan"}, "is_reserved": 0}, {"bike_id": "05bab060bd9f3ca32d17d125fa5dc671", "name": "05bab060bd9f3ca32d17d125fa5dc671", "lat": 38.911717333333335, "fusion_lat": 0.0, "type": "electric_scooter", "lon": -77.03832433333334, "is_disabled": 0, "fusion_lon": 0.0, "rental_uris": {"android": "https://dc.lft.to/lastmile_qr_scan", "ios": "https://dc.lft.to/lastmile_qr_scan"}, "is_reserved": 0}, {"bike_id": "717c8a492c3a8f9e8b05087beb45626a", "name": "717c8a492c3a8f9e8b05087beb45626a", "lat": 38.91918166666667, "fusion_lat": 0.0, "type": "electric_scooter", "lon": -77.07272166666667, "is_disabled": 0, "fusion_lon": 0.0, "rental_uris": {"android": "https://dc.lft.to/lastmile_qr_scan", "ios": "https://dc.lft.to/lastmile_qr_scan"}, "is_reserved": 0}, {"bike_id": "eef2b50e1eb1ee462cbad9049d267fbc", "name": "eef2b50e1eb1ee462cbad9049d267fbc", "lat": 38.9214515, "fusion_lat": 0.0, "type": "electric_scooter", "lon": -77.02092316666666, "is_disabled": 0, "fusion_lon": 0.0, "rental_uris": {"android": "https://dc.lft.to/lastmile_qr_scan", "ios": "https://dc.lft.to/lastmile_qr_scan"}, "is_reserved": 0}, {"bike_id": "73743a8bb95d7c4a50cee90e6559dc28", "name": "73743a8bb95d7c4a50cee90e6559dc28", "lat": 38.9187015, "fusion_lat": 0.0, "type": "electric_bike", "lon": -76.96476033333333, "is_disabled": 0, "fusion_lon": 0.0, "rental_uris": {"android": "https://dc.lft.to/lastmile_qr_scan", "ios": "https://dc.lft.to/lastmile_qr_scan"}, "is_reserved": 0}, {"bike_id": "555dade249b463b3b97d6aff501afae1", "name": "555dade249b463b3b97d6aff501afae1", "lat": 38.926651166666666, "fusion_lat": 0.0, "type": "electric_scooter", "lon": -77.02757216666667, "is_disabled": 0, "fusion_lon": 0.0, "rental_uris": {"android": "https://dc.lft.to/lastmile_qr_scan", "ios": "https://dc.lft.to/lastmile_qr_scan"}, "is_reserved": 0}, {"bike_id": "9102ee7aed54ed56d8c3d49a2fb3efb2", "name": "9102ee7aed54ed56d8c3d49a2fb3efb2", "lat": 38.896173, "fusion_lat": 0.0, "type": "electric_scooter", "lon": -77.022672, "is_disabled": 0, "fusion_lon": 0.0, "rental_uris": {"android": "https://dc.lft.to/lastmile_qr_scan", "ios": "https://dc.lft.to/lastmile_qr_scan"}, "is_reserved": 0}, {"bike_id": "6ac480e925f341ddc1f925190a17ec47", "name": "6ac480e925f341ddc1f925190a17ec47", "lat": 38.88502666666667, "fusion_lat": 0.0, "type": "electric_scooter", "lon": -77.0217065, "is_disabled": 0, "fusion_lon": 0.0, "rental_uris": {"android": "https://dc.lft.to/lastmile_qr_scan", "ios": "https://dc.lft.to/lastmile_qr_scan"}, "is_reserved": 0}, {"bike_id": "383b2e60894b9bbc5404ad6cfb232c58", "name": "383b2e60894b9bbc5404ad6cfb232c58", "lat": 38.89225166666667, "fusion_lat": 0.0, "type": "electric_scooter", "lon": -77.045037, "is_disabled": 0, "fusion_lon": 0.0, "rental_uris": {"android": "https://dc.lft.to/lastmile_qr_scan", "ios": "https://dc.lft.to/lastmile_qr_scan"}, "is_reserved": 0}, {"bike_id": "a00d7665e279c75bcd6f7d3061858658", "name": "a00d7665e279c75bcd6f7d3061858658", "lat": 38.9211725, "fusion_lat": 0.0, "type": "electric_scooter", "lon": -77.04160116666667, "is_disabled": 0, "fusion_lon": 0.0, "rental_uris": {"android": "https://dc.lft.to/lastmile_qr_scan", "ios": "https://dc.lft.to/lastmile_qr_scan"}, "is_reserved": 0}, {"bike_id": "db9a73b8ecac04bda65acc5c7c48705d", "name": "db9a73b8ecac04bda65acc5c7c48705d", "lat": 38.917152333333334, "fusion_lat": 0.0, "type": "electric_scooter", "lon": -77.02811466666667, "is_disabled": 0, "fusion_lon": 0.0, "rental_uris": {"android": "https://dc.lft.to/lastmile_qr_scan", "ios": "https://dc.lft.to/lastmile_qr_scan"}, "is_reserved": 0}, {"bike_id": "431b15474fcb5d2314d0f22e48e62ebf", "name": "431b15474fcb5d2314d0f22e48e62ebf", "lat": 38.899071166666666, "fusion_lat": 0.0, "type": "electric_scooter", "lon": -76.97995033333333, "is_disabled": 0, "fusion_lon": 0.0, "rental_uris": {"android": "https://dc.lft.to/lastmile_qr_scan", "ios": "https://dc.lft.to/lastmile_qr_scan"}, "is_reserved": 0}, {"bike_id": "0fa97d10d879b6f5969ae0ed0c0d7cb6", "name": "0fa97d10d879b6f5969ae0ed0c0d7cb6", "lat": 38.9146165, "fusion_lat": 0.0, "type": "electric_scooter", "lon": -77.03200433333333, "is_disabled": 0, "fusion_lon": 0.0, "rental_uris": {"android": "https://dc.lft.to/lastmile_qr_scan", "ios": "https://dc.lft.to/lastmile_qr_scan"}, "is_reserved": 0}, {"bike_id": "201a379f5cb0d683488c8984e49d375a", "name": "201a379f5cb0d683488c8984e49d375a", "lat": 38.97319183333333, "fusion_lat": 0.0, "type": "electric_bike", "lon": -76.99479533333333, "is_disabled": 0, "fusion_lon": 0.0, "rental_uris": {"android": "https://dc.lft.to/lastmile_qr_scan", "ios": "https://dc.lft.to/lastmile_qr_scan"}, "is_reserved": 0}, {"bike_id": "f437e900d0b88a54ff731934c96914f0", "name": "f437e900d0b88a54ff731934c96914f0", "lat": 38.9748715, "fusion_lat": 0.0, "type": "electric_scooter", "lon": -77.01692583333333, "is_disabled": 0, "fusion_lon": 0.0, "rental_uris": {"android": "https://dc.lft.to/lastmile_qr_scan", "ios": "https://dc.lft.to/lastmile_qr_scan"}, "is_reserved": 0}, {"bike_id": "7e212bae2ef6e00c36a1ad1b2d4e5abf", "name": "7e212bae2ef6e00c36a1ad1b2d4e5abf", "lat": 38.92848333333333, "fusion_lat": 0.0, "type": "electric_scooter", "lon": -77.01398016666667, "is_disabled": 0, "fusion_lon": 0.0, "rental_uris": {"android": "https://dc.lft.to/lastmile_qr_scan", "ios": "https://dc.lft.to/lastmile_qr_scan"}, "is_reserved": 0}, {"bike_id": "cdc8993659d2f2a0c4d32af6782f7e55", "name": "cdc8993659d2f2a0c4d32af6782f7e55", "lat": 38.913216, "fusion_lat": 0.0, "type": "electric_scooter", "lon": -77.0149915, "is_disabled": 0, "fusion_lon": 0.0, "rental_uris": {"android": "https://dc.lft.to/lastmile_qr_scan", "ios": "https://dc.lft.to/lastmile_qr_scan"}, "is_reserved": 0}, {"bike_id": "51ea89edc962c25f3dae64d429c18391", "name": "51ea89edc962c25f3dae64d429c18391", "lat": 38.878423, "fusion_lat": 0.0, "type": "electric_scooter", "lon": -76.982982, "is_disabled": 0, "fusion_lon": 0.0, "rental_uris": {"android": "https://dc.lft.to/lastmile_qr_scan", "ios": "https://dc.lft.to/lastmile_qr_scan"}, "is_reserved": 0}, {"bike_id": "58d6e1dbb79a389663e5ee33a5f176f9", "name": "58d6e1dbb79a389663e5ee33a5f176f9", "lat": 38.9180185, "fusion_lat": 0.0, "type": "electric_scooter", "lon": -77.0343075, "is_disabled": 0, "fusion_lon": 0.0, "rental_uris": {"android": "https://dc.lft.to/lastmile_qr_scan", "ios": "https://dc.lft.to/lastmile_qr_scan"}, "is_reserved": 0}, {"bike_id": "c8f09eab35320348aaea1e1b989331e5", "name": "c8f09eab35320348aaea1e1b989331e5", "lat": 38.886496666666666, "fusion_lat": 0.0, "type": "electric_scooter", "lon": -77.000094, "is_disabled": 0, "fusion_lon": 0.0, "rental_uris": {"android": "https://dc.lft.to/lastmile_qr_scan", "ios": "https://dc.lft.to/lastmile_qr_scan"}, "is_reserved": 0}, {"bike_id": "aca5f750fe4f16c91afe1eefe0bd4898", "name": "aca5f750fe4f16c91afe1eefe0bd4898", "lat": 38.918187833333334, "fusion_lat": 0.0, "type": "electric_scooter", "lon": -77.031574, "is_disabled": 0, "fusion_lon": 0.0, "rental_uris": {"android": "https://dc.lft.to/lastmile_qr_scan", "ios": "https://dc.lft.to/lastmile_qr_scan"}, "is_reserved": 0}, {"bike_id": "87fb0e52680c887ca1d5f88edd9b7667", "name": "87fb0e52680c887ca1d5f88edd9b7667", "lat": 38.90592933333333, "fusion_lat": 0.0, "type": "electric_scooter", "lon": -77.07003933333333, "is_disabled": 0, "fusion_lon": 0.0, "rental_uris": {"android": "https://dc.lft.to/lastmile_qr_scan", "ios": "https://dc.lft.to/lastmile_qr_scan"}, "is_reserved": 0}, {"bike_id": "2e509666aeb0992aef78fbdb1ac518f7", "name": "2e509666aeb0992aef78fbdb1ac518f7", "lat": 38.88600366666667, "fusion_lat": 0.0, "type": "electric_scooter", "lon": -77.01779083333334, "is_disabled": 0, "fusion_lon": 0.0, "rental_uris": {"android": "https://dc.lft.to/lastmile_qr_scan", "ios": "https://dc.lft.to/lastmile_qr_scan"}, "is_reserved": 0}, {"bike_id": "4b0bc16bef1f9750e9ea769c13476427", "name": "4b0bc16bef1f9750e9ea769c13476427", "lat": 38.91690766666667, "fusion_lat": 0.0, "type": "electric_scooter", "lon": -77.03158966666666, "is_disabled": 0, "fusion_lon": 0.0, "rental_uris": {"android": "https://dc.lft.to/lastmile_qr_scan", "ios": "https://dc.lft.to/lastmile_qr_scan"}, "is_reserved": 0}, {"bike_id": "2c6a9bfcc2ec2ab70dce0b84c815867f", "name": "2c6a9bfcc2ec2ab70dce0b84c815867f", "lat": 38.8739475, "fusion_lat": 0.0, "type": "electric_scooter", "lon": -77.00020216666667, "is_disabled": 0, "fusion_lon": 0.0, "rental_uris": {"android": "https://dc.lft.to/lastmile_qr_scan", "ios": "https://dc.lft.to/lastmile_qr_scan"}, "is_reserved": 0}, {"bike_id": "ad8300169bca899b1ba630817c880b5e", "name": "ad8300169bca899b1ba630817c880b5e", "lat": 38.9013685, "fusion_lat": 0.0, "type": "electric_scooter", "lon": -77.01962033333334, "is_disabled": 0, "fusion_lon": 0.0, "rental_uris": {"android": "https://dc.lft.to/lastmile_qr_scan", "ios": "https://dc.lft.to/lastmile_qr_scan"}, "is_reserved": 0}, {"bike_id": "7645714bc4baad4d23561284f165d037", "name": "7645714bc4baad4d23561284f165d037", "lat": 38.92334183333333, "fusion_lat": 0.0, "type": "electric_scooter", "lon": -77.0361485, "is_disabled": 0, "fusion_lon": 0.0, "rental_uris": {"android": "https://dc.lft.to/lastmile_qr_scan", "ios": "https://dc.lft.to/lastmile_qr_scan"}, "is_reserved": 0}, {"bike_id": "824917a1ebbc38aeaf3ca86d810c9513", "name": "824917a1ebbc38aeaf3ca86d810c9513", "lat": 38.920323, "fusion_lat": 0.0, "type": "electric_scooter", "lon": -77.01029833333334, "is_disabled": 0, "fusion_lon": 0.0, "rental_uris": {"android": "https://dc.lft.to/lastmile_qr_scan", "ios": "https://dc.lft.to/lastmile_qr_scan"}, "is_reserved": 0}, {"bike_id": "89f6ff9d8dbd26b83dbd0709f164cc63", "name": "89f6ff9d8dbd26b83dbd0709f164cc63", "lat": 38.89533516666667, "fusion_lat": 0.0, "type": "electric_scooter", "lon": -76.94891783333334, "is_disabled": 0, "fusion_lon": 0.0, "rental_uris": {"android": "https://dc.lft.to/lastmile_qr_scan", "ios": "https://dc.lft.to/lastmile_qr_scan"}, "is_reserved": 0}, {"bike_id": "042f3489d12d42508146337cef23b58b", "name": "042f3489d12d42508146337cef23b58b", "lat": 38.943100666666666, "fusion_lat": 0.0, "type": "electric_scooter", "lon": -77.02177133333333, "is_disabled": 0, "fusion_lon": 0.0, "rental_uris": {"android": "https://dc.lft.to/lastmile_qr_scan", "ios": "https://dc.lft.to/lastmile_qr_scan"}, "is_reserved": 0}, {"bike_id": "be4c7118337e8c6efdb3e821d85d5554", "name": "be4c7118337e8c6efdb3e821d85d5554", "lat": 38.921428, "fusion_lat": 0.0, "type": "electric_scooter", "lon": -77.01822366666667, "is_disabled": 0, "fusion_lon": 0.0, "rental_uris": {"android": "https://dc.lft.to/lastmile_qr_scan", "ios": "https://dc.lft.to/lastmile_qr_scan"}, "is_reserved": 0}, {"bike_id": "5e081a4fefded0a8714fb13eee60e534", "name": "5e081a4fefded0a8714fb13eee60e534", "lat": 38.899289833333334, "fusion_lat": 0.0, "type": "electric_scooter", "lon": -77.026765, "is_disabled": 0, "fusion_lon": 0.0, "rental_uris": {"android": "https://dc.lft.to/lastmile_qr_scan", "ios": "https://dc.lft.to/lastmile_qr_scan"}, "is_reserved": 0}, {"bike_id": "4fc1c90fcfcb25d8e8d5c18a7632b6f3", "name": "4fc1c90fcfcb25d8e8d5c18a7632b6f3", "lat": 38.89712733333333, "fusion_lat": 0.0, "type": "electric_scooter", "lon": -77.00797216666666, "is_disabled": 0, "fusion_lon": 0.0, "rental_uris": {"android": "https://dc.lft.to/lastmile_qr_scan", "ios": "https://dc.lft.to/lastmile_qr_scan"}, "is_reserved": 0}, {"bike_id": "6a1911a1028e49bc6c4938e212fa4174", "name": "6a1911a1028e49bc6c4938e212fa4174", "lat": 38.90528233333333, "fusion_lat": 0.0, "type": "electric_scooter", "lon": -77.06237933333334, "is_disabled": 0, "fusion_lon": 0.0, "rental_uris": {"android": "https://dc.lft.to/lastmile_qr_scan", "ios": "https://dc.lft.to/lastmile_qr_scan"}, "is_reserved": 0}, {"bike_id": "1d1c3bcf7afe030e351c459477571c94", "name": "1d1c3bcf7afe030e351c459477571c94", "lat": 38.889328, "fusion_lat": 0.0, "type": "electric_bike", "lon": -76.91325316666666, "is_disabled": 0, "fusion_lon": 0.0, "rental_uris": {"android": "https://dc.lft.to/lastmile_qr_scan", "ios": "https://dc.lft.to/lastmile_qr_scan"}, "is_reserved": 0}, {"bike_id": "5b3b71f779cd2f373d5053a24b352741", "name": "5b3b71f779cd2f373d5053a24b352741", "lat": 38.928311666666666, "fusion_lat": 0.0, "type": "electric_scooter", "lon": -77.01411066666667, "is_disabled": 0, "fusion_lon": 0.0, "rental_uris": {"android": "https://dc.lft.to/lastmile_qr_scan", "ios": "https://dc.lft.to/lastmile_qr_scan"}, "is_reserved": 0}, {"bike_id": "40e14697ca29855feb3528a712d68244", "name": "40e14697ca29855feb3528a712d68244", "lat": 38.9226205, "fusion_lat": 0.0, "type": "electric_scooter", "lon": -77.04294233333333, "is_disabled": 0, "fusion_lon": 0.0, "rental_uris": {"android": "https://dc.lft.to/lastmile_qr_scan", "ios": "https://dc.lft.to/lastmile_qr_scan"}, "is_reserved": 0}, {"bike_id": "3b0a0fee88566605fa7b1bac38d358aa", "name": "3b0a0fee88566605fa7b1bac38d358aa", "lat": 38.91019416666666, "fusion_lat": 0.0, "type": "electric_scooter", "lon": -76.9937575, "is_disabled": 0, "fusion_lon": 0.0, "rental_uris": {"android": "https://dc.lft.to/lastmile_qr_scan", "ios": "https://dc.lft.to/lastmile_qr_scan"}, "is_reserved": 0}, {"bike_id": "62087d9ad1d23e9906219664316f47d0", "name": "62087d9ad1d23e9906219664316f47d0", "lat": 38.8954685, "fusion_lat": 0.0, "type": "electric_scooter", "lon": -77.0298965, "is_disabled": 0, "fusion_lon": 0.0, "rental_uris": {"android": "https://dc.lft.to/lastmile_qr_scan", "ios": "https://dc.lft.to/lastmile_qr_scan"}, "is_reserved": 0}, {"bike_id": "280bfaadd71fade693235dce32b8dc04", "name": "280bfaadd71fade693235dce32b8dc04", "lat": 38.9201885, "fusion_lat": 0.0, "type": "electric_scooter", "lon": -77.0307835, "is_disabled": 0, "fusion_lon": 0.0, "rental_uris": {"android": "https://dc.lft.to/lastmile_qr_scan", "ios": "https://dc.lft.to/lastmile_qr_scan"}, "is_reserved": 0}, {"bike_id": "e9ae95aaecf43c9be6443f179cad722d", "name": "e9ae95aaecf43c9be6443f179cad722d", "lat": 38.92415183333333, "fusion_lat": 0.0, "type": "electric_scooter", "lon": -77.020075, "is_disabled": 0, "fusion_lon": 0.0, "rental_uris": {"android": "https://dc.lft.to/lastmile_qr_scan", "ios": "https://dc.lft.to/lastmile_qr_scan"}, "is_reserved": 0}, {"bike_id": "9136cd40f954669099457f7449508017", "name": "9136cd40f954669099457f7449508017", "lat": 38.908484333333334, "fusion_lat": 0.0, "type": "electric_scooter", "lon": -77.00368716666667, "is_disabled": 0, "fusion_lon": 0.0, "rental_uris": {"android": "https://dc.lft.to/lastmile_qr_scan", "ios": "https://dc.lft.to/lastmile_qr_scan"}, "is_reserved": 0}, {"bike_id": "46d00efa58d61fb8d7f301379677a1ba", "name": "46d00efa58d61fb8d7f301379677a1ba", "lat": 38.92382166666667, "fusion_lat": 0.0, "type": "electric_scooter", "lon": -77.036524, "is_disabled": 0, "fusion_lon": 0.0, "rental_uris": {"android": "https://dc.lft.to/lastmile_qr_scan", "ios": "https://dc.lft.to/lastmile_qr_scan"}, "is_reserved": 0}, {"bike_id": "f5fc0109d017fc1b9a223f5e566c4f08", "name": "f5fc0109d017fc1b9a223f5e566c4f08", "lat": 38.9220185, "fusion_lat": 0.0, "type": "electric_scooter", "lon": -77.02032866666667, "is_disabled": 0, "fusion_lon": 0.0, "rental_uris": {"android": "https://dc.lft.to/lastmile_qr_scan", "ios": "https://dc.lft.to/lastmile_qr_scan"}, "is_reserved": 0}, {"bike_id": "fdb84f251b2cd38cf7d8f5ab422c85e3", "name": "fdb84f251b2cd38cf7d8f5ab422c85e3", "lat": 38.924833, "fusion_lat": 0.0, "type": "electric_scooter", "lon": -77.02714016666667, "is_disabled": 0, "fusion_lon": 0.0, "rental_uris": {"android": "https://dc.lft.to/lastmile_qr_scan", "ios": "https://dc.lft.to/lastmile_qr_scan"}, "is_reserved": 0}, {"bike_id": "489239f6a917d23f8748a44517acaf8a", "name": "489239f6a917d23f8748a44517acaf8a", "lat": 38.893509333333334, "fusion_lat": 0.0, "type": "electric_scooter", "lon": -77.00339633333333, "is_disabled": 0, "fusion_lon": 0.0, "rental_uris": {"android": "https://dc.lft.to/lastmile_qr_scan", "ios": "https://dc.lft.to/lastmile_qr_scan"}, "is_reserved": 0}, {"bike_id": "749179a6d2868992958704a75a9aaf24", "name": "749179a6d2868992958704a75a9aaf24", "lat": 38.8921995, "fusion_lat": 0.0, "type": "electric_scooter", "lon": -77.01724933333334, "is_disabled": 0, "fusion_lon": 0.0, "rental_uris": {"android": "https://dc.lft.to/lastmile_qr_scan", "ios": "https://dc.lft.to/lastmile_qr_scan"}, "is_reserved": 0}, {"bike_id": "c4b913246feb615b2b8626d5610c4d63", "name": "c4b913246feb615b2b8626d5610c4d63", "lat": 39.08430116666667, "fusion_lat": 0.0, "type": "electric_bike", "lon": -76.951471, "is_disabled": 0, "fusion_lon": 0.0, "rental_uris": {"android": "https://dc.lft.to/lastmile_qr_scan", "ios": "https://dc.lft.to/lastmile_qr_scan"}, "is_reserved": 0}, {"bike_id": "8dfa5424ecf3e73dd75c89589551b7f1", "name": "8dfa5424ecf3e73dd75c89589551b7f1", "lat": 38.924226166666664, "fusion_lat": 0.0, "type": "electric_scooter", "lon": -77.02227583333334, "is_disabled": 0, "fusion_lon": 0.0, "rental_uris": {"android": "https://dc.lft.to/lastmile_qr_scan", "ios": "https://dc.lft.to/lastmile_qr_scan"}, "is_reserved": 0}, {"bike_id": "0c388aaf4379608dc78e399f9b2275d9", "name": "0c388aaf4379608dc78e399f9b2275d9", "lat": 38.907414333333335, "fusion_lat": 0.0, "type": "electric_scooter", "lon": -77.03212816666667, "is_disabled": 0, "fusion_lon": 0.0, "rental_uris": {"android": "https://dc.lft.to/lastmile_qr_scan", "ios": "https://dc.lft.to/lastmile_qr_scan"}, "is_reserved": 0}, {"bike_id": "6b216aa660cfd2349ab1f1d98790666f", "name": "6b216aa660cfd2349ab1f1d98790666f", "lat": 38.88652783333333, "fusion_lat": 0.0, "type": "electric_scooter", "lon": -76.93672933333333, "is_disabled": 0, "fusion_lon": 0.0, "rental_uris": {"android": "https://dc.lft.to/lastmile_qr_scan", "ios": "https://dc.lft.to/lastmile_qr_scan"}, "is_reserved": 0}, {"bike_id": "4a9de1d7bd6a05865d052c75e702f50a", "name": "4a9de1d7bd6a05865d052c75e702f50a", "lat": 38.924539, "fusion_lat": 0.0, "type": "electric_scooter", "lon": -77.021559, "is_disabled": 0, "fusion_lon": 0.0, "rental_uris": {"android": "https://dc.lft.to/lastmile_qr_scan", "ios": "https://dc.lft.to/lastmile_qr_scan"}, "is_reserved": 0}, {"bike_id": "fcc7fc349991df7ca847ac08c16b0f9d", "name": "fcc7fc349991df7ca847ac08c16b0f9d", "lat": 38.905691, "fusion_lat": 0.0, "type": "electric_scooter", "lon": -77.00891983333334, "is_disabled": 0, "fusion_lon": 0.0, "rental_uris": {"android": "https://dc.lft.to/lastmile_qr_scan", "ios": "https://dc.lft.to/lastmile_qr_scan"}, "is_reserved": 0}, {"bike_id": "c2784b7212f9814029db454a482c35db", "name": "c2784b7212f9814029db454a482c35db", "lat": 38.906439666666664, "fusion_lat": 0.0, "type": "electric_scooter", "lon": -77.0434925, "is_disabled": 0, "fusion_lon": 0.0, "rental_uris": {"android": "https://dc.lft.to/lastmile_qr_scan", "ios": "https://dc.lft.to/lastmile_qr_scan"}, "is_reserved": 0}, {"bike_id": "00d15346c6c93a7f200ca9b0b412713b", "name": "00d15346c6c93a7f200ca9b0b412713b", "lat": 38.90509683333333, "fusion_lat": 0.0, "type": "electric_scooter", "lon": -77.04028666666666, "is_disabled": 0, "fusion_lon": 0.0, "rental_uris": {"android": "https://dc.lft.to/lastmile_qr_scan", "ios": "https://dc.lft.to/lastmile_qr_scan"}, "is_reserved": 0}, {"bike_id": "7510b88a5535f80929d6aa9783736674", "name": "7510b88a5535f80929d6aa9783736674", "lat": 38.86500566666667, "fusion_lat": 0.0, "type": "electric_scooter", "lon": -76.98058383333333, "is_disabled": 0, "fusion_lon": 0.0, "rental_uris": {"android": "https://dc.lft.to/lastmile_qr_scan", "ios": "https://dc.lft.to/lastmile_qr_scan"}, "is_reserved": 0}, {"bike_id": "4d9359aa5f61ae76a1ef3949d68d4f1e", "name": "4d9359aa5f61ae76a1ef3949d68d4f1e", "lat": 38.917449500000004, "fusion_lat": 0.0, "type": "electric_scooter", "lon": -77.041534, "is_disabled": 0, "fusion_lon": 0.0, "rental_uris": {"android": "https://dc.lft.to/lastmile_qr_scan", "ios": "https://dc.lft.to/lastmile_qr_scan"}, "is_reserved": 0}, {"bike_id": "f67134408703b37eff67d882da63367e", "name": "f67134408703b37eff67d882da63367e", "lat": 38.945414166666666, "fusion_lat": 0.0, "type": "electric_bike", "lon": -77.34453983333333, "is_disabled": 0, "fusion_lon": 0.0, "rental_uris": {"android": "https://dc.lft.to/lastmile_qr_scan", "ios": "https://dc.lft.to/lastmile_qr_scan"}, "is_reserved": 0}, {"bike_id": "80d7197370bd0a40355ffe828a34745e", "name": "80d7197370bd0a40355ffe828a34745e", "lat": 38.922217333333336, "fusion_lat": 0.0, "type": "electric_scooter", "lon": -77.04329933333334, "is_disabled": 0, "fusion_lon": 0.0, "rental_uris": {"android": "https://dc.lft.to/lastmile_qr_scan", "ios": "https://dc.lft.to/lastmile_qr_scan"}, "is_reserved": 0}, {"bike_id": "cf1ded59ca0531696a050d97dc968be0", "name": "cf1ded59ca0531696a050d97dc968be0", "lat": 38.80054616666666, "fusion_lat": 0.0, "type": "electric_bike", "lon": -77.1283375, "is_disabled": 0, "fusion_lon": 0.0, "rental_uris": {"android": "https://dc.lft.to/lastmile_qr_scan", "ios": "https://dc.lft.to/lastmile_qr_scan"}, "is_reserved": 0}, {"bike_id": "57dcfe71020282860713494144775835", "name": "57dcfe71020282860713494144775835", "lat": 38.92602316666667, "fusion_lat": 0.0, "type": "electric_scooter", "lon": -77.02153633333333, "is_disabled": 0, "fusion_lon": 0.0, "rental_uris": {"android": "https://dc.lft.to/lastmile_qr_scan", "ios": "https://dc.lft.to/lastmile_qr_scan"}, "is_reserved": 0}, {"bike_id": "2ee0262dc65543a42eb46bc5569999aa", "name": "2ee0262dc65543a42eb46bc5569999aa", "lat": 38.91639966666666, "fusion_lat": 0.0, "type": "electric_scooter", "lon": -77.021007, "is_disabled": 0, "fusion_lon": 0.0, "rental_uris": {"android": "https://dc.lft.to/lastmile_qr_scan", "ios": "https://dc.lft.to/lastmile_qr_scan"}, "is_reserved": 0}, {"bike_id": "4beead34482d2899223ee7c4fcc7e73e", "name": "4beead34482d2899223ee7c4fcc7e73e", "lat": 38.918194, "fusion_lat": 0.0, "type": "electric_scooter", "lon": -77.028231, "is_disabled": 0, "fusion_lon": 0.0, "rental_uris": {"android": "https://dc.lft.to/lastmile_qr_scan", "ios": "https://dc.lft.to/lastmile_qr_scan"}, "is_reserved": 0}, {"bike_id": "fe273023b41ca4902e75771cfc36f428", "name": "fe273023b41ca4902e75771cfc36f428", "lat": 38.92406916666667, "fusion_lat": 0.0, "type": "electric_scooter", "lon": -77.05164283333333, "is_disabled": 0, "fusion_lon": 0.0, "rental_uris": {"android": "https://dc.lft.to/lastmile_qr_scan", "ios": "https://dc.lft.to/lastmile_qr_scan"}, "is_reserved": 0}, {"bike_id": "a380f0fc038e8a28643ef7a90c15f985", "name": "a380f0fc038e8a28643ef7a90c15f985", "lat": 38.93101716666666, "fusion_lat": 0.0, "type": "electric_scooter", "lon": -77.0350505, "is_disabled": 0, "fusion_lon": 0.0, "rental_uris": {"android": "https://dc.lft.to/lastmile_qr_scan", "ios": "https://dc.lft.to/lastmile_qr_scan"}, "is_reserved": 0}, {"bike_id": "e4708ee0de19266cc52c7416d3adf184", "name": "e4708ee0de19266cc52c7416d3adf184", "lat": 38.894240333333336, "fusion_lat": 0.0, "type": "electric_scooter", "lon": -76.9976885, "is_disabled": 0, "fusion_lon": 0.0, "rental_uris": {"android": "https://dc.lft.to/lastmile_qr_scan", "ios": "https://dc.lft.to/lastmile_qr_scan"}, "is_reserved": 0}, {"bike_id": "417ccd9521e018284f3dd793101ae97f", "name": "417ccd9521e018284f3dd793101ae97f", "lat": 38.922185999999996, "fusion_lat": 0.0, "type": "electric_scooter", "lon": -76.99630716666667, "is_disabled": 0, "fusion_lon": 0.0, "rental_uris": {"android": "https://dc.lft.to/lastmile_qr_scan", "ios": "https://dc.lft.to/lastmile_qr_scan"}, "is_reserved": 0}, {"bike_id": "cadece1b774816816e5a122c8d7a0d49", "name": "cadece1b774816816e5a122c8d7a0d49", "lat": 38.90905566666667, "fusion_lat": 0.0, "type": "electric_scooter", "lon": -77.04408433333333, "is_disabled": 0, "fusion_lon": 0.0, "rental_uris": {"android": "https://dc.lft.to/lastmile_qr_scan", "ios": "https://dc.lft.to/lastmile_qr_scan"}, "is_reserved": 0}, {"bike_id": "06d9b72a3c494e3226ac39abae6c83d4", "name": "06d9b72a3c494e3226ac39abae6c83d4", "lat": 38.887562, "fusion_lat": 0.0, "type": "electric_bike", "lon": -77.08922033333333, "is_disabled": 0, "fusion_lon": 0.0, "rental_uris": {"android": "https://dc.lft.to/lastmile_qr_scan", "ios": "https://dc.lft.to/lastmile_qr_scan"}, "is_reserved": 0}, {"bike_id": "445b45a2e0f80b1bc96ad36450736066", "name": "445b45a2e0f80b1bc96ad36450736066", "lat": 38.96678283333333, "fusion_lat": 0.0, "type": "electric_scooter", "lon": -77.036077, "is_disabled": 0, "fusion_lon": 0.0, "rental_uris": {"android": "https://dc.lft.to/lastmile_qr_scan", "ios": "https://dc.lft.to/lastmile_qr_scan"}, "is_reserved": 0}, {"bike_id": "012457f3ef66993b5dfde9eb1717e909", "name": "012457f3ef66993b5dfde9eb1717e909", "lat": 38.902153, "fusion_lat": 0.0, "type": "electric_scooter", "lon": -77.02367466666666, "is_disabled": 0, "fusion_lon": 0.0, "rental_uris": {"android": "https://dc.lft.to/lastmile_qr_scan", "ios": "https://dc.lft.to/lastmile_qr_scan"}, "is_reserved": 0}, {"bike_id": "0bf1d71911c24ae7b8bb34f7a5a0c694", "name": "0bf1d71911c24ae7b8bb34f7a5a0c694", "lat": 38.913593, "fusion_lat": 0.0, "type": "electric_scooter", "lon": -77.0175415, "is_disabled": 0, "fusion_lon": 0.0, "rental_uris": {"android": "https://dc.lft.to/lastmile_qr_scan", "ios": "https://dc.lft.to/lastmile_qr_scan"}, "is_reserved": 0}, {"bike_id": "bd2cd8b876a1a0cb94f24a6d8941756c", "name": "bd2cd8b876a1a0cb94f24a6d8941756c", "lat": 38.8601695, "fusion_lat": 0.0, "type": "electric_scooter", "lon": -76.97001466666667, "is_disabled": 0, "fusion_lon": 0.0, "rental_uris": {"android": "https://dc.lft.to/lastmile_qr_scan", "ios": "https://dc.lft.to/lastmile_qr_scan"}, "is_reserved": 0}, {"bike_id": "8a34f2298b672c45bae3c8fe2cbe81bd", "name": "8a34f2298b672c45bae3c8fe2cbe81bd", "lat": 38.916311, "fusion_lat": 0.0, "type": "electric_scooter", "lon": -77.02562216666666, "is_disabled": 0, "fusion_lon": 0.0, "rental_uris": {"android": "https://dc.lft.to/lastmile_qr_scan", "ios": "https://dc.lft.to/lastmile_qr_scan"}, "is_reserved": 0}, {"bike_id": "730eac023b79c28f5d2ff22fa17b8d3f", "name": "730eac023b79c28f5d2ff22fa17b8d3f", "lat": 38.95178666666666, "fusion_lat": 0.0, "type": "electric_scooter", "lon": -77.01260683333334, "is_disabled": 0, "fusion_lon": 0.0, "rental_uris": {"android": "https://dc.lft.to/lastmile_qr_scan", "ios": "https://dc.lft.to/lastmile_qr_scan"}, "is_reserved": 0}, {"bike_id": "840006f27537db895ed2103b7bd6b363", "name": "840006f27537db895ed2103b7bd6b363", "lat": 38.895425833333334, "fusion_lat": 0.0, "type": "electric_scooter", "lon": -76.98334783333334, "is_disabled": 0, "fusion_lon": 0.0, "rental_uris": {"android": "https://dc.lft.to/lastmile_qr_scan", "ios": "https://dc.lft.to/lastmile_qr_scan"}, "is_reserved": 0}, {"bike_id": "56df00246405854f5a3f35c6b6ffda7b", "name": "56df00246405854f5a3f35c6b6ffda7b", "lat": 38.8953645, "fusion_lat": 0.0, "type": "electric_scooter", "lon": -76.92770033333333, "is_disabled": 0, "fusion_lon": 0.0, "rental_uris": {"android": "https://dc.lft.to/lastmile_qr_scan", "ios": "https://dc.lft.to/lastmile_qr_scan"}, "is_reserved": 0}, {"bike_id": "2e506209672171b2d6e745e8523631f6", "name": "2e506209672171b2d6e745e8523631f6", "lat": 38.923891166666664, "fusion_lat": 0.0, "type": "electric_scooter", "lon": -77.04086366666667, "is_disabled": 0, "fusion_lon": 0.0, "rental_uris": {"android": "https://dc.lft.to/lastmile_qr_scan", "ios": "https://dc.lft.to/lastmile_qr_scan"}, "is_reserved": 0}, {"bike_id": "505d3b96a630fdcf004bfd75d898b1f4", "name": "505d3b96a630fdcf004bfd75d898b1f4", "lat": 38.924164833333336, "fusion_lat": 0.0, "type": "electric_scooter", "lon": -77.01946033333333, "is_disabled": 0, "fusion_lon": 0.0, "rental_uris": {"android": "https://dc.lft.to/lastmile_qr_scan", "ios": "https://dc.lft.to/lastmile_qr_scan"}, "is_reserved": 0}, {"bike_id": "0d527d351a85f3d6a00e045efc6da7a9", "name": "0d527d351a85f3d6a00e045efc6da7a9", "lat": 38.92482416666667, "fusion_lat": 0.0, "type": "electric_scooter", "lon": -77.02714166666667, "is_disabled": 0, "fusion_lon": 0.0, "rental_uris": {"android": "https://dc.lft.to/lastmile_qr_scan", "ios": "https://dc.lft.to/lastmile_qr_scan"}, "is_reserved": 0}, {"bike_id": "c27484cc3c38ad87d6bf1d85cfab8d67", "name": "c27484cc3c38ad87d6bf1d85cfab8d67", "lat": 38.913593666666664, "fusion_lat": 0.0, "type": "electric_scooter", "lon": -77.0199085, "is_disabled": 0, "fusion_lon": 0.0, "rental_uris": {"android": "https://dc.lft.to/lastmile_qr_scan", "ios": "https://dc.lft.to/lastmile_qr_scan"}, "is_reserved": 0}, {"bike_id": "4cbe9a4cc3a3a2058ac405f07cb62c8f", "name": "4cbe9a4cc3a3a2058ac405f07cb62c8f", "lat": 38.90398416666667, "fusion_lat": 0.0, "type": "electric_scooter", "lon": -76.97346183333333, "is_disabled": 0, "fusion_lon": 0.0, "rental_uris": {"android": "https://dc.lft.to/lastmile_qr_scan", "ios": "https://dc.lft.to/lastmile_qr_scan"}, "is_reserved": 0}, {"bike_id": "774b5daa3aa75ed03a38673edfdf319a", "name": "774b5daa3aa75ed03a38673edfdf319a", "lat": 38.89572616666667, "fusion_lat": 0.0, "type": "electric_scooter", "lon": -77.03012433333333, "is_disabled": 0, "fusion_lon": 0.0, "rental_uris": {"android": "https://dc.lft.to/lastmile_qr_scan", "ios": "https://dc.lft.to/lastmile_qr_scan"}, "is_reserved": 0}, {"bike_id": "522a1be50015e5815a4c3ad8ba7772b0", "name": "522a1be50015e5815a4c3ad8ba7772b0", "lat": 38.94084733333333, "fusion_lat": 0.0, "type": "electric_scooter", "lon": -77.03325733333334, "is_disabled": 0, "fusion_lon": 0.0, "rental_uris": {"android": "https://dc.lft.to/lastmile_qr_scan", "ios": "https://dc.lft.to/lastmile_qr_scan"}, "is_reserved": 0}, {"bike_id": "b9d694c6cf68d6067d63cc3056b422b3", "name": "b9d694c6cf68d6067d63cc3056b422b3", "lat": 38.9170085, "fusion_lat": 0.0, "type": "electric_scooter", "lon": -77.01072, "is_disabled": 0, "fusion_lon": 0.0, "rental_uris": {"android": "https://dc.lft.to/lastmile_qr_scan", "ios": "https://dc.lft.to/lastmile_qr_scan"}, "is_reserved": 0}, {"bike_id": "75ac60d487455d8a9ab6dce81db68f65", "name": "75ac60d487455d8a9ab6dce81db68f65", "lat": 38.920637, "fusion_lat": 0.0, "type": "electric_scooter", "lon": -77.04380633333334, "is_disabled": 0, "fusion_lon": 0.0, "rental_uris": {"android": "https://dc.lft.to/lastmile_qr_scan", "ios": "https://dc.lft.to/lastmile_qr_scan"}, "is_reserved": 0}, {"bike_id": "f651b9224e38dedcaa6ca0c2347ed88b", "name": "f651b9224e38dedcaa6ca0c2347ed88b", "lat": 38.916696333333334, "fusion_lat": 0.0, "type": "electric_scooter", "lon": -77.0317865, "is_disabled": 0, "fusion_lon": 0.0, "rental_uris": {"android": "https://dc.lft.to/lastmile_qr_scan", "ios": "https://dc.lft.to/lastmile_qr_scan"}, "is_reserved": 0}, {"bike_id": "e138050ab14c9c11fb8988b36f18dcfa", "name": "e138050ab14c9c11fb8988b36f18dcfa", "lat": 38.92662083333333, "fusion_lat": 0.0, "type": "electric_scooter", "lon": -77.02757516666667, "is_disabled": 0, "fusion_lon": 0.0, "rental_uris": {"android": "https://dc.lft.to/lastmile_qr_scan", "ios": "https://dc.lft.to/lastmile_qr_scan"}, "is_reserved": 0}, {"bike_id": "7d607b2617509b2000703bf4f4812482", "name": "7d607b2617509b2000703bf4f4812482", "lat": 38.914969, "fusion_lat": 0.0, "type": "electric_scooter", "lon": -77.01993566666667, "is_disabled": 0, "fusion_lon": 0.0, "rental_uris": {"android": "https://dc.lft.to/lastmile_qr_scan", "ios": "https://dc.lft.to/lastmile_qr_scan"}, "is_reserved": 0}, {"bike_id": "817cae2f4d5a3f35ae1be4ca9d8ee142", "name": "817cae2f4d5a3f35ae1be4ca9d8ee142", "lat": 38.9142265, "fusion_lat": 0.0, "type": "electric_scooter", "lon": -77.01802483333333, "is_disabled": 0, "fusion_lon": 0.0, "rental_uris": {"android": "https://dc.lft.to/lastmile_qr_scan", "ios": "https://dc.lft.to/lastmile_qr_scan"}, "is_reserved": 0}, {"bike_id": "ea29d2cc7d160643a7e6d727aed24e45", "name": "ea29d2cc7d160643a7e6d727aed24e45", "lat": 38.92373933333333, "fusion_lat": 0.0, "type": "electric_scooter", "lon": -77.0804985, "is_disabled": 0, "fusion_lon": 0.0, "rental_uris": {"android": "https://dc.lft.to/lastmile_qr_scan", "ios": "https://dc.lft.to/lastmile_qr_scan"}, "is_reserved": 0}, {"bike_id": "62cc2fd3ac7802728a37098ecf60a68e", "name": "62cc2fd3ac7802728a37098ecf60a68e", "lat": 38.92912, "fusion_lat": 0.0, "type": "electric_bike", "lon": -77.0208715, "is_disabled": 0, "fusion_lon": 0.0, "rental_uris": {"android": "https://dc.lft.to/lastmile_qr_scan", "ios": "https://dc.lft.to/lastmile_qr_scan"}, "is_reserved": 0}, {"bike_id": "a8947fa5cea7ff9d92aaf73d592e5cbd", "name": "a8947fa5cea7ff9d92aaf73d592e5cbd", "lat": 38.97492233333333, "fusion_lat": 0.0, "type": "electric_scooter", "lon": -77.01692816666667, "is_disabled": 0, "fusion_lon": 0.0, "rental_uris": {"android": "https://dc.lft.to/lastmile_qr_scan", "ios": "https://dc.lft.to/lastmile_qr_scan"}, "is_reserved": 0}, {"bike_id": "abd71546e06eb6fb140b0e116dd5cea8", "name": "abd71546e06eb6fb140b0e116dd5cea8", "lat": 38.89707083333333, "fusion_lat": 0.0, "type": "electric_scooter", "lon": -76.99115766666667, "is_disabled": 0, "fusion_lon": 0.0, "rental_uris": {"android": "https://dc.lft.to/lastmile_qr_scan", "ios": "https://dc.lft.to/lastmile_qr_scan"}, "is_reserved": 0}, {"bike_id": "ec7fb721907ff4726a42f6a1006ca6f1", "name": "ec7fb721907ff4726a42f6a1006ca6f1", "lat": 38.9037815, "fusion_lat": 0.0, "type": "electric_scooter", "lon": -77.05020433333334, "is_disabled": 0, "fusion_lon": 0.0, "rental_uris": {"android": "https://dc.lft.to/lastmile_qr_scan", "ios": "https://dc.lft.to/lastmile_qr_scan"}, "is_reserved": 0}, {"bike_id": "7ed9ef5005fed5f9b690a4796bf51dcf", "name": "7ed9ef5005fed5f9b690a4796bf51dcf", "lat": 38.936366166666666, "fusion_lat": 0.0, "type": "electric_scooter", "lon": -77.05996516666667, "is_disabled": 0, "fusion_lon": 0.0, "rental_uris": {"android": "https://dc.lft.to/lastmile_qr_scan", "ios": "https://dc.lft.to/lastmile_qr_scan"}, "is_reserved": 0}, {"bike_id": "6c167deee18519d40890173befdace4e", "name": "6c167deee18519d40890173befdace4e", "lat": 38.90378316666666, "fusion_lat": 0.0, "type": "electric_scooter", "lon": -76.99852616666666, "is_disabled": 0, "fusion_lon": 0.0, "rental_uris": {"android": "https://dc.lft.to/lastmile_qr_scan", "ios": "https://dc.lft.to/lastmile_qr_scan"}, "is_reserved": 0}, {"bike_id": "426a041e4051d6b1496fbde20444ae09", "name": "426a041e4051d6b1496fbde20444ae09", "lat": 39.094434, "fusion_lat": 0.0, "type": "electric_bike", "lon": -77.13459733333333, "is_disabled": 0, "fusion_lon": 0.0, "rental_uris": {"android": "https://dc.lft.to/lastmile_qr_scan", "ios": "https://dc.lft.to/lastmile_qr_scan"}, "is_reserved": 0}, {"bike_id": "76047e4ac91454b5681bb4a065b7a130", "name": "76047e4ac91454b5681bb4a065b7a130", "lat": 38.92994616666667, "fusion_lat": 0.0, "type": "electric_scooter", "lon": -77.037937, "is_disabled": 0, "fusion_lon": 0.0, "rental_uris": {"android": "https://dc.lft.to/lastmile_qr_scan", "ios": "https://dc.lft.to/lastmile_qr_scan"}, "is_reserved": 0}, {"bike_id": "172450d4e571f7dbe6ef82605c25af64", "name": "172450d4e571f7dbe6ef82605c25af64", "lat": 38.864491666666666, "fusion_lat": 0.0, "type": "electric_scooter", "lon": -76.99119883333333, "is_disabled": 0, "fusion_lon": 0.0, "rental_uris": {"android": "https://dc.lft.to/lastmile_qr_scan", "ios": "https://dc.lft.to/lastmile_qr_scan"}, "is_reserved": 0}, {"bike_id": "da16d447be8c7e1a4285b5630b21c45b", "name": "da16d447be8c7e1a4285b5630b21c45b", "lat": 38.9034945, "fusion_lat": 0.0, "type": "electric_scooter", "lon": -76.986139, "is_disabled": 0, "fusion_lon": 0.0, "rental_uris": {"android": "https://dc.lft.to/lastmile_qr_scan", "ios": "https://dc.lft.to/lastmile_qr_scan"}, "is_reserved": 0}, {"bike_id": "5eb593a3d55f7cf3323c70184ef87e14", "name": "5eb593a3d55f7cf3323c70184ef87e14", "lat": 38.90317533333333, "fusion_lat": 0.0, "type": "electric_scooter", "lon": -77.01887416666666, "is_disabled": 0, "fusion_lon": 0.0, "rental_uris": {"android": "https://dc.lft.to/lastmile_qr_scan", "ios": "https://dc.lft.to/lastmile_qr_scan"}, "is_reserved": 0}, {"bike_id": "17b107c83087b1be3aedcecbd663e4a7", "name": "17b107c83087b1be3aedcecbd663e4a7", "lat": 38.875368333333334, "fusion_lat": 0.0, "type": "electric_scooter", "lon": -77.01752016666667, "is_disabled": 0, "fusion_lon": 0.0, "rental_uris": {"android": "https://dc.lft.to/lastmile_qr_scan", "ios": "https://dc.lft.to/lastmile_qr_scan"}, "is_reserved": 0}, {"bike_id": "6726013dec587e2634224c704a1828d1", "name": "6726013dec587e2634224c704a1828d1", "lat": 38.900935, "fusion_lat": 0.0, "type": "electric_scooter", "lon": -77.02493183333333, "is_disabled": 0, "fusion_lon": 0.0, "rental_uris": {"android": "https://dc.lft.to/lastmile_qr_scan", "ios": "https://dc.lft.to/lastmile_qr_scan"}, "is_reserved": 0}, {"bike_id": "839abb2e95073abef2025b74fa610d26", "name": "839abb2e95073abef2025b74fa610d26", "lat": 38.91268616666667, "fusion_lat": 0.0, "type": "electric_scooter", "lon": -77.0224905, "is_disabled": 0, "fusion_lon": 0.0, "rental_uris": {"android": "https://dc.lft.to/lastmile_qr_scan", "ios": "https://dc.lft.to/lastmile_qr_scan"}, "is_reserved": 0}, {"bike_id": "8e5017061f443fc86b958a4dd57f50c2", "name": "8e5017061f443fc86b958a4dd57f50c2", "lat": 38.91660133333333, "fusion_lat": 0.0, "type": "electric_scooter", "lon": -77.027055, "is_disabled": 0, "fusion_lon": 0.0, "rental_uris": {"android": "https://dc.lft.to/lastmile_qr_scan", "ios": "https://dc.lft.to/lastmile_qr_scan"}, "is_reserved": 0}, {"bike_id": "701a586be4463d487667b771cebc6a90", "name": "701a586be4463d487667b771cebc6a90", "lat": 38.902280833333336, "fusion_lat": 0.0, "type": "electric_scooter", "lon": -77.037885, "is_disabled": 0, "fusion_lon": 0.0, "rental_uris": {"android": "https://dc.lft.to/lastmile_qr_scan", "ios": "https://dc.lft.to/lastmile_qr_scan"}, "is_reserved": 0}, {"bike_id": "28079464ae952421c7b095586eb0210e", "name": "28079464ae952421c7b095586eb0210e", "lat": 38.922066666666666, "fusion_lat": 0.0, "type": "electric_scooter", "lon": -77.03757683333333, "is_disabled": 0, "fusion_lon": 0.0, "rental_uris": {"android": "https://dc.lft.to/lastmile_qr_scan", "ios": "https://dc.lft.to/lastmile_qr_scan"}, "is_reserved": 0}, {"bike_id": "fbe9c6e0c660a0aa2cb5e051d796b4c9", "name": "fbe9c6e0c660a0aa2cb5e051d796b4c9", "lat": 38.914199333333336, "fusion_lat": 0.0, "type": "electric_scooter", "lon": -77.0180085, "is_disabled": 0, "fusion_lon": 0.0, "rental_uris": {"android": "https://dc.lft.to/lastmile_qr_scan", "ios": "https://dc.lft.to/lastmile_qr_scan"}, "is_reserved": 0}, {"bike_id": "5e5326e40fa156ff9e55f0a1c5f6254d", "name": "5e5326e40fa156ff9e55f0a1c5f6254d", "lat": 38.9737275, "fusion_lat": 0.0, "type": "electric_scooter", "lon": -77.026713, "is_disabled": 0, "fusion_lon": 0.0, "rental_uris": {"android": "https://dc.lft.to/lastmile_qr_scan", "ios": "https://dc.lft.to/lastmile_qr_scan"}, "is_reserved": 0}, {"bike_id": "9ed7f03363c87cbf95547ddc159d07b8", "name": "9ed7f03363c87cbf95547ddc159d07b8", "lat": 38.89960033333333, "fusion_lat": 0.0, "type": "electric_scooter", "lon": -77.015989, "is_disabled": 0, "fusion_lon": 0.0, "rental_uris": {"android": "https://dc.lft.to/lastmile_qr_scan", "ios": "https://dc.lft.to/lastmile_qr_scan"}, "is_reserved": 0}, {"bike_id": "d1f7af4b6fd74b21f854d361a6ad235e", "name": "d1f7af4b6fd74b21f854d361a6ad235e", "lat": 38.9153225, "fusion_lat": 0.0, "type": "electric_scooter", "lon": -77.02191083333334, "is_disabled": 0, "fusion_lon": 0.0, "rental_uris": {"android": "https://dc.lft.to/lastmile_qr_scan", "ios": "https://dc.lft.to/lastmile_qr_scan"}, "is_reserved": 0}, {"bike_id": "f87a11f1551b05bb9a482d2183d00ee0", "name": "f87a11f1551b05bb9a482d2183d00ee0", "lat": 38.90575783333333, "fusion_lat": 0.0, "type": "electric_scooter", "lon": -77.00392066666667, "is_disabled": 0, "fusion_lon": 0.0, "rental_uris": {"android": "https://dc.lft.to/lastmile_qr_scan", "ios": "https://dc.lft.to/lastmile_qr_scan"}, "is_reserved": 0}, {"bike_id": "ab3d50e0519608e2da7ea2bdf08640b5", "name": "ab3d50e0519608e2da7ea2bdf08640b5", "lat": 38.89449583333333, "fusion_lat": 0.0, "type": "electric_scooter", "lon": -77.02618383333333, "is_disabled": 0, "fusion_lon": 0.0, "rental_uris": {"android": "https://dc.lft.to/lastmile_qr_scan", "ios": "https://dc.lft.to/lastmile_qr_scan"}, "is_reserved": 0}, {"bike_id": "674a8e1b99bda4ffcf9841ee8b9138fe", "name": "674a8e1b99bda4ffcf9841ee8b9138fe", "lat": 38.96511, "fusion_lat": 0.0, "type": "electric_scooter", "lon": -77.00189766666666, "is_disabled": 0, "fusion_lon": 0.0, "rental_uris": {"android": "https://dc.lft.to/lastmile_qr_scan", "ios": "https://dc.lft.to/lastmile_qr_scan"}, "is_reserved": 0}, {"bike_id": "dae2cdc21d5466d46b9b54a190dcc4c7", "name": "dae2cdc21d5466d46b9b54a190dcc4c7", "lat": 38.92133166666667, "fusion_lat": 0.0, "type": "electric_scooter", "lon": -77.01817483333333, "is_disabled": 0, "fusion_lon": 0.0, "rental_uris": {"android": "https://dc.lft.to/lastmile_qr_scan", "ios": "https://dc.lft.to/lastmile_qr_scan"}, "is_reserved": 0}, {"bike_id": "8f4c9e370b03e77a756a8e5d04777cff", "name": "8f4c9e370b03e77a756a8e5d04777cff", "lat": 38.926278333333336, "fusion_lat": 0.0, "type": "electric_scooter", "lon": -77.04248183333333, "is_disabled": 0, "fusion_lon": 0.0, "rental_uris": {"android": "https://dc.lft.to/lastmile_qr_scan", "ios": "https://dc.lft.to/lastmile_qr_scan"}, "is_reserved": 0}, {"bike_id": "8e5cd4ebc298376ffab24f6f65b932bb", "name": "8e5cd4ebc298376ffab24f6f65b932bb", "lat": 38.94324066666667, "fusion_lat": 0.0, "type": "electric_scooter", "lon": -77.01254983333334, "is_disabled": 0, "fusion_lon": 0.0, "rental_uris": {"android": "https://dc.lft.to/lastmile_qr_scan", "ios": "https://dc.lft.to/lastmile_qr_scan"}, "is_reserved": 0}, {"bike_id": "0a99c80a866fc15e7cdebd18ea15603f", "name": "0a99c80a866fc15e7cdebd18ea15603f", "lat": 38.92403616666667, "fusion_lat": 0.0, "type": "electric_scooter", "lon": -77.04262066666666, "is_disabled": 0, "fusion_lon": 0.0, "rental_uris": {"android": "https://dc.lft.to/lastmile_qr_scan", "ios": "https://dc.lft.to/lastmile_qr_scan"}, "is_reserved": 0}, {"bike_id": "b12c07c1b518bb7a59d70ae2c5afe602", "name": "b12c07c1b518bb7a59d70ae2c5afe602", "lat": 38.916355833333334, "fusion_lat": 0.0, "type": "electric_scooter", "lon": -77.02969816666666, "is_disabled": 0, "fusion_lon": 0.0, "rental_uris": {"android": "https://dc.lft.to/lastmile_qr_scan", "ios": "https://dc.lft.to/lastmile_qr_scan"}, "is_reserved": 0}, {"bike_id": "0bd0726471ab77e36d30db9b17a95e4e", "name": "0bd0726471ab77e36d30db9b17a95e4e", "lat": 38.90439633333333, "fusion_lat": 0.0, "type": "electric_scooter", "lon": -77.03449, "is_disabled": 0, "fusion_lon": 0.0, "rental_uris": {"android": "https://dc.lft.to/lastmile_qr_scan", "ios": "https://dc.lft.to/lastmile_qr_scan"}, "is_reserved": 0}, {"bike_id": "073bf051e349c802bedaa9eebd172fe3", "name": "073bf051e349c802bedaa9eebd172fe3", "lat": 38.89062916666666, "fusion_lat": 0.0, "type": "electric_scooter", "lon": -77.02289883333333, "is_disabled": 0, "fusion_lon": 0.0, "rental_uris": {"android": "https://dc.lft.to/lastmile_qr_scan", "ios": "https://dc.lft.to/lastmile_qr_scan"}, "is_reserved": 0}, {"bike_id": "90e46e8cd16ddd9d12d2a9904ba209de", "name": "90e46e8cd16ddd9d12d2a9904ba209de", "lat": 38.89883183333333, "fusion_lat": 0.0, "type": "electric_scooter", "lon": -77.00745033333334, "is_disabled": 0, "fusion_lon": 0.0, "rental_uris": {"android": "https://dc.lft.to/lastmile_qr_scan", "ios": "https://dc.lft.to/lastmile_qr_scan"}, "is_reserved": 0}, {"bike_id": "e2a9fad212790db7323c7406ef755579", "name": "e2a9fad212790db7323c7406ef755579", "lat": 38.907877, "fusion_lat": 0.0, "type": "electric_scooter", "lon": -77.0318255, "is_disabled": 0, "fusion_lon": 0.0, "rental_uris": {"android": "https://dc.lft.to/lastmile_qr_scan", "ios": "https://dc.lft.to/lastmile_qr_scan"}, "is_reserved": 0}, {"bike_id": "42db93c1602b854c4aebb65dd9f36534", "name": "42db93c1602b854c4aebb65dd9f36534", "lat": 38.90240566666667, "fusion_lat": 0.0, "type": "electric_scooter", "lon": -77.0172995, "is_disabled": 0, "fusion_lon": 0.0, "rental_uris": {"android": "https://dc.lft.to/lastmile_qr_scan", "ios": "https://dc.lft.to/lastmile_qr_scan"}, "is_reserved": 0}, {"bike_id": "f052ed46024da35e9d16e70c9ef3682f", "name": "f052ed46024da35e9d16e70c9ef3682f", "lat": 38.92341916666667, "fusion_lat": 0.0, "type": "electric_scooter", "lon": -77.05087383333333, "is_disabled": 0, "fusion_lon": 0.0, "rental_uris": {"android": "https://dc.lft.to/lastmile_qr_scan", "ios": "https://dc.lft.to/lastmile_qr_scan"}, "is_reserved": 0}, {"bike_id": "e128daeb6317c86b86031d7c4937ce90", "name": "e128daeb6317c86b86031d7c4937ce90", "lat": 38.924026833333336, "fusion_lat": 0.0, "type": "electric_scooter", "lon": -76.95147383333334, "is_disabled": 0, "fusion_lon": 0.0, "rental_uris": {"android": "https://dc.lft.to/lastmile_qr_scan", "ios": "https://dc.lft.to/lastmile_qr_scan"}, "is_reserved": 0}, {"bike_id": "d0f11f2d4e419ed38fc1c1ceb54fc292", "name": "d0f11f2d4e419ed38fc1c1ceb54fc292", "lat": 38.89869683333333, "fusion_lat": 0.0, "type": "electric_scooter", "lon": -77.02694816666667, "is_disabled": 0, "fusion_lon": 0.0, "rental_uris": {"android": "https://dc.lft.to/lastmile_qr_scan", "ios": "https://dc.lft.to/lastmile_qr_scan"}, "is_reserved": 0}, {"bike_id": "12b994855aaea4c334c938bc871a8667", "name": "12b994855aaea4c334c938bc871a8667", "lat": 38.896276, "fusion_lat": 0.0, "type": "electric_scooter", "lon": -77.00207466666667, "is_disabled": 0, "fusion_lon": 0.0, "rental_uris": {"android": "https://dc.lft.to/lastmile_qr_scan", "ios": "https://dc.lft.to/lastmile_qr_scan"}, "is_reserved": 0}, {"bike_id": "f8ff173497359c0db616f3457421962c", "name": "f8ff173497359c0db616f3457421962c", "lat": 38.9142245, "fusion_lat": 0.0, "type": "electric_scooter", "lon": -77.01799716666666, "is_disabled": 0, "fusion_lon": 0.0, "rental_uris": {"android": "https://dc.lft.to/lastmile_qr_scan", "ios": "https://dc.lft.to/lastmile_qr_scan"}, "is_reserved": 0}, {"bike_id": "da5805570c1bb181d1a0c0224610bb03", "name": "da5805570c1bb181d1a0c0224610bb03", "lat": 38.909614833333336, "fusion_lat": 0.0, "type": "electric_scooter", "lon": -77.0143475, "is_disabled": 0, "fusion_lon": 0.0, "rental_uris": {"android": "https://dc.lft.to/lastmile_qr_scan", "ios": "https://dc.lft.to/lastmile_qr_scan"}, "is_reserved": 0}, {"bike_id": "5b23918b9a6912a71ee86ad52b1dd277", "name": "5b23918b9a6912a71ee86ad52b1dd277", "lat": 38.87888383333333, "fusion_lat": 0.0, "type": "electric_scooter", "lon": -76.99153266666667, "is_disabled": 0, "fusion_lon": 0.0, "rental_uris": {"android": "https://dc.lft.to/lastmile_qr_scan", "ios": "https://dc.lft.to/lastmile_qr_scan"}, "is_reserved": 0}, {"bike_id": "62514307d4b9a4a9e8163fcac442e394", "name": "62514307d4b9a4a9e8163fcac442e394", "lat": 38.902259666666666, "fusion_lat": 0.0, "type": "electric_scooter", "lon": -77.02378083333333, "is_disabled": 0, "fusion_lon": 0.0, "rental_uris": {"android": "https://dc.lft.to/lastmile_qr_scan", "ios": "https://dc.lft.to/lastmile_qr_scan"}, "is_reserved": 0}, {"bike_id": "6467e038bc875bd3b7f97e9b567760ef", "name": "6467e038bc875bd3b7f97e9b567760ef", "lat": 38.901754833333335, "fusion_lat": 0.0, "type": "electric_scooter", "lon": -77.04869883333333, "is_disabled": 0, "fusion_lon": 0.0, "rental_uris": {"android": "https://dc.lft.to/lastmile_qr_scan", "ios": "https://dc.lft.to/lastmile_qr_scan"}, "is_reserved": 0}, {"bike_id": "e61bbfc29a878767c2f7ee7a8168cb88", "name": "e61bbfc29a878767c2f7ee7a8168cb88", "lat": 38.95542316666667, "fusion_lat": 0.0, "type": "electric_scooter", "lon": -76.9956585, "is_disabled": 0, "fusion_lon": 0.0, "rental_uris": {"android": "https://dc.lft.to/lastmile_qr_scan", "ios": "https://dc.lft.to/lastmile_qr_scan"}, "is_reserved": 0}, {"bike_id": "929a663cd952a43033688e4e4487d99d", "name": "929a663cd952a43033688e4e4487d99d", "lat": 38.89737516666667, "fusion_lat": 0.0, "type": "electric_scooter", "lon": -77.02464016666667, "is_disabled": 0, "fusion_lon": 0.0, "rental_uris": {"android": "https://dc.lft.to/lastmile_qr_scan", "ios": "https://dc.lft.to/lastmile_qr_scan"}, "is_reserved": 0}, {"bike_id": "61593c13292327dd715be84d44f3bc53", "name": "61593c13292327dd715be84d44f3bc53", "lat": 38.8987765, "fusion_lat": 0.0, "type": "electric_bike", "lon": -76.97890983333333, "is_disabled": 0, "fusion_lon": 0.0, "rental_uris": {"android": "https://dc.lft.to/lastmile_qr_scan", "ios": "https://dc.lft.to/lastmile_qr_scan"}, "is_reserved": 0}, {"bike_id": "c03959764340d80c2ecff98e03fb32b0", "name": "c03959764340d80c2ecff98e03fb32b0", "lat": 38.92801083333333, "fusion_lat": 0.0, "type": "electric_scooter", "lon": -77.03634, "is_disabled": 0, "fusion_lon": 0.0, "rental_uris": {"android": "https://dc.lft.to/lastmile_qr_scan", "ios": "https://dc.lft.to/lastmile_qr_scan"}, "is_reserved": 0},