{"data": {"bikes": [{"type": "electric_scooter", "bike_id": "ae99c27bea9abcf7e0f7d96357cffc03", "is_disabled": 0, "name": "ae99c27bea9abcf7e0f7d96357cffc03", "lon": -77.03442833333334, "is_reserved": 0, "fusion_lon": 0.0, "lat": 38.91801433333333, "rental_uris": {"android": "https://dc.lft.to/lastmile_qr_scan", "ios": "https://dc.lft.to/lastmile_qr_scan"}, "fusion_lat": 0.0}, {"type": "electric_scooter", "bike_id": "f8b4b979c8a24edf65423ccf779d71ae", "is_disabled": 0, "name": "f8b4b979c8a24edf65423ccf779d71ae", "lon": -77.04051166666666, "is_reserved": 0, "fusion_lon": 0.0, "lat": 38.9242505, "rental_uris": {"android": "https://dc.lft.to/lastmile_qr_scan", "ios": "https://dc.lft.to/lastmile_qr_scan"}, "fusion_lat": 0.0}, {"type": "electric_scooter", "bike_id": "a12ca5d1ac5525a7dfc3f277e11eca76", "is_disabled": 0, "name": "a12ca5d1ac5525a7dfc3f277e11eca76", "lon": -77.01530216666667, "is_reserved": 0, "fusion_lon": 0.0, "lat": 38.909509666666665, "rental_uris": {"android": "https://dc.lft.to/lastmile_qr_scan", "ios": "https://dc.lft.to/lastmile_qr_scan"}, "fusion_lat": 0.0}, {"type": "electric_scooter", "bike_id": "86ce90ec86e9da49993f68d52f867625", "is_disabled": 0, "name": "86ce90ec86e9da49993f68d52f867625", "lon": -77.0345465, "is_reserved": 0, "fusion_lon": 0.0, "lat": 38.91006016666667, "rental_uris": {"android": "https://dc.lft.to/lastmile_qr_scan", "ios": "https://dc.lft.to/lastmile_qr_scan"}, "fusion_lat": 0.0}, {"type": "electric_scooter", "bike_id": "4ca1493d0a791135fdb625d85e4604a3", "is_disabled": 0, "name": "4ca1493d0a791135fdb625d85e4604a3", "lon": -77.02873016666666, "is_reserved": 0, "fusion_lon": 0.0, "lat": 38.916896666666666, "rental_uris": {"android": "https://dc.lft.to/lastmile_qr_scan", "ios": "https://dc.lft.to/lastmile_qr_scan"}, "fusion_lat": 0.0}, {"type": "electric_scooter", "bike_id": "4779640939f20828aeb3e55650890314", "is_disabled": 0, "name": "4779640939f20828aeb3e55650890314", "lon": -77.0191425, "is_reserved": 0, "fusion_lon": 0.0, "lat": 38.903605, "rental_uris": {"android": "https://dc.lft.to/lastmile_qr_scan", "ios": "https://dc.lft.to/lastmile_qr_scan"}, "fusion_lat": 0.0}, {"type": "electric_scooter", "bike_id": "c70f3f8d5b695b75849a0641fde672f4", "is_disabled": 0, "name": "c70f3f8d5b695b75849a0641fde672f4", "lon": -77.02511066666666, "is_reserved": 0, "fusion_lon": 0.0, "lat": 38.91915483333333, "rental_uris": {"android": "https://dc.lft.to/lastmile_qr_scan", "ios": "https://dc.lft.to/lastmile_qr_scan"}, "fusion_lat": 0.0}, {"type": "electric_bike", "bike_id": "187fd4d190065bc7f9a383d8affeaebd", "is_disabled": 0, "name": "187fd4d190065bc7f9a383d8affeaebd", "lon": -76.98690683333334, "is_reserved": 0, "fusion_lon": 0.0, "lat": 38.944796833333335, "rental_uris": {"android": "https://dc.lft.to/lastmile_qr_scan", "ios": "https://dc.lft.to/lastmile_qr_scan"}, "fusion_lat": 0.0}, {"type": "electric_scooter", "bike_id": "8c734542bb8e0941ce10129012a2f7fd", "is_disabled": 0, "name": "8c734542bb8e0941ce10129012a2f7fd", "lon": -77.046966, "is_reserved": 0, "fusion_lon": 0.0, "lat": 38.896111, "rental_uris": {"android": "https://dc.lft.to/lastmile_qr_scan", "ios": "https://dc.lft.to/lastmile_qr_scan"}, "fusion_lat": 0.0}, {"type": "electric_scooter", "bike_id": "efd239b2431b49ce0c17ca40181b9172", "is_disabled": 0, "name": "efd239b2431b49ce0c17ca40181b9172", "lon": -77.04016616666667, "is_reserved": 0, "fusion_lon": 0.0, "lat": 38.90725533333333, "rental_uris": {"android": "https://dc.lft.to/lastmile_qr_scan", "ios": "https://dc.lft.to/lastmile_qr_scan"}, "fusion_lat": 0.0}, {"type": "electric_scooter", "bike_id": "c1bd3632f1d354f52a665837a387badc", "is_disabled": 0, "name": "c1bd3632f1d354f52a665837a387badc", "lon": -77.03385666666667, "is_reserved": 0, "fusion_lon": 0.0, "lat": 38.90138616666667, "rental_uris": {"android": "https://dc.lft.to/lastmile_qr_scan", "ios": "https://dc.lft.to/lastmile_qr_scan"}, "fusion_lat": 0.0}, {"type": "electric_bike", "bike_id": "2425e7178dcf30bc483dd2c3c7eb5f23", "is_disabled": 0, "name": "2425e7178dcf30bc483dd2c3c7eb5f23", "lon": -77.07883433333333, "is_reserved": 0, "fusion_lon": 0.0, "lat": 38.95026766666667, "rental_uris": {"android": "https://dc.lft.to/lastmile_qr_scan", "ios": "https://dc.lft.to/lastmile_qr_scan"}, "fusion_lat": 0.0}, {"type": "electric_scooter", "bike_id": "c595579d15b7e73c2067396bcc343615", "is_disabled": 0, "name": "c595579d15b7e73c2067396bcc343615", "lon": -77.0183705, "is_reserved": 0, "fusion_lon": 0.0, "lat": 38.90957933333333, "rental_uris": {"android": "https://dc.lft.to/lastmile_qr_scan", "ios": "https://dc.lft.to/lastmile_qr_scan"}, "fusion_lat": 0.0}, {"type": "electric_scooter", "bike_id": "a91a8a5d0b4f83a99dfd60da34f7e4a0", "is_disabled": 0, "name": "a91a8a5d0b4f83a99dfd60da34f7e4a0", "lon": -77.00147716666666, "is_reserved": 0, "fusion_lon": 0.0, "lat": 38.90773333333333, "rental_uris": {"android": "https://dc.lft.to/lastmile_qr_scan", "ios": "https://dc.lft.to/lastmile_qr_scan"}, "fusion_lat": 0.0}, {"type": "electric_scooter", "bike_id": "9039555f599b5748c0e4b43ea6e7f5ab", "is_disabled": 0, "name": "9039555f599b5748c0e4b43ea6e7f5ab", "lon": -77.02732, "is_reserved": 0, "fusion_lon": 0.0, "lat": 38.95183383333333, "rental_uris": {"android": "https://dc.lft.to/lastmile_qr_scan", "ios": "https://dc.lft.to/lastmile_qr_scan"}, "fusion_lat": 0.0}, {"type": "electric_scooter", "bike_id": "47b4cab2625d39583649168a066601f5", "is_disabled": 0, "name": "47b4cab2625d39583649168a066601f5", "lon": -77.03448183333333, "is_reserved": 0, "fusion_lon": 0.0, "lat": 38.922241, "rental_uris": {"android": "https://dc.lft.to/lastmile_qr_scan", "ios": "https://dc.lft.to/lastmile_qr_scan"}, "fusion_lat": 0.0}, {"type": "electric_scooter", "bike_id": "4120a0ebc1e1dcd916ac1584d48b76cd", "is_disabled": 0, "name": "4120a0ebc1e1dcd916ac1584d48b76cd", "lon": -77.01506066666667, "is_reserved": 0, "fusion_lon": 0.0, "lat": 38.917674166666664, "rental_uris": {"android": "https://dc.lft.to/lastmile_qr_scan", "ios": "https://dc.lft.to/lastmile_qr_scan"}, "fusion_lat": 0.0}, {"type": "electric_bike", "bike_id": "40fc95d0db39ef49cdd88f0f2a1ab253", "is_disabled": 0, "name": "40fc95d0db39ef49cdd88f0f2a1ab253", "lon": -76.97336516666667, "is_reserved": 0, "fusion_lon": 0.0, "lat": 38.86513883333333, "rental_uris": {"android": "https://dc.lft.to/lastmile_qr_scan", "ios": "https://dc.lft.to/lastmile_qr_scan"}, "fusion_lat": 0.0}, {"type": "electric_scooter", "bike_id": "46f9515bb7c4fe22d3f1e9775b0903a3", "is_disabled": 0, "name": "46f9515bb7c4fe22d3f1e9775b0903a3", "lon": -77.009883, "is_reserved": 0, "fusion_lon": 0.0, "lat": 38.87291233333333, "rental_uris": {"android": "https://dc.lft.to/lastmile_qr_scan", "ios": "https://dc.lft.to/lastmile_qr_scan"}, "fusion_lat": 0.0}, {"type": "electric_scooter", "bike_id": "90a636e33cf75135819565cf65a28057", "is_disabled": 0, "name": "90a636e33cf75135819565cf65a28057", "lon": -77.03537266666666, "is_reserved": 0, "fusion_lon": 0.0, "lat": 38.9235325, "rental_uris": {"android": "https://dc.lft.to/lastmile_qr_scan", "ios": "https://dc.lft.to/lastmile_qr_scan"}, "fusion_lat": 0.0}, {"type": "electric_scooter", "bike_id": "acd3ee45e9e416f65b1df0824ced7ace", "is_disabled": 0, "name": "acd3ee45e9e416f65b1df0824ced7ace", "lon": -77.0282005, "is_reserved": 0, "fusion_lon": 0.0, "lat": 38.8817995, "rental_uris": {"android": "https://dc.lft.to/lastmile_qr_scan", "ios": "https://dc.lft.to/lastmile_qr_scan"}, "fusion_lat": 0.0}, {"type": "electric_scooter", "bike_id": "7f6143110066f135203a3788a0211998", "is_disabled": 0, "name": "7f6143110066f135203a3788a0211998", "lon": -77.00466383333334, "is_reserved": 0, "fusion_lon": 0.0, "lat": 38.9114375, "rental_uris": {"android": "https://dc.lft.to/lastmile_qr_scan", "ios": "https://dc.lft.to/lastmile_qr_scan"}, "fusion_lat": 0.0}, {"type": "electric_scooter", "bike_id": "4a256f4004e125096057701670f03902", "is_disabled": 0, "name": "4a256f4004e125096057701670f03902", "lon": -77.03615033333334, "is_reserved": 0, "fusion_lon": 0.0, "lat": 38.9373785, "rental_uris": {"android": "https://dc.lft.to/lastmile_qr_scan", "ios": "https://dc.lft.to/lastmile_qr_scan"}, "fusion_lat": 0.0}, {"type": "electric_scooter", "bike_id": "5ce4215c8756afc8b12d1720e1622b7a", "is_disabled": 0, "name": "5ce4215c8756afc8b12d1720e1622b7a", "lon": -77.0247395, "is_reserved": 0, "fusion_lon": 0.0, "lat": 38.93626283333333, "rental_uris": {"android": "https://dc.lft.to/lastmile_qr_scan", "ios": "https://dc.lft.to/lastmile_qr_scan"}, "fusion_lat": 0.0}, {"type": "electric_bike", "bike_id": "1b4d572d68648cc4c7a0971dba4c8fc5", "is_disabled": 0, "name": "1b4d572d68648cc4c7a0971dba4c8fc5", "lon": -77.03457966666667, "is_reserved": 0, "fusion_lon": 0.0, "lat": 38.918965666666665, "rental_uris": {"android": "https://dc.lft.to/lastmile_qr_scan", "ios": "https://dc.lft.to/lastmile_qr_scan"}, "fusion_lat": 0.0}, {"type": "electric_bike", "bike_id": "427d58ae50229414f1fa59687def19f6", "is_disabled": 0, "name": "427d58ae50229414f1fa59687def19f6", "lon": -77.10619883333334, "is_reserved": 0, "fusion_lon": 0.0, "lat": 38.837256, "rental_uris": {"android": "https://dc.lft.to/lastmile_qr_scan", "ios": "https://dc.lft.to/lastmile_qr_scan"}, "fusion_lat": 0.0}, {"type": "electric_scooter", "bike_id": "0fe72f4443920078834ba28b19c28fc5", "is_disabled": 0, "name": "0fe72f4443920078834ba28b19c28fc5", "lon": -77.0020265, "is_reserved": 0, "fusion_lon": 0.0, "lat": 38.902400166666666, "rental_uris": {"android": "https://dc.lft.to/lastmile_qr_scan", "ios": "https://dc.lft.to/lastmile_qr_scan"}, "fusion_lat": 0.0}, {"type": "electric_scooter", "bike_id": "38dc9fbf86619f54e2af77d3ebd499ac", "is_disabled": 0, "name": "38dc9fbf86619f54e2af77d3ebd499ac", "lon": -77.050437, "is_reserved": 0, "fusion_lon": 0.0, "lat": 38.923641833333335, "rental_uris": {"android": "https://dc.lft.to/lastmile_qr_scan", "ios": "https://dc.lft.to/lastmile_qr_scan"}, "fusion_lat": 0.0}, {"type": "electric_scooter", "bike_id": "9c615028b3527995c0238f492fe03e63", "is_disabled": 0, "name": "9c615028b3527995c0238f492fe03e63", "lon": -76.99083533333334, "is_reserved": 0, "fusion_lon": 0.0, "lat": 38.85560366666667, "rental_uris": {"android": "https://dc.lft.to/lastmile_qr_scan", "ios": "https://dc.lft.to/lastmile_qr_scan"}, "fusion_lat": 0.0}, {"type": "electric_scooter", "bike_id": "455833483c067a00d682982e0b72c780", "is_disabled": 0, "name": "455833483c067a00d682982e0b72c780", "lon": -77.03085066666667, "is_reserved": 0, "fusion_lon": 0.0, "lat": 38.89847, "rental_uris": {"android": "https://dc.lft.to/lastmile_qr_scan", "ios": "https://dc.lft.to/lastmile_qr_scan"}, "fusion_lat": 0.0}, {"type": "electric_scooter", "bike_id": "c2d5f4337f0d8732eb5999e09f8512cd", "is_disabled": 0, "name": "c2d5f4337f0d8732eb5999e09f8512cd", "lon": -77.02679716666667, "is_reserved": 0, "fusion_lon": 0.0, "lat": 38.922353, "rental_uris": {"android": "https://dc.lft.to/lastmile_qr_scan", "ios": "https://dc.lft.to/lastmile_qr_scan"}, "fusion_lat": 0.0}, {"type": "electric_scooter", "bike_id": "85eeabc90f932469790dfe974a4aa58b", "is_disabled": 0, "name": "85eeabc90f932469790dfe974a4aa58b", "lon": -76.97899433333333, "is_reserved": 0, "fusion_lon": 0.0, "lat": 38.885438, "rental_uris": {"android": "https://dc.lft.to/lastmile_qr_scan", "ios": "https://dc.lft.to/lastmile_qr_scan"}, "fusion_lat": 0.0}, {"type": "electric_scooter", "bike_id": "e76e4860e5328a80e75053fcfea19572", "is_disabled": 0, "name": "e76e4860e5328a80e75053fcfea19572", "lon": -77.02021733333333, "is_reserved": 0, "fusion_lon": 0.0, "lat": 38.894398, "rental_uris": {"android": "https://dc.lft.to/lastmile_qr_scan", "ios": "https://dc.lft.to/lastmile_qr_scan"}, "fusion_lat": 0.0}, {"type": "electric_scooter", "bike_id": "30ef83b74c1f3f9014392f9c8fe867c6", "is_disabled": 0, "name": "30ef83b74c1f3f9014392f9c8fe867c6", "lon": -77.002015, "is_reserved": 0, "fusion_lon": 0.0, "lat": 38.9023715, "rental_uris": {"android": "https://dc.lft.to/lastmile_qr_scan", "ios": "https://dc.lft.to/lastmile_qr_scan"}, "fusion_lat": 0.0}, {"type": "electric_bike", "bike_id": "3a19ce73ed4cf13a7b3741b3d473ccac", "is_disabled": 0, "name": "3a19ce73ed4cf13a7b3741b3d473ccac", "lon": -77.05465966666667, "is_reserved": 0, "fusion_lon": 0.0, "lat": 38.86477166666667, "rental_uris": {"android": "https://dc.lft.to/lastmile_qr_scan", "ios": "https://dc.lft.to/lastmile_qr_scan"}, "fusion_lat": 0.0}, {"type": "electric_scooter", "bike_id": "73d5f7d8a3326c178eae645231192e22", "is_disabled": 0, "name": "73d5f7d8a3326c178eae645231192e22", "lon": -77.04533533333333, "is_reserved": 0, "fusion_lon": 0.0, "lat": 38.91819866666667, "rental_uris": {"android": "https://dc.lft.to/lastmile_qr_scan", "ios": "https://dc.lft.to/lastmile_qr_scan"}, "fusion_lat": 0.0}, {"type": "electric_scooter", "bike_id": "be9bbd0dda81f68738e0be88a085bb0d", "is_disabled": 0, "name": "be9bbd0dda81f68738e0be88a085bb0d", "lon": -77.0366105, "is_reserved": 0, "fusion_lon": 0.0, "lat": 38.923032166666665, "rental_uris": {"android": "https://dc.lft.to/lastmile_qr_scan", "ios": "https://dc.lft.to/lastmile_qr_scan"}, "fusion_lat": 0.0}, {"type": "electric_scooter", "bike_id": "4cc5e1aed83fcff239ca5d730779dc52", "is_disabled": 0, "name": "4cc5e1aed83fcff239ca5d730779dc52", "lon": -77.04962966666666, "is_reserved": 0, "fusion_lon": 0.0, "lat": 38.90551416666667, "rental_uris": {"android": "https://dc.lft.to/lastmile_qr_scan", "ios": "https://dc.lft.to/lastmile_qr_scan"}, "fusion_lat": 0.0}, {"type": "electric_scooter", "bike_id": "28b23da6461a2af27520c650b50ff739", "is_disabled": 0, "name": "28b23da6461a2af27520c650b50ff739", "lon": -77.03835766666667, "is_reserved": 0, "fusion_lon": 0.0, "lat": 38.9035015, "rental_uris": {"android": "https://dc.lft.to/lastmile_qr_scan", "ios": "https://dc.lft.to/lastmile_qr_scan"}, "fusion_lat": 0.0}, {"type": "electric_scooter", "bike_id": "7b26cbccd23ffca6aa9cecde87cf4f27", "is_disabled": 0, "name": "7b26cbccd23ffca6aa9cecde87cf4f27", "lon": -77.0405525, "is_reserved": 0, "fusion_lon": 0.0, "lat": 38.895363333333336, "rental_uris": {"android": "https://dc.lft.to/lastmile_qr_scan", "ios": "https://dc.lft.to/lastmile_qr_scan"}, "fusion_lat": 0.0}, {"type": "electric_scooter", "bike_id": "573ca683812e48512acc455f6aecfd44", "is_disabled": 0, "name": "573ca683812e48512acc455f6aecfd44", "lon": -77.02167, "is_reserved": 0, "fusion_lon": 0.0, "lat": 38.897455666666666, "rental_uris": {"android": "https://dc.lft.to/lastmile_qr_scan", "ios": "https://dc.lft.to/lastmile_qr_scan"}, "fusion_lat": 0.0}, {"type": "electric_scooter", "bike_id": "69dc6d2a51896e180575f277b52f44dc", "is_disabled": 0, "name": "69dc6d2a51896e180575f277b52f44dc", "lon": -77.04733833333333, "is_reserved": 0, "fusion_lon": 0.0, "lat": 38.90540683333333, "rental_uris": {"android": "https://dc.lft.to/lastmile_qr_scan", "ios": "https://dc.lft.to/lastmile_qr_scan"}, "fusion_lat": 0.0}, {"type": "electric_scooter", "bike_id": "96cc8e321c5a3b9c22dafad67681acfa", "is_disabled": 0, "name": "96cc8e321c5a3b9c22dafad67681acfa", "lon": -77.051704, "is_reserved": 0, "fusion_lon": 0.0, "lat": 38.90319783333333, "rental_uris": {"android": "https://dc.lft.to/lastmile_qr_scan", "ios": "https://dc.lft.to/lastmile_qr_scan"}, "fusion_lat": 0.0}, {"type": "electric_scooter", "bike_id": "babf372981a9bfba43e929b145b37043", "is_disabled": 0, "name": "babf372981a9bfba43e929b145b37043", "lon": -77.02490933333333, "is_reserved": 0, "fusion_lon": 0.0, "lat": 38.941877166666664, "rental_uris": {"android": "https://dc.lft.to/lastmile_qr_scan", "ios": "https://dc.lft.to/lastmile_qr_scan"}, "fusion_lat": 0.0}, {"type": "electric_bike", "bike_id": "c474ab1c1bdf89ed26d714194be9467c", "is_disabled": 0, "name": "c474ab1c1bdf89ed26d714194be9467c", "lon": -77.02873833333334, "is_reserved": 0, "fusion_lon": 0.0, "lat": 38.92139066666667, "rental_uris": {"android": "https://dc.lft.to/lastmile_qr_scan", "ios": "https://dc.lft.to/lastmile_qr_scan"}, "fusion_lat": 0.0}, {"type": "electric_scooter", "bike_id": "078299d5f8213b08921e82f06a7e1f00", "is_disabled": 0, "name": "078299d5f8213b08921e82f06a7e1f00", "lon": -77.03393516666667, "is_reserved": 0, "fusion_lon": 0.0, "lat": 38.909560166666665, "rental_uris": {"android": "https://dc.lft.to/lastmile_qr_scan", "ios": "https://dc.lft.to/lastmile_qr_scan"}, "fusion_lat": 0.0}, {"type": "electric_scooter", "bike_id": "d902937535b20951b62a3680890374e7", "is_disabled": 0, "name": "d902937535b20951b62a3680890374e7", "lon": -77.03582133333333, "is_reserved": 0, "fusion_lon": 0.0, "lat": 38.92330283333333, "rental_uris": {"android": "https://dc.lft.to/lastmile_qr_scan", "ios": "https://dc.lft.to/lastmile_qr_scan"}, "fusion_lat": 0.0}, {"type": "electric_scooter", "bike_id": "f5cc6156f8ecda56995554c38706fab1", "is_disabled": 0, "name": "f5cc6156f8ecda56995554c38706fab1", "lon": -77.04490566666666, "is_reserved": 0, "fusion_lon": 0.0, "lat": 38.89949633333333, "rental_uris": {"android": "https://dc.lft.to/lastmile_qr_scan", "ios": "https://dc.lft.to/lastmile_qr_scan"}, "fusion_lat": 0.0}, {"type": "electric_bike", "bike_id": "4ce0813b95fc074c6d6bfe74b97120f1", "is_disabled": 0, "name": "4ce0813b95fc074c6d6bfe74b97120f1", "lon": -76.99070266666666, "is_reserved": 0, "fusion_lon": 0.0, "lat": 38.89815433333333, "rental_uris": {"android": "https://dc.lft.to/lastmile_qr_scan", "ios": "https://dc.lft.to/lastmile_qr_scan"}, "fusion_lat": 0.0}, {"type": "electric_scooter", "bike_id": "a44ac2020c2a59945d3f80bcd9ff0c19", "is_disabled": 0, "name": "a44ac2020c2a59945d3f80bcd9ff0c19", "lon": -77.040216, "is_reserved": 0, "fusion_lon": 0.0, "lat": 38.89829733333333, "rental_uris": {"android": "https://dc.lft.to/lastmile_qr_scan", "ios": "https://dc.lft.to/lastmile_qr_scan"}, "fusion_lat": 0.0}, {"type": "electric_bike", "bike_id": "2e5eec6406d343a44f6033882d80fc26", "is_disabled": 0, "name": "2e5eec6406d343a44f6033882d80fc26", "lon": -76.98115916666667, "is_reserved": 0, "fusion_lon": 0.0, "lat": 38.9457105, "rental_uris": {"android": "https://dc.lft.to/lastmile_qr_scan", "ios": "https://dc.lft.to/lastmile_qr_scan"}, "fusion_lat": 0.0}, {"type": "electric_scooter", "bike_id": "9e24eae39d798d31e160bf57af73eca7", "is_disabled": 0, "name": "9e24eae39d798d31e160bf57af73eca7", "lon": -77.03180866666666, "is_reserved": 0, "fusion_lon": 0.0, "lat": 38.9072765, "rental_uris": {"android": "https://dc.lft.to/lastmile_qr_scan", "ios": "https://dc.lft.to/lastmile_qr_scan"}, "fusion_lat": 0.0}, {"type": "electric_scooter", "bike_id": "eeb2de8fdf195982ac7f32afe4f32ab0", "is_disabled": 0, "name": "eeb2de8fdf195982ac7f32afe4f32ab0", "lon": -77.0785345, "is_reserved": 0, "fusion_lon": 0.0, "lat": 38.946006833333335, "rental_uris": {"android": "https://dc.lft.to/lastmile_qr_scan", "ios": "https://dc.lft.to/lastmile_qr_scan"}, "fusion_lat": 0.0}, {"type": "electric_scooter", "bike_id": "d2fd470f67638a391bc8996dde868417", "is_disabled": 0, "name": "d2fd470f67638a391bc8996dde868417", "lon": -77.02406383333333, "is_reserved": 0, "fusion_lon": 0.0, "lat": 38.917143, "rental_uris": {"android": "https://dc.lft.to/lastmile_qr_scan", "ios": "https://dc.lft.to/lastmile_qr_scan"}, "fusion_lat": 0.0}, {"type": "electric_scooter", "bike_id": "0651a5f6f96e55ff0235d44f39526bfd", "is_disabled": 0, "name": "0651a5f6f96e55ff0235d44f39526bfd", "lon": -77.01172283333334, "is_reserved": 0, "fusion_lon": 0.0, "lat": 38.916998, "rental_uris": {"android": "https://dc.lft.to/lastmile_qr_scan", "ios": "https://dc.lft.to/lastmile_qr_scan"}, "fusion_lat": 0.0}, {"type": "electric_scooter", "bike_id": "ad2003ab5657b4fbff820434c8f444ca", "is_disabled": 0, "name": "ad2003ab5657b4fbff820434c8f444ca", "lon": -77.03285516666666, "is_reserved": 0, "fusion_lon": 0.0, "lat": 38.93641916666667, "rental_uris": {"android": "https://dc.lft.to/lastmile_qr_scan", "ios": "https://dc.lft.to/lastmile_qr_scan"}, "fusion_lat": 0.0}, {"type": "electric_scooter", "bike_id": "eb12e621f83ce47a7edc8a97484882f8", "is_disabled": 0, "name": "eb12e621f83ce47a7edc8a97484882f8", "lon": -77.08249466666666, "is_reserved": 0, "fusion_lon": 0.0, "lat": 38.907333, "rental_uris": {"android": "https://dc.lft.to/lastmile_qr_scan", "ios": "https://dc.lft.to/lastmile_qr_scan"}, "fusion_lat": 0.0}, {"type": "electric_scooter", "bike_id": "826500ebc82f3a65beb4360ccb144060", "is_disabled": 0, "name": "826500ebc82f3a65beb4360ccb144060", "lon": -77.0431395, "is_reserved": 0, "fusion_lon": 0.0, "lat": 38.91880666666667, "rental_uris": {"android": "https://dc.lft.to/lastmile_qr_scan", "ios": "https://dc.lft.to/lastmile_qr_scan"}, "fusion_lat": 0.0}, {"type": "electric_scooter", "bike_id": "cbe48a6b333feb51e7c7ddf1b831aff7", "is_disabled": 0, "name": "cbe48a6b333feb51e7c7ddf1b831aff7", "lon": -77.03441233333334, "is_reserved": 0, "fusion_lon": 0.0, "lat": 38.91808283333334, "rental_uris": {"android": "https://dc.lft.to/lastmile_qr_scan", "ios": "https://dc.lft.to/lastmile_qr_scan"}, "fusion_lat": 0.0}, {"type": "electric_scooter", "bike_id": "b293c589e2faa47b6a00f98cd0c3a0d6", "is_disabled": 0, "name": "b293c589e2faa47b6a00f98cd0c3a0d6", "lon": -77.03198933333333, "is_reserved": 0, "fusion_lon": 0.0, "lat": 38.916197, "rental_uris": {"android": "https://dc.lft.to/lastmile_qr_scan", "ios": "https://dc.lft.to/lastmile_qr_scan"}, "fusion_lat": 0.0}, {"type": "electric_scooter", "bike_id": "6fec427b33d90dcabf3e59d5c27719be", "is_disabled": 0, "name": "6fec427b33d90dcabf3e59d5c27719be", "lon": -77.01824966666666, "is_reserved": 0, "fusion_lon": 0.0, "lat": 38.921529666666665, "rental_uris": {"android": "https://dc.lft.to/lastmile_qr_scan", "ios": "https://dc.lft.to/lastmile_qr_scan"}, "fusion_lat": 0.0}, {"type": "electric_scooter", "bike_id": "9e46e897ae8b1b0a257e600853a03192", "is_disabled": 0, "name": "9e46e897ae8b1b0a257e600853a03192", "lon": -77.04873383333333, "is_reserved": 0, "fusion_lon": 0.0, "lat": 38.906477333333335, "rental_uris": {"android": "https://dc.lft.to/lastmile_qr_scan", "ios": "https://dc.lft.to/lastmile_qr_scan"}, "fusion_lat": 0.0}, {"type": "electric_scooter", "bike_id": "f073b29ede455dd436f0244dd9773c81", "is_disabled": 0, "name": "f073b29ede455dd436f0244dd9773c81", "lon": -77.01201183333333, "is_reserved": 0, "fusion_lon": 0.0, "lat": 38.91195916666667, "rental_uris": {"android": "https://dc.lft.to/lastmile_qr_scan", "ios": "https://dc.lft.to/lastmile_qr_scan"}, "fusion_lat": 0.0}, {"type": "electric_scooter", "bike_id": "bb401095297a228393b4f53d0cbb5a69", "is_disabled": 0, "name": "bb401095297a228393b4f53d0cbb5a69", "lon": -77.02730116666666, "is_reserved": 0, "fusion_lon": 0.0, "lat": 38.932519166666665, "rental_uris": {"android": "https://dc.lft.to/lastmile_qr_scan", "ios": "https://dc.lft.to/lastmile_qr_scan"}, "fusion_lat": 0.0}, {"type": "electric_scooter", "bike_id": "49af0b81f12af307fa8a5bd73c97625e", "is_disabled": 0, "name": "49af0b81f12af307fa8a5bd73c97625e", "lon": -76.983858, "is_reserved": 0, "fusion_lon": 0.0, "lat": 38.87942866666667, "rental_uris": {"android": "https://dc.lft.to/lastmile_qr_scan", "ios": "https://dc.lft.to/lastmile_qr_scan"}, "fusion_lat": 0.0}, {"type": "electric_scooter", "bike_id": "8c8300d9f085b47d8688a33b90db1073", "is_disabled": 0, "name": "8c8300d9f085b47d8688a33b90db1073", "lon": -77.03448166666666, "is_reserved": 0, "fusion_lon": 0.0, "lat": 38.9080975, "rental_uris": {"android": "https://dc.lft.to/lastmile_qr_scan", "ios": "https://dc.lft.to/lastmile_qr_scan"}, "fusion_lat": 0.0}, {"type": "electric_scooter", "bike_id": "5a07d679640668e1f8ec95038cecf17c", "is_disabled": 0, "name": "5a07d679640668e1f8ec95038cecf17c", "lon": -77.01997683333333, "is_reserved": 0, "fusion_lon": 0.0, "lat": 38.876045500000004, "rental_uris": {"android": "https://dc.lft.to/lastmile_qr_scan", "ios": "https://dc.lft.to/lastmile_qr_scan"}, "fusion_lat": 0.0}, {"type": "electric_scooter", "bike_id": "dae708a51cbfe695e58f5c21751915c9", "is_disabled": 0, "name": "dae708a51cbfe695e58f5c21751915c9", "lon": -77.0521645, "is_reserved": 0, "fusion_lon": 0.0, "lat": 38.9026335, "rental_uris": {"android": "https://dc.lft.to/lastmile_qr_scan", "ios": "https://dc.lft.to/lastmile_qr_scan"}, "fusion_lat": 0.0}, {"type": "electric_scooter", "bike_id": "e811243721b9ee8c34c5b6659254ef4f", "is_disabled": 0, "name": "e811243721b9ee8c34c5b6659254ef4f", "lon": -76.99851333333334, "is_reserved": 0, "fusion_lon": 0.0, "lat": 38.896240166666665, "rental_uris": {"android": "https://dc.lft.to/lastmile_qr_scan", "ios": "https://dc.lft.to/lastmile_qr_scan"}, "fusion_lat": 0.0}, {"type": "electric_bike", "bike_id": "34b800f716898361ef3d4a14d6060893", "is_disabled": 0, "name": "34b800f716898361ef3d4a14d6060893", "lon": -77.06568566666667, "is_reserved": 0, "fusion_lon": 0.0, "lat": 38.932671666666664, "rental_uris": {"android": "https://dc.lft.to/lastmile_qr_scan", "ios": "https://dc.lft.to/lastmile_qr_scan"}, "fusion_lat": 0.0}, {"type": "electric_scooter", "bike_id": "3c7861ca78289c81b9471d5de5eff5a0", "is_disabled": 0, "name": "3c7861ca78289c81b9471d5de5eff5a0", "lon": -77.01526616666666, "is_reserved": 0, "fusion_lon": 0.0, "lat": 38.892435, "rental_uris": {"android": "https://dc.lft.to/lastmile_qr_scan", "ios": "https://dc.lft.to/lastmile_qr_scan"}, "fusion_lat": 0.0}, {"type": "electric_scooter", "bike_id": "d50044e3c3898f751be3ffd9133baa33", "is_disabled": 0, "name": "d50044e3c3898f751be3ffd9133baa33", "lon": -77.02603633333334, "is_reserved": 0, "fusion_lon": 0.0, "lat": 38.91836266666667, "rental_uris": {"android": "https://dc.lft.to/lastmile_qr_scan", "ios": "https://dc.lft.to/lastmile_qr_scan"}, "fusion_lat": 0.0}, {"type": "electric_scooter", "bike_id": "5cbb69e19f3e080af00e9d07aa0fa00c", "is_disabled": 0, "name": "5cbb69e19f3e080af00e9d07aa0fa00c", "lon": -77.04930866666666, "is_reserved": 0, "fusion_lon": 0.0, "lat": 38.900865, "rental_uris": {"android": "https://dc.lft.to/lastmile_qr_scan", "ios": "https://dc.lft.to/lastmile_qr_scan"}, "fusion_lat": 0.0}, {"type": "electric_scooter", "bike_id": "f02b50372ef4ec00e70e365e53105d1b", "is_disabled": 0, "name": "f02b50372ef4ec00e70e365e53105d1b", "lon": -77.0318855, "is_reserved": 0, "fusion_lon": 0.0, "lat": 38.916811, "rental_uris": {"android": "https://dc.lft.to/lastmile_qr_scan", "ios": "https://dc.lft.to/lastmile_qr_scan"}, "fusion_lat": 0.0}, {"type": "electric_scooter", "bike_id": "1e3da97f0f99add4cec20480f1a654f8", "is_disabled": 0, "name": "1e3da97f0f99add4cec20480f1a654f8", "lon": -77.03394633333333, "is_reserved": 0, "fusion_lon": 0.0, "lat": 38.902692333333334, "rental_uris": {"android": "https://dc.lft.to/lastmile_qr_scan", "ios": "https://dc.lft.to/lastmile_qr_scan"}, "fusion_lat": 0.0}, {"type": "electric_scooter", "bike_id": "154d9370449c34b02a848a984a2f54c3", "is_disabled": 0, "name": "154d9370449c34b02a848a984a2f54c3", "lon": -77.02257366666667, "is_reserved": 0, "fusion_lon": 0.0, "lat": 38.928251, "rental_uris": {"android": "https://dc.lft.to/lastmile_qr_scan", "ios": "https://dc.lft.to/lastmile_qr_scan"}, "fusion_lat": 0.0}, {"type": "electric_scooter", "bike_id": "44ea940bc0dbcc61306ee9127c6a796d", "is_disabled": 0, "name": "44ea940bc0dbcc61306ee9127c6a796d", "lon": -77.0244825, "is_reserved": 0, "fusion_lon": 0.0, "lat": 38.956353166666666, "rental_uris": {"android": "https://dc.lft.to/lastmile_qr_scan", "ios": "https://dc.lft.to/lastmile_qr_scan"}, "fusion_lat": 0.0}, {"type": "electric_scooter", "bike_id": "97cff43964e6036271042508568be08b", "is_disabled": 0, "name": "97cff43964e6036271042508568be08b", "lon": -77.045144, "is_reserved": 0, "fusion_lon": 0.0, "lat": 38.905472833333334, "rental_uris": {"android": "https://dc.lft.to/lastmile_qr_scan", "ios": "https://dc.lft.to/lastmile_qr_scan"}, "fusion_lat": 0.0}, {"type": "electric_scooter", "bike_id": "9c80158872fc71d25a00d9211cdda433", "is_disabled": 0, "name": "9c80158872fc71d25a00d9211cdda433", "lon": -77.068269, "is_reserved": 0, "fusion_lon": 0.0, "lat": 38.91657583333333, "rental_uris": {"android": "https://dc.lft.to/lastmile_qr_scan", "ios": "https://dc.lft.to/lastmile_qr_scan"}, "fusion_lat": 0.0}, {"type": "electric_scooter", "bike_id": "b3f9b6863af9a65b22f94f541c00bb6c", "is_disabled": 0, "name": "b3f9b6863af9a65b22f94f541c00bb6c", "lon": -77.04178966666667, "is_reserved": 0, "fusion_lon": 0.0, "lat": 38.917314, "rental_uris": {"android": "https://dc.lft.to/lastmile_qr_scan", "ios": "https://dc.lft.to/lastmile_qr_scan"}, "fusion_lat": 0.0}, {"type": "electric_scooter", "bike_id": "f69d091b03002275002c80ad03a30dd0", "is_disabled": 0, "name": "f69d091b03002275002c80ad03a30dd0", "lon": -77.02815433333333, "is_reserved": 0, "fusion_lon": 0.0, "lat": 38.910547333333334, "rental_uris": {"android": "https://dc.lft.to/lastmile_qr_scan", "ios": "https://dc.lft.to/lastmile_qr_scan"}, "fusion_lat": 0.0}, {"type": "electric_scooter", "bike_id": "b42d41fbbcb55e520fd5b689599f997a", "is_disabled": 0, "name": "b42d41fbbcb55e520fd5b689599f997a", "lon": -77.043963, "is_reserved": 0, "fusion_lon": 0.0, "lat": 38.916605833333335, "rental_uris": {"android": "https://dc.lft.to/lastmile_qr_scan", "ios": "https://dc.lft.to/lastmile_qr_scan"}, "fusion_lat": 0.0}, {"type": "electric_scooter", "bike_id": "9231bd48cc22afb70696acc207ee862b", "is_disabled": 0, "name": "9231bd48cc22afb70696acc207ee862b", "lon": -77.01890883333333, "is_reserved": 0, "fusion_lon": 0.0, "lat": 38.89748633333333, "rental_uris": {"android": "https://dc.lft.to/lastmile_qr_scan", "ios": "https://dc.lft.to/lastmile_qr_scan"}, "fusion_lat": 0.0}, {"type": "electric_scooter", "bike_id": "d519b7bd5fc0a73b49ee4ffe82e58663", "is_disabled": 0, "name": "d519b7bd5fc0a73b49ee4ffe82e58663", "lon": -77.0169145, "is_reserved": 0, "fusion_lon": 0.0, "lat": 38.920378, "rental_uris": {"android": "https://dc.lft.to/lastmile_qr_scan", "ios": "https://dc.lft.to/lastmile_qr_scan"}, "fusion_lat": 0.0}, {"type": "electric_scooter", "bike_id": "3635a1672d3ef04baa6a708e55bf76c3", "is_disabled": 0, "name": "3635a1672d3ef04baa6a708e55bf76c3", "lon": -77.0196145, "is_reserved": 0, "fusion_lon": 0.0, "lat": 38.92327083333333, "rental_uris": {"android": "https://dc.lft.to/lastmile_qr_scan", "ios": "https://dc.lft.to/lastmile_qr_scan"}, "fusion_lat": 0.0}, {"type": "electric_scooter", "bike_id": "96e0722f5ffffd3b9a7e8b6eab11502d", "is_disabled": 0, "name": "96e0722f5ffffd3b9a7e8b6eab11502d", "lon": -77.03091333333333, "is_reserved": 0, "fusion_lon": 0.0, "lat": 38.92379183333333, "rental_uris": {"android": "https://dc.lft.to/lastmile_qr_scan", "ios": "https://dc.lft.to/lastmile_qr_scan"}, "fusion_lat": 0.0}, {"type": "electric_scooter", "bike_id": "f3997f3441c370235d267e3a3d0e3ee8", "is_disabled": 0, "name": "f3997f3441c370235d267e3a3d0e3ee8", "lon": -77.04351866666667, "is_reserved": 0, "fusion_lon": 0.0, "lat": 38.9109765, "rental_uris": {"android": "https://dc.lft.to/lastmile_qr_scan", "ios": "https://dc.lft.to/lastmile_qr_scan"}, "fusion_lat": 0.0}, {"type": "electric_scooter", "bike_id": "2e9b5d1971da56095c5c920aebd97564", "is_disabled": 0, "name": "2e9b5d1971da56095c5c920aebd97564", "lon": -77.03979883333334, "is_reserved": 0, "fusion_lon": 0.0, "lat": 38.90116833333333, "rental_uris": {"android": "https://dc.lft.to/lastmile_qr_scan", "ios": "https://dc.lft.to/lastmile_qr_scan"}, "fusion_lat": 0.0}, {"type": "electric_scooter", "bike_id": "0a5867f5c469f1b63a1cf885c769222e", "is_disabled": 0, "name": "0a5867f5c469f1b63a1cf885c769222e", "lon": -77.04371116666667, "is_reserved": 0, "fusion_lon": 0.0, "lat": 38.901235, "rental_uris": {"android": "https://dc.lft.to/lastmile_qr_scan", "ios": "https://dc.lft.to/lastmile_qr_scan"}, "fusion_lat": 0.0}, {"type": "electric_scooter", "bike_id": "92ea7860a904690947171eed299da2a0", "is_disabled": 0, "name": "92ea7860a904690947171eed299da2a0", "lon": -77.0328125, "is_reserved": 0, "fusion_lon": 0.0, "lat": 38.9316365, "rental_uris": {"android": "https://dc.lft.to/lastmile_qr_scan", "ios": "https://dc.lft.to/lastmile_qr_scan"}, "fusion_lat": 0.0}, {"type": "electric_scooter", "bike_id": "54d2503d01c06c007f14c797822202d3", "is_disabled": 0, "name": "54d2503d01c06c007f14c797822202d3", "lon": -77.03520016666667, "is_reserved": 0, "fusion_lon": 0.0, "lat": 38.92250883333333, "rental_uris": {"android": "https://dc.lft.to/lastmile_qr_scan", "ios": "https://dc.lft.to/lastmile_qr_scan"}, "fusion_lat": 0.0}, {"type": "electric_bike", "bike_id": "a66b69003f6846bebf2663e356a21609", "is_disabled": 0, "name": "a66b69003f6846bebf2663e356a21609", "lon": -76.96266233333333, "is_reserved": 0, "fusion_lon": 0.0, "lat": 38.967856833333336, "rental_uris": {"android": "https://dc.lft.to/lastmile_qr_scan", "ios": "https://dc.lft.to/lastmile_qr_scan"}, "fusion_lat": 0.0}, {"type": "electric_scooter", "bike_id": "b23f11e7f0d7be869e0690f52b0343c7", "is_disabled": 0, "name": "b23f11e7f0d7be869e0690f52b0343c7", "lon": -77.02307783333333, "is_reserved": 0, "fusion_lon": 0.0, "lat": 38.94564466666667, "rental_uris": {"android": "https://dc.lft.to/lastmile_qr_scan", "ios": "https://dc.lft.to/lastmile_qr_scan"}, "fusion_lat": 0.0}, {"type": "electric_bike", "bike_id": "4f19fdc5a7b0d15b88805b6e23ba4f24", "is_disabled": 0, "name": "4f19fdc5a7b0d15b88805b6e23ba4f24", "lon": -77.08406683333334, "is_reserved": 0, "fusion_lon": 0.0, "lat": 38.913013, "rental_uris": {"android": "https://dc.lft.to/lastmile_qr_scan", "ios": "https://dc.lft.to/lastmile_qr_scan"}, "fusion_lat": 0.0}, {"type": "electric_scooter", "bike_id": "b8078bf4f7310b2d6359d1edc8e1b0e4", "is_disabled": 0, "name": "b8078bf4f7310b2d6359d1edc8e1b0e4", "lon": -77.00216166666667, "is_reserved": 0, "fusion_lon": 0.0, "lat": 38.900295166666666, "rental_uris": {"android": "https://dc.lft.to/lastmile_qr_scan", "ios": "https://dc.lft.to/lastmile_qr_scan"}, "fusion_lat": 0.0}, {"type": "electric_bike", "bike_id": "24dcd6bee6c34a331d414fcd52f2cf1d", "is_disabled": 0, "name": "24dcd6bee6c34a331d414fcd52f2cf1d", "lon": -77.10212416666667, "is_reserved": 0, "fusion_lon": 0.0, "lat": 38.919952, "rental_uris": {"android": "https://dc.lft.to/lastmile_qr_scan", "ios": "https://dc.lft.to/lastmile_qr_scan"}, "fusion_lat": 0.0}, {"type": "electric_scooter", "bike_id": "903226731fd00c6f01b99119ac60d6e6", "is_disabled": 0, "name": "903226731fd00c6f01b99119ac60d6e6", "lon": -77.04689666666667, "is_reserved": 0, "fusion_lon": 0.0, "lat": 38.8960545, "rental_uris": {"android": "https://dc.lft.to/lastmile_qr_scan", "ios": "https://dc.lft.to/lastmile_qr_scan"}, "fusion_lat": 0.0}, {"type": "electric_bike", "bike_id": "48f46b391273614cb797de9b6ac2d992", "is_disabled": 0, "name": "48f46b391273614cb797de9b6ac2d992", "lon": -76.96091666666666, "is_reserved": 0, "fusion_lon": 0.0, "lat": 38.918586166666664, "rental_uris": {"android": "https://dc.lft.to/lastmile_qr_scan", "ios": "https://dc.lft.to/lastmile_qr_scan"}, "fusion_lat": 0.0}, {"type": "electric_scooter", "bike_id": "3e7857e32be7ba13f4e3668bc342a0f5", "is_disabled": 0, "name": "3e7857e32be7ba13f4e3668bc342a0f5", "lon": -77.00210783333333, "is_reserved": 0, "fusion_lon": 0.0, "lat": 38.89785333333333, "rental_uris": {"android": "https://dc.lft.to/lastmile_qr_scan", "ios": "https://dc.lft.to/lastmile_qr_scan"}, "fusion_lat": 0.0}, {"type": "electric_bike", "bike_id": "dce31734accb85f321b9b9b9295a063a", "is_disabled": 0, "name": "dce31734accb85f321b9b9b9295a063a", "lon": -76.98687466666667, "is_reserved": 0, "fusion_lon": 0.0, "lat": 38.9447365, "rental_uris": {"android": "https://dc.lft.to/lastmile_qr_scan", "ios": "https://dc.lft.to/lastmile_qr_scan"}, "fusion_lat": 0.0}, {"type": "electric_scooter", "bike_id": "57475c2360766a5baac4b946c13e16c1", "is_disabled": 0, "name": "57475c2360766a5baac4b946c13e16c1", "lon": -77.00677816666666, "is_reserved": 0, "fusion_lon": 0.0, "lat": 38.90009166666667, "rental_uris": {"android": "https://dc.lft.to/lastmile_qr_scan", "ios": "https://dc.lft.to/lastmile_qr_scan"}, "fusion_lat": 0.0}, {"type": "electric_scooter", "bike_id": "bd8266de2ad919d70c438fb5041dfb78", "is_disabled": 0, "name": "bd8266de2ad919d70c438fb5041dfb78", "lon": -77.0387165, "is_reserved": 0, "fusion_lon": 0.0, "lat": 38.91254133333333, "rental_uris": {"android": "https://dc.lft.to/lastmile_qr_scan", "ios": "https://dc.lft.to/lastmile_qr_scan"}, "fusion_lat": 0.0}, {"type": "electric_scooter", "bike_id": "1d88be73cbbf0ae4a9a543316455a688", "is_disabled": 0, "name": "1d88be73cbbf0ae4a9a543316455a688", "lon": -77.0354475, "is_reserved": 0, "fusion_lon": 0.0, "lat": 38.91825216666667, "rental_uris": {"android": "https://dc.lft.to/lastmile_qr_scan", "ios": "https://dc.lft.to/lastmile_qr_scan"}, "fusion_lat": 0.0}, {"type": "electric_bike", "bike_id": "122eb409e7294642e4a16dd20f04fbaf", "is_disabled": 0, "name": "122eb409e7294642e4a16dd20f04fbaf", "lon": -77.086222, "is_reserved": 0, "fusion_lon": 0.0, "lat": 38.931278, "rental_uris": {"android": "https://dc.lft.to/lastmile_qr_scan", "ios": "https://dc.lft.to/lastmile_qr_scan"}, "fusion_lat": 0.0}, {"type": "electric_bike", "bike_id": "8e22131e9784de6323f6260436dee61e", "is_disabled": 0, "name": "8e22131e9784de6323f6260436dee61e", "lon": -77.022599, "is_reserved": 0, "fusion_lon": 0.0, "lat": 38.966828, "rental_uris": {"android": "https://dc.lft.to/lastmile_qr_scan", "ios": "https://dc.lft.to/lastmile_qr_scan"}, "fusion_lat": 0.0}, {"type": "electric_scooter", "bike_id": "20b0d972275ae89163563b10c12a528c", "is_disabled": 0, "name": "20b0d972275ae89163563b10c12a528c", "lon": -77.02004233333334, "is_reserved": 0, "fusion_lon": 0.0, "lat": 38.924054, "rental_uris": {"android": "https://dc.lft.to/lastmile_qr_scan", "ios": "https://dc.lft.to/lastmile_qr_scan"}, "fusion_lat": 0.0}, {"type": "electric_scooter", "bike_id": "824b09d27b09eda591f7290244641e4f", "is_disabled": 0, "name": "824b09d27b09eda591f7290244641e4f", "lon": -77.028199, "is_reserved": 0, "fusion_lon": 0.0, "lat": 38.904670833333334, "rental_uris": {"android": "https://dc.lft.to/lastmile_qr_scan", "ios": "https://dc.lft.to/lastmile_qr_scan"}, "fusion_lat": 0.0}, {"type": "electric_scooter", "bike_id": "29a63084213e8f9a213a9b61cff265ac", "is_disabled": 0, "name": "29a63084213e8f9a213a9b61cff265ac", "lon": -77.02369216666666, "is_reserved": 0, "fusion_lon": 0.0, "lat": 38.892204166666666, "rental_uris": {"android": "https://dc.lft.to/lastmile_qr_scan", "ios": "https://dc.lft.to/lastmile_qr_scan"}, "fusion_lat": 0.0}, {"type": "electric_scooter", "bike_id": "b82490d36f212726bef7baeb36ab8976", "is_disabled": 0, "name": "b82490d36f212726bef7baeb36ab8976", "lon": -77.019808, "is_reserved": 0, "fusion_lon": 0.0, "lat": 38.88722283333333, "rental_uris": {"android": "https://dc.lft.to/lastmile_qr_scan", "ios": "https://dc.lft.to/lastmile_qr_scan"}, "fusion_lat": 0.0}, {"type": "electric_scooter", "bike_id": "a172db885ff1134e64a0479200eb0b8c", "is_disabled": 0, "name": "a172db885ff1134e64a0479200eb0b8c", "lon": -77.031866, "is_reserved": 0, "fusion_lon": 0.0, "lat": 38.90205133333333, "rental_uris": {"android": "https://dc.lft.to/lastmile_qr_scan", "ios": "https://dc.lft.to/lastmile_qr_scan"}, "fusion_lat": 0.0}, {"type": "electric_scooter", "bike_id": "752fe894db01aee691c4cce861f945e5", "is_disabled": 0, "name": "752fe894db01aee691c4cce861f945e5", "lon": -77.011012, "is_reserved": 0, "fusion_lon": 0.0, "lat": 38.895538, "rental_uris": {"android": "https://dc.lft.to/lastmile_qr_scan", "ios": "https://dc.lft.to/lastmile_qr_scan"}, "fusion_lat": 0.0}, {"type": "electric_scooter", "bike_id": "99fb7f07b33b5eb872f69796f8fe64ad", "is_disabled": 0, "name": "99fb7f07b33b5eb872f69796f8fe64ad", "lon": -77.02813883333333, "is_reserved": 0, "fusion_lon": 0.0, "lat": 38.917601, "rental_uris": {"android": "https://dc.lft.to/lastmile_qr_scan", "ios": "https://dc.lft.to/lastmile_qr_scan"}, "fusion_lat": 0.0}, {"type": "electric_bike", "bike_id": "ad48284f6e3b92f664bcb203432bfa8f", "is_disabled": 0, "name": "ad48284f6e3b92f664bcb203432bfa8f", "lon": -76.9556495, "is_reserved": 0, "fusion_lon": 0.0, "lat": 38.985049, "rental_uris": {"android": "https://dc.lft.to/lastmile_qr_scan", "ios": "https://dc.lft.to/lastmile_qr_scan"}, "fusion_lat": 0.0}, {"type": "electric_scooter", "bike_id": "e9a614d56693a2fe93b7c0051040d480", "is_disabled": 0, "name": "e9a614d56693a2fe93b7c0051040d480", "lon": -77.062989, "is_reserved": 0, "fusion_lon": 0.0, "lat": 38.90393683333333, "rental_uris": {"android": "https://dc.lft.to/lastmile_qr_scan", "ios": "https://dc.lft.to/lastmile_qr_scan"}, "fusion_lat": 0.0}, {"type": "electric_scooter", "bike_id": "a9c9261d28a620c13395886d6d82f4d8", "is_disabled": 0, "name": "a9c9261d28a620c13395886d6d82f4d8", "lon": -77.03720283333334, "is_reserved": 0, "fusion_lon": 0.0, "lat": 38.928635166666666, "rental_uris": {"android": "https://dc.lft.to/lastmile_qr_scan", "ios": "https://dc.lft.to/lastmile_qr_scan"}, "fusion_lat": 0.0}, {"type": "electric_scooter", "bike_id": "24fc80550546a731d21dbe71c31f8b4f", "is_disabled": 0, "name": "24fc80550546a731d21dbe71c31f8b4f", "lon": -77.04123183333333, "is_reserved": 0, "fusion_lon": 0.0, "lat": 38.917107666666666, "rental_uris": {"android": "https://dc.lft.to/lastmile_qr_scan", "ios": "https://dc.lft.to/lastmile_qr_scan"}, "fusion_lat": 0.0}, {"type": "electric_scooter", "bike_id": "cb8dd38e6aadf37a1b8dd8563fcfc085", "is_disabled": 0, "name": "cb8dd38e6aadf37a1b8dd8563fcfc085", "lon": -77.03977983333333, "is_reserved": 0, "fusion_lon": 0.0, "lat": 38.90273233333333, "rental_uris": {"android": "https://dc.lft.to/lastmile_qr_scan", "ios": "https://dc.lft.to/lastmile_qr_scan"}, "fusion_lat": 0.0}, {"type": "electric_scooter", "bike_id": "791e9322695b43ef2fb0ff5c31c60b12", "is_disabled": 0, "name": "791e9322695b43ef2fb0ff5c31c60b12", "lon": -77.04474383333333, "is_reserved": 0, "fusion_lon": 0.0, "lat": 38.924676833333336, "rental_uris": {"android": "https://dc.lft.to/lastmile_qr_scan", "ios": "https://dc.lft.to/lastmile_qr_scan"}, "fusion_lat": 0.0}, {"type": "electric_scooter", "bike_id": "82e2db210b8736ea14bf561babdd80e0", "is_disabled": 0, "name": "82e2db210b8736ea14bf561babdd80e0", "lon": -77.01280516666667, "is_reserved": 0, "fusion_lon": 0.0, "lat": 38.9565255, "rental_uris": {"android": "https://dc.lft.to/lastmile_qr_scan", "ios": "https://dc.lft.to/lastmile_qr_scan"}, "fusion_lat": 0.0}, {"type": "electric_bike", "bike_id": "87668899a13cace0d5400ea1a25c8b36", "is_disabled": 0, "name": "87668899a13cace0d5400ea1a25c8b36", "lon": -77.01206083333334, "is_reserved": 0, "fusion_lon": 0.0, "lat": 38.950713666666665, "rental_uris": {"android": "https://dc.lft.to/lastmile_qr_scan", "ios": "https://dc.lft.to/lastmile_qr_scan"}, "fusion_lat": 0.0}, {"type": "electric_scooter", "bike_id": "efd378bd7f042c5810d4cee8bd6dd65d", "is_disabled": 0, "name": "efd378bd7f042c5810d4cee8bd6dd65d", "lon": -77.01544783333334, "is_reserved": 0, "fusion_lon": 0.0, "lat": 38.89167, "rental_uris": {"android": "https://dc.lft.to/lastmile_qr_scan", "ios": "https://dc.lft.to/lastmile_qr_scan"}, "fusion_lat": 0.0}, {"type": "electric_scooter", "bike_id": "bbffc38420ba87601924791f4fd5d499", "is_disabled": 0, "name": "bbffc38420ba87601924791f4fd5d499", "lon": -77.03207666666667, "is_reserved": 0, "fusion_lon": 0.0, "lat": 38.916170666666666, "rental_uris": {"android": "https://dc.lft.to/lastmile_qr_scan", "ios": "https://dc.lft.to/lastmile_qr_scan"}, "fusion_lat": 0.0}, {"type": "electric_scooter", "bike_id": "53529152de959b3af5579b423072846f", "is_disabled": 0, "name": "53529152de959b3af5579b423072846f", "lon": -77.02980133333334, "is_reserved": 0, "fusion_lon": 0.0, "lat": 38.94296816666667, "rental_uris": {"android": "https://dc.lft.to/lastmile_qr_scan", "ios": "https://dc.lft.to/lastmile_qr_scan"}, "fusion_lat": 0.0}, {"type": "electric_scooter", "bike_id": "b8c1d5d7023d761c7a50ca93e1abb3a0", "is_disabled": 0, "name": "b8c1d5d7023d761c7a50ca93e1abb3a0", "lon": -77.04480316666667, "is_reserved": 0, "fusion_lon": 0.0, "lat": 38.91116916666667, "rental_uris": {"android": "https://dc.lft.to/lastmile_qr_scan", "ios": "https://dc.lft.to/lastmile_qr_scan"}, "fusion_lat": 0.0}, {"type": "electric_scooter", "bike_id": "dbf2f1e8101e53d8dd6d5e225bb426e0", "is_disabled": 0, "name": "dbf2f1e8101e53d8dd6d5e225bb426e0", "lon": -77.020883, "is_reserved": 0, "fusion_lon": 0.0, "lat": 38.923660166666664, "rental_uris": {"android": "https://dc.lft.to/lastmile_qr_scan", "ios": "https://dc.lft.to/lastmile_qr_scan"}, "fusion_lat": 0.0}, {"type": "electric_scooter", "bike_id": "f2a9a4b1778f28570ad51e7e3ba2751f", "is_disabled": 0, "name": "f2a9a4b1778f28570ad51e7e3ba2751f", "lon": -76.98743866666666, "is_reserved": 0, "fusion_lon": 0.0, "lat": 38.8796365, "rental_uris": {"android": "https://dc.lft.to/lastmile_qr_scan", "ios": "https://dc.lft.to/lastmile_qr_scan"}, "fusion_lat": 0.0}, {"type": "electric_scooter", "bike_id": "52e92475cff362a4858e71750abc5b0f", "is_disabled": 0, "name": "52e92475cff362a4858e71750abc5b0f", "lon": -77.01856083333334, "is_reserved": 0, "fusion_lon": 0.0, "lat": 38.94919, "rental_uris": {"android": "https://dc.lft.to/lastmile_qr_scan", "ios": "https://dc.lft.to/lastmile_qr_scan"}, "fusion_lat": 0.0}, {"type": "electric_scooter", "bike_id": "60e43a576b37aa6c4a2ed35780f5af32", "is_disabled": 0, "name": "60e43a576b37aa6c4a2ed35780f5af32", "lon": -77.02072883333334, "is_reserved": 0, "fusion_lon": 0.0, "lat": 38.9302155, "rental_uris": {"android": "https://dc.lft.to/lastmile_qr_scan", "ios": "https://dc.lft.to/lastmile_qr_scan"}, "fusion_lat": 0.0}, {"type": "electric_scooter", "bike_id": "5d6d721fb13a3246ca7521c590e62e3d", "is_disabled": 0, "name": "5d6d721fb13a3246ca7521c590e62e3d", "lon": -77.03728, "is_reserved": 0, "fusion_lon": 0.0, "lat": 38.9202825, "rental_uris": {"android": "https://dc.lft.to/lastmile_qr_scan", "ios": "https://dc.lft.to/lastmile_qr_scan"}, "fusion_lat": 0.0}, {"type": "electric_bike", "bike_id": "6aa8fa8c7c6efb4743ca02b10ab178fd", "is_disabled": 0, "name": "6aa8fa8c7c6efb4743ca02b10ab178fd", "lon": -77.0038165, "is_reserved": 0, "fusion_lon": 0.0, "lat": 38.836024333333334, "rental_uris": {"android": "https://dc.lft.to/lastmile_qr_scan", "ios": "https://dc.lft.to/lastmile_qr_scan"}, "fusion_lat": 0.0}, {"type": "electric_bike", "bike_id": "10f171d48f6361bcb6b8cf83f1fcf757", "is_disabled": 0, "name": "10f171d48f6361bcb6b8cf83f1fcf757", "lon": -77.05708783333333, "is_reserved": 0, "fusion_lon": 0.0, "lat": 38.905452, "rental_uris": {"android": "https://dc.lft.to/lastmile_qr_scan", "ios": "https://dc.lft.to/lastmile_qr_scan"}, "fusion_lat": 0.0}, {"type": "electric_bike", "bike_id": "b3b719f105bc3e04c25caf089f46d853", "is_disabled": 0, "name": "b3b719f105bc3e04c25caf089f46d853", "lon": -76.96325166666666, "is_reserved": 0, "fusion_lon": 0.0, "lat": 38.93892483333333, "rental_uris": {"android": "https://dc.lft.to/lastmile_qr_scan", "ios": "https://dc.lft.to/lastmile_qr_scan"}, "fusion_lat": 0.0}, {"type": "electric_scooter", "bike_id": "127843aa9d78b064e4d81e2e9c214f08", "is_disabled": 0, "name": "127843aa9d78b064e4d81e2e9c214f08", "lon": -77.021184, "is_reserved": 0, "fusion_lon": 0.0, "lat": 38.921522, "rental_uris": {"android": "https://dc.lft.to/lastmile_qr_scan", "ios": "https://dc.lft.to/lastmile_qr_scan"}, "fusion_lat": 0.0}, {"type": "electric_scooter", "bike_id": "c0a3e4712efb2c058a50ee0d09681d85", "is_disabled": 0, "name": "c0a3e4712efb2c058a50ee0d09681d85", "lon": -77.01907233333333, "is_reserved": 0, "fusion_lon": 0.0, "lat": 38.918743166666665, "rental_uris": {"android": "https://dc.lft.to/lastmile_qr_scan", "ios": "https://dc.lft.to/lastmile_qr_scan"}, "fusion_lat": 0.0}, {"type": "electric_scooter", "bike_id": "10c578269922ae82c94acc2479f7f8e5", "is_disabled": 0, "name": "10c578269922ae82c94acc2479f7f8e5", "lon": -77.0137675, "is_reserved": 0, "fusion_lon": 0.0, "lat": 38.876052666666666, "rental_uris": {"android": "https://dc.lft.to/lastmile_qr_scan", "ios": "https://dc.lft.to/lastmile_qr_scan"}, "fusion_lat": 0.0}, {"type": "electric_scooter", "bike_id": "f50a6edf4a7700d8ff44a5eea0085f66", "is_disabled": 0, "name": "f50a6edf4a7700d8ff44a5eea0085f66", "lon": -76.98701533333333, "is_reserved": 0, "fusion_lon": 0.0, "lat": 38.90013416666667, "rental_uris": {"android": "https://dc.lft.to/lastmile_qr_scan", "ios": "https://dc.lft.to/lastmile_qr_scan"}, "fusion_lat": 0.0}, {"type": "electric_scooter", "bike_id": "40eb355db5c7bd437b8219a8064427c9", "is_disabled": 0, "name": "40eb355db5c7bd437b8219a8064427c9", "lon": -77.03287133333333, "is_reserved": 0, "fusion_lon": 0.0, "lat": 38.90022616666667, "rental_uris": {"android": "https://dc.lft.to/lastmile_qr_scan", "ios": "https://dc.lft.to/lastmile_qr_scan"}, "fusion_lat": 0.0}, {"type": "electric_scooter", "bike_id": "67dec68ece5cc78fe3f9f53646009055", "is_disabled": 0, "name": "67dec68ece5cc78fe3f9f53646009055", "lon": -77.03157816666666, "is_reserved": 0, "fusion_lon": 0.0, "lat": 38.9161425, "rental_uris": {"android": "https://dc.lft.to/lastmile_qr_scan", "ios": "https://dc.lft.to/lastmile_qr_scan"}, "fusion_lat": 0.0}, {"type": "electric_scooter", "bike_id": "3861dd3c28617223f6cc3ab714a779b1", "is_disabled": 0, "name": "3861dd3c28617223f6cc3ab714a779b1", "lon": -77.02821383333334, "is_reserved": 0, "fusion_lon": 0.0, "lat": 38.89962716666667, "rental_uris": {"android": "https://dc.lft.to/lastmile_qr_scan", "ios": "https://dc.lft.to/lastmile_qr_scan"}, "fusion_lat": 0.0}, {"type": "electric_scooter", "bike_id": "d431127696431f4e8715a66c02c6a78d", "is_disabled": 0, "name": "d431127696431f4e8715a66c02c6a78d", "lon": -77.03319, "is_reserved": 0, "fusion_lon": 0.0, "lat": 38.898798166666666, "rental_uris": {"android": "https://dc.lft.to/lastmile_qr_scan", "ios": "https://dc.lft.to/lastmile_qr_scan"}, "fusion_lat": 0.0}, {"type": "electric_scooter", "bike_id": "0285b0f9daa5ec22e15c01048c8a98de", "is_disabled": 0, "name": "0285b0f9daa5ec22e15c01048c8a98de", "lon": -77.03459066666667, "is_reserved": 0, "fusion_lon": 0.0, "lat": 38.921505333333336, "rental_uris": {"android": "https://dc.lft.to/lastmile_qr_scan", "ios": "https://dc.lft.to/lastmile_qr_scan"}, "fusion_lat": 0.0}, {"type": "electric_bike", "bike_id": "1c8b47587973fa958df0173ef7aaba89", "is_disabled": 0, "name": "1c8b47587973fa958df0173ef7aaba89", "lon": -77.0027025, "is_reserved": 0, "fusion_lon": 0.0, "lat": 38.8380905, "rental_uris": {"android": "https://dc.lft.to/lastmile_qr_scan", "ios": "https://dc.lft.to/lastmile_qr_scan"}, "fusion_lat": 0.0}, {"type": "electric_bike", "bike_id": "8b35675383de52e37dc8f103ceabdd5c", "is_disabled": 0, "name": "8b35675383de52e37dc8f103ceabdd5c", "lon": -77.03594666666666, "is_reserved": 0, "fusion_lon": 0.0, "lat": 38.992240333333335, "rental_uris": {"android": "https://dc.lft.to/lastmile_qr_scan", "ios": "https://dc.lft.to/lastmile_qr_scan"}, "fusion_lat": 0.0}, {"type": "electric_scooter", "bike_id": "6aa7f554b82b43dbad465b0cfad51ed8", "is_disabled": 0, "name": "6aa7f554b82b43dbad465b0cfad51ed8", "lon": -77.03263933333334, "is_reserved": 0, "fusion_lon": 0.0, "lat": 38.9352295, "rental_uris": {"android": "https://dc.lft.to/lastmile_qr_scan", "ios": "https://dc.lft.to/lastmile_qr_scan"}, "fusion_lat": 0.0}, {"type": "electric_scooter", "bike_id": "724b9aed527a376d900c9bace41d40c0", "is_disabled": 0, "name": "724b9aed527a376d900c9bace41d40c0", "lon": -77.02807516666667, "is_reserved": 0, "fusion_lon": 0.0, "lat": 38.916773666666664, "rental_uris": {"android": "https://dc.lft.to/lastmile_qr_scan", "ios": "https://dc.lft.to/lastmile_qr_scan"}, "fusion_lat": 0.0}, {"type": "electric_bike", "bike_id": "2063f12728232459f89370c278033353", "is_disabled": 0, "name": "2063f12728232459f89370c278033353", "lon": -77.00719866666667, "is_reserved": 0, "fusion_lon": 0.0, "lat": 38.995047666666665, "rental_uris": {"android": "https://dc.lft.to/lastmile_qr_scan", "ios": "https://dc.lft.to/lastmile_qr_scan"}, "fusion_lat": 0.0}, {"type": "electric_scooter", "bike_id": "ddb81b925b3f06f8f0c6ee3e07e79a8f", "is_disabled": 0, "name": "ddb81b925b3f06f8f0c6ee3e07e79a8f", "lon": -76.9963665, "is_reserved": 0, "fusion_lon": 0.0, "lat": 38.877369333333334, "rental_uris": {"android": "https://dc.lft.to/lastmile_qr_scan", "ios": "https://dc.lft.to/lastmile_qr_scan"}, "fusion_lat": 0.0}, {"type": "electric_scooter", "bike_id": "0fb032ab4d30dbc8caf8c18f1849cae0", "is_disabled": 0, "name": "0fb032ab4d30dbc8caf8c18f1849cae0", "lon": -77.043508, "is_reserved": 0, "fusion_lon": 0.0, "lat": 38.921665, "rental_uris": {"android": "https://dc.lft.to/lastmile_qr_scan", "ios": "https://dc.lft.to/lastmile_qr_scan"}, "fusion_lat": 0.0}, {"type": "electric_scooter", "bike_id": "c2fcc77681b529f935a4491aa8ea9553", "is_disabled": 0, "name": "c2fcc77681b529f935a4491aa8ea9553", "lon": -77.0386535, "is_reserved": 0, "fusion_lon": 0.0, "lat": 38.91708583333333, "rental_uris": {"android": "https://dc.lft.to/lastmile_qr_scan", "ios": "https://dc.lft.to/lastmile_qr_scan"}, "fusion_lat": 0.0}, {"type": "electric_scooter", "bike_id": "d2db814792943d6d84e2b4f7ef702bb8", "is_disabled": 0, "name": "d2db814792943d6d84e2b4f7ef702bb8", "lon": -76.99851016666666, "is_reserved": 0, "fusion_lon": 0.0, "lat": 38.891869166666666, "rental_uris": {"android": "https://dc.lft.to/lastmile_qr_scan", "ios": "https://dc.lft.to/lastmile_qr_scan"}, "fusion_lat": 0.0}, {"type": "electric_scooter", "bike_id": "b549c44105a62780ce16fa9d8517cb74", "is_disabled": 0, "name": "b549c44105a62780ce16fa9d8517cb74", "lon": -77.02837583333333, "is_reserved": 0, "fusion_lon": 0.0, "lat": 38.887367166666664, "rental_uris": {"android": "https://dc.lft.to/lastmile_qr_scan", "ios": "https://dc.lft.to/lastmile_qr_scan"}, "fusion_lat": 0.0}, {"type": "electric_scooter", "bike_id": "ade6259733dc99a0c666e1ad7696d865", "is_disabled": 0, "name": "ade6259733dc99a0c666e1ad7696d865", "lon": -77.039839, "is_reserved": 0, "fusion_lon": 0.0, "lat": 38.89903133333333, "rental_uris": {"android": "https://dc.lft.to/lastmile_qr_scan", "ios": "https://dc.lft.to/lastmile_qr_scan"}, "fusion_lat": 0.0}, {"type": "electric_bike", "bike_id": "f001059213abe4c91ce36c5451e3c9e0", "is_disabled": 0, "name": "f001059213abe4c91ce36c5451e3c9e0", "lon": -77.05274166666666, "is_reserved": 0, "fusion_lon": 0.0, "lat": 38.9408925, "rental_uris": {"android": "https://dc.lft.to/lastmile_qr_scan", "ios": "https://dc.lft.to/lastmile_qr_scan"}, "fusion_lat": 0.0}, {"type": "electric_scooter", "bike_id": "c46fc62e14312886303465b7686aed50", "is_disabled": 0, "name": "c46fc62e14312886303465b7686aed50", "lon": -76.94653783333334, "is_reserved": 0, "fusion_lon": 0.0, "lat": 38.8982945, "rental_uris": {"android": "https://dc.lft.to/lastmile_qr_scan", "ios": "https://dc.lft.to/lastmile_qr_scan"}, "fusion_lat": 0.0}, {"type": "electric_scooter", "bike_id": "0776e1a1f0e126de193c9d4b7a922220", "is_disabled": 0, "name": "0776e1a1f0e126de193c9d4b7a922220", "lon": -77.02429483333333, "is_reserved": 0, "fusion_lon": 0.0, "lat": 38.920929, "rental_uris": {"android": "https://dc.lft.to/lastmile_qr_scan", "ios": "https://dc.lft.to/lastmile_qr_scan"}, "fusion_lat": 0.0}, {"type": "electric_scooter", "bike_id": "a4e3bded416f2b11f5f3207948efd796", "is_disabled": 0, "name": "a4e3bded416f2b11f5f3207948efd796", "lon": -77.053468, "is_reserved": 0, "fusion_lon": 0.0, "lat": 38.90641516666667, "rental_uris": {"android": "https://dc.lft.to/lastmile_qr_scan", "ios": "https://dc.lft.to/lastmile_qr_scan"}, "fusion_lat": 0.0}, {"type": "electric_scooter", "bike_id": "825174d11215a876e981f3e2e1240473", "is_disabled": 0, "name": "825174d11215a876e981f3e2e1240473", "lon": -77.02172866666666, "is_reserved": 0, "fusion_lon": 0.0, "lat": 38.941335333333335, "rental_uris": {"android": "https://dc.lft.to/lastmile_qr_scan", "ios": "https://dc.lft.to/lastmile_qr_scan"}, "fusion_lat": 0.0}, {"type": "electric_scooter", "bike_id": "6168e39b3262ac06f5aff8275cafeca6", "is_disabled": 0, "name": "6168e39b3262ac06f5aff8275cafeca6", "lon": -77.02410116666667, "is_reserved": 0, "fusion_lon": 0.0, "lat": 38.9156895, "rental_uris": {"android": "https://dc.lft.to/lastmile_qr_scan", "ios": "https://dc.lft.to/lastmile_qr_scan"}, "fusion_lat": 0.0}, {"type": "electric_scooter", "bike_id": "38834fca15df309fc1e8c562290f099e", "is_disabled": 0, "name": "38834fca15df309fc1e8c562290f099e", "lon": -77.04681716666667, "is_reserved": 0, "fusion_lon": 0.0, "lat": 38.892217333333335, "rental_uris": {"android": "https://dc.lft.to/lastmile_qr_scan", "ios": "https://dc.lft.to/lastmile_qr_scan"}, "fusion_lat": 0.0}, {"type": "electric_scooter", "bike_id": "2d252107c84fe8a8bc326317ac315a4e", "is_disabled": 0, "name": "2d252107c84fe8a8bc326317ac315a4e", "lon": -77.046975, "is_reserved": 0, "fusion_lon": 0.0, "lat": 38.896049833333336, "rental_uris": {"android": "https://dc.lft.to/lastmile_qr_scan", "ios": "https://dc.lft.to/lastmile_qr_scan"}, "fusion_lat": 0.0}, {"type": "electric_scooter", "bike_id": "d49246a064bc86fbbced7d21b581c1a4", "is_disabled": 0, "name": "d49246a064bc86fbbced7d21b581c1a4", "lon": -77.09111, "is_reserved": 0, "fusion_lon": 0.0, "lat": 38.93102566666666, "rental_uris": {"android": "https://dc.lft.to/lastmile_qr_scan", "ios": "https://dc.lft.to/lastmile_qr_scan"}, "fusion_lat": 0.0}, {"type": "electric_scooter", "bike_id": "10c4410e1803f959fb38040ad6b92aa6", "is_disabled": 0, "name": "10c4410e1803f959fb38040ad6b92aa6", "lon": -77.03979366666667, "is_reserved": 0, "fusion_lon": 0.0, "lat": 38.895363833333334, "rental_uris": {"android": "https://dc.lft.to/lastmile_qr_scan", "ios": "https://dc.lft.to/lastmile_qr_scan"}, "fusion_lat": 0.0}, {"type": "electric_scooter", "bike_id": "2fe45175fbbb3ec8a1f593c8352ce938", "is_disabled": 0, "name": "2fe45175fbbb3ec8a1f593c8352ce938", "lon": -77.0570875, "is_reserved": 0, "fusion_lon": 0.0, "lat": 38.905376, "rental_uris": {"android": "https://dc.lft.to/lastmile_qr_scan", "ios": "https://dc.lft.to/lastmile_qr_scan"}, "fusion_lat": 0.0}, {"type": "electric_bike", "bike_id": "9820b181ac242cd8824fd124ee6efb92", "is_disabled": 0, "name": "9820b181ac242cd8824fd124ee6efb92", "lon": -76.96165683333334, "is_reserved": 0, "fusion_lon": 0.0, "lat": 38.85618383333333, "rental_uris": {"android": "https://dc.lft.to/lastmile_qr_scan", "ios": "https://dc.lft.to/lastmile_qr_scan"}, "fusion_lat": 0.0}, {"type": "electric_scooter", "bike_id": "41760302cb938aa45004dab8390278cf", "is_disabled": 0, "name": "41760302cb938aa45004dab8390278cf", "lon": -76.99756633333334, "is_reserved": 0, "fusion_lon": 0.0, "lat": 38.885029333333335, "rental_uris": {"android": "https://dc.lft.to/lastmile_qr_scan", "ios": "https://dc.lft.to/lastmile_qr_scan"}, "fusion_lat": 0.0}, {"type": "electric_scooter", "bike_id": "6d960abc8cef3685bbd6c9922cffac1d", "is_disabled": 0, "name": "6d960abc8cef3685bbd6c9922cffac1d", "lon": -77.0073935, "is_reserved": 0, "fusion_lon": 0.0, "lat": 38.876514, "rental_uris": {"android": "https://dc.lft.to/lastmile_qr_scan", "ios": "https://dc.lft.to/lastmile_qr_scan"}, "fusion_lat": 0.0}, {"type": "electric_scooter", "bike_id": "3c2aeff8b0c959be886a7b5b68a7a8f1", "is_disabled": 0, "name": "3c2aeff8b0c959be886a7b5b68a7a8f1", "lon": -77.00933133333334, "is_reserved": 0, "fusion_lon": 0.0, "lat": 38.9165835, "rental_uris": {"android": "https://dc.lft.to/lastmile_qr_scan", "ios": "https://dc.lft.to/lastmile_qr_scan"}, "fusion_lat": 0.0}, {"type": "electric_scooter", "bike_id": "9d75b5dc86c3a1ad864f840c7ac6c18b", "is_disabled": 0, "name": "9d75b5dc86c3a1ad864f840c7ac6c18b", "lon": -77.02595416666666, "is_reserved": 0, "fusion_lon": 0.0, "lat": 38.982609, "rental_uris": {"android": "https://dc.lft.to/lastmile_qr_scan", "ios": "https://dc.lft.to/lastmile_qr_scan"}, "fusion_lat": 0.0}, {"type": "electric_scooter", "bike_id": "221fc44b50962b306038b46a8abee441", "is_disabled": 0, "name": "221fc44b50962b306038b46a8abee441", "lon": -77.03856066666667, "is_reserved": 0, "fusion_lon": 0.0, "lat": 38.91662433333333, "rental_uris": {"android": "https://dc.lft.to/lastmile_qr_scan", "ios": "https://dc.lft.to/lastmile_qr_scan"}, "fusion_lat": 0.0}, {"type": "electric_scooter", "bike_id": "489ece2974051a5c363f738243ecf559", "is_disabled": 0, "name": "489ece2974051a5c363f738243ecf559", "lon": -77.03857316666667, "is_reserved": 0, "fusion_lon": 0.0, "lat": 38.91719, "rental_uris": {"android": "https://dc.lft.to/lastmile_qr_scan", "ios": "https://dc.lft.to/lastmile_qr_scan"}, "fusion_lat": 0.0}, {"type": "electric_scooter", "bike_id": "96fbfdf2664d942e0e684ef9c939d78e", "is_disabled": 0, "name": "96fbfdf2664d942e0e684ef9c939d78e", "lon": -77.03300683333333, "is_reserved": 0, "fusion_lon": 0.0, "lat": 38.9096785, "rental_uris": {"android": "https://dc.lft.to/lastmile_qr_scan", "ios": "https://dc.lft.to/lastmile_qr_scan"}, "fusion_lat": 0.0}, {"type": "electric_scooter", "bike_id": "b7a3e22472822557ae56a2f4c946f735", "is_disabled": 0, "name": "b7a3e22472822557ae56a2f4c946f735", "lon": -77.0239, "is_reserved": 0, "fusion_lon": 0.0, "lat": 38.90976533333333, "rental_uris": {"android": "https://dc.lft.to/lastmile_qr_scan", "ios": "https://dc.lft.to/lastmile_qr_scan"}, "fusion_lat": 0.0}, {"type": "electric_scooter", "bike_id": "bfbd2a37ab968ebde075b99063aa6263", "is_disabled": 0, "name": "bfbd2a37ab968ebde075b99063aa6263", "lon": -77.0255225, "is_reserved": 0, "fusion_lon": 0.0, "lat": 38.97004166666667, "rental_uris": {"android": "https://dc.lft.to/lastmile_qr_scan", "ios": "https://dc.lft.to/lastmile_qr_scan"}, "fusion_lat": 0.0}, {"type": "electric_scooter", "bike_id": "c8951c6df40d2430fc5b3f048ddd7319", "is_disabled": 0, "name": "c8951c6df40d2430fc5b3f048ddd7319", "lon": -77.04561216666667, "is_reserved": 0, "fusion_lon": 0.0, "lat": 38.90397466666667, "rental_uris": {"android": "https://dc.lft.to/lastmile_qr_scan", "ios": "https://dc.lft.to/lastmile_qr_scan"}, "fusion_lat": 0.0}, {"type": "electric_scooter", "bike_id": "8ca2c5db5c7263a284d1c5214af90e98", "is_disabled": 0, "name": "8ca2c5db5c7263a284d1c5214af90e98", "lon": -77.03664216666667, "is_reserved": 0, "fusion_lon": 0.0, "lat": 38.923374833333334, "rental_uris": {"android": "https://dc.lft.to/lastmile_qr_scan", "ios": "https://dc.lft.to/lastmile_qr_scan"}, "fusion_lat": 0.0}, {"type": "electric_scooter", "bike_id": "d5cbca128be9856d5b72c2e88d79e27a", "is_disabled": 0, "name": "d5cbca128be9856d5b72c2e88d79e27a", "lon": -77.0213665, "is_reserved": 0, "fusion_lon": 0.0, "lat": 38.92356933333333, "rental_uris": {"android": "https://dc.lft.to/lastmile_qr_scan", "ios": "https://dc.lft.to/lastmile_qr_scan"}, "fusion_lat": 0.0}, {"type": "electric_scooter", "bike_id": "4b42fc40a4d1f289a19e32a81c3b0280", "is_disabled": 0, "name": "4b42fc40a4d1f289a19e32a81c3b0280", "lon": -77.02407316666667, "is_reserved": 0, "fusion_lon": 0.0, "lat": 38.896382, "rental_uris": {"android": "https://dc.lft.to/lastmile_qr_scan", "ios": "https://dc.lft.to/lastmile_qr_scan"}, "fusion_lat": 0.0}, {"type": "electric_scooter", "bike_id": "d87dcfcb871e7fdd114e360d5228b3e2", "is_disabled": 0, "name": "d87dcfcb871e7fdd114e360d5228b3e2", "lon": -77.02204083333334, "is_reserved": 0, "fusion_lon": 0.0, "lat": 38.905370166666664, "rental_uris": {"android": "https://dc.lft.to/lastmile_qr_scan", "ios": "https://dc.lft.to/lastmile_qr_scan"}, "fusion_lat": 0.0}, {"type": "electric_scooter", "bike_id": "9e03439cda344197dd9559ca1e4b5976", "is_disabled": 0, "name": "9e03439cda344197dd9559ca1e4b5976", "lon": -77.0220685, "is_reserved": 0, "fusion_lon": 0.0, "lat": 38.89508583333333, "rental_uris": {"android": "https://dc.lft.to/lastmile_qr_scan", "ios": "https://dc.lft.to/lastmile_qr_scan"}, "fusion_lat": 0.0}, {"type": "electric_scooter", "bike_id": "9d059bc8b4811f9727ee6a64a49bbe5a", "is_disabled": 0, "name": "9d059bc8b4811f9727ee6a64a49bbe5a", "lon": -76.95451283333334, "is_reserved": 0, "fusion_lon": 0.0, "lat": 38.88390866666667, "rental_uris": {"android": "https://dc.lft.to/lastmile_qr_scan", "ios": "https://dc.lft.to/lastmile_qr_scan"}, "fusion_lat": 0.0}, {"type": "electric_scooter", "bike_id": "ae74f01df02766f9ff6c55dca86c1f99", "is_disabled": 0, "name": "ae74f01df02766f9ff6c55dca86c1f99", "lon": -77.0299255, "is_reserved": 0, "fusion_lon": 0.0, "lat": 38.901224666666664, "rental_uris": {"android": "https://dc.lft.to/lastmile_qr_scan", "ios": "https://dc.lft.to/lastmile_qr_scan"}, "fusion_lat": 0.0}, {"type": "electric_scooter", "bike_id": "92a6138294733e33c432708c9e5a82c5", "is_disabled": 0, "name": "92a6138294733e33c432708c9e5a82c5", "lon": -77.03468683333334, "is_reserved": 0, "fusion_lon": 0.0, "lat": 38.90840133333333, "rental_uris": {"android": "https://dc.lft.to/lastmile_qr_scan", "ios": "https://dc.lft.to/lastmile_qr_scan"}, "fusion_lat": 0.0}, {"type": "electric_scooter", "bike_id": "58a8e27b25d30e877496077d9f13d6b6", "is_disabled": 0, "name": "58a8e27b25d30e877496077d9f13d6b6", "lon": -77.02988366666666, "is_reserved": 0, "fusion_lon": 0.0, "lat": 38.91552083333333, "rental_uris": {"android": "https://dc.lft.to/lastmile_qr_scan", "ios": "https://dc.lft.to/lastmile_qr_scan"}, "fusion_lat": 0.0}, {"type": "electric_scooter", "bike_id": "0d472634b371384261863d17f7085313", "is_disabled": 0, "name": "0d472634b371384261863d17f7085313", "lon": -77.0451095, "is_reserved": 0, "fusion_lon": 0.0, "lat": 38.916026, "rental_uris": {"android": "https://dc.lft.to/lastmile_qr_scan", "ios": "https://dc.lft.to/lastmile_qr_scan"}, "fusion_lat": 0.0}, {"type": "electric_scooter", "bike_id": "f61c8c97ad871570f45f4d4ee68516f6", "is_disabled": 0, "name": "f61c8c97ad871570f45f4d4ee68516f6", "lon": -76.99598616666667, "is_reserved": 0, "fusion_lon": 0.0, "lat": 38.884245166666666, "rental_uris": {"android": "https://dc.lft.to/lastmile_qr_scan", "ios": "https://dc.lft.to/lastmile_qr_scan"}, "fusion_lat": 0.0}, {"type": "electric_scooter", "bike_id": "7d7da401e198d52367323fcbd08a079a", "is_disabled": 0, "name": "7d7da401e198d52367323fcbd08a079a", "lon": -77.0399845, "is_reserved": 0, "fusion_lon": 0.0, "lat": 38.89932916666667, "rental_uris": {"android": "https://dc.lft.to/lastmile_qr_scan", "ios": "https://dc.lft.to/lastmile_qr_scan"}, "fusion_lat": 0.0}, {"type": "electric_scooter", "bike_id": "6b76229e243b973bcbcac2a89776c60e", "is_disabled": 0, "name": "6b76229e243b973bcbcac2a89776c60e", "lon": -76.987048, "is_reserved": 0, "fusion_lon": 0.0, "lat": 38.85963383333333, "rental_uris": {"android": "https://dc.lft.to/lastmile_qr_scan", "ios": "https://dc.lft.to/lastmile_qr_scan"}, "fusion_lat": 0.0}, {"type": "electric_scooter", "bike_id": "3c78b8f155236f13b6ce582033791ddb", "is_disabled": 0, "name": "3c78b8f155236f13b6ce582033791ddb", "lon": -77.04625766666666, "is_reserved": 0, "fusion_lon": 0.0, "lat": 38.90972633333333, "rental_uris": {"android": "https://dc.lft.to/lastmile_qr_scan", "ios": "https://dc.lft.to/lastmile_qr_scan"}, "fusion_lat": 0.0}, {"type": "electric_scooter", "bike_id": "7cf7bfe247de8e3557dca38d1560b20a", "is_disabled": 0, "name": "7cf7bfe247de8e3557dca38d1560b20a", "lon": -76.973905, "is_reserved": 0, "fusion_lon": 0.0, "lat": 38.85003016666667, "rental_uris": {"android": "https://dc.lft.to/lastmile_qr_scan", "ios": "https://dc.lft.to/lastmile_qr_scan"}, "fusion_lat": 0.0}, {"type": "electric_scooter", "bike_id": "1444a63a4d3ed28ec7d94d60ad6959fd", "is_disabled": 0, "name": "1444a63a4d3ed28ec7d94d60ad6959fd", "lon": -77.00962833333334, "is_reserved": 0, "fusion_lon": 0.0, "lat": 38.917078333333336, "rental_uris": {"android": "https://dc.lft.to/lastmile_qr_scan", "ios": "https://dc.lft.to/lastmile_qr_scan"}, "fusion_lat": 0.0}, {"type": "electric_scooter", "bike_id": "d9ea3229e6fa66441d0c64564ef15717", "is_disabled": 0, "name": "d9ea3229e6fa66441d0c64564ef15717", "lon": -77.0217735, "is_reserved": 0, "fusion_lon": 0.0, "lat": 38.94291, "rental_uris": {"android": "https://dc.lft.to/lastmile_qr_scan", "ios": "https://dc.lft.to/lastmile_qr_scan"}, "fusion_lat": 0.0}, {"type": "electric_scooter", "bike_id": "7aa9f3dce51d9dffb36d75afaa1d2ee4", "is_disabled": 0, "name": "7aa9f3dce51d9dffb36d75afaa1d2ee4", "lon": -76.9671455, "is_reserved": 0, "fusion_lon": 0.0, "lat": 38.859725, "rental_uris": {"android": "https://dc.lft.to/lastmile_qr_scan", "ios": "https://dc.lft.to/lastmile_qr_scan"}, "fusion_lat": 0.0}, {"type": "electric_scooter", "bike_id": "926d404ea5f02c6afeafb520a9605a05", "is_disabled": 0, "name": "926d404ea5f02c6afeafb520a9605a05", "lon": -77.00663983333334, "is_reserved": 0, "fusion_lon": 0.0, "lat": 38.899972, "rental_uris": {"android": "https://dc.lft.to/lastmile_qr_scan", "ios": "https://dc.lft.to/lastmile_qr_scan"}, "fusion_lat": 0.0}, {"type": "electric_bike", "bike_id": "3b4174bd6468863c83f0aa34d7ee1934", "is_disabled": 0, "name": "3b4174bd6468863c83f0aa34d7ee1934", "lon": -76.9979575, "is_reserved": 0, "fusion_lon": 0.0, "lat": 38.956421666666664, "rental_uris": {"android": "https://dc.lft.to/lastmile_qr_scan", "ios": "https://dc.lft.to/lastmile_qr_scan"}, "fusion_lat": 0.0}, {"type": "electric_scooter", "bike_id": "12e0d208ec778e5a6979f37294309de3", "is_disabled": 0, "name": "12e0d208ec778e5a6979f37294309de3", "lon": -77.03095233333333, "is_reserved": 0, "fusion_lon": 0.0, "lat": 38.89537133333333, "rental_uris": {"android": "https://dc.lft.to/lastmile_qr_scan", "ios": "https://dc.lft.to/lastmile_qr_scan"}, "fusion_lat": 0.0}, {"type": "electric_scooter", "bike_id": "6021d92e842573d18a7e464a758912b6", "is_disabled": 0, "name": "6021d92e842573d18a7e464a758912b6", "lon": -77.02538216666666, "is_reserved": 0, "fusion_lon": 0.0, "lat": 38.92077366666667, "rental_uris": {"android": "https://dc.lft.to/lastmile_qr_scan", "ios": "https://dc.lft.to/lastmile_qr_scan"}, "fusion_lat": 0.0}, {"type": "electric_scooter", "bike_id": "7ae9caade139f8724f2b96f630f7d1ac", "is_disabled": 0, "name": "7ae9caade139f8724f2b96f630f7d1ac", "lon": -77.01948033333333, "is_reserved": 0, "fusion_lon": 0.0, "lat": 38.924181, "rental_uris": {"android": "https://dc.lft.to/lastmile_qr_scan", "ios": "https://dc.lft.to/lastmile_qr_scan"}, "fusion_lat": 0.0}, {"type": "electric_scooter", "bike_id": "b91157693e80d22cc2fa4d76b4a5ee0e", "is_disabled": 0, "name": "b91157693e80d22cc2fa4d76b4a5ee0e", "lon": -77.02778866666667, "is_reserved": 0, "fusion_lon": 0.0, "lat": 38.93416783333333, "rental_uris": {"android": "https://dc.lft.to/lastmile_qr_scan", "ios": "https://dc.lft.to/lastmile_qr_scan"}, "fusion_lat": 0.0}, {"type": "electric_scooter", "bike_id": "5694a07fab5f6f76f0bd6e1e9e900409", "is_disabled": 0, "name": "5694a07fab5f6f76f0bd6e1e9e900409", "lon": -77.02576416666666, "is_reserved": 0, "fusion_lon": 0.0, "lat": 38.9125615, "rental_uris": {"android": "https://dc.lft.to/lastmile_qr_scan", "ios": "https://dc.lft.to/lastmile_qr_scan"}, "fusion_lat": 0.0}, {"type": "electric_scooter", "bike_id": "92bdd5b97a9311b33e1b49585940cb0a", "is_disabled": 0, "name": "92bdd5b97a9311b33e1b49585940cb0a", "lon": -77.03291933333334, "is_reserved": 0, "fusion_lon": 0.0, "lat": 38.9141295, "rental_uris": {"android": "https://dc.lft.to/lastmile_qr_scan", "ios": "https://dc.lft.to/lastmile_qr_scan"}, "fusion_lat": 0.0}, {"type": "electric_scooter", "bike_id": "be75013f2136e58ca1a01ca0ad289d55", "is_disabled": 0, "name": "be75013f2136e58ca1a01ca0ad289d55", "lon": -77.032329, "is_reserved": 0, "fusion_lon": 0.0, "lat": 38.90025833333333, "rental_uris": {"android": "https://dc.lft.to/lastmile_qr_scan", "ios": "https://dc.lft.to/lastmile_qr_scan"}, "fusion_lat": 0.0}, {"type": "electric_scooter", "bike_id": "5e2207bac7e318802551f50b9536ba78", "is_disabled": 0, "name": "5e2207bac7e318802551f50b9536ba78", "lon": -77.03809966666667, "is_reserved": 0, "fusion_lon": 0.0, "lat": 38.93102, "rental_uris": {"android": "https://dc.lft.to/lastmile_qr_scan", "ios": "https://dc.lft.to/lastmile_qr_scan"}, "fusion_lat": 0.0}, {"type": "electric_scooter", "bike_id": "a2f49f9c2e47504b6a44980e48cc084a", "is_disabled": 0, "name": "a2f49f9c2e47504b6a44980e48cc084a", "lon": -77.05521866666666, "is_reserved": 0, "fusion_lon": 0.0, "lat": 38.928440333333334, "rental_uris": {"android": "https://dc.lft.to/lastmile_qr_scan", "ios": "https://dc.lft.to/lastmile_qr_scan"}, "fusion_lat": 0.0}, {"type": "electric_scooter", "bike_id": "7bae02573126c1878a845325c355b864", "is_disabled": 0, "name": "7bae02573126c1878a845325c355b864", "lon": -76.96546466666666, "is_reserved": 0, "fusion_lon": 0.0, "lat": 38.91853233333333, "rental_uris": {"android": "https://dc.lft.to/lastmile_qr_scan", "ios": "https://dc.lft.to/lastmile_qr_scan"}, "fusion_lat": 0.0}, {"type": "electric_scooter", "bike_id": "d46c79b4c51cced9dcd78d0687ddcc7a", "is_disabled": 0, "name": "d46c79b4c51cced9dcd78d0687ddcc7a", "lon": -77.03658616666667, "is_reserved": 0, "fusion_lon": 0.0, "lat": 38.90288983333333, "rental_uris": {"android": "https://dc.lft.to/lastmile_qr_scan", "ios": "https://dc.lft.to/lastmile_qr_scan"}, "fusion_lat": 0.0}, {"type": "electric_scooter", "bike_id": "de7e395485c648d7744d2731b5fd69f2", "is_disabled": 0, "name": "de7e395485c648d7744d2731b5fd69f2", "lon": -77.00159083333334, "is_reserved": 0, "fusion_lon": 0.0, "lat": 38.8213365, "rental_uris": {"android": "https://dc.lft.to/lastmile_qr_scan", "ios": "https://dc.lft.to/lastmile_qr_scan"}, "fusion_lat": 0.0}, {"type": "electric_scooter", "bike_id": "8cc8343d5ecd37f9c55c494c4618c2b2", "is_disabled": 0, "name": "8cc8343d5ecd37f9c55c494c4618c2b2", "lon": -77.00307166666667, "is_reserved": 0, "fusion_lon": 0.0, "lat": 38.89197383333333, "rental_uris": {"android": "https://dc.lft.to/lastmile_qr_scan", "ios": "https://dc.lft.to/lastmile_qr_scan"}, "fusion_lat": 0.0}, {"type": "electric_scooter", "bike_id": "93f260cb301be95d987f7e16204cd101", "is_disabled": 0, "name": "93f260cb301be95d987f7e16204cd101", "lon": -77.032016, "is_reserved": 0, "fusion_lon": 0.0, "lat": 38.91850083333333, "rental_uris": {"android": "https://dc.lft.to/lastmile_qr_scan", "ios": "https://dc.lft.to/lastmile_qr_scan"}, "fusion_lat": 0.0}, {"type": "electric_scooter", "bike_id": "b1624be96fb6e515e112d612aaca29e8", "is_disabled": 0, "name": "b1624be96fb6e515e112d612aaca29e8", "lon": -77.023716, "is_reserved": 0, "fusion_lon": 0.0, "lat": 38.920668166666665, "rental_uris": {"android": "https://dc.lft.to/lastmile_qr_scan", "ios": "https://dc.lft.to/lastmile_qr_scan"}, "fusion_lat": 0.0}, {"type": "electric_bike", "bike_id": "ca11310a4b4459aece31cc40b5a57ea3", "is_disabled": 0, "name": "ca11310a4b4459aece31cc40b5a57ea3", "lon": -77.085737, "is_reserved": 0, "fusion_lon": 0.0, "lat": 38.933191, "rental_uris": {"android": "https://dc.lft.to/lastmile_qr_scan", "ios": "https://dc.lft.to/lastmile_qr_scan"}, "fusion_lat": 0.0}, {"type": "electric_scooter", "bike_id": "7d031cd34c16f2923753e0556bbb0bd6", "is_disabled": 0, "name": "7d031cd34c16f2923753e0556bbb0bd6", "lon": -76.93593983333334, "is_reserved": 0, "fusion_lon": 0.0, "lat": 38.90946983333333, "rental_uris": {"android": "https://dc.lft.to/lastmile_qr_scan", "ios": "https://dc.lft.to/lastmile_qr_scan"}, "fusion_lat": 0.0}, {"type": "electric_scooter", "bike_id": "8f007b5c622542e2bf28677145e191cc", "is_disabled": 0, "name": "8f007b5c622542e2bf28677145e191cc", "lon": -76.9982235, "is_reserved": 0, "fusion_lon": 0.0, "lat": 38.90720183333333, "rental_uris": {"android": "https://dc.lft.to/lastmile_qr_scan", "ios": "https://dc.lft.to/lastmile_qr_scan"}, "fusion_lat": 0.0}, {"type": "electric_scooter", "bike_id": "e830ce7c2b8c628a259b18c1c6a94b2e", "is_disabled": 0, "name": "e830ce7c2b8c628a259b18c1c6a94b2e", "lon": -77.0365015, "is_reserved": 0, "fusion_lon": 0.0, "lat": 38.9173855, "rental_uris": {"android": "https://dc.lft.to/lastmile_qr_scan", "ios": "https://dc.lft.to/lastmile_qr_scan"}, "fusion_lat": 0.0}, {"type": "electric_bike", "bike_id": "1139a6ffcb57f6cd68fcb538d8ba7a6b", "is_disabled": 0, "name": "1139a6ffcb57f6cd68fcb538d8ba7a6b", "lon": -76.95161416666667, "is_reserved": 0, "fusion_lon": 0.0, "lat": 39.084401166666666, "rental_uris": {"android": "https://dc.lft.to/lastmile_qr_scan", "ios": "https://dc.lft.to/lastmile_qr_scan"}, "fusion_lat": 0.0}, {"type": "electric_scooter", "bike_id": "386b81883eb1b4d1ce35f967293ddeef", "is_disabled": 0, "name": "386b81883eb1b4d1ce35f967293ddeef", "lon": -77.06433116666666, "is_reserved": 0, "fusion_lon": 0.0, "lat": 38.93559166666667, "rental_uris": {"android": "https://dc.lft.to/lastmile_qr_scan", "ios": "https://dc.lft.to/lastmile_qr_scan"}, "fusion_lat": 0.0}, {"type": "electric_scooter", "bike_id": "8b2f6a9766148dc063d07b76a737e0cc", "is_disabled": 0, "name": "8b2f6a9766148dc063d07b76a737e0cc", "lon": -77.03085216666666, "is_reserved": 0, "fusion_lon": 0.0, "lat": 38.898038666666665, "rental_uris": {"android": "https://dc.lft.to/lastmile_qr_scan", "ios": "https://dc.lft.to/lastmile_qr_scan"}, "fusion_lat": 0.0}, {"type": "electric_scooter", "bike_id": "c483118ab45b1bd905c18b04a62978dc", "is_disabled": 0, "name": "c483118ab45b1bd905c18b04a62978dc", "lon": -77.03225316666666, "is_reserved": 0, "fusion_lon": 0.0, "lat": 38.925487, "rental_uris": {"android": "https://dc.lft.to/lastmile_qr_scan", "ios": "https://dc.lft.to/lastmile_qr_scan"}, "fusion_lat": 0.0}, {"type": "electric_scooter", "bike_id": "2fc06e4af508efa2dffc3cb172ef7ad8", "is_disabled": 0, "name": "2fc06e4af508efa2dffc3cb172ef7ad8", "lon": -77.00917666666666, "is_reserved": 0, "fusion_lon": 0.0, "lat": 38.895474666666665, "rental_uris": {"android": "https://dc.lft.to/lastmile_qr_scan", "ios": "https://dc.lft.to/lastmile_qr_scan"}, "fusion_lat": 0.0}, {"type": "electric_scooter", "bike_id": "9e2179dda409ae77f52f47f5e58a03ca", "is_disabled": 0, "name": "9e2179dda409ae77f52f47f5e58a03ca", "lon": -77.02198783333333, "is_reserved": 0, "fusion_lon": 0.0, "lat": 38.9112095, "rental_uris": {"android": "https://dc.lft.to/lastmile_qr_scan", "ios": "https://dc.lft.to/lastmile_qr_scan"}, "fusion_lat": 0.0}, {"type": "electric_scooter", "bike_id": "8dccba09e3b24efc75f6a6f524630381", "is_disabled": 0, "name": "8dccba09e3b24efc75f6a6f524630381", "lon": -76.92369466666666, "is_reserved": 0, "fusion_lon": 0.0, "lat": 38.89245233333333, "rental_uris": {"android": "https://dc.lft.to/lastmile_qr_scan", "ios": "https://dc.lft.to/lastmile_qr_scan"}, "fusion_lat": 0.0}, {"type": "electric_scooter", "bike_id": "842f73960049a525a954cf84d1ebb634", "is_disabled": 0, "name": "842f73960049a525a954cf84d1ebb634", "lon": -76.98366083333333, "is_reserved": 0, "fusion_lon": 0.0, "lat": 38.921987666666666, "rental_uris": {"android": "https://dc.lft.to/lastmile_qr_scan", "ios": "https://dc.lft.to/lastmile_qr_scan"}, "fusion_lat": 0.0}, {"type": "electric_scooter", "bike_id": "d478b7a6d7305bf7d6fc0b443e8cc1d2", "is_disabled": 0, "name": "d478b7a6d7305bf7d6fc0b443e8cc1d2", "lon": -77.02200083333334, "is_reserved": 0, "fusion_lon": 0.0, "lat": 38.9164665, "rental_uris": {"android": "https://dc.lft.to/lastmile_qr_scan", "ios": "https://dc.lft.to/lastmile_qr_scan"}, "fusion_lat": 0.0}, {"type": "electric_scooter", "bike_id": "5a277501a2c5ac98e71ff45fb4caedf7", "is_disabled": 0, "name": "5a277501a2c5ac98e71ff45fb4caedf7", "lon": -77.00570683333333, "is_reserved": 0, "fusion_lon": 0.0, "lat": 38.885060333333335, "rental_uris": {"android": "https://dc.lft.to/lastmile_qr_scan", "ios": "https://dc.lft.to/lastmile_qr_scan"}, "fusion_lat": 0.0}, {"type": "electric_scooter", "bike_id": "55cbeade4af8c073939562a7a39ecb7c", "is_disabled": 0, "name": "55cbeade4af8c073939562a7a39ecb7c", "lon": -77.02479366666667, "is_reserved": 0, "fusion_lon": 0.0, "lat": 38.930975333333336, "rental_uris": {"android": "https://dc.lft.to/lastmile_qr_scan", "ios": "https://dc.lft.to/lastmile_qr_scan"}, "fusion_lat": 0.0}, {"type": "electric_scooter", "bike_id": "5821595201b8f109610fcc7969268204", "is_disabled": 0, "name": "5821595201b8f109610fcc7969268204", "lon": -76.98857016666666, "is_reserved": 0, "fusion_lon": 0.0, "lat": 38.90700916666667, "rental_uris": {"android": "https://dc.lft.to/lastmile_qr_scan", "ios": "https://dc.lft.to/lastmile_qr_scan"}, "fusion_lat": 0.0}, {"type": "electric_scooter", "bike_id": "256c1244aa7a05b2e913a2098b64d405", "is_disabled": 0, "name": "256c1244aa7a05b2e913a2098b64d405", "lon": -77.02135883333334, "is_reserved": 0, "fusion_lon": 0.0, "lat": 38.927941, "rental_uris": {"android": "https://dc.lft.to/lastmile_qr_scan", "ios": "https://dc.lft.to/lastmile_qr_scan"}, "fusion_lat": 0.0}, {"type": "electric_scooter", "bike_id": "86253702319cf9a07569cd92530c26f5", "is_disabled": 0, "name": "86253702319cf9a07569cd92530c26f5", "lon": -77.02611383333333, "is_reserved": 0, "fusion_lon": 0.0, "lat": 38.920352333333334, "rental_uris": {"android": "https://dc.lft.to/lastmile_qr_scan", "ios": "https://dc.lft.to/lastmile_qr_scan"}, "fusion_lat": 0.0}, {"type": "electric_bike", "bike_id": "805b714b81228213547d60815eea35d5", "is_disabled": 0, "name": "805b714b81228213547d60815eea35d5", "lon": -77.02007133333333, "is_reserved": 0, "fusion_lon": 0.0, "lat": 39.026239333333336, "rental_uris": {"android": "https://dc.lft.to/lastmile_qr_scan", "ios": "https://dc.lft.to/lastmile_qr_scan"}, "fusion_lat": 0.0}, {"type": "electric_scooter", "bike_id": "c31414f41ffbec206bf558b73b37d9bd", "is_disabled": 0, "name": "c31414f41ffbec206bf558b73b37d9bd", "lon": -77.00823716666666, "is_reserved": 0, "fusion_lon": 0.0, "lat": 38.9156085, "rental_uris": {"android": "https://dc.lft.to/lastmile_qr_scan", "ios": "https://dc.lft.to/lastmile_qr_scan"}, "fusion_lat": 0.0}, {"type": "electric_scooter", "bike_id": "2c3918bbbe0fcbcbeb9988586d475921", "is_disabled": 0, "name": "2c3918bbbe0fcbcbeb9988586d475921", "lon": -77.0269065, "is_reserved": 0, "fusion_lon": 0.0, "lat": 38.930813, "rental_uris": {"android": "https://dc.lft.to/lastmile_qr_scan", "ios": "https://dc.lft.to/lastmile_qr_scan"}, "fusion_lat": 0.0}, {"type": "electric_bike", "bike_id": "d428b5b2759286a055f954a4a25fc1b2", "is_disabled": 0, "name": "d428b5b2759286a055f954a4a25fc1b2", "lon": -77.11285883333333, "is_reserved": 0, "fusion_lon": 0.0, "lat": 38.831044, "rental_uris": {"android": "https://dc.lft.to/lastmile_qr_scan", "ios": "https://dc.lft.to/lastmile_qr_scan"}, "fusion_lat": 0.0}, {"type": "electric_scooter", "bike_id": "8db47df95671f5f82c08d19d0e54199b", "is_disabled": 0, "name": "8db47df95671f5f82c08d19d0e54199b", "lon": -77.01828266666666, "is_reserved": 0, "fusion_lon": 0.0, "lat": 38.92159483333333, "rental_uris": {"android": "https://dc.lft.to/lastmile_qr_scan", "ios": "https://dc.lft.to/lastmile_qr_scan"}, "fusion_lat": 0.0}, {"type": "electric_scooter", "bike_id": "b653402722f091f367185640304d178c", "is_disabled": 0, "name": "b653402722f091f367185640304d178c", "lon": -77.03425233333333, "is_reserved": 0, "fusion_lon": 0.0, "lat": 38.914026166666666, "rental_uris": {"android": "https://dc.lft.to/lastmile_qr_scan", "ios": "https://dc.lft.to/lastmile_qr_scan"}, "fusion_lat": 0.0}, {"type": "electric_scooter", "bike_id": "88a3da532084bbee40d509591018853e", "is_disabled": 0, "name": "88a3da532084bbee40d509591018853e", "lon": -77.0282825, "is_reserved": 0, "fusion_lon": 0.0, "lat": 38.9317655, "rental_uris": {"android": "https://dc.lft.to/lastmile_qr_scan", "ios": "https://dc.lft.to/lastmile_qr_scan"}, "fusion_lat": 0.0}, {"type": "electric_bike", "bike_id": "e35c3fba9e206a4f5bc69434c1950023", "is_disabled": 0, "name": "e35c3fba9e206a4f5bc69434c1950023", "lon": -76.99560916666667, "is_reserved": 0, "fusion_lon": 0.0, "lat": 38.862019833333335, "rental_uris": {"android": "https://dc.lft.to/lastmile_qr_scan", "ios": "https://dc.lft.to/lastmile_qr_scan"}, "fusion_lat": 0.0}, {"type": "electric_scooter", "bike_id": "94f55e22deae8a7f7deb29770a41a124", "is_disabled": 0, "name": "94f55e22deae8a7f7deb29770a41a124", "lon": -77.02309566666666, "is_reserved": 0, "fusion_lon": 0.0, "lat": 38.8947515, "rental_uris": {"android": "https://dc.lft.to/lastmile_qr_scan", "ios": "https://dc.lft.to/lastmile_qr_scan"}, "fusion_lat": 0.0}, {"type": "electric_bike", "bike_id": "cb6edaecab7a352a667527bf68a127e8", "is_disabled": 0, "name": "cb6edaecab7a352a667527bf68a127e8", "lon": -76.96890783333333, "is_reserved": 0, "fusion_lon": 0.0, "lat": 38.86984366666667, "rental_uris": {"android": "https://dc.lft.to/lastmile_qr_scan", "ios": "https://dc.lft.to/lastmile_qr_scan"}, "fusion_lat": 0.0}, {"type": "electric_scooter", "bike_id": "a82249c4e13cfc763bde2c6760e7a8d2", "is_disabled": 0, "name": "a82249c4e13cfc763bde2c6760e7a8d2", "lon": -77.02033566666667, "is_reserved": 0, "fusion_lon": 0.0, "lat": 38.901477666666665, "rental_uris": {"android": "https://dc.lft.to/lastmile_qr_scan", "ios": "https://dc.lft.to/lastmile_qr_scan"}, "fusion_lat": 0.0}, {"type": "electric_scooter", "bike_id": "ba26575338c32c94e44dc8fa681eb608", "is_disabled": 0, "name": "ba26575338c32c94e44dc8fa681eb608", "lon": -77.02194283333333, "is_reserved": 0, "fusion_lon": 0.0, "lat": 38.915101666666665, "rental_uris": {"android": "https://dc.lft.to/lastmile_qr_scan", "ios": "https://dc.lft.to/lastmile_qr_scan"}, "fusion_lat": 0.0}, {"type": "electric_scooter", "bike_id": "b9d0171f67679af0d331bea84cebd7ab", "is_disabled": 0, "name": "b9d0171f67679af0d331bea84cebd7ab", "lon": -77.04003083333333, "is_reserved": 0, "fusion_lon": 0.0, "lat": 38.934262333333336, "rental_uris": {"android": "https://dc.lft.to/lastmile_qr_scan", "ios": "https://dc.lft.to/lastmile_qr_scan"}, "fusion_lat": 0.0}, {"type": "electric_scooter", "bike_id": "5cf1ca6d5a67b23f0b779476a5eb1b35", "is_disabled": 0, "name": "5cf1ca6d5a67b23f0b779476a5eb1b35", "lon": -77.04698766666667, "is_reserved": 0, "fusion_lon": 0.0, "lat": 38.902852, "rental_uris": {"android": "https://dc.lft.to/lastmile_qr_scan", "ios": "https://dc.lft.to/lastmile_qr_scan"}, "fusion_lat": 0.0}, {"type": "electric_scooter", "bike_id": "ad22692058118dda9a52bc5446b5bd9d", "is_disabled": 0, "name": "ad22692058118dda9a52bc5446b5bd9d", "lon": -77.02362116666667, "is_reserved": 0, "fusion_lon": 0.0, "lat": 38.90218683333333, "rental_uris": {"android": "https://dc.lft.to/lastmile_qr_scan", "ios": "https://dc.lft.to/lastmile_qr_scan"}, "fusion_lat": 0.0}, {"type": "electric_scooter", "bike_id": "5bd36fc5db9955b999b000b253f1c5b1", "is_disabled": 0, "name": "5bd36fc5db9955b999b000b253f1c5b1", "lon": -77.042506, "is_reserved": 0, "fusion_lon": 0.0, "lat": 38.91784066666666, "rental_uris": {"android": "https://dc.lft.to/lastmile_qr_scan", "ios": "https://dc.lft.to/lastmile_qr_scan"}, "fusion_lat": 0.0}, {"type": "electric_scooter", "bike_id": "d8be841f7dea2ae5da3c4f18cc1d27be", "is_disabled": 0, "name": "d8be841f7dea2ae5da3c4f18cc1d27be", "lon": -77.01954166666667, "is_reserved": 0, "fusion_lon": 0.0, "lat": 38.923282, "rental_uris": {"android": "https://dc.lft.to/lastmile_qr_scan", "ios": "https://dc.lft.to/lastmile_qr_scan"}, "fusion_lat": 0.0}, {"type": "electric_scooter", "bike_id": "a154fd6ba861fa307d9766e3f1ef7c1d", "is_disabled": 0, "name": "a154fd6ba861fa307d9766e3f1ef7c1d", "lon": -76.99148016666666, "is_reserved": 0, "fusion_lon": 0.0, "lat": 38.873372, "rental_uris": {"android": "https://dc.lft.to/lastmile_qr_scan", "ios": "https://dc.lft.to/lastmile_qr_scan"}, "fusion_lat": 0.0}, {"type": "electric_scooter", "bike_id": "638519186b3aa75a38bff91f4836fbe5", "is_disabled": 0, "name": "638519186b3aa75a38bff91f4836fbe5", "lon": -77.027133, "is_reserved": 0, "fusion_lon": 0.0, "lat": 38.9165775, "rental_uris": {"android": "https://dc.lft.to/lastmile_qr_scan", "ios": "https://dc.lft.to/lastmile_qr_scan"}, "fusion_lat": 0.0}, {"type": "electric_scooter", "bike_id": "5ed80de2947b388069bad64d33f4dcd7", "is_disabled": 0, "name": "5ed80de2947b388069bad64d33f4dcd7", "lon": -77.03186183333334, "is_reserved": 0, "fusion_lon": 0.0, "lat": 38.930628166666665, "rental_uris": {"android": "https://dc.lft.to/lastmile_qr_scan", "ios": "https://dc.lft.to/lastmile_qr_scan"}, "fusion_lat": 0.0}, {"type": "electric_bike", "bike_id": "95c3f7e352602ae304200c64920ecd4e", "is_disabled": 0, "name": "95c3f7e352602ae304200c64920ecd4e", "lon": -77.128839, "is_reserved": 0, "fusion_lon": 0.0, "lat": 38.906051166666664, "rental_uris": {"android": "https://dc.lft.to/lastmile_qr_scan", "ios": "https://dc.lft.to/lastmile_qr_scan"}, "fusion_lat": 0.0}, {"type": "electric_scooter", "bike_id": "9cd6306dce596dea2176fcb827f73eda", "is_disabled": 0, "name": "9cd6306dce596dea2176fcb827f73eda", "lon": -76.99636833333334, "is_reserved": 0, "fusion_lon": 0.0, "lat": 38.877351, "rental_uris": {"android": "https://dc.lft.to/lastmile_qr_scan", "ios": "https://dc.lft.to/lastmile_qr_scan"}, "fusion_lat": 0.0}, {"type": "electric_scooter", "bike_id": "f7dea5c248428f7021c921b011edb26d", "is_disabled": 0, "name": "f7dea5c248428f7021c921b011edb26d", "lon": -77.00937016666667, "is_reserved": 0, "fusion_lon": 0.0, "lat": 38.874486166666664, "rental_uris": {"android": "https://dc.lft.to/lastmile_qr_scan", "ios": "https://dc.lft.to/lastmile_qr_scan"}, "fusion_lat": 0.0}, {"type": "electric_scooter", "bike_id": "075a503e03733ff98ba7e58630cf0ae2", "is_disabled": 0, "name": "075a503e03733ff98ba7e58630cf0ae2", "lon": -76.98614533333334, "is_reserved": 0, "fusion_lon": 0.0, "lat": 38.90729133333333, "rental_uris": {"android": "https://dc.lft.to/lastmile_qr_scan", "ios": "https://dc.lft.to/lastmile_qr_scan"}, "fusion_lat": 0.0}, {"type": "electric_scooter", "bike_id": "cb3e4b6eb22db31b14d6aeba0189dcdc", "is_disabled": 0, "name": "cb3e4b6eb22db31b14d6aeba0189dcdc", "lon": -77.0334925, "is_reserved": 0, "fusion_lon": 0.0, "lat": 38.935141333333334, "rental_uris": {"android": "https://dc.lft.to/lastmile_qr_scan", "ios": "https://dc.lft.to/lastmile_qr_scan"}, "fusion_lat": 0.0}, {"type": "electric_scooter", "bike_id": "d24bea2c196b522ae9b3403a209927d6", "is_disabled": 0, "name": "d24bea2c196b522ae9b3403a209927d6", "lon": -77.03482, "is_reserved": 0, "fusion_lon": 0.0, "lat": 38.924786, "rental_uris": {"android": "https://dc.lft.to/lastmile_qr_scan", "ios": "https://dc.lft.to/lastmile_qr_scan"}, "fusion_lat": 0.0}, {"type": "electric_scooter", "bike_id": "7ba19af4a3c9cf6ddd6d6d799a43bbd9", "is_disabled": 0, "name": "7ba19af4a3c9cf6ddd6d6d799a43bbd9", "lon": -77.05045433333333, "is_reserved": 0, "fusion_lon": 0.0, "lat": 38.923571, "rental_uris": {"android": "https://dc.lft.to/lastmile_qr_scan", "ios": "https://dc.lft.to/lastmile_qr_scan"}, "fusion_lat": 0.0}, {"type": "electric_scooter", "bike_id": "e48481e17bcd688b3b87784420d58884", "is_disabled": 0, "name": "e48481e17bcd688b3b87784420d58884", "lon": -77.0185765, "is_reserved": 0, "fusion_lon": 0.0, "lat": 38.921746666666664, "rental_uris": {"android": "https://dc.lft.to/lastmile_qr_scan", "ios": "https://dc.lft.to/lastmile_qr_scan"}, "fusion_lat": 0.0}, {"type": "electric_scooter", "bike_id": "96805636b2d5989480ddf6ef0e094fa2", "is_disabled": 0, "name": "96805636b2d5989480ddf6ef0e094fa2", "lon": -77.0442945, "is_reserved": 0, "fusion_lon": 0.0, "lat": 38.89606766666667, "rental_uris": {"android": "https://dc.lft.to/lastmile_qr_scan", "ios": "https://dc.lft.to/lastmile_qr_scan"}, "fusion_lat": 0.0}, {"type": "electric_scooter", "bike_id": "887e28f45e1ec767d243b6ac5a5d2732", "is_disabled": 0, "name": "887e28f45e1ec767d243b6ac5a5d2732", "lon": -77.03654383333334, "is_reserved": 0, "fusion_lon": 0.0, "lat": 38.93597616666667, "rental_uris": {"android": "https://dc.lft.to/lastmile_qr_scan", "ios": "https://dc.lft.to/lastmile_qr_scan"}, "fusion_lat": 0.0}, {"type": "electric_scooter", "bike_id": "e35e78a5d55edc8dd6ac70f5a1514076", "is_disabled": 0, "name": "e35e78a5d55edc8dd6ac70f5a1514076", "lon": -77.03205, "is_reserved": 0, "fusion_lon": 0.0, "lat": 38.90710966666666, "rental_uris": {"android": "https://dc.lft.to/lastmile_qr_scan", "ios": "https://dc.lft.to/lastmile_qr_scan"}, "fusion_lat": 0.0}, {"type": "electric_scooter", "bike_id": "475c4f9a116c4a5a9449113776438f28", "is_disabled": 0, "name": "475c4f9a116c4a5a9449113776438f28", "lon": -77.07335766666667, "is_reserved": 0, "fusion_lon": 0.0, "lat": 38.926027500000004, "rental_uris": {"android": "https://dc.lft.to/lastmile_qr_scan", "ios": "https://dc.lft.to/lastmile_qr_scan"}, "fusion_lat": 0.0}, {"type": "electric_scooter", "bike_id": "253196900b9f1d808fe38dc7b0f3c9ab", "is_disabled": 0, "name": "253196900b9f1d808fe38dc7b0f3c9ab", "lon": -77.007701, "is_reserved": 0, "fusion_lon": 0.0, "lat": 38.926732333333334, "rental_uris": {"android": "https://dc.lft.to/lastmile_qr_scan", "ios": "https://dc.lft.to/lastmile_qr_scan"}, "fusion_lat": 0.0}, {"type": "electric_scooter", "bike_id": "2345f5f807c24012b3e10f5453bdede7", "is_disabled": 0, "name": "2345f5f807c24012b3e10f5453bdede7", "lon": -77.0193665, "is_reserved": 0, "fusion_lon": 0.0, "lat": 38.917247, "rental_uris": {"android": "https://dc.lft.to/lastmile_qr_scan", "ios": "https://dc.lft.to/lastmile_qr_scan"}, "fusion_lat": 0.0}, {"type": "electric_scooter", "bike_id": "15ef302ed44a67ed68ea4c37833e318c", "is_disabled": 0, "name": "15ef302ed44a67ed68ea4c37833e318c", "lon": -77.03530266666667, "is_reserved": 0, "fusion_lon": 0.0, "lat": 38.935932, "rental_uris": {"android": "https://dc.lft.to/lastmile_qr_scan", "ios": "https://dc.lft.to/lastmile_qr_scan"}, "fusion_lat": 0.0}, {"type": "electric_scooter", "bike_id": "0ab08ed42b1a9f6acc96004c23ad2345", "is_disabled": 0, "name": "0ab08ed42b1a9f6acc96004c23ad2345", "lon": -77.01564033333334, "is_reserved": 0, "fusion_lon": 0.0, "lat": 38.883105, "rental_uris": {"android": "https://dc.lft.to/lastmile_qr_scan", "ios": "https://dc.lft.to/lastmile_qr_scan"}, "fusion_lat": 0.0}, {"type": "electric_bike", "bike_id": "1c658ac28ff1b1c8de4da56d42ac57a1", "is_disabled": 0, "name": "1c658ac28ff1b1c8de4da56d42ac57a1", "lon": -76.95063616666667, "is_reserved": 0, "fusion_lon": 0.0, "lat": 39.085097, "rental_uris": {"android": "https://dc.lft.to/lastmile_qr_scan", "ios": "https://dc.lft.to/lastmile_qr_scan"}, "fusion_lat": 0.0}, {"type": "electric_scooter", "bike_id": "adab5e86ed6e9ad7d5011b2f9ab42abc", "is_disabled": 0, "name": "adab5e86ed6e9ad7d5011b2f9ab42abc", "lon": -77.01316933333334, "is_reserved": 0, "fusion_lon": 0.0, "lat": 38.89742416666667, "rental_uris": {"android": "https://dc.lft.to/lastmile_qr_scan", "ios": "https://dc.lft.to/lastmile_qr_scan"}, "fusion_lat": 0.0}, {"type": "electric_scooter", "bike_id": "ed12a7abec021a45c7d407e9abbb2723", "is_disabled": 0, "name": "ed12a7abec021a45c7d407e9abbb2723", "lon": -77.02228316666667, "is_reserved": 0, "fusion_lon": 0.0, "lat": 38.91403416666667, "rental_uris": {"android": "https://dc.lft.to/lastmile_qr_scan", "ios": "https://dc.lft.to/lastmile_qr_scan"}, "fusion_lat": 0.0}, {"type": "electric_scooter", "bike_id": "53db1aa314a54c19c5b2dde1e52b0edb", "is_disabled": 0, "name": "53db1aa314a54c19c5b2dde1e52b0edb", "lon": -77.034892, "is_reserved": 0, "fusion_lon": 0.0, "lat": 38.905608, "rental_uris": {"android": "https://dc.lft.to/lastmile_qr_scan", "ios": "https://dc.lft.to/lastmile_qr_scan"}, "fusion_lat": 0.0}, {"type": "electric_scooter", "bike_id": "d2e5b9fdea07d44ce50479519fb4c8d4", "is_disabled": 0, "name": "d2e5b9fdea07d44ce50479519fb4c8d4", "lon": -77.01949216666667, "is_reserved": 0, "fusion_lon": 0.0, "lat": 38.924201333333336, "rental_uris": {"android": "https://dc.lft.to/lastmile_qr_scan", "ios": "https://dc.lft.to/lastmile_qr_scan"}, "fusion_lat": 0.0}, {"type": "electric_scooter", "bike_id": "235ff952533046717d40ba44af59efc9", "is_disabled": 0, "name": "235ff952533046717d40ba44af59efc9", "lon": -76.92945866666666, "is_reserved": 0, "fusion_lon": 0.0, "lat": 38.90345133333334, "rental_uris": {"android": "https://dc.lft.to/lastmile_qr_scan", "ios": "https://dc.lft.to/lastmile_qr_scan"}, "fusion_lat": 0.0}, {"type": "electric_scooter", "bike_id": "d7af68e500137accd9ca96cb3870c653", "is_disabled": 0, "name": "d7af68e500137accd9ca96cb3870c653", "lon": -77.0466045, "is_reserved": 0, "fusion_lon": 0.0, "lat": 38.904270333333336, "rental_uris": {"android": "https://dc.lft.to/lastmile_qr_scan", "ios": "https://dc.lft.to/lastmile_qr_scan"}, "fusion_lat": 0.0}, {"type": "electric_scooter", "bike_id": "e3505c42cfac5f2d256c6afc817b61f2", "is_disabled": 0, "name": "e3505c42cfac5f2d256c6afc817b61f2", "lon": -77.03451433333333, "is_reserved": 0, "fusion_lon": 0.0, "lat": 38.91796816666667, "rental_uris": {"android": "https://dc.lft.to/lastmile_qr_scan", "ios": "https://dc.lft.to/lastmile_qr_scan"}, "fusion_lat": 0.0}, {"type": "electric_bike", "bike_id": "0803e3d302e7f94231cc9a4e2adb2223", "is_disabled": 0, "name": "0803e3d302e7f94231cc9a4e2adb2223", "lon": -76.9609605, "is_reserved": 0, "fusion_lon": 0.0, "lat": 38.9185705, "rental_uris": {"android": "https://dc.lft.to/lastmile_qr_scan", "ios": "https://dc.lft.to/lastmile_qr_scan"}, "fusion_lat": 0.0}, {"type": "electric_scooter", "bike_id": "dc36ef97049f8bcd4fdfb0a4450597b4", "is_disabled": 0, "name": "dc36ef97049f8bcd4fdfb0a4450597b4", "lon": -77.03204, "is_reserved": 0, "fusion_lon": 0.0, "lat": 38.907258166666665, "rental_uris": {"android": "https://dc.lft.to/lastmile_qr_scan", "ios": "https://dc.lft.to/lastmile_qr_scan"}, "fusion_lat": 0.0}, {"type": "electric_bike", "bike_id": "a8d07786cee7c16767ad8745a97fdc66", "is_disabled": 0, "name": "a8d07786cee7c16767ad8745a97fdc66", "lon": -77.07755833333333, "is_reserved": 0, "fusion_lon": 0.0, "lat": 38.84188533333333, "rental_uris": {"android": "https://dc.lft.to/lastmile_qr_scan", "ios": "https://dc.lft.to/lastmile_qr_scan"}, "fusion_lat": 0.0}, {"type": "electric_bike", "bike_id": "3d0586b8098ac71e8dce19394030a7df", "is_disabled": 0, "name": "3d0586b8098ac71e8dce19394030a7df", "lon": -76.91807216666666, "is_reserved": 0, "fusion_lon": 0.0, "lat": 39.00000033333333, "rental_uris": {"android": "https://dc.lft.to/lastmile_qr_scan", "ios": "https://dc.lft.to/lastmile_qr_scan"}, "fusion_lat": 0.0}, {"type": "electric_scooter", "bike_id": "bb97dafb1b2d6c5c2b416c967e739174", "is_disabled": 0, "name": "bb97dafb1b2d6c5c2b416c967e739174", "lon": -77.022846, "is_reserved": 0, "fusion_lon": 0.0, "lat": 38.925614833333334, "rental_uris": {"android": "https://dc.lft.to/lastmile_qr_scan", "ios": "https://dc.lft.to/lastmile_qr_scan"}, "fusion_lat": 0.0}, {"type": "electric_scooter", "bike_id": "2c50394db491ec713a022796f990c72c", "is_disabled": 0, "name": "2c50394db491ec713a022796f990c72c", "lon": -77.034537, "is_reserved": 0, "fusion_lon": 0.0, "lat": 38.90272683333333, "rental_uris": {"android": "https://dc.lft.to/lastmile_qr_scan", "ios": "https://dc.lft.to/lastmile_qr_scan"}, "fusion_lat": 0.0}, {"type": "electric_scooter", "bike_id": "87e7505edd393d5b5f525ff573f76f8d", "is_disabled": 0, "name": "87e7505edd393d5b5f525ff573f76f8d", "lon": -77.0717145, "is_reserved": 0, "fusion_lon": 0.0, "lat": 38.90762633333333, "rental_uris": {"android": "https://dc.lft.to/lastmile_qr_scan", "ios": "https://dc.lft.to/lastmile_qr_scan"}, "fusion_lat": 0.0}, {"type": "electric_scooter", "bike_id": "4f6a3f491ae81ac86efa13bdc59c230d", "is_disabled": 0, "name": "4f6a3f491ae81ac86efa13bdc59c230d", "lon": -77.02565366666667, "is_reserved": 0, "fusion_lon": 0.0, "lat": 38.95395333333333, "rental_uris": {"android": "https://dc.lft.to/lastmile_qr_scan", "ios": "https://dc.lft.to/lastmile_qr_scan"}, "fusion_lat": 0.0}, {"type": "electric_scooter", "bike_id": "4c9279054f067a837608957152ca5f59", "is_disabled": 0, "name": "4c9279054f067a837608957152ca5f59", "lon": -77.03257483333333, "is_reserved": 0, "fusion_lon": 0.0, "lat": 38.89710683333333, "rental_uris": {"android": "https://dc.lft.to/lastmile_qr_scan", "ios": "https://dc.lft.to/lastmile_qr_scan"}, "fusion_lat": 0.0}, {"type": "electric_scooter", "bike_id": "3089721dd471bd07a569d69112574396", "is_disabled": 0, "name": "3089721dd471bd07a569d69112574396", "lon": -77.01336333333333, "is_reserved": 0, "fusion_lon": 0.0, "lat": 38.88124116666667, "rental_uris": {"android": "https://dc.lft.to/lastmile_qr_scan", "ios": "https://dc.lft.to/lastmile_qr_scan"}, "fusion_lat": 0.0}, {"type": "electric_scooter", "bike_id": "32b22f8c2752d558816103ac777b6489", "is_disabled": 0, "name": "32b22f8c2752d558816103ac777b6489", "lon": -77.02092683333333, "is_reserved": 0, "fusion_lon": 0.0, "lat": 38.90732216666667, "rental_uris": {"android": "https://dc.lft.to/lastmile_qr_scan", "ios": "https://dc.lft.to/lastmile_qr_scan"}, "fusion_lat": 0.0},