{"data": {"bikes": [{"is_disabled": 0, "fusion_lon": 0.0, "fusion_lat": 0.0, "lat": 38.89259883333333, "type": "electric_scooter", "lon": -76.941577, "bike_id": "74a007d4440333eb925ecfbdf76faef7", "rental_uris": {"android": "https://dc.lft.to/lastmile_qr_scan", "ios": "https://dc.lft.to/lastmile_qr_scan"}, "name": "74a007d4440333eb925ecfbdf76faef7", "is_reserved": 0}, {"is_disabled": 0, "fusion_lon": 0.0, "fusion_lat": 0.0, "lat": 38.918737166666666, "type": "electric_scooter", "lon": -77.0417755, "bike_id": "23c83a564fe747adaba6d6cad161ccdb", "rental_uris": {"android": "https://dc.lft.to/lastmile_qr_scan", "ios": "https://dc.lft.to/lastmile_qr_scan"}, "name": "23c83a564fe747adaba6d6cad161ccdb", "is_reserved": 0}, {"is_disabled": 0, "fusion_lon": 0.0, "fusion_lat": 0.0, "lat": 38.907926333333336, "type": "electric_scooter", "lon": -77.04329, "bike_id": "a40e8ec58acaf60a73298802e890a7f9", "rental_uris": {"android": "https://dc.lft.to/lastmile_qr_scan", "ios": "https://dc.lft.to/lastmile_qr_scan"}, "name": "a40e8ec58acaf60a73298802e890a7f9", "is_reserved": 0}, {"is_disabled": 0, "fusion_lon": 0.0, "fusion_lat": 0.0, "lat": 38.916883166666665, "type": "electric_scooter", "lon": -77.02878266666667, "bike_id": "0372230ccc37f69e79f5d80e1a203447", "rental_uris": {"android": "https://dc.lft.to/lastmile_qr_scan", "ios": "https://dc.lft.to/lastmile_qr_scan"}, "name": "0372230ccc37f69e79f5d80e1a203447", "is_reserved": 0}, {"is_disabled": 0, "fusion_lon": 0.0, "fusion_lat": 0.0, "lat": 38.909450666666665, "type": "electric_scooter", "lon": -77.01526666666666, "bike_id": "f4be86f10ea7d58cbde5bc5faf75c77d", "rental_uris": {"android": "https://dc.lft.to/lastmile_qr_scan", "ios": "https://dc.lft.to/lastmile_qr_scan"}, "name": "f4be86f10ea7d58cbde5bc5faf75c77d", "is_reserved": 0}, {"is_disabled": 0, "fusion_lon": 0.0, "fusion_lat": 0.0, "lat": 38.886351833333336, "type": "electric_scooter", "lon": -77.02249366666666, "bike_id": "c65b2de9883bb2451f45a6744e66501e", "rental_uris": {"android": "https://dc.lft.to/lastmile_qr_scan", "ios": "https://dc.lft.to/lastmile_qr_scan"}, "name": "c65b2de9883bb2451f45a6744e66501e", "is_reserved": 0}, {"is_disabled": 0, "fusion_lon": 0.0, "fusion_lat": 0.0, "lat": 38.98659133333334, "type": "electric_scooter", "lon": -77.0264805, "bike_id": "c1a1c776e8e97d5e06f452eb8263c9d9", "rental_uris": {"android": "https://dc.lft.to/lastmile_qr_scan", "ios": "https://dc.lft.to/lastmile_qr_scan"}, "name": "c1a1c776e8e97d5e06f452eb8263c9d9", "is_reserved": 0}, {"is_disabled": 0, "fusion_lon": 0.0, "fusion_lat": 0.0, "lat": 38.91465766666666, "type": "electric_scooter", "lon": -77.04387266666667, "bike_id": "92c4a6d1db907550c3e7a4ee804f7669", "rental_uris": {"android": "https://dc.lft.to/lastmile_qr_scan", "ios": "https://dc.lft.to/lastmile_qr_scan"}, "name": "92c4a6d1db907550c3e7a4ee804f7669", "is_reserved": 0}, {"is_disabled": 0, "fusion_lon": 0.0, "fusion_lat": 0.0, "lat": 38.91857066666667, "type": "electric_bike", "lon": -76.9617445, "bike_id": "4990ccbb2aab540fc7b21bcc0f47e124", "rental_uris": {"android": "https://dc.lft.to/lastmile_qr_scan", "ios": "https://dc.lft.to/lastmile_qr_scan"}, "name": "4990ccbb2aab540fc7b21bcc0f47e124", "is_reserved": 0}, {"is_disabled": 0, "fusion_lon": 0.0, "fusion_lat": 0.0, "lat": 38.916914, "type": "electric_scooter", "lon": -77.032183, "bike_id": "3766ecc0e75cbfd9d14338435a30ec38", "rental_uris": {"android": "https://dc.lft.to/lastmile_qr_scan", "ios": "https://dc.lft.to/lastmile_qr_scan"}, "name": "3766ecc0e75cbfd9d14338435a30ec38", "is_reserved": 0}, {"is_disabled": 0, "fusion_lon": 0.0, "fusion_lat": 0.0, "lat": 38.91488783333333, "type": "electric_scooter", "lon": -77.01983566666667, "bike_id": "cd98006aa0d0c8e20a211b123dc2a483", "rental_uris": {"android": "https://dc.lft.to/lastmile_qr_scan", "ios": "https://dc.lft.to/lastmile_qr_scan"}, "name": "cd98006aa0d0c8e20a211b123dc2a483", "is_reserved": 0}, {"is_disabled": 0, "fusion_lon": 0.0, "fusion_lat": 0.0, "lat": 38.932768333333335, "type": "electric_scooter", "lon": -76.99688483333334, "bike_id": "53b771b895e43ce85a4171a71ac2d1c2", "rental_uris": {"android": "https://dc.lft.to/lastmile_qr_scan", "ios": "https://dc.lft.to/lastmile_qr_scan"}, "name": "53b771b895e43ce85a4171a71ac2d1c2", "is_reserved": 0}, {"is_disabled": 0, "fusion_lon": 0.0, "fusion_lat": 0.0, "lat": 38.899652, "type": "electric_scooter", "lon": -77.02670066666667, "bike_id": "e5e11f89ca436d91f0c4e1b6fa2f28ae", "rental_uris": {"android": "https://dc.lft.to/lastmile_qr_scan", "ios": "https://dc.lft.to/lastmile_qr_scan"}, "name": "e5e11f89ca436d91f0c4e1b6fa2f28ae", "is_reserved": 0}, {"is_disabled": 0, "fusion_lon": 0.0, "fusion_lat": 0.0, "lat": 38.899090666666666, "type": "electric_scooter", "lon": -76.93381233333334, "bike_id": "5113e9369b7ca8a7315582e83c34f62f", "rental_uris": {"android": "https://dc.lft.to/lastmile_qr_scan", "ios": "https://dc.lft.to/lastmile_qr_scan"}, "name": "5113e9369b7ca8a7315582e83c34f62f", "is_reserved": 0}, {"is_disabled": 0, "fusion_lon": 0.0, "fusion_lat": 0.0, "lat": 38.88749516666667, "type": "electric_scooter", "lon": -76.99617916666666, "bike_id": "93ca7cc1508b735a1acb2290ed86f748", "rental_uris": {"android": "https://dc.lft.to/lastmile_qr_scan", "ios": "https://dc.lft.to/lastmile_qr_scan"}, "name": "93ca7cc1508b735a1acb2290ed86f748", "is_reserved": 0}, {"is_disabled": 0, "fusion_lon": 0.0, "fusion_lat": 0.0, "lat": 38.8920565, "type": "electric_scooter", "lon": -76.988056, "bike_id": "e9e6977cc0c48f685638aeb21319ba1a", "rental_uris": {"android": "https://dc.lft.to/lastmile_qr_scan", "ios": "https://dc.lft.to/lastmile_qr_scan"}, "name": "e9e6977cc0c48f685638aeb21319ba1a", "is_reserved": 0}, {"is_disabled": 0, "fusion_lon": 0.0, "fusion_lat": 0.0, "lat": 38.8873745, "type": "electric_scooter", "lon": -77.01531233333333, "bike_id": "3bd3f9f0d3f63c79ac30ed2f9ffa3e5f", "rental_uris": {"android": "https://dc.lft.to/lastmile_qr_scan", "ios": "https://dc.lft.to/lastmile_qr_scan"}, "name": "3bd3f9f0d3f63c79ac30ed2f9ffa3e5f", "is_reserved": 0}, {"is_disabled": 0, "fusion_lon": 0.0, "fusion_lat": 0.0, "lat": 38.935546333333335, "type": "electric_scooter", "lon": -77.02967233333334, "bike_id": "fba783dbedb9b6af2c19374701d2b7c5", "rental_uris": {"android": "https://dc.lft.to/lastmile_qr_scan", "ios": "https://dc.lft.to/lastmile_qr_scan"}, "name": "fba783dbedb9b6af2c19374701d2b7c5", "is_reserved": 0}, {"is_disabled": 0, "fusion_lon": 0.0, "fusion_lat": 0.0, "lat": 38.900501, "type": "electric_scooter", "lon": -77.00070566666666, "bike_id": "86363759b5195c4e20ce8e65742bc17c", "rental_uris": {"android": "https://dc.lft.to/lastmile_qr_scan", "ios": "https://dc.lft.to/lastmile_qr_scan"}, "name": "86363759b5195c4e20ce8e65742bc17c", "is_reserved": 0}, {"is_disabled": 0, "fusion_lon": 0.0, "fusion_lat": 0.0, "lat": 38.879989, "type": "electric_scooter", "lon": -76.98529783333333, "bike_id": "320fcdf8387a6da11676db70dc67d098", "rental_uris": {"android": "https://dc.lft.to/lastmile_qr_scan", "ios": "https://dc.lft.to/lastmile_qr_scan"}, "name": "320fcdf8387a6da11676db70dc67d098", "is_reserved": 0}, {"is_disabled": 0, "fusion_lon": 0.0, "fusion_lat": 0.0, "lat": 38.92415483333333, "type": "electric_scooter", "lon": -77.05633933333333, "bike_id": "4b18751894d968286060cc3cffddd538", "rental_uris": {"android": "https://dc.lft.to/lastmile_qr_scan", "ios": "https://dc.lft.to/lastmile_qr_scan"}, "name": "4b18751894d968286060cc3cffddd538", "is_reserved": 0}, {"is_disabled": 0, "fusion_lon": 0.0, "fusion_lat": 0.0, "lat": 38.9690825, "type": "electric_bike", "lon": -77.026195, "bike_id": "833d281030100479d6e3159eddf53fdb", "rental_uris": {"android": "https://dc.lft.to/lastmile_qr_scan", "ios": "https://dc.lft.to/lastmile_qr_scan"}, "name": "833d281030100479d6e3159eddf53fdb", "is_reserved": 0}, {"is_disabled": 0, "fusion_lon": 0.0, "fusion_lat": 0.0, "lat": 38.876684833333336, "type": "electric_scooter", "lon": -76.93189233333334, "bike_id": "ffceb01f15202b1365dbf53a4212213a", "rental_uris": {"android": "https://dc.lft.to/lastmile_qr_scan", "ios": "https://dc.lft.to/lastmile_qr_scan"}, "name": "ffceb01f15202b1365dbf53a4212213a", "is_reserved": 0}, {"is_disabled": 0, "fusion_lon": 0.0, "fusion_lat": 0.0, "lat": 38.878271833333336, "type": "electric_scooter", "lon": -76.96315533333333, "bike_id": "a25ed91ea5886e950d754b824cdb784a", "rental_uris": {"android": "https://dc.lft.to/lastmile_qr_scan", "ios": "https://dc.lft.to/lastmile_qr_scan"}, "name": "a25ed91ea5886e950d754b824cdb784a", "is_reserved": 0}, {"is_disabled": 0, "fusion_lon": 0.0, "fusion_lat": 0.0, "lat": 38.89731966666667, "type": "electric_scooter", "lon": -77.04811483333333, "bike_id": "da7cfcadffb29b351b7b9bfdea961d5b", "rental_uris": {"android": "https://dc.lft.to/lastmile_qr_scan", "ios": "https://dc.lft.to/lastmile_qr_scan"}, "name": "da7cfcadffb29b351b7b9bfdea961d5b", "is_reserved": 0}, {"is_disabled": 0, "fusion_lon": 0.0, "fusion_lat": 0.0, "lat": 38.94997883333333, "type": "electric_bike", "lon": -77.35310616666666, "bike_id": "5e3f46ddfc07eb55ad0eb996e2c3d026", "rental_uris": {"android": "https://dc.lft.to/lastmile_qr_scan", "ios": "https://dc.lft.to/lastmile_qr_scan"}, "name": "5e3f46ddfc07eb55ad0eb996e2c3d026", "is_reserved": 0}, {"is_disabled": 0, "fusion_lon": 0.0, "fusion_lat": 0.0, "lat": 38.899469333333336, "type": "electric_scooter", "lon": -77.02147416666666, "bike_id": "7f7692e3800a19f83792a807e2d6bb11", "rental_uris": {"android": "https://dc.lft.to/lastmile_qr_scan", "ios": "https://dc.lft.to/lastmile_qr_scan"}, "name": "7f7692e3800a19f83792a807e2d6bb11", "is_reserved": 0}, {"is_disabled": 0, "fusion_lon": 0.0, "fusion_lat": 0.0, "lat": 38.91121916666667, "type": "electric_scooter", "lon": -77.03737916666667, "bike_id": "a05b6fe5396d46a8cc80b92e3bf26e5b", "rental_uris": {"android": "https://dc.lft.to/lastmile_qr_scan", "ios": "https://dc.lft.to/lastmile_qr_scan"}, "name": "a05b6fe5396d46a8cc80b92e3bf26e5b", "is_reserved": 0}, {"is_disabled": 0, "fusion_lon": 0.0, "fusion_lat": 0.0, "lat": 38.94569583333333, "type": "electric_bike", "lon": -76.96031983333333, "bike_id": "bea6cc445e9a9d518478f75667f93130", "rental_uris": {"android": "https://dc.lft.to/lastmile_qr_scan", "ios": "https://dc.lft.to/lastmile_qr_scan"}, "name": "bea6cc445e9a9d518478f75667f93130", "is_reserved": 0}, {"is_disabled": 0, "fusion_lon": 0.0, "fusion_lat": 0.0, "lat": 38.99089, "type": "electric_bike", "lon": -76.87496183333333, "bike_id": "ceeff6ef70d447c2da7bcd0fbef10edc", "rental_uris": {"android": "https://dc.lft.to/lastmile_qr_scan", "ios": "https://dc.lft.to/lastmile_qr_scan"}, "name": "ceeff6ef70d447c2da7bcd0fbef10edc", "is_reserved": 0}, {"is_disabled": 0, "fusion_lon": 0.0, "fusion_lat": 0.0, "lat": 38.9056345, "type": "electric_scooter", "lon": -77.00577166666666, "bike_id": "4ab3a147579be52e077fbad2b3c43d34", "rental_uris": {"android": "https://dc.lft.to/lastmile_qr_scan", "ios": "https://dc.lft.to/lastmile_qr_scan"}, "name": "4ab3a147579be52e077fbad2b3c43d34", "is_reserved": 0}, {"is_disabled": 0, "fusion_lon": 0.0, "fusion_lat": 0.0, "lat": 38.990603166666666, "type": "electric_bike", "lon": -77.10029233333333, "bike_id": "dd08d7c6e2ae7b069e12176799f1bf2e", "rental_uris": {"android": "https://dc.lft.to/lastmile_qr_scan", "ios": "https://dc.lft.to/lastmile_qr_scan"}, "name": "dd08d7c6e2ae7b069e12176799f1bf2e", "is_reserved": 0}, {"is_disabled": 0, "fusion_lon": 0.0, "fusion_lat": 0.0, "lat": 38.905333166666665, "type": "electric_scooter", "lon": -77.06526883333333, "bike_id": "2faaa80f8257723cfbb90c54281ab8dd", "rental_uris": {"android": "https://dc.lft.to/lastmile_qr_scan", "ios": "https://dc.lft.to/lastmile_qr_scan"}, "name": "2faaa80f8257723cfbb90c54281ab8dd", "is_reserved": 0}, {"is_disabled": 0, "fusion_lon": 0.0, "fusion_lat": 0.0, "lat": 38.91129033333333, "type": "electric_scooter", "lon": -77.03752916666667, "bike_id": "d0bca8fe1fe84ef470eef5df3bfcfd69", "rental_uris": {"android": "https://dc.lft.to/lastmile_qr_scan", "ios": "https://dc.lft.to/lastmile_qr_scan"}, "name": "d0bca8fe1fe84ef470eef5df3bfcfd69", "is_reserved": 0}, {"is_disabled": 0, "fusion_lon": 0.0, "fusion_lat": 0.0, "lat": 38.955989333333335, "type": "electric_scooter", "lon": -77.0098035, "bike_id": "51e22ab80cbb63ba34e710a690c27843", "rental_uris": {"android": "https://dc.lft.to/lastmile_qr_scan", "ios": "https://dc.lft.to/lastmile_qr_scan"}, "name": "51e22ab80cbb63ba34e710a690c27843", "is_reserved": 0}, {"is_disabled": 0, "fusion_lon": 0.0, "fusion_lat": 0.0, "lat": 38.93303866666667, "type": "electric_scooter", "lon": -77.02139166666667, "bike_id": "b866141915d55c2708f96544964127dc", "rental_uris": {"android": "https://dc.lft.to/lastmile_qr_scan", "ios": "https://dc.lft.to/lastmile_qr_scan"}, "name": "b866141915d55c2708f96544964127dc", "is_reserved": 0}, {"is_disabled": 0, "fusion_lon": 0.0, "fusion_lat": 0.0, "lat": 38.962117, "type": "electric_scooter", "lon": -77.02803716666666, "bike_id": "948b4ee5d1cc2a1b5e7e7a12d25e91da", "rental_uris": {"android": "https://dc.lft.to/lastmile_qr_scan", "ios": "https://dc.lft.to/lastmile_qr_scan"}, "name": "948b4ee5d1cc2a1b5e7e7a12d25e91da", "is_reserved": 0}, {"is_disabled": 0, "fusion_lon": 0.0, "fusion_lat": 0.0, "lat": 38.874905166666665, "type": "electric_bike", "lon": -77.0489625, "bike_id": "0b5630eaab5985fe0829d0623b1148f6", "rental_uris": {"android": "https://dc.lft.to/lastmile_qr_scan", "ios": "https://dc.lft.to/lastmile_qr_scan"}, "name": "0b5630eaab5985fe0829d0623b1148f6", "is_reserved": 0}, {"is_disabled": 0, "fusion_lon": 0.0, "fusion_lat": 0.0, "lat": 38.928255, "type": "electric_scooter", "lon": -77.01407183333333, "bike_id": "3889e37fa38ed101d7e6e160faa52a81", "rental_uris": {"android": "https://dc.lft.to/lastmile_qr_scan", "ios": "https://dc.lft.to/lastmile_qr_scan"}, "name": "3889e37fa38ed101d7e6e160faa52a81", "is_reserved": 0}, {"is_disabled": 0, "fusion_lon": 0.0, "fusion_lat": 0.0, "lat": 38.863574166666666, "type": "electric_scooter", "lon": -76.99070533333334, "bike_id": "dbaf4c166499eb2e103ebeb24f61b31c", "rental_uris": {"android": "https://dc.lft.to/lastmile_qr_scan", "ios": "https://dc.lft.to/lastmile_qr_scan"}, "name": "dbaf4c166499eb2e103ebeb24f61b31c", "is_reserved": 0}, {"is_disabled": 0, "fusion_lon": 0.0, "fusion_lat": 0.0, "lat": 38.89603866666667, "type": "electric_scooter", "lon": -77.02669733333333, "bike_id": "b0298d65de32ae1ad9fdf06a5e7b4edd", "rental_uris": {"android": "https://dc.lft.to/lastmile_qr_scan", "ios": "https://dc.lft.to/lastmile_qr_scan"}, "name": "b0298d65de32ae1ad9fdf06a5e7b4edd", "is_reserved": 0}, {"is_disabled": 0, "fusion_lon": 0.0, "fusion_lat": 0.0, "lat": 38.93364916666667, "type": "electric_scooter", "lon": -77.05741183333333, "bike_id": "b6125a4d3f55500c61ca0772af6c9716", "rental_uris": {"android": "https://dc.lft.to/lastmile_qr_scan", "ios": "https://dc.lft.to/lastmile_qr_scan"}, "name": "b6125a4d3f55500c61ca0772af6c9716", "is_reserved": 0}, {"is_disabled": 0, "fusion_lon": 0.0, "fusion_lat": 0.0, "lat": 38.902740333333334, "type": "electric_scooter", "lon": -77.020145, "bike_id": "4573ff11c4906064f12310ad5fb6d50b", "rental_uris": {"android": "https://dc.lft.to/lastmile_qr_scan", "ios": "https://dc.lft.to/lastmile_qr_scan"}, "name": "4573ff11c4906064f12310ad5fb6d50b", "is_reserved": 0}, {"is_disabled": 0, "fusion_lon": 0.0, "fusion_lat": 0.0, "lat": 39.05266816666666, "type": "electric_bike", "lon": -77.043859, "bike_id": "6656f3b2779262fe81abc6116edfca22", "rental_uris": {"android": "https://dc.lft.to/lastmile_qr_scan", "ios": "https://dc.lft.to/lastmile_qr_scan"}, "name": "6656f3b2779262fe81abc6116edfca22", "is_reserved": 0}, {"is_disabled": 0, "fusion_lon": 0.0, "fusion_lat": 0.0, "lat": 38.9489025, "type": "electric_bike", "lon": -76.96370266666666, "bike_id": "5a0c70ad091d2cadeef16b68d98714ae", "rental_uris": {"android": "https://dc.lft.to/lastmile_qr_scan", "ios": "https://dc.lft.to/lastmile_qr_scan"}, "name": "5a0c70ad091d2cadeef16b68d98714ae", "is_reserved": 0}, {"is_disabled": 0, "fusion_lon": 0.0, "fusion_lat": 0.0, "lat": 38.90969333333334, "type": "electric_scooter", "lon": -77.03948033333333, "bike_id": "bef84850ac8fd9e80a6d39a2e33657e6", "rental_uris": {"android": "https://dc.lft.to/lastmile_qr_scan", "ios": "https://dc.lft.to/lastmile_qr_scan"}, "name": "bef84850ac8fd9e80a6d39a2e33657e6", "is_reserved": 0}, {"is_disabled": 0, "fusion_lon": 0.0, "fusion_lat": 0.0, "lat": 38.917026666666665, "type": "electric_scooter", "lon": -77.001147, "bike_id": "55b4d796564eebc04e5824a46e834ece", "rental_uris": {"android": "https://dc.lft.to/lastmile_qr_scan", "ios": "https://dc.lft.to/lastmile_qr_scan"}, "name": "55b4d796564eebc04e5824a46e834ece", "is_reserved": 0}, {"is_disabled": 0, "fusion_lon": 0.0, "fusion_lat": 0.0, "lat": 38.928096333333336, "type": "electric_scooter", "lon": -77.0234735, "bike_id": "aefac419014d3f593f16918fabaa38d8", "rental_uris": {"android": "https://dc.lft.to/lastmile_qr_scan", "ios": "https://dc.lft.to/lastmile_qr_scan"}, "name": "aefac419014d3f593f16918fabaa38d8", "is_reserved": 0}, {"is_disabled": 0, "fusion_lon": 0.0, "fusion_lat": 0.0, "lat": 38.92229616666667, "type": "electric_scooter", "lon": -77.04345216666667, "bike_id": "5886fad333d564143c9efb99268c23d1", "rental_uris": {"android": "https://dc.lft.to/lastmile_qr_scan", "ios": "https://dc.lft.to/lastmile_qr_scan"}, "name": "5886fad333d564143c9efb99268c23d1", "is_reserved": 0}, {"is_disabled": 0, "fusion_lon": 0.0, "fusion_lat": 0.0, "lat": 38.91816883333333, "type": "electric_scooter", "lon": -77.02586533333333, "bike_id": "82a9d18254b5c4fff02c3c7fa6416911", "rental_uris": {"android": "https://dc.lft.to/lastmile_qr_scan", "ios": "https://dc.lft.to/lastmile_qr_scan"}, "name": "82a9d18254b5c4fff02c3c7fa6416911", "is_reserved": 0}, {"is_disabled": 0, "fusion_lon": 0.0, "fusion_lat": 0.0, "lat": 38.9340745, "type": "electric_scooter", "lon": -77.0196375, "bike_id": "9589406b213567f2d91b64e75b7ba873", "rental_uris": {"android": "https://dc.lft.to/lastmile_qr_scan", "ios": "https://dc.lft.to/lastmile_qr_scan"}, "name": "9589406b213567f2d91b64e75b7ba873", "is_reserved": 0}, {"is_disabled": 0, "fusion_lon": 0.0, "fusion_lat": 0.0, "lat": 38.917001, "type": "electric_bike", "lon": -77.09566916666667, "bike_id": "58a34a543fe891786134df016062416e", "rental_uris": {"android": "https://dc.lft.to/lastmile_qr_scan", "ios": "https://dc.lft.to/lastmile_qr_scan"}, "name": "58a34a543fe891786134df016062416e", "is_reserved": 0}, {"is_disabled": 0, "fusion_lon": 0.0, "fusion_lat": 0.0, "lat": 38.905623, "type": "electric_scooter", "lon": -77.03642916666666, "bike_id": "47dbe4e0fae089930a86a90473e6a1de", "rental_uris": {"android": "https://dc.lft.to/lastmile_qr_scan", "ios": "https://dc.lft.to/lastmile_qr_scan"}, "name": "47dbe4e0fae089930a86a90473e6a1de", "is_reserved": 0}, {"is_disabled": 0, "fusion_lon": 0.0, "fusion_lat": 0.0, "lat": 38.892293333333335, "type": "electric_scooter", "lon": -77.02594516666667, "bike_id": "5c82d323084592a1daf837a4aca69e58", "rental_uris": {"android": "https://dc.lft.to/lastmile_qr_scan", "ios": "https://dc.lft.to/lastmile_qr_scan"}, "name": "5c82d323084592a1daf837a4aca69e58", "is_reserved": 0}, {"is_disabled": 0, "fusion_lon": 0.0, "fusion_lat": 0.0, "lat": 38.937847833333336, "type": "electric_scooter", "lon": -77.0188015, "bike_id": "232477744c6622cc154fa04d80e8ac0b", "rental_uris": {"android": "https://dc.lft.to/lastmile_qr_scan", "ios": "https://dc.lft.to/lastmile_qr_scan"}, "name": "232477744c6622cc154fa04d80e8ac0b", "is_reserved": 0}, {"is_disabled": 0, "fusion_lon": 0.0, "fusion_lat": 0.0, "lat": 38.92248583333333, "type": "electric_scooter", "lon": -77.04141733333333, "bike_id": "6ec19e5f402737a9dbe79c6f8c175f20", "rental_uris": {"android": "https://dc.lft.to/lastmile_qr_scan", "ios": "https://dc.lft.to/lastmile_qr_scan"}, "name": "6ec19e5f402737a9dbe79c6f8c175f20", "is_reserved": 0}, {"is_disabled": 0, "fusion_lon": 0.0, "fusion_lat": 0.0, "lat": 38.9155645, "type": "electric_scooter", "lon": -77.011779, "bike_id": "483ad109da669e930038532703be8daa", "rental_uris": {"android": "https://dc.lft.to/lastmile_qr_scan", "ios": "https://dc.lft.to/lastmile_qr_scan"}, "name": "483ad109da669e930038532703be8daa", "is_reserved": 0}, {"is_disabled": 0, "fusion_lon": 0.0, "fusion_lat": 0.0, "lat": 38.9221655, "type": "electric_scooter", "lon": -77.03293383333333, "bike_id": "34a2a77ab3ce3c469b9432565d0904f8", "rental_uris": {"android": "https://dc.lft.to/lastmile_qr_scan", "ios": "https://dc.lft.to/lastmile_qr_scan"}, "name": "34a2a77ab3ce3c469b9432565d0904f8", "is_reserved": 0}, {"is_disabled": 0, "fusion_lon": 0.0, "fusion_lat": 0.0, "lat": 38.925769333333335, "type": "electric_scooter", "lon": -76.99495883333333, "bike_id": "7c4d7cc8015219042cdd10bcb4ba2571", "rental_uris": {"android": "https://dc.lft.to/lastmile_qr_scan", "ios": "https://dc.lft.to/lastmile_qr_scan"}, "name": "7c4d7cc8015219042cdd10bcb4ba2571", "is_reserved": 0}, {"is_disabled": 0, "fusion_lon": 0.0, "fusion_lat": 0.0, "lat": 38.88745183333333, "type": "electric_scooter", "lon": -77.015376, "bike_id": "ea67b5e14c22acc3d49bc069f1b38cfd", "rental_uris": {"android": "https://dc.lft.to/lastmile_qr_scan", "ios": "https://dc.lft.to/lastmile_qr_scan"}, "name": "ea67b5e14c22acc3d49bc069f1b38cfd", "is_reserved": 0}, {"is_disabled": 0, "fusion_lon": 0.0, "fusion_lat": 0.0, "lat": 38.9231725, "type": "electric_scooter", "lon": -77.042201, "bike_id": "08f2ebfb2e230b8a3ca90dd1f704b551", "rental_uris": {"android": "https://dc.lft.to/lastmile_qr_scan", "ios": "https://dc.lft.to/lastmile_qr_scan"}, "name": "08f2ebfb2e230b8a3ca90dd1f704b551", "is_reserved": 0}, {"is_disabled": 0, "fusion_lon": 0.0, "fusion_lat": 0.0, "lat": 38.89564466666667, "type": "electric_bike", "lon": -77.12740766666667, "bike_id": "c08723a4c5a9adb2393f1fad7fa16015", "rental_uris": {"android": "https://dc.lft.to/lastmile_qr_scan", "ios": "https://dc.lft.to/lastmile_qr_scan"}, "name": "c08723a4c5a9adb2393f1fad7fa16015", "is_reserved": 0}, {"is_disabled": 0, "fusion_lon": 0.0, "fusion_lat": 0.0, "lat": 38.907925, "type": "electric_scooter", "lon": -77.04987933333334, "bike_id": "5a9c307250c86cef4948343cf7d28e98", "rental_uris": {"android": "https://dc.lft.to/lastmile_qr_scan", "ios": "https://dc.lft.to/lastmile_qr_scan"}, "name": "5a9c307250c86cef4948343cf7d28e98", "is_reserved": 0}, {"is_disabled": 0, "fusion_lon": 0.0, "fusion_lat": 0.0, "lat": 38.89637783333333, "type": "electric_scooter", "lon": -77.01193233333333, "bike_id": "e2867ef7f0ad9cc35139bc01519a809a", "rental_uris": {"android": "https://dc.lft.to/lastmile_qr_scan", "ios": "https://dc.lft.to/lastmile_qr_scan"}, "name": "e2867ef7f0ad9cc35139bc01519a809a", "is_reserved": 0}, {"is_disabled": 0, "fusion_lon": 0.0, "fusion_lat": 0.0, "lat": 38.9199675, "type": "electric_scooter", "lon": -77.02512116666666, "bike_id": "11a48bcc0c39e321bee746c400b9049b", "rental_uris": {"android": "https://dc.lft.to/lastmile_qr_scan", "ios": "https://dc.lft.to/lastmile_qr_scan"}, "name": "11a48bcc0c39e321bee746c400b9049b", "is_reserved": 0}, {"is_disabled": 0, "fusion_lon": 0.0, "fusion_lat": 0.0, "lat": 38.88477116666667, "type": "electric_scooter", "lon": -76.92975666666666, "bike_id": "8117e08d215d8a9ba056352cc7f6b820", "rental_uris": {"android": "https://dc.lft.to/lastmile_qr_scan", "ios": "https://dc.lft.to/lastmile_qr_scan"}, "name": "8117e08d215d8a9ba056352cc7f6b820", "is_reserved": 0}, {"is_disabled": 0, "fusion_lon": 0.0, "fusion_lat": 0.0, "lat": 38.919136, "type": "electric_scooter", "lon": -77.0417405, "bike_id": "8ed2b75807c6cbf3f15d59f95e4f89c9", "rental_uris": {"android": "https://dc.lft.to/lastmile_qr_scan", "ios": "https://dc.lft.to/lastmile_qr_scan"}, "name": "8ed2b75807c6cbf3f15d59f95e4f89c9", "is_reserved": 0}, {"is_disabled": 0, "fusion_lon": 0.0, "fusion_lat": 0.0, "lat": 38.893284666666666, "type": "electric_scooter", "lon": -77.01973583333333, "bike_id": "9877346cd2a37d1e83afb244cc65b8e1", "rental_uris": {"android": "https://dc.lft.to/lastmile_qr_scan", "ios": "https://dc.lft.to/lastmile_qr_scan"}, "name": "9877346cd2a37d1e83afb244cc65b8e1", "is_reserved": 0}, {"is_disabled": 0, "fusion_lon": 0.0, "fusion_lat": 0.0, "lat": 38.91622316666667, "type": "electric_scooter", "lon": -77.040214, "bike_id": "280849917caae2a91b563d940ecbce25", "rental_uris": {"android": "https://dc.lft.to/lastmile_qr_scan", "ios": "https://dc.lft.to/lastmile_qr_scan"}, "name": "280849917caae2a91b563d940ecbce25", "is_reserved": 0}, {"is_disabled": 0, "fusion_lon": 0.0, "fusion_lat": 0.0, "lat": 38.900246, "type": "electric_scooter", "lon": -76.99874033333333, "bike_id": "aa70bc8daaf00b3a26f565fd63417180", "rental_uris": {"android": "https://dc.lft.to/lastmile_qr_scan", "ios": "https://dc.lft.to/lastmile_qr_scan"}, "name": "aa70bc8daaf00b3a26f565fd63417180", "is_reserved": 0}, {"is_disabled": 0, "fusion_lon": 0.0, "fusion_lat": 0.0, "lat": 38.902721, "type": "electric_scooter", "lon": -77.05326783333334, "bike_id": "30581930c78d46f5f0f05168967107be", "rental_uris": {"android": "https://dc.lft.to/lastmile_qr_scan", "ios": "https://dc.lft.to/lastmile_qr_scan"}, "name": "30581930c78d46f5f0f05168967107be", "is_reserved": 0}, {"is_disabled": 0, "fusion_lon": 0.0, "fusion_lat": 0.0, "lat": 38.91559866666667, "type": "electric_scooter", "lon": -77.03152166666666, "bike_id": "e6a2a5f49f1c0a2727425580a4149050", "rental_uris": {"android": "https://dc.lft.to/lastmile_qr_scan", "ios": "https://dc.lft.to/lastmile_qr_scan"}, "name": "e6a2a5f49f1c0a2727425580a4149050", "is_reserved": 0}, {"is_disabled": 0, "fusion_lon": 0.0, "fusion_lat": 0.0, "lat": 38.95921233333333, "type": "electric_bike", "lon": -77.03119583333333, "bike_id": "65d4a813789c4e0f52108c489cb5acee", "rental_uris": {"android": "https://dc.lft.to/lastmile_qr_scan", "ios": "https://dc.lft.to/lastmile_qr_scan"}, "name": "65d4a813789c4e0f52108c489cb5acee", "is_reserved": 0}, {"is_disabled": 0, "fusion_lon": 0.0, "fusion_lat": 0.0, "lat": 38.91125916666667, "type": "electric_scooter", "lon": -77.05931366666667, "bike_id": "1b9fdcd7dd12025fbf1efb0ad8a1a00c", "rental_uris": {"android": "https://dc.lft.to/lastmile_qr_scan", "ios": "https://dc.lft.to/lastmile_qr_scan"}, "name": "1b9fdcd7dd12025fbf1efb0ad8a1a00c", "is_reserved": 0}, {"is_disabled": 0, "fusion_lon": 0.0, "fusion_lat": 0.0, "lat": 38.895372, "type": "electric_scooter", "lon": -77.04125516666667, "bike_id": "f7e826aefea001755bbc31de9e54881a", "rental_uris": {"android": "https://dc.lft.to/lastmile_qr_scan", "ios": "https://dc.lft.to/lastmile_qr_scan"}, "name": "f7e826aefea001755bbc31de9e54881a", "is_reserved": 0}, {"is_disabled": 0, "fusion_lon": 0.0, "fusion_lat": 0.0, "lat": 38.898335333333335, "type": "electric_scooter", "lon": -76.94633516666667, "bike_id": "d5d4d8e5d17f1735ef0ef0c99045d13f", "rental_uris": {"android": "https://dc.lft.to/lastmile_qr_scan", "ios": "https://dc.lft.to/lastmile_qr_scan"}, "name": "d5d4d8e5d17f1735ef0ef0c99045d13f", "is_reserved": 0}, {"is_disabled": 0, "fusion_lon": 0.0, "fusion_lat": 0.0, "lat": 38.8960365, "type": "electric_scooter", "lon": -77.00925683333334, "bike_id": "a6593bae38ae8b527dc9474270091302", "rental_uris": {"android": "https://dc.lft.to/lastmile_qr_scan", "ios": "https://dc.lft.to/lastmile_qr_scan"}, "name": "a6593bae38ae8b527dc9474270091302", "is_reserved": 0}, {"is_disabled": 0, "fusion_lon": 0.0, "fusion_lat": 0.0, "lat": 38.925277, "type": "electric_scooter", "lon": -77.044148, "bike_id": "e2ff24d5d528a3eb67cac5972bb3282f", "rental_uris": {"android": "https://dc.lft.to/lastmile_qr_scan", "ios": "https://dc.lft.to/lastmile_qr_scan"}, "name": "e2ff24d5d528a3eb67cac5972bb3282f", "is_reserved": 0}, {"is_disabled": 0, "fusion_lon": 0.0, "fusion_lat": 0.0, "lat": 38.937035333333334, "type": "electric_scooter", "lon": -77.06102816666667, "bike_id": "1ec53ea200f12a947019370a3438ffd9", "rental_uris": {"android": "https://dc.lft.to/lastmile_qr_scan", "ios": "https://dc.lft.to/lastmile_qr_scan"}, "name": "1ec53ea200f12a947019370a3438ffd9", "is_reserved": 0}, {"is_disabled": 0, "fusion_lon": 0.0, "fusion_lat": 0.0, "lat": 38.911866833333335, "type": "electric_scooter", "lon": -77.04155683333333, "bike_id": "c965cb978e3cea3def44c3e5d93baa2a", "rental_uris": {"android": "https://dc.lft.to/lastmile_qr_scan", "ios": "https://dc.lft.to/lastmile_qr_scan"}, "name": "c965cb978e3cea3def44c3e5d93baa2a", "is_reserved": 0}, {"is_disabled": 0, "fusion_lon": 0.0, "fusion_lat": 0.0, "lat": 38.838117833333335, "type": "electric_scooter", "lon": -77.004343, "bike_id": "3d9748425a6b844f51eb5d0c4e027773", "rental_uris": {"android": "https://dc.lft.to/lastmile_qr_scan", "ios": "https://dc.lft.to/lastmile_qr_scan"}, "name": "3d9748425a6b844f51eb5d0c4e027773", "is_reserved": 0}, {"is_disabled": 0, "fusion_lon": 0.0, "fusion_lat": 0.0, "lat": 38.93707066666666, "type": "electric_scooter", "lon": -77.02406366666666, "bike_id": "99807490f43c5b1625b62f4607560973", "rental_uris": {"android": "https://dc.lft.to/lastmile_qr_scan", "ios": "https://dc.lft.to/lastmile_qr_scan"}, "name": "99807490f43c5b1625b62f4607560973", "is_reserved": 0}, {"is_disabled": 0, "fusion_lon": 0.0, "fusion_lat": 0.0, "lat": 38.89717483333333, "type": "electric_scooter", "lon": -77.00796783333334, "bike_id": "465d9f76e5948a3f0d590a760e2c0f8c", "rental_uris": {"android": "https://dc.lft.to/lastmile_qr_scan", "ios": "https://dc.lft.to/lastmile_qr_scan"}, "name": "465d9f76e5948a3f0d590a760e2c0f8c", "is_reserved": 0}, {"is_disabled": 0, "fusion_lon": 0.0, "fusion_lat": 0.0, "lat": 38.89874916666667, "type": "electric_scooter", "lon": -76.93183466666666, "bike_id": "ef50def33ffc1d0ff65f95457e984986", "rental_uris": {"android": "https://dc.lft.to/lastmile_qr_scan", "ios": "https://dc.lft.to/lastmile_qr_scan"}, "name": "ef50def33ffc1d0ff65f95457e984986", "is_reserved": 0}, {"is_disabled": 0, "fusion_lon": 0.0, "fusion_lat": 0.0, "lat": 38.93547516666667, "type": "electric_scooter", "lon": -77.05810783333334, "bike_id": "4f0caec60d7320d196143bc8183a5f88", "rental_uris": {"android": "https://dc.lft.to/lastmile_qr_scan", "ios": "https://dc.lft.to/lastmile_qr_scan"}, "name": "4f0caec60d7320d196143bc8183a5f88", "is_reserved": 0}, {"is_disabled": 0, "fusion_lon": 0.0, "fusion_lat": 0.0, "lat": 38.944906833333334, "type": "electric_bike", "lon": -76.98661666666666, "bike_id": "0c42dd4e2a67dfd5783172f95a2e828e", "rental_uris": {"android": "https://dc.lft.to/lastmile_qr_scan", "ios": "https://dc.lft.to/lastmile_qr_scan"}, "name": "0c42dd4e2a67dfd5783172f95a2e828e", "is_reserved": 0}, {"is_disabled": 0, "fusion_lon": 0.0, "fusion_lat": 0.0, "lat": 38.93256266666667, "type": "electric_scooter", "lon": -77.0327865, "bike_id": "96c726ca11278c4c7074f6e2f86a6ce4", "rental_uris": {"android": "https://dc.lft.to/lastmile_qr_scan", "ios": "https://dc.lft.to/lastmile_qr_scan"}, "name": "96c726ca11278c4c7074f6e2f86a6ce4", "is_reserved": 0}, {"is_disabled": 0, "fusion_lon": 0.0, "fusion_lat": 0.0, "lat": 38.9264135, "type": "electric_scooter", "lon": -77.03870783333333, "bike_id": "bbff0cedab4d47e7bffd65d2d5aa54ad", "rental_uris": {"android": "https://dc.lft.to/lastmile_qr_scan", "ios": "https://dc.lft.to/lastmile_qr_scan"}, "name": "bbff0cedab4d47e7bffd65d2d5aa54ad", "is_reserved": 0}, {"is_disabled": 0, "fusion_lon": 0.0, "fusion_lat": 0.0, "lat": 38.9192845, "type": "electric_scooter", "lon": -77.02511666666666, "bike_id": "800c3b8b3ba6b30ffa8e33878b6cc720", "rental_uris": {"android": "https://dc.lft.to/lastmile_qr_scan", "ios": "https://dc.lft.to/lastmile_qr_scan"}, "name": "800c3b8b3ba6b30ffa8e33878b6cc720", "is_reserved": 0}, {"is_disabled": 0, "fusion_lon": 0.0, "fusion_lat": 0.0, "lat": 38.92426616666667, "type": "electric_scooter", "lon": -77.04482733333333, "bike_id": "9d2ac7b0042ce2e03300c8f2e6c1c2fb", "rental_uris": {"android": "https://dc.lft.to/lastmile_qr_scan", "ios": "https://dc.lft.to/lastmile_qr_scan"}, "name": "9d2ac7b0042ce2e03300c8f2e6c1c2fb", "is_reserved": 0}, {"is_disabled": 0, "fusion_lon": 0.0, "fusion_lat": 0.0, "lat": 38.895812166666666, "type": "electric_scooter", "lon": -77.02308966666666, "bike_id": "01ae96a015199baf8d5076323c952a39", "rental_uris": {"android": "https://dc.lft.to/lastmile_qr_scan", "ios": "https://dc.lft.to/lastmile_qr_scan"}, "name": "01ae96a015199baf8d5076323c952a39", "is_reserved": 0}, {"is_disabled": 0, "fusion_lon": 0.0, "fusion_lat": 0.0, "lat": 38.89492, "type": "electric_scooter", "lon": -77.02285683333334, "bike_id": "7057439088841abc87899b9619e80470", "rental_uris": {"android": "https://dc.lft.to/lastmile_qr_scan", "ios": "https://dc.lft.to/lastmile_qr_scan"}, "name": "7057439088841abc87899b9619e80470", "is_reserved": 0}, {"is_disabled": 0, "fusion_lon": 0.0, "fusion_lat": 0.0, "lat": 38.911711833333335, "type": "electric_scooter", "lon": -77.02694983333333, "bike_id": "9dd4a7c20b58cf9cf3db7bc5b4703f77", "rental_uris": {"android": "https://dc.lft.to/lastmile_qr_scan", "ios": "https://dc.lft.to/lastmile_qr_scan"}, "name": "9dd4a7c20b58cf9cf3db7bc5b4703f77", "is_reserved": 0}, {"is_disabled": 0, "fusion_lon": 0.0, "fusion_lat": 0.0, "lat": 38.9924965, "type": "electric_bike", "lon": -77.04998583333334, "bike_id": "e38d9b468d5aa3b89e058d7c85c057ab", "rental_uris": {"android": "https://dc.lft.to/lastmile_qr_scan", "ios": "https://dc.lft.to/lastmile_qr_scan"}, "name": "e38d9b468d5aa3b89e058d7c85c057ab", "is_reserved": 0}, {"is_disabled": 0, "fusion_lon": 0.0, "fusion_lat": 0.0, "lat": 38.922893333333334, "type": "electric_scooter", "lon": -77.029652, "bike_id": "38ad7bd59deb62acd9291da7c7e13a55", "rental_uris": {"android": "https://dc.lft.to/lastmile_qr_scan", "ios": "https://dc.lft.to/lastmile_qr_scan"}, "name": "38ad7bd59deb62acd9291da7c7e13a55", "is_reserved": 0}, {"is_disabled": 0, "fusion_lon": 0.0, "fusion_lat": 0.0, "lat": 38.931892, "type": "electric_bike", "lon": -77.22935866666667, "bike_id": "53b3a98c098dd472232ae18436412995", "rental_uris": {"android": "https://dc.lft.to/lastmile_qr_scan", "ios": "https://dc.lft.to/lastmile_qr_scan"}, "name": "53b3a98c098dd472232ae18436412995", "is_reserved": 0}, {"is_disabled": 0, "fusion_lon": 0.0, "fusion_lat": 0.0, "lat": 38.9205135, "type": "electric_scooter", "lon": -76.998756, "bike_id": "2b0d066fbbe9b7835e98ec45e5899263", "rental_uris": {"android": "https://dc.lft.to/lastmile_qr_scan", "ios": "https://dc.lft.to/lastmile_qr_scan"}, "name": "2b0d066fbbe9b7835e98ec45e5899263", "is_reserved": 0}, {"is_disabled": 0, "fusion_lon": 0.0, "fusion_lat": 0.0, "lat": 38.91757616666666, "type": "electric_scooter", "lon": -77.0358565, "bike_id": "274ccc5732b2e0afe370283a71d37701", "rental_uris": {"android": "https://dc.lft.to/lastmile_qr_scan", "ios": "https://dc.lft.to/lastmile_qr_scan"}, "name": "274ccc5732b2e0afe370283a71d37701", "is_reserved": 0}, {"is_disabled": 0, "fusion_lon": 0.0, "fusion_lat": 0.0, "lat": 38.86858683333333, "type": "electric_bike", "lon": -76.91656033333334, "bike_id": "20b06976fee1bfe9c8113083f75ebcbf", "rental_uris": {"android": "https://dc.lft.to/lastmile_qr_scan", "ios": "https://dc.lft.to/lastmile_qr_scan"}, "name": "20b06976fee1bfe9c8113083f75ebcbf", "is_reserved": 0}, {"is_disabled": 0, "fusion_lon": 0.0, "fusion_lat": 0.0, "lat": 38.95078316666667, "type": "electric_scooter", "lon": -77.02876366666666, "bike_id": "82d59eca1f052cf9458ae48337fba64c", "rental_uris": {"android": "https://dc.lft.to/lastmile_qr_scan", "ios": "https://dc.lft.to/lastmile_qr_scan"}, "name": "82d59eca1f052cf9458ae48337fba64c", "is_reserved": 0}, {"is_disabled": 0, "fusion_lon": 0.0, "fusion_lat": 0.0, "lat": 38.87754183333333, "type": "electric_bike", "lon": -76.9799475, "bike_id": "82f46c2a168f3a3d88794640e6e39e44", "rental_uris": {"android": "https://dc.lft.to/lastmile_qr_scan", "ios": "https://dc.lft.to/lastmile_qr_scan"}, "name": "82f46c2a168f3a3d88794640e6e39e44", "is_reserved": 0}, {"is_disabled": 0, "fusion_lon": 0.0, "fusion_lat": 0.0, "lat": 38.89525416666667, "type": "electric_scooter", "lon": -77.04851083333334, "bike_id": "810d2aeb72254edb90c6593f874be02e", "rental_uris": {"android": "https://dc.lft.to/lastmile_qr_scan", "ios": "https://dc.lft.to/lastmile_qr_scan"}, "name": "810d2aeb72254edb90c6593f874be02e", "is_reserved": 0}, {"is_disabled": 0, "fusion_lon": 0.0, "fusion_lat": 0.0, "lat": 38.939632833333334, "type": "electric_bike", "lon": -77.36090333333334, "bike_id": "a6efce19d07c13e1dbfad7366b577cde", "rental_uris": {"android": "https://dc.lft.to/lastmile_qr_scan", "ios": "https://dc.lft.to/lastmile_qr_scan"}, "name": "a6efce19d07c13e1dbfad7366b577cde", "is_reserved": 0}, {"is_disabled": 0, "fusion_lon": 0.0, "fusion_lat": 0.0, "lat": 38.9035355, "type": "electric_scooter", "lon": -77.03929083333334, "bike_id": "24c6b60f159cef28bea691443d2155c3", "rental_uris": {"android": "https://dc.lft.to/lastmile_qr_scan", "ios": "https://dc.lft.to/lastmile_qr_scan"}, "name": "24c6b60f159cef28bea691443d2155c3", "is_reserved": 0}, {"is_disabled": 0, "fusion_lon": 0.0, "fusion_lat": 0.0, "lat": 38.92970916666667, "type": "electric_scooter", "lon": -77.027989, "bike_id": "729d67a419cbe6acb6c69ffb29c8c256", "rental_uris": {"android": "https://dc.lft.to/lastmile_qr_scan", "ios": "https://dc.lft.to/lastmile_qr_scan"}, "name": "729d67a419cbe6acb6c69ffb29c8c256", "is_reserved": 0}, {"is_disabled": 0, "fusion_lon": 0.0, "fusion_lat": 0.0, "lat": 38.924641666666666, "type": "electric_scooter", "lon": -77.078649, "bike_id": "f65ad43f43e0d7b2f6282a9740a09412", "rental_uris": {"android": "https://dc.lft.to/lastmile_qr_scan", "ios": "https://dc.lft.to/lastmile_qr_scan"}, "name": "f65ad43f43e0d7b2f6282a9740a09412", "is_reserved": 0}, {"is_disabled": 0, "fusion_lon": 0.0, "fusion_lat": 0.0, "lat": 38.909491333333335, "type": "electric_scooter", "lon": -77.048735, "bike_id": "4a32f5a561f9eff482bfa89c13065b72", "rental_uris": {"android": "https://dc.lft.to/lastmile_qr_scan", "ios": "https://dc.lft.to/lastmile_qr_scan"}, "name": "4a32f5a561f9eff482bfa89c13065b72", "is_reserved": 0}, {"is_disabled": 0, "fusion_lon": 0.0, "fusion_lat": 0.0, "lat": 38.930476666666664, "type": "electric_scooter", "lon": -77.03228033333333, "bike_id": "22abe8ebb495d6b499eb48a4cbd20bf2", "rental_uris": {"android": "https://dc.lft.to/lastmile_qr_scan", "ios": "https://dc.lft.to/lastmile_qr_scan"}, "name": "22abe8ebb495d6b499eb48a4cbd20bf2", "is_reserved": 0}, {"is_disabled": 0, "fusion_lon": 0.0, "fusion_lat": 0.0, "lat": 38.91455116666667, "type": "electric_scooter", "lon": -76.98446216666666, "bike_id": "f43812e1cfda1ea1d8a584b24bf7343c", "rental_uris": {"android": "https://dc.lft.to/lastmile_qr_scan", "ios": "https://dc.lft.to/lastmile_qr_scan"}, "name": "f43812e1cfda1ea1d8a584b24bf7343c", "is_reserved": 0}, {"is_disabled": 0, "fusion_lon": 0.0, "fusion_lat": 0.0, "lat": 38.92110233333333, "type": "electric_scooter", "lon": -77.01767066666666, "bike_id": "9a1d652e7f4a95e0b2f9127c72ecc554", "rental_uris": {"android": "https://dc.lft.to/lastmile_qr_scan", "ios": "https://dc.lft.to/lastmile_qr_scan"}, "name": "9a1d652e7f4a95e0b2f9127c72ecc554", "is_reserved": 0}, {"is_disabled": 0, "fusion_lon": 0.0, "fusion_lat": 0.0, "lat": 38.925765, "type": "electric_scooter", "lon": -77.08059666666666, "bike_id": "022fe34e36a83fb3008aed2ecd7700f4", "rental_uris": {"android": "https://dc.lft.to/lastmile_qr_scan", "ios": "https://dc.lft.to/lastmile_qr_scan"}, "name": "022fe34e36a83fb3008aed2ecd7700f4", "is_reserved": 0}, {"is_disabled": 0, "fusion_lon": 0.0, "fusion_lat": 0.0, "lat": 38.8891405, "type": "electric_scooter", "lon": -76.98006133333334, "bike_id": "979e43b4b677b488cdebb7280ade376b", "rental_uris": {"android": "https://dc.lft.to/lastmile_qr_scan", "ios": "https://dc.lft.to/lastmile_qr_scan"}, "name": "979e43b4b677b488cdebb7280ade376b", "is_reserved": 0}, {"is_disabled": 0, "fusion_lon": 0.0, "fusion_lat": 0.0, "lat": 38.9171055, "type": "electric_scooter", "lon": -77.02617083333334, "bike_id": "da109bcc4dd49552e948040c17fb4a31", "rental_uris": {"android": "https://dc.lft.to/lastmile_qr_scan", "ios": "https://dc.lft.to/lastmile_qr_scan"}, "name": "da109bcc4dd49552e948040c17fb4a31", "is_reserved": 0}, {"is_disabled": 0, "fusion_lon": 0.0, "fusion_lat": 0.0, "lat": 38.92435066666667, "type": "electric_bike", "lon": -76.907586, "bike_id": "e08ae00799f27b76673fb9fb92993732", "rental_uris": {"android": "https://dc.lft.to/lastmile_qr_scan", "ios": "https://dc.lft.to/lastmile_qr_scan"}, "name": "e08ae00799f27b76673fb9fb92993732", "is_reserved": 0}, {"is_disabled": 0, "fusion_lon": 0.0, "fusion_lat": 0.0, "lat": 38.9082545, "type": "electric_scooter", "lon": -77.00157483333334, "bike_id": "7e2750941d30cc444f20262b4f6de61d", "rental_uris": {"android": "https://dc.lft.to/lastmile_qr_scan", "ios": "https://dc.lft.to/lastmile_qr_scan"}, "name": "7e2750941d30cc444f20262b4f6de61d", "is_reserved": 0}, {"is_disabled": 0, "fusion_lon": 0.0, "fusion_lat": 0.0, "lat": 38.907060333333334, "type": "electric_scooter", "lon": -77.06312083333333, "bike_id": "c513e5b01fad533fbd981b8af716bc22", "rental_uris": {"android": "https://dc.lft.to/lastmile_qr_scan", "ios": "https://dc.lft.to/lastmile_qr_scan"}, "name": "c513e5b01fad533fbd981b8af716bc22", "is_reserved": 0}, {"is_disabled": 0, "fusion_lon": 0.0, "fusion_lat": 0.0, "lat": 38.91682933333333, "type": "electric_scooter", "lon": -77.04141133333333, "bike_id": "5af8e52ba2f17c88f9eb866a829624e3", "rental_uris": {"android": "https://dc.lft.to/lastmile_qr_scan", "ios": "https://dc.lft.to/lastmile_qr_scan"}, "name": "5af8e52ba2f17c88f9eb866a829624e3", "is_reserved": 0}, {"is_disabled": 0, "fusion_lon": 0.0, "fusion_lat": 0.0, "lat": 38.919714166666665, "type": "electric_scooter", "lon": -77.04159383333334, "bike_id": "2f0e97f044ec767fa5e1263c899937ce", "rental_uris": {"android": "https://dc.lft.to/lastmile_qr_scan", "ios": "https://dc.lft.to/lastmile_qr_scan"}, "name": "2f0e97f044ec767fa5e1263c899937ce", "is_reserved": 0}, {"is_disabled": 0, "fusion_lon": 0.0, "fusion_lat": 0.0, "lat": 38.91966933333333, "type": "electric_scooter", "lon": -77.04176383333333, "bike_id": "2fded278ed2844ef954d61c94db74adc", "rental_uris": {"android": "https://dc.lft.to/lastmile_qr_scan", "ios": "https://dc.lft.to/lastmile_qr_scan"}, "name": "2fded278ed2844ef954d61c94db74adc", "is_reserved": 0}, {"is_disabled": 0, "fusion_lon": 0.0, "fusion_lat": 0.0, "lat": 38.95611483333333, "type": "electric_scooter", "lon": -77.0275775, "bike_id": "9ca9e4b49aac827581431b94c488ae96", "rental_uris": {"android": "https://dc.lft.to/lastmile_qr_scan", "ios": "https://dc.lft.to/lastmile_qr_scan"}, "name": "9ca9e4b49aac827581431b94c488ae96", "is_reserved": 0}, {"is_disabled": 0, "fusion_lon": 0.0, "fusion_lat": 0.0, "lat": 38.95644933333333, "type": "electric_scooter", "lon": -77.01492833333333, "bike_id": "6401dccaff0b29d75c4e3e6fc93dd2c7", "rental_uris": {"android": "https://dc.lft.to/lastmile_qr_scan", "ios": "https://dc.lft.to/lastmile_qr_scan"}, "name": "6401dccaff0b29d75c4e3e6fc93dd2c7", "is_reserved": 0}, {"is_disabled": 0, "fusion_lon": 0.0, "fusion_lat": 0.0, "lat": 38.902054166666666, "type": "electric_scooter", "lon": -77.04799666666666, "bike_id": "ba3204f0fd345f1356a78968719b317b", "rental_uris": {"android": "https://dc.lft.to/lastmile_qr_scan", "ios": "https://dc.lft.to/lastmile_qr_scan"}, "name": "ba3204f0fd345f1356a78968719b317b", "is_reserved": 0}, {"is_disabled": 0, "fusion_lon": 0.0, "fusion_lat": 0.0, "lat": 38.921573, "type": "electric_scooter", "lon": -77.03386066666667, "bike_id": "6906f01e23fc67466c13bb3046d4b8aa", "rental_uris": {"android": "https://dc.lft.to/lastmile_qr_scan", "ios": "https://dc.lft.to/lastmile_qr_scan"}, "name": "6906f01e23fc67466c13bb3046d4b8aa", "is_reserved": 0}, {"is_disabled": 0, "fusion_lon": 0.0, "fusion_lat": 0.0, "lat": 38.900262833333336, "type": "electric_scooter", "lon": -76.99869133333334, "bike_id": "f1155f25efa5ed4a76df4fd663f478bd", "rental_uris": {"android": "https://dc.lft.to/lastmile_qr_scan", "ios": "https://dc.lft.to/lastmile_qr_scan"}, "name": "f1155f25efa5ed4a76df4fd663f478bd", "is_reserved": 0}, {"is_disabled": 0, "fusion_lon": 0.0, "fusion_lat": 0.0, "lat": 38.92899583333333, "type": "electric_scooter", "lon": -77.03192733333333, "bike_id": "eff2f5da75e15dd2824aa6ad7d5da9fc", "rental_uris": {"android": "https://dc.lft.to/lastmile_qr_scan", "ios": "https://dc.lft.to/lastmile_qr_scan"}, "name": "eff2f5da75e15dd2824aa6ad7d5da9fc", "is_reserved": 0}, {"is_disabled": 0, "fusion_lon": 0.0, "fusion_lat": 0.0, "lat": 38.925862333333335, "type": "electric_scooter", "lon": -77.0229475, "bike_id": "d8d31842b2f4a3c76679a0e037c625ea", "rental_uris": {"android": "https://dc.lft.to/lastmile_qr_scan", "ios": "https://dc.lft.to/lastmile_qr_scan"}, "name": "d8d31842b2f4a3c76679a0e037c625ea", "is_reserved": 0}, {"is_disabled": 0, "fusion_lon": 0.0, "fusion_lat": 0.0, "lat": 38.9181315, "type": "electric_scooter", "lon": -77.04005266666667, "bike_id": "81aa9143962502aa38da5fea6d3452d6", "rental_uris": {"android": "https://dc.lft.to/lastmile_qr_scan", "ios": "https://dc.lft.to/lastmile_qr_scan"}, "name": "81aa9143962502aa38da5fea6d3452d6", "is_reserved": 0}, {"is_disabled": 0, "fusion_lon": 0.0, "fusion_lat": 0.0, "lat": 38.94177783333333, "type": "electric_scooter", "lon": -77.03655033333334, "bike_id": "ba4ddc76d7979bb12b65da20d441679a", "rental_uris": {"android": "https://dc.lft.to/lastmile_qr_scan", "ios": "https://dc.lft.to/lastmile_qr_scan"}, "name": "ba4ddc76d7979bb12b65da20d441679a", "is_reserved": 0}, {"is_disabled": 0, "fusion_lon": 0.0, "fusion_lat": 0.0, "lat": 38.897731666666665, "type": "electric_scooter", "lon": -77.02490533333334, "bike_id": "c2e77bfb041c2414fcaa44bcecc37f88", "rental_uris": {"android": "https://dc.lft.to/lastmile_qr_scan", "ios": "https://dc.lft.to/lastmile_qr_scan"}, "name": "c2e77bfb041c2414fcaa44bcecc37f88", "is_reserved": 0}, {"is_disabled": 0, "fusion_lon": 0.0, "fusion_lat": 0.0, "lat": 38.882516333333335, "type": "electric_scooter", "lon": -77.00346166666667, "bike_id": "075d6b09c29c42f94629253c4ec5ebea", "rental_uris": {"android": "https://dc.lft.to/lastmile_qr_scan", "ios": "https://dc.lft.to/lastmile_qr_scan"}, "name": "075d6b09c29c42f94629253c4ec5ebea", "is_reserved": 0}, {"is_disabled": 0, "fusion_lon": 0.0, "fusion_lat": 0.0, "lat": 38.86841966666667, "type": "electric_bike", "lon": -77.09730166666667, "bike_id": "83c6a53bcee2536ce6998525447697f5", "rental_uris": {"android": "https://dc.lft.to/lastmile_qr_scan", "ios": "https://dc.lft.to/lastmile_qr_scan"}, "name": "83c6a53bcee2536ce6998525447697f5", "is_reserved": 0}, {"is_disabled": 0, "fusion_lon": 0.0, "fusion_lat": 0.0, "lat": 38.963061, "type": "electric_bike", "lon": -77.05762283333334, "bike_id": "009a807a8542c69110be5e8fc519ed74", "rental_uris": {"android": "https://dc.lft.to/lastmile_qr_scan", "ios": "https://dc.lft.to/lastmile_qr_scan"}, "name": "009a807a8542c69110be5e8fc519ed74", "is_reserved": 0}, {"is_disabled": 0, "fusion_lon": 0.0, "fusion_lat": 0.0, "lat": 38.86908866666667, "type": "electric_scooter", "lon": -77.01372866666667, "bike_id": "1a9e4e56530dbbd943f71378b4d86552", "rental_uris": {"android": "https://dc.lft.to/lastmile_qr_scan", "ios": "https://dc.lft.to/lastmile_qr_scan"}, "name": "1a9e4e56530dbbd943f71378b4d86552", "is_reserved": 0}, {"is_disabled": 0, "fusion_lon": 0.0, "fusion_lat": 0.0, "lat": 38.892244, "type": "electric_scooter", "lon": -77.03198566666667, "bike_id": "e83c9639388b24a0b8321a4e8ec4b360", "rental_uris": {"android": "https://dc.lft.to/lastmile_qr_scan", "ios": "https://dc.lft.to/lastmile_qr_scan"}, "name": "e83c9639388b24a0b8321a4e8ec4b360", "is_reserved": 0}, {"is_disabled": 0, "fusion_lon": 0.0, "fusion_lat": 0.0, "lat": 38.90104733333333, "type": "electric_scooter", "lon": -77.0305035, "bike_id": "e7de966babd1ec4ac6a6e28928a1c84d", "rental_uris": {"android": "https://dc.lft.to/lastmile_qr_scan", "ios": "https://dc.lft.to/lastmile_qr_scan"}, "name": "e7de966babd1ec4ac6a6e28928a1c84d", "is_reserved": 0}, {"is_disabled": 0, "fusion_lon": 0.0, "fusion_lat": 0.0, "lat": 38.9224675, "type": "electric_scooter", "lon": -77.03076466666667, "bike_id": "04838acc93b1955f94a6dd99f711bc35", "rental_uris": {"android": "https://dc.lft.to/lastmile_qr_scan", "ios": "https://dc.lft.to/lastmile_qr_scan"}, "name": "04838acc93b1955f94a6dd99f711bc35", "is_reserved": 0}, {"is_disabled": 0, "fusion_lon": 0.0, "fusion_lat": 0.0, "lat": 38.9455045, "type": "electric_scooter", "lon": -77.04241016666667, "bike_id": "91b7aeae0849d8c8b9ec2e7784435db8", "rental_uris": {"android": "https://dc.lft.to/lastmile_qr_scan", "ios": "https://dc.lft.to/lastmile_qr_scan"}, "name": "91b7aeae0849d8c8b9ec2e7784435db8", "is_reserved": 0}, {"is_disabled": 0, "fusion_lon": 0.0, "fusion_lat": 0.0, "lat": 38.87922283333333, "type": "electric_scooter", "lon": -77.00048866666667, "bike_id": "68e9d3310125cf28bb1c92938a168e76", "rental_uris": {"android": "https://dc.lft.to/lastmile_qr_scan", "ios": "https://dc.lft.to/lastmile_qr_scan"}, "name": "68e9d3310125cf28bb1c92938a168e76", "is_reserved": 0}, {"is_disabled": 0, "fusion_lon": 0.0, "fusion_lat": 0.0, "lat": 38.833486666666666, "type": "electric_bike", "lon": -76.96561033333333, "bike_id": "964eb87a880d9c9951502929ebf4eb7a", "rental_uris": {"android": "https://dc.lft.to/lastmile_qr_scan", "ios": "https://dc.lft.to/lastmile_qr_scan"}, "name": "964eb87a880d9c9951502929ebf4eb7a", "is_reserved": 0}, {"is_disabled": 0, "fusion_lon": 0.0, "fusion_lat": 0.0, "lat": 38.904583333333335, "type": "electric_scooter", "lon": -77.03863533333333, "bike_id": "7f4aaa2be542b1c39d6ef5909e7a9691", "rental_uris": {"android": "https://dc.lft.to/lastmile_qr_scan", "ios": "https://dc.lft.to/lastmile_qr_scan"}, "name": "7f4aaa2be542b1c39d6ef5909e7a9691", "is_reserved": 0}, {"is_disabled": 0, "fusion_lon": 0.0, "fusion_lat": 0.0, "lat": 38.95057416666667, "type": "electric_bike", "lon": -76.96737683333333, "bike_id": "47a0c4f8fb053f7d2af9604999284a6b", "rental_uris": {"android": "https://dc.lft.to/lastmile_qr_scan", "ios": "https://dc.lft.to/lastmile_qr_scan"}, "name": "47a0c4f8fb053f7d2af9604999284a6b", "is_reserved": 0}, {"is_disabled": 0, "fusion_lon": 0.0, "fusion_lat": 0.0, "lat": 38.918508333333335, "type": "electric_bike", "lon": -76.9608905, "bike_id": "a07140d8ed788990fdb08d9430fb4e65", "rental_uris": {"android": "https://dc.lft.to/lastmile_qr_scan", "ios": "https://dc.lft.to/lastmile_qr_scan"}, "name": "a07140d8ed788990fdb08d9430fb4e65", "is_reserved": 0}, {"is_disabled": 0, "fusion_lon": 0.0, "fusion_lat": 0.0, "lat": 38.95542733333333, "type": "electric_bike", "lon": -76.93521883333334, "bike_id": "74db25c7d0c5db9b4b2757ca84ecf769", "rental_uris": {"android": "https://dc.lft.to/lastmile_qr_scan", "ios": "https://dc.lft.to/lastmile_qr_scan"}, "name": "74db25c7d0c5db9b4b2757ca84ecf769", "is_reserved": 0}, {"is_disabled": 0, "fusion_lon": 0.0, "fusion_lat": 0.0, "lat": 38.828724333333334, "type": "electric_bike", "lon": -77.11225233333333, "bike_id": "a86b6f42c78dfad745eb73f7cdf7646f", "rental_uris": {"android": "https://dc.lft.to/lastmile_qr_scan", "ios": "https://dc.lft.to/lastmile_qr_scan"}, "name": "a86b6f42c78dfad745eb73f7cdf7646f", "is_reserved": 0}, {"is_disabled": 0, "fusion_lon": 0.0, "fusion_lat": 0.0, "lat": 38.913383, "type": "electric_scooter", "lon": -77.04860783333334, "bike_id": "f99af0f2630fdebf5da224f630a10db2", "rental_uris": {"android": "https://dc.lft.to/lastmile_qr_scan", "ios": "https://dc.lft.to/lastmile_qr_scan"}, "name": "f99af0f2630fdebf5da224f630a10db2", "is_reserved": 0}, {"is_disabled": 0, "fusion_lon": 0.0, "fusion_lat": 0.0, "lat": 38.833196, "type": "electric_scooter", "lon": -77.00004116666666, "bike_id": "4a702e6f5414b9f37e891763b4e94222", "rental_uris": {"android": "https://dc.lft.to/lastmile_qr_scan", "ios": "https://dc.lft.to/lastmile_qr_scan"}, "name": "4a702e6f5414b9f37e891763b4e94222", "is_reserved": 0}, {"is_disabled": 0, "fusion_lon": 0.0, "fusion_lat": 0.0, "lat": 38.92823416666667, "type": "electric_scooter", "lon": -77.03720716666666, "bike_id": "1542fcd5030de7831c8a67d1153b4cc7", "rental_uris": {"android": "https://dc.lft.to/lastmile_qr_scan", "ios": "https://dc.lft.to/lastmile_qr_scan"}, "name": "1542fcd5030de7831c8a67d1153b4cc7", "is_reserved": 0}, {"is_disabled": 0, "fusion_lon": 0.0, "fusion_lat": 0.0, "lat": 38.87029916666667, "type": "electric_scooter", "lon": -77.01074566666666, "bike_id": "255a618250580d52aae1479e87866546", "rental_uris": {"android": "https://dc.lft.to/lastmile_qr_scan", "ios": "https://dc.lft.to/lastmile_qr_scan"}, "name": "255a618250580d52aae1479e87866546", "is_reserved": 0}, {"is_disabled": 0, "fusion_lon": 0.0, "fusion_lat": 0.0, "lat": 38.916963833333334, "type": "electric_scooter", "lon": -77.02429583333333, "bike_id": "d842921f511c224e4090786f50c6fdfe", "rental_uris": {"android": "https://dc.lft.to/lastmile_qr_scan", "ios": "https://dc.lft.to/lastmile_qr_scan"}, "name": "d842921f511c224e4090786f50c6fdfe", "is_reserved": 0}, {"is_disabled": 0, "fusion_lon": 0.0, "fusion_lat": 0.0, "lat": 38.92584016666667, "type": "electric_scooter", "lon": -77.05538566666667, "bike_id": "a1534f1518880d1182e8f7888ee02a61", "rental_uris": {"android": "https://dc.lft.to/lastmile_qr_scan", "ios": "https://dc.lft.to/lastmile_qr_scan"}, "name": "a1534f1518880d1182e8f7888ee02a61", "is_reserved": 0}, {"is_disabled": 0, "fusion_lon": 0.0, "fusion_lat": 0.0, "lat": 38.8319315, "type": "electric_bike", "lon": -77.07686416666667, "bike_id": "7539e0ed3dc3a65c38b02328211eb668", "rental_uris": {"android": "https://dc.lft.to/lastmile_qr_scan", "ios": "https://dc.lft.to/lastmile_qr_scan"}, "name": "7539e0ed3dc3a65c38b02328211eb668", "is_reserved": 0}, {"is_disabled": 0, "fusion_lon": 0.0, "fusion_lat": 0.0, "lat": 38.951779, "type": "electric_scooter", "lon": -77.05659033333333, "bike_id": "0176c27629a02b02808e6ea467ef5d7f", "rental_uris": {"android": "https://dc.lft.to/lastmile_qr_scan", "ios": "https://dc.lft.to/lastmile_qr_scan"}, "name": "0176c27629a02b02808e6ea467ef5d7f", "is_reserved": 0}, {"is_disabled": 0, "fusion_lon": 0.0, "fusion_lat": 0.0, "lat": 38.84845633333333, "type": "electric_bike", "lon": -77.08046416666667, "bike_id": "300865710ca3ad3372bd3d5d84f16198", "rental_uris": {"android": "https://dc.lft.to/lastmile_qr_scan", "ios": "https://dc.lft.to/lastmile_qr_scan"}, "name": "300865710ca3ad3372bd3d5d84f16198", "is_reserved": 0}, {"is_disabled": 0, "fusion_lon": 0.0, "fusion_lat": 0.0, "lat": 38.91336116666667, "type": "electric_scooter", "lon": -77.025265, "bike_id": "9409d5eac647b77bbaa281cab4813742", "rental_uris": {"android": "https://dc.lft.to/lastmile_qr_scan", "ios": "https://dc.lft.to/lastmile_qr_scan"}, "name": "9409d5eac647b77bbaa281cab4813742", "is_reserved": 0}, {"is_disabled": 0, "fusion_lon": 0.0, "fusion_lat": 0.0, "lat": 38.93559466666667, "type": "electric_scooter", "lon": -77.07337116666666, "bike_id": "f0b12902eb0909332d3d7c439d80408c", "rental_uris": {"android": "https://dc.lft.to/lastmile_qr_scan", "ios": "https://dc.lft.to/lastmile_qr_scan"}, "name": "f0b12902eb0909332d3d7c439d80408c", "is_reserved": 0}, {"is_disabled": 0, "fusion_lon": 0.0, "fusion_lat": 0.0, "lat": 38.90197216666667, "type": "electric_scooter", "lon": -77.021043, "bike_id": "8a62dc1312db80ff8afc6fa27e2632f0", "rental_uris": {"android": "https://dc.lft.to/lastmile_qr_scan", "ios": "https://dc.lft.to/lastmile_qr_scan"}, "name": "8a62dc1312db80ff8afc6fa27e2632f0", "is_reserved": 0}, {"is_disabled": 0, "fusion_lon": 0.0, "fusion_lat": 0.0, "lat": 38.917863833333335, "type": "electric_scooter", "lon": -77.03657866666667, "bike_id": "37e8be91eca061cea75f63bbe22b5e65", "rental_uris": {"android": "https://dc.lft.to/lastmile_qr_scan", "ios": "https://dc.lft.to/lastmile_qr_scan"}, "name": "37e8be91eca061cea75f63bbe22b5e65", "is_reserved": 0}, {"is_disabled": 0, "fusion_lon": 0.0, "fusion_lat": 0.0, "lat": 38.875719333333336, "type": "electric_scooter", "lon": -77.01992133333333, "bike_id": "7e0a3fe6bbca09a05c8fd93f944594ee", "rental_uris": {"android": "https://dc.lft.to/lastmile_qr_scan", "ios": "https://dc.lft.to/lastmile_qr_scan"}, "name": "7e0a3fe6bbca09a05c8fd93f944594ee", "is_reserved": 0}, {"is_disabled": 0, "fusion_lon": 0.0, "fusion_lat": 0.0, "lat": 38.91708633333333, "type": "electric_scooter", "lon": -77.03230533333333, "bike_id": "a4f4118ed36fedcf4f9600d04940437f", "rental_uris": {"android": "https://dc.lft.to/lastmile_qr_scan", "ios": "https://dc.lft.to/lastmile_qr_scan"}, "name": "a4f4118ed36fedcf4f9600d04940437f", "is_reserved": 0}, {"is_disabled": 0, "fusion_lon": 0.0, "fusion_lat": 0.0, "lat": 38.905527666666664, "type": "electric_scooter", "lon": -77.02215783333334, "bike_id": "2bb294b5c28bd2c70c2e7e0f508b8dd8", "rental_uris": {"android": "https://dc.lft.to/lastmile_qr_scan", "ios": "https://dc.lft.to/lastmile_qr_scan"}, "name": "2bb294b5c28bd2c70c2e7e0f508b8dd8", "is_reserved": 0}, {"is_disabled": 0, "fusion_lon": 0.0, "fusion_lat": 0.0, "lat": 38.8967, "type": "electric_scooter", "lon": -76.9471865, "bike_id": "bc9ec424557f073bb0e19ba3c68aceb7", "rental_uris": {"android": "https://dc.lft.to/lastmile_qr_scan", "ios": "https://dc.lft.to/lastmile_qr_scan"}, "name": "bc9ec424557f073bb0e19ba3c68aceb7", "is_reserved": 0}, {"is_disabled": 0, "fusion_lon": 0.0, "fusion_lat": 0.0, "lat": 38.8926535, "type": "electric_scooter", "lon": -77.03202383333333, "bike_id": "b7ab8f19089f86e277d7a4fb686bbb5e", "rental_uris": {"android": "https://dc.lft.to/lastmile_qr_scan", "ios": "https://dc.lft.to/lastmile_qr_scan"}, "name": "b7ab8f19089f86e277d7a4fb686bbb5e", "is_reserved": 0}, {"is_disabled": 0, "fusion_lon": 0.0, "fusion_lat": 0.0, "lat": 38.91541183333333, "type": "electric_scooter", "lon": -77.01970766666666, "bike_id": "49a99b335f06733b7cb7833a82c80e15", "rental_uris": {"android": "https://dc.lft.to/lastmile_qr_scan", "ios": "https://dc.lft.to/lastmile_qr_scan"}, "name": "49a99b335f06733b7cb7833a82c80e15", "is_reserved": 0}, {"is_disabled": 0, "fusion_lon": 0.0, "fusion_lat": 0.0, "lat": 38.900386833333336, "type": "electric_scooter", "lon": -77.0122665, "bike_id": "c3be5c913639cf19f6091a692a824850", "rental_uris": {"android": "https://dc.lft.to/lastmile_qr_scan", "ios": "https://dc.lft.to/lastmile_qr_scan"}, "name": "c3be5c913639cf19f6091a692a824850", "is_reserved": 0}, {"is_disabled": 0, "fusion_lon": 0.0, "fusion_lat": 0.0, "lat": 38.91727616666667, "type": "electric_scooter", "lon": -77.041727, "bike_id": "9f541bbd85555f494636b8510a8f14cd", "rental_uris": {"android": "https://dc.lft.to/lastmile_qr_scan", "ios": "https://dc.lft.to/lastmile_qr_scan"}, "name": "9f541bbd85555f494636b8510a8f14cd", "is_reserved": 0}, {"is_disabled": 0, "fusion_lon": 0.0, "fusion_lat": 0.0, "lat": 38.933990333333334, "type": "electric_scooter", "lon": -77.02732833333333, "bike_id": "957e077b41c9a758d79370ba67623bc3", "rental_uris": {"android": "https://dc.lft.to/lastmile_qr_scan", "ios": "https://dc.lft.to/lastmile_qr_scan"}, "name": "957e077b41c9a758d79370ba67623bc3", "is_reserved": 0}, {"is_disabled": 0, "fusion_lon": 0.0, "fusion_lat": 0.0, "lat": 38.9005705, "type": "electric_scooter", "lon": -77.03440966666666, "bike_id": "26ce09c5a6485ed3964dd93ecef2da51", "rental_uris": {"android": "https://dc.lft.to/lastmile_qr_scan", "ios": "https://dc.lft.to/lastmile_qr_scan"}, "name": "26ce09c5a6485ed3964dd93ecef2da51", "is_reserved": 0}, {"is_disabled": 0, "fusion_lon": 0.0, "fusion_lat": 0.0, "lat": 38.895147, "type": "electric_scooter", "lon": -77.028048, "bike_id": "94b523ffa658540b03da0ec560155148", "rental_uris": {"android": "https://dc.lft.to/lastmile_qr_scan", "ios": "https://dc.lft.to/lastmile_qr_scan"}, "name": "94b523ffa658540b03da0ec560155148", "is_reserved": 0}, {"is_disabled": 0, "fusion_lon": 0.0, "fusion_lat": 0.0, "lat": 38.881325333333336, "type": "electric_scooter", "lon": -77.008317, "bike_id": "2bbf7a5acd890313cc34380c49644e5e", "rental_uris": {"android": "https://dc.lft.to/lastmile_qr_scan", "ios": "https://dc.lft.to/lastmile_qr_scan"}, "name": "2bbf7a5acd890313cc34380c49644e5e", "is_reserved": 0}, {"is_disabled": 0, "fusion_lon": 0.0, "fusion_lat": 0.0, "lat": 38.96602733333334, "type": "electric_bike", "lon": -76.98333216666667, "bike_id": "766f3c4513aa52736c7f72733be3af05", "rental_uris": {"android": "https://dc.lft.to/lastmile_qr_scan", "ios": "https://dc.lft.to/lastmile_qr_scan"}, "name": "766f3c4513aa52736c7f72733be3af05", "is_reserved": 0}, {"is_disabled": 0, "fusion_lon": 0.0, "fusion_lat": 0.0, "lat": 38.905453, "type": "electric_scooter", "lon": -77.03251483333334, "bike_id": "5e7adfad579a2ed89529ea1077bcc7d9", "rental_uris": {"android": "https://dc.lft.to/lastmile_qr_scan", "ios": "https://dc.lft.to/lastmile_qr_scan"}, "name": "5e7adfad579a2ed89529ea1077bcc7d9", "is_reserved": 0}, {"is_disabled": 0, "fusion_lon": 0.0, "fusion_lat": 0.0, "lat": 38.86610266666667, "type": "electric_scooter", "lon": -77.01071933333333, "bike_id": "ccd974dd511e2d183863b3fec48d2711", "rental_uris": {"android": "https://dc.lft.to/lastmile_qr_scan", "ios": "https://dc.lft.to/lastmile_qr_scan"}, "name": "ccd974dd511e2d183863b3fec48d2711", "is_reserved": 0}, {"is_disabled": 0, "fusion_lon": 0.0, "fusion_lat": 0.0, "lat": 38.902771333333334, "type": "electric_scooter", "lon": -77.03670666666666, "bike_id": "13f32b27a9805700a0cf725dad1db585", "rental_uris": {"android": "https://dc.lft.to/lastmile_qr_scan", "ios": "https://dc.lft.to/lastmile_qr_scan"}, "name": "13f32b27a9805700a0cf725dad1db585", "is_reserved": 0}, {"is_disabled": 0, "fusion_lon": 0.0, "fusion_lat": 0.0, "lat": 38.936974, "type": "electric_scooter", "lon": -77.055983, "bike_id": "0c641cfdafdf768727671bf84db09f6b", "rental_uris": {"android": "https://dc.lft.to/lastmile_qr_scan", "ios": "https://dc.lft.to/lastmile_qr_scan"}, "name": "0c641cfdafdf768727671bf84db09f6b", "is_reserved": 0}, {"is_disabled": 0, "fusion_lon": 0.0, "fusion_lat": 0.0, "lat": 38.89731916666667, "type": "electric_scooter", "lon": -77.0228115, "bike_id": "d5aad9e1f5ba61209e00f5989369daf0", "rental_uris": {"android": "https://dc.lft.to/lastmile_qr_scan", "ios": "https://dc.lft.to/lastmile_qr_scan"}, "name": "d5aad9e1f5ba61209e00f5989369daf0", "is_reserved": 0}, {"is_disabled": 0, "fusion_lon": 0.0, "fusion_lat": 0.0, "lat": 38.87054116666667, "type": "electric_scooter", "lon": -76.980865, "bike_id": "e3013e4a0b568548aeff0d045f51ae59", "rental_uris": {"android": "https://dc.lft.to/lastmile_qr_scan", "ios": "https://dc.lft.to/lastmile_qr_scan"}, "name": "e3013e4a0b568548aeff0d045f51ae59", "is_reserved": 0}, {"is_disabled": 0, "fusion_lon": 0.0, "fusion_lat": 0.0, "lat": 38.916968, "type": "electric_scooter", "lon": -77.0117065, "bike_id": "62e38a6e638f1692782036d73b736461", "rental_uris": {"android": "https://dc.lft.to/lastmile_qr_scan", "ios": "https://dc.lft.to/lastmile_qr_scan"}, "name": "62e38a6e638f1692782036d73b736461", "is_reserved": 0}, {"is_disabled": 0, "fusion_lon": 0.0, "fusion_lat": 0.0, "lat": 38.88686716666667, "type": "electric_scooter", "lon": -76.98799766666667, "bike_id": "b724d84fcc4177782066e969b978c383", "rental_uris": {"android": "https://dc.lft.to/lastmile_qr_scan", "ios": "https://dc.lft.to/lastmile_qr_scan"}, "name": "b724d84fcc4177782066e969b978c383", "is_reserved": 0}, {"is_disabled": 0, "fusion_lon": 0.0, "fusion_lat": 0.0, "lat": 38.95637466666667, "type": "electric_scooter", "lon": -77.09098166666666, "bike_id": "94b96726371ecbb76d7bcb5810e2c164", "rental_uris": {"android": "https://dc.lft.to/lastmile_qr_scan", "ios": "https://dc.lft.to/lastmile_qr_scan"}, "name": "94b96726371ecbb76d7bcb5810e2c164", "is_reserved": 0}, {"is_disabled": 0, "fusion_lon": 0.0, "fusion_lat": 0.0, "lat": 38.8861245, "type": "electric_scooter", "lon": -77.00573766666666, "bike_id": "424905413fd20808022c00a05b393a8f", "rental_uris": {"android": "https://dc.lft.to/lastmile_qr_scan", "ios": "https://dc.lft.to/lastmile_qr_scan"}, "name": "424905413fd20808022c00a05b393a8f", "is_reserved": 0}, {"is_disabled": 0, "fusion_lon": 0.0, "fusion_lat": 0.0, "lat": 38.923616, "type": "electric_scooter", "lon": -77.05032566666667, "bike_id": "dc97596645c429e84ad20467b66fc2ce", "rental_uris": {"android": "https://dc.lft.to/lastmile_qr_scan", "ios": "https://dc.lft.to/lastmile_qr_scan"}, "name": "dc97596645c429e84ad20467b66fc2ce", "is_reserved": 0}, {"is_disabled": 0, "fusion_lon": 0.0, "fusion_lat": 0.0, "lat": 38.91181433333333, "type": "electric_scooter", "lon": -77.0414075, "bike_id": "8e54f9c62195be44311f12368a7bfbf2", "rental_uris": {"android": "https://dc.lft.to/lastmile_qr_scan", "ios": "https://dc.lft.to/lastmile_qr_scan"}, "name": "8e54f9c62195be44311f12368a7bfbf2", "is_reserved": 0}, {"is_disabled": 0, "fusion_lon": 0.0, "fusion_lat": 0.0, "lat": 38.8564825, "type": "electric_bike", "lon": -77.085286, "bike_id": "25a4fc4f6855fbc3fa06a80a035beb52", "rental_uris": {"android": "https://dc.lft.to/lastmile_qr_scan", "ios": "https://dc.lft.to/lastmile_qr_scan"}, "name": "25a4fc4f6855fbc3fa06a80a035beb52", "is_reserved": 0}, {"is_disabled": 0, "fusion_lon": 0.0, "fusion_lat": 0.0, "lat": 38.8948035, "type": "electric_scooter", "lon": -76.9487535, "bike_id": "b3b17b78d74fa51eaab13c2cf4f88e4e", "rental_uris": {"android": "https://dc.lft.to/lastmile_qr_scan", "ios": "https://dc.lft.to/lastmile_qr_scan"}, "name": "b3b17b78d74fa51eaab13c2cf4f88e4e", "is_reserved": 0}, {"is_disabled": 0, "fusion_lon": 0.0, "fusion_lat": 0.0, "lat": 38.84929316666667, "type": "electric_bike", "lon": -77.100103, "bike_id": "453fd7abea5a46a07d79fb3b2c68ed96", "rental_uris": {"android": "https://dc.lft.to/lastmile_qr_scan", "ios": "https://dc.lft.to/lastmile_qr_scan"}, "name": "453fd7abea5a46a07d79fb3b2c68ed96", "is_reserved": 0}, {"is_disabled": 0, "fusion_lon": 0.0, "fusion_lat": 0.0, "lat": 38.94444333333333, "type": "electric_scooter", "lon": -77.06045233333333, "bike_id": "fe6919ff960a2e941a0a59f9138f92b9", "rental_uris": {"android": "https://dc.lft.to/lastmile_qr_scan", "ios": "https://dc.lft.to/lastmile_qr_scan"}, "name": "fe6919ff960a2e941a0a59f9138f92b9", "is_reserved": 0}, {"is_disabled": 0, "fusion_lon": 0.0, "fusion_lat": 0.0, "lat": 38.9163735, "type": "electric_scooter", "lon": -77.05059266666666, "bike_id": "b1d97b823529f0efa2c31b394c94a45f", "rental_uris": {"android": "https://dc.lft.to/lastmile_qr_scan", "ios": "https://dc.lft.to/lastmile_qr_scan"}, "name": "b1d97b823529f0efa2c31b394c94a45f", "is_reserved": 0}, {"is_disabled": 0, "fusion_lon": 0.0, "fusion_lat": 0.0, "lat": 38.904715833333334, "type": "electric_scooter", "lon": -76.991999, "bike_id": "0fa120d0cbb4fbaa0b968e51277cfe7e", "rental_uris": {"android": "https://dc.lft.to/lastmile_qr_scan", "ios": "https://dc.lft.to/lastmile_qr_scan"}, "name": "0fa120d0cbb4fbaa0b968e51277cfe7e", "is_reserved": 0}, {"is_disabled": 0, "fusion_lon": 0.0, "fusion_lat": 0.0, "lat": 38.91352233333333, "type": "electric_scooter", "lon": -77.031966, "bike_id": "85717429bb0cafabb3145188ae70c6ed", "rental_uris": {"android": "https://dc.lft.to/lastmile_qr_scan", "ios": "https://dc.lft.to/lastmile_qr_scan"}, "name": "85717429bb0cafabb3145188ae70c6ed", "is_reserved": 0}, {"is_disabled": 0, "fusion_lon": 0.0, "fusion_lat": 0.0, "lat": 38.91149816666667, "type": "electric_scooter", "lon": -76.98500833333334, "bike_id": "b2e651fff4b0f9bb658be46cda17a085", "rental_uris": {"android": "https://dc.lft.to/lastmile_qr_scan", "ios": "https://dc.lft.to/lastmile_qr_scan"}, "name": "b2e651fff4b0f9bb658be46cda17a085", "is_reserved": 0}, {"is_disabled": 0, "fusion_lon": 0.0, "fusion_lat": 0.0, "lat": 38.89494916666666, "type": "electric_scooter", "lon": -77.02293333333333, "bike_id": "173b5be267cfa63ff043ca94a8000309", "rental_uris": {"android": "https://dc.lft.to/lastmile_qr_scan", "ios": "https://dc.lft.to/lastmile_qr_scan"}, "name": "173b5be267cfa63ff043ca94a8000309", "is_reserved": 0}, {"is_disabled": 0, "fusion_lon": 0.0, "fusion_lat": 0.0, "lat": 38.905386666666665, "type": "electric_scooter", "lon": -77.02980083333334, "bike_id": "e12eec48b45903c42d7d89ebe94c22d7", "rental_uris": {"android": "https://dc.lft.to/lastmile_qr_scan", "ios": "https://dc.lft.to/lastmile_qr_scan"}, "name": "e12eec48b45903c42d7d89ebe94c22d7", "is_reserved": 0}, {"is_disabled": 0, "fusion_lon": 0.0, "fusion_lat": 0.0, "lat": 38.894697666666666, "type": "electric_scooter", "lon": -76.97720416666667, "bike_id": "d8c16ff90d6a61988a3c48559a8979ce", "rental_uris": {"android": "https://dc.lft.to/lastmile_qr_scan", "ios": "https://dc.lft.to/lastmile_qr_scan"}, "name": "d8c16ff90d6a61988a3c48559a8979ce", "is_reserved": 0}, {"is_disabled": 0, "fusion_lon": 0.0, "fusion_lat": 0.0, "lat": 38.8961055, "type": "electric_scooter", "lon": -77.00936683333333, "bike_id": "1b839e554feac2db1b0f481c80f62ddf", "rental_uris": {"android": "https://dc.lft.to/lastmile_qr_scan", "ios": "https://dc.lft.to/lastmile_qr_scan"}, "name": "1b839e554feac2db1b0f481c80f62ddf", "is_reserved": 0}, {"is_disabled": 0, "fusion_lon": 0.0, "fusion_lat": 0.0, "lat": 38.8939075, "type": "electric_scooter", "lon": -76.94993216666667, "bike_id": "f462715f157989076ec6b2c38ae688df", "rental_uris": {"android": "https://dc.lft.to/lastmile_qr_scan", "ios": "https://dc.lft.to/lastmile_qr_scan"}, "name": "f462715f157989076ec6b2c38ae688df", "is_reserved": 0}, {"is_disabled": 0, "fusion_lon": 0.0, "fusion_lat": 0.0, "lat": 38.889551166666664, "type": "electric_scooter", "lon": -76.99141516666667, "bike_id": "3b2cc4a4edb51880928b7856de7708f7", "rental_uris": {"android": "https://dc.lft.to/lastmile_qr_scan", "ios": "https://dc.lft.to/lastmile_qr_scan"}, "name": "3b2cc4a4edb51880928b7856de7708f7", "is_reserved": 0}, {"is_disabled": 0, "fusion_lon": 0.0, "fusion_lat": 0.0, "lat": 38.89526816666667, "type": "electric_scooter", "lon": -77.03350183333333, "bike_id": "5e9b0395413428a511a75133b5ee7eac", "rental_uris": {"android": "https://dc.lft.to/lastmile_qr_scan", "ios": "https://dc.lft.to/lastmile_qr_scan"}, "name": "5e9b0395413428a511a75133b5ee7eac", "is_reserved": 0}, {"is_disabled": 0, "fusion_lon": 0.0, "fusion_lat": 0.0, "lat": 38.928392, "type": "electric_scooter", "lon": -77.05538833333334, "bike_id": "227310c593d3ca571b6abbacf4b75bf6", "rental_uris": {"android": "https://dc.lft.to/lastmile_qr_scan", "ios": "https://dc.lft.to/lastmile_qr_scan"}, "name": "227310c593d3ca571b6abbacf4b75bf6", "is_reserved": 0}, {"is_disabled": 0, "fusion_lon": 0.0, "fusion_lat": 0.0, "lat": 38.910348666666664, "type": "electric_scooter", "lon": -77.03801916666667, "bike_id": "01f97bc6a2511215a73de9f3b85edefb", "rental_uris": {"android": "https://dc.lft.to/lastmile_qr_scan", "ios": "https://dc.lft.to/lastmile_qr_scan"}, "name": "01f97bc6a2511215a73de9f3b85edefb", "is_reserved": 0}, {"is_disabled": 0, "fusion_lon": 0.0, "fusion_lat": 0.0, "lat": 38.888512166666665, "type": "electric_bike", "lon": -76.9770395, "bike_id": "7669b6e74e84dfe42f54c60e2439dbbd", "rental_uris": {"android": "https://dc.lft.to/lastmile_qr_scan", "ios": "https://dc.lft.to/lastmile_qr_scan"}, "name": "7669b6e74e84dfe42f54c60e2439dbbd", "is_reserved": 0}, {"is_disabled": 0, "fusion_lon": 0.0, "fusion_lat": 0.0, "lat": 38.868133, "type": "electric_scooter", "lon": -77.01171633333334, "bike_id": "90c285154d6318062e20f542dd66c3ce", "rental_uris": {"android": "https://dc.lft.to/lastmile_qr_scan", "ios": "https://dc.lft.to/lastmile_qr_scan"}, "name": "90c285154d6318062e20f542dd66c3ce", "is_reserved": 0}, {"is_disabled": 0, "fusion_lon": 0.0, "fusion_lat": 0.0, "lat": 39.05456566666667, "type": "electric_bike", "lon": -77.14324, "bike_id": "385d377235109f74d5288bb214123e59", "rental_uris": {"android": "https://dc.lft.to/lastmile_qr_scan", "ios": "https://dc.lft.to/lastmile_qr_scan"}, "name": "385d377235109f74d5288bb214123e59", "is_reserved": 0}, {"is_disabled": 0, "fusion_lon": 0.0, "fusion_lat": 0.0, "lat": 38.77623533333333, "type": "electric_bike", "lon": -77.08350983333334, "bike_id": "90a9b67ca65dd01e2714ccd8b822c611", "rental_uris": {"android": "https://dc.lft.to/lastmile_qr_scan", "ios": "https://dc.lft.to/lastmile_qr_scan"}, "name": "90a9b67ca65dd01e2714ccd8b822c611", "is_reserved": 0}, {"is_disabled": 0, "fusion_lon": 0.0, "fusion_lat": 0.0, "lat": 38.908475333333335, "type": "electric_scooter", "lon": -77.055086, "bike_id": "7b34a18e288e90dd7a753e5acbab9bc0", "rental_uris": {"android": "https://dc.lft.to/lastmile_qr_scan", "ios": "https://dc.lft.to/lastmile_qr_scan"}, "name": "7b34a18e288e90dd7a753e5acbab9bc0", "is_reserved": 0}, {"is_disabled": 0, "fusion_lon": 0.0, "fusion_lat": 0.0, "lat": 38.9051055, "type": "electric_scooter", "lon": -76.9823895, "bike_id": "26da654368d8aa24aee289d969cc2e11", "rental_uris": {"android": "https://dc.lft.to/lastmile_qr_scan", "ios": "https://dc.lft.to/lastmile_qr_scan"}, "name": "26da654368d8aa24aee289d969cc2e11", "is_reserved": 0}, {"is_disabled": 0, "fusion_lon": 0.0, "fusion_lat": 0.0, "lat": 38.887464, "type": "electric_scooter", "lon": -77.01431866666667, "bike_id": "e9d87e1549f9bbb7ad2b65c228508ed0", "rental_uris": {"android": "https://dc.lft.to/lastmile_qr_scan", "ios": "https://dc.lft.to/lastmile_qr_scan"}, "name": "e9d87e1549f9bbb7ad2b65c228508ed0", "is_reserved": 0}, {"is_disabled": 0, "fusion_lon": 0.0, "fusion_lat": 0.0, "lat": 38.9109265, "type": "electric_scooter", "lon": -76.98475716666667, "bike_id": "069c404f859dbb78abcc590bf46de8c9", "rental_uris": {"android": "https://dc.lft.to/lastmile_qr_scan", "ios": "https://dc.lft.to/lastmile_qr_scan"}, "name": "069c404f859dbb78abcc590bf46de8c9", "is_reserved": 0}, {"is_disabled": 0, "fusion_lon": 0.0, "fusion_lat": 0.0, "lat": 38.883630833333335, "type": "electric_bike", "lon": -77.03076216666666, "bike_id": "77531a480a0a518bc9f5b011371f6a44", "rental_uris": {"android": "https://dc.lft.to/lastmile_qr_scan", "ios": "https://dc.lft.to/lastmile_qr_scan"}, "name": "77531a480a0a518bc9f5b011371f6a44", "is_reserved": 0}, {"is_disabled": 0, "fusion_lon": 0.0, "fusion_lat": 0.0, "lat": 38.91965783333333, "type": "electric_scooter", "lon": -77.04154866666667, "bike_id": "00b1b16b025cb87d67abe6032e62bf17", "rental_uris": {"android": "https://dc.lft.to/lastmile_qr_scan", "ios": "https://dc.lft.to/lastmile_qr_scan"}, "name": "00b1b16b025cb87d67abe6032e62bf17", "is_reserved": 0}, {"is_disabled": 0, "fusion_lon": 0.0, "fusion_lat": 0.0, "lat": 38.9325775, "type": "electric_scooter", "lon": -77.03267, "bike_id": "0919620de6e81653a9966f78889b3fdf", "rental_uris": {"android": "https://dc.lft.to/lastmile_qr_scan", "ios": "https://dc.lft.to/lastmile_qr_scan"}, "name": "0919620de6e81653a9966f78889b3fdf", "is_reserved": 0}, {"is_disabled": 0, "fusion_lon": 0.0, "fusion_lat": 0.0, "lat": 38.845925666666666, "type": "electric_bike", "lon": -76.96886766666667, "bike_id": "d9e5f48b5e7766e7f517a5cc4b81677c", "rental_uris": {"android": "https://dc.lft.to/lastmile_qr_scan", "ios": "https://dc.lft.to/lastmile_qr_scan"}, "name": "d9e5f48b5e7766e7f517a5cc4b81677c", "is_reserved": 0}, {"is_disabled": 0, "fusion_lon": 0.0, "fusion_lat": 0.0, "lat": 38.90246416666667, "type": "electric_scooter", "lon": -77.00217, "bike_id": "6efa9781771a4d52bbb4ab25aec513fa", "rental_uris": {"android": "https://dc.lft.to/lastmile_qr_scan", "ios": "https://dc.lft.to/lastmile_qr_scan"}, "name": "6efa9781771a4d52bbb4ab25aec513fa", "is_reserved": 0}, {"is_disabled": 0, "fusion_lon": 0.0, "fusion_lat": 0.0, "lat": 38.95630383333334, "type": "electric_scooter", "lon": -77.02980166666667, "bike_id": "3718f720af39ddf576ee7f44623f6473", "rental_uris": {"android": "https://dc.lft.to/lastmile_qr_scan", "ios": "https://dc.lft.to/lastmile_qr_scan"}, "name": "3718f720af39ddf576ee7f44623f6473", "is_reserved": 0}, {"is_disabled": 0, "fusion_lon": 0.0, "fusion_lat": 0.0, "lat": 38.927498, "type": "electric_scooter", "lon": -77.07591466666666, "bike_id": "4c66b86891eaec50ec2446435161aeeb", "rental_uris": {"android": "https://dc.lft.to/lastmile_qr_scan", "ios": "https://dc.lft.to/lastmile_qr_scan"}, "name": "4c66b86891eaec50ec2446435161aeeb", "is_reserved": 0}, {"is_disabled": 0, "fusion_lon": 0.0, "fusion_lat": 0.0, "lat": 38.861249666666666, "type": "electric_scooter", "lon": -76.98571916666667, "bike_id": "f71af5973f6ce0467fe4dab3a36357e1", "rental_uris": {"android": "https://dc.lft.to/lastmile_qr_scan", "ios": "https://dc.lft.to/lastmile_qr_scan"}, "name": "f71af5973f6ce0467fe4dab3a36357e1", "is_reserved": 0}, {"is_disabled": 0, "fusion_lon": 0.0, "fusion_lat": 0.0, "lat": 38.911873, "type": "electric_scooter", "lon": -77.03836633333333, "bike_id": "9347e844404a0b349a0a1f8189c44615", "rental_uris": {"android": "https://dc.lft.to/lastmile_qr_scan", "ios": "https://dc.lft.to/lastmile_qr_scan"}, "name": "9347e844404a0b349a0a1f8189c44615", "is_reserved": 0}, {"is_disabled": 0, "fusion_lon": 0.0, "fusion_lat": 0.0, "lat": 38.928324833333335, "type": "electric_scooter", "lon": -77.01412433333333, "bike_id": "7cc8b22b0fdf92dfbc47a428fccd2559", "rental_uris": {"android": "https://dc.lft.to/lastmile_qr_scan", "ios": "https://dc.lft.to/lastmile_qr_scan"}, "name": "7cc8b22b0fdf92dfbc47a428fccd2559", "is_reserved": 0}, {"is_disabled": 0, "fusion_lon": 0.0, "fusion_lat": 0.0, "lat": 38.927328333333335, "type": "electric_scooter", "lon": -77.02246216666667, "bike_id": "219ae9e518eab0de50995a56188b7cf0", "rental_uris": {"android": "https://dc.lft.to/lastmile_qr_scan", "ios": "https://dc.lft.to/lastmile_qr_scan"}, "name": "219ae9e518eab0de50995a56188b7cf0", "is_reserved": 0}, {"is_disabled": 0, "fusion_lon": 0.0, "fusion_lat": 0.0, "lat": 38.9095785, "type": "electric_scooter", "lon": -77.02306616666667, "bike_id": "4cb2733e50118e2c8fd67010b55a0514", "rental_uris": {"android": "https://dc.lft.to/lastmile_qr_scan", "ios": "https://dc.lft.to/lastmile_qr_scan"}, "name": "4cb2733e50118e2c8fd67010b55a0514", "is_reserved": 0}, {"is_disabled": 0, "fusion_lon": 0.0, "fusion_lat": 0.0, "lat": 38.900420833333335, "type": "electric_scooter", "lon": -76.92274283333333, "bike_id": "82cc8997429b8ccd4438592d01fe8e07", "rental_uris": {"android": "https://dc.lft.to/lastmile_qr_scan", "ios": "https://dc.lft.to/lastmile_qr_scan"}, "name": "82cc8997429b8ccd4438592d01fe8e07", "is_reserved": 0}, {"is_disabled": 0, "fusion_lon": 0.0, "fusion_lat": 0.0, "lat": 38.893723, "type": "electric_scooter", "lon": -76.95001033333334, "bike_id": "9e20e6d69e211f299701bbb60bb5f235", "rental_uris": {"android": "https://dc.lft.to/lastmile_qr_scan", "ios": "https://dc.lft.to/lastmile_qr_scan"}, "name": "9e20e6d69e211f299701bbb60bb5f235", "is_reserved": 0}, {"is_disabled": 0, "fusion_lon": 0.0, "fusion_lat": 0.0, "lat": 38.91187583333333, "type": "electric_scooter", "lon": -77.0350995, "bike_id": "01b3fa4f6d39c3716a7bcb86d8d42a40", "rental_uris": {"android": "https://dc.lft.to/lastmile_qr_scan", "ios": "https://dc.lft.to/lastmile_qr_scan"}, "name": "01b3fa4f6d39c3716a7bcb86d8d42a40", "is_reserved": 0}, {"is_disabled": 0, "fusion_lon": 0.0, "fusion_lat": 0.0, "lat": 38.90020916666667, "type": "electric_scooter", "lon": -77.0120025, "bike_id": "e08135b45412bb244bd1b7dc84162a26", "rental_uris": {"android": "https://dc.lft.to/lastmile_qr_scan", "ios": "https://dc.lft.to/lastmile_qr_scan"}, "name": "e08135b45412bb244bd1b7dc84162a26", "is_reserved": 0}, {"is_disabled": 0, "fusion_lon": 0.0, "fusion_lat": 0.0, "lat": 38.93631116666667, "type": "electric_scooter", "lon": -77.02467366666667, "bike_id": "0dfa1dbea6c869da95ec86bf04b1fe69", "rental_uris": {"android": "https://dc.lft.to/lastmile_qr_scan", "ios": "https://dc.lft.to/lastmile_qr_scan"}, "name": "0dfa1dbea6c869da95ec86bf04b1fe69", "is_reserved": 0}, {"is_disabled": 0, "fusion_lon": 0.0, "fusion_lat": 0.0, "lat": 38.8875725, "type": "electric_bike", "lon": -76.900815, "bike_id": "e27279e42f88f46cf0c7133d486a09c5", "rental_uris": {"android": "https://dc.lft.to/lastmile_qr_scan", "ios": "https://dc.lft.to/lastmile_qr_scan"}, "name": "e27279e42f88f46cf0c7133d486a09c5", "is_reserved": 0}, {"is_disabled": 0, "fusion_lon": 0.0, "fusion_lat": 0.0, "lat": 38.9270555, "type": "electric_scooter", "lon": -77.0233085, "bike_id": "8dcfc0ddc8050a1638bddccf4f76941e", "rental_uris": {"android": "https://dc.lft.to/lastmile_qr_scan", "ios": "https://dc.lft.to/lastmile_qr_scan"}, "name": "8dcfc0ddc8050a1638bddccf4f76941e", "is_reserved": 0}, {"is_disabled": 0, "fusion_lon": 0.0, "fusion_lat": 0.0, "lat": 38.903328, "type": "electric_bike", "lon": -76.97526883333333, "bike_id": "8633e10980048078e81ffb8f9b794369", "rental_uris": {"android": "https://dc.lft.to/lastmile_qr_scan", "ios": "https://dc.lft.to/lastmile_qr_scan"}, "name": "8633e10980048078e81ffb8f9b794369", "is_reserved": 0}, {"is_disabled": 0, "fusion_lon": 0.0, "fusion_lat": 0.0, "lat": 38.97045716666667, "type": "electric_scooter", "lon": -77.03228766666666, "bike_id": "d3a934eed1e0163be2cb87f86135b0ac", "rental_uris": {"android": "https://dc.lft.to/lastmile_qr_scan", "ios": "https://dc.lft.to/lastmile_qr_scan"}, "name": "d3a934eed1e0163be2cb87f86135b0ac", "is_reserved": 0}, {"is_disabled": 0, "fusion_lon": 0.0, "fusion_lat": 0.0, "lat": 38.915574166666666, "type": "electric_scooter", "lon": -77.04008883333333, "bike_id": "8dcbc747b1ada7e222ceeec9de4b4689", "rental_uris": {"android": "https://dc.lft.to/lastmile_qr_scan", "ios": "https://dc.lft.to/lastmile_qr_scan"}, "name": "8dcbc747b1ada7e222ceeec9de4b4689", "is_reserved": 0}, {"is_disabled": 0, "fusion_lon": 0.0, "fusion_lat": 0.0, "lat": 38.93496833333333, "type": "electric_scooter", "lon": -77.027276, "bike_id": "831050d4f266babdd526979e60b59f44", "rental_uris": {"android": "https://dc.lft.to/lastmile_qr_scan", "ios": "https://dc.lft.to/lastmile_qr_scan"}, "name": "831050d4f266babdd526979e60b59f44", "is_reserved": 0}, {"is_disabled": 0, "fusion_lon": 0.0, "fusion_lat": 0.0, "lat": 38.924016, "type": "electric_scooter", "lon": -77.0253935, "bike_id": "d2312c8ff6ad8c2d8cf9339424d3bb74", "rental_uris": {"android": "https://dc.lft.to/lastmile_qr_scan", "ios": "https://dc.lft.to/lastmile_qr_scan"}, "name": "d2312c8ff6ad8c2d8cf9339424d3bb74", "is_reserved": 0}, {"is_disabled": 0, "fusion_lon": 0.0, "fusion_lat": 0.0, "lat": 38.916001666666666, "type": "electric_scooter", "lon": -77.02356633333333, "bike_id": "370b80b889edf6a880b10e1adc953885", "rental_uris": {"android": "https://dc.lft.to/lastmile_qr_scan", "ios": "https://dc.lft.to/lastmile_qr_scan"}, "name": "370b80b889edf6a880b10e1adc953885", "is_reserved": 0}, {"is_disabled": 0, "fusion_lon": 0.0, "fusion_lat": 0.0, "lat": 38.8858065, "type": "electric_scooter", "lon": -77.01227416666667, "bike_id": "985c67c0ddfecbabef970847ed232c21", "rental_uris": {"android": "https://dc.lft.to/lastmile_qr_scan", "ios": "https://dc.lft.to/lastmile_qr_scan"}, "name": "985c67c0ddfecbabef970847ed232c21", "is_reserved": 0}, {"is_disabled": 0, "fusion_lon": 0.0, "fusion_lat": 0.0, "lat": 38.90361983333333, "type": "electric_scooter", "lon": -77.007453, "bike_id": "723e0c2bb6ac989b8d10500b48e6f136", "rental_uris": {"android": "https://dc.lft.to/lastmile_qr_scan", "ios": "https://dc.lft.to/lastmile_qr_scan"}, "name": "723e0c2bb6ac989b8d10500b48e6f136", "is_reserved": 0}, {"is_disabled": 0, "fusion_lon": 0.0, "fusion_lat": 0.0, "lat": 38.92839716666667, "type": "electric_scooter", "lon": -77.033123, "bike_id": "aabc2ff07a7a96a561942740ef8de1a8", "rental_uris": {"android": "https://dc.lft.to/lastmile_qr_scan", "ios": "https://dc.lft.to/lastmile_qr_scan"}, "name": "aabc2ff07a7a96a561942740ef8de1a8", "is_reserved": 0}, {"is_disabled": 0, "fusion_lon": 0.0, "fusion_lat": 0.0, "lat": 38.90446983333333, "type": "electric_scooter", "lon": -77.03457233333333, "bike_id": "bb8a3fded5dbe03a39d42e20972f804a", "rental_uris": {"android": "https://dc.lft.to/lastmile_qr_scan", "ios": "https://dc.lft.to/lastmile_qr_scan"}, "name": "bb8a3fded5dbe03a39d42e20972f804a", "is_reserved": 0}, {"is_disabled": 0, "fusion_lon": 0.0, "fusion_lat": 0.0, "lat": 38.923539, "type": "electric_scooter", "lon": -77.032327, "bike_id": "5e3ea5a87aad38ce9e61757b1fff0859", "rental_uris": {"android": "https://dc.lft.to/lastmile_qr_scan", "ios": "https://dc.lft.to/lastmile_qr_scan"}, "name": "5e3ea5a87aad38ce9e61757b1fff0859", "is_reserved": 0}, {"is_disabled": 0, "fusion_lon": 0.0, "fusion_lat": 0.0, "lat": 38.91420333333333, "type": "electric_scooter", "lon": -77.045062, "bike_id": "76ab60285fbc045924b66e1cd2faed1d", "rental_uris": {"android": "https://dc.lft.to/lastmile_qr_scan", "ios": "https://dc.lft.to/lastmile_qr_scan"}, "name": "76ab60285fbc045924b66e1cd2faed1d", "is_reserved": 0}, {"is_disabled": 0, "fusion_lon": 0.0, "fusion_lat": 0.0, "lat": 38.90473466666667, "type": "electric_scooter", "lon": -77.035786, "bike_id": "d462aaf130c87a38e952344a8ad3886f", "rental_uris": {"android": "https://dc.lft.to/lastmile_qr_scan", "ios": "https://dc.lft.to/lastmile_qr_scan"}, "name": "d462aaf130c87a38e952344a8ad3886f", "is_reserved": 0}, {"is_disabled": 0, "fusion_lon": 0.0, "fusion_lat": 0.0, "lat": 38.94576766666667, "type": "electric_bike", "lon": -76.9877665, "bike_id": "5f72eee1148d778a0178da50e1e06a8a", "rental_uris": {"android": "https://dc.lft.to/lastmile_qr_scan", "ios": "https://dc.lft.to/lastmile_qr_scan"}, "name": "5f72eee1148d778a0178da50e1e06a8a", "is_reserved": 0}, {"is_disabled": 0, "fusion_lon": 0.0, "fusion_lat": 0.0, "lat": 38.904165666666664, "type": "electric_scooter", "lon": -77.02876766666667, "bike_id": "122de3837dad34c7eb668fde0d3e8c17", "rental_uris": {"android": "https://dc.lft.to/lastmile_qr_scan", "ios": "https://dc.lft.to/lastmile_qr_scan"}, "name": "122de3837dad34c7eb668fde0d3e8c17", "is_reserved": 0}, {"is_disabled": 0, "fusion_lon": 0.0, "fusion_lat": 0.0, "lat": 38.930803833333336, "type": "electric_scooter", "lon": -77.03115416666667, "bike_id": "20c1bb87a99360bca08698df6a496b72", "rental_uris": {"android": "https://dc.lft.to/lastmile_qr_scan", "ios": "https://dc.lft.to/lastmile_qr_scan"}, "name": "20c1bb87a99360bca08698df6a496b72", "is_reserved": 0}, {"is_disabled": 0, "fusion_lon": 0.0, "fusion_lat": 0.0, "lat": 38.947517500000004, "type": "electric_scooter", "lon": -77.01795183333333, "bike_id": "e221bd76c4204ee88f6a1bc6b6d9403c", "rental_uris": {"android": "https://dc.lft.to/lastmile_qr_scan", "ios": "https://dc.lft.to/lastmile_qr_scan"}, "name": "e221bd76c4204ee88f6a1bc6b6d9403c", "is_reserved": 0}, {"is_disabled": 0, "fusion_lon": 0.0, "fusion_lat": 0.0, "lat": 38.910465, "type": "electric_scooter", "lon": -77.06458566666667, "bike_id": "e31f5e5b4528254ea1bfb2d6837a7919", "rental_uris": {"android": "https://dc.lft.to/lastmile_qr_scan", "ios": "https://dc.lft.to/lastmile_qr_scan"}, "name": "e31f5e5b4528254ea1bfb2d6837a7919", "is_reserved": 0}, {"is_disabled": 0, "fusion_lon": 0.0, "fusion_lat": 0.0, "lat": 38.908064333333336, "type": "electric_scooter", "lon": -77.00158816666666, "bike_id": "7d3b8ccb8caa44419aad540da4889866", "rental_uris": {"android": "https://dc.lft.to/lastmile_qr_scan", "ios": "https://dc.lft.to/lastmile_qr_scan"}, "name": "7d3b8ccb8caa44419aad540da4889866", "is_reserved": 0}, {"is_disabled": 0, "fusion_lon": 0.0, "fusion_lat": 0.0, "lat": 38.8739695, "type": "electric_scooter", "lon": -77.00199466666666, "bike_id": "fedcd20ac6180935c9d5561b8a7ea752", "rental_uris": {"android": "https://dc.lft.to/lastmile_qr_scan", "ios": "https://dc.lft.to/lastmile_qr_scan"}, "name": "fedcd20ac6180935c9d5561b8a7ea752", "is_reserved": 0}, {"is_disabled": 0, "fusion_lon": 0.0, "fusion_lat": 0.0, "lat": 38.93639816666666, "type": "electric_bike", "lon": -76.954565, "bike_id": "d82df1899b2002a9a3a5467a938a423f", "rental_uris": {"android": "https://dc.lft.to/lastmile_qr_scan", "ios": "https://dc.lft.to/lastmile_qr_scan"}, "name": "d82df1899b2002a9a3a5467a938a423f", "is_reserved": 0}, {"is_disabled": 0, "fusion_lon": 0.0, "fusion_lat": 0.0, "lat": 38.90059866666667, "type": "electric_scooter", "lon": -76.93382266666667, "bike_id": "b0e254ed2ec12432fd2e7039dcaedb05", "rental_uris": {"android": "https://dc.lft.to/lastmile_qr_scan", "ios": "https://dc.lft.to/lastmile_qr_scan"}, "name": "b0e254ed2ec12432fd2e7039dcaedb05", "is_reserved": 0}, {"is_disabled": 0, "fusion_lon": 0.0, "fusion_lat": 0.0, "lat": 38.93132283333333, "type": "electric_scooter", "lon": -77.0572935, "bike_id": "d1c0a42567bb11937c5138a389b3c13a", "rental_uris": {"android": "https://dc.lft.to/lastmile_qr_scan", "ios": "https://dc.lft.to/lastmile_qr_scan"}, "name": "d1c0a42567bb11937c5138a389b3c13a", "is_reserved": 0}, {"is_disabled": 0, "fusion_lon": 0.0, "fusion_lat": 0.0, "lat": 38.89360216666667, "type": "electric_scooter", "lon": -77.03961616666666, "bike_id": "6e96d9603748110f0ba44eca43a9db02", "rental_uris": {"android": "https://dc.lft.to/lastmile_qr_scan", "ios": "https://dc.lft.to/lastmile_qr_scan"}, "name": "6e96d9603748110f0ba44eca43a9db02", "is_reserved": 0}, {"is_disabled": 0, "fusion_lon": 0.0, "fusion_lat": 0.0, "lat": 38.87896216666667, "type": "electric_scooter", "lon": -76.9352535, "bike_id": "fce8dc982e162ef80ac41c0111d2683f", "rental_uris": {"android": "https://dc.lft.to/lastmile_qr_scan", "ios": "https://dc.lft.to/lastmile_qr_scan"}, "name": "fce8dc982e162ef80ac41c0111d2683f", "is_reserved": 0}, {"is_disabled": 0, "fusion_lon": 0.0, "fusion_lat": 0.0, "lat": 38.906832333333334, "type": "electric_scooter", "lon": -77.0269465, "bike_id": "125343b1fc54d2f28c114e4bc18e7011", "rental_uris": {"android": "https://dc.lft.to/lastmile_qr_scan", "ios": "https://dc.lft.to/lastmile_qr_scan"}, "name": "125343b1fc54d2f28c114e4bc18e7011", "is_reserved": 0}, {"is_disabled": 0, "fusion_lon": 0.0, "fusion_lat": 0.0, "lat": 38.974027166666666, "type": "electric_bike", "lon": -77.02495866666666, "bike_id": "729c0c485edafed709fc9df146b76ddf", "rental_uris": {"android": "https://dc.lft.to/lastmile_qr_scan", "ios": "https://dc.lft.to/lastmile_qr_scan"}, "name": "729c0c485edafed709fc9df146b76ddf", "is_reserved": 0}, {"is_disabled": 0, "fusion_lon": 0.0, "fusion_lat": 0.0, "lat": 38.9216345, "type": "electric_scooter", "lon": -77.03383283333334, "bike_id": "440552855c1596fe861b94ee21889ba4", "rental_uris": {"android": "https://dc.lft.to/lastmile_qr_scan", "ios": "https://dc.lft.to/lastmile_qr_scan"}, "name": "440552855c1596fe861b94ee21889ba4", "is_reserved": 0}, {"is_disabled": 0, "fusion_lon": 0.0, "fusion_lat": 0.0, "lat": 38.906187333333335, "type": "electric_scooter", "lon": -77.05152166666667, "bike_id": "ec16754241b9efb52097abfc0981c95c", "rental_uris": {"android": "https://dc.lft.to/lastmile_qr_scan", "ios": "https://dc.lft.to/lastmile_qr_scan"}, "name": "ec16754241b9efb52097abfc0981c95c", "is_reserved": 0}, {"is_disabled": 0, "fusion_lon": 0.0, "fusion_lat": 0.0, "lat": 38.8429435, "type": "electric_scooter", "lon": -76.99945883333334, "bike_id": "81173eea3882befc58e7a86e485a9cf5", "rental_uris": {"android": "https://dc.lft.to/lastmile_qr_scan", "ios": "https://dc.lft.to/lastmile_qr_scan"}, "name": "81173eea3882befc58e7a86e485a9cf5", "is_reserved": 0}, {"is_disabled": 0, "fusion_lon": 0.0, "fusion_lat": 0.0, "lat": 38.9350085, "type": "electric_bike", "lon": -76.949505, "bike_id": "c68d95f53e60e712735ce81b47ee30eb", "rental_uris": {"android": "https://dc.lft.to/lastmile_qr_scan", "ios": "https://dc.lft.to/lastmile_qr_scan"}, "name": "c68d95f53e60e712735ce81b47ee30eb", "is_reserved": 0}, {"is_disabled": 0, "fusion_lon": 0.0, "fusion_lat": 0.0, "lat": 38.908218, "type": "electric_scooter", "lon": -77.033451, "bike_id": "04290f00820a671f30fee6d6aa1bb9b6", "rental_uris": {"android": "https://dc.lft.to/lastmile_qr_scan", "ios": "https://dc.lft.to/lastmile_qr_scan"}, "name": "04290f00820a671f30fee6d6aa1bb9b6", "is_reserved": 0}, {"is_disabled": 0, "fusion_lon": 0.0, "fusion_lat": 0.0, "lat": 38.91568633333333, "type": "electric_scooter", "lon": -77.04167533333333, "bike_id": "903f8209f0c5da239fddb5fe69cca325", "rental_uris": {"android": "https://dc.lft.to/lastmile_qr_scan", "ios": "https://dc.lft.to/lastmile_qr_scan"}, "name": "903f8209f0c5da239fddb5fe69cca325", "is_reserved": 0}, {"is_disabled": 0, "fusion_lon": 0.0, "fusion_lat": 0.0, "lat": 38.8861055, "type": "electric_scooter", "lon": -76.99505766666667, "bike_id": "a2d34558a9a763b604d2e15f89493c30", "rental_uris": {"android": "https://dc.lft.to/lastmile_qr_scan", "ios": "https://dc.lft.to/lastmile_qr_scan"}, "name": "a2d34558a9a763b604d2e15f89493c30", "is_reserved": 0}, {"is_disabled": 0, "fusion_lon": 0.0, "fusion_lat": 0.0, "lat": 38.89760733333333, "type": "electric_scooter", "lon": -77.02851416666667, "bike_id": "09c81525bd94449ccc2d99dd64b24221", "rental_uris": {"android": "https://dc.lft.to/lastmile_qr_scan", "ios": "https://dc.lft.to/lastmile_qr_scan"}, "name": "09c81525bd94449ccc2d99dd64b24221", "is_reserved": 0}, {"is_disabled": 0, "fusion_lon": 0.0, "fusion_lat": 0.0, "lat": 38.838106, "type": "electric_scooter", "lon": -77.00431, "bike_id": "040c96639c00cba388710f331071f62c", "rental_uris": {"android": "https://dc.lft.to/lastmile_qr_scan", "ios": "https://dc.lft.to/lastmile_qr_scan"}, "name": "040c96639c00cba388710f331071f62c", "is_reserved": 0}, {"is_disabled": 0, "fusion_lon": 0.0, "fusion_lat": 0.0, "lat": 38.9063845, "type": "electric_scooter", "lon": -77.03441933333333, "bike_id": "73fdcbca4ae4013f543b4f31b5ebcf95", "rental_uris": {"android": "https://dc.lft.to/lastmile_qr_scan", "ios": "https://dc.lft.to/lastmile_qr_scan"}, "name": "73fdcbca4ae4013f543b4f31b5ebcf95", "is_reserved": 0}, {"is_disabled": 0, "fusion_lon": 0.0, "fusion_lat": 0.0, "lat": 38.9151975, "type": "electric_scooter", "lon": -77.01981366666666, "bike_id": "bcb43446329b4f595f3d967d1bdf8132", "rental_uris": {"android": "https://dc.lft.to/lastmile_qr_scan", "ios": "https://dc.lft.to/lastmile_qr_scan"}, "name": "bcb43446329b4f595f3d967d1bdf8132", "is_reserved": 0}, {"is_disabled": 0, "fusion_lon": 0.0, "fusion_lat": 0.0, "lat": 38.905632, "type": "electric_scooter", "lon": -77.00716983333334, "bike_id": "6cb0801590fef843ec63c88a9c5602a5", "rental_uris": {"android": "https://dc.lft.to/lastmile_qr_scan", "ios": "https://dc.lft.to/lastmile_qr_scan"}, "name": "6cb0801590fef843ec63c88a9c5602a5", "is_reserved": 0}, {"is_disabled": 0, "fusion_lon": 0.0, "fusion_lat": 0.0, "lat": 38.886015, "type": "electric_bike", "lon": -77.00080916666667, "bike_id": "c319939479c8f89eed0f503a011dc0c9", "rental_uris": {"android": "https://dc.lft.to/lastmile_qr_scan", "ios": "https://dc.lft.to/lastmile_qr_scan"}, "name": "c319939479c8f89eed0f503a011dc0c9", "is_reserved": 0}, {"is_disabled": 0, "fusion_lon": 0.0, "fusion_lat": 0.0, "lat": 38.94199066666667, "type": "electric_scooter", "lon": -77.02411816666667, "bike_id": "9584146f116f4d66ae19675ade38275e", "rental_uris": {"android": "https://dc.lft.to/lastmile_qr_scan", "ios": "https://dc.lft.to/lastmile_qr_scan"}, "name": "9584146f116f4d66ae19675ade38275e", "is_reserved": 0}, {"is_disabled": 0, "fusion_lon": 0.0, "fusion_lat": 0.0, "lat": 38.92120166666667, "type": "electric_scooter", "lon": -77.039137, "bike_id": "02b0ba84d06b7624f88c9c8032adfe4e", "rental_uris": {"android": "https://dc.lft.to/lastmile_qr_scan", "ios": "https://dc.lft.to/lastmile_qr_scan"}, "name": "02b0ba84d06b7624f88c9c8032adfe4e", "is_reserved": 0}, {"is_disabled": 0, "fusion_lon": 0.0, "fusion_lat": 0.0, "lat": 38.917276, "type": "electric_scooter", "lon": -76.991775, "bike_id": "7e595f26714afd5c130a9a6cc27870e4", "rental_uris": {"android": "https://dc.lft.to/lastmile_qr_scan", "ios": "https://dc.lft.to/lastmile_qr_scan"}, "name": "7e595f26714afd5c130a9a6cc27870e4", "is_reserved": 0}, {"is_disabled": 0, "fusion_lon": 0.0, "fusion_lat": 0.0, "lat": 38.94803116666667, "type": "electric_bike", "lon": -76.9721275, "bike_id": "f3cdc7691348f483e98609f54fa8cd76", "rental_uris": {"android": "https://dc.lft.to/lastmile_qr_scan", "ios": "https://dc.lft.to/lastmile_qr_scan"}, "name": "f3cdc7691348f483e98609f54fa8cd76", "is_reserved": 0}, {"is_disabled": 0, "fusion_lon": 0.0, "fusion_lat": 0.0, "lat": 38.901610166666664, "type": "electric_scooter", "lon": -76.99381816666667, "bike_id": "7cd1b46133f59f3134cc4c93986c2644", "rental_uris": {"android": "https://dc.lft.to/lastmile_qr_scan", "ios": "https://dc.lft.to/lastmile_qr_scan"}, "name": "7cd1b46133f59f3134cc4c93986c2644", "is_reserved": 0}, {"is_disabled": 0, "fusion_lon": 0.0, "fusion_lat": 0.0, "lat": 38.91198766666667, "type": "electric_scooter", "lon": -76.98476966666666, "bike_id": "ed25212040969e4288e334012891c9be", "rental_uris": {"android": "https://dc.lft.to/lastmile_qr_scan", "ios": "https://dc.lft.to/lastmile_qr_scan"}, "name": "ed25212040969e4288e334012891c9be", "is_reserved": 0}, {"is_disabled": 0, "fusion_lon": 0.0, "fusion_lat": 0.0, "lat": 38.887517833333334, "type": "electric_scooter", "lon": -77.00225166666667, "bike_id": "228f1f6e9c1e0354f8752d569571ee66", "rental_uris": {"android": "https://dc.lft.to/lastmile_qr_scan", "ios": "https://dc.lft.to/lastmile_qr_scan"}, "name": "228f1f6e9c1e0354f8752d569571ee66", "is_reserved": 0}, {"is_disabled": 0, "fusion_lon": 0.0, "fusion_lat": 0.0, "lat": 38.92168983333333, "type": "electric_scooter", "lon": -77.0433275, "bike_id": "7207ae6fef83971a5e86f53ba80a9a03", "rental_uris": {"android": "https://dc.lft.to/lastmile_qr_scan", "ios": "https://dc.lft.to/lastmile_qr_scan"}, "name": "7207ae6fef83971a5e86f53ba80a9a03", "is_reserved": 0}, {"is_disabled": 0, "fusion_lon": 0.0, "fusion_lat": 0.0, "lat": 38.90196983333333, "type": "electric_scooter", "lon": -77.03901666666667, "bike_id": "57fd219d3bdf98cb39d91a7f8cfa6fd2", "rental_uris": {"android": "https://dc.lft.to/lastmile_qr_scan", "ios": "https://dc.lft.to/lastmile_qr_scan"}, "name": "57fd219d3bdf98cb39d91a7f8cfa6fd2", "is_reserved": 0}, {"is_disabled": 0, "fusion_lon": 0.0, "fusion_lat": 0.0, "lat": 38.880039333333336, "type": "electric_scooter", "lon": -77.00575233333333, "bike_id": "786c93a18b360367eefbd474f91ffeb8", "rental_uris": {"android": "https://dc.lft.to/lastmile_qr_scan", "ios": "https://dc.lft.to/lastmile_qr_scan"}, "name": "786c93a18b360367eefbd474f91ffeb8", "is_reserved": 0}, {"is_disabled": 0, "fusion_lon": 0.0, "fusion_lat": 0.0, "lat": 38.926963, "type": "electric_scooter", "lon": -77.0227635, "bike_id": "849cf4c8597b217827fe8194dceb5e7f", "rental_uris": {"android": "https://dc.lft.to/lastmile_qr_scan", "ios": "https://dc.lft.to/lastmile_qr_scan"}, "name": "849cf4c8597b217827fe8194dceb5e7f", "is_reserved": 0}, {"is_disabled": 0, "fusion_lon": 0.0, "fusion_lat": 0.0, "lat": 38.8856795, "type": "electric_scooter", "lon": -77.00069716666667, "bike_id": "12317613ba230cc52dad3d041cfe9366", "rental_uris": {"android": "https://dc.lft.to/lastmile_qr_scan", "ios": "https://dc.lft.to/lastmile_qr_scan"}, "name": "12317613ba230cc52dad3d041cfe9366", "is_reserved": 0}, {"is_disabled": 0, "fusion_lon": 0.0, "fusion_lat": 0.0, "lat": 38.97047166666667, "type": "electric_bike", "lon": -76.9607825, "bike_id": "179bad3fb8882d69389f3c483564b72f", "rental_uris": {"android": "https://dc.lft.to/lastmile_qr_scan", "ios": "https://dc.lft.to/lastmile_qr_scan"}, "name": "179bad3fb8882d69389f3c483564b72f", "is_reserved": 0}, {"is_disabled": 0, "fusion_lon": 0.0, "fusion_lat": 0.0, "lat": 38.935956833333336, "type": "electric_scooter", "lon": -77.08309466666667, "bike_id": "2ce1cd051a9d7436d656d7a212b3c4e4", "rental_uris": {"android": "https://dc.lft.to/lastmile_qr_scan", "ios": "https://dc.lft.to/lastmile_qr_scan"}, "name": "2ce1cd051a9d7436d656d7a212b3c4e4", "is_reserved": 0}, {"is_disabled": 0, "fusion_lon": 0.0, "fusion_lat": 0.0, "lat": 38.87572216666667, "type": "electric_scooter", "lon": -77.020898, "bike_id": "88048d592c678125cd4d3dee6a0992fe", "rental_uris": {"android": "https://dc.lft.to/lastmile_qr_scan", "ios": "https://dc.lft.to/lastmile_qr_scan"}, "name": "88048d592c678125cd4d3dee6a0992fe", "is_reserved": 0}, {"is_disabled": 0, "fusion_lon": 0.0, "fusion_lat": 0.0, "lat": 38.903576, "type": "electric_scooter", "lon": -77.01097966666667, "bike_id": "581c4140481db93f9a0f80eba92375ea", "rental_uris": {"android": "https://dc.lft.to/lastmile_qr_scan", "ios": "https://dc.lft.to/lastmile_qr_scan"}, "name": "581c4140481db93f9a0f80eba92375ea", "is_reserved": 0},