{"data": {"bikes": [{"lon": -77.0198, "name": "220cbe7d6f6f9999aa860ad317902486", "lat": 38.89529783333333, "fusion_lon": 0.0, "rental_uris": {"ios": "https://dc.lft.to/lastmile_qr_scan", "android": "https://dc.lft.to/lastmile_qr_scan"}, "bike_id": "220cbe7d6f6f9999aa860ad317902486", "type": "electric_scooter", "fusion_lat": 0.0, "is_disabled": 0, "is_reserved": 0}, {"lon": -77.04144983333333, "name": "f85989b0a0f63890e5a89f9b3b2a3a7f", "lat": 38.92295133333333, "fusion_lon": 0.0, "rental_uris": {"ios": "https://dc.lft.to/lastmile_qr_scan", "android": "https://dc.lft.to/lastmile_qr_scan"}, "bike_id": "f85989b0a0f63890e5a89f9b3b2a3a7f", "type": "electric_scooter", "fusion_lat": 0.0, "is_disabled": 0, "is_reserved": 0}, {"lon": -77.038475, "name": "690b0af8011231b38407fd6fc8e84302", "lat": 38.9155035, "fusion_lon": 0.0, "rental_uris": {"ios": "https://dc.lft.to/lastmile_qr_scan", "android": "https://dc.lft.to/lastmile_qr_scan"}, "bike_id": "690b0af8011231b38407fd6fc8e84302", "type": "electric_scooter", "fusion_lat": 0.0, "is_disabled": 0, "is_reserved": 0}, {"lon": -77.0334, "name": "8900e8b80ef6bf939265de5c035617d8", "lat": 38.898797, "fusion_lon": 0.0, "rental_uris": {"ios": "https://dc.lft.to/lastmile_qr_scan", "android": "https://dc.lft.to/lastmile_qr_scan"}, "bike_id": "8900e8b80ef6bf939265de5c035617d8", "type": "electric_scooter", "fusion_lat": 0.0, "is_disabled": 0, "is_reserved": 0}, {"lon": -77.06145416666666, "name": "9e8e20239d4cf96eb1babacb34247825", "lat": 38.93356683333333, "fusion_lon": 0.0, "rental_uris": {"ios": "https://dc.lft.to/lastmile_qr_scan", "android": "https://dc.lft.to/lastmile_qr_scan"}, "bike_id": "9e8e20239d4cf96eb1babacb34247825", "type": "electric_scooter", "fusion_lat": 0.0, "is_disabled": 0, "is_reserved": 0}, {"lon": -77.12889933333334, "name": "c6f35180c7e810a06aed959fd935161c", "lat": 38.906099833333336, "fusion_lon": 0.0, "rental_uris": {"ios": "https://dc.lft.to/lastmile_qr_scan", "android": "https://dc.lft.to/lastmile_qr_scan"}, "bike_id": "c6f35180c7e810a06aed959fd935161c", "type": "electric_bike", "fusion_lat": 0.0, "is_disabled": 0, "is_reserved": 0}, {"lon": -76.97068833333333, "name": "e10134001c6ae844b156f0dc90a76892", "lat": 38.92057033333333, "fusion_lon": 0.0, "rental_uris": {"ios": "https://dc.lft.to/lastmile_qr_scan", "android": "https://dc.lft.to/lastmile_qr_scan"}, "bike_id": "e10134001c6ae844b156f0dc90a76892", "type": "electric_bike", "fusion_lat": 0.0, "is_disabled": 0, "is_reserved": 0}, {"lon": -77.0135695, "name": "19e4c4851776f98be70ca2f66f9a56a2", "lat": 38.895764, "fusion_lon": 0.0, "rental_uris": {"ios": "https://dc.lft.to/lastmile_qr_scan", "android": "https://dc.lft.to/lastmile_qr_scan"}, "bike_id": "19e4c4851776f98be70ca2f66f9a56a2", "type": "electric_scooter", "fusion_lat": 0.0, "is_disabled": 0, "is_reserved": 0}, {"lon": -77.03265266666666, "name": "312ae03382b839dbeea961450843f6c2", "lat": 38.93523783333333, "fusion_lon": 0.0, "rental_uris": {"ios": "https://dc.lft.to/lastmile_qr_scan", "android": "https://dc.lft.to/lastmile_qr_scan"}, "bike_id": "312ae03382b839dbeea961450843f6c2", "type": "electric_scooter", "fusion_lat": 0.0, "is_disabled": 0, "is_reserved": 0}, {"lon": -77.02421166666667, "name": "beee2b3f29dc16b9a999acd962c5fafd", "lat": 38.8921885, "fusion_lon": 0.0, "rental_uris": {"ios": "https://dc.lft.to/lastmile_qr_scan", "android": "https://dc.lft.to/lastmile_qr_scan"}, "bike_id": "beee2b3f29dc16b9a999acd962c5fafd", "type": "electric_scooter", "fusion_lat": 0.0, "is_disabled": 0, "is_reserved": 0}, {"lon": -76.995169, "name": "1d0c3ce82c82aafd04066dcd484ea1f9", "lat": 38.8948385, "fusion_lon": 0.0, "rental_uris": {"ios": "https://dc.lft.to/lastmile_qr_scan", "android": "https://dc.lft.to/lastmile_qr_scan"}, "bike_id": "1d0c3ce82c82aafd04066dcd484ea1f9", "type": "electric_scooter", "fusion_lat": 0.0, "is_disabled": 0, "is_reserved": 0}, {"lon": -77.0033615, "name": "dbbad29e3cc73e33476f50305aaa185d", "lat": 38.895033166666664, "fusion_lon": 0.0, "rental_uris": {"ios": "https://dc.lft.to/lastmile_qr_scan", "android": "https://dc.lft.to/lastmile_qr_scan"}, "bike_id": "dbbad29e3cc73e33476f50305aaa185d", "type": "electric_scooter", "fusion_lat": 0.0, "is_disabled": 0, "is_reserved": 0}, {"lon": -77.029818, "name": "c783a5270abf82d73e9c2b11598f7560", "lat": 38.93444566666667, "fusion_lon": 0.0, "rental_uris": {"ios": "https://dc.lft.to/lastmile_qr_scan", "android": "https://dc.lft.to/lastmile_qr_scan"}, "bike_id": "c783a5270abf82d73e9c2b11598f7560", "type": "electric_scooter", "fusion_lat": 0.0, "is_disabled": 0, "is_reserved": 0}, {"lon": -77.062956, "name": "2aa9ccb8fb4375f6e2d0f568579d245e", "lat": 38.90395633333333, "fusion_lon": 0.0, "rental_uris": {"ios": "https://dc.lft.to/lastmile_qr_scan", "android": "https://dc.lft.to/lastmile_qr_scan"}, "bike_id": "2aa9ccb8fb4375f6e2d0f568579d245e", "type": "electric_scooter", "fusion_lat": 0.0, "is_disabled": 0, "is_reserved": 0}, {"lon": -77.03259966666667, "name": "09a0d926466da5e09d483c911f91aa87", "lat": 38.897296, "fusion_lon": 0.0, "rental_uris": {"ios": "https://dc.lft.to/lastmile_qr_scan", "android": "https://dc.lft.to/lastmile_qr_scan"}, "bike_id": "09a0d926466da5e09d483c911f91aa87", "type": "electric_scooter", "fusion_lat": 0.0, "is_disabled": 0, "is_reserved": 0}, {"lon": -77.02033833333333, "name": "ff5612e6c7b85263be6baa018f59411b", "lat": 38.92421983333333, "fusion_lon": 0.0, "rental_uris": {"ios": "https://dc.lft.to/lastmile_qr_scan", "android": "https://dc.lft.to/lastmile_qr_scan"}, "bike_id": "ff5612e6c7b85263be6baa018f59411b", "type": "electric_scooter", "fusion_lat": 0.0, "is_disabled": 0, "is_reserved": 0}, {"lon": -77.02744416666667, "name": "5baf416c6d688648fb48505981a75721", "lat": 38.892196, "fusion_lon": 0.0, "rental_uris": {"ios": "https://dc.lft.to/lastmile_qr_scan", "android": "https://dc.lft.to/lastmile_qr_scan"}, "bike_id": "5baf416c6d688648fb48505981a75721", "type": "electric_scooter", "fusion_lat": 0.0, "is_disabled": 0, "is_reserved": 0}, {"lon": -77.04440483333333, "name": "fcc372d9b35509c948cf5841e120af55", "lat": 38.9013215, "fusion_lon": 0.0, "rental_uris": {"ios": "https://dc.lft.to/lastmile_qr_scan", "android": "https://dc.lft.to/lastmile_qr_scan"}, "bike_id": "fcc372d9b35509c948cf5841e120af55", "type": "electric_scooter", "fusion_lat": 0.0, "is_disabled": 0, "is_reserved": 0}, {"lon": -77.02747916666667, "name": "36b40c58ed8007d7d3bc996c11d39fa1", "lat": 38.89610066666667, "fusion_lon": 0.0, "rental_uris": {"ios": "https://dc.lft.to/lastmile_qr_scan", "android": "https://dc.lft.to/lastmile_qr_scan"}, "bike_id": "36b40c58ed8007d7d3bc996c11d39fa1", "type": "electric_scooter", "fusion_lat": 0.0, "is_disabled": 0, "is_reserved": 0}, {"lon": -77.01579316666667, "name": "1d21ab3d797074242f4243c4c82afb7d", "lat": 38.951050333333335, "fusion_lon": 0.0, "rental_uris": {"ios": "https://dc.lft.to/lastmile_qr_scan", "android": "https://dc.lft.to/lastmile_qr_scan"}, "bike_id": "1d21ab3d797074242f4243c4c82afb7d", "type": "electric_scooter", "fusion_lat": 0.0, "is_disabled": 0, "is_reserved": 0}, {"lon": -77.03398783333333, "name": "1455fd5e27d1ac41d5282aab38d7e33c", "lat": 38.924362, "fusion_lon": 0.0, "rental_uris": {"ios": "https://dc.lft.to/lastmile_qr_scan", "android": "https://dc.lft.to/lastmile_qr_scan"}, "bike_id": "1455fd5e27d1ac41d5282aab38d7e33c", "type": "electric_scooter", "fusion_lat": 0.0, "is_disabled": 0, "is_reserved": 0}, {"lon": -77.00224633333333, "name": "6ec587499431bf94f33a0cd9fa862bb9", "lat": 38.908336166666665, "fusion_lon": 0.0, "rental_uris": {"ios": "https://dc.lft.to/lastmile_qr_scan", "android": "https://dc.lft.to/lastmile_qr_scan"}, "bike_id": "6ec587499431bf94f33a0cd9fa862bb9", "type": "electric_scooter", "fusion_lat": 0.0, "is_disabled": 0, "is_reserved": 0}, {"lon": -77.03869, "name": "9567dc6e9342a0ce14570d19bc3abc8c", "lat": 38.902856166666666, "fusion_lon": 0.0, "rental_uris": {"ios": "https://dc.lft.to/lastmile_qr_scan", "android": "https://dc.lft.to/lastmile_qr_scan"}, "bike_id": "9567dc6e9342a0ce14570d19bc3abc8c", "type": "electric_scooter", "fusion_lat": 0.0, "is_disabled": 0, "is_reserved": 0}, {"lon": -77.0144185, "name": "ef88f5d5fa73cefad810822310027635", "lat": 38.88615883333333, "fusion_lon": 0.0, "rental_uris": {"ios": "https://dc.lft.to/lastmile_qr_scan", "android": "https://dc.lft.to/lastmile_qr_scan"}, "bike_id": "ef88f5d5fa73cefad810822310027635", "type": "electric_scooter", "fusion_lat": 0.0, "is_disabled": 0, "is_reserved": 0}, {"lon": -77.00949333333334, "name": "a16f72bca91c8139bd00692adf6cc2ab", "lat": 38.91475833333333, "fusion_lon": 0.0, "rental_uris": {"ios": "https://dc.lft.to/lastmile_qr_scan", "android": "https://dc.lft.to/lastmile_qr_scan"}, "bike_id": "a16f72bca91c8139bd00692adf6cc2ab", "type": "electric_scooter", "fusion_lat": 0.0, "is_disabled": 0, "is_reserved": 0}, {"lon": -76.995106, "name": "8e54437474acf051254550a752e19957", "lat": 38.883906833333334, "fusion_lon": 0.0, "rental_uris": {"ios": "https://dc.lft.to/lastmile_qr_scan", "android": "https://dc.lft.to/lastmile_qr_scan"}, "bike_id": "8e54437474acf051254550a752e19957", "type": "electric_scooter", "fusion_lat": 0.0, "is_disabled": 0, "is_reserved": 0}, {"lon": -77.0347425, "name": "1f98801d4c95c416f9f981c73723a955", "lat": 38.905689333333335, "fusion_lon": 0.0, "rental_uris": {"ios": "https://dc.lft.to/lastmile_qr_scan", "android": "https://dc.lft.to/lastmile_qr_scan"}, "bike_id": "1f98801d4c95c416f9f981c73723a955", "type": "electric_scooter", "fusion_lat": 0.0, "is_disabled": 0, "is_reserved": 0}, {"lon": -77.00058716666666, "name": "10742afcb4b1f9e00711cc5742743d05", "lat": 38.876084166666665, "fusion_lon": 0.0, "rental_uris": {"ios": "https://dc.lft.to/lastmile_qr_scan", "android": "https://dc.lft.to/lastmile_qr_scan"}, "bike_id": "10742afcb4b1f9e00711cc5742743d05", "type": "electric_scooter", "fusion_lat": 0.0, "is_disabled": 0, "is_reserved": 0}, {"lon": -77.03287516666667, "name": "47d5633213a0617835784e0cfb126157", "lat": 38.932543, "fusion_lon": 0.0, "rental_uris": {"ios": "https://dc.lft.to/lastmile_qr_scan", "android": "https://dc.lft.to/lastmile_qr_scan"}, "bike_id": "47d5633213a0617835784e0cfb126157", "type": "electric_scooter", "fusion_lat": 0.0, "is_disabled": 0, "is_reserved": 0}, {"lon": -77.04066883333333, "name": "b3826f6cd0adab80c95a0230fc3ce34c", "lat": 38.905686, "fusion_lon": 0.0, "rental_uris": {"ios": "https://dc.lft.to/lastmile_qr_scan", "android": "https://dc.lft.to/lastmile_qr_scan"}, "bike_id": "b3826f6cd0adab80c95a0230fc3ce34c", "type": "electric_scooter", "fusion_lat": 0.0, "is_disabled": 0, "is_reserved": 0}, {"lon": -77.04763916666667, "name": "f1873349d8dd5db197169a33c294a0cb", "lat": 38.89894916666667, "fusion_lon": 0.0, "rental_uris": {"ios": "https://dc.lft.to/lastmile_qr_scan", "android": "https://dc.lft.to/lastmile_qr_scan"}, "bike_id": "f1873349d8dd5db197169a33c294a0cb", "type": "electric_scooter", "fusion_lat": 0.0, "is_disabled": 0, "is_reserved": 0}, {"lon": -77.02605066666666, "name": "8b32846d5a24e993d6ebff2183ed2f27", "lat": 38.903918833333336, "fusion_lon": 0.0, "rental_uris": {"ios": "https://dc.lft.to/lastmile_qr_scan", "android": "https://dc.lft.to/lastmile_qr_scan"}, "bike_id": "8b32846d5a24e993d6ebff2183ed2f27", "type": "electric_scooter", "fusion_lat": 0.0, "is_disabled": 0, "is_reserved": 0}, {"lon": -77.02970183333333, "name": "b706dee55b9bb528ae397f7a0fb18946", "lat": 38.899005333333335, "fusion_lon": 0.0, "rental_uris": {"ios": "https://dc.lft.to/lastmile_qr_scan", "android": "https://dc.lft.to/lastmile_qr_scan"}, "bike_id": "b706dee55b9bb528ae397f7a0fb18946", "type": "electric_scooter", "fusion_lat": 0.0, "is_disabled": 0, "is_reserved": 0}, {"lon": -77.03790533333333, "name": "5afc613ac851249181254ace1c6ea328", "lat": 38.924861166666666, "fusion_lon": 0.0, "rental_uris": {"ios": "https://dc.lft.to/lastmile_qr_scan", "android": "https://dc.lft.to/lastmile_qr_scan"}, "bike_id": "5afc613ac851249181254ace1c6ea328", "type": "electric_scooter", "fusion_lat": 0.0, "is_disabled": 0, "is_reserved": 0}, {"lon": -76.95143983333334, "name": "dfff8b12da001c931bb58d3680f48ebe", "lat": 39.0843015, "fusion_lon": 0.0, "rental_uris": {"ios": "https://dc.lft.to/lastmile_qr_scan", "android": "https://dc.lft.to/lastmile_qr_scan"}, "bike_id": "dfff8b12da001c931bb58d3680f48ebe", "type": "electric_bike", "fusion_lat": 0.0, "is_disabled": 0, "is_reserved": 0}, {"lon": -77.02216616666666, "name": "a3a5457dae565941b7c8b8f649a2ca97", "lat": 38.924686333333334, "fusion_lon": 0.0, "rental_uris": {"ios": "https://dc.lft.to/lastmile_qr_scan", "android": "https://dc.lft.to/lastmile_qr_scan"}, "bike_id": "a3a5457dae565941b7c8b8f649a2ca97", "type": "electric_scooter", "fusion_lat": 0.0, "is_disabled": 0, "is_reserved": 0}, {"lon": -77.02686283333334, "name": "cbbf2b816265d652fde0d54965e059b7", "lat": 38.8972675, "fusion_lon": 0.0, "rental_uris": {"ios": "https://dc.lft.to/lastmile_qr_scan", "android": "https://dc.lft.to/lastmile_qr_scan"}, "bike_id": "cbbf2b816265d652fde0d54965e059b7", "type": "electric_scooter", "fusion_lat": 0.0, "is_disabled": 0, "is_reserved": 0}, {"lon": -76.93673916666667, "name": "b7c4496718fe483835fa213e6e6d1db5", "lat": 38.88660516666667, "fusion_lon": 0.0, "rental_uris": {"ios": "https://dc.lft.to/lastmile_qr_scan", "android": "https://dc.lft.to/lastmile_qr_scan"}, "bike_id": "b7c4496718fe483835fa213e6e6d1db5", "type": "electric_scooter", "fusion_lat": 0.0, "is_disabled": 0, "is_reserved": 0}, {"lon": -77.35971483333333, "name": "41eca739e3942834cfe681ddf87323f8", "lat": 38.95705183333333, "fusion_lon": 0.0, "rental_uris": {"ios": "https://dc.lft.to/lastmile_qr_scan", "android": "https://dc.lft.to/lastmile_qr_scan"}, "bike_id": "41eca739e3942834cfe681ddf87323f8", "type": "electric_bike", "fusion_lat": 0.0, "is_disabled": 0, "is_reserved": 0}, {"lon": -77.02156983333333, "name": "7556471e3782358c8e2ecb0e44f08353", "lat": 38.92609733333333, "fusion_lon": 0.0, "rental_uris": {"ios": "https://dc.lft.to/lastmile_qr_scan", "android": "https://dc.lft.to/lastmile_qr_scan"}, "bike_id": "7556471e3782358c8e2ecb0e44f08353", "type": "electric_scooter", "fusion_lat": 0.0, "is_disabled": 0, "is_reserved": 0}, {"lon": -77.00896466666667, "name": "6d246984b01ccad4b7a540c171037dc8", "lat": 38.90144216666667, "fusion_lon": 0.0, "rental_uris": {"ios": "https://dc.lft.to/lastmile_qr_scan", "android": "https://dc.lft.to/lastmile_qr_scan"}, "bike_id": "6d246984b01ccad4b7a540c171037dc8", "type": "electric_scooter", "fusion_lat": 0.0, "is_disabled": 0, "is_reserved": 0}, {"lon": -77.03834216666667, "name": "40768aeb13dd502a62b4ca2b7866fa75", "lat": 38.9042005, "fusion_lon": 0.0, "rental_uris": {"ios": "https://dc.lft.to/lastmile_qr_scan", "android": "https://dc.lft.to/lastmile_qr_scan"}, "bike_id": "40768aeb13dd502a62b4ca2b7866fa75", "type": "electric_scooter", "fusion_lat": 0.0, "is_disabled": 0, "is_reserved": 0}, {"lon": -76.9779405, "name": "89abbe6512f87bf1d18559330ef285e8", "lat": 38.906138166666665, "fusion_lon": 0.0, "rental_uris": {"ios": "https://dc.lft.to/lastmile_qr_scan", "android": "https://dc.lft.to/lastmile_qr_scan"}, "bike_id": "89abbe6512f87bf1d18559330ef285e8", "type": "electric_scooter", "fusion_lat": 0.0, "is_disabled": 0, "is_reserved": 0}, {"lon": -76.98066733333333, "name": "fa2c0635258c216478035a862cf0c2c3", "lat": 38.901722666666664, "fusion_lon": 0.0, "rental_uris": {"ios": "https://dc.lft.to/lastmile_qr_scan", "android": "https://dc.lft.to/lastmile_qr_scan"}, "bike_id": "fa2c0635258c216478035a862cf0c2c3", "type": "electric_scooter", "fusion_lat": 0.0, "is_disabled": 0, "is_reserved": 0}, {"lon": -77.04192533333334, "name": "fcf8890337a7c119c877af341454cd23", "lat": 38.903728666666666, "fusion_lon": 0.0, "rental_uris": {"ios": "https://dc.lft.to/lastmile_qr_scan", "android": "https://dc.lft.to/lastmile_qr_scan"}, "bike_id": "fcf8890337a7c119c877af341454cd23", "type": "electric_scooter", "fusion_lat": 0.0, "is_disabled": 0, "is_reserved": 0}, {"lon": -76.93043716666666, "name": "4f4a56f76be67e51f8e7a7c2a03ab789", "lat": 38.8838645, "fusion_lon": 0.0, "rental_uris": {"ios": "https://dc.lft.to/lastmile_qr_scan", "android": "https://dc.lft.to/lastmile_qr_scan"}, "bike_id": "4f4a56f76be67e51f8e7a7c2a03ab789", "type": "electric_scooter", "fusion_lat": 0.0, "is_disabled": 0, "is_reserved": 0}, {"lon": -77.02136033333333, "name": "2630ab8b78c59151a216f9821ff0af46", "lat": 38.92451666666667, "fusion_lon": 0.0, "rental_uris": {"ios": "https://dc.lft.to/lastmile_qr_scan", "android": "https://dc.lft.to/lastmile_qr_scan"}, "bike_id": "2630ab8b78c59151a216f9821ff0af46", "type": "electric_scooter", "fusion_lat": 0.0, "is_disabled": 0, "is_reserved": 0}, {"lon": -77.0282735, "name": "ee5322af8b98aadddb8608390e1028cd", "lat": 38.922337166666665, "fusion_lon": 0.0, "rental_uris": {"ios": "https://dc.lft.to/lastmile_qr_scan", "android": "https://dc.lft.to/lastmile_qr_scan"}, "bike_id": "ee5322af8b98aadddb8608390e1028cd", "type": "electric_scooter", "fusion_lat": 0.0, "is_disabled": 0, "is_reserved": 0}, {"lon": -76.93727566666666, "name": "360b45cf0203354f2d413ac208351064", "lat": 38.890266, "fusion_lon": 0.0, "rental_uris": {"ios": "https://dc.lft.to/lastmile_qr_scan", "android": "https://dc.lft.to/lastmile_qr_scan"}, "bike_id": "360b45cf0203354f2d413ac208351064", "type": "electric_scooter", "fusion_lat": 0.0, "is_disabled": 0, "is_reserved": 0}, {"lon": -76.93730466666666, "name": "f29585dcb06a19170e7123a79596e510", "lat": 38.890255, "fusion_lon": 0.0, "rental_uris": {"ios": "https://dc.lft.to/lastmile_qr_scan", "android": "https://dc.lft.to/lastmile_qr_scan"}, "bike_id": "f29585dcb06a19170e7123a79596e510", "type": "electric_scooter", "fusion_lat": 0.0, "is_disabled": 0, "is_reserved": 0}, {"lon": -77.04451466666667, "name": "56704c5926023fa1128ef691f7d8ece2", "lat": 38.915442166666665, "fusion_lon": 0.0, "rental_uris": {"ios": "https://dc.lft.to/lastmile_qr_scan", "android": "https://dc.lft.to/lastmile_qr_scan"}, "bike_id": "56704c5926023fa1128ef691f7d8ece2", "type": "electric_scooter", "fusion_lat": 0.0, "is_disabled": 0, "is_reserved": 0}, {"lon": -77.019076, "name": "e4c3141a79b85d81187b774e7d76115e", "lat": 38.896107666666666, "fusion_lon": 0.0, "rental_uris": {"ios": "https://dc.lft.to/lastmile_qr_scan", "android": "https://dc.lft.to/lastmile_qr_scan"}, "bike_id": "e4c3141a79b85d81187b774e7d76115e", "type": "electric_scooter", "fusion_lat": 0.0, "is_disabled": 0, "is_reserved": 0}, {"lon": -77.02281016666667, "name": "603f2306681d208825a9e841b1739d5c", "lat": 38.925119, "fusion_lon": 0.0, "rental_uris": {"ios": "https://dc.lft.to/lastmile_qr_scan", "android": "https://dc.lft.to/lastmile_qr_scan"}, "bike_id": "603f2306681d208825a9e841b1739d5c", "type": "electric_scooter", "fusion_lat": 0.0, "is_disabled": 0, "is_reserved": 0}, {"lon": -77.02370916666666, "name": "9875343e33adf288ca7058a6e14d85ba", "lat": 38.89218566666667, "fusion_lon": 0.0, "rental_uris": {"ios": "https://dc.lft.to/lastmile_qr_scan", "android": "https://dc.lft.to/lastmile_qr_scan"}, "bike_id": "9875343e33adf288ca7058a6e14d85ba", "type": "electric_scooter", "fusion_lat": 0.0, "is_disabled": 0, "is_reserved": 0}, {"lon": -77.0256255, "name": "fe8b6d57aaea59e1edf2cdaeb17ecc89", "lat": 38.8848645, "fusion_lon": 0.0, "rental_uris": {"ios": "https://dc.lft.to/lastmile_qr_scan", "android": "https://dc.lft.to/lastmile_qr_scan"}, "bike_id": "fe8b6d57aaea59e1edf2cdaeb17ecc89", "type": "electric_scooter", "fusion_lat": 0.0, "is_disabled": 0, "is_reserved": 0}, {"lon": -77.03181, "name": "8f1f6fb5489aad9232c3086e765c7c3a", "lat": 38.894091833333334, "fusion_lon": 0.0, "rental_uris": {"ios": "https://dc.lft.to/lastmile_qr_scan", "android": "https://dc.lft.to/lastmile_qr_scan"}, "bike_id": "8f1f6fb5489aad9232c3086e765c7c3a", "type": "electric_scooter", "fusion_lat": 0.0, "is_disabled": 0, "is_reserved": 0}, {"lon": -77.03356716666667, "name": "58d141d719d1b9bf43acf31e31365362", "lat": 38.92240966666667, "fusion_lon": 0.0, "rental_uris": {"ios": "https://dc.lft.to/lastmile_qr_scan", "android": "https://dc.lft.to/lastmile_qr_scan"}, "bike_id": "58d141d719d1b9bf43acf31e31365362", "type": "electric_scooter", "fusion_lat": 0.0, "is_disabled": 0, "is_reserved": 0}, {"lon": -77.015, "name": "8b09a08298e4fc89519c67b59c7a97f7", "lat": 38.926877166666664, "fusion_lon": 0.0, "rental_uris": {"ios": "https://dc.lft.to/lastmile_qr_scan", "android": "https://dc.lft.to/lastmile_qr_scan"}, "bike_id": "8b09a08298e4fc89519c67b59c7a97f7", "type": "electric_scooter", "fusion_lat": 0.0, "is_disabled": 0, "is_reserved": 0}, {"lon": -77.02269866666667, "name": "52c76733facaeba6d758f1586d9c840f", "lat": 38.92485816666667, "fusion_lon": 0.0, "rental_uris": {"ios": "https://dc.lft.to/lastmile_qr_scan", "android": "https://dc.lft.to/lastmile_qr_scan"}, "bike_id": "52c76733facaeba6d758f1586d9c840f", "type": "electric_scooter", "fusion_lat": 0.0, "is_disabled": 0, "is_reserved": 0}, {"lon": -76.923359, "name": "69eecbdd3a5b9f71c8a2a534b471c11f", "lat": 38.910378333333334, "fusion_lon": 0.0, "rental_uris": {"ios": "https://dc.lft.to/lastmile_qr_scan", "android": "https://dc.lft.to/lastmile_qr_scan"}, "bike_id": "69eecbdd3a5b9f71c8a2a534b471c11f", "type": "electric_bike", "fusion_lat": 0.0, "is_disabled": 0, "is_reserved": 0}, {"lon": -77.0215765, "name": "ca381032f545ecf9cff38a2ae3cc2031", "lat": 38.926046, "fusion_lon": 0.0, "rental_uris": {"ios": "https://dc.lft.to/lastmile_qr_scan", "android": "https://dc.lft.to/lastmile_qr_scan"}, "bike_id": "ca381032f545ecf9cff38a2ae3cc2031", "type": "electric_scooter", "fusion_lat": 0.0, "is_disabled": 0, "is_reserved": 0}, {"lon": -77.01391116666667, "name": "d1171839cee56cb7df389b5b69c144d2", "lat": 38.92854533333333, "fusion_lon": 0.0, "rental_uris": {"ios": "https://dc.lft.to/lastmile_qr_scan", "android": "https://dc.lft.to/lastmile_qr_scan"}, "bike_id": "d1171839cee56cb7df389b5b69c144d2", "type": "electric_scooter", "fusion_lat": 0.0, "is_disabled": 0, "is_reserved": 0}, {"lon": -76.99618583333333, "name": "6e42c20e8f837005eb4f88c11ca7e99a", "lat": 38.900578333333335, "fusion_lon": 0.0, "rental_uris": {"ios": "https://dc.lft.to/lastmile_qr_scan", "android": "https://dc.lft.to/lastmile_qr_scan"}, "bike_id": "6e42c20e8f837005eb4f88c11ca7e99a", "type": "electric_scooter", "fusion_lat": 0.0, "is_disabled": 0, "is_reserved": 0}, {"lon": -77.02480433333334, "name": "7a4912052fd4b96ed4112de9520bbe69", "lat": 38.917379833333335, "fusion_lon": 0.0, "rental_uris": {"ios": "https://dc.lft.to/lastmile_qr_scan", "android": "https://dc.lft.to/lastmile_qr_scan"}, "bike_id": "7a4912052fd4b96ed4112de9520bbe69", "type": "electric_scooter", "fusion_lat": 0.0, "is_disabled": 0, "is_reserved": 0}, {"lon": -77.02016583333334, "name": "b2c0742411806aab8f4ff18607fc853d", "lat": 38.894744, "fusion_lon": 0.0, "rental_uris": {"ios": "https://dc.lft.to/lastmile_qr_scan", "android": "https://dc.lft.to/lastmile_qr_scan"}, "bike_id": "b2c0742411806aab8f4ff18607fc853d", "type": "electric_scooter", "fusion_lat": 0.0, "is_disabled": 0, "is_reserved": 0}, {"lon": -77.02262883333333, "name": "b59be1c8ab8ad902a44182b1bd142941", "lat": 38.922383333333336, "fusion_lon": 0.0, "rental_uris": {"ios": "https://dc.lft.to/lastmile_qr_scan", "android": "https://dc.lft.to/lastmile_qr_scan"}, "bike_id": "b59be1c8ab8ad902a44182b1bd142941", "type": "electric_scooter", "fusion_lat": 0.0, "is_disabled": 0, "is_reserved": 0}, {"lon": -77.018605, "name": "5d8822f82defe4fcf8da3c09df0561d3", "lat": 38.94919016666667, "fusion_lon": 0.0, "rental_uris": {"ios": "https://dc.lft.to/lastmile_qr_scan", "android": "https://dc.lft.to/lastmile_qr_scan"}, "bike_id": "5d8822f82defe4fcf8da3c09df0561d3", "type": "electric_scooter", "fusion_lat": 0.0, "is_disabled": 0, "is_reserved": 0}, {"lon": -77.05028483333334, "name": "48f890e8a3186f5f2e37ee37617d3c9c", "lat": 38.896865166666664, "fusion_lon": 0.0, "rental_uris": {"ios": "https://dc.lft.to/lastmile_qr_scan", "android": "https://dc.lft.to/lastmile_qr_scan"}, "bike_id": "48f890e8a3186f5f2e37ee37617d3c9c", "type": "electric_scooter", "fusion_lat": 0.0, "is_disabled": 0, "is_reserved": 0}, {"lon": -77.02345466666667, "name": "903a9b9f0f9a6590adba609304448364", "lat": 38.894780833333336, "fusion_lon": 0.0, "rental_uris": {"ios": "https://dc.lft.to/lastmile_qr_scan", "android": "https://dc.lft.to/lastmile_qr_scan"}, "bike_id": "903a9b9f0f9a6590adba609304448364", "type": "electric_scooter", "fusion_lat": 0.0, "is_disabled": 0, "is_reserved": 0}, {"lon": -77.03323483333334, "name": "37d8553b1c198f123c18305945656c17", "lat": 38.91314083333333, "fusion_lon": 0.0, "rental_uris": {"ios": "https://dc.lft.to/lastmile_qr_scan", "android": "https://dc.lft.to/lastmile_qr_scan"}, "bike_id": "37d8553b1c198f123c18305945656c17", "type": "electric_scooter", "fusion_lat": 0.0, "is_disabled": 0, "is_reserved": 0}, {"lon": -77.05020533333334, "name": "ab62d49d248a7077460d8075990c3794", "lat": 38.901907, "fusion_lon": 0.0, "rental_uris": {"ios": "https://dc.lft.to/lastmile_qr_scan", "android": "https://dc.lft.to/lastmile_qr_scan"}, "bike_id": "ab62d49d248a7077460d8075990c3794", "type": "electric_scooter", "fusion_lat": 0.0, "is_disabled": 0, "is_reserved": 0}, {"lon": -77.0125175, "name": "90df48dbd2ddc43569baa5c8703d1b6d", "lat": 38.90138016666667, "fusion_lon": 0.0, "rental_uris": {"ios": "https://dc.lft.to/lastmile_qr_scan", "android": "https://dc.lft.to/lastmile_qr_scan"}, "bike_id": "90df48dbd2ddc43569baa5c8703d1b6d", "type": "electric_scooter", "fusion_lat": 0.0, "is_disabled": 0, "is_reserved": 0}, {"lon": -77.04637533333333, "name": "2f2652d7650b3ff25321f1ca39a1baae", "lat": 38.89221633333333, "fusion_lon": 0.0, "rental_uris": {"ios": "https://dc.lft.to/lastmile_qr_scan", "android": "https://dc.lft.to/lastmile_qr_scan"}, "bike_id": "2f2652d7650b3ff25321f1ca39a1baae", "type": "electric_scooter", "fusion_lat": 0.0, "is_disabled": 0, "is_reserved": 0}, {"lon": -77.05139133333333, "name": "aabbb77901420a506e9b11219a8e8079", "lat": 38.9272225, "fusion_lon": 0.0, "rental_uris": {"ios": "https://dc.lft.to/lastmile_qr_scan", "android": "https://dc.lft.to/lastmile_qr_scan"}, "bike_id": "aabbb77901420a506e9b11219a8e8079", "type": "electric_scooter", "fusion_lat": 0.0, "is_disabled": 0, "is_reserved": 0}, {"lon": -76.98135133333334, "name": "ff3f1c1973bce7061a4c3b4960ce7a6e", "lat": 38.90563133333333, "fusion_lon": 0.0, "rental_uris": {"ios": "https://dc.lft.to/lastmile_qr_scan", "android": "https://dc.lft.to/lastmile_qr_scan"}, "bike_id": "ff3f1c1973bce7061a4c3b4960ce7a6e", "type": "electric_scooter", "fusion_lat": 0.0, "is_disabled": 0, "is_reserved": 0}, {"lon": -76.925263, "name": "2b11521dbe00f8d62135124bf7654857", "lat": 38.95929783333333, "fusion_lon": 0.0, "rental_uris": {"ios": "https://dc.lft.to/lastmile_qr_scan", "android": "https://dc.lft.to/lastmile_qr_scan"}, "bike_id": "2b11521dbe00f8d62135124bf7654857", "type": "electric_bike", "fusion_lat": 0.0, "is_disabled": 0, "is_reserved": 0}, {"lon": -77.0725405, "name": "0c4111634c49c46cce9fddeaf98c411a", "lat": 38.939445166666665, "fusion_lon": 0.0, "rental_uris": {"ios": "https://dc.lft.to/lastmile_qr_scan", "android": "https://dc.lft.to/lastmile_qr_scan"}, "bike_id": "0c4111634c49c46cce9fddeaf98c411a", "type": "electric_scooter", "fusion_lat": 0.0, "is_disabled": 0, "is_reserved": 0}, {"lon": -77.01363033333334, "name": "9d669fe0a99e743f2b2efe70280be6b6", "lat": 38.9286215, "fusion_lon": 0.0, "rental_uris": {"ios": "https://dc.lft.to/lastmile_qr_scan", "android": "https://dc.lft.to/lastmile_qr_scan"}, "bike_id": "9d669fe0a99e743f2b2efe70280be6b6", "type": "electric_scooter", "fusion_lat": 0.0, "is_disabled": 0, "is_reserved": 0}, {"lon": -77.0465545, "name": "312480f09202e30e96bc1937019aeb2d", "lat": 38.904374, "fusion_lon": 0.0, "rental_uris": {"ios": "https://dc.lft.to/lastmile_qr_scan", "android": "https://dc.lft.to/lastmile_qr_scan"}, "bike_id": "312480f09202e30e96bc1937019aeb2d", "type": "electric_scooter", "fusion_lat": 0.0, "is_disabled": 0, "is_reserved": 0}, {"lon": -77.02843216666666, "name": "c7060616652286f793c5ea5dc620458f", "lat": 38.94263316666667, "fusion_lon": 0.0, "rental_uris": {"ios": "https://dc.lft.to/lastmile_qr_scan", "android": "https://dc.lft.to/lastmile_qr_scan"}, "bike_id": "c7060616652286f793c5ea5dc620458f", "type": "electric_scooter", "fusion_lat": 0.0, "is_disabled": 0, "is_reserved": 0}, {"lon": -77.0195105, "name": "849b4c523ae9f695c001b5b4b31f8d00", "lat": 38.923169666666666, "fusion_lon": 0.0, "rental_uris": {"ios": "https://dc.lft.to/lastmile_qr_scan", "android": "https://dc.lft.to/lastmile_qr_scan"}, "bike_id": "849b4c523ae9f695c001b5b4b31f8d00", "type": "electric_scooter", "fusion_lat": 0.0, "is_disabled": 0, "is_reserved": 0}, {"lon": -76.99180866666667, "name": "bcc9f7b79b3c07cc8a6f7548054cc32d", "lat": 38.90907116666666, "fusion_lon": 0.0, "rental_uris": {"ios": "https://dc.lft.to/lastmile_qr_scan", "android": "https://dc.lft.to/lastmile_qr_scan"}, "bike_id": "bcc9f7b79b3c07cc8a6f7548054cc32d", "type": "electric_scooter", "fusion_lat": 0.0, "is_disabled": 0, "is_reserved": 0}, {"lon": -77.0220325, "name": "c858d6a1f89bcc35ad1cddfd8890785e", "lat": 38.886964, "fusion_lon": 0.0, "rental_uris": {"ios": "https://dc.lft.to/lastmile_qr_scan", "android": "https://dc.lft.to/lastmile_qr_scan"}, "bike_id": "c858d6a1f89bcc35ad1cddfd8890785e", "type": "electric_scooter", "fusion_lat": 0.0, "is_disabled": 0, "is_reserved": 0}, {"lon": -77.06433533333333, "name": "1764b2de5fdd8e2bfbbc2735e11a31b4", "lat": 38.90948983333333, "fusion_lon": 0.0, "rental_uris": {"ios": "https://dc.lft.to/lastmile_qr_scan", "android": "https://dc.lft.to/lastmile_qr_scan"}, "bike_id": "1764b2de5fdd8e2bfbbc2735e11a31b4", "type": "electric_scooter", "fusion_lat": 0.0, "is_disabled": 0, "is_reserved": 0}, {"lon": -77.024088, "name": "e3a796aad28bf662e0fca02fdaf4bc86", "lat": 38.89224383333333, "fusion_lon": 0.0, "rental_uris": {"ios": "https://dc.lft.to/lastmile_qr_scan", "android": "https://dc.lft.to/lastmile_qr_scan"}, "bike_id": "e3a796aad28bf662e0fca02fdaf4bc86", "type": "electric_scooter", "fusion_lat": 0.0, "is_disabled": 0, "is_reserved": 0}, {"lon": -77.03851833333333, "name": "c5edcdfdda91daa6ca9db5e159b107a9", "lat": 38.9028425, "fusion_lon": 0.0, "rental_uris": {"ios": "https://dc.lft.to/lastmile_qr_scan", "android": "https://dc.lft.to/lastmile_qr_scan"}, "bike_id": "c5edcdfdda91daa6ca9db5e159b107a9", "type": "electric_scooter", "fusion_lat": 0.0, "is_disabled": 0, "is_reserved": 0}, {"lon": -77.04651233333334, "name": "406f11a8902f0b13c97c78cfafb87972", "lat": 38.8939405, "fusion_lon": 0.0, "rental_uris": {"ios": "https://dc.lft.to/lastmile_qr_scan", "android": "https://dc.lft.to/lastmile_qr_scan"}, "bike_id": "406f11a8902f0b13c97c78cfafb87972", "type": "electric_scooter", "fusion_lat": 0.0, "is_disabled": 0, "is_reserved": 0}, {"lon": -77.03045016666667, "name": "3c1cc6dbe0a70c4234f9048aef409f95", "lat": 38.938636833333334, "fusion_lon": 0.0, "rental_uris": {"ios": "https://dc.lft.to/lastmile_qr_scan", "android": "https://dc.lft.to/lastmile_qr_scan"}, "bike_id": "3c1cc6dbe0a70c4234f9048aef409f95", "type": "electric_scooter", "fusion_lat": 0.0, "is_disabled": 0, "is_reserved": 0}, {"lon": -77.05032916666667, "name": "33a60abef3b106b96cb5f61645097482", "lat": 38.900884166666664, "fusion_lon": 0.0, "rental_uris": {"ios": "https://dc.lft.to/lastmile_qr_scan", "android": "https://dc.lft.to/lastmile_qr_scan"}, "bike_id": "33a60abef3b106b96cb5f61645097482", "type": "electric_scooter", "fusion_lat": 0.0, "is_disabled": 0, "is_reserved": 0}, {"lon": -77.00194066666667, "name": "f35fd4e925a1448148641346d025c7cb", "lat": 38.9024005, "fusion_lon": 0.0, "rental_uris": {"ios": "https://dc.lft.to/lastmile_qr_scan", "android": "https://dc.lft.to/lastmile_qr_scan"}, "bike_id": "f35fd4e925a1448148641346d025c7cb", "type": "electric_scooter", "fusion_lat": 0.0, "is_disabled": 0, "is_reserved": 0}, {"lon": -77.0446025, "name": "52e0ac779669dad5d3a29b5c465b0d6e", "lat": 38.8961985, "fusion_lon": 0.0, "rental_uris": {"ios": "https://dc.lft.to/lastmile_qr_scan", "android": "https://dc.lft.to/lastmile_qr_scan"}, "bike_id": "52e0ac779669dad5d3a29b5c465b0d6e", "type": "electric_scooter", "fusion_lat": 0.0, "is_disabled": 0, "is_reserved": 0}, {"lon": -77.05067233333334, "name": "35176c66f7e2ad272d95482c8ecc0bb7", "lat": 38.92415, "fusion_lon": 0.0, "rental_uris": {"ios": "https://dc.lft.to/lastmile_qr_scan", "android": "https://dc.lft.to/lastmile_qr_scan"}, "bike_id": "35176c66f7e2ad272d95482c8ecc0bb7", "type": "electric_scooter", "fusion_lat": 0.0, "is_disabled": 0, "is_reserved": 0}, {"lon": -77.0331455, "name": "cc3b487c5252cd9a0b5bab64c4535a40", "lat": 38.89762616666667, "fusion_lon": 0.0, "rental_uris": {"ios": "https://dc.lft.to/lastmile_qr_scan", "android": "https://dc.lft.to/lastmile_qr_scan"}, "bike_id": "cc3b487c5252cd9a0b5bab64c4535a40", "type": "electric_scooter", "fusion_lat": 0.0, "is_disabled": 0, "is_reserved": 0}, {"lon": -76.93236783333333, "name": "a5f9e26c29e0e29cdcc446dd07363df0", "lat": 38.882759, "fusion_lon": 0.0, "rental_uris": {"ios": "https://dc.lft.to/lastmile_qr_scan", "android": "https://dc.lft.to/lastmile_qr_scan"}, "bike_id": "a5f9e26c29e0e29cdcc446dd07363df0", "type": "electric_bike", "fusion_lat": 0.0, "is_disabled": 0, "is_reserved": 0}, {"lon": -77.03285066666666, "name": "dc113e2242e7cfd97374722e781e86d3", "lat": 38.924594166666665, "fusion_lon": 0.0, "rental_uris": {"ios": "https://dc.lft.to/lastmile_qr_scan", "android": "https://dc.lft.to/lastmile_qr_scan"}, "bike_id": "dc113e2242e7cfd97374722e781e86d3", "type": "electric_scooter", "fusion_lat": 0.0, "is_disabled": 0, "is_reserved": 0}, {"lon": -77.03177533333333, "name": "3db0abcffe5121aa79af2e1406e2c94c", "lat": 38.919168, "fusion_lon": 0.0, "rental_uris": {"ios": "https://dc.lft.to/lastmile_qr_scan", "android": "https://dc.lft.to/lastmile_qr_scan"}, "bike_id": "3db0abcffe5121aa79af2e1406e2c94c", "type": "electric_scooter", "fusion_lat": 0.0, "is_disabled": 0, "is_reserved": 0}, {"lon": -76.96433833333333, "name": "8697ccf69bf1c2ea9f0f3427ab151b35", "lat": 38.9187375, "fusion_lon": 0.0, "rental_uris": {"ios": "https://dc.lft.to/lastmile_qr_scan", "android": "https://dc.lft.to/lastmile_qr_scan"}, "bike_id": "8697ccf69bf1c2ea9f0f3427ab151b35", "type": "electric_bike", "fusion_lat": 0.0, "is_disabled": 0, "is_reserved": 0}, {"lon": -77.05339783333334, "name": "893eeed39c5b448bfc6001423f792373", "lat": 38.906893, "fusion_lon": 0.0, "rental_uris": {"ios": "https://dc.lft.to/lastmile_qr_scan", "android": "https://dc.lft.to/lastmile_qr_scan"}, "bike_id": "893eeed39c5b448bfc6001423f792373", "type": "electric_scooter", "fusion_lat": 0.0, "is_disabled": 0, "is_reserved": 0}, {"lon": -77.06606183333334, "name": "1b47023f36678055f44fbd4ffcacf658", "lat": 38.93660083333333, "fusion_lon": 0.0, "rental_uris": {"ios": "https://dc.lft.to/lastmile_qr_scan", "android": "https://dc.lft.to/lastmile_qr_scan"}, "bike_id": "1b47023f36678055f44fbd4ffcacf658", "type": "electric_scooter", "fusion_lat": 0.0, "is_disabled": 0, "is_reserved": 0}, {"lon": -77.0376915, "name": "3303c2a6dd0a954df658937c75a465d4", "lat": 38.908817166666665, "fusion_lon": 0.0, "rental_uris": {"ios": "https://dc.lft.to/lastmile_qr_scan", "android": "https://dc.lft.to/lastmile_qr_scan"}, "bike_id": "3303c2a6dd0a954df658937c75a465d4", "type": "electric_scooter", "fusion_lat": 0.0, "is_disabled": 0, "is_reserved": 0}, {"lon": -77.0350825, "name": "243746f03321e747d6512bc3cf5870f8", "lat": 38.921524166666664, "fusion_lon": 0.0, "rental_uris": {"ios": "https://dc.lft.to/lastmile_qr_scan", "android": "https://dc.lft.to/lastmile_qr_scan"}, "bike_id": "243746f03321e747d6512bc3cf5870f8", "type": "electric_scooter", "fusion_lat": 0.0, "is_disabled": 0, "is_reserved": 0}, {"lon": -77.0282315, "name": "d4e8ebf062a589793ee9f29ada8b71f5", "lat": 38.88717483333333, "fusion_lon": 0.0, "rental_uris": {"ios": "https://dc.lft.to/lastmile_qr_scan", "android": "https://dc.lft.to/lastmile_qr_scan"}, "bike_id": "d4e8ebf062a589793ee9f29ada8b71f5", "type": "electric_scooter", "fusion_lat": 0.0, "is_disabled": 0, "is_reserved": 0}, {"lon": -77.04851666666667, "name": "30586666ceff866a291dd3d1ff27b816", "lat": 38.90072516666667, "fusion_lon": 0.0, "rental_uris": {"ios": "https://dc.lft.to/lastmile_qr_scan", "android": "https://dc.lft.to/lastmile_qr_scan"}, "bike_id": "30586666ceff866a291dd3d1ff27b816", "type": "electric_scooter", "fusion_lat": 0.0, "is_disabled": 0, "is_reserved": 0}, {"lon": -77.00224983333334, "name": "82122ad4d43131911cede31f9c4c5d49", "lat": 38.925090833333336, "fusion_lon": 0.0, "rental_uris": {"ios": "https://dc.lft.to/lastmile_qr_scan", "android": "https://dc.lft.to/lastmile_qr_scan"}, "bike_id": "82122ad4d43131911cede31f9c4c5d49", "type": "electric_scooter", "fusion_lat": 0.0, "is_disabled": 0, "is_reserved": 0}, {"lon": -77.0009155, "name": "3ef6e4b2d4e3553780b5996546b507a1", "lat": 38.8737685, "fusion_lon": 0.0, "rental_uris": {"ios": "https://dc.lft.to/lastmile_qr_scan", "android": "https://dc.lft.to/lastmile_qr_scan"}, "bike_id": "3ef6e4b2d4e3553780b5996546b507a1", "type": "electric_scooter", "fusion_lat": 0.0, "is_disabled": 0, "is_reserved": 0}, {"lon": -77.002031, "name": "86c13faa3b6e0cf5e451c4d87bfc8b39", "lat": 38.88659466666667, "fusion_lon": 0.0, "rental_uris": {"ios": "https://dc.lft.to/lastmile_qr_scan", "android": "https://dc.lft.to/lastmile_qr_scan"}, "bike_id": "86c13faa3b6e0cf5e451c4d87bfc8b39", "type": "electric_scooter", "fusion_lat": 0.0, "is_disabled": 0, "is_reserved": 0}, {"lon": -77.03218733333334, "name": "59bc09463520e6f94580562d47140bec", "lat": 38.90268916666667, "fusion_lon": 0.0, "rental_uris": {"ios": "https://dc.lft.to/lastmile_qr_scan", "android": "https://dc.lft.to/lastmile_qr_scan"}, "bike_id": "59bc09463520e6f94580562d47140bec", "type": "electric_scooter", "fusion_lat": 0.0, "is_disabled": 0, "is_reserved": 0}, {"lon": -77.03353866666667, "name": "2d23b84e358f1c2145501b9e095c4811", "lat": 38.92877466666667, "fusion_lon": 0.0, "rental_uris": {"ios": "https://dc.lft.to/lastmile_qr_scan", "android": "https://dc.lft.to/lastmile_qr_scan"}, "bike_id": "2d23b84e358f1c2145501b9e095c4811", "type": "electric_scooter", "fusion_lat": 0.0, "is_disabled": 0, "is_reserved": 0}, {"lon": -77.01091566666666, "name": "bce5799fe222ce3a4187e0d094f4cd9b", "lat": 38.91329116666667, "fusion_lon": 0.0, "rental_uris": {"ios": "https://dc.lft.to/lastmile_qr_scan", "android": "https://dc.lft.to/lastmile_qr_scan"}, "bike_id": "bce5799fe222ce3a4187e0d094f4cd9b", "type": "electric_scooter", "fusion_lat": 0.0, "is_disabled": 0, "is_reserved": 0}, {"lon": -77.07322266666667, "name": "d73d0028cd3c2957ff21a43a53beef23", "lat": 38.926306833333335, "fusion_lon": 0.0, "rental_uris": {"ios": "https://dc.lft.to/lastmile_qr_scan", "android": "https://dc.lft.to/lastmile_qr_scan"}, "bike_id": "d73d0028cd3c2957ff21a43a53beef23", "type": "electric_scooter", "fusion_lat": 0.0, "is_disabled": 0, "is_reserved": 0}, {"lon": -77.02984033333334, "name": "ae1587e2aadfb15387f0a2d67c22f795", "lat": 38.8975755, "fusion_lon": 0.0, "rental_uris": {"ios": "https://dc.lft.to/lastmile_qr_scan", "android": "https://dc.lft.to/lastmile_qr_scan"}, "bike_id": "ae1587e2aadfb15387f0a2d67c22f795", "type": "electric_scooter", "fusion_lat": 0.0, "is_disabled": 0, "is_reserved": 0}, {"lon": -77.04365483333333, "name": "3d7747d98f1823984bd1e98299b9ff21", "lat": 38.904292, "fusion_lon": 0.0, "rental_uris": {"ios": "https://dc.lft.to/lastmile_qr_scan", "android": "https://dc.lft.to/lastmile_qr_scan"}, "bike_id": "3d7747d98f1823984bd1e98299b9ff21", "type": "electric_scooter", "fusion_lat": 0.0, "is_disabled": 0, "is_reserved": 0}, {"lon": -76.98031933333333, "name": "ad55cf76246efea77fd72b0685e3ddd4", "lat": 38.88966, "fusion_lon": 0.0, "rental_uris": {"ios": "https://dc.lft.to/lastmile_qr_scan", "android": "https://dc.lft.to/lastmile_qr_scan"}, "bike_id": "ad55cf76246efea77fd72b0685e3ddd4", "type": "electric_scooter", "fusion_lat": 0.0, "is_disabled": 0, "is_reserved": 0}, {"lon": -77.04306916666667, "name": "0a539e3a8358bb9cbb7ef19c71f0bdd0", "lat": 38.9313575, "fusion_lon": 0.0, "rental_uris": {"ios": "https://dc.lft.to/lastmile_qr_scan", "android": "https://dc.lft.to/lastmile_qr_scan"}, "bike_id": "0a539e3a8358bb9cbb7ef19c71f0bdd0", "type": "electric_scooter", "fusion_lat": 0.0, "is_disabled": 0, "is_reserved": 0}, {"lon": -77.0477485, "name": "961b259eb7f1442a9feacf79b84cacc2", "lat": 38.899522, "fusion_lon": 0.0, "rental_uris": {"ios": "https://dc.lft.to/lastmile_qr_scan", "android": "https://dc.lft.to/lastmile_qr_scan"}, "bike_id": "961b259eb7f1442a9feacf79b84cacc2", "type": "electric_scooter", "fusion_lat": 0.0, "is_disabled": 0, "is_reserved": 0}, {"lon": -77.04532133333333, "name": "9a6d8ef2d8dbdc710e2cae0abc51060d", "lat": 38.91329183333333, "fusion_lon": 0.0, "rental_uris": {"ios": "https://dc.lft.to/lastmile_qr_scan", "android": "https://dc.lft.to/lastmile_qr_scan"}, "bike_id": "9a6d8ef2d8dbdc710e2cae0abc51060d", "type": "electric_scooter", "fusion_lat": 0.0, "is_disabled": 0, "is_reserved": 0}, {"lon": -77.05100266666666, "name": "1bd90cdd22fe2cc5342acb8dd3384ccb", "lat": 38.915510833333336, "fusion_lon": 0.0, "rental_uris": {"ios": "https://dc.lft.to/lastmile_qr_scan", "android": "https://dc.lft.to/lastmile_qr_scan"}, "bike_id": "1bd90cdd22fe2cc5342acb8dd3384ccb", "type": "electric_scooter", "fusion_lat": 0.0, "is_disabled": 0, "is_reserved": 0}, {"lon": -77.139343, "name": "2cb3b3215064c9f166935c2fcfc3dc38", "lat": 38.846751166666664, "fusion_lon": 0.0, "rental_uris": {"ios": "https://dc.lft.to/lastmile_qr_scan", "android": "https://dc.lft.to/lastmile_qr_scan"}, "bike_id": "2cb3b3215064c9f166935c2fcfc3dc38", "type": "electric_bike", "fusion_lat": 0.0, "is_disabled": 0, "is_reserved": 0}, {"lon": -77.01218733333333, "name": "2e9b70de7ce746d9360df8dffe6ad288", "lat": 38.89835433333333, "fusion_lon": 0.0, "rental_uris": {"ios": "https://dc.lft.to/lastmile_qr_scan", "android": "https://dc.lft.to/lastmile_qr_scan"}, "bike_id": "2e9b70de7ce746d9360df8dffe6ad288", "type": "electric_scooter", "fusion_lat": 0.0, "is_disabled": 0, "is_reserved": 0}, {"lon": -77.022734, "name": "2f3cbf60352253f0dc7ba3a946137204", "lat": 38.924853166666665, "fusion_lon": 0.0, "rental_uris": {"ios": "https://dc.lft.to/lastmile_qr_scan", "android": "https://dc.lft.to/lastmile_qr_scan"}, "bike_id": "2f3cbf60352253f0dc7ba3a946137204", "type": "electric_scooter", "fusion_lat": 0.0, "is_disabled": 0, "is_reserved": 0}, {"lon": -77.03208633333334, "name": "6c935d9007ed7a912f55233ab4bcbd23", "lat": 38.917875333333335, "fusion_lon": 0.0, "rental_uris": {"ios": "https://dc.lft.to/lastmile_qr_scan", "android": "https://dc.lft.to/lastmile_qr_scan"}, "bike_id": "6c935d9007ed7a912f55233ab4bcbd23", "type": "electric_scooter", "fusion_lat": 0.0, "is_disabled": 0, "is_reserved": 0}, {"lon": -77.069656, "name": "9310dd8953d1dfcf023d7280974276c8", "lat": 38.905825666666665, "fusion_lon": 0.0, "rental_uris": {"ios": "https://dc.lft.to/lastmile_qr_scan", "android": "https://dc.lft.to/lastmile_qr_scan"}, "bike_id": "9310dd8953d1dfcf023d7280974276c8", "type": "electric_scooter", "fusion_lat": 0.0, "is_disabled": 0, "is_reserved": 0}, {"lon": -77.017779, "name": "4ff7689dc7a15551295e1c344d5dba1e", "lat": 38.91492433333333, "fusion_lon": 0.0, "rental_uris": {"ios": "https://dc.lft.to/lastmile_qr_scan", "android": "https://dc.lft.to/lastmile_qr_scan"}, "bike_id": "4ff7689dc7a15551295e1c344d5dba1e", "type": "electric_scooter", "fusion_lat": 0.0, "is_disabled": 0, "is_reserved": 0}, {"lon": -77.0136605, "name": "10f27aa639f288904859c4c5d70e3316", "lat": 38.879023833333335, "fusion_lon": 0.0, "rental_uris": {"ios": "https://dc.lft.to/lastmile_qr_scan", "android": "https://dc.lft.to/lastmile_qr_scan"}, "bike_id": "10f27aa639f288904859c4c5d70e3316", "type": "electric_scooter", "fusion_lat": 0.0, "is_disabled": 0, "is_reserved": 0}, {"lon": -77.04609316666667, "name": "03532fe14ec7b8a57bb4d99de98df392", "lat": 38.904616, "fusion_lon": 0.0, "rental_uris": {"ios": "https://dc.lft.to/lastmile_qr_scan", "android": "https://dc.lft.to/lastmile_qr_scan"}, "bike_id": "03532fe14ec7b8a57bb4d99de98df392", "type": "electric_scooter", "fusion_lat": 0.0, "is_disabled": 0, "is_reserved": 0}, {"lon": -77.04481966666667, "name": "b81234cb5677a068f3cea04139d127a1", "lat": 38.895162, "fusion_lon": 0.0, "rental_uris": {"ios": "https://dc.lft.to/lastmile_qr_scan", "android": "https://dc.lft.to/lastmile_qr_scan"}, "bike_id": "b81234cb5677a068f3cea04139d127a1", "type": "electric_scooter", "fusion_lat": 0.0, "is_disabled": 0, "is_reserved": 0}, {"lon": -77.04524883333333, "name": "93cc9980e560f8819388577d08a2fd7d", "lat": 38.81486366666667, "fusion_lon": 0.0, "rental_uris": {"ios": "https://dc.lft.to/lastmile_qr_scan", "android": "https://dc.lft.to/lastmile_qr_scan"}, "bike_id": "93cc9980e560f8819388577d08a2fd7d", "type": "electric_bike", "fusion_lat": 0.0, "is_disabled": 0, "is_reserved": 0}, {"lon": -77.115228, "name": "a676a758ea9aa5160f59f27b28bdfd07", "lat": 39.074687833333336, "fusion_lon": 0.0, "rental_uris": {"ios": "https://dc.lft.to/lastmile_qr_scan", "android": "https://dc.lft.to/lastmile_qr_scan"}, "bike_id": "a676a758ea9aa5160f59f27b28bdfd07", "type": "electric_bike", "fusion_lat": 0.0, "is_disabled": 0, "is_reserved": 0}, {"lon": -77.0510235, "name": "48d110eecbfbbd10152d132376f98ee0", "lat": 38.901833833333335, "fusion_lon": 0.0, "rental_uris": {"ios": "https://dc.lft.to/lastmile_qr_scan", "android": "https://dc.lft.to/lastmile_qr_scan"}, "bike_id": "48d110eecbfbbd10152d132376f98ee0", "type": "electric_bike", "fusion_lat": 0.0, "is_disabled": 0, "is_reserved": 0}, {"lon": -77.01527233333333, "name": "f20ebd0fa23fe8d09abb7b9a9a48bdc8", "lat": 38.887368, "fusion_lon": 0.0, "rental_uris": {"ios": "https://dc.lft.to/lastmile_qr_scan", "android": "https://dc.lft.to/lastmile_qr_scan"}, "bike_id": "f20ebd0fa23fe8d09abb7b9a9a48bdc8", "type": "electric_scooter", "fusion_lat": 0.0, "is_disabled": 0, "is_reserved": 0}, {"lon": -77.03866083333334, "name": "145b53d6cea5125d514c6c4e4f149e78", "lat": 38.90318766666667, "fusion_lon": 0.0, "rental_uris": {"ios": "https://dc.lft.to/lastmile_qr_scan", "android": "https://dc.lft.to/lastmile_qr_scan"}, "bike_id": "145b53d6cea5125d514c6c4e4f149e78", "type": "electric_scooter", "fusion_lat": 0.0, "is_disabled": 0, "is_reserved": 0}, {"lon": -77.03216366666666, "name": "191c4bea18e6f59f9df07332b0dbeb84", "lat": 38.91725316666667, "fusion_lon": 0.0, "rental_uris": {"ios": "https://dc.lft.to/lastmile_qr_scan", "android": "https://dc.lft.to/lastmile_qr_scan"}, "bike_id": "191c4bea18e6f59f9df07332b0dbeb84", "type": "electric_scooter", "fusion_lat": 0.0, "is_disabled": 0, "is_reserved": 0}, {"lon": -76.988374, "name": "5e89cf22d62f152a0fde814fee97f70d", "lat": 38.90035, "fusion_lon": 0.0, "rental_uris": {"ios": "https://dc.lft.to/lastmile_qr_scan", "android": "https://dc.lft.to/lastmile_qr_scan"}, "bike_id": "5e89cf22d62f152a0fde814fee97f70d", "type": "electric_scooter", "fusion_lat": 0.0, "is_disabled": 0, "is_reserved": 0}, {"lon": -76.97275266666666, "name": "2f38751f7354fe577a1e4d698947d312", "lat": 38.855892, "fusion_lon": 0.0, "rental_uris": {"ios": "https://dc.lft.to/lastmile_qr_scan", "android": "https://dc.lft.to/lastmile_qr_scan"}, "bike_id": "2f38751f7354fe577a1e4d698947d312", "type": "electric_bike", "fusion_lat": 0.0, "is_disabled": 0, "is_reserved": 0}, {"lon": -77.01233033333334, "name": "23d275ee80542f8681b2295e25ae3147", "lat": 38.91585383333334, "fusion_lon": 0.0, "rental_uris": {"ios": "https://dc.lft.to/lastmile_qr_scan", "android": "https://dc.lft.to/lastmile_qr_scan"}, "bike_id": "23d275ee80542f8681b2295e25ae3147", "type": "electric_scooter", "fusion_lat": 0.0, "is_disabled": 0, "is_reserved": 0}, {"lon": -77.03204533333333, "name": "cc05e0acc70017a0442a500755bb69f6", "lat": 38.91226983333333, "fusion_lon": 0.0, "rental_uris": {"ios": "https://dc.lft.to/lastmile_qr_scan", "android": "https://dc.lft.to/lastmile_qr_scan"}, "bike_id": "cc05e0acc70017a0442a500755bb69f6", "type": "electric_scooter", "fusion_lat": 0.0, "is_disabled": 0, "is_reserved": 0}, {"lon": -77.002095, "name": "0062759575164fd157017983463fd195", "lat": 38.905562333333336, "fusion_lon": 0.0, "rental_uris": {"ios": "https://dc.lft.to/lastmile_qr_scan", "android": "https://dc.lft.to/lastmile_qr_scan"}, "bike_id": "0062759575164fd157017983463fd195", "type": "electric_scooter", "fusion_lat": 0.0, "is_disabled": 0, "is_reserved": 0}, {"lon": -77.002103, "name": "d19020661bcaa1412d33423f1c0aad7d", "lat": 38.908365, "fusion_lon": 0.0, "rental_uris": {"ios": "https://dc.lft.to/lastmile_qr_scan", "android": "https://dc.lft.to/lastmile_qr_scan"}, "bike_id": "d19020661bcaa1412d33423f1c0aad7d", "type": "electric_scooter", "fusion_lat": 0.0, "is_disabled": 0, "is_reserved": 0}, {"lon": -77.01400366666667, "name": "22a6e4553d31f87c5ebef1d8a4f113b9", "lat": 38.928672666666664, "fusion_lon": 0.0, "rental_uris": {"ios": "https://dc.lft.to/lastmile_qr_scan", "android": "https://dc.lft.to/lastmile_qr_scan"}, "bike_id": "22a6e4553d31f87c5ebef1d8a4f113b9", "type": "electric_scooter", "fusion_lat": 0.0, "is_disabled": 0, "is_reserved": 0}, {"lon": -77.02948166666667, "name": "59305a3e6e0b991d4de0e25fcd68e5d8", "lat": 38.90504466666667, "fusion_lon": 0.0, "rental_uris": {"ios": "https://dc.lft.to/lastmile_qr_scan", "android": "https://dc.lft.to/lastmile_qr_scan"}, "bike_id": "59305a3e6e0b991d4de0e25fcd68e5d8", "type": "electric_scooter", "fusion_lat": 0.0, "is_disabled": 0, "is_reserved": 0}, {"lon": -76.9075215, "name": "3ceadfee5f7acc3c8c8973514f826bed", "lat": 38.89618433333333, "fusion_lon": 0.0, "rental_uris": {"ios": "https://dc.lft.to/lastmile_qr_scan", "android": "https://dc.lft.to/lastmile_qr_scan"}, "bike_id": "3ceadfee5f7acc3c8c8973514f826bed", "type": "electric_bike", "fusion_lat": 0.0, "is_disabled": 0, "is_reserved": 0}, {"lon": -77.02509233333333, "name": "707b8d408dd96bc54c709201545e2926", "lat": 38.92060383333333, "fusion_lon": 0.0, "rental_uris": {"ios": "https://dc.lft.to/lastmile_qr_scan", "android": "https://dc.lft.to/lastmile_qr_scan"}, "bike_id": "707b8d408dd96bc54c709201545e2926", "type": "electric_scooter", "fusion_lat": 0.0, "is_disabled": 0, "is_reserved": 0}, {"lon": -77.04484866666667, "name": "464be115f116fb797cbac00f87b32f9e", "lat": 38.89968533333333, "fusion_lon": 0.0, "rental_uris": {"ios": "https://dc.lft.to/lastmile_qr_scan", "android": "https://dc.lft.to/lastmile_qr_scan"}, "bike_id": "464be115f116fb797cbac00f87b32f9e", "type": "electric_scooter", "fusion_lat": 0.0, "is_disabled": 0, "is_reserved": 0}, {"lon": -77.02963766666667, "name": "16f8a3d152574b27483229d2979d56c3", "lat": 38.930353833333335, "fusion_lon": 0.0, "rental_uris": {"ios": "https://dc.lft.to/lastmile_qr_scan", "android": "https://dc.lft.to/lastmile_qr_scan"}, "bike_id": "16f8a3d152574b27483229d2979d56c3", "type": "electric_scooter", "fusion_lat": 0.0, "is_disabled": 0, "is_reserved": 0}, {"lon": -77.04140783333334, "name": "325f08d52a63a2263d0708e171ccab74", "lat": 38.934058666666665, "fusion_lon": 0.0, "rental_uris": {"ios": "https://dc.lft.to/lastmile_qr_scan", "android": "https://dc.lft.to/lastmile_qr_scan"}, "bike_id": "325f08d52a63a2263d0708e171ccab74", "type": "electric_scooter", "fusion_lat": 0.0, "is_disabled": 0, "is_reserved": 0}, {"lon": -77.02202566666666, "name": "8093e14f97ecdae6146030dc46839082", "lat": 38.9017005, "fusion_lon": 0.0, "rental_uris": {"ios": "https://dc.lft.to/lastmile_qr_scan", "android": "https://dc.lft.to/lastmile_qr_scan"}, "bike_id": "8093e14f97ecdae6146030dc46839082", "type": "electric_scooter", "fusion_lat": 0.0, "is_disabled": 0, "is_reserved": 0}, {"lon": -76.99514883333333, "name": "0d128a1ef354c3ffa099cfe65f8453da", "lat": 38.894835666666665, "fusion_lon": 0.0, "rental_uris": {"ios": "https://dc.lft.to/lastmile_qr_scan", "android": "https://dc.lft.to/lastmile_qr_scan"}, "bike_id": "0d128a1ef354c3ffa099cfe65f8453da", "type": "electric_scooter", "fusion_lat": 0.0, "is_disabled": 0, "is_reserved": 0}, {"lon": -76.994883, "name": "47a23616384521c200b548036329cc51", "lat": 38.838772666666664, "fusion_lon": 0.0, "rental_uris": {"ios": "https://dc.lft.to/lastmile_qr_scan", "android": "https://dc.lft.to/lastmile_qr_scan"}, "bike_id": "47a23616384521c200b548036329cc51", "type": "electric_bike", "fusion_lat": 0.0, "is_disabled": 0, "is_reserved": 0}, {"lon": -76.92232716666666, "name": "4a0ecb979c3f087a00ec54b9281fa11f", "lat": 38.89286383333334, "fusion_lon": 0.0, "rental_uris": {"ios": "https://dc.lft.to/lastmile_qr_scan", "android": "https://dc.lft.to/lastmile_qr_scan"}, "bike_id": "4a0ecb979c3f087a00ec54b9281fa11f", "type": "electric_bike", "fusion_lat": 0.0, "is_disabled": 0, "is_reserved": 0}, {"lon": -77.03220583333334, "name": "9f7897177007ace2cffa721015f4151b", "lat": 38.89745533333333, "fusion_lon": 0.0, "rental_uris": {"ios": "https://dc.lft.to/lastmile_qr_scan", "android": "https://dc.lft.to/lastmile_qr_scan"}, "bike_id": "9f7897177007ace2cffa721015f4151b", "type": "electric_scooter", "fusion_lat": 0.0, "is_disabled": 0, "is_reserved": 0}, {"lon": -77.03422933333333, "name": "44120df4018113bbb9a427d488fce1ff", "lat": 38.90364433333333, "fusion_lon": 0.0, "rental_uris": {"ios": "https://dc.lft.to/lastmile_qr_scan", "android": "https://dc.lft.to/lastmile_qr_scan"}, "bike_id": "44120df4018113bbb9a427d488fce1ff", "type": "electric_scooter", "fusion_lat": 0.0, "is_disabled": 0, "is_reserved": 0}, {"lon": -77.0095235, "name": "00cb41fe29539759f828ab83aca5c32d", "lat": 38.8976135, "fusion_lon": 0.0, "rental_uris": {"ios": "https://dc.lft.to/lastmile_qr_scan", "android": "https://dc.lft.to/lastmile_qr_scan"}, "bike_id": "00cb41fe29539759f828ab83aca5c32d", "type": "electric_scooter", "fusion_lat": 0.0, "is_disabled": 0, "is_reserved": 0}, {"lon": -77.0531915, "name": "abe1d1fe0330de2498bfd2da8d4585b0", "lat": 38.91838466666667, "fusion_lon": 0.0, "rental_uris": {"ios": "https://dc.lft.to/lastmile_qr_scan", "android": "https://dc.lft.to/lastmile_qr_scan"}, "bike_id": "abe1d1fe0330de2498bfd2da8d4585b0", "type": "electric_scooter", "fusion_lat": 0.0, "is_disabled": 0, "is_reserved": 0}, {"lon": -77.0248075, "name": "a85b81f2dc7829dc6bbbaccf011aa845", "lat": 38.93881966666667, "fusion_lon": 0.0, "rental_uris": {"ios": "https://dc.lft.to/lastmile_qr_scan", "android": "https://dc.lft.to/lastmile_qr_scan"}, "bike_id": "a85b81f2dc7829dc6bbbaccf011aa845", "type": "electric_scooter", "fusion_lat": 0.0, "is_disabled": 0, "is_reserved": 0}, {"lon": -77.05263333333333, "name": "6c03d1d7058f7b15b8c0b7a88e6e6854", "lat": 38.90149533333334, "fusion_lon": 0.0, "rental_uris": {"ios": "https://dc.lft.to/lastmile_qr_scan", "android": "https://dc.lft.to/lastmile_qr_scan"}, "bike_id": "6c03d1d7058f7b15b8c0b7a88e6e6854", "type": "electric_scooter", "fusion_lat": 0.0, "is_disabled": 0, "is_reserved": 0}, {"lon": -77.0368515, "name": "15147c63c6f55de73d563ab20df6a520", "lat": 38.9263945, "fusion_lon": 0.0, "rental_uris": {"ios": "https://dc.lft.to/lastmile_qr_scan", "android": "https://dc.lft.to/lastmile_qr_scan"}, "bike_id": "15147c63c6f55de73d563ab20df6a520", "type": "electric_scooter", "fusion_lat": 0.0, "is_disabled": 0, "is_reserved": 0}, {"lon": -77.02377166666666, "name": "38f5fd178f1074cf7b921a98de77c6cc", "lat": 38.8792475, "fusion_lon": 0.0, "rental_uris": {"ios": "https://dc.lft.to/lastmile_qr_scan", "android": "https://dc.lft.to/lastmile_qr_scan"}, "bike_id": "38f5fd178f1074cf7b921a98de77c6cc", "type": "electric_scooter", "fusion_lat": 0.0, "is_disabled": 0, "is_reserved": 0}, {"lon": -77.002097, "name": "37e4772d4405cf72782fc61c7a2ae7b7", "lat": 38.87777233333333, "fusion_lon": 0.0, "rental_uris": {"ios": "https://dc.lft.to/lastmile_qr_scan", "android": "https://dc.lft.to/lastmile_qr_scan"}, "bike_id": "37e4772d4405cf72782fc61c7a2ae7b7", "type": "electric_scooter", "fusion_lat": 0.0, "is_disabled": 0, "is_reserved": 0}, {"lon": -77.01769766666666, "name": "360f959687e8ec27d998674fc63922aa", "lat": 38.902753, "fusion_lon": 0.0, "rental_uris": {"ios": "https://dc.lft.to/lastmile_qr_scan", "android": "https://dc.lft.to/lastmile_qr_scan"}, "bike_id": "360f959687e8ec27d998674fc63922aa", "type": "electric_scooter", "fusion_lat": 0.0, "is_disabled": 0, "is_reserved": 0}, {"lon": -76.98625516666667, "name": "e45a7c139d7f08e941029fa21d71e60a", "lat": 38.85456216666667, "fusion_lon": 0.0, "rental_uris": {"ios": "https://dc.lft.to/lastmile_qr_scan", "android": "https://dc.lft.to/lastmile_qr_scan"}, "bike_id": "e45a7c139d7f08e941029fa21d71e60a", "type": "electric_bike", "fusion_lat": 0.0, "is_disabled": 0, "is_reserved": 0}, {"lon": -76.9979405, "name": "01903702bed49210ca52c7712f06f77a", "lat": 38.908509333333335, "fusion_lon": 0.0, "rental_uris": {"ios": "https://dc.lft.to/lastmile_qr_scan", "android": "https://dc.lft.to/lastmile_qr_scan"}, "bike_id": "01903702bed49210ca52c7712f06f77a", "type": "electric_scooter", "fusion_lat": 0.0, "is_disabled": 0, "is_reserved": 0}, {"lon": -77.0032735, "name": "0215f9efe29d5998ef281bf412a88623", "lat": 38.88048883333333, "fusion_lon": 0.0, "rental_uris": {"ios": "https://dc.lft.to/lastmile_qr_scan", "android": "https://dc.lft.to/lastmile_qr_scan"}, "bike_id": "0215f9efe29d5998ef281bf412a88623", "type": "electric_scooter", "fusion_lat": 0.0, "is_disabled": 0, "is_reserved": 0}, {"lon": -76.9866085, "name": "2ba8f60f7fd968e95eb4e121ee23a697", "lat": 38.97476616666667, "fusion_lon": 0.0, "rental_uris": {"ios": "https://dc.lft.to/lastmile_qr_scan", "android": "https://dc.lft.to/lastmile_qr_scan"}, "bike_id": "2ba8f60f7fd968e95eb4e121ee23a697", "type": "electric_bike", "fusion_lat": 0.0, "is_disabled": 0, "is_reserved": 0}, {"lon": -77.0458695, "name": "8c21e30659e3c21e91eb0528b4ad7cf1", "lat": 38.9027705, "fusion_lon": 0.0, "rental_uris": {"ios": "https://dc.lft.to/lastmile_qr_scan", "android": "https://dc.lft.to/lastmile_qr_scan"}, "bike_id": "8c21e30659e3c21e91eb0528b4ad7cf1", "type": "electric_scooter", "fusion_lat": 0.0, "is_disabled": 0, "is_reserved": 0}, {"lon": -77.0266805, "name": "3ab2f882e5412c3643d5b85c493eec31", "lat": 38.894519333333335, "fusion_lon": 0.0, "rental_uris": {"ios": "https://dc.lft.to/lastmile_qr_scan", "android": "https://dc.lft.to/lastmile_qr_scan"}, "bike_id": "3ab2f882e5412c3643d5b85c493eec31", "type": "electric_scooter", "fusion_lat": 0.0, "is_disabled": 0, "is_reserved": 0}, {"lon": -77.02218133333334, "name": "5da3dc8847bdbb69a2bdd7cd4341ec2a", "lat": 38.89637716666667, "fusion_lon": 0.0, "rental_uris": {"ios": "https://dc.lft.to/lastmile_qr_scan", "android": "https://dc.lft.to/lastmile_qr_scan"}, "bike_id": "5da3dc8847bdbb69a2bdd7cd4341ec2a", "type": "electric_scooter", "fusion_lat": 0.0, "is_disabled": 0, "is_reserved": 0}, {"lon": -76.97383283333333, "name": "1fd870c6ca9a54e1e76d5b8ade548cec", "lat": 38.903875, "fusion_lon": 0.0, "rental_uris": {"ios": "https://dc.lft.to/lastmile_qr_scan", "android": "https://dc.lft.to/lastmile_qr_scan"}, "bike_id": "1fd870c6ca9a54e1e76d5b8ade548cec", "type": "electric_scooter", "fusion_lat": 0.0, "is_disabled": 0, "is_reserved": 0}, {"lon": -77.03139616666667, "name": "e36cd3f80718ce0a5406d1cf2de5bca2", "lat": 38.92679866666667, "fusion_lon": 0.0, "rental_uris": {"ios": "https://dc.lft.to/lastmile_qr_scan", "android": "https://dc.lft.to/lastmile_qr_scan"}, "bike_id": "e36cd3f80718ce0a5406d1cf2de5bca2", "type": "electric_scooter", "fusion_lat": 0.0, "is_disabled": 0, "is_reserved": 0}, {"lon": -76.9976925, "name": "749e1c91b03774ea559ac8815f729261", "lat": 38.957876166666665, "fusion_lon": 0.0, "rental_uris": {"ios": "https://dc.lft.to/lastmile_qr_scan", "android": "https://dc.lft.to/lastmile_qr_scan"}, "bike_id": "749e1c91b03774ea559ac8815f729261", "type": "electric_bike", "fusion_lat": 0.0, "is_disabled": 0, "is_reserved": 0}, {"lon": -76.9761855, "name": "53bccf71d00839387d6af84db1343be8", "lat": 38.840308666666665, "fusion_lon": 0.0, "rental_uris": {"ios": "https://dc.lft.to/lastmile_qr_scan", "android": "https://dc.lft.to/lastmile_qr_scan"}, "bike_id": "53bccf71d00839387d6af84db1343be8", "type": "electric_bike", "fusion_lat": 0.0, "is_disabled": 0, "is_reserved": 0}, {"lon": -77.024132, "name": "155c6f4bb92c37759c92f77bbfc6d741", "lat": 38.89224766666667, "fusion_lon": 0.0, "rental_uris": {"ios": "https://dc.lft.to/lastmile_qr_scan", "android": "https://dc.lft.to/lastmile_qr_scan"}, "bike_id": "155c6f4bb92c37759c92f77bbfc6d741", "type": "electric_scooter", "fusion_lat": 0.0, "is_disabled": 0, "is_reserved": 0}, {"lon": -77.025062, "name": "a1a60a8f49b9966bdf86685110c4f049", "lat": 38.94173883333333, "fusion_lon": 0.0, "rental_uris": {"ios": "https://dc.lft.to/lastmile_qr_scan", "android": "https://dc.lft.to/lastmile_qr_scan"}, "bike_id": "a1a60a8f49b9966bdf86685110c4f049", "type": "electric_scooter", "fusion_lat": 0.0, "is_disabled": 0, "is_reserved": 0}, {"lon": -76.95973833333333, "name": "53620666d18195e63cc340e5c7ded8dc", "lat": 38.896527666666664, "fusion_lon": 0.0, "rental_uris": {"ios": "https://dc.lft.to/lastmile_qr_scan", "android": "https://dc.lft.to/lastmile_qr_scan"}, "bike_id": "53620666d18195e63cc340e5c7ded8dc", "type": "electric_bike", "fusion_lat": 0.0, "is_disabled": 0, "is_reserved": 0}, {"lon": -77.02894816666667, "name": "3d593ec8ad25685396db476f622abc5d", "lat": 38.9946725, "fusion_lon": 0.0, "rental_uris": {"ios": "https://dc.lft.to/lastmile_qr_scan", "android": "https://dc.lft.to/lastmile_qr_scan"}, "bike_id": "3d593ec8ad25685396db476f622abc5d", "type": "electric_bike", "fusion_lat": 0.0, "is_disabled": 0, "is_reserved": 0}, {"lon": -77.07352933333334, "name": "af77fcfd8f3b04b5b9e69ade8c299dfd", "lat": 38.91099283333333, "fusion_lon": 0.0, "rental_uris": {"ios": "https://dc.lft.to/lastmile_qr_scan", "android": "https://dc.lft.to/lastmile_qr_scan"}, "bike_id": "af77fcfd8f3b04b5b9e69ade8c299dfd", "type": "electric_scooter", "fusion_lat": 0.0, "is_disabled": 0, "is_reserved": 0}, {"lon": -77.03446533333333, "name": "298bb73c56021001badd3478eeb96e4a", "lat": 38.902626166666664, "fusion_lon": 0.0, "rental_uris": {"ios": "https://dc.lft.to/lastmile_qr_scan", "android": "https://dc.lft.to/lastmile_qr_scan"}, "bike_id": "298bb73c56021001badd3478eeb96e4a", "type": "electric_scooter", "fusion_lat": 0.0, "is_disabled": 0, "is_reserved": 0}, {"lon": -77.01903233333333, "name": "ab6866d5b11add38049d4d1f00b10b59", "lat": 38.92345, "fusion_lon": 0.0, "rental_uris": {"ios": "https://dc.lft.to/lastmile_qr_scan", "android": "https://dc.lft.to/lastmile_qr_scan"}, "bike_id": "ab6866d5b11add38049d4d1f00b10b59", "type": "electric_scooter", "fusion_lat": 0.0, "is_disabled": 0, "is_reserved": 0}, {"lon": -77.0369975, "name": "4835a4d9765c6dd3e4b29eec7f772d5c", "lat": 38.926425, "fusion_lon": 0.0, "rental_uris": {"ios": "https://dc.lft.to/lastmile_qr_scan", "android": "https://dc.lft.to/lastmile_qr_scan"}, "bike_id": "4835a4d9765c6dd3e4b29eec7f772d5c", "type": "electric_scooter", "fusion_lat": 0.0, "is_disabled": 0, "is_reserved": 0}, {"lon": -77.0227545, "name": "e017ef1306c490d522a950a50f2a4da7", "lat": 38.924909, "fusion_lon": 0.0, "rental_uris": {"ios": "https://dc.lft.to/lastmile_qr_scan", "android": "https://dc.lft.to/lastmile_qr_scan"}, "bike_id": "e017ef1306c490d522a950a50f2a4da7", "type": "electric_scooter", "fusion_lat": 0.0, "is_disabled": 0, "is_reserved": 0}, {"lon": -76.94953783333334, "name": "83342ce947f723c81d1d2abf452fd74e", "lat": 38.904882666666666, "fusion_lon": 0.0, "rental_uris": {"ios": "https://dc.lft.to/lastmile_qr_scan", "android": "https://dc.lft.to/lastmile_qr_scan"}, "bike_id": "83342ce947f723c81d1d2abf452fd74e", "type": "electric_scooter", "fusion_lat": 0.0, "is_disabled": 0, "is_reserved": 0}, {"lon": -76.9724905, "name": "6e1c66e77f9491ac8fd8dfd04965ce38", "lat": 38.89609316666667, "fusion_lon": 0.0, "rental_uris": {"ios": "https://dc.lft.to/lastmile_qr_scan", "android": "https://dc.lft.to/lastmile_qr_scan"}, "bike_id": "6e1c66e77f9491ac8fd8dfd04965ce38", "type": "electric_scooter", "fusion_lat": 0.0, "is_disabled": 0, "is_reserved": 0}, {"lon": -77.03710033333333, "name": "ef58e280081ccb126b82c71ab5520cb2", "lat": 38.913251833333334, "fusion_lon": 0.0, "rental_uris": {"ios": "https://dc.lft.to/lastmile_qr_scan", "android": "https://dc.lft.to/lastmile_qr_scan"}, "bike_id": "ef58e280081ccb126b82c71ab5520cb2", "type": "electric_scooter", "fusion_lat": 0.0, "is_disabled": 0, "is_reserved": 0}, {"lon": -76.99801316666667, "name": "fde93b44dbc36c40c6c4bcee8e7c00b6", "lat": 38.90851166666667, "fusion_lon": 0.0, "rental_uris": {"ios": "https://dc.lft.to/lastmile_qr_scan", "android": "https://dc.lft.to/lastmile_qr_scan"}, "bike_id": "fde93b44dbc36c40c6c4bcee8e7c00b6", "type": "electric_scooter", "fusion_lat": 0.0, "is_disabled": 0, "is_reserved": 0}, {"lon": -77.0373855, "name": "f9064f12b67d87a49ea0d57b5358535d", "lat": 38.912720666666665, "fusion_lon": 0.0, "rental_uris": {"ios": "https://dc.lft.to/lastmile_qr_scan", "android": "https://dc.lft.to/lastmile_qr_scan"}, "bike_id": "f9064f12b67d87a49ea0d57b5358535d", "type": "electric_scooter", "fusion_lat": 0.0, "is_disabled": 0, "is_reserved": 0}, {"lon": -77.0219765, "name": "654409671d13fce6ea8238f0c366e0f9", "lat": 38.900789, "fusion_lon": 0.0, "rental_uris": {"ios": "https://dc.lft.to/lastmile_qr_scan", "android": "https://dc.lft.to/lastmile_qr_scan"}, "bike_id": "654409671d13fce6ea8238f0c366e0f9", "type": "electric_scooter", "fusion_lat": 0.0, "is_disabled": 0, "is_reserved": 0}, {"lon": -77.03246216666666, "name": "04422dc691adfe956053514a10e38d7c", "lat": 38.90557233333333, "fusion_lon": 0.0, "rental_uris": {"ios": "https://dc.lft.to/lastmile_qr_scan", "android": "https://dc.lft.to/lastmile_qr_scan"}, "bike_id": "04422dc691adfe956053514a10e38d7c", "type": "electric_scooter", "fusion_lat": 0.0, "is_disabled": 0, "is_reserved": 0}, {"lon": -77.02647816666666, "name": "8fa3ebb4ad92bc85402345e7ace1fe05", "lat": 38.884770833333334, "fusion_lon": 0.0, "rental_uris": {"ios": "https://dc.lft.to/lastmile_qr_scan", "android": "https://dc.lft.to/lastmile_qr_scan"}, "bike_id": "8fa3ebb4ad92bc85402345e7ace1fe05", "type": "electric_scooter", "fusion_lat": 0.0, "is_disabled": 0, "is_reserved": 0}, {"lon": -77.04643116666666, "name": "4da62765fc493406310b17cfd899e9e3", "lat": 38.9157625, "fusion_lon": 0.0, "rental_uris": {"ios": "https://dc.lft.to/lastmile_qr_scan", "android": "https://dc.lft.to/lastmile_qr_scan"}, "bike_id": "4da62765fc493406310b17cfd899e9e3", "type": "electric_scooter", "fusion_lat": 0.0, "is_disabled": 0, "is_reserved": 0}, {"lon": -77.020279, "name": "2fa19c81ec9c3db22b89181388cb081a", "lat": 38.876700166666666, "fusion_lon": 0.0, "rental_uris": {"ios": "https://dc.lft.to/lastmile_qr_scan", "android": "https://dc.lft.to/lastmile_qr_scan"}, "bike_id": "2fa19c81ec9c3db22b89181388cb081a", "type": "electric_scooter", "fusion_lat": 0.0, "is_disabled": 0, "is_reserved": 0}, {"lon": -77.032025, "name": "a5e6a0bdf97a9a85f782b5a27a20fab2", "lat": 38.90977566666667, "fusion_lon": 0.0, "rental_uris": {"ios": "https://dc.lft.to/lastmile_qr_scan", "android": "https://dc.lft.to/lastmile_qr_scan"}, "bike_id": "a5e6a0bdf97a9a85f782b5a27a20fab2", "type": "electric_scooter", "fusion_lat": 0.0, "is_disabled": 0, "is_reserved": 0}, {"lon": -76.954633, "name": "44e667d982b1dd5080f30134f69b6788", "lat": 38.89085633333333, "fusion_lon": 0.0, "rental_uris": {"ios": "https://dc.lft.to/lastmile_qr_scan", "android": "https://dc.lft.to/lastmile_qr_scan"}, "bike_id": "44e667d982b1dd5080f30134f69b6788", "type": "electric_bike", "fusion_lat": 0.0, "is_disabled": 0, "is_reserved": 0}, {"lon": -76.99341733333333, "name": "e40d9e4fcdab437a818b98645b6543bd", "lat": 38.910338833333334, "fusion_lon": 0.0, "rental_uris": {"ios": "https://dc.lft.to/lastmile_qr_scan", "android": "https://dc.lft.to/lastmile_qr_scan"}, "bike_id": "e40d9e4fcdab437a818b98645b6543bd", "type": "electric_scooter", "fusion_lat": 0.0, "is_disabled": 0, "is_reserved": 0}, {"lon": -77.021992, "name": "99bd4f3779d068b3565d9ed4a709a1a6", "lat": 38.88690916666667, "fusion_lon": 0.0, "rental_uris": {"ios": "https://dc.lft.to/lastmile_qr_scan", "android": "https://dc.lft.to/lastmile_qr_scan"}, "bike_id": "99bd4f3779d068b3565d9ed4a709a1a6", "type": "electric_scooter", "fusion_lat": 0.0, "is_disabled": 0, "is_reserved": 0}, {"lon": -77.02052566666667, "name": "4415f24221652c4b09e03ad8446c5ab9", "lat": 38.91344933333333, "fusion_lon": 0.0, "rental_uris": {"ios": "https://dc.lft.to/lastmile_qr_scan", "android": "https://dc.lft.to/lastmile_qr_scan"}, "bike_id": "4415f24221652c4b09e03ad8446c5ab9", "type": "electric_scooter", "fusion_lat": 0.0, "is_disabled": 0, "is_reserved": 0}, {"lon": -77.02215766666667, "name": "b5630b5e57bad0967b3116421b404ec9", "lat": 38.924708833333334, "fusion_lon": 0.0, "rental_uris": {"ios": "https://dc.lft.to/lastmile_qr_scan", "android": "https://dc.lft.to/lastmile_qr_scan"}, "bike_id": "b5630b5e57bad0967b3116421b404ec9", "type": "electric_scooter", "fusion_lat": 0.0, "is_disabled": 0, "is_reserved": 0}, {"lon": -77.00199416666666, "name": "653b4e8957426a8ac7f4b8da8dd02ab3", "lat": 38.88661033333333, "fusion_lon": 0.0, "rental_uris": {"ios": "https://dc.lft.to/lastmile_qr_scan", "android": "https://dc.lft.to/lastmile_qr_scan"}, "bike_id": "653b4e8957426a8ac7f4b8da8dd02ab3", "type": "electric_scooter", "fusion_lat": 0.0, "is_disabled": 0, "is_reserved": 0}, {"lon": -76.997359, "name": "dfad20e54b1e2e65ba7b4e04c475ebb9", "lat": 39.042354833333334, "fusion_lon": 0.0, "rental_uris": {"ios": "https://dc.lft.to/lastmile_qr_scan", "android": "https://dc.lft.to/lastmile_qr_scan"}, "bike_id": "dfad20e54b1e2e65ba7b4e04c475ebb9", "type": "electric_bike", "fusion_lat": 0.0, "is_disabled": 0, "is_reserved": 0}, {"lon": -77.019654, "name": "40646033df54b3889410d45f151c4164", "lat": 38.902651166666665, "fusion_lon": 0.0, "rental_uris": {"ios": "https://dc.lft.to/lastmile_qr_scan", "android": "https://dc.lft.to/lastmile_qr_scan"}, "bike_id": "40646033df54b3889410d45f151c4164", "type": "electric_scooter", "fusion_lat": 0.0, "is_disabled": 0, "is_reserved": 0}, {"lon": -76.98031483333334, "name": "fbe1ef1ac779313158a3d5c5d4f6d2ff", "lat": 38.870402, "fusion_lon": 0.0, "rental_uris": {"ios": "https://dc.lft.to/lastmile_qr_scan", "android": "https://dc.lft.to/lastmile_qr_scan"}, "bike_id": "fbe1ef1ac779313158a3d5c5d4f6d2ff", "type": "electric_scooter", "fusion_lat": 0.0, "is_disabled": 0, "is_reserved": 0}, {"lon": -77.00068283333333, "name": "3b5416b9887fa70b0e03ad4d368b9a7c", "lat": 38.923945833333335, "fusion_lon": 0.0, "rental_uris": {"ios": "https://dc.lft.to/lastmile_qr_scan", "android": "https://dc.lft.to/lastmile_qr_scan"}, "bike_id": "3b5416b9887fa70b0e03ad4d368b9a7c", "type": "electric_scooter", "fusion_lat": 0.0, "is_disabled": 0, "is_reserved": 0}, {"lon": -77.02169066666667, "name": "ae0bdcf072abc2609d514e3f623c5579", "lat": 38.930702, "fusion_lon": 0.0, "rental_uris": {"ios": "https://dc.lft.to/lastmile_qr_scan", "android": "https://dc.lft.to/lastmile_qr_scan"}, "bike_id": "ae0bdcf072abc2609d514e3f623c5579", "type": "electric_scooter", "fusion_lat": 0.0, "is_disabled": 0, "is_reserved": 0}, {"lon": -77.06724416666667, "name": "de9e8a92002b7cf5f1de0a28c18030be", "lat": 38.90525816666667, "fusion_lon": 0.0, "rental_uris": {"ios": "https://dc.lft.to/lastmile_qr_scan", "android": "https://dc.lft.to/lastmile_qr_scan"}, "bike_id": "de9e8a92002b7cf5f1de0a28c18030be", "type": "electric_scooter", "fusion_lat": 0.0, "is_disabled": 0, "is_reserved": 0}, {"lon": -77.07269133333334, "name": "0c0547fcfc4be5f77b9424fed33be554", "lat": 38.935297166666665, "fusion_lon": 0.0, "rental_uris": {"ios": "https://dc.lft.to/lastmile_qr_scan", "android": "https://dc.lft.to/lastmile_qr_scan"}, "bike_id": "0c0547fcfc4be5f77b9424fed33be554", "type": "electric_scooter", "fusion_lat": 0.0, "is_disabled": 0, "is_reserved": 0}, {"lon": -77.07303616666667, "name": "d3507120a112960a6412bd08a0b70422", "lat": 38.93630316666667, "fusion_lon": 0.0, "rental_uris": {"ios": "https://dc.lft.to/lastmile_qr_scan", "android": "https://dc.lft.to/lastmile_qr_scan"}, "bike_id": "d3507120a112960a6412bd08a0b70422", "type": "electric_scooter", "fusion_lat": 0.0, "is_disabled": 0, "is_reserved": 0}, {"lon": -77.0215695, "name": "3f55b887fb948ce82db2cfc5eee6c423", "lat": 38.92612533333333, "fusion_lon": 0.0, "rental_uris": {"ios": "https://dc.lft.to/lastmile_qr_scan", "android": "https://dc.lft.to/lastmile_qr_scan"}, "bike_id": "3f55b887fb948ce82db2cfc5eee6c423", "type": "electric_scooter", "fusion_lat": 0.0, "is_disabled": 0, "is_reserved": 0}, {"lon": -76.9929205, "name": "397bb84e4abd7ea074fb9ea36402eea3", "lat": 38.8812475, "fusion_lon": 0.0, "rental_uris": {"ios": "https://dc.lft.to/lastmile_qr_scan", "android": "https://dc.lft.to/lastmile_qr_scan"}, "bike_id": "397bb84e4abd7ea074fb9ea36402eea3", "type": "electric_scooter", "fusion_lat": 0.0, "is_disabled": 0, "is_reserved": 0}, {"lon": -77.0468335, "name": "88291ebe732ae7978ce3e632c8441e44", "lat": 38.903844166666666, "fusion_lon": 0.0, "rental_uris": {"ios": "https://dc.lft.to/lastmile_qr_scan", "android": "https://dc.lft.to/lastmile_qr_scan"}, "bike_id": "88291ebe732ae7978ce3e632c8441e44", "type": "electric_scooter", "fusion_lat": 0.0, "is_disabled": 0, "is_reserved": 0}, {"lon": -77.00308116666666, "name": "1bc7bdb0b2193c0f32d1292a2f897712", "lat": 38.892251, "fusion_lon": 0.0, "rental_uris": {"ios": "https://dc.lft.to/lastmile_qr_scan", "android": "https://dc.lft.to/lastmile_qr_scan"}, "bike_id": "1bc7bdb0b2193c0f32d1292a2f897712", "type": "electric_scooter", "fusion_lat": 0.0, "is_disabled": 0, "is_reserved": 0}, {"lon": -77.02945683333333, "name": "07694850b8fdadf4c3c1d2f493339851", "lat": 38.90135183333334, "fusion_lon": 0.0, "rental_uris": {"ios": "https://dc.lft.to/lastmile_qr_scan", "android": "https://dc.lft.to/lastmile_qr_scan"}, "bike_id": "07694850b8fdadf4c3c1d2f493339851", "type": "electric_scooter", "fusion_lat": 0.0, "is_disabled": 0, "is_reserved": 0}, {"lon": -77.04983316666667, "name": "312785fa8523af0a4e182ad5bd15cb8b", "lat": 38.90798233333334, "fusion_lon": 0.0, "rental_uris": {"ios": "https://dc.lft.to/lastmile_qr_scan", "android": "https://dc.lft.to/lastmile_qr_scan"}, "bike_id": "312785fa8523af0a4e182ad5bd15cb8b", "type": "electric_scooter", "fusion_lat": 0.0, "is_disabled": 0, "is_reserved": 0}, {"lon": -76.9962525, "name": "b6888a44012501f83e913a9a03187296", "lat": 38.88141066666667, "fusion_lon": 0.0, "rental_uris": {"ios": "https://dc.lft.to/lastmile_qr_scan", "android": "https://dc.lft.to/lastmile_qr_scan"}, "bike_id": "b6888a44012501f83e913a9a03187296", "type": "electric_scooter", "fusion_lat": 0.0, "is_disabled": 0, "is_reserved": 0}, {"lon": -77.02094666666666, "name": "db1a79440e1dbcd4cc3f8629ff722dfc", "lat": 38.921541, "fusion_lon": 0.0, "rental_uris": {"ios": "https://dc.lft.to/lastmile_qr_scan", "android": "https://dc.lft.to/lastmile_qr_scan"}, "bike_id": "db1a79440e1dbcd4cc3f8629ff722dfc", "type": "electric_scooter", "fusion_lat": 0.0, "is_disabled": 0, "is_reserved": 0}, {"lon": -77.04749666666666, "name": "7bf138c596bcd18bf368f323f069612a", "lat": 38.91829283333333, "fusion_lon": 0.0, "rental_uris": {"ios": "https://dc.lft.to/lastmile_qr_scan", "android": "https://dc.lft.to/lastmile_qr_scan"}, "bike_id": "7bf138c596bcd18bf368f323f069612a", "type": "electric_scooter", "fusion_lat": 0.0, "is_disabled": 0, "is_reserved": 0}, {"lon": -76.9463335, "name": "e2b88593f02b7bc56a66f3452176dd15", "lat": 38.898331166666665, "fusion_lon": 0.0, "rental_uris": {"ios": "https://dc.lft.to/lastmile_qr_scan", "android": "https://dc.lft.to/lastmile_qr_scan"}, "bike_id": "e2b88593f02b7bc56a66f3452176dd15", "type": "electric_scooter", "fusion_lat": 0.0, "is_disabled": 0, "is_reserved": 0}, {"lon": -76.94244133333333, "name": "e7357efa5c74941bc117388d4fe01995", "lat": 38.980366333333336, "fusion_lon": 0.0, "rental_uris": {"ios": "https://dc.lft.to/lastmile_qr_scan", "android": "https://dc.lft.to/lastmile_qr_scan"}, "bike_id": "e7357efa5c74941bc117388d4fe01995", "type": "electric_bike", "fusion_lat": 0.0, "is_disabled": 0, "is_reserved": 0}, {"lon": -77.01376333333333, "name": "12a2c6df224850e1b20dee5792ead42a", "lat": 38.86744483333333, "fusion_lon": 0.0, "rental_uris": {"ios": "https://dc.lft.to/lastmile_qr_scan", "android": "https://dc.lft.to/lastmile_qr_scan"}, "bike_id": "12a2c6df224850e1b20dee5792ead42a", "type": "electric_scooter", "fusion_lat": 0.0, "is_disabled": 0, "is_reserved": 0}, {"lon": -77.02205116666667, "name": "953a167257804ee1cddd63b98f0548ee", "lat": 38.88616733333333, "fusion_lon": 0.0, "rental_uris": {"ios": "https://dc.lft.to/lastmile_qr_scan", "android": "https://dc.lft.to/lastmile_qr_scan"}, "bike_id": "953a167257804ee1cddd63b98f0548ee", "type": "electric_scooter", "fusion_lat": 0.0, "is_disabled": 0, "is_reserved": 0}, {"lon": -77.01142866666666, "name": "649e7c4bceab5cc602abcd9d51c5fd88", "lat": 38.917095333333336, "fusion_lon": 0.0, "rental_uris": {"ios": "https://dc.lft.to/lastmile_qr_scan", "android": "https://dc.lft.to/lastmile_qr_scan"}, "bike_id": "649e7c4bceab5cc602abcd9d51c5fd88", "type": "electric_scooter", "fusion_lat": 0.0, "is_disabled": 0, "is_reserved": 0}, {"lon": -77.02941966666667, "name": "283b02de76c41ab856dda0ca43dbbde8", "lat": 38.9037525, "fusion_lon": 0.0, "rental_uris": {"ios": "https://dc.lft.to/lastmile_qr_scan", "android": "https://dc.lft.to/lastmile_qr_scan"}, "bike_id": "283b02de76c41ab856dda0ca43dbbde8", "type": "electric_scooter", "fusion_lat": 0.0, "is_disabled": 0, "is_reserved": 0}, {"lon": -76.97708933333334, "name": "9c955e60642652388172793b9172b257", "lat": 38.886219, "fusion_lon": 0.0, "rental_uris": {"ios": "https://dc.lft.to/lastmile_qr_scan", "android": "https://dc.lft.to/lastmile_qr_scan"}, "bike_id": "9c955e60642652388172793b9172b257", "type": "electric_scooter", "fusion_lat": 0.0, "is_disabled": 0, "is_reserved": 0}, {"lon": -76.97955866666666, "name": "c30e1c0e84a61be71df79c0156783765", "lat": 38.89213566666667, "fusion_lon": 0.0, "rental_uris": {"ios": "https://dc.lft.to/lastmile_qr_scan", "android": "https://dc.lft.to/lastmile_qr_scan"}, "bike_id": "c30e1c0e84a61be71df79c0156783765", "type": "electric_scooter", "fusion_lat": 0.0, "is_disabled": 0, "is_reserved": 0}, {"lon": -77.00349933333334, "name": "6021877393287338ecb5a54f292b0952", "lat": 38.892733, "fusion_lon": 0.0, "rental_uris": {"ios": "https://dc.lft.to/lastmile_qr_scan", "android": "https://dc.lft.to/lastmile_qr_scan"}, "bike_id": "6021877393287338ecb5a54f292b0952", "type": "electric_scooter", "fusion_lat": 0.0, "is_disabled": 0, "is_reserved": 0}, {"lon": -77.233966, "name": "758957f4d5f0ab0acdd9c021a031e6cb", "lat": 38.87177066666667, "fusion_lon": 0.0, "rental_uris": {"ios": "https://dc.lft.to/lastmile_qr_scan", "android": "https://dc.lft.to/lastmile_qr_scan"}, "bike_id": "758957f4d5f0ab0acdd9c021a031e6cb", "type": "electric_bike", "fusion_lat": 0.0, "is_disabled": 0, "is_reserved": 0}, {"lon": -77.03852566666667, "name": "017c6c69defa5d98fe8cf9c5f53cd565", "lat": 38.90365, "fusion_lon": 0.0, "rental_uris": {"ios": "https://dc.lft.to/lastmile_qr_scan", "android": "https://dc.lft.to/lastmile_qr_scan"}, "bike_id": "017c6c69defa5d98fe8cf9c5f53cd565", "type": "electric_scooter", "fusion_lat": 0.0, "is_disabled": 0, "is_reserved": 0}, {"lon": -77.02365716666667, "name": "4d42253a8e5b7642000401fa3e98659e", "lat": 38.92812816666667, "fusion_lon": 0.0, "rental_uris": {"ios": "https://dc.lft.to/lastmile_qr_scan", "android": "https://dc.lft.to/lastmile_qr_scan"}, "bike_id": "4d42253a8e5b7642000401fa3e98659e", "type": "electric_scooter", "fusion_lat": 0.0, "is_disabled": 0, "is_reserved": 0}, {"lon": -77.0346395, "name": "307dc28f85f13898f8cc364d102eb97a", "lat": 38.905055833333336, "fusion_lon": 0.0, "rental_uris": {"ios": "https://dc.lft.to/lastmile_qr_scan", "android": "https://dc.lft.to/lastmile_qr_scan"}, "bike_id": "307dc28f85f13898f8cc364d102eb97a", "type": "electric_scooter", "fusion_lat": 0.0, "is_disabled": 0, "is_reserved": 0}, {"lon": -76.991617, "name": "164b0ed43e0091a66cceac7e7ee005bb", "lat": 38.953716, "fusion_lon": 0.0, "rental_uris": {"ios": "https://dc.lft.to/lastmile_qr_scan", "android": "https://dc.lft.to/lastmile_qr_scan"}, "bike_id": "164b0ed43e0091a66cceac7e7ee005bb", "type": "electric_scooter", "fusion_lat": 0.0, "is_disabled": 0, "is_reserved": 0}, {"lon": -77.02683083333334, "name": "0b06add7063821b98f0eeef0e983d919", "lat": 38.89717666666667, "fusion_lon": 0.0, "rental_uris": {"ios": "https://dc.lft.to/lastmile_qr_scan", "android": "https://dc.lft.to/lastmile_qr_scan"}, "bike_id": "0b06add7063821b98f0eeef0e983d919", "type": "electric_scooter", "fusion_lat": 0.0, "is_disabled": 0, "is_reserved": 0}, {"lon": -77.00337083333334, "name": "f4f7a01f2158a6a1558d4e06f6d756f9", "lat": 38.886112833333335, "fusion_lon": 0.0, "rental_uris": {"ios": "https://dc.lft.to/lastmile_qr_scan", "android": "https://dc.lft.to/lastmile_qr_scan"}, "bike_id": "f4f7a01f2158a6a1558d4e06f6d756f9", "type": "electric_scooter", "fusion_lat": 0.0, "is_disabled": 0, "is_reserved": 0}, {"lon": -77.0433135, "name": "b8333e91ebfc7763df74eacb18bfa1f8", "lat": 38.89226083333333, "fusion_lon": 0.0, "rental_uris": {"ios": "https://dc.lft.to/lastmile_qr_scan", "android": "https://dc.lft.to/lastmile_qr_scan"}, "bike_id": "b8333e91ebfc7763df74eacb18bfa1f8", "type": "electric_scooter", "fusion_lat": 0.0, "is_disabled": 0, "is_reserved": 0}, {"lon": -76.9793355, "name": "b0d3b3199b85356dcc7ceada5873814a", "lat": 38.90692933333333, "fusion_lon": 0.0, "rental_uris": {"ios": "https://dc.lft.to/lastmile_qr_scan", "android": "https://dc.lft.to/lastmile_qr_scan"}, "bike_id": "b0d3b3199b85356dcc7ceada5873814a", "type": "electric_scooter", "fusion_lat": 0.0, "is_disabled": 0, "is_reserved": 0}, {"lon": -77.00289366666667, "name": "dfee0a3f6550680ff0a43cdb0f5da29a", "lat": 38.89196116666667, "fusion_lon": 0.0, "rental_uris": {"ios": "https://dc.lft.to/lastmile_qr_scan", "android": "https://dc.lft.to/lastmile_qr_scan"}, "bike_id": "dfee0a3f6550680ff0a43cdb0f5da29a", "type": "electric_scooter", "fusion_lat": 0.0, "is_disabled": 0, "is_reserved": 0}, {"lon": -77.04808016666667, "name": "be5c867fd84daa471e846cc808787d06", "lat": 38.919199666666664, "fusion_lon": 0.0, "rental_uris": {"ios": "https://dc.lft.to/lastmile_qr_scan", "android": "https://dc.lft.to/lastmile_qr_scan"}, "bike_id": "be5c867fd84daa471e846cc808787d06", "type": "electric_scooter", "fusion_lat": 0.0, "is_disabled": 0, "is_reserved": 0}, {"lon": -76.98890683333333, "name": "7028a4660689226a655852095ada031e", "lat": 38.895409, "fusion_lon": 0.0, "rental_uris": {"ios": "https://dc.lft.to/lastmile_qr_scan", "android": "https://dc.lft.to/lastmile_qr_scan"}, "bike_id": "7028a4660689226a655852095ada031e", "type": "electric_scooter", "fusion_lat": 0.0, "is_disabled": 0, "is_reserved": 0}, {"lon": -77.0294035, "name": "694b9c4e82148bb0d07871b064fbb4c1", "lat": 38.904855166666664, "fusion_lon": 0.0, "rental_uris": {"ios": "https://dc.lft.to/lastmile_qr_scan", "android": "https://dc.lft.to/lastmile_qr_scan"}, "bike_id": "694b9c4e82148bb0d07871b064fbb4c1", "type": "electric_scooter", "fusion_lat": 0.0, "is_disabled": 0, "is_reserved": 0}, {"lon": -77.01473633333333, "name": "4527a5e5aa0491e456d62a49c7f1a3f1", "lat": 38.92668966666667, "fusion_lon": 0.0, "rental_uris": {"ios": "https://dc.lft.to/lastmile_qr_scan", "android": "https://dc.lft.to/lastmile_qr_scan"}, "bike_id": "4527a5e5aa0491e456d62a49c7f1a3f1", "type": "electric_scooter", "fusion_lat": 0.0, "is_disabled": 0, "is_reserved": 0}, {"lon": -77.023593, "name": "01c606ce01aa16724d6fcdcda6f68a1d", "lat": 38.9376165, "fusion_lon": 0.0, "rental_uris": {"ios": "https://dc.lft.to/lastmile_qr_scan", "android": "https://dc.lft.to/lastmile_qr_scan"}, "bike_id": "01c606ce01aa16724d6fcdcda6f68a1d", "type": "electric_scooter", "fusion_lat": 0.0, "is_disabled": 0, "is_reserved": 0}, {"lon": -77.05267033333334, "name": "3811373fa46fd98a2fcbb098f0a149ae", "lat": 38.9102115, "fusion_lon": 0.0, "rental_uris": {"ios": "https://dc.lft.to/lastmile_qr_scan", "android": "https://dc.lft.to/lastmile_qr_scan"}, "bike_id": "3811373fa46fd98a2fcbb098f0a149ae", "type": "electric_scooter", "fusion_lat": 0.0, "is_disabled": 0, "is_reserved": 0}, {"lon": -77.0383675, "name": "c301b25e718ac5f3d5e049d17da0c1c9", "lat": 38.90300666666667, "fusion_lon": 0.0, "rental_uris": {"ios": "https://dc.lft.to/lastmile_qr_scan", "android": "https://dc.lft.to/lastmile_qr_scan"}, "bike_id": "c301b25e718ac5f3d5e049d17da0c1c9", "type": "electric_scooter", "fusion_lat": 0.0, "is_disabled": 0, "is_reserved": 0}, {"lon": -77.02384633333334, "name": "5f5729edffabb15240ab3e45739ae117", "lat": 38.892326833333335, "fusion_lon": 0.0, "rental_uris": {"ios": "https://dc.lft.to/lastmile_qr_scan", "android": "https://dc.lft.to/lastmile_qr_scan"}, "bike_id": "5f5729edffabb15240ab3e45739ae117", "type": "electric_scooter", "fusion_lat": 0.0, "is_disabled": 0, "is_reserved": 0}, {"lon": -77.02297283333333, "name": "cabe341b7701cc68e6b81c03ac502659", "lat": 38.965574, "fusion_lon": 0.0, "rental_uris": {"ios": "https://dc.lft.to/lastmile_qr_scan", "android": "https://dc.lft.to/lastmile_qr_scan"}, "bike_id": "cabe341b7701cc68e6b81c03ac502659", "type": "electric_bike", "fusion_lat": 0.0, "is_disabled": 0, "is_reserved": 0}, {"lon": -77.03121316666666, "name": "fbdc61c76a498f9ea8e062568fd13e19", "lat": 38.959316666666666, "fusion_lon": 0.0, "rental_uris": {"ios": "https://dc.lft.to/lastmile_qr_scan", "android": "https://dc.lft.to/lastmile_qr_scan"}, "bike_id": "fbdc61c76a498f9ea8e062568fd13e19", "type": "electric_scooter", "fusion_lat": 0.0, "is_disabled": 0, "is_reserved": 0}, {"lon": -77.01761883333333, "name": "be69fbaa3a9278ac905918f4cd5f35e4", "lat": 38.902709333333334, "fusion_lon": 0.0, "rental_uris": {"ios": "https://dc.lft.to/lastmile_qr_scan", "android": "https://dc.lft.to/lastmile_qr_scan"}, "bike_id": "be69fbaa3a9278ac905918f4cd5f35e4", "type": "electric_scooter", "fusion_lat": 0.0, "is_disabled": 0, "is_reserved": 0}, {"lon": -77.04840116666666, "name": "c634e3912cf27d39573f6c67ae11ae4a", "lat": 38.9007415, "fusion_lon": 0.0, "rental_uris": {"ios": "https://dc.lft.to/lastmile_qr_scan", "android": "https://dc.lft.to/lastmile_qr_scan"}, "bike_id": "c634e3912cf27d39573f6c67ae11ae4a", "type": "electric_scooter", "fusion_lat": 0.0, "is_disabled": 0, "is_reserved": 0}, {"lon": -76.97954433333334, "name": "519f97393265b45827493da7eadb35ee", "lat": 38.905044, "fusion_lon": 0.0, "rental_uris": {"ios": "https://dc.lft.to/lastmile_qr_scan", "android": "https://dc.lft.to/lastmile_qr_scan"}, "bike_id": "519f97393265b45827493da7eadb35ee", "type": "electric_scooter", "fusion_lat": 0.0, "is_disabled": 0, "is_reserved": 0}, {"lon": -77.04514616666667, "name": "1cb230315126c177979b8c1b2cda26b1", "lat": 38.90378283333333, "fusion_lon": 0.0, "rental_uris": {"ios": "https://dc.lft.to/lastmile_qr_scan", "android": "https://dc.lft.to/lastmile_qr_scan"}, "bike_id": "1cb230315126c177979b8c1b2cda26b1", "type": "electric_scooter", "fusion_lat": 0.0, "is_disabled": 0, "is_reserved": 0}, {"lon": -77.02658383333333, "name": "3b901cd09c6f2ebf4e2c73f0cb694f90", "lat": 38.897517666666666, "fusion_lon": 0.0, "rental_uris": {"ios": "https://dc.lft.to/lastmile_qr_scan", "android": "https://dc.lft.to/lastmile_qr_scan"}, "bike_id": "3b901cd09c6f2ebf4e2c73f0cb694f90", "type": "electric_scooter", "fusion_lat": 0.0, "is_disabled": 0, "is_reserved": 0}, {"lon": -77.1266495, "name": "c4183aeb3983715ff8f44adc2946071b", "lat": 38.819129833333335, "fusion_lon": 0.0, "rental_uris": {"ios": "https://dc.lft.to/lastmile_qr_scan", "android": "https://dc.lft.to/lastmile_qr_scan"}, "bike_id": "c4183aeb3983715ff8f44adc2946071b", "type": "electric_bike", "fusion_lat": 0.0, "is_disabled": 0, "is_reserved": 0}, {"lon": -77.044931, "name": "2921dfccd2ab8c8bfd24b4f2bda38e18", "lat": 38.89972933333333, "fusion_lon": 0.0, "rental_uris": {"ios": "https://dc.lft.to/lastmile_qr_scan", "android": "https://dc.lft.to/lastmile_qr_scan"}, "bike_id": "2921dfccd2ab8c8bfd24b4f2bda38e18", "type": "electric_scooter", "fusion_lat": 0.0, "is_disabled": 0, "is_reserved": 0}, {"lon": -77.01331833333333, "name": "a58ba431d0477bc2cae4eee88b0c47f6", "lat": 38.892317, "fusion_lon": 0.0, "rental_uris": {"ios": "https://dc.lft.to/lastmile_qr_scan", "android": "https://dc.lft.to/lastmile_qr_scan"}, "bike_id": "a58ba431d0477bc2cae4eee88b0c47f6", "type": "electric_bike", "fusion_lat": 0.0, "is_disabled": 0, "is_reserved": 0}, {"lon": -76.93382816666667, "name": "6cf6e1f03a0b395dfd10badcbb737ca2", "lat": 38.89913933333333, "fusion_lon": 0.0, "rental_uris": {"ios": "https://dc.lft.to/lastmile_qr_scan", "android": "https://dc.lft.to/lastmile_qr_scan"}, "bike_id": "6cf6e1f03a0b395dfd10badcbb737ca2", "type": "electric_scooter", "fusion_lat": 0.0, "is_disabled": 0, "is_reserved": 0}, {"lon": -77.03200366666667, "name": "bbb3a4078b49d52ad938641d60049e28", "lat": 38.9152895, "fusion_lon": 0.0, "rental_uris": {"ios": "https://dc.lft.to/lastmile_qr_scan", "android": "https://dc.lft.to/lastmile_qr_scan"}, "bike_id": "bbb3a4078b49d52ad938641d60049e28", "type": "electric_scooter", "fusion_lat": 0.0, "is_disabled": 0, "is_reserved": 0}, {"lon": -77.019049, "name": "f6e565753dcbc2970bf9b2d8cd1f8246", "lat": 38.92134133333333, "fusion_lon": 0.0, "rental_uris": {"ios": "https://dc.lft.to/lastmile_qr_scan", "android": "https://dc.lft.to/lastmile_qr_scan"}, "bike_id": "f6e565753dcbc2970bf9b2d8cd1f8246", "type": "electric_scooter", "fusion_lat": 0.0, "is_disabled": 0, "is_reserved": 0}, {"lon": -76.96259383333333, "name": "ffa486381352ca40abdcaf383d1442b3", "lat": 38.88246683333333, "fusion_lon": 0.0, "rental_uris": {"ios": "https://dc.lft.to/lastmile_qr_scan", "android": "https://dc.lft.to/lastmile_qr_scan"}, "bike_id": "ffa486381352ca40abdcaf383d1442b3", "type": "electric_bike", "fusion_lat": 0.0, "is_disabled": 0, "is_reserved": 0}, {"lon": -77.0039195, "name": "fe260028b55f86902159f9605af75609", "lat": 38.87750533333333, "fusion_lon": 0.0, "rental_uris": {"ios": "https://dc.lft.to/lastmile_qr_scan", "android": "https://dc.lft.to/lastmile_qr_scan"}, "bike_id": "fe260028b55f86902159f9605af75609", "type": "electric_scooter", "fusion_lat": 0.0, "is_disabled": 0, "is_reserved": 0}, {"lon": -77.02154566666667, "name": "c48eb3881da774af35cd980b96e9c04b", "lat": 38.924626333333336, "fusion_lon": 0.0, "rental_uris": {"ios": "https://dc.lft.to/lastmile_qr_scan", "android": "https://dc.lft.to/lastmile_qr_scan"}, "bike_id": "c48eb3881da774af35cd980b96e9c04b", "type": "electric_scooter", "fusion_lat": 0.0, "is_disabled": 0, "is_reserved": 0}, {"lon": -77.00752533333333, "name": "3ae8e3c806fc54f29425af79e8f37ada", "lat": 38.900620333333336, "fusion_lon": 0.0, "rental_uris": {"ios": "https://dc.lft.to/lastmile_qr_scan", "android": "https://dc.lft.to/lastmile_qr_scan"}, "bike_id": "3ae8e3c806fc54f29425af79e8f37ada", "type": "electric_scooter", "fusion_lat": 0.0, "is_disabled": 0, "is_reserved": 0}, {"lon": -77.0286005, "name": "969d389c7ae50c14443af5832ab0da2a", "lat": 38.882150333333335, "fusion_lon": 0.0, "rental_uris": {"ios": "https://dc.lft.to/lastmile_qr_scan", "android": "https://dc.lft.to/lastmile_qr_scan"}, "bike_id": "969d389c7ae50c14443af5832ab0da2a", "type": "electric_scooter", "fusion_lat": 0.0, "is_disabled": 0, "is_reserved": 0}, {"lon": -77.00539133333334, "name": "48c3b6b6e2f397439bca415cb658a48a", "lat": 38.9275155, "fusion_lon": 0.0, "rental_uris": {"ios": "https://dc.lft.to/lastmile_qr_scan", "android": "https://dc.lft.to/lastmile_qr_scan"}, "bike_id": "48c3b6b6e2f397439bca415cb658a48a", "type": "electric_scooter", "fusion_lat": 0.0, "is_disabled": 0, "is_reserved": 0}, {"lon": -77.01265283333333, "name": "9d4db335d6890e39e1f0c6eea6a0c176", "lat": 38.91539483333333, "fusion_lon": 0.0, "rental_uris": {"ios": "https://dc.lft.to/lastmile_qr_scan", "android": "https://dc.lft.to/lastmile_qr_scan"}, "bike_id": "9d4db335d6890e39e1f0c6eea6a0c176", "type": "electric_scooter", "fusion_lat": 0.0, "is_disabled": 0, "is_reserved": 0}, {"lon": -77.041354, "name": "bb154f8d22ef571e0289d1af502c9bc0", "lat": 38.92341233333333, "fusion_lon": 0.0, "rental_uris": {"ios": "https://dc.lft.to/lastmile_qr_scan", "android": "https://dc.lft.to/lastmile_qr_scan"}, "bike_id": "bb154f8d22ef571e0289d1af502c9bc0", "type": "electric_scooter", "fusion_lat": 0.0, "is_disabled": 0, "is_reserved": 0}, {"lon": -77.09690216666667, "name": "6febc428d29ad50ff19af889c3cd1a0d", "lat": 38.8073785, "fusion_lon": 0.0, "rental_uris": {"ios": "https://dc.lft.to/lastmile_qr_scan", "android": "https://dc.lft.to/lastmile_qr_scan"}, "bike_id": "6febc428d29ad50ff19af889c3cd1a0d", "type": "electric_bike", "fusion_lat": 0.0, "is_disabled": 0, "is_reserved": 0}, {"lon": -77.02350683333333, "name": "331da2a90c45c67d79f442b9964d4166", "lat": 38.93532783333333, "fusion_lon": 0.0, "rental_uris": {"ios": "https://dc.lft.to/lastmile_qr_scan", "android": "https://dc.lft.to/lastmile_qr_scan"}, "bike_id": "331da2a90c45c67d79f442b9964d4166", "type": "electric_scooter", "fusion_lat": 0.0, "is_disabled": 0, "is_reserved": 0}, {"lon": -77.0228415, "name": "925902d637327b56bcb6530643232daa", "lat": 38.92565416666667, "fusion_lon": 0.0, "rental_uris": {"ios": "https://dc.lft.to/lastmile_qr_scan", "android": "https://dc.lft.to/lastmile_qr_scan"}, "bike_id": "925902d637327b56bcb6530643232daa", "type": "electric_scooter", "fusion_lat": 0.0, "is_disabled": 0, "is_reserved": 0}, {"lon": -77.04360833333334, "name": "2202384dac78dfa91cacaefcbb24fd36", "lat": 38.90437383333333, "fusion_lon": 0.0, "rental_uris": {"ios": "https://dc.lft.to/lastmile_qr_scan", "android": "https://dc.lft.to/lastmile_qr_scan"}, "bike_id": "2202384dac78dfa91cacaefcbb24fd36", "type": "electric_scooter", "fusion_lat": 0.0, "is_disabled": 0, "is_reserved": 0}, {"lon": -77.01942383333333, "name": "40d70d8eb1f923ee5d6b2bb2155bb04c", "lat": 38.922627166666665, "fusion_lon": 0.0, "rental_uris": {"ios": "https://dc.lft.to/lastmile_qr_scan", "android": "https://dc.lft.to/lastmile_qr_scan"}, "bike_id": "40d70d8eb1f923ee5d6b2bb2155bb04c", "type": "electric_scooter", "fusion_lat": 0.0, "is_disabled": 0, "is_reserved": 0}, {"lon": -77.02965166666667, "name": "5275366793a023f37176e0897d330362", "lat": 38.9422375, "fusion_lon": 0.0, "rental_uris": {"ios": "https://dc.lft.to/lastmile_qr_scan", "android": "https://dc.lft.to/lastmile_qr_scan"}, "bike_id": "5275366793a023f37176e0897d330362", "type": "electric_scooter", "fusion_lat": 0.0, "is_disabled": 0, "is_reserved": 0}, {"lon": -77.02650633333333, "name": "786471775099ec2ac66eb7b6e18d2010", "lat": 38.8948115, "fusion_lon": 0.0, "rental_uris": {"ios": "https://dc.lft.to/lastmile_qr_scan", "android": "https://dc.lft.to/lastmile_qr_scan"}, "bike_id": "786471775099ec2ac66eb7b6e18d2010", "type": "electric_scooter", "fusion_lat": 0.0, "is_disabled": 0, "is_reserved": 0}, {"lon": -77.04128383333334, "name": "6ed04b3db8abf54b94b0bb37b99d441e", "lat": 38.92957616666666, "fusion_lon": 0.0, "rental_uris": {"ios": "https://dc.lft.to/lastmile_qr_scan", "android": "https://dc.lft.to/lastmile_qr_scan"}, "bike_id": "6ed04b3db8abf54b94b0bb37b99d441e", "type": "electric_scooter", "fusion_lat": 0.0, "is_disabled": 0, "is_reserved": 0}, {"lon": -77.02619416666667, "name": "4735cbcd942854463edf54b03cd6df8d", "lat": 38.9181715, "fusion_lon": 0.0, "rental_uris": {"ios": "https://dc.lft.to/lastmile_qr_scan", "android": "https://dc.lft.to/lastmile_qr_scan"}, "bike_id": "4735cbcd942854463edf54b03cd6df8d", "type": "electric_scooter", "fusion_lat": 0.0, "is_disabled": 0, "is_reserved": 0}, {"lon": -77.09584533333333, "name": "8a5ecc56e2521b947a8235c682b43026", "lat": 38.974417333333335, "fusion_lon": 0.0, "rental_uris": {"ios": "https://dc.lft.to/lastmile_qr_scan", "android": "https://dc.lft.to/lastmile_qr_scan"}, "bike_id": "8a5ecc56e2521b947a8235c682b43026", "type": "electric_bike", "fusion_lat": 0.0, "is_disabled": 0, "is_reserved": 0}, {"lon": -76.93211933333333, "name": "246c5692b3fc1a3daea8a5264c06f9f5", "lat": 38.896721166666666, "fusion_lon": 0.0, "rental_uris": {"ios": "https://dc.lft.to/lastmile_qr_scan", "android": "https://dc.lft.to/lastmile_qr_scan"}, "bike_id": "246c5692b3fc1a3daea8a5264c06f9f5", "type": "electric_bike", "fusion_lat": 0.0, "is_disabled": 0, "is_reserved": 0}, {"lon": -77.0599285, "name": "856571b13ab5bff76a91e6cae1e67ec2", "lat": 38.927120333333335, "fusion_lon": 0.0, "rental_uris": {"ios": "https://dc.lft.to/lastmile_qr_scan", "android": "https://dc.lft.to/lastmile_qr_scan"}, "bike_id": "856571b13ab5bff76a91e6cae1e67ec2", "type": "electric_scooter", "fusion_lat": 0.0, "is_disabled": 0, "is_reserved": 0}, {"lon": -76.97160483333333, "name": "3e647b26df6d538daa93c025b143a1bf", "lat": 38.85444566666666, "fusion_lon": 0.0, "rental_uris": {"ios": "https://dc.lft.to/lastmile_qr_scan", "android": "https://dc.lft.to/lastmile_qr_scan"}, "bike_id": "3e647b26df6d538daa93c025b143a1bf", "type": "electric_scooter", "fusion_lat": 0.0, "is_disabled": 0, "is_reserved": 0}, {"lon": -77.00955883333333, "name": "f4bd3d6650540e5f05c58e76c0825db3", "lat": 38.876598666666666, "fusion_lon": 0.0, "rental_uris": {"ios": "https://dc.lft.to/lastmile_qr_scan", "android": "https://dc.lft.to/lastmile_qr_scan"}, "bike_id": "f4bd3d6650540e5f05c58e76c0825db3", "type": "electric_scooter", "fusion_lat": 0.0, "is_disabled": 0, "is_reserved": 0}, {"lon": -77.04363083333334, "name": "c1e6a3aef1b369eff66114e13b80b59f", "lat": 38.892207166666665, "fusion_lon": 0.0, "rental_uris": {"ios": "https://dc.lft.to/lastmile_qr_scan", "android": "https://dc.lft.to/lastmile_qr_scan"}, "bike_id": "c1e6a3aef1b369eff66114e13b80b59f", "type": "electric_scooter", "fusion_lat": 0.0, "is_disabled": 0, "is_reserved": 0}, {"lon": -77.02463233333333, "name": "f1fd70913b18f4a638520ab2de1f6855", "lat": 38.89838366666667, "fusion_lon": 0.0, "rental_uris": {"ios": "https://dc.lft.to/lastmile_qr_scan", "android": "https://dc.lft.to/lastmile_qr_scan"}, "bike_id": "f1fd70913b18f4a638520ab2de1f6855", "type": "electric_scooter", "fusion_lat": 0.0, "is_disabled": 0, "is_reserved": 0}, {"lon": -77.04653466666667, "name": "687449ee1405548180b57bb0ce90c4c0", "lat": 38.89696033333333, "fusion_lon": 0.0, "rental_uris": {"ios": "https://dc.lft.to/lastmile_qr_scan", "android": "https://dc.lft.to/lastmile_qr_scan"}, "bike_id": "687449ee1405548180b57bb0ce90c4c0", "type": "electric_scooter", "fusion_lat": 0.0, "is_disabled": 0, "is_reserved": 0}, {"lon": -76.98396566666666, "name": "5d0a33b64fb20843b3e9ad4d85e48b55", "lat": 38.9199515, "fusion_lon": 0.0, "rental_uris": {"ios": "https://dc.lft.to/lastmile_qr_scan", "android": "https://dc.lft.to/lastmile_qr_scan"}, "bike_id": "5d0a33b64fb20843b3e9ad4d85e48b55", "type": "electric_scooter", "fusion_lat": 0.0, "is_disabled": 0, "is_reserved": 0}, {"lon": -77.04384966666667, "name": "a45068ceca9e982dd4161b7b7eb8d758", "lat": 38.89845483333333, "fusion_lon": 0.0, "rental_uris": {"ios": "https://dc.lft.to/lastmile_qr_scan", "android": "https://dc.lft.to/lastmile_qr_scan"}, "bike_id": "a45068ceca9e982dd4161b7b7eb8d758", "type": "electric_bike", "fusion_lat": 0.0, "is_disabled": 0, "is_reserved": 0}, {"lon": -77.04793133333334, "name": "8fffab74af2e06076f509475daac1f57", "lat": 38.8961, "fusion_lon": 0.0, "rental_uris": {"ios": "https://dc.lft.to/lastmile_qr_scan", "android": "https://dc.lft.to/lastmile_qr_scan"}, "bike_id": "8fffab74af2e06076f509475daac1f57", "type": "electric_scooter", "fusion_lat": 0.0, "is_disabled": 0, "is_reserved": 0}, {"lon": -77.02224966666667, "name": "40be51c5142a2cf330d26686ab0dd9d4", "lat": 38.91271966666667, "fusion_lon": 0.0, "rental_uris": {"ios": "https://dc.lft.to/lastmile_qr_scan", "android": "https://dc.lft.to/lastmile_qr_scan"}, "bike_id": "40be51c5142a2cf330d26686ab0dd9d4", "type": "electric_scooter", "fusion_lat": 0.0, "is_disabled": 0, "is_reserved": 0},