{"data": {"bikes": [{"is_disabled": 0, "rental_uris": {"android": "https://dc.lft.to/lastmile_qr_scan", "ios": "https://dc.lft.to/lastmile_qr_scan"}, "is_reserved": 0, "name": "fe5deb2eab394e1e81136f480feaab9b", "lon": -76.99837933333333, "type": "electric_bike", "bike_id": "fe5deb2eab394e1e81136f480feaab9b", "fusion_lon": 0.0, "lat": 38.89999433333333, "fusion_lat": 0.0}, {"is_disabled": 0, "rental_uris": {"android": "https://dc.lft.to/lastmile_qr_scan", "ios": "https://dc.lft.to/lastmile_qr_scan"}, "is_reserved": 0, "name": "d6d1801a26aa969c8efb95e6d7ebcb70", "lon": -76.963843, "type": "electric_bike", "bike_id": "d6d1801a26aa969c8efb95e6d7ebcb70", "fusion_lon": 0.0, "lat": 38.975805333333334, "fusion_lat": 0.0}, {"is_disabled": 0, "rental_uris": {"android": "https://dc.lft.to/lastmile_qr_scan", "ios": "https://dc.lft.to/lastmile_qr_scan"}, "is_reserved": 0, "name": "edded445c5bc0aa95e43a0d094cebdad", "lon": -77.0241065, "type": "electric_scooter", "bike_id": "edded445c5bc0aa95e43a0d094cebdad", "fusion_lon": 0.0, "lat": 38.892517, "fusion_lat": 0.0}, {"is_disabled": 0, "rental_uris": {"android": "https://dc.lft.to/lastmile_qr_scan", "ios": "https://dc.lft.to/lastmile_qr_scan"}, "is_reserved": 0, "name": "5bb889c4715526ad8d31fcd73acd8b8b", "lon": -76.93357433333334, "type": "electric_scooter", "bike_id": "5bb889c4715526ad8d31fcd73acd8b8b", "fusion_lon": 0.0, "lat": 38.899014333333334, "fusion_lat": 0.0}, {"is_disabled": 0, "rental_uris": {"android": "https://dc.lft.to/lastmile_qr_scan", "ios": "https://dc.lft.to/lastmile_qr_scan"}, "is_reserved": 0, "name": "470b094fdbbc45ec2083e29830acb7fb", "lon": -77.00783133333333, "type": "electric_bike", "bike_id": "470b094fdbbc45ec2083e29830acb7fb", "fusion_lon": 0.0, "lat": 38.9813385, "fusion_lat": 0.0}, {"is_disabled": 0, "rental_uris": {"android": "https://dc.lft.to/lastmile_qr_scan", "ios": "https://dc.lft.to/lastmile_qr_scan"}, "is_reserved": 0, "name": "ee20c2beb6bbf42053abf7deba8fa2b9", "lon": -76.98377483333333, "type": "electric_scooter", "bike_id": "ee20c2beb6bbf42053abf7deba8fa2b9", "fusion_lon": 0.0, "lat": 38.84443066666667, "fusion_lat": 0.0}, {"is_disabled": 0, "rental_uris": {"android": "https://dc.lft.to/lastmile_qr_scan", "ios": "https://dc.lft.to/lastmile_qr_scan"}, "is_reserved": 0, "name": "dca9f50a75920147040673f78eecf3c3", "lon": -77.0163145, "type": "electric_scooter", "bike_id": "dca9f50a75920147040673f78eecf3c3", "fusion_lon": 0.0, "lat": 38.92907, "fusion_lat": 0.0}, {"is_disabled": 0, "rental_uris": {"android": "https://dc.lft.to/lastmile_qr_scan", "ios": "https://dc.lft.to/lastmile_qr_scan"}, "is_reserved": 0, "name": "864469ad78bdf8659f2d0861b65d9081", "lon": -76.94863516666666, "type": "electric_bike", "bike_id": "864469ad78bdf8659f2d0861b65d9081", "fusion_lon": 0.0, "lat": 38.889717, "fusion_lat": 0.0}, {"is_disabled": 0, "rental_uris": {"android": "https://dc.lft.to/lastmile_qr_scan", "ios": "https://dc.lft.to/lastmile_qr_scan"}, "is_reserved": 0, "name": "f2a6d1ae92fa78609b088b18434dca3c", "lon": -77.01480133333334, "type": "electric_scooter", "bike_id": "f2a6d1ae92fa78609b088b18434dca3c", "fusion_lon": 0.0, "lat": 38.876332166666664, "fusion_lat": 0.0}, {"is_disabled": 0, "rental_uris": {"android": "https://dc.lft.to/lastmile_qr_scan", "ios": "https://dc.lft.to/lastmile_qr_scan"}, "is_reserved": 0, "name": "3c1c55840e56de9a1cc3aade57ee7cb1", "lon": -77.029639, "type": "electric_scooter", "bike_id": "3c1c55840e56de9a1cc3aade57ee7cb1", "fusion_lon": 0.0, "lat": 38.924634, "fusion_lat": 0.0}, {"is_disabled": 0, "rental_uris": {"android": "https://dc.lft.to/lastmile_qr_scan", "ios": "https://dc.lft.to/lastmile_qr_scan"}, "is_reserved": 0, "name": "2ba848636e70ea575b9ac861254ee75e", "lon": -76.87771966666666, "type": "electric_bike", "bike_id": "2ba848636e70ea575b9ac861254ee75e", "fusion_lon": 0.0, "lat": 38.99227466666667, "fusion_lat": 0.0}, {"is_disabled": 0, "rental_uris": {"android": "https://dc.lft.to/lastmile_qr_scan", "ios": "https://dc.lft.to/lastmile_qr_scan"}, "is_reserved": 0, "name": "a2ef1ec1642923981579446f759cd8ce", "lon": -77.01313166666667, "type": "electric_scooter", "bike_id": "a2ef1ec1642923981579446f759cd8ce", "fusion_lon": 0.0, "lat": 38.90136016666666, "fusion_lat": 0.0}, {"is_disabled": 0, "rental_uris": {"android": "https://dc.lft.to/lastmile_qr_scan", "ios": "https://dc.lft.to/lastmile_qr_scan"}, "is_reserved": 0, "name": "de3e7c4143d0d50b914c4334297dc210", "lon": -77.03991433333333, "type": "electric_scooter", "bike_id": "de3e7c4143d0d50b914c4334297dc210", "fusion_lon": 0.0, "lat": 38.914108, "fusion_lat": 0.0}, {"is_disabled": 0, "rental_uris": {"android": "https://dc.lft.to/lastmile_qr_scan", "ios": "https://dc.lft.to/lastmile_qr_scan"}, "is_reserved": 0, "name": "b2482523095873a556685c92cc943483", "lon": -77.00408233333333, "type": "electric_scooter", "bike_id": "b2482523095873a556685c92cc943483", "fusion_lon": 0.0, "lat": 38.87653366666667, "fusion_lat": 0.0}, {"is_disabled": 0, "rental_uris": {"android": "https://dc.lft.to/lastmile_qr_scan", "ios": "https://dc.lft.to/lastmile_qr_scan"}, "is_reserved": 0, "name": "79bed2f9bcdd0ae387268b4cc9976b3f", "lon": -76.9495165, "type": "electric_bike", "bike_id": "79bed2f9bcdd0ae387268b4cc9976b3f", "fusion_lon": 0.0, "lat": 38.935062, "fusion_lat": 0.0}, {"is_disabled": 0, "rental_uris": {"android": "https://dc.lft.to/lastmile_qr_scan", "ios": "https://dc.lft.to/lastmile_qr_scan"}, "is_reserved": 0, "name": "3020ab4ca0411a7a6eb1cb7ed2198fe7", "lon": -76.989663, "type": "electric_scooter", "bike_id": "3020ab4ca0411a7a6eb1cb7ed2198fe7", "fusion_lon": 0.0, "lat": 38.9024725, "fusion_lat": 0.0}, {"is_disabled": 0, "rental_uris": {"android": "https://dc.lft.to/lastmile_qr_scan", "ios": "https://dc.lft.to/lastmile_qr_scan"}, "is_reserved": 0, "name": "3488608c14abb265b474e1f805ca6226", "lon": -77.0313535, "type": "electric_scooter", "bike_id": "3488608c14abb265b474e1f805ca6226", "fusion_lon": 0.0, "lat": 38.916218, "fusion_lat": 0.0}, {"is_disabled": 0, "rental_uris": {"android": "https://dc.lft.to/lastmile_qr_scan", "ios": "https://dc.lft.to/lastmile_qr_scan"}, "is_reserved": 0, "name": "c48a3ffeb3d40bb47143f0af54daafe0", "lon": -77.05004783333334, "type": "electric_scooter", "bike_id": "c48a3ffeb3d40bb47143f0af54daafe0", "fusion_lon": 0.0, "lat": 38.89228266666667, "fusion_lat": 0.0}, {"is_disabled": 0, "rental_uris": {"android": "https://dc.lft.to/lastmile_qr_scan", "ios": "https://dc.lft.to/lastmile_qr_scan"}, "is_reserved": 0, "name": "5151ead0aef015a4783a8711745136c3", "lon": -77.03910033333334, "type": "electric_scooter", "bike_id": "5151ead0aef015a4783a8711745136c3", "fusion_lon": 0.0, "lat": 38.902523, "fusion_lat": 0.0}, {"is_disabled": 0, "rental_uris": {"android": "https://dc.lft.to/lastmile_qr_scan", "ios": "https://dc.lft.to/lastmile_qr_scan"}, "is_reserved": 0, "name": "c8d2b89697253641d65622ea22ce14a2", "lon": -77.01627583333334, "type": "electric_scooter", "bike_id": "c8d2b89697253641d65622ea22ce14a2", "fusion_lon": 0.0, "lat": 38.8723905, "fusion_lat": 0.0}, {"is_disabled": 0, "rental_uris": {"android": "https://dc.lft.to/lastmile_qr_scan", "ios": "https://dc.lft.to/lastmile_qr_scan"}, "is_reserved": 0, "name": "b32ee6cb6ccb7488022cf1bd4c4180f7", "lon": -77.01104483333333, "type": "electric_scooter", "bike_id": "b32ee6cb6ccb7488022cf1bd4c4180f7", "fusion_lon": 0.0, "lat": 38.903547, "fusion_lat": 0.0}, {"is_disabled": 0, "rental_uris": {"android": "https://dc.lft.to/lastmile_qr_scan", "ios": "https://dc.lft.to/lastmile_qr_scan"}, "is_reserved": 0, "name": "a3ed5ad3e2fa3593f45a628ecff23d9b", "lon": -77.00428433333333, "type": "electric_scooter", "bike_id": "a3ed5ad3e2fa3593f45a628ecff23d9b", "fusion_lon": 0.0, "lat": 38.83808466666667, "fusion_lat": 0.0}, {"is_disabled": 0, "rental_uris": {"android": "https://dc.lft.to/lastmile_qr_scan", "ios": "https://dc.lft.to/lastmile_qr_scan"}, "is_reserved": 0, "name": "66571456a41a28e74a5f6ba757fcd678", "lon": -77.03180316666666, "type": "electric_scooter", "bike_id": "66571456a41a28e74a5f6ba757fcd678", "fusion_lon": 0.0, "lat": 38.91917866666667, "fusion_lat": 0.0}, {"is_disabled": 0, "rental_uris": {"android": "https://dc.lft.to/lastmile_qr_scan", "ios": "https://dc.lft.to/lastmile_qr_scan"}, "is_reserved": 0, "name": "53c331d84417c73ca37c85cc9c47d639", "lon": -76.99957283333333, "type": "electric_scooter", "bike_id": "53c331d84417c73ca37c85cc9c47d639", "fusion_lon": 0.0, "lat": 38.84286183333333, "fusion_lat": 0.0}, {"is_disabled": 0, "rental_uris": {"android": "https://dc.lft.to/lastmile_qr_scan", "ios": "https://dc.lft.to/lastmile_qr_scan"}, "is_reserved": 0, "name": "1eb34c647b6734fd9cc8cd5e9d93d641", "lon": -77.03817716666667, "type": "electric_scooter", "bike_id": "1eb34c647b6734fd9cc8cd5e9d93d641", "fusion_lon": 0.0, "lat": 38.909782166666666, "fusion_lat": 0.0}, {"is_disabled": 0, "rental_uris": {"android": "https://dc.lft.to/lastmile_qr_scan", "ios": "https://dc.lft.to/lastmile_qr_scan"}, "is_reserved": 0, "name": "421b0bc5db078ae59ebe99420678a1ee", "lon": -76.9488585, "type": "electric_scooter", "bike_id": "421b0bc5db078ae59ebe99420678a1ee", "fusion_lon": 0.0, "lat": 38.8951295, "fusion_lat": 0.0}, {"is_disabled": 0, "rental_uris": {"android": "https://dc.lft.to/lastmile_qr_scan", "ios": "https://dc.lft.to/lastmile_qr_scan"}, "is_reserved": 0, "name": "69e3755d412c57565cbb01a0b6572cd9", "lon": -77.00200866666667, "type": "electric_scooter", "bike_id": "69e3755d412c57565cbb01a0b6572cd9", "fusion_lon": 0.0, "lat": 38.90238166666666, "fusion_lat": 0.0}, {"is_disabled": 0, "rental_uris": {"android": "https://dc.lft.to/lastmile_qr_scan", "ios": "https://dc.lft.to/lastmile_qr_scan"}, "is_reserved": 0, "name": "9ce42fc18bf6b2f483180d36d22428aa", "lon": -77.01222633333333, "type": "electric_scooter", "bike_id": "9ce42fc18bf6b2f483180d36d22428aa", "fusion_lon": 0.0, "lat": 38.914964166666664, "fusion_lat": 0.0}, {"is_disabled": 0, "rental_uris": {"android": "https://dc.lft.to/lastmile_qr_scan", "ios": "https://dc.lft.to/lastmile_qr_scan"}, "is_reserved": 0, "name": "191494e6ec4ca0599889b6a716c34f6b", "lon": -77.04179216666667, "type": "electric_scooter", "bike_id": "191494e6ec4ca0599889b6a716c34f6b", "fusion_lon": 0.0, "lat": 38.915574, "fusion_lat": 0.0}, {"is_disabled": 0, "rental_uris": {"android": "https://dc.lft.to/lastmile_qr_scan", "ios": "https://dc.lft.to/lastmile_qr_scan"}, "is_reserved": 0, "name": "35a38c311779fbc42eba632a28ec8fe7", "lon": -77.0676695, "type": "electric_scooter", "bike_id": "35a38c311779fbc42eba632a28ec8fe7", "fusion_lon": 0.0, "lat": 38.90513216666667, "fusion_lat": 0.0}, {"is_disabled": 0, "rental_uris": {"android": "https://dc.lft.to/lastmile_qr_scan", "ios": "https://dc.lft.to/lastmile_qr_scan"}, "is_reserved": 0, "name": "375a13546de3ebfded9f6d01e70ca5e4", "lon": -77.032972, "type": "electric_scooter", "bike_id": "375a13546de3ebfded9f6d01e70ca5e4", "fusion_lon": 0.0, "lat": 38.90855333333333, "fusion_lat": 0.0}, {"is_disabled": 0, "rental_uris": {"android": "https://dc.lft.to/lastmile_qr_scan", "ios": "https://dc.lft.to/lastmile_qr_scan"}, "is_reserved": 0, "name": "751ede43818380a1c62a3c9d5c00ae21", "lon": -77.032639, "type": "electric_scooter", "bike_id": "751ede43818380a1c62a3c9d5c00ae21", "fusion_lon": 0.0, "lat": 38.93261916666667, "fusion_lat": 0.0}, {"is_disabled": 0, "rental_uris": {"android": "https://dc.lft.to/lastmile_qr_scan", "ios": "https://dc.lft.to/lastmile_qr_scan"}, "is_reserved": 0, "name": "cf4cc179c8afdd557b3be912c4595c7a", "lon": -77.0278875, "type": "electric_scooter", "bike_id": "cf4cc179c8afdd557b3be912c4595c7a", "fusion_lon": 0.0, "lat": 38.9612935, "fusion_lat": 0.0}, {"is_disabled": 0, "rental_uris": {"android": "https://dc.lft.to/lastmile_qr_scan", "ios": "https://dc.lft.to/lastmile_qr_scan"}, "is_reserved": 0, "name": "6cc97e781c8a68c1515c0350a9c3e0a4", "lon": -77.028738, "type": "electric_scooter", "bike_id": "6cc97e781c8a68c1515c0350a9c3e0a4", "fusion_lon": 0.0, "lat": 38.90248, "fusion_lat": 0.0}, {"is_disabled": 0, "rental_uris": {"android": "https://dc.lft.to/lastmile_qr_scan", "ios": "https://dc.lft.to/lastmile_qr_scan"}, "is_reserved": 0, "name": "6c3947e4d5b07ae002f518f4b4515de5", "lon": -77.03623466666667, "type": "electric_scooter", "bike_id": "6c3947e4d5b07ae002f518f4b4515de5", "fusion_lon": 0.0, "lat": 38.91693266666667, "fusion_lat": 0.0}, {"is_disabled": 0, "rental_uris": {"android": "https://dc.lft.to/lastmile_qr_scan", "ios": "https://dc.lft.to/lastmile_qr_scan"}, "is_reserved": 0, "name": "8562714008504782e9b61c8666c3b140", "lon": -77.022224, "type": "electric_scooter", "bike_id": "8562714008504782e9b61c8666c3b140", "fusion_lon": 0.0, "lat": 38.91414433333333, "fusion_lat": 0.0}, {"is_disabled": 0, "rental_uris": {"android": "https://dc.lft.to/lastmile_qr_scan", "ios": "https://dc.lft.to/lastmile_qr_scan"}, "is_reserved": 0, "name": "90736d1e8c42867849330d4b55cb0c6e", "lon": -77.03190016666667, "type": "electric_scooter", "bike_id": "90736d1e8c42867849330d4b55cb0c6e", "fusion_lon": 0.0, "lat": 38.930686, "fusion_lat": 0.0}, {"is_disabled": 0, "rental_uris": {"android": "https://dc.lft.to/lastmile_qr_scan", "ios": "https://dc.lft.to/lastmile_qr_scan"}, "is_reserved": 0, "name": "36f3a4e7531ae28a7a031c9989fa158b", "lon": -77.007027, "type": "electric_scooter", "bike_id": "36f3a4e7531ae28a7a031c9989fa158b", "fusion_lon": 0.0, "lat": 38.90555283333333, "fusion_lat": 0.0}, {"is_disabled": 0, "rental_uris": {"android": "https://dc.lft.to/lastmile_qr_scan", "ios": "https://dc.lft.to/lastmile_qr_scan"}, "is_reserved": 0, "name": "1c1513e14d17e3a0a3fa5d09c01f9cc6", "lon": -77.04452516666667, "type": "electric_scooter", "bike_id": "1c1513e14d17e3a0a3fa5d09c01f9cc6", "fusion_lon": 0.0, "lat": 38.914061833333335, "fusion_lat": 0.0}, {"is_disabled": 0, "rental_uris": {"android": "https://dc.lft.to/lastmile_qr_scan", "ios": "https://dc.lft.to/lastmile_qr_scan"}, "is_reserved": 0, "name": "a099918d55abd19468a9787466ab0224", "lon": -76.99910416666667, "type": "electric_scooter", "bike_id": "a099918d55abd19468a9787466ab0224", "fusion_lon": 0.0, "lat": 38.9246275, "fusion_lat": 0.0}, {"is_disabled": 0, "rental_uris": {"android": "https://dc.lft.to/lastmile_qr_scan", "ios": "https://dc.lft.to/lastmile_qr_scan"}, "is_reserved": 0, "name": "cc27d2777d31cc0ad6ae890798601117", "lon": -77.01975916666666, "type": "electric_scooter", "bike_id": "cc27d2777d31cc0ad6ae890798601117", "fusion_lon": 0.0, "lat": 38.89515816666667, "fusion_lat": 0.0}, {"is_disabled": 0, "rental_uris": {"android": "https://dc.lft.to/lastmile_qr_scan", "ios": "https://dc.lft.to/lastmile_qr_scan"}, "is_reserved": 0, "name": "88d187b6189c5923c0d936887f7679ee", "lon": -77.072709, "type": "electric_scooter", "bike_id": "88d187b6189c5923c0d936887f7679ee", "fusion_lon": 0.0, "lat": 38.90678533333333, "fusion_lat": 0.0}, {"is_disabled": 0, "rental_uris": {"android": "https://dc.lft.to/lastmile_qr_scan", "ios": "https://dc.lft.to/lastmile_qr_scan"}, "is_reserved": 0, "name": "5ffb222e11e12f99c2b8e69d56d540bd", "lon": -77.04392633333333, "type": "electric_scooter", "bike_id": "5ffb222e11e12f99c2b8e69d56d540bd", "fusion_lon": 0.0, "lat": 38.910835, "fusion_lat": 0.0}, {"is_disabled": 0, "rental_uris": {"android": "https://dc.lft.to/lastmile_qr_scan", "ios": "https://dc.lft.to/lastmile_qr_scan"}, "is_reserved": 0, "name": "2b0646782e6f887ad25a000e6902dd8f", "lon": -77.03831433333333, "type": "electric_scooter", "bike_id": "2b0646782e6f887ad25a000e6902dd8f", "fusion_lon": 0.0, "lat": 38.90791866666667, "fusion_lat": 0.0}, {"is_disabled": 0, "rental_uris": {"android": "https://dc.lft.to/lastmile_qr_scan", "ios": "https://dc.lft.to/lastmile_qr_scan"}, "is_reserved": 0, "name": "cfebbb08c54946f8d749a72d2435f8d4", "lon": -77.04016133333333, "type": "electric_scooter", "bike_id": "cfebbb08c54946f8d749a72d2435f8d4", "fusion_lon": 0.0, "lat": 38.913093333333336, "fusion_lat": 0.0}, {"is_disabled": 0, "rental_uris": {"android": "https://dc.lft.to/lastmile_qr_scan", "ios": "https://dc.lft.to/lastmile_qr_scan"}, "is_reserved": 0, "name": "9a4935987bcd8ed9e485fdd04e9dbd26", "lon": -77.02715033333334, "type": "electric_scooter", "bike_id": "9a4935987bcd8ed9e485fdd04e9dbd26", "fusion_lon": 0.0, "lat": 38.90855483333333, "fusion_lat": 0.0}, {"is_disabled": 0, "rental_uris": {"android": "https://dc.lft.to/lastmile_qr_scan", "ios": "https://dc.lft.to/lastmile_qr_scan"}, "is_reserved": 0, "name": "5349571dc418ea9190953b9175783c91", "lon": -77.02722116666666, "type": "electric_scooter", "bike_id": "5349571dc418ea9190953b9175783c91", "fusion_lon": 0.0, "lat": 38.94088266666667, "fusion_lat": 0.0}, {"is_disabled": 0, "rental_uris": {"android": "https://dc.lft.to/lastmile_qr_scan", "ios": "https://dc.lft.to/lastmile_qr_scan"}, "is_reserved": 0, "name": "1b5b0001a9d5a637f93f41a60eecef73", "lon": -77.027721, "type": "electric_scooter", "bike_id": "1b5b0001a9d5a637f93f41a60eecef73", "fusion_lon": 0.0, "lat": 38.926865666666664, "fusion_lat": 0.0}, {"is_disabled": 0, "rental_uris": {"android": "https://dc.lft.to/lastmile_qr_scan", "ios": "https://dc.lft.to/lastmile_qr_scan"}, "is_reserved": 0, "name": "0427da0bad3e6f3c969e923d1ca007f1", "lon": -77.02105383333334, "type": "electric_bike", "bike_id": "0427da0bad3e6f3c969e923d1ca007f1", "fusion_lon": 0.0, "lat": 39.02302566666667, "fusion_lat": 0.0}, {"is_disabled": 0, "rental_uris": {"android": "https://dc.lft.to/lastmile_qr_scan", "ios": "https://dc.lft.to/lastmile_qr_scan"}, "is_reserved": 0, "name": "1bbfc88fd9ea12c68f0aed1a2eef05db", "lon": -77.03164083333333, "type": "electric_scooter", "bike_id": "1bbfc88fd9ea12c68f0aed1a2eef05db", "fusion_lon": 0.0, "lat": 38.92787583333333, "fusion_lat": 0.0}, {"is_disabled": 0, "rental_uris": {"android": "https://dc.lft.to/lastmile_qr_scan", "ios": "https://dc.lft.to/lastmile_qr_scan"}, "is_reserved": 0, "name": "157c7a99e86373e172815353bc21a1fb", "lon": -77.04375583333334, "type": "electric_scooter", "bike_id": "157c7a99e86373e172815353bc21a1fb", "fusion_lon": 0.0, "lat": 38.921266833333334, "fusion_lat": 0.0}, {"is_disabled": 0, "rental_uris": {"android": "https://dc.lft.to/lastmile_qr_scan", "ios": "https://dc.lft.to/lastmile_qr_scan"}, "is_reserved": 0, "name": "06daea2b7d6f38a6b48161d76759f140", "lon": -77.03859933333334, "type": "electric_scooter", "bike_id": "06daea2b7d6f38a6b48161d76759f140", "fusion_lon": 0.0, "lat": 38.906609833333334, "fusion_lat": 0.0}, {"is_disabled": 0, "rental_uris": {"android": "https://dc.lft.to/lastmile_qr_scan", "ios": "https://dc.lft.to/lastmile_qr_scan"}, "is_reserved": 0, "name": "19b4ea3e20a1d9c134cb1b75bfbc65fb", "lon": -77.05941216666666, "type": "electric_scooter", "bike_id": "19b4ea3e20a1d9c134cb1b75bfbc65fb", "fusion_lon": 0.0, "lat": 38.936814166666665, "fusion_lat": 0.0}, {"is_disabled": 0, "rental_uris": {"android": "https://dc.lft.to/lastmile_qr_scan", "ios": "https://dc.lft.to/lastmile_qr_scan"}, "is_reserved": 0, "name": "d0bb51cd4bbdb7ad0fe15b9d33d8f974", "lon": -77.12894366666667, "type": "electric_bike", "bike_id": "d0bb51cd4bbdb7ad0fe15b9d33d8f974", "fusion_lon": 0.0, "lat": 38.863770833333334, "fusion_lat": 0.0}, {"is_disabled": 0, "rental_uris": {"android": "https://dc.lft.to/lastmile_qr_scan", "ios": "https://dc.lft.to/lastmile_qr_scan"}, "is_reserved": 0, "name": "6de9a7accca2eb7ec261b1322275ab8e", "lon": -77.03856266666666, "type": "electric_scooter", "bike_id": "6de9a7accca2eb7ec261b1322275ab8e", "fusion_lon": 0.0, "lat": 38.91715, "fusion_lat": 0.0}, {"is_disabled": 0, "rental_uris": {"android": "https://dc.lft.to/lastmile_qr_scan", "ios": "https://dc.lft.to/lastmile_qr_scan"}, "is_reserved": 0, "name": "1c8b187503d4f5dc7c9c7e594426c33f", "lon": -77.00912683333334, "type": "electric_scooter", "bike_id": "1c8b187503d4f5dc7c9c7e594426c33f", "fusion_lon": 0.0, "lat": 38.959535833333334, "fusion_lat": 0.0}, {"is_disabled": 0, "rental_uris": {"android": "https://dc.lft.to/lastmile_qr_scan", "ios": "https://dc.lft.to/lastmile_qr_scan"}, "is_reserved": 0, "name": "a28b3356b78bdb6e0a4a1a3605541d71", "lon": -77.02092016666667, "type": "electric_scooter", "bike_id": "a28b3356b78bdb6e0a4a1a3605541d71", "fusion_lon": 0.0, "lat": 38.93475016666667, "fusion_lat": 0.0}, {"is_disabled": 0, "rental_uris": {"android": "https://dc.lft.to/lastmile_qr_scan", "ios": "https://dc.lft.to/lastmile_qr_scan"}, "is_reserved": 0, "name": "61de01379a3037267dfc5103460b921a", "lon": -77.01378216666667, "type": "electric_scooter", "bike_id": "61de01379a3037267dfc5103460b921a", "fusion_lon": 0.0, "lat": 38.91043916666667, "fusion_lat": 0.0}, {"is_disabled": 0, "rental_uris": {"android": "https://dc.lft.to/lastmile_qr_scan", "ios": "https://dc.lft.to/lastmile_qr_scan"}, "is_reserved": 0, "name": "dff01a6f637f1537fc97d379bd4bfa7b", "lon": -77.03179416666667, "type": "electric_scooter", "bike_id": "dff01a6f637f1537fc97d379bd4bfa7b", "fusion_lon": 0.0, "lat": 38.91549083333334, "fusion_lat": 0.0}, {"is_disabled": 0, "rental_uris": {"android": "https://dc.lft.to/lastmile_qr_scan", "ios": "https://dc.lft.to/lastmile_qr_scan"}, "is_reserved": 0, "name": "43280c9c7e988fcaf66408c76f65d070", "lon": -77.01231333333334, "type": "electric_scooter", "bike_id": "43280c9c7e988fcaf66408c76f65d070", "fusion_lon": 0.0, "lat": 38.874771, "fusion_lat": 0.0}, {"is_disabled": 0, "rental_uris": {"android": "https://dc.lft.to/lastmile_qr_scan", "ios": "https://dc.lft.to/lastmile_qr_scan"}, "is_reserved": 0, "name": "6237807923c817053e3e9ba59e16dbd0", "lon": -77.12400466666666, "type": "electric_bike", "bike_id": "6237807923c817053e3e9ba59e16dbd0", "fusion_lon": 0.0, "lat": 38.893348, "fusion_lat": 0.0}, {"is_disabled": 0, "rental_uris": {"android": "https://dc.lft.to/lastmile_qr_scan", "ios": "https://dc.lft.to/lastmile_qr_scan"}, "is_reserved": 0, "name": "2c6ca8244316179af21398bf452bdcde", "lon": -77.0405965, "type": "electric_scooter", "bike_id": "2c6ca8244316179af21398bf452bdcde", "fusion_lon": 0.0, "lat": 38.901393166666665, "fusion_lat": 0.0}, {"is_disabled": 0, "rental_uris": {"android": "https://dc.lft.to/lastmile_qr_scan", "ios": "https://dc.lft.to/lastmile_qr_scan"}, "is_reserved": 0, "name": "b116150255ba44d7879606d773322ec2", "lon": -77.0221445, "type": "electric_scooter", "bike_id": "b116150255ba44d7879606d773322ec2", "fusion_lon": 0.0, "lat": 38.91549333333333, "fusion_lat": 0.0}, {"is_disabled": 0, "rental_uris": {"android": "https://dc.lft.to/lastmile_qr_scan", "ios": "https://dc.lft.to/lastmile_qr_scan"}, "is_reserved": 0, "name": "3f0310923413f0411bc5671dedc69bf6", "lon": -77.04176633333333, "type": "electric_scooter", "bike_id": "3f0310923413f0411bc5671dedc69bf6", "fusion_lon": 0.0, "lat": 38.91408583333333, "fusion_lat": 0.0}, {"is_disabled": 0, "rental_uris": {"android": "https://dc.lft.to/lastmile_qr_scan", "ios": "https://dc.lft.to/lastmile_qr_scan"}, "is_reserved": 0, "name": "15275a9a8242186a6ec3f4759eae1d5b", "lon": -77.0176795, "type": "electric_scooter", "bike_id": "15275a9a8242186a6ec3f4759eae1d5b", "fusion_lon": 0.0, "lat": 38.87229983333334, "fusion_lat": 0.0}, {"is_disabled": 0, "rental_uris": {"android": "https://dc.lft.to/lastmile_qr_scan", "ios": "https://dc.lft.to/lastmile_qr_scan"}, "is_reserved": 0, "name": "e5a1df759d379f16936832425f3b6b67", "lon": -77.024078, "type": "electric_scooter", "bike_id": "e5a1df759d379f16936832425f3b6b67", "fusion_lon": 0.0, "lat": 38.91997166666667, "fusion_lat": 0.0}, {"is_disabled": 0, "rental_uris": {"android": "https://dc.lft.to/lastmile_qr_scan", "ios": "https://dc.lft.to/lastmile_qr_scan"}, "is_reserved": 0, "name": "4eba0081a5c4ef2fa361216f6a5321ec", "lon": -77.02714983333334, "type": "electric_scooter", "bike_id": "4eba0081a5c4ef2fa361216f6a5321ec", "fusion_lon": 0.0, "lat": 38.91964933333333, "fusion_lat": 0.0}, {"is_disabled": 0, "rental_uris": {"android": "https://dc.lft.to/lastmile_qr_scan", "ios": "https://dc.lft.to/lastmile_qr_scan"}, "is_reserved": 0, "name": "50d82dce4f89459e0e3bd653ce5d23d5", "lon": -77.02465483333333, "type": "electric_scooter", "bike_id": "50d82dce4f89459e0e3bd653ce5d23d5", "fusion_lon": 0.0, "lat": 38.937662, "fusion_lat": 0.0}, {"is_disabled": 0, "rental_uris": {"android": "https://dc.lft.to/lastmile_qr_scan", "ios": "https://dc.lft.to/lastmile_qr_scan"}, "is_reserved": 0, "name": "7cfd2cedac789cbd6cd70d896342f647", "lon": -77.0279355, "type": "electric_scooter", "bike_id": "7cfd2cedac789cbd6cd70d896342f647", "fusion_lon": 0.0, "lat": 38.9039535, "fusion_lat": 0.0}, {"is_disabled": 0, "rental_uris": {"android": "https://dc.lft.to/lastmile_qr_scan", "ios": "https://dc.lft.to/lastmile_qr_scan"}, "is_reserved": 0, "name": "3e56cc14198aee8106793a96bb483b0e", "lon": -76.94633983333334, "type": "electric_scooter", "bike_id": "3e56cc14198aee8106793a96bb483b0e", "fusion_lon": 0.0, "lat": 38.89846583333333, "fusion_lat": 0.0}, {"is_disabled": 0, "rental_uris": {"android": "https://dc.lft.to/lastmile_qr_scan", "ios": "https://dc.lft.to/lastmile_qr_scan"}, "is_reserved": 0, "name": "9ec98b88aeaa0a6ab87b3fc968ac76fe", "lon": -77.04613316666666, "type": "electric_scooter", "bike_id": "9ec98b88aeaa0a6ab87b3fc968ac76fe", "fusion_lon": 0.0, "lat": 38.899726333333334, "fusion_lat": 0.0}, {"is_disabled": 0, "rental_uris": {"android": "https://dc.lft.to/lastmile_qr_scan", "ios": "https://dc.lft.to/lastmile_qr_scan"}, "is_reserved": 0, "name": "cd909ac7300ece2338c1483234336a19", "lon": -76.9953795, "type": "electric_scooter", "bike_id": "cd909ac7300ece2338c1483234336a19", "fusion_lon": 0.0, "lat": 38.86257616666666, "fusion_lat": 0.0}, {"is_disabled": 0, "rental_uris": {"android": "https://dc.lft.to/lastmile_qr_scan", "ios": "https://dc.lft.to/lastmile_qr_scan"}, "is_reserved": 0, "name": "ac44cacaba1058f95b7a4da03d4c663f", "lon": -77.04163616666666, "type": "electric_scooter", "bike_id": "ac44cacaba1058f95b7a4da03d4c663f", "fusion_lon": 0.0, "lat": 38.907912333333336, "fusion_lat": 0.0}, {"is_disabled": 0, "rental_uris": {"android": "https://dc.lft.to/lastmile_qr_scan", "ios": "https://dc.lft.to/lastmile_qr_scan"}, "is_reserved": 0, "name": "3cee0b7d1e77939052e5152c90293efa", "lon": -77.04026916666666, "type": "electric_scooter", "bike_id": "3cee0b7d1e77939052e5152c90293efa", "fusion_lon": 0.0, "lat": 38.917863833333335, "fusion_lat": 0.0}, {"is_disabled": 0, "rental_uris": {"android": "https://dc.lft.to/lastmile_qr_scan", "ios": "https://dc.lft.to/lastmile_qr_scan"}, "is_reserved": 0, "name": "3ed162410c8d461b1e0d5382bcf14259", "lon": -76.99956983333334, "type": "electric_scooter", "bike_id": "3ed162410c8d461b1e0d5382bcf14259", "fusion_lon": 0.0, "lat": 38.9034355, "fusion_lat": 0.0}, {"is_disabled": 0, "rental_uris": {"android": "https://dc.lft.to/lastmile_qr_scan", "ios": "https://dc.lft.to/lastmile_qr_scan"}, "is_reserved": 0, "name": "38f55148eb1f3a80710028a213913faf", "lon": -77.0019865, "type": "electric_scooter", "bike_id": "38f55148eb1f3a80710028a213913faf", "fusion_lon": 0.0, "lat": 38.9024435, "fusion_lat": 0.0}, {"is_disabled": 0, "rental_uris": {"android": "https://dc.lft.to/lastmile_qr_scan", "ios": "https://dc.lft.to/lastmile_qr_scan"}, "is_reserved": 0, "name": "da39dce289e1eb8230a7a42c1f180742", "lon": -77.00642116666667, "type": "electric_bike", "bike_id": "da39dce289e1eb8230a7a42c1f180742", "fusion_lon": 0.0, "lat": 38.94472716666667, "fusion_lat": 0.0}, {"is_disabled": 0, "rental_uris": {"android": "https://dc.lft.to/lastmile_qr_scan", "ios": "https://dc.lft.to/lastmile_qr_scan"}, "is_reserved": 0, "name": "8e35a450eb11fdab17a8f9027ffa12fb", "lon": -77.03175833333333, "type": "electric_scooter", "bike_id": "8e35a450eb11fdab17a8f9027ffa12fb", "fusion_lon": 0.0, "lat": 38.91908466666667, "fusion_lat": 0.0}, {"is_disabled": 0, "rental_uris": {"android": "https://dc.lft.to/lastmile_qr_scan", "ios": "https://dc.lft.to/lastmile_qr_scan"}, "is_reserved": 0, "name": "9b8b7ec8c9544d65b9ebda9ec33ffd64", "lon": -77.03874966666666, "type": "electric_scooter", "bike_id": "9b8b7ec8c9544d65b9ebda9ec33ffd64", "fusion_lon": 0.0, "lat": 38.9342995, "fusion_lat": 0.0}, {"is_disabled": 0, "rental_uris": {"android": "https://dc.lft.to/lastmile_qr_scan", "ios": "https://dc.lft.to/lastmile_qr_scan"}, "is_reserved": 0, "name": "515848f62617123623904689717b40e9", "lon": -77.05843383333334, "type": "electric_scooter", "bike_id": "515848f62617123623904689717b40e9", "fusion_lon": 0.0, "lat": 38.93429483333333, "fusion_lat": 0.0}, {"is_disabled": 0, "rental_uris": {"android": "https://dc.lft.to/lastmile_qr_scan", "ios": "https://dc.lft.to/lastmile_qr_scan"}, "is_reserved": 0, "name": "71425bfc0101950e3ce111a733e55efd", "lon": -77.04343366666667, "type": "electric_scooter", "bike_id": "71425bfc0101950e3ce111a733e55efd", "fusion_lon": 0.0, "lat": 38.901198666666666, "fusion_lat": 0.0}, {"is_disabled": 0, "rental_uris": {"android": "https://dc.lft.to/lastmile_qr_scan", "ios": "https://dc.lft.to/lastmile_qr_scan"}, "is_reserved": 0, "name": "7d479ef4919faee5601fe8f373720a97", "lon": -77.03183116666666, "type": "electric_scooter", "bike_id": "7d479ef4919faee5601fe8f373720a97", "fusion_lon": 0.0, "lat": 38.91907833333333, "fusion_lat": 0.0}, {"is_disabled": 0, "rental_uris": {"android": "https://dc.lft.to/lastmile_qr_scan", "ios": "https://dc.lft.to/lastmile_qr_scan"}, "is_reserved": 0, "name": "5ed40ee3efa4aca6f398ea3113425569", "lon": -77.05111316666667, "type": "electric_bike", "bike_id": "5ed40ee3efa4aca6f398ea3113425569", "fusion_lon": 0.0, "lat": 38.94563216666667, "fusion_lat": 0.0}, {"is_disabled": 0, "rental_uris": {"android": "https://dc.lft.to/lastmile_qr_scan", "ios": "https://dc.lft.to/lastmile_qr_scan"}, "is_reserved": 0, "name": "31f38d13e8ecdd3208e474afd3861af9", "lon": -77.02179566666666, "type": "electric_scooter", "bike_id": "31f38d13e8ecdd3208e474afd3861af9", "fusion_lon": 0.0, "lat": 38.897451333333336, "fusion_lat": 0.0}, {"is_disabled": 0, "rental_uris": {"android": "https://dc.lft.to/lastmile_qr_scan", "ios": "https://dc.lft.to/lastmile_qr_scan"}, "is_reserved": 0, "name": "110e4c3b17b7b425940ba33202215c3e", "lon": -77.0282695, "type": "electric_scooter", "bike_id": "110e4c3b17b7b425940ba33202215c3e", "fusion_lon": 0.0, "lat": 38.91415766666667, "fusion_lat": 0.0}, {"is_disabled": 0, "rental_uris": {"android": "https://dc.lft.to/lastmile_qr_scan", "ios": "https://dc.lft.to/lastmile_qr_scan"}, "is_reserved": 0, "name": "8e0ff72b2008839f5e64ac3fe5061e34", "lon": -77.10731233333334, "type": "electric_bike", "bike_id": "8e0ff72b2008839f5e64ac3fe5061e34", "fusion_lon": 0.0, "lat": 38.855564666666666, "fusion_lat": 0.0}, {"is_disabled": 0, "rental_uris": {"android": "https://dc.lft.to/lastmile_qr_scan", "ios": "https://dc.lft.to/lastmile_qr_scan"}, "is_reserved": 0, "name": "8c8c495b19ca0d7cbb0056cedb3b602e", "lon": -76.9837525, "type": "electric_scooter", "bike_id": "8c8c495b19ca0d7cbb0056cedb3b602e", "fusion_lon": 0.0, "lat": 38.92204816666667, "fusion_lat": 0.0}, {"is_disabled": 0, "rental_uris": {"android": "https://dc.lft.to/lastmile_qr_scan", "ios": "https://dc.lft.to/lastmile_qr_scan"}, "is_reserved": 0, "name": "c1b4b9ccb3c2a72867bfca0d7022ac14", "lon": -77.03181266666667, "type": "electric_scooter", "bike_id": "c1b4b9ccb3c2a72867bfca0d7022ac14", "fusion_lon": 0.0, "lat": 38.930542, "fusion_lat": 0.0}, {"is_disabled": 0, "rental_uris": {"android": "https://dc.lft.to/lastmile_qr_scan", "ios": "https://dc.lft.to/lastmile_qr_scan"}, "is_reserved": 0, "name": "bbbd4ea22616333f5c255fbe55c274f0", "lon": -77.06363183333333, "type": "electric_scooter", "bike_id": "bbbd4ea22616333f5c255fbe55c274f0", "fusion_lon": 0.0, "lat": 38.94418266666667, "fusion_lat": 0.0}, {"is_disabled": 0, "rental_uris": {"android": "https://dc.lft.to/lastmile_qr_scan", "ios": "https://dc.lft.to/lastmile_qr_scan"}, "is_reserved": 0, "name": "35a211481370bf1e57c9ee77634c3982", "lon": -76.9318305, "type": "electric_scooter", "bike_id": "35a211481370bf1e57c9ee77634c3982", "fusion_lon": 0.0, "lat": 38.89874866666667, "fusion_lat": 0.0}, {"is_disabled": 0, "rental_uris": {"android": "https://dc.lft.to/lastmile_qr_scan", "ios": "https://dc.lft.to/lastmile_qr_scan"}, "is_reserved": 0, "name": "6e9411d1806e75d876c67f682f1fb3ee", "lon": -77.02257016666667, "type": "electric_scooter", "bike_id": "6e9411d1806e75d876c67f682f1fb3ee", "fusion_lon": 0.0, "lat": 38.92826683333333, "fusion_lat": 0.0}, {"is_disabled": 0, "rental_uris": {"android": "https://dc.lft.to/lastmile_qr_scan", "ios": "https://dc.lft.to/lastmile_qr_scan"}, "is_reserved": 0, "name": "35e8a484fac9234e2a3eb5ffbca4bc31", "lon": -77.0473555, "type": "electric_scooter", "bike_id": "35e8a484fac9234e2a3eb5ffbca4bc31", "fusion_lon": 0.0, "lat": 38.90549816666667, "fusion_lat": 0.0}, {"is_disabled": 0, "rental_uris": {"android": "https://dc.lft.to/lastmile_qr_scan", "ios": "https://dc.lft.to/lastmile_qr_scan"}, "is_reserved": 0, "name": "973d507d30147f1ba6450780017d0cbe", "lon": -77.04385166666667, "type": "electric_bike", "bike_id": "973d507d30147f1ba6450780017d0cbe", "fusion_lon": 0.0, "lat": 39.0527185, "fusion_lat": 0.0}, {"is_disabled": 0, "rental_uris": {"android": "https://dc.lft.to/lastmile_qr_scan", "ios": "https://dc.lft.to/lastmile_qr_scan"}, "is_reserved": 0, "name": "29580fd59b8f0350811c013adab5ab96", "lon": -77.03322533333333, "type": "electric_bike", "bike_id": "29580fd59b8f0350811c013adab5ab96", "fusion_lon": 0.0, "lat": 38.926557833333334, "fusion_lat": 0.0}, {"is_disabled": 0, "rental_uris": {"android": "https://dc.lft.to/lastmile_qr_scan", "ios": "https://dc.lft.to/lastmile_qr_scan"}, "is_reserved": 0, "name": "e4ed27e2c140a9ee065ad55fea70b7c7", "lon": -77.02204616666667, "type": "electric_scooter", "bike_id": "e4ed27e2c140a9ee065ad55fea70b7c7", "fusion_lon": 0.0, "lat": 38.911057166666666, "fusion_lat": 0.0}, {"is_disabled": 0, "rental_uris": {"android": "https://dc.lft.to/lastmile_qr_scan", "ios": "https://dc.lft.to/lastmile_qr_scan"}, "is_reserved": 0, "name": "98dad4b2f8bf79052c3ac796bda8250c", "lon": -76.9636805, "type": "electric_bike", "bike_id": "98dad4b2f8bf79052c3ac796bda8250c", "fusion_lon": 0.0, "lat": 38.9489715, "fusion_lat": 0.0}, {"is_disabled": 0, "rental_uris": {"android": "https://dc.lft.to/lastmile_qr_scan", "ios": "https://dc.lft.to/lastmile_qr_scan"}, "is_reserved": 0, "name": "3d7b3f22406663d49ff7a1d15bcb2822", "lon": -77.03661583333333, "type": "electric_scooter", "bike_id": "3d7b3f22406663d49ff7a1d15bcb2822", "fusion_lon": 0.0, "lat": 38.917156166666665, "fusion_lat": 0.0}, {"is_disabled": 0, "rental_uris": {"android": "https://dc.lft.to/lastmile_qr_scan", "ios": "https://dc.lft.to/lastmile_qr_scan"}, "is_reserved": 0, "name": "225900382787101183c18302b89fa16e", "lon": -77.04025366666667, "type": "electric_scooter", "bike_id": "225900382787101183c18302b89fa16e", "fusion_lon": 0.0, "lat": 38.9178675, "fusion_lat": 0.0}, {"is_disabled": 0, "rental_uris": {"android": "https://dc.lft.to/lastmile_qr_scan", "ios": "https://dc.lft.to/lastmile_qr_scan"}, "is_reserved": 0, "name": "4d6dcaadbb9ebf46bd1f94aca3e2c5a4", "lon": -76.98582999999999, "type": "electric_scooter", "bike_id": "4d6dcaadbb9ebf46bd1f94aca3e2c5a4", "fusion_lon": 0.0, "lat": 38.91031483333333, "fusion_lat": 0.0}, {"is_disabled": 0, "rental_uris": {"android": "https://dc.lft.to/lastmile_qr_scan", "ios": "https://dc.lft.to/lastmile_qr_scan"}, "is_reserved": 0, "name": "e70682da3d7324a4911cd43039ac5d25", "lon": -77.0118775, "type": "electric_scooter", "bike_id": "e70682da3d7324a4911cd43039ac5d25", "fusion_lon": 0.0, "lat": 38.900258666666666, "fusion_lat": 0.0}, {"is_disabled": 0, "rental_uris": {"android": "https://dc.lft.to/lastmile_qr_scan", "ios": "https://dc.lft.to/lastmile_qr_scan"}, "is_reserved": 0, "name": "838d135e2827b11622c398de6f23716c", "lon": -77.0348945, "type": "electric_scooter", "bike_id": "838d135e2827b11622c398de6f23716c", "fusion_lon": 0.0, "lat": 38.90717316666667, "fusion_lat": 0.0}, {"is_disabled": 0, "rental_uris": {"android": "https://dc.lft.to/lastmile_qr_scan", "ios": "https://dc.lft.to/lastmile_qr_scan"}, "is_reserved": 0, "name": "44a12f408864ee633acac6a16509a9bb", "lon": -77.01899883333333, "type": "electric_scooter", "bike_id": "44a12f408864ee633acac6a16509a9bb", "fusion_lon": 0.0, "lat": 38.903584, "fusion_lat": 0.0}, {"is_disabled": 0, "rental_uris": {"android": "https://dc.lft.to/lastmile_qr_scan", "ios": "https://dc.lft.to/lastmile_qr_scan"}, "is_reserved": 0, "name": "f2f9f3ed301b3253a032c8723ef51f13", "lon": -77.03850933333334, "type": "electric_scooter", "bike_id": "f2f9f3ed301b3253a032c8723ef51f13", "fusion_lon": 0.0, "lat": 38.918351, "fusion_lat": 0.0}, {"is_disabled": 0, "rental_uris": {"android": "https://dc.lft.to/lastmile_qr_scan", "ios": "https://dc.lft.to/lastmile_qr_scan"}, "is_reserved": 0, "name": "8b0e459967935e1bbd50f6b7764e7737", "lon": -77.05059866666667, "type": "electric_scooter", "bike_id": "8b0e459967935e1bbd50f6b7764e7737", "fusion_lon": 0.0, "lat": 38.916389833333334, "fusion_lat": 0.0}, {"is_disabled": 0, "rental_uris": {"android": "https://dc.lft.to/lastmile_qr_scan", "ios": "https://dc.lft.to/lastmile_qr_scan"}, "is_reserved": 0, "name": "d88df57feb85d188b857dfa12c5d80f3", "lon": -77.03441033333333, "type": "electric_scooter", "bike_id": "d88df57feb85d188b857dfa12c5d80f3", "fusion_lon": 0.0, "lat": 38.91805733333333, "fusion_lat": 0.0}, {"is_disabled": 0, "rental_uris": {"android": "https://dc.lft.to/lastmile_qr_scan", "ios": "https://dc.lft.to/lastmile_qr_scan"}, "is_reserved": 0, "name": "8f668a2ce4f8bb7d9f717ea0f252516f", "lon": -77.03468133333334, "type": "electric_scooter", "bike_id": "8f668a2ce4f8bb7d9f717ea0f252516f", "fusion_lon": 0.0, "lat": 38.907477666666665, "fusion_lat": 0.0}, {"is_disabled": 0, "rental_uris": {"android": "https://dc.lft.to/lastmile_qr_scan", "ios": "https://dc.lft.to/lastmile_qr_scan"}, "is_reserved": 0, "name": "90b42bfe6cf0007391b544d40f0994be", "lon": -77.04369, "type": "electric_scooter", "bike_id": "90b42bfe6cf0007391b544d40f0994be", "fusion_lon": 0.0, "lat": 38.922465833333334, "fusion_lat": 0.0}, {"is_disabled": 0, "rental_uris": {"android": "https://dc.lft.to/lastmile_qr_scan", "ios": "https://dc.lft.to/lastmile_qr_scan"}, "is_reserved": 0, "name": "6e6d74f47b9f948dbe6ede7eb3aa6c81", "lon": -77.03348366666667, "type": "electric_scooter", "bike_id": "6e6d74f47b9f948dbe6ede7eb3aa6c81", "fusion_lon": 0.0, "lat": 38.8922935, "fusion_lat": 0.0}, {"is_disabled": 0, "rental_uris": {"android": "https://dc.lft.to/lastmile_qr_scan", "ios": "https://dc.lft.to/lastmile_qr_scan"}, "is_reserved": 0, "name": "58c3d7d9d9d0e2292e1ab8f560c18ceb", "lon": -77.02836233333333, "type": "electric_scooter", "bike_id": "58c3d7d9d9d0e2292e1ab8f560c18ceb", "fusion_lon": 0.0, "lat": 38.93193083333333, "fusion_lat": 0.0}, {"is_disabled": 0, "rental_uris": {"android": "https://dc.lft.to/lastmile_qr_scan", "ios": "https://dc.lft.to/lastmile_qr_scan"}, "is_reserved": 0, "name": "cd7ac27ee5a9c8ce4ba6a35754945baa", "lon": -77.04654666666667, "type": "electric_scooter", "bike_id": "cd7ac27ee5a9c8ce4ba6a35754945baa", "fusion_lon": 0.0, "lat": 38.911803666666664, "fusion_lat": 0.0}, {"is_disabled": 0, "rental_uris": {"android": "https://dc.lft.to/lastmile_qr_scan", "ios": "https://dc.lft.to/lastmile_qr_scan"}, "is_reserved": 0, "name": "f6d6fa9555c27d8420d703ccafe00f76", "lon": -76.99167683333333, "type": "electric_scooter", "bike_id": "f6d6fa9555c27d8420d703ccafe00f76", "fusion_lon": 0.0, "lat": 38.8814645, "fusion_lat": 0.0}, {"is_disabled": 0, "rental_uris": {"android": "https://dc.lft.to/lastmile_qr_scan", "ios": "https://dc.lft.to/lastmile_qr_scan"}, "is_reserved": 0, "name": "c2d94adeb5026de732c880e6afb276df", "lon": -77.04645866666667, "type": "electric_scooter", "bike_id": "c2d94adeb5026de732c880e6afb276df", "fusion_lon": 0.0, "lat": 38.90562283333333, "fusion_lat": 0.0}, {"is_disabled": 0, "rental_uris": {"android": "https://dc.lft.to/lastmile_qr_scan", "ios": "https://dc.lft.to/lastmile_qr_scan"}, "is_reserved": 0, "name": "7b9fa3e4f1512a320b4fd94139033e51", "lon": -77.01543516666666, "type": "electric_scooter", "bike_id": "7b9fa3e4f1512a320b4fd94139033e51", "fusion_lon": 0.0, "lat": 38.887709, "fusion_lat": 0.0}, {"is_disabled": 0, "rental_uris": {"android": "https://dc.lft.to/lastmile_qr_scan", "ios": "https://dc.lft.to/lastmile_qr_scan"}, "is_reserved": 0, "name": "352c8b7c051cafefe51c3e0214601b8e", "lon": -77.03663066666667, "type": "electric_scooter", "bike_id": "352c8b7c051cafefe51c3e0214601b8e", "fusion_lon": 0.0, "lat": 38.92329933333333, "fusion_lat": 0.0}, {"is_disabled": 0, "rental_uris": {"android": "https://dc.lft.to/lastmile_qr_scan", "ios": "https://dc.lft.to/lastmile_qr_scan"}, "is_reserved": 0, "name": "742c594ec5d601cd37e1c85c0e9a1802", "lon": -77.040079, "type": "electric_scooter", "bike_id": "742c594ec5d601cd37e1c85c0e9a1802", "fusion_lon": 0.0, "lat": 38.9179475, "fusion_lat": 0.0}, {"is_disabled": 0, "rental_uris": {"android": "https://dc.lft.to/lastmile_qr_scan", "ios": "https://dc.lft.to/lastmile_qr_scan"}, "is_reserved": 0, "name": "4fd5c55bf8138572aa98d4b7a42b8add", "lon": -77.02943933333333, "type": "electric_scooter", "bike_id": "4fd5c55bf8138572aa98d4b7a42b8add", "fusion_lon": 0.0, "lat": 38.904578, "fusion_lat": 0.0}, {"is_disabled": 0, "rental_uris": {"android": "https://dc.lft.to/lastmile_qr_scan", "ios": "https://dc.lft.to/lastmile_qr_scan"}, "is_reserved": 0, "name": "d578f16264167af29c7bb456ba848e09", "lon": -77.024951, "type": "electric_scooter", "bike_id": "d578f16264167af29c7bb456ba848e09", "fusion_lon": 0.0, "lat": 38.918054833333336, "fusion_lat": 0.0}, {"is_disabled": 0, "rental_uris": {"android": "https://dc.lft.to/lastmile_qr_scan", "ios": "https://dc.lft.to/lastmile_qr_scan"}, "is_reserved": 0, "name": "eba118278f038a7d99058c751b52a7de", "lon": -77.02724233333333, "type": "electric_scooter", "bike_id": "eba118278f038a7d99058c751b52a7de", "fusion_lon": 0.0, "lat": 38.909605166666665, "fusion_lat": 0.0}, {"is_disabled": 0, "rental_uris": {"android": "https://dc.lft.to/lastmile_qr_scan", "ios": "https://dc.lft.to/lastmile_qr_scan"}, "is_reserved": 0, "name": "fe40e0cf791b70049d80b74c663dab96", "lon": -76.92159866666667, "type": "electric_bike", "bike_id": "fe40e0cf791b70049d80b74c663dab96", "fusion_lon": 0.0, "lat": 39.010374, "fusion_lat": 0.0}, {"is_disabled": 0, "rental_uris": {"android": "https://dc.lft.to/lastmile_qr_scan", "ios": "https://dc.lft.to/lastmile_qr_scan"}, "is_reserved": 0, "name": "b8fcd0f2ffc99d1da6a02a5487a50d47", "lon": -77.02234083333333, "type": "electric_scooter", "bike_id": "b8fcd0f2ffc99d1da6a02a5487a50d47", "fusion_lon": 0.0, "lat": 38.91120166666666, "fusion_lat": 0.0}, {"is_disabled": 0, "rental_uris": {"android": "https://dc.lft.to/lastmile_qr_scan", "ios": "https://dc.lft.to/lastmile_qr_scan"}, "is_reserved": 0, "name": "b4ee796a70c3e40a7971a7f24ce71ab3", "lon": -77.02398266666667, "type": "electric_scooter", "bike_id": "b4ee796a70c3e40a7971a7f24ce71ab3", "fusion_lon": 0.0, "lat": 38.93099983333333, "fusion_lat": 0.0}, {"is_disabled": 0, "rental_uris": {"android": "https://dc.lft.to/lastmile_qr_scan", "ios": "https://dc.lft.to/lastmile_qr_scan"}, "is_reserved": 0, "name": "53152ebebd9d4d820f3e64df6e7bbeb5", "lon": -76.95755066666666, "type": "electric_scooter", "bike_id": "53152ebebd9d4d820f3e64df6e7bbeb5", "fusion_lon": 0.0, "lat": 38.88434933333333, "fusion_lat": 0.0}, {"is_disabled": 0, "rental_uris": {"android": "https://dc.lft.to/lastmile_qr_scan", "ios": "https://dc.lft.to/lastmile_qr_scan"}, "is_reserved": 0, "name": "65e0181eb14cf0aee6b7d51f3d592796", "lon": -77.03978733333334, "type": "electric_scooter", "bike_id": "65e0181eb14cf0aee6b7d51f3d592796", "fusion_lon": 0.0, "lat": 38.918128833333334, "fusion_lat": 0.0}, {"is_disabled": 0, "rental_uris": {"android": "https://dc.lft.to/lastmile_qr_scan", "ios": "https://dc.lft.to/lastmile_qr_scan"}, "is_reserved": 0, "name": "a555e9bb52417545384d4d34f4effce0", "lon": -77.02366, "type": "electric_scooter", "bike_id": "a555e9bb52417545384d4d34f4effce0", "fusion_lon": 0.0, "lat": 38.93132716666667, "fusion_lat": 0.0}, {"is_disabled": 0, "rental_uris": {"android": "https://dc.lft.to/lastmile_qr_scan", "ios": "https://dc.lft.to/lastmile_qr_scan"}, "is_reserved": 0, "name": "68e2f56156ff144327c44c984b1022f5", "lon": -77.03012433333333, "type": "electric_scooter", "bike_id": "68e2f56156ff144327c44c984b1022f5", "fusion_lon": 0.0, "lat": 38.9224405, "fusion_lat": 0.0}, {"is_disabled": 0, "rental_uris": {"android": "https://dc.lft.to/lastmile_qr_scan", "ios": "https://dc.lft.to/lastmile_qr_scan"}, "is_reserved": 0, "name": "de09bf41a23ef6bec97d1e4165bc1c9b", "lon": -77.01222133333333, "type": "electric_scooter", "bike_id": "de09bf41a23ef6bec97d1e4165bc1c9b", "fusion_lon": 0.0, "lat": 38.885824666666664, "fusion_lat": 0.0}, {"is_disabled": 0, "rental_uris": {"android": "https://dc.lft.to/lastmile_qr_scan", "ios": "https://dc.lft.to/lastmile_qr_scan"}, "is_reserved": 0, "name": "2555c3148724053f4add0ef3eb532554", "lon": -77.0021605, "type": "electric_scooter", "bike_id": "2555c3148724053f4add0ef3eb532554", "fusion_lon": 0.0, "lat": 38.91571, "fusion_lat": 0.0}, {"is_disabled": 0, "rental_uris": {"android": "https://dc.lft.to/lastmile_qr_scan", "ios": "https://dc.lft.to/lastmile_qr_scan"}, "is_reserved": 0, "name": "93f52edcd7644887ebf0e4e96869eabb", "lon": -77.04871483333334, "type": "electric_scooter", "bike_id": "93f52edcd7644887ebf0e4e96869eabb", "fusion_lon": 0.0, "lat": 38.90949066666667, "fusion_lat": 0.0}, {"is_disabled": 0, "rental_uris": {"android": "https://dc.lft.to/lastmile_qr_scan", "ios": "https://dc.lft.to/lastmile_qr_scan"}, "is_reserved": 0, "name": "91ab213cba6f20369db58bd6e907f71c", "lon": -77.0529055, "type": "electric_scooter", "bike_id": "91ab213cba6f20369db58bd6e907f71c", "fusion_lon": 0.0, "lat": 38.90342016666666, "fusion_lat": 0.0}, {"is_disabled": 0, "rental_uris": {"android": "https://dc.lft.to/lastmile_qr_scan", "ios": "https://dc.lft.to/lastmile_qr_scan"}, "is_reserved": 0, "name": "5ec5b2839a504392a9ebd1fe6eff47d4", "lon": -77.01658933333333, "type": "electric_bike", "bike_id": "5ec5b2839a504392a9ebd1fe6eff47d4", "fusion_lon": 0.0, "lat": 38.954369666666665, "fusion_lat": 0.0}, {"is_disabled": 0, "rental_uris": {"android": "https://dc.lft.to/lastmile_qr_scan", "ios": "https://dc.lft.to/lastmile_qr_scan"}, "is_reserved": 0, "name": "95359990f3214855fc124fc4c5e8b3ba", "lon": -77.0326595, "type": "electric_scooter", "bike_id": "95359990f3214855fc124fc4c5e8b3ba", "fusion_lon": 0.0, "lat": 38.9333145, "fusion_lat": 0.0}, {"is_disabled": 0, "rental_uris": {"android": "https://dc.lft.to/lastmile_qr_scan", "ios": "https://dc.lft.to/lastmile_qr_scan"}, "is_reserved": 0, "name": "5ac31c85c4b1d57f8354d0c0778e0b8d", "lon": -76.98708383333333, "type": "electric_scooter", "bike_id": "5ac31c85c4b1d57f8354d0c0778e0b8d", "fusion_lon": 0.0, "lat": 38.86697366666667, "fusion_lat": 0.0}, {"is_disabled": 0, "rental_uris": {"android": "https://dc.lft.to/lastmile_qr_scan", "ios": "https://dc.lft.to/lastmile_qr_scan"}, "is_reserved": 0, "name": "a5f79a9ad8de83d3e19b53b8988b3521", "lon": -77.00598866666667, "type": "electric_scooter", "bike_id": "a5f79a9ad8de83d3e19b53b8988b3521", "fusion_lon": 0.0, "lat": 38.9056985, "fusion_lat": 0.0}, {"is_disabled": 0, "rental_uris": {"android": "https://dc.lft.to/lastmile_qr_scan", "ios": "https://dc.lft.to/lastmile_qr_scan"}, "is_reserved": 0, "name": "33ff2acca95dc2044325bebc26f988c5", "lon": -77.026906, "type": "electric_scooter", "bike_id": "33ff2acca95dc2044325bebc26f988c5", "fusion_lon": 0.0, "lat": 38.90737566666667, "fusion_lat": 0.0}, {"is_disabled": 0, "rental_uris": {"android": "https://dc.lft.to/lastmile_qr_scan", "ios": "https://dc.lft.to/lastmile_qr_scan"}, "is_reserved": 0, "name": "3a6cde0065cf07785b03752fa007370e", "lon": -76.94996283333333, "type": "electric_scooter", "bike_id": "3a6cde0065cf07785b03752fa007370e", "fusion_lon": 0.0, "lat": 38.893907666666664, "fusion_lat": 0.0}, {"is_disabled": 0, "rental_uris": {"android": "https://dc.lft.to/lastmile_qr_scan", "ios": "https://dc.lft.to/lastmile_qr_scan"}, "is_reserved": 0, "name": "e5fd947bd3d4799c3e87920809da3c50", "lon": -77.00915766666667, "type": "electric_scooter", "bike_id": "e5fd947bd3d4799c3e87920809da3c50", "fusion_lon": 0.0, "lat": 38.89782016666667, "fusion_lat": 0.0}, {"is_disabled": 0, "rental_uris": {"android": "https://dc.lft.to/lastmile_qr_scan", "ios": "https://dc.lft.to/lastmile_qr_scan"}, "is_reserved": 0, "name": "0fcfc84bb1ea665393308fb619c0e262", "lon": -77.04194833333334, "type": "electric_scooter", "bike_id": "0fcfc84bb1ea665393308fb619c0e262", "fusion_lon": 0.0, "lat": 38.92968783333333, "fusion_lat": 0.0}, {"is_disabled": 0, "rental_uris": {"android": "https://dc.lft.to/lastmile_qr_scan", "ios": "https://dc.lft.to/lastmile_qr_scan"}, "is_reserved": 0, "name": "6077936fca12c60616b359409755776f", "lon": -77.02263666666667, "type": "electric_scooter", "bike_id": "6077936fca12c60616b359409755776f", "fusion_lon": 0.0, "lat": 38.92741566666667, "fusion_lat": 0.0}, {"is_disabled": 0, "rental_uris": {"android": "https://dc.lft.to/lastmile_qr_scan", "ios": "https://dc.lft.to/lastmile_qr_scan"}, "is_reserved": 0, "name": "6d1536dca3681cb1da291af660006d35", "lon": -77.04161866666666, "type": "electric_scooter", "bike_id": "6d1536dca3681cb1da291af660006d35", "fusion_lon": 0.0, "lat": 38.910280166666666, "fusion_lat": 0.0}, {"is_disabled": 0, "rental_uris": {"android": "https://dc.lft.to/lastmile_qr_scan", "ios": "https://dc.lft.to/lastmile_qr_scan"}, "is_reserved": 0, "name": "02ec7ef76534a05394ffb90217b95b62", "lon": -77.05251866666667, "type": "electric_scooter", "bike_id": "02ec7ef76534a05394ffb90217b95b62", "fusion_lon": 0.0, "lat": 38.92734683333333, "fusion_lat": 0.0}, {"is_disabled": 0, "rental_uris": {"android": "https://dc.lft.to/lastmile_qr_scan", "ios": "https://dc.lft.to/lastmile_qr_scan"}, "is_reserved": 0, "name": "c0720510bb349f1f7172fa0995cdcb8b", "lon": -77.01216866666667, "type": "electric_scooter", "bike_id": "c0720510bb349f1f7172fa0995cdcb8b", "fusion_lon": 0.0, "lat": 38.9149815, "fusion_lat": 0.0}, {"is_disabled": 0, "rental_uris": {"android": "https://dc.lft.to/lastmile_qr_scan", "ios": "https://dc.lft.to/lastmile_qr_scan"}, "is_reserved": 0, "name": "856fd78ca416be462c1a1f022d01651f", "lon": -77.031772, "type": "electric_scooter", "bike_id": "856fd78ca416be462c1a1f022d01651f", "fusion_lon": 0.0, "lat": 38.919104, "fusion_lat": 0.0}, {"is_disabled": 0, "rental_uris": {"android": "https://dc.lft.to/lastmile_qr_scan", "ios": "https://dc.lft.to/lastmile_qr_scan"}, "is_reserved": 0, "name": "693ab6eb0e596032551983545a5e8161", "lon": -76.9888515, "type": "electric_scooter", "bike_id": "693ab6eb0e596032551983545a5e8161", "fusion_lon": 0.0, "lat": 38.8667175, "fusion_lat": 0.0}, {"is_disabled": 0, "rental_uris": {"android": "https://dc.lft.to/lastmile_qr_scan", "ios": "https://dc.lft.to/lastmile_qr_scan"}, "is_reserved": 0, "name": "68f68d35215bd0a91c10b9f9dd135235", "lon": -77.0117365, "type": "electric_scooter", "bike_id": "68f68d35215bd0a91c10b9f9dd135235", "fusion_lon": 0.0, "lat": 38.86805666666667, "fusion_lat": 0.0}, {"is_disabled": 0, "rental_uris": {"android": "https://dc.lft.to/lastmile_qr_scan", "ios": "https://dc.lft.to/lastmile_qr_scan"}, "is_reserved": 0, "name": "c6b2e9ee16032258346a209252ee07d1", "lon": -77.03466183333333, "type": "electric_scooter", "bike_id": "c6b2e9ee16032258346a209252ee07d1", "fusion_lon": 0.0, "lat": 38.916692833333336, "fusion_lat": 0.0}, {"is_disabled": 0, "rental_uris": {"android": "https://dc.lft.to/lastmile_qr_scan", "ios": "https://dc.lft.to/lastmile_qr_scan"}, "is_reserved": 0, "name": "c959d36a59de08660a9a7a838ff0760d", "lon": -77.34412483333334, "type": "electric_bike", "bike_id": "c959d36a59de08660a9a7a838ff0760d", "fusion_lon": 0.0, "lat": 38.945957, "fusion_lat": 0.0}, {"is_disabled": 0, "rental_uris": {"android": "https://dc.lft.to/lastmile_qr_scan", "ios": "https://dc.lft.to/lastmile_qr_scan"}, "is_reserved": 0, "name": "dae32024d38b12bbbcee53f568b78c14", "lon": -77.143236, "type": "electric_bike", "bike_id": "dae32024d38b12bbbcee53f568b78c14", "fusion_lon": 0.0, "lat": 39.05453633333333, "fusion_lat": 0.0}, {"is_disabled": 0, "rental_uris": {"android": "https://dc.lft.to/lastmile_qr_scan", "ios": "https://dc.lft.to/lastmile_qr_scan"}, "is_reserved": 0, "name": "d30b4b00d53a04d11d929c28ff1d75fc", "lon": -76.94893983333333, "type": "electric_scooter", "bike_id": "d30b4b00d53a04d11d929c28ff1d75fc", "fusion_lon": 0.0, "lat": 38.895313333333334, "fusion_lat": 0.0}, {"is_disabled": 0, "rental_uris": {"android": "https://dc.lft.to/lastmile_qr_scan", "ios": "https://dc.lft.to/lastmile_qr_scan"}, "is_reserved": 0, "name": "be60eb1da2905273cf7b90d1a9ceea1a", "lon": -77.03826966666666, "type": "electric_scooter", "bike_id": "be60eb1da2905273cf7b90d1a9ceea1a", "fusion_lon": 0.0, "lat": 38.91111083333333, "fusion_lat": 0.0}, {"is_disabled": 0, "rental_uris": {"android": "https://dc.lft.to/lastmile_qr_scan", "ios": "https://dc.lft.to/lastmile_qr_scan"}, "is_reserved": 0, "name": "27664df96059251a1b7464dee7853050", "lon": -77.06189466666666, "type": "electric_scooter", "bike_id": "27664df96059251a1b7464dee7853050", "fusion_lon": 0.0, "lat": 38.93023, "fusion_lat": 0.0}, {"is_disabled": 0, "rental_uris": {"android": "https://dc.lft.to/lastmile_qr_scan", "ios": "https://dc.lft.to/lastmile_qr_scan"}, "is_reserved": 0, "name": "5c1446eae55a6550c70b7c10a4e45688", "lon": -77.0476085, "type": "electric_scooter", "bike_id": "5c1446eae55a6550c70b7c10a4e45688", "fusion_lon": 0.0, "lat": 38.91768, "fusion_lat": 0.0}, {"is_disabled": 0, "rental_uris": {"android": "https://dc.lft.to/lastmile_qr_scan", "ios": "https://dc.lft.to/lastmile_qr_scan"}, "is_reserved": 0, "name": "383b8d2d0c726ba931215983f901ee49", "lon": -77.02155566666667, "type": "electric_scooter", "bike_id": "383b8d2d0c726ba931215983f901ee49", "fusion_lon": 0.0, "lat": 38.87937, "fusion_lat": 0.0}, {"is_disabled": 0, "rental_uris": {"android": "https://dc.lft.to/lastmile_qr_scan", "ios": "https://dc.lft.to/lastmile_qr_scan"}, "is_reserved": 0, "name": "efeb57adb1e50fbecacf66143c2954a6", "lon": -77.0339065, "type": "electric_scooter", "bike_id": "efeb57adb1e50fbecacf66143c2954a6", "fusion_lon": 0.0, "lat": 38.92155416666667, "fusion_lat": 0.0}, {"is_disabled": 0, "rental_uris": {"android": "https://dc.lft.to/lastmile_qr_scan", "ios": "https://dc.lft.to/lastmile_qr_scan"}, "is_reserved": 0, "name": "63897972b276c2e5ed37a41d8a17ed2a", "lon": -77.03049566666667, "type": "electric_scooter", "bike_id": "63897972b276c2e5ed37a41d8a17ed2a", "fusion_lon": 0.0, "lat": 38.96420966666667, "fusion_lat": 0.0}, {"is_disabled": 0, "rental_uris": {"android": "https://dc.lft.to/lastmile_qr_scan", "ios": "https://dc.lft.to/lastmile_qr_scan"}, "is_reserved": 0, "name": "252913a8a50a2f1485c7bb7ce1514528", "lon": -77.02603383333333, "type": "electric_scooter", "bike_id": "252913a8a50a2f1485c7bb7ce1514528", "fusion_lon": 0.0, "lat": 38.92439266666667, "fusion_lat": 0.0}, {"is_disabled": 0, "rental_uris": {"android": "https://dc.lft.to/lastmile_qr_scan", "ios": "https://dc.lft.to/lastmile_qr_scan"}, "is_reserved": 0, "name": "2002c843526355b99750fd2fd43152d8", "lon": -77.0314225, "type": "electric_scooter", "bike_id": "2002c843526355b99750fd2fd43152d8", "fusion_lon": 0.0, "lat": 38.90121033333333, "fusion_lat": 0.0}, {"is_disabled": 0, "rental_uris": {"android": "https://dc.lft.to/lastmile_qr_scan", "ios": "https://dc.lft.to/lastmile_qr_scan"}, "is_reserved": 0, "name": "9ec1eae1c22c9dd60fa743a8f29bf577", "lon": -77.02843233333333, "type": "electric_bike", "bike_id": "9ec1eae1c22c9dd60fa743a8f29bf577", "fusion_lon": 0.0, "lat": 38.9135625, "fusion_lat": 0.0}, {"is_disabled": 0, "rental_uris": {"android": "https://dc.lft.to/lastmile_qr_scan", "ios": "https://dc.lft.to/lastmile_qr_scan"}, "is_reserved": 0, "name": "3be17d7abb7a7222d24a61a43b77648a", "lon": -77.02374083333333, "type": "electric_scooter", "bike_id": "3be17d7abb7a7222d24a61a43b77648a", "fusion_lon": 0.0, "lat": 38.902081333333335, "fusion_lat": 0.0}, {"is_disabled": 0, "rental_uris": {"android": "https://dc.lft.to/lastmile_qr_scan", "ios": "https://dc.lft.to/lastmile_qr_scan"}, "is_reserved": 0, "name": "ad88b00a373096c740e2fc09fb863f92", "lon": -77.05114616666667, "type": "electric_scooter", "bike_id": "ad88b00a373096c740e2fc09fb863f92", "fusion_lon": 0.0, "lat": 38.90129566666667, "fusion_lat": 0.0}, {"is_disabled": 0, "rental_uris": {"android": "https://dc.lft.to/lastmile_qr_scan", "ios": "https://dc.lft.to/lastmile_qr_scan"}, "is_reserved": 0, "name": "5507b04d650e8b1de072c27939fa04db", "lon": -76.96526216666666, "type": "electric_scooter", "bike_id": "5507b04d650e8b1de072c27939fa04db", "fusion_lon": 0.0, "lat": 38.87630466666667, "fusion_lat": 0.0}, {"is_disabled": 0, "rental_uris": {"android": "https://dc.lft.to/lastmile_qr_scan", "ios": "https://dc.lft.to/lastmile_qr_scan"}, "is_reserved": 0, "name": "aa8b5c69dc2a3dfa33dd4d8cb90d4bce", "lon": -77.00777266666667, "type": "electric_scooter", "bike_id": "aa8b5c69dc2a3dfa33dd4d8cb90d4bce", "fusion_lon": 0.0, "lat": 38.90735866666667, "fusion_lat": 0.0}, {"is_disabled": 0, "rental_uris": {"android": "https://dc.lft.to/lastmile_qr_scan", "ios": "https://dc.lft.to/lastmile_qr_scan"}, "is_reserved": 0, "name": "ef4c8054cfaa6229911e7a990f48ee0d", "lon": -77.05105816666666, "type": "electric_scooter", "bike_id": "ef4c8054cfaa6229911e7a990f48ee0d", "fusion_lon": 0.0, "lat": 38.9021025, "fusion_lat": 0.0}, {"is_disabled": 0, "rental_uris": {"android": "https://dc.lft.to/lastmile_qr_scan", "ios": "https://dc.lft.to/lastmile_qr_scan"}, "is_reserved": 0, "name": "1411c9aeed8904a5fa89f6ef317247c2", "lon": -76.928875, "type": "electric_bike", "bike_id": "1411c9aeed8904a5fa89f6ef317247c2", "fusion_lon": 0.0, "lat": 38.978440666666664, "fusion_lat": 0.0}, {"is_disabled": 0, "rental_uris": {"android": "https://dc.lft.to/lastmile_qr_scan", "ios": "https://dc.lft.to/lastmile_qr_scan"}, "is_reserved": 0, "name": "35136f3c561d5b5acd6e5678a60ee8ae", "lon": -77.01766433333333, "type": "electric_scooter", "bike_id": "35136f3c561d5b5acd6e5678a60ee8ae", "fusion_lon": 0.0, "lat": 38.90048133333333, "fusion_lat": 0.0}, {"is_disabled": 0, "rental_uris": {"android": "https://dc.lft.to/lastmile_qr_scan", "ios": "https://dc.lft.to/lastmile_qr_scan"}, "is_reserved": 0, "name": "41e7ad6abab9b53fac4b4840a7e8a0f4", "lon": -77.0498225, "type": "electric_scooter", "bike_id": "41e7ad6abab9b53fac4b4840a7e8a0f4", "fusion_lon": 0.0, "lat": 38.9056245, "fusion_lat": 0.0}, {"is_disabled": 0, "rental_uris": {"android": "https://dc.lft.to/lastmile_qr_scan", "ios": "https://dc.lft.to/lastmile_qr_scan"}, "is_reserved": 0, "name": "63d3a297088f8612ae7d2e5a540360fa", "lon": -77.0054275, "type": "electric_scooter", "bike_id": "63d3a297088f8612ae7d2e5a540360fa", "fusion_lon": 0.0, "lat": 38.87466083333333, "fusion_lat": 0.0}, {"is_disabled": 0, "rental_uris": {"android": "https://dc.lft.to/lastmile_qr_scan", "ios": "https://dc.lft.to/lastmile_qr_scan"}, "is_reserved": 0, "name": "3f843e8b2ff34064750a65e7de221e4b", "lon": -76.987491, "type": "electric_bike", "bike_id": "3f843e8b2ff34064750a65e7de221e4b", "fusion_lon": 0.0, "lat": 38.988253666666665, "fusion_lat": 0.0}, {"is_disabled": 0, "rental_uris": {"android": "https://dc.lft.to/lastmile_qr_scan", "ios": "https://dc.lft.to/lastmile_qr_scan"}, "is_reserved": 0, "name": "b703f40743500d9352a25e3c6ce6f777", "lon": -77.02517566666667, "type": "electric_scooter", "bike_id": "b703f40743500d9352a25e3c6ce6f777", "fusion_lon": 0.0, "lat": 38.904148166666666, "fusion_lat": 0.0}, {"is_disabled": 0, "rental_uris": {"android": "https://dc.lft.to/lastmile_qr_scan", "ios": "https://dc.lft.to/lastmile_qr_scan"}, "is_reserved": 0, "name": "536743a0d0e0eba2e0b77622d3f6a293", "lon": -77.02160383333333, "type": "electric_scooter", "bike_id": "536743a0d0e0eba2e0b77622d3f6a293", "fusion_lon": 0.0, "lat": 38.926098333333336, "fusion_lat": 0.0}, {"is_disabled": 0, "rental_uris": {"android": "https://dc.lft.to/lastmile_qr_scan", "ios": "https://dc.lft.to/lastmile_qr_scan"}, "is_reserved": 0, "name": "ab431659ea6d492a810a8ef156d9954a", "lon": -76.98070516666667, "type": "electric_scooter", "bike_id": "ab431659ea6d492a810a8ef156d9954a", "fusion_lon": 0.0, "lat": 38.90166716666667, "fusion_lat": 0.0}, {"is_disabled": 0, "rental_uris": {"android": "https://dc.lft.to/lastmile_qr_scan", "ios": "https://dc.lft.to/lastmile_qr_scan"}, "is_reserved": 0, "name": "f424f5fa16211e3f60fb90f24fd8ec50", "lon": -77.035473, "type": "electric_scooter", "bike_id": "f424f5fa16211e3f60fb90f24fd8ec50", "fusion_lon": 0.0, "lat": 38.90470466666667, "fusion_lat": 0.0}, {"is_disabled": 0, "rental_uris": {"android": "https://dc.lft.to/lastmile_qr_scan", "ios": "https://dc.lft.to/lastmile_qr_scan"}, "is_reserved": 0, "name": "54a0eaa54867069d37a9f821ddd6a6a5", "lon": -77.03639916666667, "type": "electric_scooter", "bike_id": "54a0eaa54867069d37a9f821ddd6a6a5", "fusion_lon": 0.0, "lat": 38.93175516666667, "fusion_lat": 0.0}, {"is_disabled": 0, "rental_uris": {"android": "https://dc.lft.to/lastmile_qr_scan", "ios": "https://dc.lft.to/lastmile_qr_scan"}, "is_reserved": 0, "name": "409e2d39d8ad3d89f232a4bf6c282825", "lon": -77.031815, "type": "electric_scooter", "bike_id": "409e2d39d8ad3d89f232a4bf6c282825", "fusion_lon": 0.0, "lat": 38.917881333333334, "fusion_lat": 0.0}, {"is_disabled": 0, "rental_uris": {"android": "https://dc.lft.to/lastmile_qr_scan", "ios": "https://dc.lft.to/lastmile_qr_scan"}, "is_reserved": 0, "name": "9ff2c79ff59040e851b67242320e4f63", "lon": -76.996331, "type": "electric_scooter", "bike_id": "9ff2c79ff59040e851b67242320e4f63", "fusion_lon": 0.0, "lat": 38.846212, "fusion_lat": 0.0}, {"is_disabled": 0, "rental_uris": {"android": "https://dc.lft.to/lastmile_qr_scan", "ios": "https://dc.lft.to/lastmile_qr_scan"}, "is_reserved": 0, "name": "cf3b91a583677c4544c3350aca9237de", "lon": -77.03226683333334, "type": "electric_scooter", "bike_id": "cf3b91a583677c4544c3350aca9237de", "fusion_lon": 0.0, "lat": 38.9204645, "fusion_lat": 0.0}, {"is_disabled": 0, "rental_uris": {"android": "https://dc.lft.to/lastmile_qr_scan", "ios": "https://dc.lft.to/lastmile_qr_scan"}, "is_reserved": 0, "name": "8f68589f0ca49411964865418b737e00", "lon": -77.050037, "type": "electric_scooter", "bike_id": "8f68589f0ca49411964865418b737e00", "fusion_lon": 0.0, "lat": 38.91582316666667, "fusion_lat": 0.0}, {"is_disabled": 0, "rental_uris": {"android": "https://dc.lft.to/lastmile_qr_scan", "ios": "https://dc.lft.to/lastmile_qr_scan"}, "is_reserved": 0, "name": "33cf32c12cd9c9d9b7159b4e7b928b97", "lon": -77.02274066666666, "type": "electric_scooter", "bike_id": "33cf32c12cd9c9d9b7159b4e7b928b97", "fusion_lon": 0.0, "lat": 38.908799333333334, "fusion_lat": 0.0}, {"is_disabled": 0, "rental_uris": {"android": "https://dc.lft.to/lastmile_qr_scan", "ios": "https://dc.lft.to/lastmile_qr_scan"}, "is_reserved": 0, "name": "782a681fe374a9d2a6ea6bd7061d27df", "lon": -76.93354716666667, "type": "electric_scooter", "bike_id": "782a681fe374a9d2a6ea6bd7061d27df", "fusion_lon": 0.0, "lat": 38.88793533333333, "fusion_lat": 0.0}, {"is_disabled": 0, "rental_uris": {"android": "https://dc.lft.to/lastmile_qr_scan", "ios": "https://dc.lft.to/lastmile_qr_scan"}, "is_reserved": 0, "name": "fb3f398ff26c9abac02a21f7868f5d0e", "lon": -77.03197483333334, "type": "electric_scooter", "bike_id": "fb3f398ff26c9abac02a21f7868f5d0e", "fusion_lon": 0.0, "lat": 38.91605966666667, "fusion_lat": 0.0}, {"is_disabled": 0, "rental_uris": {"android": "https://dc.lft.to/lastmile_qr_scan", "ios": "https://dc.lft.to/lastmile_qr_scan"}, "is_reserved": 0, "name": "093814d11396032eaee97e9f382499ef", "lon": -77.03181016666667, "type": "electric_scooter", "bike_id": "093814d11396032eaee97e9f382499ef", "fusion_lon": 0.0, "lat": 38.89227283333334, "fusion_lat": 0.0}, {"is_disabled": 0, "rental_uris": {"android": "https://dc.lft.to/lastmile_qr_scan", "ios": "https://dc.lft.to/lastmile_qr_scan"}, "is_reserved": 0, "name": "5add0d727b4f2e5d733f9ec083b89604", "lon": -77.036432, "type": "electric_scooter", "bike_id": "5add0d727b4f2e5d733f9ec083b89604", "fusion_lon": 0.0, "lat": 38.917235833333336, "fusion_lat": 0.0}, {"is_disabled": 0, "rental_uris": {"android": "https://dc.lft.to/lastmile_qr_scan", "ios": "https://dc.lft.to/lastmile_qr_scan"}, "is_reserved": 0, "name": "db5a5143c442511c759f1309652c1189", "lon": -76.93836, "type": "electric_scooter", "bike_id": "db5a5143c442511c759f1309652c1189", "fusion_lon": 0.0, "lat": 38.890077166666664, "fusion_lat": 0.0}, {"is_disabled": 0, "rental_uris": {"android": "https://dc.lft.to/lastmile_qr_scan", "ios": "https://dc.lft.to/lastmile_qr_scan"}, "is_reserved": 0, "name": "07803e2b56fb25a833d666fb6e9ce948", "lon": -77.0231105, "type": "electric_scooter", "bike_id": "07803e2b56fb25a833d666fb6e9ce948", "fusion_lon": 0.0, "lat": 38.92659483333333, "fusion_lat": 0.0}, {"is_disabled": 0, "rental_uris": {"android": "https://dc.lft.to/lastmile_qr_scan", "ios": "https://dc.lft.to/lastmile_qr_scan"}, "is_reserved": 0, "name": "b250611e4e8a96e2a0d2604edd59fed0", "lon": -77.02714133333333, "type": "electric_scooter", "bike_id": "b250611e4e8a96e2a0d2604edd59fed0", "fusion_lon": 0.0, "lat": 38.91072233333333, "fusion_lat": 0.0}, {"is_disabled": 0, "rental_uris": {"android": "https://dc.lft.to/lastmile_qr_scan", "ios": "https://dc.lft.to/lastmile_qr_scan"}, "is_reserved": 0, "name": "b1f3b1115d81d71f2c7fce6e5592ca5d", "lon": -77.03639, "type": "electric_scooter", "bike_id": "b1f3b1115d81d71f2c7fce6e5592ca5d", "fusion_lon": 0.0, "lat": 38.918153, "fusion_lat": 0.0}, {"is_disabled": 0, "rental_uris": {"android": "https://dc.lft.to/lastmile_qr_scan", "ios": "https://dc.lft.to/lastmile_qr_scan"}, "is_reserved": 0, "name": "a3458b30e071a4f9be47679e7d1db734", "lon": -77.05598516666667, "type": "electric_scooter", "bike_id": "a3458b30e071a4f9be47679e7d1db734", "fusion_lon": 0.0, "lat": 38.937031166666664, "fusion_lat": 0.0}, {"is_disabled": 0, "rental_uris": {"android": "https://dc.lft.to/lastmile_qr_scan", "ios": "https://dc.lft.to/lastmile_qr_scan"}, "is_reserved": 0, "name": "73ef294ed7feee79f24c2edbf9daa2e7", "lon": -77.05122083333333, "type": "electric_scooter", "bike_id": "73ef294ed7feee79f24c2edbf9daa2e7", "fusion_lon": 0.0, "lat": 38.906326666666665, "fusion_lat": 0.0}, {"is_disabled": 0, "rental_uris": {"android": "https://dc.lft.to/lastmile_qr_scan", "ios": "https://dc.lft.to/lastmile_qr_scan"}, "is_reserved": 0, "name": "64c0f566a9f6f2073c157a543914e2fe", "lon": -77.02943233333333, "type": "electric_scooter", "bike_id": "64c0f566a9f6f2073c157a543914e2fe", "fusion_lon": 0.0, "lat": 38.917038833333336, "fusion_lat": 0.0}, {"is_disabled": 0, "rental_uris": {"android": "https://dc.lft.to/lastmile_qr_scan", "ios": "https://dc.lft.to/lastmile_qr_scan"}, "is_reserved": 0, "name": "466c62e3a52e733ad027036b7d54edaa", "lon": -77.02540883333333, "type": "electric_scooter", "bike_id": "466c62e3a52e733ad027036b7d54edaa", "fusion_lon": 0.0, "lat": 38.9841485, "fusion_lat": 0.0}, {"is_disabled": 0, "rental_uris": {"android": "https://dc.lft.to/lastmile_qr_scan", "ios": "https://dc.lft.to/lastmile_qr_scan"}, "is_reserved": 0, "name": "a3f514f17ca6902ddca320f90ec323cb", "lon": -77.03850483333333, "type": "electric_scooter", "bike_id": "a3f514f17ca6902ddca320f90ec323cb", "fusion_lon": 0.0, "lat": 38.93244633333333, "fusion_lat": 0.0}, {"is_disabled": 0, "rental_uris": {"android": "https://dc.lft.to/lastmile_qr_scan", "ios": "https://dc.lft.to/lastmile_qr_scan"}, "is_reserved": 0, "name": "f31cff23ce2c3bf558f7e5b3a10729da", "lon": -77.027039, "type": "electric_scooter", "bike_id": "f31cff23ce2c3bf558f7e5b3a10729da", "fusion_lon": 0.0, "lat": 38.949829, "fusion_lat": 0.0}, {"is_disabled": 0, "rental_uris": {"android": "https://dc.lft.to/lastmile_qr_scan", "ios": "https://dc.lft.to/lastmile_qr_scan"}, "is_reserved": 0, "name": "4cea1ac8cf42d217a47e422601bc8f26", "lon": -77.03567116666666, "type": "electric_scooter", "bike_id": "4cea1ac8cf42d217a47e422601bc8f26", "fusion_lon": 0.0, "lat": 38.9181945, "fusion_lat": 0.0}, {"is_disabled": 0, "rental_uris": {"android": "https://dc.lft.to/lastmile_qr_scan", "ios": "https://dc.lft.to/lastmile_qr_scan"}, "is_reserved": 0, "name": "8c5046fe3cc1ba98f00456d441885a44", "lon": -77.0137015, "type": "electric_scooter", "bike_id": "8c5046fe3cc1ba98f00456d441885a44", "fusion_lon": 0.0, "lat": 38.91035016666667, "fusion_lat": 0.0}, {"is_disabled": 0, "rental_uris": {"android": "https://dc.lft.to/lastmile_qr_scan", "ios": "https://dc.lft.to/lastmile_qr_scan"}, "is_reserved": 0, "name": "fb5400fcadceb146adf8a55cc6de8900", "lon": -77.09568516666667, "type": "electric_bike", "bike_id": "fb5400fcadceb146adf8a55cc6de8900", "fusion_lon": 0.0, "lat": 38.916994833333334, "fusion_lat": 0.0}, {"is_disabled": 0, "rental_uris": {"android": "https://dc.lft.to/lastmile_qr_scan", "ios": "https://dc.lft.to/lastmile_qr_scan"}, "is_reserved": 0, "name": "9b24caccb7be9cb3c5ee45bd3ee3fc7b", "lon": -77.04384566666667, "type": "electric_scooter", "bike_id": "9b24caccb7be9cb3c5ee45bd3ee3fc7b", "fusion_lon": 0.0, "lat": 38.90273366666667, "fusion_lat": 0.0}, {"is_disabled": 0, "rental_uris": {"android": "https://dc.lft.to/lastmile_qr_scan", "ios": "https://dc.lft.to/lastmile_qr_scan"}, "is_reserved": 0, "name": "0386a78d28e8d46c4161a422269325f1", "lon": -77.02221333333334, "type": "electric_scooter", "bike_id": "0386a78d28e8d46c4161a422269325f1", "fusion_lon": 0.0, "lat": 38.9127145, "fusion_lat": 0.0}, {"is_disabled": 0, "rental_uris": {"android": "https://dc.lft.to/lastmile_qr_scan", "ios": "https://dc.lft.to/lastmile_qr_scan"}, "is_reserved": 0, "name": "fc3a70d0f4fa8e26a1e90825bad0c511", "lon": -77.03823733333333, "type": "electric_scooter", "bike_id": "fc3a70d0f4fa8e26a1e90825bad0c511", "fusion_lon": 0.0, "lat": 38.91110716666667, "fusion_lat": 0.0}, {"is_disabled": 0, "rental_uris": {"android": "https://dc.lft.to/lastmile_qr_scan", "ios": "https://dc.lft.to/lastmile_qr_scan"}, "is_reserved": 0, "name": "8d0e502fc36a42de508437f97aa95110", "lon": -76.990059, "type": "electric_scooter", "bike_id": "8d0e502fc36a42de508437f97aa95110", "fusion_lon": 0.0, "lat": 38.86508366666666, "fusion_lat": 0.0}, {"is_disabled": 0, "rental_uris": {"android": "https://dc.lft.to/lastmile_qr_scan", "ios": "https://dc.lft.to/lastmile_qr_scan"}, "is_reserved": 0, "name": "6354f17c60c6773c32ae56b11d792e69", "lon": -77.01896066666667, "type": "electric_scooter", "bike_id": "6354f17c60c6773c32ae56b11d792e69", "fusion_lon": 0.0, "lat": 38.91222333333333, "fusion_lat": 0.0}, {"is_disabled": 0, "rental_uris": {"android": "https://dc.lft.to/lastmile_qr_scan", "ios": "https://dc.lft.to/lastmile_qr_scan"}, "is_reserved": 0, "name": "9083a592272ef235539d6d54cb40f937", "lon": -77.02229433333333, "type": "electric_scooter", "bike_id": "9083a592272ef235539d6d54cb40f937", "fusion_lon": 0.0, "lat": 38.905667, "fusion_lat": 0.0}, {"is_disabled": 0, "rental_uris": {"android": "https://dc.lft.to/lastmile_qr_scan", "ios": "https://dc.lft.to/lastmile_qr_scan"}, "is_reserved": 0, "name": "76e8e943d6e333b015dc560d23107722", "lon": -76.955426, "type": "electric_bike", "bike_id": "76e8e943d6e333b015dc560d23107722", "fusion_lon": 0.0, "lat": 38.948027333333336, "fusion_lat": 0.0}, {"is_disabled": 0, "rental_uris": {"android": "https://dc.lft.to/lastmile_qr_scan", "ios": "https://dc.lft.to/lastmile_qr_scan"}, "is_reserved": 0, "name": "ed561195c97eed94c3a4d559908af19e", "lon": -77.04119433333334, "type": "electric_scooter", "bike_id": "ed561195c97eed94c3a4d559908af19e", "fusion_lon": 0.0, "lat": 38.931016166666666, "fusion_lat": 0.0}, {"is_disabled": 0, "rental_uris": {"android": "https://dc.lft.to/lastmile_qr_scan", "ios": "https://dc.lft.to/lastmile_qr_scan"}, "is_reserved": 0, "name": "0ce8bb49382f700a5a5bd2f19d23d6e2", "lon": -77.0303945, "type": "electric_scooter", "bike_id": "0ce8bb49382f700a5a5bd2f19d23d6e2", "fusion_lon": 0.0, "lat": 38.93105533333333, "fusion_lat": 0.0}, {"is_disabled": 0, "rental_uris": {"android": "https://dc.lft.to/lastmile_qr_scan", "ios": "https://dc.lft.to/lastmile_qr_scan"}, "is_reserved": 0, "name": "daa76749067a6d4a6fdd2e50a24b2156", "lon": -77.048681, "type": "electric_scooter", "bike_id": "daa76749067a6d4a6fdd2e50a24b2156", "fusion_lon": 0.0, "lat": 38.909517, "fusion_lat": 0.0}, {"is_disabled": 0, "rental_uris": {"android": "https://dc.lft.to/lastmile_qr_scan", "ios": "https://dc.lft.to/lastmile_qr_scan"}, "is_reserved": 0, "name": "2750b7dfc9549078121bcc3c4755ae71", "lon": -77.03137266666667, "type": "electric_scooter", "bike_id": "2750b7dfc9549078121bcc3c4755ae71", "fusion_lon": 0.0, "lat": 38.920214333333334, "fusion_lat": 0.0}, {"is_disabled": 0, "rental_uris": {"android": "https://dc.lft.to/lastmile_qr_scan", "ios": "https://dc.lft.to/lastmile_qr_scan"}, "is_reserved": 0, "name": "aa1ac52b394811fd56514ac836a314fc", "lon": -77.04487066666667, "type": "electric_scooter", "bike_id": "aa1ac52b394811fd56514ac836a314fc", "fusion_lon": 0.0, "lat": 38.911626, "fusion_lat": 0.0}, {"is_disabled": 0, "rental_uris": {"android": "https://dc.lft.to/lastmile_qr_scan", "ios": "https://dc.lft.to/lastmile_qr_scan"}, "is_reserved": 0, "name": "21e2dd27238d8702f3b1fb6b21eeb4fc", "lon": -77.038704, "type": "electric_scooter", "bike_id": "21e2dd27238d8702f3b1fb6b21eeb4fc", "fusion_lon": 0.0, "lat": 38.90813266666667, "fusion_lat": 0.0}, {"is_disabled": 0, "rental_uris": {"android": "https://dc.lft.to/lastmile_qr_scan", "ios": "https://dc.lft.to/lastmile_qr_scan"}, "is_reserved": 0, "name": "4e79bb81a7211b924a02ebf9b6ec6c1b", "lon": -76.965276, "type": "electric_scooter", "bike_id": "4e79bb81a7211b924a02ebf9b6ec6c1b", "fusion_lon": 0.0, "lat": 38.8763155, "fusion_lat": 0.0}, {"is_disabled": 0, "rental_uris": {"android": "https://dc.lft.to/lastmile_qr_scan", "ios": "https://dc.lft.to/lastmile_qr_scan"}, "is_reserved": 0, "name": "b5e4974f06f397eeb6eea3576ef6fddd", "lon": -77.01619383333333, "type": "electric_scooter", "bike_id": "b5e4974f06f397eeb6eea3576ef6fddd", "fusion_lon": 0.0, "lat": 38.87875483333333, "fusion_lat": 0.0}, {"is_disabled": 0, "rental_uris": {"android": "https://dc.lft.to/lastmile_qr_scan", "ios": "https://dc.lft.to/lastmile_qr_scan"}, "is_reserved": 0, "name": "2df096f91ed7ac2490a09b090f7a8afb", "lon": -77.016194, "type": "electric_scooter", "bike_id": "2df096f91ed7ac2490a09b090f7a8afb", "fusion_lon": 0.0, "lat": 38.92049, "fusion_lat": 0.0}, {"is_disabled": 0, "rental_uris": {"android": "https://dc.lft.to/lastmile_qr_scan", "ios": "https://dc.lft.to/lastmile_qr_scan"}, "is_reserved": 0, "name": "e05e3abc4c108382c19da10c7036f85f", "lon": -77.0218325, "type": "electric_scooter", "bike_id": "e05e3abc4c108382c19da10c7036f85f", "fusion_lon": 0.0, "lat": 38.89945733333333, "fusion_lat": 0.0}, {"is_disabled": 0, "rental_uris": {"android": "https://dc.lft.to/lastmile_qr_scan", "ios": "https://dc.lft.to/lastmile_qr_scan"}, "is_reserved": 0, "name": "341bab8be26a25822a507b1c259ab042", "lon": -77.03760183333333, "type": "electric_scooter", "bike_id": "341bab8be26a25822a507b1c259ab042", "fusion_lon": 0.0, "lat": 38.92905966666667, "fusion_lat": 0.0}, {"is_disabled": 0, "rental_uris": {"android": "https://dc.lft.to/lastmile_qr_scan", "ios": "https://dc.lft.to/lastmile_qr_scan"}, "is_reserved": 0, "name": "966adc431b720a2c8696067060fbee47", "lon": -77.02669133333333, "type": "electric_scooter", "bike_id": "966adc431b720a2c8696067060fbee47", "fusion_lon": 0.0, "lat": 38.912749, "fusion_lat": 0.0}, {"is_disabled": 0, "rental_uris": {"android": "https://dc.lft.to/lastmile_qr_scan", "ios": "https://dc.lft.to/lastmile_qr_scan"}, "is_reserved": 0, "name": "7d3fcfbc799f205a0112fc0d52f9ea48", "lon": -77.042453, "type": "electric_scooter", "bike_id": "7d3fcfbc799f205a0112fc0d52f9ea48", "fusion_lon": 0.0, "lat": 38.92220233333333, "fusion_lat": 0.0}, {"is_disabled": 0, "rental_uris": {"android": "https://dc.lft.to/lastmile_qr_scan", "ios": "https://dc.lft.to/lastmile_qr_scan"}, "is_reserved": 0, "name": "a7703e51f57731c1807f065552ebb2ea", "lon": -77.05520266666667, "type": "electric_scooter", "bike_id": "a7703e51f57731c1807f065552ebb2ea", "fusion_lon": 0.0, "lat": 38.930102, "fusion_lat": 0.0}, {"is_disabled": 0, "rental_uris": {"android": "https://dc.lft.to/lastmile_qr_scan", "ios": "https://dc.lft.to/lastmile_qr_scan"}, "is_reserved": 0, "name": "272214ac77c00153931ce56f9a2d87e2", "lon": -77.06168416666667, "type": "electric_bike", "bike_id": "272214ac77c00153931ce56f9a2d87e2", "fusion_lon": 0.0, "lat": 38.81271816666667, "fusion_lat": 0.0}, {"is_disabled": 0, "rental_uris": {"android": "https://dc.lft.to/lastmile_qr_scan", "ios": "https://dc.lft.to/lastmile_qr_scan"}, "is_reserved": 0, "name": "073cdcd8e0119649e98dc30e2be96b8f", "lon": -77.02964016666667, "type": "electric_scooter", "bike_id": "073cdcd8e0119649e98dc30e2be96b8f", "fusion_lon": 0.0, "lat": 38.898435, "fusion_lat": 0.0}, {"is_disabled": 0, "rental_uris": {"android": "https://dc.lft.to/lastmile_qr_scan", "ios": "https://dc.lft.to/lastmile_qr_scan"}, "is_reserved": 0, "name": "b3f91dfb99b9ba6705ad7373a45a1623", "lon": -77.0790395, "type": "electric_bike", "bike_id": "b3f91dfb99b9ba6705ad7373a45a1623", "fusion_lon": 0.0, "lat": 38.83939216666667, "fusion_lat": 0.0}, {"is_disabled": 0, "rental_uris": {"android": "https://dc.lft.to/lastmile_qr_scan", "ios": "https://dc.lft.to/lastmile_qr_scan"}, "is_reserved": 0, "name": "a6f980ca77abd5872c55e3ee3883aec8", "lon": -77.0010575, "type": "electric_scooter", "bike_id": "a6f980ca77abd5872c55e3ee3883aec8", "fusion_lon": 0.0, "lat": 38.9124915, "fusion_lat": 0.0}, {"is_disabled": 0, "rental_uris": {"android": "https://dc.lft.to/lastmile_qr_scan", "ios": "https://dc.lft.to/lastmile_qr_scan"}, "is_reserved": 0, "name": "879fc485e91e4df7a93f424600362d4a", "lon": -77.00898633333334, "type": "electric_scooter", "bike_id": "879fc485e91e4df7a93f424600362d4a", "fusion_lon": 0.0, "lat": 38.8954325, "fusion_lat": 0.0}, {"is_disabled": 0, "rental_uris": {"android": "https://dc.lft.to/lastmile_qr_scan", "ios": "https://dc.lft.to/lastmile_qr_scan"}, "is_reserved": 0, "name": "7e91ccba929202cffca38ce50f3e650a", "lon": -77.01628183333334, "type": "electric_scooter", "bike_id": "7e91ccba929202cffca38ce50f3e650a", "fusion_lon": 0.0, "lat": 38.8986985, "fusion_lat": 0.0}, {"is_disabled": 0, "rental_uris": {"android": "https://dc.lft.to/lastmile_qr_scan", "ios": "https://dc.lft.to/lastmile_qr_scan"}, "is_reserved": 0, "name": "685d545ef80e958bebbf6bdd07cea36b", "lon": -77.01009133333334, "type": "electric_scooter", "bike_id": "685d545ef80e958bebbf6bdd07cea36b", "fusion_lon": 0.0, "lat": 38.8796885, "fusion_lat": 0.0}, {"is_disabled": 0, "rental_uris": {"android": "https://dc.lft.to/lastmile_qr_scan", "ios": "https://dc.lft.to/lastmile_qr_scan"}, "is_reserved": 0, "name": "1b8d2ce804a0d4869cb2860c1c1c1459", "lon": -77.0279645, "type": "electric_scooter", "bike_id": "1b8d2ce804a0d4869cb2860c1c1c1459", "fusion_lon": 0.0, "lat": 38.91761783333333, "fusion_lat": 0.0}, {"is_disabled": 0, "rental_uris": {"android": "https://dc.lft.to/lastmile_qr_scan", "ios": "https://dc.lft.to/lastmile_qr_scan"}, "is_reserved": 0, "name": "fad4c73aa5f01f56718891033c35cc32", "lon": -76.9948375, "type": "electric_scooter", "bike_id": "fad4c73aa5f01f56718891033c35cc32", "fusion_lon": 0.0, "lat": 38.93226383333333, "fusion_lat": 0.0}, {"is_disabled": 0, "rental_uris": {"android": "https://dc.lft.to/lastmile_qr_scan", "ios": "https://dc.lft.to/lastmile_qr_scan"}, "is_reserved": 0, "name": "1a76a0c073b538f310028623b8619267", "lon": -77.033995, "type": "electric_scooter", "bike_id": "1a76a0c073b538f310028623b8619267", "fusion_lon": 0.0, "lat": 38.919727333333334, "fusion_lat": 0.0}, {"is_disabled": 0, "rental_uris": {"android": "https://dc.lft.to/lastmile_qr_scan", "ios": "https://dc.lft.to/lastmile_qr_scan"}, "is_reserved": 0, "name": "8982c04b911e0ffb80707897f4c12b1f", "lon": -77.0466805, "type": "electric_scooter", "bike_id": "8982c04b911e0ffb80707897f4c12b1f", "fusion_lon": 0.0, "lat": 38.907453833333335, "fusion_lat": 0.0}, {"is_disabled": 0, "rental_uris": {"android": "https://dc.lft.to/lastmile_qr_scan", "ios": "https://dc.lft.to/lastmile_qr_scan"}, "is_reserved": 0, "name": "0a9d65fd59fd287ea377cbe28471341b", "lon": -77.060975, "type": "electric_scooter", "bike_id": "0a9d65fd59fd287ea377cbe28471341b", "fusion_lon": 0.0, "lat": 38.94372633333333, "fusion_lat": 0.0}, {"is_disabled": 0, "rental_uris": {"android": "https://dc.lft.to/lastmile_qr_scan", "ios": "https://dc.lft.to/lastmile_qr_scan"}, "is_reserved": 0, "name": "37d62391921b2e193c90a3a65b00401c", "lon": -76.99163633333333, "type": "electric_bike", "bike_id": "37d62391921b2e193c90a3a65b00401c", "fusion_lon": 0.0, "lat": 38.972596833333334, "fusion_lat": 0.0}, {"is_disabled": 0, "rental_uris": {"android": "https://dc.lft.to/lastmile_qr_scan", "ios": "https://dc.lft.to/lastmile_qr_scan"}, "is_reserved": 0, "name": "103bc99bd19d17651dbc49297536d140", "lon": -77.024033, "type": "electric_scooter", "bike_id": "103bc99bd19d17651dbc49297536d140", "fusion_lon": 0.0, "lat": 38.916827, "fusion_lat": 0.0}, {"is_disabled": 0, "rental_uris": {"android": "https://dc.lft.to/lastmile_qr_scan", "ios": "https://dc.lft.to/lastmile_qr_scan"}, "is_reserved": 0, "name": "f73cec0db565fc0275fdbbdb80b3c932", "lon": -77.02659433333334, "type": "electric_scooter", "bike_id": "f73cec0db565fc0275fdbbdb80b3c932", "fusion_lon": 0.0, "lat": 38.9238655, "fusion_lat": 0.0}, {"is_disabled": 0, "rental_uris": {"android": "https://dc.lft.to/lastmile_qr_scan", "ios": "https://dc.lft.to/lastmile_qr_scan"}, "is_reserved": 0, "name": "c8b24333861c2a1ff3f28cb8e66b4b97", "lon": -76.98018233333333, "type": "electric_scooter", "bike_id": "c8b24333861c2a1ff3f28cb8e66b4b97", "fusion_lon": 0.0, "lat": 38.86402433333333, "fusion_lat": 0.0}, {"is_disabled": 0, "rental_uris": {"android": "https://dc.lft.to/lastmile_qr_scan", "ios": "https://dc.lft.to/lastmile_qr_scan"}, "is_reserved": 0, "name": "2b6efe19d1566be5b51441c69f356fc3", "lon": -77.03913533333333, "type": "electric_scooter", "bike_id": "2b6efe19d1566be5b51441c69f356fc3", "fusion_lon": 0.0, "lat": 38.90275833333333, "fusion_lat": 0.0}, {"is_disabled": 0, "rental_uris": {"android": "https://dc.lft.to/lastmile_qr_scan", "ios": "https://dc.lft.to/lastmile_qr_scan"}, "is_reserved": 0, "name": "00ebe45dfa0bc4ad5400c12e2f9d30bc", "lon": -77.02492816666667, "type": "electric_scooter", "bike_id": "00ebe45dfa0bc4ad5400c12e2f9d30bc", "fusion_lon": 0.0, "lat": 38.941842, "fusion_lat": 0.0}, {"is_disabled": 0, "rental_uris": {"android": "https://dc.lft.to/lastmile_qr_scan", "ios": "https://dc.lft.to/lastmile_qr_scan"}, "is_reserved": 0, "name": "2cc736611837e9331bd47de12d4fbbd4", "lon": -77.0416435, "type": "electric_scooter", "bike_id": "2cc736611837e9331bd47de12d4fbbd4", "fusion_lon": 0.0, "lat": 38.916111666666666, "fusion_lat": 0.0}, {"is_disabled": 0, "rental_uris": {"android": "https://dc.lft.to/lastmile_qr_scan", "ios": "https://dc.lft.to/lastmile_qr_scan"}, "is_reserved": 0, "name": "9adddf3f970d85a04ee556d832acc368", "lon": -77.02959066666666, "type": "electric_scooter", "bike_id": "9adddf3f970d85a04ee556d832acc368", "fusion_lon": 0.0, "lat": 38.921476, "fusion_lat": 0.0}, {"is_disabled": 0, "rental_uris": {"android": "https://dc.lft.to/lastmile_qr_scan", "ios": "https://dc.lft.to/lastmile_qr_scan"}, "is_reserved": 0, "name": "6dc0935f1713d24cec24b696c3ba4edc", "lon": -77.01761216666667, "type": "electric_scooter", "bike_id": "6dc0935f1713d24cec24b696c3ba4edc", "fusion_lon": 0.0, "lat": 38.90269033333333, "fusion_lat": 0.0}, {"is_disabled": 0, "rental_uris": {"android": "https://dc.lft.to/lastmile_qr_scan", "ios": "https://dc.lft.to/lastmile_qr_scan"}, "is_reserved": 0, "name": "137445f83daa75f7bb8c391b743a9674", "lon": -77.03522366666667, "type": "electric_scooter", "bike_id": "137445f83daa75f7bb8c391b743a9674", "fusion_lon": 0.0, "lat": 38.90969966666667, "fusion_lat": 0.0}, {"is_disabled": 0, "rental_uris": {"android": "https://dc.lft.to/lastmile_qr_scan", "ios": "https://dc.lft.to/lastmile_qr_scan"}, "is_reserved": 0, "name": "930a2b462e6043393cee0a52462de602", "lon": -77.02782566666667, "type": "electric_scooter", "bike_id": "930a2b462e6043393cee0a52462de602", "fusion_lon": 0.0, "lat": 38.896078333333335, "fusion_lat": 0.0}, {"is_disabled": 0, "rental_uris": {"android": "https://dc.lft.to/lastmile_qr_scan", "ios": "https://dc.lft.to/lastmile_qr_scan"}, "is_reserved": 0, "name": "9258ba31e4945c121907a76089debc95", "lon": -77.000702, "type": "electric_scooter", "bike_id": "9258ba31e4945c121907a76089debc95", "fusion_lon": 0.0, "lat": 38.923928333333336, "fusion_lat": 0.0}, {"is_disabled": 0, "rental_uris": {"android": "https://dc.lft.to/lastmile_qr_scan", "ios": "https://dc.lft.to/lastmile_qr_scan"}, "is_reserved": 0, "name": "bc0b9b8967bf6ca7c3d2522afee40787", "lon": -77.05245833333333, "type": "electric_scooter", "bike_id": "bc0b9b8967bf6ca7c3d2522afee40787", "fusion_lon": 0.0, "lat": 38.92380283333333, "fusion_lat": 0.0}, {"is_disabled": 0, "rental_uris": {"android": "https://dc.lft.to/lastmile_qr_scan", "ios": "https://dc.lft.to/lastmile_qr_scan"}, "is_reserved": 0, "name": "35eb62bafe77f54eda432025bb0cc227", "lon": -77.024055, "type": "electric_scooter", "bike_id": "35eb62bafe77f54eda432025bb0cc227", "fusion_lon": 0.0, "lat": 38.91566666666667, "fusion_lat": 0.0}, {"is_disabled": 0, "rental_uris": {"android": "https://dc.lft.to/lastmile_qr_scan", "ios": "https://dc.lft.to/lastmile_qr_scan"}, "is_reserved": 0, "name": "613bc9e97cd7ce965d6562084648e7d9", "lon": -77.029889, "type": "electric_scooter", "bike_id": "613bc9e97cd7ce965d6562084648e7d9", "fusion_lon": 0.0, "lat": 38.92472433333333, "fusion_lat": 0.0}, {"is_disabled": 0, "rental_uris": {"android": "https://dc.lft.to/lastmile_qr_scan", "ios": "https://dc.lft.to/lastmile_qr_scan"}, "is_reserved": 0, "name": "bc81af5c33f2753b3f022ed35409823e", "lon": -77.01103516666667, "type": "electric_scooter", "bike_id": "bc81af5c33f2753b3f022ed35409823e", "fusion_lon": 0.0, "lat": 38.90781583333333, "fusion_lat": 0.0}, {"is_disabled": 0, "rental_uris": {"android": "https://dc.lft.to/lastmile_qr_scan", "ios": "https://dc.lft.to/lastmile_qr_scan"}, "is_reserved": 0, "name": "98b563cb1000808a930d3c61a54fd2fb", "lon": -77.0297695, "type": "electric_scooter", "bike_id": "98b563cb1000808a930d3c61a54fd2fb", "fusion_lon": 0.0, "lat": 38.92470433333333, "fusion_lat": 0.0}, {"is_disabled": 0, "rental_uris": {"android": "https://dc.lft.to/lastmile_qr_scan", "ios": "https://dc.lft.to/lastmile_qr_scan"}, "is_reserved": 0, "name": "747baa13d159b3cbeb81d011274f4147", "lon": -77.01757333333333, "type": "electric_scooter", "bike_id": "747baa13d159b3cbeb81d011274f4147", "fusion_lon": 0.0, "lat": 38.877188, "fusion_lat": 0.0}, {"is_disabled": 0, "rental_uris": {"android": "https://dc.lft.to/lastmile_qr_scan", "ios": "https://dc.lft.to/lastmile_qr_scan"}, "is_reserved": 0, "name": "f1aab04b230b0334555212674feaa40e", "lon": -77.077922, "type": "electric_bike", "bike_id": "f1aab04b230b0334555212674feaa40e", "fusion_lon": 0.0, "lat": 38.84516216666667, "fusion_lat": 0.0}, {"is_disabled": 0, "rental_uris": {"android": "https://dc.lft.to/lastmile_qr_scan", "ios": "https://dc.lft.to/lastmile_qr_scan"}, "is_reserved": 0, "name": "a7d9aa4b809c3e953cb3c2afb1c6b1ee", "lon": -77.03872533333333, "type": "electric_scooter", "bike_id": "a7d9aa4b809c3e953cb3c2afb1c6b1ee", "fusion_lon": 0.0, "lat": 38.915599, "fusion_lat": 0.0}, {"is_disabled": 0, "rental_uris": {"android": "https://dc.lft.to/lastmile_qr_scan", "ios": "https://dc.lft.to/lastmile_qr_scan"}, "is_reserved": 0, "name": "a642395b21baaf5fbaf6bfd9c7412abe", "lon": -77.03494716666667, "type": "electric_scooter", "bike_id": "a642395b21baaf5fbaf6bfd9c7412abe", "fusion_lon": 0.0, "lat": 38.92157733333333, "fusion_lat": 0.0}, {"is_disabled": 0, "rental_uris": {"android": "https://dc.lft.to/lastmile_qr_scan", "ios": "https://dc.lft.to/lastmile_qr_scan"}, "is_reserved": 0, "name": "869a3b8704b8024a055a8810b99b0116", "lon": -77.02034666666667, "type": "electric_scooter", "bike_id": "869a3b8704b8024a055a8810b99b0116", "fusion_lon": 0.0, "lat": 38.88348416666667, "fusion_lat": 0.0}, {"is_disabled": 0, "rental_uris": {"android": "https://dc.lft.to/lastmile_qr_scan", "ios": "https://dc.lft.to/lastmile_qr_scan"}, "is_reserved": 0, "name": "a0ce970042291f0a71033e5fcf67d063", "lon": -77.0366485, "type": "electric_scooter", "bike_id": "a0ce970042291f0a71033e5fcf67d063", "fusion_lon": 0.0, "lat": 38.9233075, "fusion_lat": 0.0}, {"is_disabled": 0, "rental_uris": {"android": "https://dc.lft.to/lastmile_qr_scan", "ios": "https://dc.lft.to/lastmile_qr_scan"}, "is_reserved": 0, "name": "f992e3ca01fd83a33902b376d45c3b92", "lon": -76.99654883333334, "type": "electric_scooter", "bike_id": "f992e3ca01fd83a33902b376d45c3b92", "fusion_lon": 0.0, "lat": 38.8860945, "fusion_lat": 0.0}, {"is_disabled": 0, "rental_uris": {"android": "https://dc.lft.to/lastmile_qr_scan", "ios": "https://dc.lft.to/lastmile_qr_scan"}, "is_reserved": 0, "name": "699be7b0e50177a47df5bfc3096a982d", "lon": -76.97801916666667, "type": "electric_scooter", "bike_id": "699be7b0e50177a47df5bfc3096a982d", "fusion_lon": 0.0, "lat": 38.9206555, "fusion_lat": 0.0}, {"is_disabled": 0, "rental_uris": {"android": "https://dc.lft.to/lastmile_qr_scan", "ios": "https://dc.lft.to/lastmile_qr_scan"}, "is_reserved": 0, "name": "e89c33603482a849dc1d745909e6b3ff", "lon": -76.96883366666667, "type": "electric_bike", "bike_id": "e89c33603482a849dc1d745909e6b3ff", "fusion_lon": 0.0, "lat": 38.84606183333333, "fusion_lat": 0.0}, {"is_disabled": 0, "rental_uris": {"android": "https://dc.lft.to/lastmile_qr_scan", "ios": "https://dc.lft.to/lastmile_qr_scan"}, "is_reserved": 0, "name": "1636969ba928c6a969699cef8993d9e6", "lon": -77.03437333333333, "type": "electric_scooter", "bike_id": "1636969ba928c6a969699cef8993d9e6", "fusion_lon": 0.0, "lat": 38.91804, "fusion_lat": 0.0}, {"is_disabled": 0, "rental_uris": {"android": "https://dc.lft.to/lastmile_qr_scan", "ios": "https://dc.lft.to/lastmile_qr_scan"}, "is_reserved": 0, "name": "ec86a235767e208e89598a36c4a08ec7", "lon": -77.0308795, "type": "electric_bike", "bike_id": "ec86a235767e208e89598a36c4a08ec7", "fusion_lon": 0.0, "lat": 38.883910166666666, "fusion_lat": 0.0}, {"is_disabled": 0, "rental_uris": {"android": "https://dc.lft.to/lastmile_qr_scan", "ios": "https://dc.lft.to/lastmile_qr_scan"}, "is_reserved": 0, "name": "0f4ed20c6b7df8d0e552965c61db8120", "lon": -76.999047, "type": "electric_scooter", "bike_id": "0f4ed20c6b7df8d0e552965c61db8120", "fusion_lon": 0.0, "lat": 38.89211266666667, "fusion_lat": 0.0}, {"is_disabled": 0, "rental_uris": {"android": "https://dc.lft.to/lastmile_qr_scan", "ios": "https://dc.lft.to/lastmile_qr_scan"}, "is_reserved": 0, "name": "11d946da5e7a1f01a12657cc9cbb06fb", "lon": -76.97993966666667, "type": "electric_scooter", "bike_id": "11d946da5e7a1f01a12657cc9cbb06fb", "fusion_lon": 0.0, "lat": 38.90678466666667, "fusion_lat": 0.0}, {"is_disabled": 0, "rental_uris": {"android": "https://dc.lft.to/lastmile_qr_scan", "ios": "https://dc.lft.to/lastmile_qr_scan"}, "is_reserved": 0, "name": "0fca20e75254f94720f621743b522a63", "lon": -77.00168533333333, "type": "electric_scooter", "bike_id": "0fca20e75254f94720f621743b522a63", "fusion_lon": 0.0, "lat": 38.907336666666666, "fusion_lat": 0.0}, {"is_disabled": 0, "rental_uris": {"android": "https://dc.lft.to/lastmile_qr_scan", "ios": "https://dc.lft.to/lastmile_qr_scan"}, "is_reserved": 0, "name": "42171e4c2d99ea62decfbce1d451f76d", "lon": -77.0176045, "type": "electric_scooter", "bike_id": "42171e4c2d99ea62decfbce1d451f76d", "fusion_lon": 0.0, "lat": 38.88324266666667, "fusion_lat": 0.0}, {"is_disabled": 0, "rental_uris": {"android": "https://dc.lft.to/lastmile_qr_scan", "ios": "https://dc.lft.to/lastmile_qr_scan"}, "is_reserved": 0, "name": "b391ec5e7f872ae722435ab69711d982", "lon": -77.024148, "type": "electric_scooter", "bike_id": "b391ec5e7f872ae722435ab69711d982", "fusion_lon": 0.0, "lat": 38.909754666666664, "fusion_lat": 0.0}, {"is_disabled": 0, "rental_uris": {"android": "https://dc.lft.to/lastmile_qr_scan", "ios": "https://dc.lft.to/lastmile_qr_scan"}, "is_reserved": 0, "name": "4aeaa638413abb939a59cdefbb42c980", "lon": -77.01603733333333, "type": "electric_scooter", "bike_id": "4aeaa638413abb939a59cdefbb42c980", "fusion_lon": 0.0, "lat": 38.884866833333334, "fusion_lat": 0.0}, {"is_disabled": 0, "rental_uris": {"android": "https://dc.lft.to/lastmile_qr_scan", "ios": "https://dc.lft.to/lastmile_qr_scan"}, "is_reserved": 0, "name": "cfabcede86d490ea23b457c3cbcedc1c", "lon": -77.01890166666666, "type": "electric_scooter", "bike_id": "cfabcede86d490ea23b457c3cbcedc1c", "fusion_lon": 0.0, "lat": 38.9132765, "fusion_lat": 0.0}, {"is_disabled": 0, "rental_uris": {"android": "https://dc.lft.to/lastmile_qr_scan", "ios": "https://dc.lft.to/lastmile_qr_scan"}, "is_reserved": 0, "name": "8b37246e90baaaf27259df629a6e1dbc", "lon": -77.0322655, "type": "electric_scooter", "bike_id": "8b37246e90baaaf27259df629a6e1dbc", "fusion_lon": 0.0, "lat": 38.909660833333334, "fusion_lat": 0.0}, {"is_disabled": 0, "rental_uris": {"android": "https://dc.lft.to/lastmile_qr_scan", "ios": "https://dc.lft.to/lastmile_qr_scan"}, "is_reserved": 0, "name": "6ac3a56be03c2a09fbca763410cfb0c0", "lon": -77.09165816666666, "type": "electric_bike", "bike_id": "6ac3a56be03c2a09fbca763410cfb0c0", "fusion_lon": 0.0, "lat": 38.967558, "fusion_lat": 0.0}, {"is_disabled": 0, "rental_uris": {"android": "https://dc.lft.to/lastmile_qr_scan", "ios": "https://dc.lft.to/lastmile_qr_scan"}, "is_reserved": 0, "name": "39dd12d289af6e03ab90773e6480fe08", "lon": -77.03186716666667, "type": "electric_scooter", "bike_id": "39dd12d289af6e03ab90773e6480fe08", "fusion_lon": 0.0, "lat": 38.914053833333334, "fusion_lat": 0.0}, {"is_disabled": 0, "rental_uris": {"android": "https://dc.lft.to/lastmile_qr_scan", "ios": "https://dc.lft.to/lastmile_qr_scan"}, "is_reserved": 0, "name": "348856a18137aa24092c267da233e185", "lon": -77.04026583333334, "type": "electric_scooter", "bike_id": "348856a18137aa24092c267da233e185", "fusion_lon": 0.0, "lat": 38.918814166666664, "fusion_lat": 0.0}, {"is_disabled": 0, "rental_uris": {"android": "https://dc.lft.to/lastmile_qr_scan", "ios": "https://dc.lft.to/lastmile_qr_scan"}, "is_reserved": 0, "name": "97ba00c160f4853121fc020b79d45fff", "lon": -77.03184533333334, "type": "electric_scooter", "bike_id": "97ba00c160f4853121fc020b79d45fff", "fusion_lon": 0.0, "lat": 38.915683333333334, "fusion_lat": 0.0}, {"is_disabled": 0, "rental_uris": {"android": "https://dc.lft.to/lastmile_qr_scan", "ios": "https://dc.lft.to/lastmile_qr_scan"}, "is_reserved": 0, "name": "4f3b10419011958a35e9991374b86adf", "lon": -77.04174116666667, "type": "electric_scooter", "bike_id": "4f3b10419011958a35e9991374b86adf", "fusion_lon": 0.0, "lat": 38.91548616666667, "fusion_lat": 0.0}, {"is_disabled": 0, "rental_uris": {"android": "https://dc.lft.to/lastmile_qr_scan", "ios": "https://dc.lft.to/lastmile_qr_scan"}, "is_reserved": 0, "name": "ec5160d9c17a50a6a2dd3be318fb09a0", "lon": -77.02729166666667, "type": "electric_scooter", "bike_id": "ec5160d9c17a50a6a2dd3be318fb09a0", "fusion_lon": 0.0, "lat": 38.940861166666664, "fusion_lat": 0.0}, {"is_disabled": 0, "rental_uris": {"android": "https://dc.lft.to/lastmile_qr_scan", "ios": "https://dc.lft.to/lastmile_qr_scan"}, "is_reserved": 0, "name": "673af7dbcf0ba16147f9eefd3d5c575d", "lon": -76.99513916666666, "type": "electric_scooter", "bike_id": "673af7dbcf0ba16147f9eefd3d5c575d", "fusion_lon": 0.0, "lat": 38.8948545, "fusion_lat": 0.0}, {"is_disabled": 0, "rental_uris": {"android": "https://dc.lft.to/lastmile_qr_scan", "ios": "https://dc.lft.to/lastmile_qr_scan"}, "is_reserved": 0, "name": "743df618d54c1ce3f6ca1c97839babc0", "lon": -76.9461995, "type": "electric_bike", "bike_id": "743df618d54c1ce3f6ca1c97839babc0", "fusion_lon": 0.0, "lat": 38.832351, "fusion_lat": 0.0}, {"is_disabled": 0, "rental_uris": {"android": "https://dc.lft.to/lastmile_qr_scan", "ios": "https://dc.lft.to/lastmile_qr_scan"}, "is_reserved": 0, "name": "fdc9bba94f916c56d594375014fe3bcc", "lon": -76.9970155, "type": "electric_scooter", "bike_id": "fdc9bba94f916c56d594375014fe3bcc", "fusion_lon": 0.0, "lat": 38.83866483333333, "fusion_lat": 0.0}, {"is_disabled": 0, "rental_uris": {"android": "https://dc.lft.to/lastmile_qr_scan", "ios": "https://dc.lft.to/lastmile_qr_scan"}, "is_reserved": 0, "name": "ae47a752870aec0dfbfbe5351418fdb8", "lon": -77.03179116666666, "type": "electric_scooter", "bike_id": "ae47a752870aec0dfbfbe5351418fdb8", "fusion_lon": 0.0, "lat": 38.919261, "fusion_lat": 0.0}, {"is_disabled": 0, "rental_uris": {"android": "https://dc.lft.to/lastmile_qr_scan", "ios": "https://dc.lft.to/lastmile_qr_scan"}, "is_reserved": 0, "name": "ac8c14c608ccbc153282149b89a7a59c", "lon": -77.04616783333333, "type": "electric_scooter", "bike_id": "ac8c14c608ccbc153282149b89a7a59c", "fusion_lon": 0.0, "lat": 38.902694833333335, "fusion_lat": 0.0}, {"is_disabled": 0, "rental_uris": {"android": "https://dc.lft.to/lastmile_qr_scan", "ios": "https://dc.lft.to/lastmile_qr_scan"}, "is_reserved": 0, "name": "36474df24c172eb6c36b7b9241cdb0b1", "lon": -76.986791, "type": "electric_scooter", "bike_id": "36474df24c172eb6c36b7b9241cdb0b1", "fusion_lon": 0.0, "lat": 38.858205833333336, "fusion_lat": 0.0}, {"is_disabled": 0, "rental_uris": {"android": "https://dc.lft.to/lastmile_qr_scan", "ios": "https://dc.lft.to/lastmile_qr_scan"}, "is_reserved": 0, "name": "872612c49f0b0fc57b45699b94ec634d", "lon": -77.04651866666667, "type": "electric_scooter", "bike_id": "872612c49f0b0fc57b45699b94ec634d", "fusion_lon": 0.0, "lat": 38.892976, "fusion_lat": 0.0}, {"is_disabled": 0, "rental_uris": {"android": "https://dc.lft.to/lastmile_qr_scan", "ios": "https://dc.lft.to/lastmile_qr_scan"}, "is_reserved": 0, "name": "238cc6341cba4df5d1381944b0b3fd33", "lon": -77.034906, "type": "electric_scooter", "bike_id": "238cc6341cba4df5d1381944b0b3fd33", "fusion_lon": 0.0, "lat": 38.932819, "fusion_lat": 0.0}, {"is_disabled": 0, "rental_uris": {"android": "https://dc.lft.to/lastmile_qr_scan", "ios": "https://dc.lft.to/lastmile_qr_scan"}, "is_reserved": 0, "name": "9ba79ca604624d00a20ef5f36fab5bdb", "lon": -77.0729535, "type": "electric_scooter", "bike_id": "9ba79ca604624d00a20ef5f36fab5bdb", "fusion_lon": 0.0, "lat": 38.9228125, "fusion_lat": 0.0}, {"is_disabled": 0, "rental_uris": {"android": "https://dc.lft.to/lastmile_qr_scan", "ios": "https://dc.lft.to/lastmile_qr_scan"}, "is_reserved": 0, "name": "87e96cb4840751606f0d79c1f159b000", "lon": -77.017365, "type": "electric_scooter", "bike_id": "87e96cb4840751606f0d79c1f159b000", "fusion_lon": 0.0, "lat": 38.9144755, "fusion_lat": 0.0}, {"is_disabled": 0, "rental_uris": {"android": "https://dc.lft.to/lastmile_qr_scan", "ios": "https://dc.lft.to/lastmile_qr_scan"}, "is_reserved": 0, "name": "132eb20a010c3eead41c6eed54104cb0", "lon": -76.9906625, "type": "electric_scooter", "bike_id": "132eb20a010c3eead41c6eed54104cb0", "fusion_lon": 0.0, "lat": 38.863686333333334, "fusion_lat": 0.0}, {"is_disabled": 0, "rental_uris": {"android": "https://dc.lft.to/lastmile_qr_scan", "ios": "https://dc.lft.to/lastmile_qr_scan"}, "is_reserved": 0, "name": "c260defb099b205451fae7a2eff02778", "lon": -76.94534016666667, "type": "electric_bike", "bike_id": "c260defb099b205451fae7a2eff02778", "fusion_lon": 0.0, "lat": 38.86757933333333, "fusion_lat": 0.0}, {"is_disabled": 0, "rental_uris": {"android": "https://dc.lft.to/lastmile_qr_scan", "ios": "https://dc.lft.to/lastmile_qr_scan"}, "is_reserved": 0, "name": "412260a8ad5edfb100c5568fa5b089c5", "lon": -77.03293683333334, "type": "electric_scooter", "bike_id": "412260a8ad5edfb100c5568fa5b089c5", "fusion_lon": 0.0, "lat": 38.933924833333336, "fusion_lat": 0.0}, {"is_disabled": 0, "rental_uris": {"android": "https://dc.lft.to/lastmile_qr_scan", "ios": "https://dc.lft.to/lastmile_qr_scan"},