{"data": {"bikes": [{"rental_uris": {"ios": "https://dc.lft.to/lastmile_qr_scan", "android": "https://dc.lft.to/lastmile_qr_scan"}, "lat": 38.87248816666666, "is_reserved": 0, "bike_id": "60a81f45beea8c546124470ae36668f0", "lon": -76.97723966666666, "is_disabled": 0, "fusion_lat": 0.0, "fusion_lon": 0.0, "name": "60a81f45beea8c546124470ae36668f0", "type": "electric_scooter"}, {"rental_uris": {"ios": "https://dc.lft.to/lastmile_qr_scan", "android": "https://dc.lft.to/lastmile_qr_scan"}, "lat": 38.920314, "is_reserved": 0, "bike_id": "589b3ca93c47d9afcea9ff3297f8c04d", "lon": -77.00305466666667, "is_disabled": 0, "fusion_lat": 0.0, "fusion_lon": 0.0, "name": "589b3ca93c47d9afcea9ff3297f8c04d", "type": "electric_scooter"}, {"rental_uris": {"ios": "https://dc.lft.to/lastmile_qr_scan", "android": "https://dc.lft.to/lastmile_qr_scan"}, "lat": 38.90407966666667, "is_reserved": 0, "bike_id": "b65432cf80a6c9aae6e75e970c6f55a1", "lon": -76.97331516666667, "is_disabled": 0, "fusion_lat": 0.0, "fusion_lon": 0.0, "name": "b65432cf80a6c9aae6e75e970c6f55a1", "type": "electric_scooter"}, {"rental_uris": {"ios": "https://dc.lft.to/lastmile_qr_scan", "android": "https://dc.lft.to/lastmile_qr_scan"}, "lat": 38.987645666666666, "is_reserved": 0, "bike_id": "45cdd3ebad5c86a15f5ec630c0736af9", "lon": -77.14054316666666, "is_disabled": 0, "fusion_lat": 0.0, "fusion_lon": 0.0, "name": "45cdd3ebad5c86a15f5ec630c0736af9", "type": "electric_bike"}, {"rental_uris": {"ios": "https://dc.lft.to/lastmile_qr_scan", "android": "https://dc.lft.to/lastmile_qr_scan"}, "lat": 38.88487666666666, "is_reserved": 0, "bike_id": "7cd9d6f05455466baac3b634ec8fe790", "lon": -77.00710316666667, "is_disabled": 0, "fusion_lat": 0.0, "fusion_lon": 0.0, "name": "7cd9d6f05455466baac3b634ec8fe790", "type": "electric_scooter"}, {"rental_uris": {"ios": "https://dc.lft.to/lastmile_qr_scan", "android": "https://dc.lft.to/lastmile_qr_scan"}, "lat": 38.90262383333334, "is_reserved": 0, "bike_id": "d78450fc9300561ff6a80a59152b8c92", "lon": -77.0445305, "is_disabled": 0, "fusion_lat": 0.0, "fusion_lon": 0.0, "name": "d78450fc9300561ff6a80a59152b8c92", "type": "electric_scooter"}, {"rental_uris": {"ios": "https://dc.lft.to/lastmile_qr_scan", "android": "https://dc.lft.to/lastmile_qr_scan"}, "lat": 38.921479166666664, "is_reserved": 0, "bike_id": "a91792a458d76b1b8bfbaeccffccca91", "lon": -77.0332555, "is_disabled": 0, "fusion_lat": 0.0, "fusion_lon": 0.0, "name": "a91792a458d76b1b8bfbaeccffccca91", "type": "electric_scooter"}, {"rental_uris": {"ios": "https://dc.lft.to/lastmile_qr_scan", "android": "https://dc.lft.to/lastmile_qr_scan"}, "lat": 38.91109383333333, "is_reserved": 0, "bike_id": "b08ddf62b48c1f2c3cf8b9c1ba81a4f9", "lon": -77.03863633333333, "is_disabled": 0, "fusion_lat": 0.0, "fusion_lon": 0.0, "name": "b08ddf62b48c1f2c3cf8b9c1ba81a4f9", "type": "electric_scooter"}, {"rental_uris": {"ios": "https://dc.lft.to/lastmile_qr_scan", "android": "https://dc.lft.to/lastmile_qr_scan"}, "lat": 38.894974500000004, "is_reserved": 0, "bike_id": "757918967aefb28f1f397a4e0e55e774", "lon": -77.026844, "is_disabled": 0, "fusion_lat": 0.0, "fusion_lon": 0.0, "name": "757918967aefb28f1f397a4e0e55e774", "type": "electric_scooter"}, {"rental_uris": {"ios": "https://dc.lft.to/lastmile_qr_scan", "android": "https://dc.lft.to/lastmile_qr_scan"}, "lat": 38.897459, "is_reserved": 0, "bike_id": "0a817e693a8727d9ef02d8e49e14d300", "lon": -77.042875, "is_disabled": 0, "fusion_lat": 0.0, "fusion_lon": 0.0, "name": "0a817e693a8727d9ef02d8e49e14d300", "type": "electric_scooter"}, {"rental_uris": {"ios": "https://dc.lft.to/lastmile_qr_scan", "android": "https://dc.lft.to/lastmile_qr_scan"}, "lat": 38.920762, "is_reserved": 0, "bike_id": "7371db76cc6bd5fb0bfec29a76dc6a1a", "lon": -77.03794616666667, "is_disabled": 0, "fusion_lat": 0.0, "fusion_lon": 0.0, "name": "7371db76cc6bd5fb0bfec29a76dc6a1a", "type": "electric_scooter"}, {"rental_uris": {"ios": "https://dc.lft.to/lastmile_qr_scan", "android": "https://dc.lft.to/lastmile_qr_scan"}, "lat": 38.9109745, "is_reserved": 0, "bike_id": "b94e1546f9d4c192e8563c68b4128b0a", "lon": -76.99813433333334, "is_disabled": 0, "fusion_lat": 0.0, "fusion_lon": 0.0, "name": "b94e1546f9d4c192e8563c68b4128b0a", "type": "electric_scooter"}, {"rental_uris": {"ios": "https://dc.lft.to/lastmile_qr_scan", "android": "https://dc.lft.to/lastmile_qr_scan"}, "lat": 38.95782, "is_reserved": 0, "bike_id": "835c4948684b8d4a49ac3133bff37761", "lon": -77.00182583333333, "is_disabled": 0, "fusion_lat": 0.0, "fusion_lon": 0.0, "name": "835c4948684b8d4a49ac3133bff37761", "type": "electric_scooter"}, {"rental_uris": {"ios": "https://dc.lft.to/lastmile_qr_scan", "android": "https://dc.lft.to/lastmile_qr_scan"}, "lat": 38.88744616666666, "is_reserved": 0, "bike_id": "9932703aa9a7f921ab8dc557810fb714", "lon": -77.0020705, "is_disabled": 0, "fusion_lat": 0.0, "fusion_lon": 0.0, "name": "9932703aa9a7f921ab8dc557810fb714", "type": "electric_scooter"}, {"rental_uris": {"ios": "https://dc.lft.to/lastmile_qr_scan", "android": "https://dc.lft.to/lastmile_qr_scan"}, "lat": 38.923628, "is_reserved": 0, "bike_id": "9ebe9d11f362893009f69c1314af6e85", "lon": -77.0504225, "is_disabled": 0, "fusion_lat": 0.0, "fusion_lon": 0.0, "name": "9ebe9d11f362893009f69c1314af6e85", "type": "electric_scooter"}, {"rental_uris": {"ios": "https://dc.lft.to/lastmile_qr_scan", "android": "https://dc.lft.to/lastmile_qr_scan"}, "lat": 38.91561883333333, "is_reserved": 0, "bike_id": "f164dfb2b8ebb16b7fa31575cde6ddda", "lon": -77.03188166666666, "is_disabled": 0, "fusion_lat": 0.0, "fusion_lon": 0.0, "name": "f164dfb2b8ebb16b7fa31575cde6ddda", "type": "electric_scooter"}, {"rental_uris": {"ios": "https://dc.lft.to/lastmile_qr_scan", "android": "https://dc.lft.to/lastmile_qr_scan"}, "lat": 38.922358, "is_reserved": 0, "bike_id": "663cef12b0b06012a738a22a560d2a66", "lon": -77.02716516666666, "is_disabled": 0, "fusion_lat": 0.0, "fusion_lon": 0.0, "name": "663cef12b0b06012a738a22a560d2a66", "type": "electric_scooter"}, {"rental_uris": {"ios": "https://dc.lft.to/lastmile_qr_scan", "android": "https://dc.lft.to/lastmile_qr_scan"}, "lat": 38.929103833333336, "is_reserved": 0, "bike_id": "5cd6985c171d0984021b9a1fb0b65748", "lon": -77.03760083333333, "is_disabled": 0, "fusion_lat": 0.0, "fusion_lon": 0.0, "name": "5cd6985c171d0984021b9a1fb0b65748", "type": "electric_scooter"}, {"rental_uris": {"ios": "https://dc.lft.to/lastmile_qr_scan", "android": "https://dc.lft.to/lastmile_qr_scan"}, "lat": 38.85649683333333, "is_reserved": 0, "bike_id": "7ec527476684b4014de3df4c7a311215", "lon": -76.99670566666667, "is_disabled": 0, "fusion_lat": 0.0, "fusion_lon": 0.0, "name": "7ec527476684b4014de3df4c7a311215", "type": "electric_scooter"}, {"rental_uris": {"ios": "https://dc.lft.to/lastmile_qr_scan", "android": "https://dc.lft.to/lastmile_qr_scan"}, "lat": 38.87468633333334, "is_reserved": 0, "bike_id": "8f7a96f987bd9fb59cf858c2e6193863", "lon": -77.00561766666667, "is_disabled": 0, "fusion_lat": 0.0, "fusion_lon": 0.0, "name": "8f7a96f987bd9fb59cf858c2e6193863", "type": "electric_scooter"}, {"rental_uris": {"ios": "https://dc.lft.to/lastmile_qr_scan", "android": "https://dc.lft.to/lastmile_qr_scan"}, "lat": 38.908221, "is_reserved": 0, "bike_id": "5817eb0f8a671f31c4cffd4ddfae267c", "lon": -77.03184916666666, "is_disabled": 0, "fusion_lat": 0.0, "fusion_lon": 0.0, "name": "5817eb0f8a671f31c4cffd4ddfae267c", "type": "electric_scooter"}, {"rental_uris": {"ios": "https://dc.lft.to/lastmile_qr_scan", "android": "https://dc.lft.to/lastmile_qr_scan"}, "lat": 38.95684116666666, "is_reserved": 0, "bike_id": "1e96837c517fea2567d663502989da10", "lon": -77.01932216666667, "is_disabled": 0, "fusion_lat": 0.0, "fusion_lon": 0.0, "name": "1e96837c517fea2567d663502989da10", "type": "electric_scooter"}, {"rental_uris": {"ios": "https://dc.lft.to/lastmile_qr_scan", "android": "https://dc.lft.to/lastmile_qr_scan"}, "lat": 38.90233033333333, "is_reserved": 0, "bike_id": "8b380a430a73e9fad99b59a6f595e716", "lon": -77.04353066666667, "is_disabled": 0, "fusion_lat": 0.0, "fusion_lon": 0.0, "name": "8b380a430a73e9fad99b59a6f595e716", "type": "electric_scooter"}, {"rental_uris": {"ios": "https://dc.lft.to/lastmile_qr_scan", "android": "https://dc.lft.to/lastmile_qr_scan"}, "lat": 38.897281166666666, "is_reserved": 0, "bike_id": "a407f82dff9b06031abde22d604da943", "lon": -77.00374033333334, "is_disabled": 0, "fusion_lat": 0.0, "fusion_lon": 0.0, "name": "a407f82dff9b06031abde22d604da943", "type": "electric_scooter"}, {"rental_uris": {"ios": "https://dc.lft.to/lastmile_qr_scan", "android": "https://dc.lft.to/lastmile_qr_scan"}, "lat": 38.89735866666667, "is_reserved": 0, "bike_id": "b9a9b978c99c2283b8e5f2e21472326d", "lon": -76.92047483333333, "is_disabled": 0, "fusion_lat": 0.0, "fusion_lon": 0.0, "name": "b9a9b978c99c2283b8e5f2e21472326d", "type": "electric_bike"}, {"rental_uris": {"ios": "https://dc.lft.to/lastmile_qr_scan", "android": "https://dc.lft.to/lastmile_qr_scan"}, "lat": 38.901615166666666, "is_reserved": 0, "bike_id": "2c28f1547b22410d5fce5bc765535e58", "lon": -76.93023333333333, "is_disabled": 0, "fusion_lat": 0.0, "fusion_lon": 0.0, "name": "2c28f1547b22410d5fce5bc765535e58", "type": "electric_scooter"}, {"rental_uris": {"ios": "https://dc.lft.to/lastmile_qr_scan", "android": "https://dc.lft.to/lastmile_qr_scan"}, "lat": 38.86562516666667, "is_reserved": 0, "bike_id": "1b3167993e832a0e091666cde98f71b5", "lon": -76.9833845, "is_disabled": 0, "fusion_lat": 0.0, "fusion_lon": 0.0, "name": "1b3167993e832a0e091666cde98f71b5", "type": "electric_scooter"}, {"rental_uris": {"ios": "https://dc.lft.to/lastmile_qr_scan", "android": "https://dc.lft.to/lastmile_qr_scan"}, "lat": 38.899643833333336, "is_reserved": 0, "bike_id": "972f2515e1f243df3f648e50b2aa12ab", "lon": -77.00681133333333, "is_disabled": 0, "fusion_lat": 0.0, "fusion_lon": 0.0, "name": "972f2515e1f243df3f648e50b2aa12ab", "type": "electric_scooter"}, {"rental_uris": {"ios": "https://dc.lft.to/lastmile_qr_scan", "android": "https://dc.lft.to/lastmile_qr_scan"}, "lat": 38.892235, "is_reserved": 0, "bike_id": "3fb2c0b154550fd19b2dae40cdc17472", "lon": -77.04772633333333, "is_disabled": 0, "fusion_lat": 0.0, "fusion_lon": 0.0, "name": "3fb2c0b154550fd19b2dae40cdc17472", "type": "electric_scooter"}, {"rental_uris": {"ios": "https://dc.lft.to/lastmile_qr_scan", "android": "https://dc.lft.to/lastmile_qr_scan"}, "lat": 38.90132366666667, "is_reserved": 0, "bike_id": "cd29cf19d91a26d1ed6fa9f97654b86d", "lon": -77.018149, "is_disabled": 0, "fusion_lat": 0.0, "fusion_lon": 0.0, "name": "cd29cf19d91a26d1ed6fa9f97654b86d", "type": "electric_scooter"}, {"rental_uris": {"ios": "https://dc.lft.to/lastmile_qr_scan", "android": "https://dc.lft.to/lastmile_qr_scan"}, "lat": 38.89222566666667, "is_reserved": 0, "bike_id": "7ac88194996053ab1011b1ec5f5d8261", "lon": -77.04517616666666, "is_disabled": 0, "fusion_lat": 0.0, "fusion_lon": 0.0, "name": "7ac88194996053ab1011b1ec5f5d8261", "type": "electric_scooter"}, {"rental_uris": {"ios": "https://dc.lft.to/lastmile_qr_scan", "android": "https://dc.lft.to/lastmile_qr_scan"}, "lat": 38.91591016666667, "is_reserved": 0, "bike_id": "3522bf4a296446ab4a5d74ccc5066d79", "lon": -77.02204083333334, "is_disabled": 0, "fusion_lat": 0.0, "fusion_lon": 0.0, "name": "3522bf4a296446ab4a5d74ccc5066d79", "type": "electric_scooter"}, {"rental_uris": {"ios": "https://dc.lft.to/lastmile_qr_scan", "android": "https://dc.lft.to/lastmile_qr_scan"}, "lat": 38.902333666666664, "is_reserved": 0, "bike_id": "64bc949321f39761cfc7890b81ffb159", "lon": -77.02695666666666, "is_disabled": 0, "fusion_lat": 0.0, "fusion_lon": 0.0, "name": "64bc949321f39761cfc7890b81ffb159", "type": "electric_scooter"}, {"rental_uris": {"ios": "https://dc.lft.to/lastmile_qr_scan", "android": "https://dc.lft.to/lastmile_qr_scan"}, "lat": 38.904715, "is_reserved": 0, "bike_id": "496f8625ac4cb6a72dea88a4aa545f15", "lon": -77.04354583333334, "is_disabled": 0, "fusion_lat": 0.0, "fusion_lon": 0.0, "name": "496f8625ac4cb6a72dea88a4aa545f15", "type": "electric_scooter"}, {"rental_uris": {"ios": "https://dc.lft.to/lastmile_qr_scan", "android": "https://dc.lft.to/lastmile_qr_scan"}, "lat": 38.923165833333336, "is_reserved": 0, "bike_id": "54b0d5f5bc9515c1bd5f071e18ac4043", "lon": -77.04180216666667, "is_disabled": 0, "fusion_lat": 0.0, "fusion_lon": 0.0, "name": "54b0d5f5bc9515c1bd5f071e18ac4043", "type": "electric_scooter"}, {"rental_uris": {"ios": "https://dc.lft.to/lastmile_qr_scan", "android": "https://dc.lft.to/lastmile_qr_scan"}, "lat": 38.879079, "is_reserved": 0, "bike_id": "adab7bd6b3852a41b7b9a3a298843cd9", "lon": -77.02203983333334, "is_disabled": 0, "fusion_lat": 0.0, "fusion_lon": 0.0, "name": "adab7bd6b3852a41b7b9a3a298843cd9", "type": "electric_scooter"}, {"rental_uris": {"ios": "https://dc.lft.to/lastmile_qr_scan", "android": "https://dc.lft.to/lastmile_qr_scan"}, "lat": 38.92338816666667, "is_reserved": 0, "bike_id": "d810e0d1811fbb2ba8629a41824a7a78", "lon": -77.043057, "is_disabled": 0, "fusion_lat": 0.0, "fusion_lon": 0.0, "name": "d810e0d1811fbb2ba8629a41824a7a78", "type": "electric_scooter"}, {"rental_uris": {"ios": "https://dc.lft.to/lastmile_qr_scan", "android": "https://dc.lft.to/lastmile_qr_scan"}, "lat": 38.90374583333333, "is_reserved": 0, "bike_id": "0baf7eebe5f32b572fc256ea42673175", "lon": -77.03637333333333, "is_disabled": 0, "fusion_lat": 0.0, "fusion_lon": 0.0, "name": "0baf7eebe5f32b572fc256ea42673175", "type": "electric_scooter"}, {"rental_uris": {"ios": "https://dc.lft.to/lastmile_qr_scan", "android": "https://dc.lft.to/lastmile_qr_scan"}, "lat": 38.903809333333335, "is_reserved": 0, "bike_id": "52a739f307722ce3b13159bd5e35e65b", "lon": -77.04072183333334, "is_disabled": 0, "fusion_lat": 0.0, "fusion_lon": 0.0, "name": "52a739f307722ce3b13159bd5e35e65b", "type": "electric_scooter"}, {"rental_uris": {"ios": "https://dc.lft.to/lastmile_qr_scan", "android": "https://dc.lft.to/lastmile_qr_scan"}, "lat": 38.884831, "is_reserved": 0, "bike_id": "1eae1346ccb3b1b6133dcd35790de77b", "lon": -77.021673, "is_disabled": 0, "fusion_lat": 0.0, "fusion_lon": 0.0, "name": "1eae1346ccb3b1b6133dcd35790de77b", "type": "electric_scooter"}, {"rental_uris": {"ios": "https://dc.lft.to/lastmile_qr_scan", "android": "https://dc.lft.to/lastmile_qr_scan"}, "lat": 38.86626783333333, "is_reserved": 0, "bike_id": "9080c84976c41004ff22767519cd949f", "lon": -76.987126, "is_disabled": 0, "fusion_lat": 0.0, "fusion_lon": 0.0, "name": "9080c84976c41004ff22767519cd949f", "type": "electric_scooter"}, {"rental_uris": {"ios": "https://dc.lft.to/lastmile_qr_scan", "android": "https://dc.lft.to/lastmile_qr_scan"}, "lat": 38.913281166666664, "is_reserved": 0, "bike_id": "1c0114cab606556b26e41f11879f253a", "lon": -77.04018466666666, "is_disabled": 0, "fusion_lat": 0.0, "fusion_lon": 0.0, "name": "1c0114cab606556b26e41f11879f253a", "type": "electric_scooter"}, {"rental_uris": {"ios": "https://dc.lft.to/lastmile_qr_scan", "android": "https://dc.lft.to/lastmile_qr_scan"}, "lat": 38.9307285, "is_reserved": 0, "bike_id": "82386eb76a4a1d958e26db98eaef3ca9", "lon": -77.03499583333333, "is_disabled": 0, "fusion_lat": 0.0, "fusion_lon": 0.0, "name": "82386eb76a4a1d958e26db98eaef3ca9", "type": "electric_scooter"}, {"rental_uris": {"ios": "https://dc.lft.to/lastmile_qr_scan", "android": "https://dc.lft.to/lastmile_qr_scan"}, "lat": 38.8787325, "is_reserved": 0, "bike_id": "1ecf9eb56b7d337950b892ddcdb8eff4", "lon": -77.02334216666667, "is_disabled": 0, "fusion_lat": 0.0, "fusion_lon": 0.0, "name": "1ecf9eb56b7d337950b892ddcdb8eff4", "type": "electric_scooter"}, {"rental_uris": {"ios": "https://dc.lft.to/lastmile_qr_scan", "android": "https://dc.lft.to/lastmile_qr_scan"}, "lat": 38.8199385, "is_reserved": 0, "bike_id": "232ba617fc8a9a6a10c0dc6b30dbe8b2", "lon": -76.99815616666666, "is_disabled": 0, "fusion_lat": 0.0, "fusion_lon": 0.0, "name": "232ba617fc8a9a6a10c0dc6b30dbe8b2", "type": "electric_bike"}, {"rental_uris": {"ios": "https://dc.lft.to/lastmile_qr_scan", "android": "https://dc.lft.to/lastmile_qr_scan"}, "lat": 38.890661333333334, "is_reserved": 0, "bike_id": "bf49b03aec412878c693118a2737df73", "lon": -77.184338, "is_disabled": 0, "fusion_lat": 0.0, "fusion_lon": 0.0, "name": "bf49b03aec412878c693118a2737df73", "type": "electric_bike"}, {"rental_uris": {"ios": "https://dc.lft.to/lastmile_qr_scan", "android": "https://dc.lft.to/lastmile_qr_scan"}, "lat": 38.903045666666664, "is_reserved": 0, "bike_id": "c31f66323f460ff355db9256c09806e6", "lon": -77.0602575, "is_disabled": 0, "fusion_lat": 0.0, "fusion_lon": 0.0, "name": "c31f66323f460ff355db9256c09806e6", "type": "electric_scooter"}, {"rental_uris": {"ios": "https://dc.lft.to/lastmile_qr_scan", "android": "https://dc.lft.to/lastmile_qr_scan"}, "lat": 38.894658, "is_reserved": 0, "bike_id": "fc7efb2c5797d01d7672fd07fea7d500", "lon": -76.94961516666666, "is_disabled": 0, "fusion_lat": 0.0, "fusion_lon": 0.0, "name": "fc7efb2c5797d01d7672fd07fea7d500", "type": "electric_scooter"}, {"rental_uris": {"ios": "https://dc.lft.to/lastmile_qr_scan", "android": "https://dc.lft.to/lastmile_qr_scan"}, "lat": 38.91784466666667, "is_reserved": 0, "bike_id": "c0a7f922b71af0140e082f227f4ac7c1", "lon": -77.02315183333333, "is_disabled": 0, "fusion_lat": 0.0, "fusion_lon": 0.0, "name": "c0a7f922b71af0140e082f227f4ac7c1", "type": "electric_scooter"}, {"rental_uris": {"ios": "https://dc.lft.to/lastmile_qr_scan", "android": "https://dc.lft.to/lastmile_qr_scan"}, "lat": 38.83324433333333, "is_reserved": 0, "bike_id": "35c3e8abff1e0d02473ec8a703d854bf", "lon": -77.00001466666667, "is_disabled": 0, "fusion_lat": 0.0, "fusion_lon": 0.0, "name": "35c3e8abff1e0d02473ec8a703d854bf", "type": "electric_bike"}, {"rental_uris": {"ios": "https://dc.lft.to/lastmile_qr_scan", "android": "https://dc.lft.to/lastmile_qr_scan"}, "lat": 38.9246415, "is_reserved": 0, "bike_id": "2323007027c6520a392e28860d3cb488", "lon": -77.02153583333333, "is_disabled": 0, "fusion_lat": 0.0, "fusion_lon": 0.0, "name": "2323007027c6520a392e28860d3cb488", "type": "electric_scooter"}, {"rental_uris": {"ios": "https://dc.lft.to/lastmile_qr_scan", "android": "https://dc.lft.to/lastmile_qr_scan"}, "lat": 38.906839166666664, "is_reserved": 0, "bike_id": "be515fd426a80af7fdd8572aec5b3ccc", "lon": -77.02695083333333, "is_disabled": 0, "fusion_lat": 0.0, "fusion_lon": 0.0, "name": "be515fd426a80af7fdd8572aec5b3ccc", "type": "electric_scooter"}, {"rental_uris": {"ios": "https://dc.lft.to/lastmile_qr_scan", "android": "https://dc.lft.to/lastmile_qr_scan"}, "lat": 38.897374666666664, "is_reserved": 0, "bike_id": "7ae0310d41ddea6404403645e194ed6e", "lon": -76.99849083333334, "is_disabled": 0, "fusion_lat": 0.0, "fusion_lon": 0.0, "name": "7ae0310d41ddea6404403645e194ed6e", "type": "electric_scooter"}, {"rental_uris": {"ios": "https://dc.lft.to/lastmile_qr_scan", "android": "https://dc.lft.to/lastmile_qr_scan"}, "lat": 38.9342915, "is_reserved": 0, "bike_id": "ad68fca95804aa5535ff6e13bc7da2e4", "lon": -77.04006766666667, "is_disabled": 0, "fusion_lat": 0.0, "fusion_lon": 0.0, "name": "ad68fca95804aa5535ff6e13bc7da2e4", "type": "electric_scooter"}, {"rental_uris": {"ios": "https://dc.lft.to/lastmile_qr_scan", "android": "https://dc.lft.to/lastmile_qr_scan"}, "lat": 38.90029766666667, "is_reserved": 0, "bike_id": "216c04ad7e4ea83a94c52698c2f4cf81", "lon": -77.01183883333333, "is_disabled": 0, "fusion_lat": 0.0, "fusion_lon": 0.0, "name": "216c04ad7e4ea83a94c52698c2f4cf81", "type": "electric_scooter"}, {"rental_uris": {"ios": "https://dc.lft.to/lastmile_qr_scan", "android": "https://dc.lft.to/lastmile_qr_scan"}, "lat": 38.879875, "is_reserved": 0, "bike_id": "c6682b02c4a01102ab55fa10c46498a8", "lon": -77.02405566666667, "is_disabled": 0, "fusion_lat": 0.0, "fusion_lon": 0.0, "name": "c6682b02c4a01102ab55fa10c46498a8", "type": "electric_scooter"}, {"rental_uris": {"ios": "https://dc.lft.to/lastmile_qr_scan", "android": "https://dc.lft.to/lastmile_qr_scan"}, "lat": 38.944300166666665, "is_reserved": 0, "bike_id": "e6181f213612d976ddf9ab4ba942c368", "lon": -77.02604916666667, "is_disabled": 0, "fusion_lat": 0.0, "fusion_lon": 0.0, "name": "e6181f213612d976ddf9ab4ba942c368", "type": "electric_bike"}, {"rental_uris": {"ios": "https://dc.lft.to/lastmile_qr_scan", "android": "https://dc.lft.to/lastmile_qr_scan"}, "lat": 38.887305, "is_reserved": 0, "bike_id": "e575827a024c5d5412487a75ecf8a8c3", "lon": -77.0283465, "is_disabled": 0, "fusion_lat": 0.0, "fusion_lon": 0.0, "name": "e575827a024c5d5412487a75ecf8a8c3", "type": "electric_scooter"}, {"rental_uris": {"ios": "https://dc.lft.to/lastmile_qr_scan", "android": "https://dc.lft.to/lastmile_qr_scan"}, "lat": 38.9524835, "is_reserved": 0, "bike_id": "f235ddbbfee3767d363a3d2671c50b64", "lon": -77.00701083333334, "is_disabled": 0, "fusion_lat": 0.0, "fusion_lon": 0.0, "name": "f235ddbbfee3767d363a3d2671c50b64", "type": "electric_scooter"}, {"rental_uris": {"ios": "https://dc.lft.to/lastmile_qr_scan", "android": "https://dc.lft.to/lastmile_qr_scan"}, "lat": 38.917169666666666, "is_reserved": 0, "bike_id": "78defbd6bcd58fc3c418f939145e5ead", "lon": -77.03146966666667, "is_disabled": 0, "fusion_lat": 0.0, "fusion_lon": 0.0, "name": "78defbd6bcd58fc3c418f939145e5ead", "type": "electric_scooter"}, {"rental_uris": {"ios": "https://dc.lft.to/lastmile_qr_scan", "android": "https://dc.lft.to/lastmile_qr_scan"}, "lat": 38.84169383333333, "is_reserved": 0, "bike_id": "444b866b6aa3f493c6855d12ff91d026", "lon": -76.99783616666667, "is_disabled": 0, "fusion_lat": 0.0, "fusion_lon": 0.0, "name": "444b866b6aa3f493c6855d12ff91d026", "type": "electric_scooter"}, {"rental_uris": {"ios": "https://dc.lft.to/lastmile_qr_scan", "android": "https://dc.lft.to/lastmile_qr_scan"}, "lat": 38.90548533333333, "is_reserved": 0, "bike_id": "163adac3b019fb52590f0226e55331c4", "lon": -77.03481733333334, "is_disabled": 0, "fusion_lat": 0.0, "fusion_lon": 0.0, "name": "163adac3b019fb52590f0226e55331c4", "type": "electric_scooter"}, {"rental_uris": {"ios": "https://dc.lft.to/lastmile_qr_scan", "android": "https://dc.lft.to/lastmile_qr_scan"}, "lat": 38.90649283333333, "is_reserved": 0, "bike_id": "cdbc1992b14961633cd2ef2c37885e07", "lon": -77.03892283333333, "is_disabled": 0, "fusion_lat": 0.0, "fusion_lon": 0.0, "name": "cdbc1992b14961633cd2ef2c37885e07", "type": "electric_scooter"}, {"rental_uris": {"ios": "https://dc.lft.to/lastmile_qr_scan", "android": "https://dc.lft.to/lastmile_qr_scan"}, "lat": 38.8949795, "is_reserved": 0, "bike_id": "1cb031e7ca7bc6517917ae666cd7449b", "lon": -77.02283516666667, "is_disabled": 0, "fusion_lat": 0.0, "fusion_lon": 0.0, "name": "1cb031e7ca7bc6517917ae666cd7449b", "type": "electric_scooter"}, {"rental_uris": {"ios": "https://dc.lft.to/lastmile_qr_scan", "android": "https://dc.lft.to/lastmile_qr_scan"}, "lat": 38.90495133333334, "is_reserved": 0, "bike_id": "411e56a3d870c55f8b0253c83833d896", "lon": -77.00087366666666, "is_disabled": 0, "fusion_lat": 0.0, "fusion_lon": 0.0, "name": "411e56a3d870c55f8b0253c83833d896", "type": "electric_scooter"}, {"rental_uris": {"ios": "https://dc.lft.to/lastmile_qr_scan", "android": "https://dc.lft.to/lastmile_qr_scan"}, "lat": 38.917328499999996, "is_reserved": 0, "bike_id": "1b022fc78bb0e4e86eac3ec8f21cd3b6", "lon": -77.028192, "is_disabled": 0, "fusion_lat": 0.0, "fusion_lon": 0.0, "name": "1b022fc78bb0e4e86eac3ec8f21cd3b6", "type": "electric_scooter"}, {"rental_uris": {"ios": "https://dc.lft.to/lastmile_qr_scan", "android": "https://dc.lft.to/lastmile_qr_scan"}, "lat": 38.85769916666667, "is_reserved": 0, "bike_id": "8126a224b6d84d971be63186ff193985", "lon": -76.9876125, "is_disabled": 0, "fusion_lat": 0.0, "fusion_lon": 0.0, "name": "8126a224b6d84d971be63186ff193985", "type": "electric_bike"}, {"rental_uris": {"ios": "https://dc.lft.to/lastmile_qr_scan", "android": "https://dc.lft.to/lastmile_qr_scan"}, "lat": 38.91077383333333, "is_reserved": 0, "bike_id": "39c322dcad4f83fa9c649b3e8dae31ff", "lon": -77.03030383333333, "is_disabled": 0, "fusion_lat": 0.0, "fusion_lon": 0.0, "name": "39c322dcad4f83fa9c649b3e8dae31ff", "type": "electric_scooter"}, {"rental_uris": {"ios": "https://dc.lft.to/lastmile_qr_scan", "android": "https://dc.lft.to/lastmile_qr_scan"}, "lat": 38.90928133333333, "is_reserved": 0, "bike_id": "8e3427702005b45519ec6f4b0e5c4952", "lon": -77.02691466666667, "is_disabled": 0, "fusion_lat": 0.0, "fusion_lon": 0.0, "name": "8e3427702005b45519ec6f4b0e5c4952", "type": "electric_scooter"}, {"rental_uris": {"ios": "https://dc.lft.to/lastmile_qr_scan", "android": "https://dc.lft.to/lastmile_qr_scan"}, "lat": 38.9023725, "is_reserved": 0, "bike_id": "5774d92e12c7777e13e17523454319b7", "lon": -77.04529183333334, "is_disabled": 0, "fusion_lat": 0.0, "fusion_lon": 0.0, "name": "5774d92e12c7777e13e17523454319b7", "type": "electric_scooter"}, {"rental_uris": {"ios": "https://dc.lft.to/lastmile_qr_scan", "android": "https://dc.lft.to/lastmile_qr_scan"}, "lat": 38.91114266666666, "is_reserved": 0, "bike_id": "4df7313963a9ba35354103aa87c04f97", "lon": -77.02236916666666, "is_disabled": 0, "fusion_lat": 0.0, "fusion_lon": 0.0, "name": "4df7313963a9ba35354103aa87c04f97", "type": "electric_scooter"}, {"rental_uris": {"ios": "https://dc.lft.to/lastmile_qr_scan", "android": "https://dc.lft.to/lastmile_qr_scan"}, "lat": 38.85793483333333, "is_reserved": 0, "bike_id": "a7534c01fe61657a29e407429f74085d", "lon": -76.9891625, "is_disabled": 0, "fusion_lat": 0.0, "fusion_lon": 0.0, "name": "a7534c01fe61657a29e407429f74085d", "type": "electric_scooter"}, {"rental_uris": {"ios": "https://dc.lft.to/lastmile_qr_scan", "android": "https://dc.lft.to/lastmile_qr_scan"}, "lat": 38.913607, "is_reserved": 0, "bike_id": "756aa6f0a874ff80b3f994b3f88663d5", "lon": -77.0449065, "is_disabled": 0, "fusion_lat": 0.0, "fusion_lon": 0.0, "name": "756aa6f0a874ff80b3f994b3f88663d5", "type": "electric_scooter"}, {"rental_uris": {"ios": "https://dc.lft.to/lastmile_qr_scan", "android": "https://dc.lft.to/lastmile_qr_scan"}, "lat": 38.86658516666667, "is_reserved": 0, "bike_id": "da673f32f2d7f3a81b4c7410a627eb00", "lon": -76.9888405, "is_disabled": 0, "fusion_lat": 0.0, "fusion_lon": 0.0, "name": "da673f32f2d7f3a81b4c7410a627eb00", "type": "electric_scooter"}, {"rental_uris": {"ios": "https://dc.lft.to/lastmile_qr_scan", "android": "https://dc.lft.to/lastmile_qr_scan"}, "lat": 38.944068666666666, "is_reserved": 0, "bike_id": "3aa9e4b7515a9f953c3088fb90e36e31", "lon": -77.02606616666667, "is_disabled": 0, "fusion_lat": 0.0, "fusion_lon": 0.0, "name": "3aa9e4b7515a9f953c3088fb90e36e31", "type": "electric_scooter"}, {"rental_uris": {"ios": "https://dc.lft.to/lastmile_qr_scan", "android": "https://dc.lft.to/lastmile_qr_scan"}, "lat": 38.798525, "is_reserved": 0, "bike_id": "63744a8ad7d3f7cced1e76c5393645ae", "lon": -77.063035, "is_disabled": 0, "fusion_lat": 0.0, "fusion_lon": 0.0, "name": "63744a8ad7d3f7cced1e76c5393645ae", "type": "electric_bike"}, {"rental_uris": {"ios": "https://dc.lft.to/lastmile_qr_scan", "android": "https://dc.lft.to/lastmile_qr_scan"}, "lat": 38.866851, "is_reserved": 0, "bike_id": "e971bd3afa6ef7b4d42483d31fbe5317", "lon": -76.98576166666666, "is_disabled": 0, "fusion_lat": 0.0, "fusion_lon": 0.0, "name": "e971bd3afa6ef7b4d42483d31fbe5317", "type": "electric_scooter"}, {"rental_uris": {"ios": "https://dc.lft.to/lastmile_qr_scan", "android": "https://dc.lft.to/lastmile_qr_scan"}, "lat": 38.89741983333333, "is_reserved": 0, "bike_id": "8b9f8bfc06f39592f3799e9ec5e79bd6", "lon": -76.979777, "is_disabled": 0, "fusion_lat": 0.0, "fusion_lon": 0.0, "name": "8b9f8bfc06f39592f3799e9ec5e79bd6", "type": "electric_scooter"}, {"rental_uris": {"ios": "https://dc.lft.to/lastmile_qr_scan", "android": "https://dc.lft.to/lastmile_qr_scan"}, "lat": 38.876168166666666, "is_reserved": 0, "bike_id": "f1eb4981f525b7ed0cdd344061d59f10", "lon": -77.00748266666666, "is_disabled": 0, "fusion_lat": 0.0, "fusion_lon": 0.0, "name": "f1eb4981f525b7ed0cdd344061d59f10", "type": "electric_scooter"}, {"rental_uris": {"ios": "https://dc.lft.to/lastmile_qr_scan", "android": "https://dc.lft.to/lastmile_qr_scan"}, "lat": 38.897434833333335, "is_reserved": 0, "bike_id": "ed7b2a2d4afeeb57f0b37ae6f48b9850", "lon": -77.05152733333334, "is_disabled": 0, "fusion_lat": 0.0, "fusion_lon": 0.0, "name": "ed7b2a2d4afeeb57f0b37ae6f48b9850", "type": "electric_scooter"}, {"rental_uris": {"ios": "https://dc.lft.to/lastmile_qr_scan", "android": "https://dc.lft.to/lastmile_qr_scan"}, "lat": 38.95578783333333, "is_reserved": 0, "bike_id": "c4257385d03363c07eb8805e09bb0cd3", "lon": -77.070197, "is_disabled": 0, "fusion_lat": 0.0, "fusion_lon": 0.0, "name": "c4257385d03363c07eb8805e09bb0cd3", "type": "electric_scooter"}, {"rental_uris": {"ios": "https://dc.lft.to/lastmile_qr_scan", "android": "https://dc.lft.to/lastmile_qr_scan"}, "lat": 38.8963585, "is_reserved": 0, "bike_id": "56d8f976bc675af8939611760d7fe2fa", "lon": -77.00912433333333, "is_disabled": 0, "fusion_lat": 0.0, "fusion_lon": 0.0, "name": "56d8f976bc675af8939611760d7fe2fa", "type": "electric_scooter"}, {"rental_uris": {"ios": "https://dc.lft.to/lastmile_qr_scan", "android": "https://dc.lft.to/lastmile_qr_scan"}, "lat": 38.916246666666666, "is_reserved": 0, "bike_id": "3d0b3cc4eddd6610ea36831f0e239127", "lon": -77.03210633333333, "is_disabled": 0, "fusion_lat": 0.0, "fusion_lon": 0.0, "name": "3d0b3cc4eddd6610ea36831f0e239127", "type": "electric_scooter"}, {"rental_uris": {"ios": "https://dc.lft.to/lastmile_qr_scan", "android": "https://dc.lft.to/lastmile_qr_scan"}, "lat": 38.8987435, "is_reserved": 0, "bike_id": "49f25a89b6a649316a60f97aeedc0a93", "lon": -77.009228, "is_disabled": 0, "fusion_lat": 0.0, "fusion_lon": 0.0, "name": "49f25a89b6a649316a60f97aeedc0a93", "type": "electric_scooter"}, {"rental_uris": {"ios": "https://dc.lft.to/lastmile_qr_scan", "android": "https://dc.lft.to/lastmile_qr_scan"}, "lat": 38.907912833333334, "is_reserved": 0, "bike_id": "2ffd5070848966345d71d08c61f1ed9c", "lon": -77.03795316666667, "is_disabled": 0, "fusion_lat": 0.0, "fusion_lon": 0.0, "name": "2ffd5070848966345d71d08c61f1ed9c", "type": "electric_scooter"}, {"rental_uris": {"ios": "https://dc.lft.to/lastmile_qr_scan", "android": "https://dc.lft.to/lastmile_qr_scan"}, "lat": 38.892214333333335, "is_reserved": 0, "bike_id": "c9ca25d30a9a736f67a93c5ede3b47e2", "lon": -77.04515966666666, "is_disabled": 0, "fusion_lat": 0.0, "fusion_lon": 0.0, "name": "c9ca25d30a9a736f67a93c5ede3b47e2", "type": "electric_scooter"}, {"rental_uris": {"ios": "https://dc.lft.to/lastmile_qr_scan", "android": "https://dc.lft.to/lastmile_qr_scan"}, "lat": 38.9031565, "is_reserved": 0, "bike_id": "a2665a37ffee44403b6db1d572034a1e", "lon": -77.02129866666667, "is_disabled": 0, "fusion_lat": 0.0, "fusion_lon": 0.0, "name": "a2665a37ffee44403b6db1d572034a1e", "type": "electric_scooter"}, {"rental_uris": {"ios": "https://dc.lft.to/lastmile_qr_scan", "android": "https://dc.lft.to/lastmile_qr_scan"}, "lat": 38.911185333333336, "is_reserved": 0, "bike_id": "b294b5aa01b21d46339490414c73fed2", "lon": -77.02208716666667, "is_disabled": 0, "fusion_lat": 0.0, "fusion_lon": 0.0, "name": "b294b5aa01b21d46339490414c73fed2", "type": "electric_scooter"}, {"rental_uris": {"ios": "https://dc.lft.to/lastmile_qr_scan", "android": "https://dc.lft.to/lastmile_qr_scan"}, "lat": 38.927318166666666, "is_reserved": 0, "bike_id": "d91e41347a323eb1bcfd61d4f5e7f202", "lon": -77.0342675, "is_disabled": 0, "fusion_lat": 0.0, "fusion_lon": 0.0, "name": "d91e41347a323eb1bcfd61d4f5e7f202", "type": "electric_scooter"}, {"rental_uris": {"ios": "https://dc.lft.to/lastmile_qr_scan", "android": "https://dc.lft.to/lastmile_qr_scan"}, "lat": 38.913852, "is_reserved": 0, "bike_id": "3bca3fc220f1722bdd61572a6c340aa8", "lon": -77.03664166666667, "is_disabled": 0, "fusion_lat": 0.0, "fusion_lon": 0.0, "name": "3bca3fc220f1722bdd61572a6c340aa8", "type": "electric_scooter"}, {"rental_uris": {"ios": "https://dc.lft.to/lastmile_qr_scan", "android": "https://dc.lft.to/lastmile_qr_scan"}, "lat": 38.90037316666667, "is_reserved": 0, "bike_id": "e3b1a6a8d286509876376cce0b2b2002", "lon": -77.02980616666666, "is_disabled": 0, "fusion_lat": 0.0, "fusion_lon": 0.0, "name": "e3b1a6a8d286509876376cce0b2b2002", "type": "electric_scooter"}, {"rental_uris": {"ios": "https://dc.lft.to/lastmile_qr_scan", "android": "https://dc.lft.to/lastmile_qr_scan"}, "lat": 38.88730483333333, "is_reserved": 0, "bike_id": "04ec4ebdf5e0d8fbc3eb9e9423951f1a", "lon": -77.02580333333333, "is_disabled": 0, "fusion_lat": 0.0, "fusion_lon": 0.0, "name": "04ec4ebdf5e0d8fbc3eb9e9423951f1a", "type": "electric_scooter"}, {"rental_uris": {"ios": "https://dc.lft.to/lastmile_qr_scan", "android": "https://dc.lft.to/lastmile_qr_scan"}, "lat": 38.914138, "is_reserved": 0, "bike_id": "559c128a9455f2ed4cb4f0b5157cd4db", "lon": -77.02236433333333, "is_disabled": 0, "fusion_lat": 0.0, "fusion_lon": 0.0, "name": "559c128a9455f2ed4cb4f0b5157cd4db", "type": "electric_scooter"}, {"rental_uris": {"ios": "https://dc.lft.to/lastmile_qr_scan", "android": "https://dc.lft.to/lastmile_qr_scan"}, "lat": 38.892382833333336, "is_reserved": 0, "bike_id": "45df31ae9b96e96568e7b3221da57926", "lon": -77.02173883333333, "is_disabled": 0, "fusion_lat": 0.0, "fusion_lon": 0.0, "name": "45df31ae9b96e96568e7b3221da57926", "type": "electric_scooter"}, {"rental_uris": {"ios": "https://dc.lft.to/lastmile_qr_scan", "android": "https://dc.lft.to/lastmile_qr_scan"}, "lat": 38.90132766666667, "is_reserved": 0, "bike_id": "fb6640d4b6a77d74ef624fce609f1fd2", "lon": -77.03562466666666, "is_disabled": 0, "fusion_lat": 0.0, "fusion_lon": 0.0, "name": "fb6640d4b6a77d74ef624fce609f1fd2", "type": "electric_scooter"}, {"rental_uris": {"ios": "https://dc.lft.to/lastmile_qr_scan", "android": "https://dc.lft.to/lastmile_qr_scan"}, "lat": 38.91459416666667, "is_reserved": 0, "bike_id": "a0295a88ff155d36fbf870766173094a", "lon": -77.022904, "is_disabled": 0, "fusion_lat": 0.0, "fusion_lon": 0.0, "name": "a0295a88ff155d36fbf870766173094a", "type": "electric_scooter"}, {"rental_uris": {"ios": "https://dc.lft.to/lastmile_qr_scan", "android": "https://dc.lft.to/lastmile_qr_scan"}, "lat": 38.87605166666667, "is_reserved": 0, "bike_id": "6ecb630deab4daad2a4e750b76e0998c", "lon": -77.00930266666667, "is_disabled": 0, "fusion_lat": 0.0, "fusion_lon": 0.0, "name": "6ecb630deab4daad2a4e750b76e0998c", "type": "electric_scooter"}, {"rental_uris": {"ios": "https://dc.lft.to/lastmile_qr_scan", "android": "https://dc.lft.to/lastmile_qr_scan"}, "lat": 38.897100333333334, "is_reserved": 0, "bike_id": "bd01f3c48cfea9c29dd3dff29323cf0a", "lon": -77.026753, "is_disabled": 0, "fusion_lat": 0.0, "fusion_lon": 0.0, "name": "bd01f3c48cfea9c29dd3dff29323cf0a", "type": "electric_scooter"}, {"rental_uris": {"ios": "https://dc.lft.to/lastmile_qr_scan", "android": "https://dc.lft.to/lastmile_qr_scan"}, "lat": 38.916742166666666, "is_reserved": 0, "bike_id": "57bee2b7c2a41a746f6a1088e49277d8", "lon": -77.01588416666667, "is_disabled": 0, "fusion_lat": 0.0, "fusion_lon": 0.0, "name": "57bee2b7c2a41a746f6a1088e49277d8", "type": "electric_scooter"}, {"rental_uris": {"ios": "https://dc.lft.to/lastmile_qr_scan", "android": "https://dc.lft.to/lastmile_qr_scan"}, "lat": 38.90398, "is_reserved": 0, "bike_id": "b059ed4a35cfdcc4108693a07b733ac2", "lon": -77.0640065, "is_disabled": 0, "fusion_lat": 0.0, "fusion_lon": 0.0, "name": "b059ed4a35cfdcc4108693a07b733ac2", "type": "electric_scooter"}, {"rental_uris": {"ios": "https://dc.lft.to/lastmile_qr_scan", "android": "https://dc.lft.to/lastmile_qr_scan"}, "lat": 38.911329, "is_reserved": 0, "bike_id": "557b960fcaf8706cfffe200968a39435", "lon": -77.04412383333333, "is_disabled": 0, "fusion_lat": 0.0, "fusion_lon": 0.0, "name": "557b960fcaf8706cfffe200968a39435", "type": "electric_scooter"}, {"rental_uris": {"ios": "https://dc.lft.to/lastmile_qr_scan", "android": "https://dc.lft.to/lastmile_qr_scan"}, "lat": 38.865031333333334, "is_reserved": 0, "bike_id": "3ac60d9064b3b5376ba7a6fead136ced", "lon": -76.99010266666667, "is_disabled": 0, "fusion_lat": 0.0, "fusion_lon": 0.0, "name": "3ac60d9064b3b5376ba7a6fead136ced", "type": "electric_scooter"}, {"rental_uris": {"ios": "https://dc.lft.to/lastmile_qr_scan", "android": "https://dc.lft.to/lastmile_qr_scan"}, "lat": 38.92636383333333, "is_reserved": 0, "bike_id": "d69042f47148136c640c30e7c4ec6ba1", "lon": -77.0348345, "is_disabled": 0, "fusion_lat": 0.0, "fusion_lon": 0.0, "name": "d69042f47148136c640c30e7c4ec6ba1", "type": "electric_scooter"}, {"rental_uris": {"ios": "https://dc.lft.to/lastmile_qr_scan", "android": "https://dc.lft.to/lastmile_qr_scan"}, "lat": 38.9264085, "is_reserved": 0, "bike_id": "a9dcc4a4242dedd0e8108a25c4f59580", "lon": -77.033998, "is_disabled": 0, "fusion_lat": 0.0, "fusion_lon": 0.0, "name": "a9dcc4a4242dedd0e8108a25c4f59580", "type": "electric_scooter"}, {"rental_uris": {"ios": "https://dc.lft.to/lastmile_qr_scan", "android": "https://dc.lft.to/lastmile_qr_scan"}, "lat": 38.923496166666666, "is_reserved": 0, "bike_id": "339a7f38904162d4c34b6799314d4fbe", "lon": -77.04152916666666, "is_disabled": 0, "fusion_lat": 0.0, "fusion_lon": 0.0, "name": "339a7f38904162d4c34b6799314d4fbe", "type": "electric_scooter"}, {"rental_uris": {"ios": "https://dc.lft.to/lastmile_qr_scan", "android": "https://dc.lft.to/lastmile_qr_scan"}, "lat": 38.90555366666667, "is_reserved": 0, "bike_id": "5df3e07334eeed5b9a6882ff3bb71534", "lon": -77.03472433333333, "is_disabled": 0, "fusion_lat": 0.0, "fusion_lon": 0.0, "name": "5df3e07334eeed5b9a6882ff3bb71534", "type": "electric_scooter"}, {"rental_uris": {"ios": "https://dc.lft.to/lastmile_qr_scan", "android": "https://dc.lft.to/lastmile_qr_scan"}, "lat": 38.90877166666667, "is_reserved": 0, "bike_id": "4a481662c5b5a4f0f57e1f2c7d685014", "lon": -77.020036, "is_disabled": 0, "fusion_lat": 0.0, "fusion_lon": 0.0, "name": "4a481662c5b5a4f0f57e1f2c7d685014", "type": "electric_scooter"}, {"rental_uris": {"ios": "https://dc.lft.to/lastmile_qr_scan", "android": "https://dc.lft.to/lastmile_qr_scan"}, "lat": 38.8935215, "is_reserved": 0, "bike_id": "d701a6133d5b77657f1b63f6e9d0ce87", "lon": -77.18745066666666, "is_disabled": 0, "fusion_lat": 0.0, "fusion_lon": 0.0, "name": "d701a6133d5b77657f1b63f6e9d0ce87", "type": "electric_bike"}, {"rental_uris": {"ios": "https://dc.lft.to/lastmile_qr_scan", "android": "https://dc.lft.to/lastmile_qr_scan"}, "lat": 38.925746833333335, "is_reserved": 0, "bike_id": "4c555262b582a959f82b93aaf92ad845", "lon": -77.02696316666666, "is_disabled": 0, "fusion_lat": 0.0, "fusion_lon": 0.0, "name": "4c555262b582a959f82b93aaf92ad845", "type": "electric_scooter"}, {"rental_uris": {"ios": "https://dc.lft.to/lastmile_qr_scan", "android": "https://dc.lft.to/lastmile_qr_scan"}, "lat": 38.897302, "is_reserved": 0, "bike_id": "aefb18c05c9078d1d3a2f878cffb49cf", "lon": -76.99467366666667, "is_disabled": 0, "fusion_lat": 0.0, "fusion_lon": 0.0, "name": "aefb18c05c9078d1d3a2f878cffb49cf", "type": "electric_scooter"}, {"rental_uris": {"ios": "https://dc.lft.to/lastmile_qr_scan", "android": "https://dc.lft.to/lastmile_qr_scan"}, "lat": 38.896213833333334, "is_reserved": 0, "bike_id": "3b39f689470e016cb87370ff2b610bbe", "lon": -77.03225666666667, "is_disabled": 0, "fusion_lat": 0.0, "fusion_lon": 0.0, "name": "3b39f689470e016cb87370ff2b610bbe", "type": "electric_scooter"}, {"rental_uris": {"ios": "https://dc.lft.to/lastmile_qr_scan", "android": "https://dc.lft.to/lastmile_qr_scan"}, "lat": 38.897451833333335, "is_reserved": 0, "bike_id": "d8c19271d0d11b9f35448cdcd079a7a8", "lon": -77.003955, "is_disabled": 0, "fusion_lat": 0.0, "fusion_lon": 0.0, "name": "d8c19271d0d11b9f35448cdcd079a7a8", "type": "electric_scooter"}, {"rental_uris": {"ios": "https://dc.lft.to/lastmile_qr_scan", "android": "https://dc.lft.to/lastmile_qr_scan"}, "lat": 38.923338333333334, "is_reserved": 0, "bike_id": "160575b755e2413bced7e3e920ef811c", "lon": -77.05346633333333, "is_disabled": 0, "fusion_lat": 0.0, "fusion_lon": 0.0, "name": "160575b755e2413bced7e3e920ef811c", "type": "electric_scooter"}, {"rental_uris": {"ios": "https://dc.lft.to/lastmile_qr_scan", "android": "https://dc.lft.to/lastmile_qr_scan"}, "lat": 38.883833333333335, "is_reserved": 0, "bike_id": "4eeee9ba5d8650f2c53d6d5b8a687dca", "lon": -76.99526583333333, "is_disabled": 0, "fusion_lat": 0.0, "fusion_lon": 0.0, "name": "4eeee9ba5d8650f2c53d6d5b8a687dca", "type": "electric_scooter"}, {"rental_uris": {"ios": "https://dc.lft.to/lastmile_qr_scan", "android": "https://dc.lft.to/lastmile_qr_scan"}, "lat": 38.844637, "is_reserved": 0, "bike_id": "89e05ad1c5e174633022272cde84d7d4", "lon": -76.99861516666667, "is_disabled": 0, "fusion_lat": 0.0, "fusion_lon": 0.0, "name": "89e05ad1c5e174633022272cde84d7d4", "type": "electric_bike"}, {"rental_uris": {"ios": "https://dc.lft.to/lastmile_qr_scan", "android": "https://dc.lft.to/lastmile_qr_scan"}, "lat": 38.933452333333335, "is_reserved": 0, "bike_id": "23232c49fc0387f761663320ca59234c", "lon": -77.028505, "is_disabled": 0, "fusion_lat": 0.0, "fusion_lon": 0.0, "name": "23232c49fc0387f761663320ca59234c", "type": "electric_scooter"}, {"rental_uris": {"ios": "https://dc.lft.to/lastmile_qr_scan", "android": "https://dc.lft.to/lastmile_qr_scan"}, "lat": 38.898153666666666, "is_reserved": 0, "bike_id": "855fa9ea047e4216c1ee42fe4509b9b0", "lon": -76.9313215, "is_disabled": 0, "fusion_lat": 0.0, "fusion_lon": 0.0, "name": "855fa9ea047e4216c1ee42fe4509b9b0", "type": "electric_scooter"}, {"rental_uris": {"ios": "https://dc.lft.to/lastmile_qr_scan", "android": "https://dc.lft.to/lastmile_qr_scan"}, "lat": 38.903029833333335, "is_reserved": 0, "bike_id": "01fd0a1e12045dd8b657347b73da7d1b", "lon": -77.034934, "is_disabled": 0, "fusion_lat": 0.0, "fusion_lon": 0.0, "name": "01fd0a1e12045dd8b657347b73da7d1b", "type": "electric_scooter"}, {"rental_uris": {"ios": "https://dc.lft.to/lastmile_qr_scan", "android": "https://dc.lft.to/lastmile_qr_scan"}, "lat": 38.927964333333335, "is_reserved": 0, "bike_id": "9ec357c6c6e7b97e7554d4a5c3cc0914", "lon": -77.01417683333334, "is_disabled": 0, "fusion_lat": 0.0, "fusion_lon": 0.0, "name": "9ec357c6c6e7b97e7554d4a5c3cc0914", "type": "electric_scooter"}, {"rental_uris": {"ios": "https://dc.lft.to/lastmile_qr_scan", "android": "https://dc.lft.to/lastmile_qr_scan"}, "lat": 38.922164, "is_reserved": 0, "bike_id": "27d951fd7820e3fccbb8bf714e4a8ab8", "lon": -77.20140266666667, "is_disabled": 0, "fusion_lat": 0.0, "fusion_lon": 0.0, "name": "27d951fd7820e3fccbb8bf714e4a8ab8", "type": "electric_bike"}, {"rental_uris": {"ios": "https://dc.lft.to/lastmile_qr_scan", "android": "https://dc.lft.to/lastmile_qr_scan"}, "lat": 38.9559495, "is_reserved": 0, "bike_id": "a78657e5163ea7de98cfb9283e52ca17", "lon": -77.080622, "is_disabled": 0, "fusion_lat": 0.0, "fusion_lon": 0.0, "name": "a78657e5163ea7de98cfb9283e52ca17", "type": "electric_scooter"}, {"rental_uris": {"ios": "https://dc.lft.to/lastmile_qr_scan", "android": "https://dc.lft.to/lastmile_qr_scan"}, "lat": 38.88442883333333, "is_reserved": 0, "bike_id": "c0858948450ad51b2569e661a9f1ae83", "lon": -77.02495166666667, "is_disabled": 0, "fusion_lat": 0.0, "fusion_lon": 0.0, "name": "c0858948450ad51b2569e661a9f1ae83", "type": "electric_scooter"}, {"rental_uris": {"ios": "https://dc.lft.to/lastmile_qr_scan", "android": "https://dc.lft.to/lastmile_qr_scan"}, "lat": 38.906576666666666, "is_reserved": 0, "bike_id": "0833a3a646df6211fa18709a74ad30cd", "lon": -77.02701433333333, "is_disabled": 0, "fusion_lat": 0.0, "fusion_lon": 0.0, "name": "0833a3a646df6211fa18709a74ad30cd", "type": "electric_scooter"}, {"rental_uris": {"ios": "https://dc.lft.to/lastmile_qr_scan", "android": "https://dc.lft.to/lastmile_qr_scan"}, "lat": 38.91392366666667, "is_reserved": 0, "bike_id": "03f20861d18cbd82cf7db0a2fed3ad63", "lon": -77.03328966666666, "is_disabled": 0, "fusion_lat": 0.0, "fusion_lon": 0.0, "name": "03f20861d18cbd82cf7db0a2fed3ad63", "type": "electric_scooter"}, {"rental_uris": {"ios": "https://dc.lft.to/lastmile_qr_scan", "android": "https://dc.lft.to/lastmile_qr_scan"}, "lat": 38.89501533333333, "is_reserved": 0, "bike_id": "a57ba01dcc523cb904f691eae2de5ff6", "lon": -76.93476683333333, "is_disabled": 0, "fusion_lat": 0.0, "fusion_lon": 0.0, "name": "a57ba01dcc523cb904f691eae2de5ff6", "type": "electric_scooter"}, {"rental_uris": {"ios": "https://dc.lft.to/lastmile_qr_scan", "android": "https://dc.lft.to/lastmile_qr_scan"}, "lat": 38.92253433333333, "is_reserved": 0, "bike_id": "bf0826629851d7b0a3e6510ff5bbcd2e", "lon": -77.04278783333334, "is_disabled": 0, "fusion_lat": 0.0, "fusion_lon": 0.0, "name": "bf0826629851d7b0a3e6510ff5bbcd2e", "type": "electric_scooter"}, {"rental_uris": {"ios": "https://dc.lft.to/lastmile_qr_scan", "android": "https://dc.lft.to/lastmile_qr_scan"}, "lat": 38.91132266666666, "is_reserved": 0, "bike_id": "09d67e4a36989b7965ddb1ec4fafaa82", "lon": -77.03842416666667, "is_disabled": 0, "fusion_lat": 0.0, "fusion_lon": 0.0, "name": "09d67e4a36989b7965ddb1ec4fafaa82", "type": "electric_scooter"}, {"rental_uris": {"ios": "https://dc.lft.to/lastmile_qr_scan", "android": "https://dc.lft.to/lastmile_qr_scan"}, "lat": 38.924711333333335, "is_reserved": 0, "bike_id": "838ced42ef87597f77e474ff9ed304e1", "lon": -77.022217, "is_disabled": 0, "fusion_lat": 0.0, "fusion_lon": 0.0, "name": "838ced42ef87597f77e474ff9ed304e1", "type": "electric_scooter"}, {"rental_uris": {"ios": "https://dc.lft.to/lastmile_qr_scan", "android": "https://dc.lft.to/lastmile_qr_scan"}, "lat": 38.92884683333333, "is_reserved": 0, "bike_id": "c92f6425cb6ff2c29d488d1429817c67", "lon": -77.03259233333333, "is_disabled": 0, "fusion_lat": 0.0, "fusion_lon": 0.0, "name": "c92f6425cb6ff2c29d488d1429817c67", "type": "electric_scooter"}, {"rental_uris": {"ios": "https://dc.lft.to/lastmile_qr_scan", "android": "https://dc.lft.to/lastmile_qr_scan"}, "lat": 38.89861483333333, "is_reserved": 0, "bike_id": "268bf1c8f4749bc2c14c8c149bbcedd5", "lon": -76.94645633333333, "is_disabled": 0, "fusion_lat": 0.0, "fusion_lon": 0.0, "name": "268bf1c8f4749bc2c14c8c149bbcedd5", "type": "electric_scooter"}, {"rental_uris": {"ios": "https://dc.lft.to/lastmile_qr_scan", "android": "https://dc.lft.to/lastmile_qr_scan"}, "lat": 38.9110915, "is_reserved": 0, "bike_id": "919827c46759a950b10e9a360217fedb", "lon": -77.03829916666666, "is_disabled": 0, "fusion_lat": 0.0, "fusion_lon": 0.0, "name": "919827c46759a950b10e9a360217fedb", "type": "electric_scooter"}, {"rental_uris": {"ios": "https://dc.lft.to/lastmile_qr_scan", "android": "https://dc.lft.to/lastmile_qr_scan"}, "lat": 38.88728733333333, "is_reserved": 0, "bike_id": "fe313578094fbd52a7e040b08db590da", "lon": -77.02582466666667, "is_disabled": 0, "fusion_lat": 0.0, "fusion_lon": 0.0, "name": "fe313578094fbd52a7e040b08db590da", "type": "electric_scooter"}, {"rental_uris": {"ios": "https://dc.lft.to/lastmile_qr_scan", "android": "https://dc.lft.to/lastmile_qr_scan"}, "lat": 38.935224833333336, "is_reserved": 0, "bike_id": "33b4e668d650f7c0b52e4083060fc479", "lon": -77.07656766666666, "is_disabled": 0, "fusion_lat": 0.0, "fusion_lon": 0.0, "name": "33b4e668d650f7c0b52e4083060fc479", "type": "electric_scooter"}, {"rental_uris": {"ios": "https://dc.lft.to/lastmile_qr_scan", "android": "https://dc.lft.to/lastmile_qr_scan"}, "lat": 38.932393833333336, "is_reserved": 0, "bike_id": "3c9087e384bc5d2d2e2f877ae55e3df4", "lon": -77.02848183333333, "is_disabled": 0, "fusion_lat": 0.0, "fusion_lon": 0.0, "name": "3c9087e384bc5d2d2e2f877ae55e3df4", "type": "electric_scooter"}, {"rental_uris": {"ios": "https://dc.lft.to/lastmile_qr_scan", "android": "https://dc.lft.to/lastmile_qr_scan"}, "lat": 38.90730533333333, "is_reserved": 0, "bike_id": "13ac3ec4eccb22e5fcaa3bd989351cd6", "lon": -77.01142233333333, "is_disabled": 0, "fusion_lat": 0.0, "fusion_lon": 0.0, "name": "13ac3ec4eccb22e5fcaa3bd989351cd6", "type": "electric_scooter"}, {"rental_uris": {"ios": "https://dc.lft.to/lastmile_qr_scan", "android": "https://dc.lft.to/lastmile_qr_scan"}, "lat": 38.899999333333334, "is_reserved": 0, "bike_id": "7b7eb9a31bf29adca21dee50b7768ed3", "lon": -77.02129066666667, "is_disabled": 0, "fusion_lat": 0.0, "fusion_lon": 0.0, "name": "7b7eb9a31bf29adca21dee50b7768ed3", "type": "electric_bike"}, {"rental_uris": {"ios": "https://dc.lft.to/lastmile_qr_scan", "android": "https://dc.lft.to/lastmile_qr_scan"}, "lat": 38.85791366666667, "is_reserved": 0, "bike_id": "ff4c5b079368e52c29ccb3c174c98098", "lon": -77.09963966666666, "is_disabled": 0, "fusion_lat": 0.0, "fusion_lon": 0.0, "name": "ff4c5b079368e52c29ccb3c174c98098", "type": "electric_bike"}, {"rental_uris": {"ios": "https://dc.lft.to/lastmile_qr_scan", "android": "https://dc.lft.to/lastmile_qr_scan"}, "lat": 38.89521033333333, "is_reserved": 0, "bike_id": "b48c878cb8c2c99924a1ed51202ad873", "lon": -77.00203233333333, "is_disabled": 0, "fusion_lat": 0.0, "fusion_lon": 0.0, "name": "b48c878cb8c2c99924a1ed51202ad873", "type": "electric_scooter"}, {"rental_uris": {"ios": "https://dc.lft.to/lastmile_qr_scan", "android": "https://dc.lft.to/lastmile_qr_scan"}, "lat": 38.917681, "is_reserved": 0, "bike_id": "c38c214ecaa010019d45e1d29cbfb62a", "lon": -77.0191645, "is_disabled": 0, "fusion_lat": 0.0, "fusion_lon": 0.0, "name": "c38c214ecaa010019d45e1d29cbfb62a", "type": "electric_scooter"}, {"rental_uris": {"ios": "https://dc.lft.to/lastmile_qr_scan", "android": "https://dc.lft.to/lastmile_qr_scan"}, "lat": 38.909140666666666, "is_reserved": 0, "bike_id": "3eabde92f0e2f49ba95497bc0af1eeeb", "lon": -76.98634483333333, "is_disabled": 0, "fusion_lat": 0.0, "fusion_lon": 0.0, "name": "3eabde92f0e2f49ba95497bc0af1eeeb", "type": "electric_scooter"}, {"rental_uris": {"ios": "https://dc.lft.to/lastmile_qr_scan", "android": "https://dc.lft.to/lastmile_qr_scan"}, "lat": 38.81608583333333, "is_reserved": 0, "bike_id": "5e1d69d013ef0ebdf53dcc702528ba20", "lon": -76.996582, "is_disabled": 0, "fusion_lat": 0.0, "fusion_lon": 0.0, "name": "5e1d69d013ef0ebdf53dcc702528ba20", "type": "electric_bike"}, {"rental_uris": {"ios": "https://dc.lft.to/lastmile_qr_scan", "android": "https://dc.lft.to/lastmile_qr_scan"}, "lat": 39.014129833333335, "is_reserved": 0, "bike_id": "cb387582c184eabc2f30cb13b8ee8908", "lon": -77.04499183333333, "is_disabled": 0, "fusion_lat": 0.0, "fusion_lon": 0.0, "name": "cb387582c184eabc2f30cb13b8ee8908", "type": "electric_bike"}, {"rental_uris": {"ios": "https://dc.lft.to/lastmile_qr_scan", "android": "https://dc.lft.to/lastmile_qr_scan"}, "lat": 38.9611145, "is_reserved": 0, "bike_id": "eba8b3da1d9e4c6c657d3feba3706be0", "lon": -77.00947266666667, "is_disabled": 0, "fusion_lat": 0.0, "fusion_lon": 0.0, "name": "eba8b3da1d9e4c6c657d3feba3706be0", "type": "electric_scooter"}, {"rental_uris": {"ios": "https://dc.lft.to/lastmile_qr_scan", "android": "https://dc.lft.to/lastmile_qr_scan"}, "lat": 38.930477833333335, "is_reserved": 0, "bike_id": "604bd2eca79892c92a0e69ac3911c240", "lon": -76.958351, "is_disabled": 0, "fusion_lat": 0.0, "fusion_lon": 0.0, "name": "604bd2eca79892c92a0e69ac3911c240", "type": "electric_bike"}, {"rental_uris": {"ios": "https://dc.lft.to/lastmile_qr_scan", "android": "https://dc.lft.to/lastmile_qr_scan"}, "lat": 38.896176, "is_reserved": 0, "bike_id": "24894f83414d437d1fbf9d5f66c2a72b", "lon": -77.02379933333333, "is_disabled": 0, "fusion_lat": 0.0, "fusion_lon": 0.0, "name": "24894f83414d437d1fbf9d5f66c2a72b", "type": "electric_scooter"}, {"rental_uris": {"ios": "https://dc.lft.to/lastmile_qr_scan", "android": "https://dc.lft.to/lastmile_qr_scan"}, "lat": 38.875696, "is_reserved": 0, "bike_id": "13e8b143285a596c71645d42a8199831", "lon": -77.00935266666667, "is_disabled": 0, "fusion_lat": 0.0, "fusion_lon": 0.0, "name": "13e8b143285a596c71645d42a8199831", "type": "electric_scooter"}, {"rental_uris": {"ios": "https://dc.lft.to/lastmile_qr_scan", "android": "https://dc.lft.to/lastmile_qr_scan"}, "lat": 38.8927035, "is_reserved": 0, "bike_id": "e6acd05ce25c90a473f92da4a0330dca", "lon": -77.019646, "is_disabled": 0, "fusion_lat": 0.0, "fusion_lon": 0.0, "name": "e6acd05ce25c90a473f92da4a0330dca", "type": "electric_scooter"}, {"rental_uris": {"ios": "https://dc.lft.to/lastmile_qr_scan", "android": "https://dc.lft.to/lastmile_qr_scan"}, "lat": 38.92252233333333, "is_reserved": 0, "bike_id": "48bad3b4b6c2da3c6b3e608b59a5ceb9", "lon": -77.0212265, "is_disabled": 0, "fusion_lat": 0.0, "fusion_lon": 0.0, "name": "48bad3b4b6c2da3c6b3e608b59a5ceb9", "type": "electric_scooter"}, {"rental_uris": {"ios": "https://dc.lft.to/lastmile_qr_scan", "android": "https://dc.lft.to/lastmile_qr_scan"}, "lat": 38.9035765, "is_reserved": 0, "bike_id": "076d2045ede9d182cc81f1cdb6041cec", "lon": -77.03877416666667, "is_disabled": 0, "fusion_lat": 0.0, "fusion_lon": 0.0, "name": "076d2045ede9d182cc81f1cdb6041cec", "type": "electric_scooter"}, {"rental_uris": {"ios": "https://dc.lft.to/lastmile_qr_scan", "android": "https://dc.lft.to/lastmile_qr_scan"}, "lat": 38.88227233333333, "is_reserved": 0, "bike_id": "5f0df3088ce60b0b314e91abb8dfb554", "lon": -76.98976516666667, "is_disabled": 0, "fusion_lat": 0.0, "fusion_lon": 0.0, "name": "5f0df3088ce60b0b314e91abb8dfb554", "type": "electric_scooter"}, {"rental_uris": {"ios": "https://dc.lft.to/lastmile_qr_scan", "android": "https://dc.lft.to/lastmile_qr_scan"}, "lat": 38.93122616666667, "is_reserved": 0, "bike_id": "3eee0e6876194847a267f605ce5c3599", "lon": -77.01991, "is_disabled": 0, "fusion_lat": 0.0, "fusion_lon": 0.0, "name": "3eee0e6876194847a267f605ce5c3599", "type": "electric_scooter"}, {"rental_uris": {"ios": "https://dc.lft.to/lastmile_qr_scan", "android": "https://dc.lft.to/lastmile_qr_scan"}, "lat": 38.876189, "is_reserved": 0, "bike_id": "6632922fc0d5422077827d0e2854d5a4", "lon": -77.00934966666667, "is_disabled": 0, "fusion_lat": 0.0, "fusion_lon": 0.0, "name": "6632922fc0d5422077827d0e2854d5a4", "type": "electric_scooter"}, {"rental_uris": {"ios": "https://dc.lft.to/lastmile_qr_scan", "android": "https://dc.lft.to/lastmile_qr_scan"}, "lat": 38.92035466666667, "is_reserved": 0, "bike_id": "144ce5e89946610536de9f8cdb86af1f", "lon": -77.0798035, "is_disabled": 0, "fusion_lat": 0.0, "fusion_lon": 0.0, "name": "144ce5e89946610536de9f8cdb86af1f", "type": "electric_scooter"}, {"rental_uris": {"ios": "https://dc.lft.to/lastmile_qr_scan", "android": "https://dc.lft.to/lastmile_qr_scan"}, "lat": 38.8206305, "is_reserved": 0, "bike_id": "d79d4214519f4699848533ba94be7af0", "lon": -77.05458783333333, "is_disabled": 0, "fusion_lat": 0.0, "fusion_lon": 0.0, "name": "d79d4214519f4699848533ba94be7af0", "type": "electric_bike"}, {"rental_uris": {"ios": "https://dc.lft.to/lastmile_qr_scan", "android": "https://dc.lft.to/lastmile_qr_scan"}, "lat": 38.8824585, "is_reserved": 0, "bike_id": "35f7137d2d8525fa7aa7c86548be5067", "lon": -76.9626625, "is_disabled": 0, "fusion_lat": 0.0, "fusion_lon": 0.0, "name": "35f7137d2d8525fa7aa7c86548be5067", "type": "electric_bike"}, {"rental_uris": {"ios": "https://dc.lft.to/lastmile_qr_scan", "android": "https://dc.lft.to/lastmile_qr_scan"}, "lat": 38.90787916666667, "is_reserved": 0, "bike_id": "11cc5a421138a8c07d31e5e27e0a5abb", "lon": -76.9986285, "is_disabled": 0, "fusion_lat": 0.0, "fusion_lon": 0.0, "name": "11cc5a421138a8c07d31e5e27e0a5abb", "type": "electric_scooter"}, {"rental_uris": {"ios": "https://dc.lft.to/lastmile_qr_scan", "android": "https://dc.lft.to/lastmile_qr_scan"}, "lat": 38.8949785, "is_reserved": 0, "bike_id": "3b3189866813159adad56c60c9958e13", "lon": -77.0230315, "is_disabled": 0, "fusion_lat": 0.0, "fusion_lon": 0.0, "name": "3b3189866813159adad56c60c9958e13", "type": "electric_scooter"}, {"rental_uris": {"ios": "https://dc.lft.to/lastmile_qr_scan", "android": "https://dc.lft.to/lastmile_qr_scan"}, "lat": 38.901572333333334, "is_reserved": 0, "bike_id": "5678cb858fe7644596c5ca0b9250bc8f", "lon": -76.97629833333333, "is_disabled": 0, "fusion_lat": 0.0, "fusion_lon": 0.0, "name": "5678cb858fe7644596c5ca0b9250bc8f", "type": "electric_scooter"}, {"rental_uris": {"ios": "https://dc.lft.to/lastmile_qr_scan", "android": "https://dc.lft.to/lastmile_qr_scan"}, "lat": 38.8987415, "is_reserved": 0, "bike_id": "e768305cc1cb5d436d992071b74e607b", "lon": -77.0186485, "is_disabled": 0, "fusion_lat": 0.0, "fusion_lon": 0.0, "name": "e768305cc1cb5d436d992071b74e607b", "type": "electric_scooter"}, {"rental_uris": {"ios": "https://dc.lft.to/lastmile_qr_scan", "android": "https://dc.lft.to/lastmile_qr_scan"}, "lat": 38.8669115, "is_reserved": 0, "bike_id": "9ce107e539496d87cf89016062e240e4", "lon": -76.98541666666667, "is_disabled": 0, "fusion_lat": 0.0, "fusion_lon": 0.0, "name": "9ce107e539496d87cf89016062e240e4", "type": "electric_scooter"}, {"rental_uris": {"ios": "https://dc.lft.to/lastmile_qr_scan", "android": "https://dc.lft.to/lastmile_qr_scan"}, "lat": 38.945100333333336, "is_reserved": 0, "bike_id": "2b6470f6997c3c33ae9ba39b9d6dead6", "lon": -77.03354483333334, "is_disabled": 0, "fusion_lat": 0.0, "fusion_lon": 0.0, "name": "2b6470f6997c3c33ae9ba39b9d6dead6", "type": "electric_scooter"}, {"rental_uris": {"ios": "https://dc.lft.to/lastmile_qr_scan", "android": "https://dc.lft.to/lastmile_qr_scan"}, "lat": 38.9205225, "is_reserved": 0, "bike_id": "5f4d69ab1afea648766802f29cc8439c", "lon": -77.02984616666667, "is_disabled": 0, "fusion_lat": 0.0, "fusion_lon": 0.0, "name": "5f4d69ab1afea648766802f29cc8439c", "type": "electric_scooter"}, {"rental_uris": {"ios": "https://dc.lft.to/lastmile_qr_scan", "android": "https://dc.lft.to/lastmile_qr_scan"}, "lat": 38.92151066666667, "is_reserved": 0, "bike_id": "0842831a0cce2f4df2df3633faff5fc1", "lon": -77.04243883333334, "is_disabled": 0, "fusion_lat": 0.0, "fusion_lon": 0.0, "name": "0842831a0cce2f4df2df3633faff5fc1", "type": "electric_bike"}, {"rental_uris": {"ios": "https://dc.lft.to/lastmile_qr_scan", "android": "https://dc.lft.to/lastmile_qr_scan"}, "lat": 38.92041, "is_reserved": 0, "bike_id": "65b3df7ef199fc526c5bc980e4867ef0", "lon": -77.01678733333334, "is_disabled": 0, "fusion_lat": 0.0, "fusion_lon": 0.0, "name": "65b3df7ef199fc526c5bc980e4867ef0", "type": "electric_scooter"}, {"rental_uris": {"ios": "https://dc.lft.to/lastmile_qr_scan", "android": "https://dc.lft.to/lastmile_qr_scan"}, "lat": 38.9022905, "is_reserved": 0, "bike_id": "5dca7647aee1a3b5011bf267b743ca3f", "lon": -77.043535, "is_disabled": 0, "fusion_lat": 0.0, "fusion_lon": 0.0, "name": "5dca7647aee1a3b5011bf267b743ca3f", "type": "electric_scooter"}, {"rental_uris": {"ios": "https://dc.lft.to/lastmile_qr_scan", "android": "https://dc.lft.to/lastmile_qr_scan"}, "lat": 38.89701783333334, "is_reserved": 0, "bike_id": "452cabf84e7808b53256c92a450554c3", "lon": -77.02716833333334, "is_disabled": 0, "fusion_lat": 0.0, "fusion_lon": 0.0, "name": "452cabf84e7808b53256c92a450554c3", "type": "electric_scooter"}, {"rental_uris": {"ios": "https://dc.lft.to/lastmile_qr_scan", "android": "https://dc.lft.to/lastmile_qr_scan"}, "lat": 38.9721595, "is_reserved": 0, "bike_id": "1489e8e86d769afc4f9e01e53de61fe0", "lon": -77.01425216666667, "is_disabled": 0, "fusion_lat": 0.0, "fusion_lon": 0.0, "name": "1489e8e86d769afc4f9e01e53de61fe0", "type": "electric_bike"}, {"rental_uris": {"ios": "https://dc.lft.to/lastmile_qr_scan", "android": "https://dc.lft.to/lastmile_qr_scan"}, "lat": 38.794653833333335, "is_reserved": 0, "bike_id": "d6ef3d913f52f38332aa5bf327f63eaa", "lon": -76.99247333333334, "is_disabled": 0, "fusion_lat": 0.0, "fusion_lon": 0.0, "name": "d6ef3d913f52f38332aa5bf327f63eaa", "type": "electric_bike"}, {"rental_uris": {"ios": "https://dc.lft.to/lastmile_qr_scan", "android": "https://dc.lft.to/lastmile_qr_scan"}, "lat": 38.900425, "is_reserved": 0, "bike_id": "5bfd36596008dd2dd141f7f408dfe53a", "lon": -77.00219266666667, "is_disabled": 0, "fusion_lat": 0.0, "fusion_lon": 0.0, "name": "5bfd36596008dd2dd141f7f408dfe53a", "type": "electric_scooter"}, {"rental_uris": {"ios": "https://dc.lft.to/lastmile_qr_scan", "android": "https://dc.lft.to/lastmile_qr_scan"}, "lat": 38.916818, "is_reserved": 0, "bike_id": "debc078b1b2c79d633d6b236deb73db1", "lon": -77.02291566666666, "is_disabled": 0, "fusion_lat": 0.0, "fusion_lon": 0.0, "name": "debc078b1b2c79d633d6b236deb73db1", "type": "electric_scooter"}, {"rental_uris": {"ios": "https://dc.lft.to/lastmile_qr_scan", "android": "https://dc.lft.to/lastmile_qr_scan"}, "lat": 38.900325333333335, "is_reserved": 0, "bike_id": "2d8155207f20a356c266a4d1dcba59b9", "lon": -77.058258, "is_disabled": 0, "fusion_lat": 0.0, "fusion_lon": 0.0, "name": "2d8155207f20a356c266a4d1dcba59b9", "type": "electric_scooter"}, {"rental_uris": {"ios": "https://dc.lft.to/lastmile_qr_scan", "android": "https://dc.lft.to/lastmile_qr_scan"}, "lat": 38.94381766666667, "is_reserved": 0, "bike_id": "bee62ac6a73d7eef435f01df84409877", "lon": -77.07700016666666, "is_disabled": 0, "fusion_lat": 0.0, "fusion_lon": 0.0, "name": "bee62ac6a73d7eef435f01df84409877", "type": "electric_scooter"}, {"rental_uris": {"ios": "https://dc.lft.to/lastmile_qr_scan", "android": "https://dc.lft.to/lastmile_qr_scan"}, "lat": 38.845522833333334, "is_reserved": 0, "bike_id": "4cb9a110cf6621883a80e9dee30b728f", "lon": -76.9877815, "is_disabled": 0, "fusion_lat": 0.0, "fusion_lon": 0.0, "name": "4cb9a110cf6621883a80e9dee30b728f", "type": "electric_bike"}, {"rental_uris": {"ios": "https://dc.lft.to/lastmile_qr_scan", "android": "https://dc.lft.to/lastmile_qr_scan"}, "lat": 38.85650833333333, "is_reserved": 0, "bike_id": "dab558e433e491bafafdf031149ae8e8", "lon": -77.08529016666667, "is_disabled": 0, "fusion_lat": 0.0, "fusion_lon": 0.0, "name": "dab558e433e491bafafdf031149ae8e8", "type": "electric_bike"}, {"rental_uris": {"ios": "https://dc.lft.to/lastmile_qr_scan", "android": "https://dc.lft.to/lastmile_qr_scan"}, "lat": 38.9033435, "is_reserved": 0, "bike_id": "8b3c64a38356712333600a40db7cc9cb", "lon": -77.05901166666666, "is_disabled": 0, "fusion_lat": 0.0, "fusion_lon": 0.0, "name": "8b3c64a38356712333600a40db7cc9cb", "type": "electric_scooter"}, {"rental_uris": {"ios": "https://dc.lft.to/lastmile_qr_scan", "android": "https://dc.lft.to/lastmile_qr_scan"}, "lat": 38.87287466666667, "is_reserved": 0, "bike_id": "5168c0cffd9bd3fe9dd069ba4a58e32f", "lon": -76.9996, "is_disabled": 0, "fusion_lat": 0.0, "fusion_lon": 0.0, "name": "5168c0cffd9bd3fe9dd069ba4a58e32f", "type": "electric_scooter"}, {"rental_uris": {"ios": "https://dc.lft.to/lastmile_qr_scan", "android": "https://dc.lft.to/lastmile_qr_scan"}, "lat": 38.857094000000004, "is_reserved": 0, "bike_id": "051955ee632b2e778a4415cf59fa6b6c", "lon": -76.9959045, "is_disabled": 0, "fusion_lat": 0.0, "fusion_lon": 0.0, "name": "051955ee632b2e778a4415cf59fa6b6c", "type": "electric_scooter"}, {"rental_uris": {"ios": "https://dc.lft.to/lastmile_qr_scan", "android": "https://dc.lft.to/lastmile_qr_scan"}, "lat": 38.91699416666667, "is_reserved": 0, "bike_id": "f4b1f634bde3e2b6d4d69e82619c86e9", "lon": -77.02888833333333, "is_disabled": 0, "fusion_lat": 0.0, "fusion_lon": 0.0, "name": "f4b1f634bde3e2b6d4d69e82619c86e9", "type": "electric_scooter"}, {"rental_uris": {"ios": "https://dc.lft.to/lastmile_qr_scan", "android": "https://dc.lft.to/lastmile_qr_scan"}, "lat": 38.9112015, "is_reserved": 0, "bike_id": "475fa1993d6a54ddd606d8f609592639", "lon": -77.04236716666666, "is_disabled": 0, "fusion_lat": 0.0, "fusion_lon": 0.0, "name": "475fa1993d6a54ddd606d8f609592639", "type": "electric_scooter"}, {"rental_uris": {"ios": "https://dc.lft.to/lastmile_qr_scan", "android": "https://dc.lft.to/lastmile_qr_scan"}, "lat": 38.911101333333335, "is_reserved": 0, "bike_id": "e4821d5e4a9be61df742d7af22bd8363", "lon": -77.03839866666667, "is_disabled": 0, "fusion_lat": 0.0, "fusion_lon": 0.0, "name": "e4821d5e4a9be61df742d7af22bd8363", "type": "electric_scooter"}, {"rental_uris": {"ios": "https://dc.lft.to/lastmile_qr_scan", "android": "https://dc.lft.to/lastmile_qr_scan"}, "lat": 38.938513666666665, "is_reserved": 0, "bike_id": "444aabe654842af5f1e529e77ecd3df9", "lon": -77.0249085, "is_disabled": 0, "fusion_lat": 0.0, "fusion_lon": 0.0, "name": "444aabe654842af5f1e529e77ecd3df9", "type": "electric_scooter"}, {"rental_uris": {"ios": "https://dc.lft.to/lastmile_qr_scan", "android": "https://dc.lft.to/lastmile_qr_scan"}, "lat": 38.92141383333333, "is_reserved": 0, "bike_id": "c20ff3f441b3337119b1b964cf7cad95", "lon": -77.019159, "is_disabled": 0, "fusion_lat": 0.0, "fusion_lon": 0.0, "name": "c20ff3f441b3337119b1b964cf7cad95", "type": "electric_scooter"}, {"rental_uris": {"ios": "https://dc.lft.to/lastmile_qr_scan", "android": "https://dc.lft.to/lastmile_qr_scan"}, "lat": 38.9318315, "is_reserved": 0, "bike_id": "4742aac1f54d2f6cc3b724bb11b3f08d", "lon": -77.043004, "is_disabled": 0, "fusion_lat": 0.0, "fusion_lon": 0.0, "name": "4742aac1f54d2f6cc3b724bb11b3f08d", "type": "electric_scooter"}, {"rental_uris": {"ios": "https://dc.lft.to/lastmile_qr_scan", "android": "https://dc.lft.to/lastmile_qr_scan"}, "lat": 38.91985783333333, "is_reserved": 0, "bike_id": "403cc1d2a415cbaedfc9c5269c379cee", "lon": -76.97306916666666, "is_disabled": 0, "fusion_lat": 0.0, "fusion_lon": 0.0, "name": "403cc1d2a415cbaedfc9c5269c379cee", "type": "electric_scooter"}, {"rental_uris": {"ios": "https://dc.lft.to/lastmile_qr_scan", "android": "https://dc.lft.to/lastmile_qr_scan"}, "lat": 38.88183333333333, "is_reserved": 0, "bike_id": "9e473fa45c968bebf8ea1dfb64dec877", "lon": -76.95888516666666, "is_disabled": 0, "fusion_lat": 0.0, "fusion_lon": 0.0, "name": "9e473fa45c968bebf8ea1dfb64dec877", "type": "electric_scooter"}, {"rental_uris": {"ios": "https://dc.lft.to/lastmile_qr_scan", "android": "https://dc.lft.to/lastmile_qr_scan"}, "lat": 38.89612566666667, "is_reserved": 0, "bike_id": "884068a247d45396745da797be708a6b", "lon": -77.0263435, "is_disabled": 0, "fusion_lat": 0.0, "fusion_lon": 0.0, "name": "884068a247d45396745da797be708a6b", "type": "electric_scooter"}, {"rental_uris": {"ios": "https://dc.lft.to/lastmile_qr_scan", "android": "https://dc.lft.to/lastmile_qr_scan"}, "lat": 38.894409333333336, "is_reserved": 0, "bike_id": "9bce26f52fe30cb20a920cfdc091877f", "lon": -77.03962316666667, "is_disabled": 0, "fusion_lat": 0.0, "fusion_lon": 0.0, "name": "9bce26f52fe30cb20a920cfdc091877f", "type": "electric_scooter"}, {"rental_uris": {"ios": "https://dc.lft.to/lastmile_qr_scan", "android": "https://dc.lft.to/lastmile_qr_scan"}, "lat": 38.88603783333333, "is_reserved": 0, "bike_id": "beebc11454599d9466607f28901b0d76", "lon": -76.955983, "is_disabled": 0, "fusion_lat": 0.0, "fusion_lon": 0.0, "name": "beebc11454599d9466607f28901b0d76", "type": "electric_scooter"}, {"rental_uris": {"ios": "https://dc.lft.to/lastmile_qr_scan", "android": "https://dc.lft.to/lastmile_qr_scan"}, "lat": 38.90281066666667, "is_reserved": 0, "bike_id": "1aa429a2931ab7afb864dc619804418f", "lon": -77.0227455, "is_disabled": 0, "fusion_lat": 0.0, "fusion_lon": 0.0, "name": "1aa429a2931ab7afb864dc619804418f", "type": "electric_scooter"}, {"rental_uris": {"ios": "https://dc.lft.to/lastmile_qr_scan", "android": "https://dc.lft.to/lastmile_qr_scan"}, "lat": 38.90492283333333, "is_reserved": 0, "bike_id": "1e67b44b8bd5265bf26ca29af50437c0", "lon": -77.044841, "is_disabled": 0, "fusion_lat": 0.0, "fusion_lon": 0.0, "name": "1e67b44b8bd5265bf26ca29af50437c0", "type": "electric_scooter"}, {"rental_uris": {"ios": "https://dc.lft.to/lastmile_qr_scan", "android": "https://dc.lft.to/lastmile_qr_scan"}, "lat": 38.862576833333335, "is_reserved": 0, "bike_id": "45d1abf51fd22a1d4a365eb44141f93e", "lon": -76.99261333333334, "is_disabled": 0, "fusion_lat": 0.0, "fusion_lon": 0.0, "name": "45d1abf51fd22a1d4a365eb44141f93e", "type": "electric_scooter"}, {"rental_uris": {"ios": "https://dc.lft.to/lastmile_qr_scan", "android": "https://dc.lft.to/lastmile_qr_scan"}, "lat": 38.93592316666667, "is_reserved": 0, "bike_id": "a0990a0c80e86890c501d1902aa7a6e3", "lon": -77.0381215, "is_disabled": 0, "fusion_lat": 0.0, "fusion_lon": 0.0, "name": "a0990a0c80e86890c501d1902aa7a6e3", "type": "electric_scooter"}, {"rental_uris": {"ios": "https://dc.lft.to/lastmile_qr_scan", "android": "https://dc.lft.to/lastmile_qr_scan"}, "lat": 38.904308, "is_reserved": 0, "bike_id": "188b9cdc35cfc40b10643209d192a57d", "lon": -77.04358316666666, "is_disabled": 0, "fusion_lat": 0.0, "fusion_lon": 0.0, "name": "188b9cdc35cfc40b10643209d192a57d", "type": "electric_scooter"}, {"rental_uris": {"ios": "https://dc.lft.to/lastmile_qr_scan", "android": "https://dc.lft.to/lastmile_qr_scan"}, "lat": 38.91669483333333, "is_reserved": 0, "bike_id": "23d154de12606fd3a171f116aa90a159", "lon": -77.03205666666666, "is_disabled": 0, "fusion_lat": 0.0, "fusion_lon": 0.0, "name": "23d154de12606fd3a171f116aa90a159", "type": "electric_scooter"}, {"rental_uris": {"ios": "https://dc.lft.to/lastmile_qr_scan", "android": "https://dc.lft.to/lastmile_qr_scan"}, "lat": 38.89728866666667, "is_reserved": 0, "bike_id": "3e6632dfb928e983f814812b8b281564", "lon": -77.0076085, "is_disabled": 0, "fusion_lat": 0.0, "fusion_lon": 0.0, "name": "3e6632dfb928e983f814812b8b281564", "type": "electric_scooter"}, {"rental_uris": {"ios": "https://dc.lft.to/lastmile_qr_scan", "android": "https://dc.lft.to/lastmile_qr_scan"}, "lat": 38.89997666666667, "is_reserved": 0, "bike_id": "b61c6b3950d81ffbae7d720679adab87", "lon": -76.9995705, "is_disabled": 0, "fusion_lat": 0.0, "fusion_lon": 0.0, "name": "b61c6b3950d81ffbae7d720679adab87", "type": "electric_scooter"}, {"rental_uris": {"ios": "https://dc.lft.to/lastmile_qr_scan", "android": "https://dc.lft.to/lastmile_qr_scan"}, "lat": 38.9024925, "is_reserved": 0, "bike_id": "dc146c833c3635cd5e6ea43f527bf4d7", "lon": -77.00187016666666, "is_disabled": 0, "fusion_lat": 0.0, "fusion_lon": 0.0, "name": "dc146c833c3635cd5e6ea43f527bf4d7", "type": "electric_scooter"}, {"rental_uris": {"ios": "https://dc.lft.to/lastmile_qr_scan", "android": "https://dc.lft.to/lastmile_qr_scan"}, "lat": 38.920592166666665, "is_reserved": 0, "bike_id": "8b921b434611db2b1fdd528c35a63906", "lon": -77.02435116666666, "is_disabled": 0, "fusion_lat": 0.0, "fusion_lon": 0.0, "name": "8b921b434611db2b1fdd528c35a63906", "type": "electric_scooter"}, {"rental_uris": {"ios": "https://dc.lft.to/lastmile_qr_scan", "android": "https://dc.lft.to/lastmile_qr_scan"}, "lat": 38.87384733333333, "is_reserved": 0, "bike_id": "47ae93c2d412b13580fdfc951a4833f6", "lon": -77.00000933333334, "is_disabled": 0, "fusion_lat": 0.0, "fusion_lon": 0.0, "name": "47ae93c2d412b13580fdfc951a4833f6", "type": "electric_scooter"}, {"rental_uris": {"ios": "https://dc.lft.to/lastmile_qr_scan", "android": "https://dc.lft.to/lastmile_qr_scan"}, "lat": 38.92699416666667, "is_reserved": 0, "bike_id": "60c5e7f2b4b5127b7eee0c1e8af97d63", "lon": -77.02438733333334, "is_disabled": 0, "fusion_lat": 0.0, "fusion_lon": 0.0, "name": "60c5e7f2b4b5127b7eee0c1e8af97d63", "type": "electric_scooter"}, {"rental_uris": {"ios": "https://dc.lft.to/lastmile_qr_scan", "android": "https://dc.lft.to/lastmile_qr_scan"}, "lat": 38.917049666666664, "is_reserved": 0, "bike_id": "4cc3cb78a9d689d53e23c4342f5da160", "lon": -77.03223516666667, "is_disabled": 0, "fusion_lat": 0.0, "fusion_lon": 0.0, "name": "4cc3cb78a9d689d53e23c4342f5da160", "type": "electric_scooter"}, {"rental_uris": {"ios": "https://dc.lft.to/lastmile_qr_scan", "android": "https://dc.lft.to/lastmile_qr_scan"}, "lat": 38.926509833333334, "is_reserved": 0, "bike_id": "35da7f3f2d2657c40b9d8c6f0ac95df4", "lon": -77.03730016666667, "is_disabled": 0, "fusion_lat": 0.0, "fusion_lon": 0.0, "name": "35da7f3f2d2657c40b9d8c6f0ac95df4", "type": "electric_scooter"}, {"rental_uris": {"ios": "https://dc.lft.to/lastmile_qr_scan", "android": "https://dc.lft.to/lastmile_qr_scan"}, "lat": 38.93292266666667, "is_reserved": 0, "bike_id": "4c10b9f6a79d3ab877f2ebb0c6562f16", "lon": -77.028504, "is_disabled": 0, "fusion_lat": 0.0, "fusion_lon": 0.0, "name": "4c10b9f6a79d3ab877f2ebb0c6562f16", "type": "electric_scooter"}, {"rental_uris": {"ios": "https://dc.lft.to/lastmile_qr_scan", "android": "https://dc.lft.to/lastmile_qr_scan"}, "lat": 38.92365133333333, "is_reserved": 0, "bike_id": "789647f80e242c275b2c39384d0c87bb", "lon": -77.05050883333334, "is_disabled": 0, "fusion_lat": 0.0, "fusion_lon": 0.0, "name": "789647f80e242c275b2c39384d0c87bb", "type": "electric_scooter"}, {"rental_uris": {"ios": "https://dc.lft.to/lastmile_qr_scan", "android": "https://dc.lft.to/lastmile_qr_scan"}, "lat": 38.8961635, "is_reserved": 0, "bike_id": "a56606e3b6c3a46f7dd614fbd5a1d2c8", "lon": -77.00923233333333, "is_disabled": 0, "fusion_lat": 0.0, "fusion_lon": 0.0, "name": "a56606e3b6c3a46f7dd614fbd5a1d2c8", "type": "electric_scooter"}, {"rental_uris": {"ios": "https://dc.lft.to/lastmile_qr_scan", "android": "https://dc.lft.to/lastmile_qr_scan"}, "lat": 38.89250533333333, "is_reserved": 0, "bike_id": "0f444b60ce806cad9a73cc8818906ea5", "lon": -77.0395905, "is_disabled": 0, "fusion_lat": 0.0, "fusion_lon": 0.0, "name": "0f444b60ce806cad9a73cc8818906ea5", "type": "electric_scooter"}, {"rental_uris": {"ios": "https://dc.lft.to/lastmile_qr_scan", "android": "https://dc.lft.to/lastmile_qr_scan"}, "lat": 38.89664333333333, "is_reserved": 0, "bike_id": "4bbd5fa38e2e63224c347829b4e026d0", "lon": -77.0238725, "is_disabled": 0, "fusion_lat": 0.0, "fusion_lon": 0.0, "name": "4bbd5fa38e2e63224c347829b4e026d0", "type": "electric_scooter"}, {"rental_uris": {"ios": "https://dc.lft.to/lastmile_qr_scan", "android": "https://dc.lft.to/lastmile_qr_scan"}, "lat": 38.88483166666666, "is_reserved": 0, "bike_id": "01ec04a4237e18c8d3bb98ce1c4b863b", "lon": -76.956473, "is_disabled": 0, "fusion_lat": 0.0, "fusion_lon": 0.0, "name": "01ec04a4237e18c8d3bb98ce1c4b863b", "type": "electric_scooter"}, {"rental_uris": {"ios": "https://dc.lft.to/lastmile_qr_scan", "android": "https://dc.lft.to/lastmile_qr_scan"}, "lat": 38.909115666666665, "is_reserved": 0, "bike_id": "86a8f8c9f2c73340cca42a13fe71a9e1", "lon": -77.07190816666666, "is_disabled": 0, "fusion_lat": 0.0, "fusion_lon": 0.0, "name": "86a8f8c9f2c73340cca42a13fe71a9e1", "type": "electric_scooter"}, {"rental_uris": {"ios": "https://dc.lft.to/lastmile_qr_scan", "android": "https://dc.lft.to/lastmile_qr_scan"}, "lat": 38.90107166666667, "is_reserved": 0, "bike_id": "2768c9af09c3db80f1b1a68241e1726a", "lon": -77.03176316666666, "is_disabled": 0, "fusion_lat": 0.0, "fusion_lon": 0.0, "name": "2768c9af09c3db80f1b1a68241e1726a", "type": "electric_scooter"}, {"rental_uris": {"ios": "https://dc.lft.to/lastmile_qr_scan", "android": "https://dc.lft.to/lastmile_qr_scan"}, "lat": 38.902713, "is_reserved": 0, "bike_id": "5196bdb76b18f1ed305264132f349c50", "lon": -77.0344175, "is_disabled": 0, "fusion_lat": 0.0, "fusion_lon": 0.0, "name": "5196bdb76b18f1ed305264132f349c50", "type": "electric_scooter"}, {"rental_uris": {"ios": "https://dc.lft.to/lastmile_qr_scan", "android": "https://dc.lft.to/lastmile_qr_scan"}, "lat": 38.88746116666667, "is_reserved": 0, "bike_id": "6339ef3d9055a79aac6c99d878e83f43", "lon": -77.02231066666667, "is_disabled": 0, "fusion_lat": 0.0, "fusion_lon": 0.0, "name": "6339ef3d9055a79aac6c99d878e83f43", "type": "electric_scooter"}, {"rental_uris": {"ios": "https://dc.lft.to/lastmile_qr_scan", "android": "https://dc.lft.to/lastmile_qr_scan"}, "lat": 38.903943, "is_reserved": 0, "bike_id": "50cae85ddce982229664ac4f0f3977ac", "lon": -77.040184, "is_disabled": 0, "fusion_lat": 0.0, "fusion_lon": 0.0, "name": "50cae85ddce982229664ac4f0f3977ac", "type": "electric_scooter"}, {"rental_uris": {"ios": "https://dc.lft.to/lastmile_qr_scan", "android": "https://dc.lft.to/lastmile_qr_scan"}, "lat": 38.92736433333334, "is_reserved": 0, "bike_id": "aedaf072054512704a8390c3c49b29c0", "lon": -77.0331335, "is_disabled": 0, "fusion_lat": 0.0, "fusion_lon": 0.0, "name": "aedaf072054512704a8390c3c49b29c0", "type": "electric_scooter"}, {"rental_uris": {"ios": "https://dc.lft.to/lastmile_qr_scan", "android": "https://dc.lft.to/lastmile_qr_scan"}, "lat": 38.839441, "is_reserved": 0, "bike_id": "f7542d2a99c6090a72054cae5993cc55", "lon": -77.0875565, "is_disabled": 0, "fusion_lat": 0.0, "fusion_lon": 0.0, "name": "f7542d2a99c6090a72054cae5993cc55", "type": "electric_bike"}, {"rental_uris": {"ios": "https://dc.lft.to/lastmile_qr_scan", "android": "https://dc.lft.to/lastmile_qr_scan"}, "lat": 38.92474, "is_reserved": 0, "bike_id": "5d15b8e3ec7565d2215802702524a559", "lon": -77.022164, "is_disabled": 0, "fusion_lat": 0.0, "fusion_lon": 0.0, "name": "5d15b8e3ec7565d2215802702524a559", "type": "electric_scooter"}, {"rental_uris": {"ios": "https://dc.lft.to/lastmile_qr_scan", "android": "https://dc.lft.to/lastmile_qr_scan"}, "lat": 38.923232, "is_reserved": 0, "bike_id": "42379abac7b539cf10d9f0cbe745b5b6", "lon": -77.0452095, "is_disabled": 0, "fusion_lat": 0.0, "fusion_lon": 0.0, "name": "42379abac7b539cf10d9f0cbe745b5b6", "type": "electric_scooter"}, {"rental_uris": {"ios": "https://dc.lft.to/lastmile_qr_scan", "android": "https://dc.lft.to/lastmile_qr_scan"}, "lat": 38.900546166666665, "is_reserved": 0, "bike_id": "0470d2b4ad6c57647a05470264998923", "lon": -77.01293966666667, "is_disabled": 0, "fusion_lat": 0.0, "fusion_lon": 0.0, "name": "0470d2b4ad6c57647a05470264998923", "type": "electric_bike"}, {"rental_uris": {"ios": "https://dc.lft.to/lastmile_qr_scan", "android": "https://dc.lft.to/lastmile_qr_scan"}, "lat": 38.922552, "is_reserved": 0, "bike_id": "4185bfdae645421ff81dd0b671cd5abd", "lon": -77.0352515, "is_disabled": 0, "fusion_lat": 0.0, "fusion_lon": 0.0, "name": "4185bfdae645421ff81dd0b671cd5abd", "type": "electric_scooter"}, {"rental_uris": {"ios": "https://dc.lft.to/lastmile_qr_scan", "android": "https://dc.lft.to/lastmile_qr_scan"}, "lat": 38.92355666666667, "is_reserved": 0, "bike_id": "abd3f7e89540d80ab615f476ecb927a1", "lon": -77.04391916666667, "is_disabled": 0, "fusion_lat": 0.0, "fusion_lon": 0.0, "name": "abd3f7e89540d80ab615f476ecb927a1", "type": "electric_scooter"}, {"rental_uris": {"ios": "https://dc.lft.to/lastmile_qr_scan", "android": "https://dc.lft.to/lastmile_qr_scan"}, "lat": 38.89858533333334, "is_reserved": 0, "bike_id": "5b113ecefca363e2445f376da11bfdf2", "lon": -76.9463785, "is_disabled": 0, "fusion_lat": 0.0, "fusion_lon": 0.0, "name": "5b113ecefca363e2445f376da11bfdf2", "type": "electric_scooter"}, {"rental_uris": {"ios": "https://dc.lft.to/lastmile_qr_scan", "android": "https://dc.lft.to/lastmile_qr_scan"}, "lat": 38.955008666666664, "is_reserved": 0, "bike_id": "1fe3ec3769154b7607f58a211d4855d0", "lon": -77.00199716666667, "is_disabled": 0, "fusion_lat": 0.0, "fusion_lon": 0.0, "name": "1fe3ec3769154b7607f58a211d4855d0", "type": "electric_bike"}, {"rental_uris": {"ios": "https://dc.lft.to/lastmile_qr_scan", "android": "https://dc.lft.to/lastmile_qr_scan"}, "lat": 38.916979833333336, "is_reserved": 0, "bike_id": "20f56c659b54b3dc1d48c5d775d0b8db", "lon": -77.031437, "is_disabled": 0, "fusion_lat": 0.0, "fusion_lon": 0.0, "name": "20f56c659b54b3dc1d48c5d775d0b8db", "type": "electric_scooter"}, {"rental_uris": {"ios": "https://dc.lft.to/lastmile_qr_scan", "android": "https://dc.lft.to/lastmile_qr_scan"}, "lat": 38.876468333333335, "is_reserved": 0, "bike_id": "a68c04ab7105dbd713f3c4085fd9745c", "lon": -77.004132, "is_disabled": 0, "fusion_lat": 0.0, "fusion_lon": 0.0, "name": "a68c04ab7105dbd713f3c4085fd9745c", "type": "electric_scooter"}, {"rental_uris": {"ios": "https://dc.lft.to/lastmile_qr_scan", "android": "https://dc.lft.to/lastmile_qr_scan"}, "lat": 38.86681433333333, "is_reserved": 0, "bike_id": "62cf055e37200ad3db0ede26a29c9d01", "lon": -76.9856735, "is_disabled": 0, "fusion_lat": 0.0, "fusion_lon": 0.0, "name": "62cf055e37200ad3db0ede26a29c9d01", "type": "electric_scooter"}, {"rental_uris": {"ios": "https://dc.lft.to/lastmile_qr_scan", "android": "https://dc.lft.to/lastmile_qr_scan"}, "lat": 38.90323633333333, "is_reserved": 0, "bike_id": "0f716b1c092a954f46eff41f1455a1fe", "lon": -76.975504, "is_disabled": 0, "fusion_lat": 0.0, "fusion_lon": 0.0, "name": "0f716b1c092a954f46eff41f1455a1fe", "type": "electric_scooter"}, {"rental_uris": {"ios": "https://dc.lft.to/lastmile_qr_scan", "android": "https://dc.lft.to/lastmile_qr_scan"}, "lat": 38.920757333333334, "is_reserved": 0, "bike_id": "3d7e9f21c06aa05316b5625511e5296f", "lon": -77.02553166666667, "is_disabled": 0, "fusion_lat": 0.0, "fusion_lon": 0.0, "name": "3d7e9f21c06aa05316b5625511e5296f", "type": "electric_scooter"}, {"rental_uris": {"ios": "https://dc.lft.to/lastmile_qr_scan", "android": "https://dc.lft.to/lastmile_qr_scan"}, "lat": 38.90414616666666, "is_reserved": 0, "bike_id": "41b85631201a197748b95484dcc7ff52", "lon": -77.05909716666666, "is_disabled": 0, "fusion_lat": 0.0, "fusion_lon": 0.0, "name": "41b85631201a197748b95484dcc7ff52", "type": "electric_scooter"}, {"rental_uris": {"ios": "https://dc.lft.to/lastmile_qr_scan", "android": "https://dc.lft.to/lastmile_qr_scan"}, "lat": 38.9009915, "is_reserved": 0, "bike_id": "c8e2b40400e0e016bd9fd67d48837590", "lon": -77.01675216666666, "is_disabled": 0, "fusion_lat": 0.0, "fusion_lon": 0.0, "name": "c8e2b40400e0e016bd9fd67d48837590", "type": "electric_scooter"}, {"rental_uris": {"ios": "https://dc.lft.to/lastmile_qr_scan", "android": "https://dc.lft.to/lastmile_qr_scan"}, "lat": 38.87901266666667, "is_reserved": 0, "bike_id": "37a59ce78cdc512b811890dc2fea8c9f", "lon": -77.02225383333334, "is_disabled": 0, "fusion_lat": 0.0, "fusion_lon": 0.0, "name": "37a59ce78cdc512b811890dc2fea8c9f", "type": "electric_scooter"}, {"rental_uris": {"ios": "https://dc.lft.to/lastmile_qr_scan", "android": "https://dc.lft.to/lastmile_qr_scan"}, "lat": 38.886439833333334, "is_reserved": 0, "bike_id": "9503b734aa8b3087c4f740ba090f32d2", "lon": -77.01518916666667, "is_disabled": 0, "fusion_lat": 0.0, "fusion_lon": 0.0, "name": "9503b734aa8b3087c4f740ba090f32d2", "type": "electric_scooter"}, {"rental_uris": {"ios": "https://dc.lft.to/lastmile_qr_scan", "android": "https://dc.lft.to/lastmile_qr_scan"}, "lat": 38.91916533333333, "is_reserved": 0, "bike_id": "056afe10b53b9f673cb8f516b5552c39", "lon": -77.02953733333334, "is_disabled": 0, "fusion_lat": 0.0, "fusion_lon": 0.0, "name": "056afe10b53b9f673cb8f516b5552c39", "type": "electric_scooter"}, {"rental_uris": {"ios": "https://dc.lft.to/lastmile_qr_scan", "android": "https://dc.lft.to/lastmile_qr_scan"}, "lat": 38.90027966666667, "is_reserved": 0, "bike_id": "cdc1f3c8ed999bf969b36fc99f6aeddf", "lon": -77.01223566666667, "is_disabled": 0, "fusion_lat": 0.0, "fusion_lon": 0.0, "name": "cdc1f3c8ed999bf969b36fc99f6aeddf", "type": "electric_scooter"}, {"rental_uris": {"ios": "https://dc.lft.to/lastmile_qr_scan", "android": "https://dc.lft.to/lastmile_qr_scan"}, "lat": 38.900355833333336, "is_reserved": 0, "bike_id": "860bab8d55c9df005cb62709fce9b268", "lon": -76.9883045, "is_disabled": 0, "fusion_lat": 0.0, "fusion_lon": 0.0, "name": "860bab8d55c9df005cb62709fce9b268", "type": "electric_scooter"}, {"rental_uris": {"ios": "https://dc.lft.to/lastmile_qr_scan", "android": "https://dc.lft.to/lastmile_qr_scan"}, "lat": 38.9103395, "is_reserved": 0, "bike_id": "653553a11e3d35d0589b9630c872dda9", "lon": -77.04360816666667, "is_disabled": 0, "fusion_lat": 0.0, "fusion_lon": 0.0, "name": "653553a11e3d35d0589b9630c872dda9", "type": "electric_scooter"}, {"rental_uris": {"ios": "https://dc.lft.to/lastmile_qr_scan", "android": "https://dc.lft.to/lastmile_qr_scan"}, "lat": 38.924218333333336, "is_reserved": 0, "bike_id": "9fef2ee2f7d6d5415d335d6ed4bbcfc8", "lon": -77.05751766666667, "is_disabled": 0, "fusion_lat": 0.0, "fusion_lon": 0.0, "name": "9fef2ee2f7d6d5415d335d6ed4bbcfc8", "type": "electric_scooter"}, {"rental_uris": {"ios": "https://dc.lft.to/lastmile_qr_scan", "android": "https://dc.lft.to/lastmile_qr_scan"}, "lat": 38.92291683333333, "is_reserved": 0, "bike_id": "7d1afc313c95d004651550db33d6ca28", "lon": -77.03662983333334, "is_disabled": 0, "fusion_lat": 0.0, "fusion_lon": 0.0, "name": "7d1afc313c95d004651550db33d6ca28", "type": "electric_scooter"}, {"rental_uris": {"ios": "https://dc.lft.to/lastmile_qr_scan", "android": "https://dc.lft.to/lastmile_qr_scan"}, "lat": 38.92367483333334, "is_reserved": 0, "bike_id": "c3132248195e353c44a4de5ec0173ac5", "lon": -77.05030666666667, "is_disabled": 0, "fusion_lat": 0.0, "fusion_lon": 0.0, "name": "c3132248195e353c44a4de5ec0173ac5", "type": "electric_scooter"}, {"rental_uris": {"ios": "https://dc.lft.to/lastmile_qr_scan", "android": "https://dc.lft.to/lastmile_qr_scan"}, "lat": 38.952606, "is_reserved": 0, "bike_id": "971744befa53112d13ddf446335bccaf", "lon": -77.00196483333333, "is_disabled": 0, "fusion_lat": 0.0, "fusion_lon": 0.0, "name": "971744befa53112d13ddf446335bccaf", "type": "electric_scooter"}, {"rental_uris": {"ios": "https://dc.lft.to/lastmile_qr_scan", "android": "https://dc.lft.to/lastmile_qr_scan"}, "lat": 38.896435333333336, "is_reserved": 0, "bike_id": "7f9524cd68a09c7f376168dc4e473d8f", "lon": -77.02633433333334, "is_disabled": 0, "fusion_lat": 0.0, "fusion_lon": 0.0, "name": "7f9524cd68a09c7f376168dc4e473d8f", "type": "electric_scooter"}, {"rental_uris": {"ios": "https://dc.lft.to/lastmile_qr_scan", "android": "https://dc.lft.to/lastmile_qr_scan"}, "lat": 38.927138, "is_reserved": 0, "bike_id": "7c290bd41408a1c0db6368700129ebb0", "lon": -77.02315266666666, "is_disabled": 0, "fusion_lat": 0.0, "fusion_lon": 0.0, "name": "7c290bd41408a1c0db6368700129ebb0", "type": "electric_scooter"}, {"rental_uris": {"ios": "https://dc.lft.to/lastmile_qr_scan", "android": "https://dc.lft.to/lastmile_qr_scan"}, "lat": 38.91140983333333, "is_reserved": 0, "bike_id": "68af6226683215bcb1e98fad31428e74", "lon": -77.02399816666667, "is_disabled": 0, "fusion_lat": 0.0, "fusion_lon": 0.0, "name": "68af6226683215bcb1e98fad31428e74", "type": "electric_scooter"}, {"rental_uris": {"ios": "https://dc.lft.to/lastmile_qr_scan", "android": "https://dc.lft.to/lastmile_qr_scan"}, "lat": 38.85807966666667, "is_reserved": 0, "bike_id": "bf41cca81fb237ebf8cc7771bf46fdc3", "lon": -76.98652233333334, "is_disabled": 0, "fusion_lat": 0.0, "fusion_lon": 0.0, "name": "bf41cca81fb237ebf8cc7771bf46fdc3", "type": "electric_scooter"}, {"rental_uris": {"ios": "https://dc.lft.to/lastmile_qr_scan", "android": "https://dc.lft.to/lastmile_qr_scan"}, "lat": 38.881231166666666, "is_reserved": 0, "bike_id": "d87f4422bad39360f59e653dd9a83a2e", "lon": -77.0166145, "is_disabled": 0, "fusion_lat": 0.0, "fusion_lon": 0.0, "name": "d87f4422bad39360f59e653dd9a83a2e", "type": "electric_scooter"}, {"rental_uris": {"ios": "https://dc.lft.to/lastmile_qr_scan", "android": "https://dc.lft.to/lastmile_qr_scan"}, "lat": 38.903335166666665, "is_reserved": 0, "bike_id": "7ad466a13baa73e8e23eb1fc840b2991", "lon": -77.02009066666666, "is_disabled": 0, "fusion_lat": 0.0, "fusion_lon": 0.0, "name": "7ad466a13baa73e8e23eb1fc840b2991", "type": "electric_scooter"}, {"rental_uris": {"ios": "https://dc.lft.to/lastmile_qr_scan", "android": "https://dc.lft.to/lastmile_qr_scan"}, "lat": 38.925994833333334, "is_reserved": 0, "bike_id": "1e483718f6c525f172c48b89c9cfd79c", "lon": -77.02584266666666, "is_disabled": 0, "fusion_lat": 0.0, "fusion_lon": 0.0, "name": "1e483718f6c525f172c48b89c9cfd79c", "type": "electric_scooter"}, {"rental_uris": {"ios": "https://dc.lft.to/lastmile_qr_scan", "android": "https://dc.lft.to/lastmile_qr_scan"}, "lat": 38.90235033333333, "is_reserved": 0, "bike_id": "9561874154f1b3b2219f577f94d0e7cf", "lon": -77.00209033333333, "is_disabled": 0, "fusion_lat": 0.0, "fusion_lon": 0.0, "name": "9561874154f1b3b2219f577f94d0e7cf", "type": "electric_scooter"}, {"rental_uris": {"ios": "https://dc.lft.to/lastmile_qr_scan", "android": "https://dc.lft.to/lastmile_qr_scan"}, "lat": 38.888880666666665, "is_reserved": 0, "bike_id": "086a0d5d98784457e5d06e3fd9312861", "lon": -77.03326433333334, "is_disabled": 0, "fusion_lat": 0.0, "fusion_lon": 0.0, "name": "086a0d5d98784457e5d06e3fd9312861", "type": "electric_scooter"}, {"rental_uris": {"ios": "https://dc.lft.to/lastmile_qr_scan", "android": "https://dc.lft.to/lastmile_qr_scan"}, "lat": 38.908228, "is_reserved": 0, "bike_id": "85e0d80826e6f80cdff0a803a3801604", "lon": -77.03562166666667, "is_disabled": 0, "fusion_lat": 0.0, "fusion_lon": 0.0, "name": "85e0d80826e6f80cdff0a803a3801604", "type": "electric_scooter"}, {"rental_uris": {"ios": "https://dc.lft.to/lastmile_qr_scan", "android": "https://dc.lft.to/lastmile_qr_scan"}, "lat": 38.90742216666666, "is_reserved": 0, "bike_id": "0a04ed22427b407a54d48a79f363e6fa", "lon": -77.04277483333334, "is_disabled": 0, "fusion_lat": 0.0, "fusion_lon": 0.0, "name": "0a04ed22427b407a54d48a79f363e6fa", "type": "electric_scooter"}, {"rental_uris": {"ios": "https://dc.lft.to/lastmile_qr_scan", "android": "https://dc.lft.to/lastmile_qr_scan"}, "lat": 38.92877466666667, "is_reserved": 0, "bike_id": "33e2ce7920e89bece0ffdca81c125fa7", "lon": -77.03318616666667, "is_disabled": 0, "fusion_lat": 0.0, "fusion_lon": 0.0, "name": "33e2ce7920e89bece0ffdca81c125fa7", "type": "electric_scooter"}, {"rental_uris": {"ios": "https://dc.lft.to/lastmile_qr_scan", "android": "https://dc.lft.to/lastmile_qr_scan"}, "lat": 38.936876, "is_reserved": 0, "bike_id": "7e7c06262e72398ffb43f6f61d7476e0", "lon": -76.990597, "is_disabled": 0, "fusion_lat": 0.0, "fusion_lon": 0.0, "name": "7e7c06262e72398ffb43f6f61d7476e0", "type": "electric_bike"}, {"rental_uris": {"ios": "https://dc.lft.to/lastmile_qr_scan", "android": "https://dc.lft.to/lastmile_qr_scan"}, "lat": 38.899688166666664, "is_reserved": 0, "bike_id": "a5fc728de22b4beed19791aab284af27", "lon": -76.99497216666667, "is_disabled": 0, "fusion_lat": 0.0, "fusion_lon": 0.0, "name": "a5fc728de22b4beed19791aab284af27", "type": "electric_scooter"}, {"rental_uris": {"ios": "https://dc.lft.to/lastmile_qr_scan", "android": "https://dc.lft.to/lastmile_qr_scan"}, "lat": 38.921434, "is_reserved": 0, "bike_id": "1381a3d6a39b59f1018024aa8a9b0d5d", "lon": -77.01809466666667, "is_disabled": 0, "fusion_lat": 0.0, "fusion_lon": 0.0, "name": "1381a3d6a39b59f1018024aa8a9b0d5d", "type": "electric_scooter"}, {"rental_uris": {"ios": "https://dc.lft.to/lastmile_qr_scan", "android": "https://dc.lft.to/lastmile_qr_scan"}, "lat": 38.975315, "is_reserved": 0, "bike_id": "fe8cf850e5cf568fed5a425b904fcb75", "lon": -77.01685566666667, "is_disabled": 0, "fusion_lat": 0.0, "fusion_lon": 0.0, "name": "fe8cf850e5cf568fed5a425b904fcb75", "type": "electric_bike"}, {"rental_uris": {"ios": "https://dc.lft.to/lastmile_qr_scan", "android": "https://dc.lft.to/lastmile_qr_scan"}, "lat": 38.943946833333335, "is_reserved": 0, "bike_id": "2b24e0ea18c2516298101a689de609cd", "lon": -77.0241645, "is_disabled": 0, "fusion_lat": 0.0, "fusion_lon": 0.0, "name": "2b24e0ea18c2516298101a689de609cd", "type": "electric_scooter"}, {"rental_uris": {"ios": "https://dc.lft.to/lastmile_qr_scan", "android": "https://dc.lft.to/lastmile_qr_scan"}, "lat": 38.902559, "is_reserved": 0, "bike_id": "0d725c95ad1d650b512cb07e4b663114", "lon": -77.03473033333333, "is_disabled": 0, "fusion_lat": 0.0, "fusion_lon": 0.0, "name": "0d725c95ad1d650b512cb07e4b663114", "type": "electric_scooter"}, {"rental_uris": {"ios": "https://dc.lft.to/lastmile_qr_scan", "android": "https://dc.lft.to/lastmile_qr_scan"}, "lat": 38.86681266666667, "is_reserved": 0, "bike_id": "df0020d9756c2a7e5fbe7d139341640e", "lon": -76.98562733333333, "is_disabled": 0, "fusion_lat": 0.0, "fusion_lon": 0.0, "name": "df0020d9756c2a7e5fbe7d139341640e", "type": "electric_scooter"}, {"rental_uris": {"ios": "https://dc.lft.to/lastmile_qr_scan", "android": "https://dc.lft.to/lastmile_qr_scan"}, "lat": 38.876823, "is_reserved": 0, "bike_id": "e87ea6b5314f6894606a4330f294ec39", "lon": -77.0041705, "is_disabled": 0, "fusion_lat": 0.0, "fusion_lon": 0.0, "name": "e87ea6b5314f6894606a4330f294ec39", "type": "electric_scooter"}, {"rental_uris": {"ios": "https://dc.lft.to/lastmile_qr_scan", "android": "https://dc.lft.to/lastmile_qr_scan"}, "lat": 38.8923295, "is_reserved": 0, "bike_id": "9790dd602d97f3f54e7985b4a1d53213", "lon": -77.022031, "is_disabled": 0, "fusion_lat": 0.0, "fusion_lon": 0.0, "name": "9790dd602d97f3f54e7985b4a1d53213", "type": "electric_scooter"}, {"rental_uris": {"ios": "https://dc.lft.to/lastmile_qr_scan", "android": "https://dc.lft.to/lastmile_qr_scan"}, "lat": 38.92062, "is_reserved": 0, "bike_id": "5e50fca7aa8afcd067e2a2c8645516f0", "lon": -76.98193883333333, "is_disabled": 0, "fusion_lat": 0.0, "fusion_lon": 0.0, "name": "5e50fca7aa8afcd067e2a2c8645516f0", "type": "electric_scooter"}, {"rental_uris": {"ios": "https://dc.lft.to/lastmile_qr_scan", "android": "https://dc.lft.to/lastmile_qr_scan"}, "lat": 38.923693666666665, "is_reserved": 0, "bike_id": "03afd1df3372d6efc77aa2b24d46d75c", "lon": -77.05027433333333, "is_disabled": 0, "fusion_lat": 0.0, "fusion_lon": 0.0, "name": "03afd1df3372d6efc77aa2b24d46d75c", "type": "electric_scooter"}, {"rental_uris": {"ios": "https://dc.lft.to/lastmile_qr_scan", "android": "https://dc.lft.to/lastmile_qr_scan"}, "lat": 38.99090916666667, "is_reserved": 0, "bike_id": "eeb614e816aea4f2b5607442c1c27e63", "lon": -76.993752, "is_disabled": 0, "fusion_lat": 0.0, "fusion_lon": 0.0, "name": "eeb614e816aea4f2b5607442c1c27e63", "type": "electric_bike"}, {"rental_uris": {"ios": "https://dc.lft.to/lastmile_qr_scan", "android": "https://dc.lft.to/lastmile_qr_scan"}, "lat": 38.89221033333333, "is_reserved": 0, "bike_id": "2e31bf35c30fcd6faaf33f7ff5fcb335", "lon": -77.02506816666667, "is_disabled": 0, "fusion_lat": 0.0, "fusion_lon": 0.0, "name": "2e31bf35c30fcd6faaf33f7ff5fcb335", "type": "electric_scooter"}, {"rental_uris": {"ios": "https://dc.lft.to/lastmile_qr_scan", "android": "https://dc.lft.to/lastmile_qr_scan"}, "lat": 38.905478333333335, "is_reserved": 0, "bike_id": "c85f84e966f8e40e2340f729f93ce5ac", "lon": -77.04334533333333, "is_disabled": 0, "fusion_lat": 0.0, "fusion_lon": 0.0, "name": "c85f84e966f8e40e2340f729f93ce5ac", "type": "electric_scooter"}, {"rental_uris": {"ios": "https://dc.lft.to/lastmile_qr_scan", "android": "https://dc.lft.to/lastmile_qr_scan"}, "lat": 38.89997916666667, "is_reserved": 0, "bike_id": "36b49f8e3b5fca6da686e27878153d4f", "lon": -77.041345, "is_disabled": 0, "fusion_lat": 0.0, "fusion_lon": 0.0, "name": "36b49f8e3b5fca6da686e27878153d4f", "type": "electric_scooter"}, {"rental_uris": {"ios": "https://dc.lft.to/lastmile_qr_scan", "android": "https://dc.lft.to/lastmile_qr_scan"}, "lat": 38.88651983333333, "is_reserved": 0, "bike_id": "12f237672300844064342f91965ee174", "lon": -77.02840233333333, "is_disabled": 0, "fusion_lat": 0.0, "fusion_lon": 0.0, "name": "12f237672300844064342f91965ee174", "type": "electric_bike"}, {"rental_uris": {"ios": "https://dc.lft.to/lastmile_qr_scan", "android": "https://dc.lft.to/lastmile_qr_scan"}, "lat": 38.883318, "is_reserved": 0, "bike_id": "21589deeccc2e1c9590bb3cadf15c506", "lon": -77.0282175, "is_disabled": 0, "fusion_lat": 0.0, "fusion_lon": 0.0, "name": "21589deeccc2e1c9590bb3cadf15c506", "type": "electric_scooter"}, {"rental_uris": {"ios": "https://dc.lft.to/lastmile_qr_scan", "android": "https://dc.lft.to/lastmile_qr_scan"}, "lat": 38.9285355, "is_reserved": 0, "bike_id": "9ec78f9521ec26b06557697ba355fa19", "lon": -77.03603366666667, "is_disabled": 0, "fusion_lat": 0.0, "fusion_lon": 0.0, "name": "9ec78f9521ec26b06557697ba355fa19", "type": "electric_scooter"}, {"rental_uris": {"ios": "https://dc.lft.to/lastmile_qr_scan", "android": "https://dc.lft.to/lastmile_qr_scan"}, "lat": 38.898746833333334, "is_reserved": 0, "bike_id": "762e89167f83f30cde67ada651abc1d2", "lon": -77.03949566666667, "is_disabled": 0, "fusion_lat": 0.0, "fusion_lon": 0.0, "name": "762e89167f83f30cde67ada651abc1d2", "type": "electric_scooter"}, {"rental_uris": {"ios": "https://dc.lft.to/lastmile_qr_scan", "android": "https://dc.lft.to/lastmile_qr_scan"}, "lat": 38.936718666666664, "is_reserved": 0, "bike_id": "27fa4cfdfd0c4820298fb245c4026dc5", "lon": -77.03594483333333, "is_disabled": 0, "fusion_lat": 0.0, "fusion_lon": 0.0, "name": "27fa4cfdfd0c4820298fb245c4026dc5", "type": "electric_scooter"}, {"rental_uris": {"ios": "https://dc.lft.to/lastmile_qr_scan", "android": "https://dc.lft.to/lastmile_qr_scan"}, "lat": 38.91705733333333, "is_reserved": 0, "bike_id": "dcedc08b2f72e668ca8f2e3c5c7bb148", "lon": -77.028382, "is_disabled": 0, "fusion_lat": 0.0, "fusion_lon": 0.0, "name": "dcedc08b2f72e668ca8f2e3c5c7bb148", "type": "electric_scooter"}, {"rental_uris": {"ios": "https://dc.lft.to/lastmile_qr_scan", "android": "https://dc.lft.to/lastmile_qr_scan"}, "lat": 38.91701666666667, "is_reserved": 0, "bike_id": "940eb7a672c2ad3cb2fd984300f1fa21", "lon": -77.03194566666667, "is_disabled": 0, "fusion_lat": 0.0, "fusion_lon": 0.0, "name": "940eb7a672c2ad3cb2fd984300f1fa21", "type": "electric_scooter"}, {"rental_uris": {"ios": "https://dc.lft.to/lastmile_qr_scan", "android": "https://dc.lft.to/lastmile_qr_scan"}, "lat": 38.892252666666664, "is_reserved": 0, "bike_id": "d31f21e7039b2b54af3746dea41a1417", "lon": -77.04329166666666, "is_disabled": 0, "fusion_lat": 0.0, "fusion_lon": 0.0, "name": "d31f21e7039b2b54af3746dea41a1417", "type": "electric_scooter"}, {"rental_uris": {"ios": "https://dc.lft.to/lastmile_qr_scan", "android": "https://dc.lft.to/lastmile_qr_scan"}, "lat": 38.90163533333333, "is_reserved": 0, "bike_id": "55f7dae2614a350863fb8b80814e844a", "lon": -76.93076233333333, "is_disabled": 0, "fusion_lat": 0.0, "fusion_lon": 0.0, "name": "55f7dae2614a350863fb8b80814e844a", "type": "electric_scooter"}, {"rental_uris": {"ios": "https://dc.lft.to/lastmile_qr_scan", "android": "https://dc.lft.to/lastmile_qr_scan"}, "lat": 38.9159045, "is_reserved": 0, "bike_id": "fa84b16de23fde16472f58e1748fc18c", "lon": -76.98383466666667, "is_disabled": 0, "fusion_lat": 0.0, "fusion_lon": 0.0, "name": "fa84b16de23fde16472f58e1748fc18c", "type": "electric_scooter"}, {"rental_uris": {"ios": "https://dc.lft.to/lastmile_qr_scan", "android": "https://dc.lft.to/lastmile_qr_scan"}, "lat": 38.92884466666667, "is_reserved": 0, "bike_id": "eb615eaf5d9fc98de1461e1bd3507fb3", "lon": -77.02710216666667, "is_disabled": 0, "fusion_lat": 0.0, "fusion_lon": 0.0, "name": "eb615eaf5d9fc98de1461e1bd3507fb3", "type": "electric_scooter"}, {"rental_uris": {"ios": "https://dc.lft.to/lastmile_qr_scan", "android": "https://dc.lft.to/lastmile_qr_scan"}, "lat": 38.925973, "is_reserved": 0, "bike_id": "6b0b04dfbc410b6a25218fe795493fea", "lon": -77.02151066666667, "is_disabled": 0, "fusion_lat": 0.0, "fusion_lon": 0.0, "name": "6b0b04dfbc410b6a25218fe795493fea", "type": "electric_scooter"}, {"rental_uris": {"ios": "https://dc.lft.to/lastmile_qr_scan", "android": "https://dc.lft.to/lastmile_qr_scan"}, "lat": 38.9040945, "is_reserved": 0, "bike_id": "118349548590b3e50aae8aaf63fe9fbb", "lon": -76.97330066666666, "is_disabled": 0, "fusion_lat": 0.0, "fusion_lon": 0.0, "name": "118349548590b3e50aae8aaf63fe9fbb", "type": "electric_scooter"}, {"rental_uris": {"ios": "https://dc.lft.to/lastmile_qr_scan", "android": "https://dc.lft.to/lastmile_qr_scan"}, "lat": 38.9191125, "is_reserved": 0, "bike_id": "a3df7be9627a5bbf635870fab3659f18", "lon": -76.986971, "is_disabled": 0, "fusion_lat": 0.0, "fusion_lon": 0.0, "name": "a3df7be9627a5bbf635870fab3659f18", "type": "electric_scooter"}, {"rental_uris": {"ios": "https://dc.lft.to/lastmile_qr_scan", "android": "https://dc.lft.to/lastmile_qr_scan"}, "lat": 38.90260516666667, "is_reserved": 0, "bike_id": "14935b12fd7b0302f02c469c80a3515c", "lon": -76.97458583333334, "is_disabled": 0, "fusion_lat": 0.0, "fusion_lon": 0.0, "name": "14935b12fd7b0302f02c469c80a3515c", "type": "electric_scooter"}, {"rental_uris": {"ios": "https://dc.lft.to/lastmile_qr_scan", "android": "https://dc.lft.to/lastmile_qr_scan"}, "lat": 38.90856616666667, "is_reserved": 0, "bike_id": "4d9f2ebf597e58353a235c73842cf4b7", "lon": -76.9980015, "is_disabled": 0, "fusion_lat": 0.0, "fusion_lon": 0.0, "name": "4d9f2ebf597e58353a235c73842cf4b7", "type": "electric_scooter"},