{"data": {"bikes": [{"is_disabled": 0, "rental_uris": {"android": "https://dc.lft.to/lastmile_qr_scan", "ios": "https://dc.lft.to/lastmile_qr_scan"}, "is_reserved": 0, "name": "3be56cab2212e8e12b0219885382d1f3", "lon": -77.02705616666667, "type": "electric_scooter", "bike_id": "3be56cab2212e8e12b0219885382d1f3", "fusion_lon": 0.0, "lat": 38.90375183333333, "fusion_lat": 0.0}, {"is_disabled": 0, "rental_uris": {"android": "https://dc.lft.to/lastmile_qr_scan", "ios": "https://dc.lft.to/lastmile_qr_scan"}, "is_reserved": 0, "name": "aa2b67c133438ecd4892f2538aa3658c", "lon": -77.05504966666666, "type": "electric_scooter", "bike_id": "aa2b67c133438ecd4892f2538aa3658c", "fusion_lon": 0.0, "lat": 38.929833333333335, "fusion_lat": 0.0}, {"is_disabled": 0, "rental_uris": {"android": "https://dc.lft.to/lastmile_qr_scan", "ios": "https://dc.lft.to/lastmile_qr_scan"}, "is_reserved": 0, "name": "4a16f8f64adc7f0e662f597ccb455ac4", "lon": -77.021516, "type": "electric_scooter", "bike_id": "4a16f8f64adc7f0e662f597ccb455ac4", "fusion_lon": 0.0, "lat": 38.92605416666667, "fusion_lat": 0.0}, {"is_disabled": 0, "rental_uris": {"android": "https://dc.lft.to/lastmile_qr_scan", "ios": "https://dc.lft.to/lastmile_qr_scan"}, "is_reserved": 0, "name": "f719cfeb2743543e68d2e500638c7652", "lon": -77.0281715, "type": "electric_scooter", "bike_id": "f719cfeb2743543e68d2e500638c7652", "fusion_lon": 0.0, "lat": 38.90466083333333, "fusion_lat": 0.0}, {"is_disabled": 0, "rental_uris": {"android": "https://dc.lft.to/lastmile_qr_scan", "ios": "https://dc.lft.to/lastmile_qr_scan"}, "is_reserved": 0, "name": "c2e567cdf5adefb64c90b94abe7227bd", "lon": -77.03639433333333, "type": "electric_scooter", "bike_id": "c2e567cdf5adefb64c90b94abe7227bd", "fusion_lon": 0.0, "lat": 38.918158, "fusion_lat": 0.0}, {"is_disabled": 0, "rental_uris": {"android": "https://dc.lft.to/lastmile_qr_scan", "ios": "https://dc.lft.to/lastmile_qr_scan"}, "is_reserved": 0, "name": "5d48c7d2e3034f4d48db7bcb6ac515f6", "lon": -77.10025966666667, "type": "electric_bike", "bike_id": "5d48c7d2e3034f4d48db7bcb6ac515f6", "fusion_lon": 0.0, "lat": 38.99063916666667, "fusion_lat": 0.0}, {"is_disabled": 0, "rental_uris": {"android": "https://dc.lft.to/lastmile_qr_scan", "ios": "https://dc.lft.to/lastmile_qr_scan"}, "is_reserved": 0, "name": "89d31962a3f18565e77ba6a6df0c9799", "lon": -77.03515666666667, "type": "electric_scooter", "bike_id": "89d31962a3f18565e77ba6a6df0c9799", "fusion_lon": 0.0, "lat": 38.92140966666667, "fusion_lat": 0.0}, {"is_disabled": 0, "rental_uris": {"android": "https://dc.lft.to/lastmile_qr_scan", "ios": "https://dc.lft.to/lastmile_qr_scan"}, "is_reserved": 0, "name": "ed15b1e256748b2c030796e2c95675ac", "lon": -77.02382466666667, "type": "electric_scooter", "bike_id": "ed15b1e256748b2c030796e2c95675ac", "fusion_lon": 0.0, "lat": 38.9086665, "fusion_lat": 0.0}, {"is_disabled": 0, "rental_uris": {"android": "https://dc.lft.to/lastmile_qr_scan", "ios": "https://dc.lft.to/lastmile_qr_scan"}, "is_reserved": 0, "name": "1783b51c588769dffc97a6e3c911a0a4", "lon": -77.0383135, "type": "electric_scooter", "bike_id": "1783b51c588769dffc97a6e3c911a0a4", "fusion_lon": 0.0, "lat": 38.9149285, "fusion_lat": 0.0}, {"is_disabled": 0, "rental_uris": {"android": "https://dc.lft.to/lastmile_qr_scan", "ios": "https://dc.lft.to/lastmile_qr_scan"}, "is_reserved": 0, "name": "82d13b96ced5cffd13a560b692b11b88", "lon": -77.01754816666667, "type": "electric_scooter", "bike_id": "82d13b96ced5cffd13a560b692b11b88", "fusion_lon": 0.0, "lat": 38.8772575, "fusion_lat": 0.0}, {"is_disabled": 0, "rental_uris": {"android": "https://dc.lft.to/lastmile_qr_scan", "ios": "https://dc.lft.to/lastmile_qr_scan"}, "is_reserved": 0, "name": "89ff52182cd00cf4ea11ce0b72824193", "lon": -77.02801483333333, "type": "electric_scooter", "bike_id": "89ff52182cd00cf4ea11ce0b72824193", "fusion_lon": 0.0, "lat": 38.962079833333334, "fusion_lat": 0.0}, {"is_disabled": 0, "rental_uris": {"android": "https://dc.lft.to/lastmile_qr_scan", "ios": "https://dc.lft.to/lastmile_qr_scan"}, "is_reserved": 0, "name": "5065ee4486d613b68c59b11083dc9200", "lon": -77.01417, "type": "electric_scooter", "bike_id": "5065ee4486d613b68c59b11083dc9200", "fusion_lon": 0.0, "lat": 38.92871566666667, "fusion_lat": 0.0}, {"is_disabled": 0, "rental_uris": {"android": "https://dc.lft.to/lastmile_qr_scan", "ios": "https://dc.lft.to/lastmile_qr_scan"}, "is_reserved": 0, "name": "07dfefb434d3630e9440f8d97424b48e", "lon": -77.0419675, "type": "electric_scooter", "bike_id": "07dfefb434d3630e9440f8d97424b48e", "fusion_lon": 0.0, "lat": 38.911224833333335, "fusion_lat": 0.0}, {"is_disabled": 0, "rental_uris": {"android": "https://dc.lft.to/lastmile_qr_scan", "ios": "https://dc.lft.to/lastmile_qr_scan"}, "is_reserved": 0, "name": "f5dc678b68e8c2ce2a3cc362c1397763", "lon": -77.04178316666666, "type": "electric_scooter", "bike_id": "f5dc678b68e8c2ce2a3cc362c1397763", "fusion_lon": 0.0, "lat": 38.915555166666664, "fusion_lat": 0.0}, {"is_disabled": 0, "rental_uris": {"android": "https://dc.lft.to/lastmile_qr_scan", "ios": "https://dc.lft.to/lastmile_qr_scan"}, "is_reserved": 0, "name": "c25df0f308a5f33310ae004d93fc6dd5", "lon": -77.03868966666667, "type": "electric_scooter", "bike_id": "c25df0f308a5f33310ae004d93fc6dd5", "fusion_lon": 0.0, "lat": 38.921505833333335, "fusion_lat": 0.0}, {"is_disabled": 0, "rental_uris": {"android": "https://dc.lft.to/lastmile_qr_scan", "ios": "https://dc.lft.to/lastmile_qr_scan"}, "is_reserved": 0, "name": "bd28baa036c58e5d66a02ab8db726eb8", "lon": -77.00527766666667, "type": "electric_scooter", "bike_id": "bd28baa036c58e5d66a02ab8db726eb8", "fusion_lon": 0.0, "lat": 38.88069816666667, "fusion_lat": 0.0}, {"is_disabled": 0, "rental_uris": {"android": "https://dc.lft.to/lastmile_qr_scan", "ios": "https://dc.lft.to/lastmile_qr_scan"}, "is_reserved": 0, "name": "6f58d33d7f8a8f26108093d62882a7ae", "lon": -76.87495466666667, "type": "electric_bike", "bike_id": "6f58d33d7f8a8f26108093d62882a7ae", "fusion_lon": 0.0, "lat": 38.990891, "fusion_lat": 0.0}, {"is_disabled": 0, "rental_uris": {"android": "https://dc.lft.to/lastmile_qr_scan", "ios": "https://dc.lft.to/lastmile_qr_scan"}, "is_reserved": 0, "name": "3e6ab453d22fac37b55b185eed534f41", "lon": -77.03205283333334, "type": "electric_scooter", "bike_id": "3e6ab453d22fac37b55b185eed534f41", "fusion_lon": 0.0, "lat": 38.9183995, "fusion_lat": 0.0}, {"is_disabled": 0, "rental_uris": {"android": "https://dc.lft.to/lastmile_qr_scan", "ios": "https://dc.lft.to/lastmile_qr_scan"}, "is_reserved": 0, "name": "1bd7f2ed1f3ae82706bba3991843a453", "lon": -77.04897383333333, "type": "electric_bike", "bike_id": "1bd7f2ed1f3ae82706bba3991843a453", "fusion_lon": 0.0, "lat": 38.87493516666667, "fusion_lat": 0.0}, {"is_disabled": 0, "rental_uris": {"android": "https://dc.lft.to/lastmile_qr_scan", "ios": "https://dc.lft.to/lastmile_qr_scan"}, "is_reserved": 0, "name": "4411bca2751429c169f97c0009cb9f29", "lon": -77.048768, "type": "electric_scooter", "bike_id": "4411bca2751429c169f97c0009cb9f29", "fusion_lon": 0.0, "lat": 38.91016166666667, "fusion_lat": 0.0}, {"is_disabled": 0, "rental_uris": {"android": "https://dc.lft.to/lastmile_qr_scan", "ios": "https://dc.lft.to/lastmile_qr_scan"}, "is_reserved": 0, "name": "8dd719add51cd4a8bdfbb431cf66a1c4", "lon": -76.9319705, "type": "electric_bike", "bike_id": "8dd719add51cd4a8bdfbb431cf66a1c4", "fusion_lon": 0.0, "lat": 38.8723525, "fusion_lat": 0.0}, {"is_disabled": 0, "rental_uris": {"android": "https://dc.lft.to/lastmile_qr_scan", "ios": "https://dc.lft.to/lastmile_qr_scan"}, "is_reserved": 0, "name": "3f22b4f05d2faae7e7d9f4c1df8fe246", "lon": -77.0185055, "type": "electric_scooter", "bike_id": "3f22b4f05d2faae7e7d9f4c1df8fe246", "fusion_lon": 0.0, "lat": 38.95437666666667, "fusion_lat": 0.0}, {"is_disabled": 0, "rental_uris": {"android": "https://dc.lft.to/lastmile_qr_scan", "ios": "https://dc.lft.to/lastmile_qr_scan"}, "is_reserved": 0, "name": "f80cd1cbb5b2c4037ae85a32066d135c", "lon": -77.002072, "type": "electric_scooter", "bike_id": "f80cd1cbb5b2c4037ae85a32066d135c", "fusion_lon": 0.0, "lat": 38.90028616666667, "fusion_lat": 0.0}, {"is_disabled": 0, "rental_uris": {"android": "https://dc.lft.to/lastmile_qr_scan", "ios": "https://dc.lft.to/lastmile_qr_scan"}, "is_reserved": 0, "name": "c0bed7892cc4096b8c3c96b35dceb152", "lon": -77.018889, "type": "electric_scooter", "bike_id": "c0bed7892cc4096b8c3c96b35dceb152", "fusion_lon": 0.0, "lat": 38.92952666666667, "fusion_lat": 0.0}, {"is_disabled": 0, "rental_uris": {"android": "https://dc.lft.to/lastmile_qr_scan", "ios": "https://dc.lft.to/lastmile_qr_scan"}, "is_reserved": 0, "name": "004387b30865fc53537bb96fc74d687a", "lon": -77.0007075, "type": "electric_bike", "bike_id": "004387b30865fc53537bb96fc74d687a", "fusion_lon": 0.0, "lat": 38.8861105, "fusion_lat": 0.0}, {"is_disabled": 0, "rental_uris": {"android": "https://dc.lft.to/lastmile_qr_scan", "ios": "https://dc.lft.to/lastmile_qr_scan"}, "is_reserved": 0, "name": "bb0bbc5078c9baa58a5165fe9eda24b5", "lon": -77.03216666666667, "type": "electric_scooter", "bike_id": "bb0bbc5078c9baa58a5165fe9eda24b5", "fusion_lon": 0.0, "lat": 38.920996333333335, "fusion_lat": 0.0}, {"is_disabled": 0, "rental_uris": {"android": "https://dc.lft.to/lastmile_qr_scan", "ios": "https://dc.lft.to/lastmile_qr_scan"}, "is_reserved": 0, "name": "cfc60acb0883c70446d4841833fb1744", "lon": -77.0432875, "type": "electric_scooter", "bike_id": "cfc60acb0883c70446d4841833fb1744", "fusion_lon": 0.0, "lat": 38.92333766666667, "fusion_lat": 0.0}, {"is_disabled": 0, "rental_uris": {"android": "https://dc.lft.to/lastmile_qr_scan", "ios": "https://dc.lft.to/lastmile_qr_scan"}, "is_reserved": 0, "name": "07aaef8c5dd702b0b4cc26ca3d164a06", "lon": -77.0211835, "type": "electric_bike", "bike_id": "07aaef8c5dd702b0b4cc26ca3d164a06", "fusion_lon": 0.0, "lat": 38.935815166666664, "fusion_lat": 0.0}, {"is_disabled": 0, "rental_uris": {"android": "https://dc.lft.to/lastmile_qr_scan", "ios": "https://dc.lft.to/lastmile_qr_scan"}, "is_reserved": 0, "name": "96ae0689e7dc4c73f40f279c5eab8fc5", "lon": -76.97912116666667, "type": "electric_scooter", "bike_id": "96ae0689e7dc4c73f40f279c5eab8fc5", "fusion_lon": 0.0, "lat": 38.90434166666667, "fusion_lat": 0.0}, {"is_disabled": 0, "rental_uris": {"android": "https://dc.lft.to/lastmile_qr_scan", "ios": "https://dc.lft.to/lastmile_qr_scan"}, "is_reserved": 0, "name": "4727cf8e14e2b4fd1c8ed5c01fa9636a", "lon": -77.0176555, "type": "electric_scooter", "bike_id": "4727cf8e14e2b4fd1c8ed5c01fa9636a", "fusion_lon": 0.0, "lat": 38.877171, "fusion_lat": 0.0}, {"is_disabled": 0, "rental_uris": {"android": "https://dc.lft.to/lastmile_qr_scan", "ios": "https://dc.lft.to/lastmile_qr_scan"}, "is_reserved": 0, "name": "f3790d10312f4176468cae5f9f5ddfc1", "lon": -77.03444783333333, "type": "electric_scooter", "bike_id": "f3790d10312f4176468cae5f9f5ddfc1", "fusion_lon": 0.0, "lat": 38.90889216666667, "fusion_lat": 0.0}, {"is_disabled": 0, "rental_uris": {"android": "https://dc.lft.to/lastmile_qr_scan", "ios": "https://dc.lft.to/lastmile_qr_scan"}, "is_reserved": 0, "name": "381b07ccb6290258738e4e539bfdaa35", "lon": -77.03903333333334, "type": "electric_scooter", "bike_id": "381b07ccb6290258738e4e539bfdaa35", "fusion_lon": 0.0, "lat": 38.91432283333333, "fusion_lat": 0.0}, {"is_disabled": 0, "rental_uris": {"android": "https://dc.lft.to/lastmile_qr_scan", "ios": "https://dc.lft.to/lastmile_qr_scan"}, "is_reserved": 0, "name": "4e83fb527541122490dfbe6a8412c156", "lon": -77.00877083333333, "type": "electric_scooter", "bike_id": "4e83fb527541122490dfbe6a8412c156", "fusion_lon": 0.0, "lat": 38.905759833333335, "fusion_lat": 0.0}, {"is_disabled": 0, "rental_uris": {"android": "https://dc.lft.to/lastmile_qr_scan", "ios": "https://dc.lft.to/lastmile_qr_scan"}, "is_reserved": 0, "name": "3546855e5f349604d4e1a68b3929757a", "lon": -76.98072433333333, "type": "electric_scooter", "bike_id": "3546855e5f349604d4e1a68b3929757a", "fusion_lon": 0.0, "lat": 38.91939833333333, "fusion_lat": 0.0}, {"is_disabled": 0, "rental_uris": {"android": "https://dc.lft.to/lastmile_qr_scan", "ios": "https://dc.lft.to/lastmile_qr_scan"}, "is_reserved": 0, "name": "2d3d563de583b9724dd6818f892149c4", "lon": -77.00813183333334, "type": "electric_scooter", "bike_id": "2d3d563de583b9724dd6818f892149c4", "fusion_lon": 0.0, "lat": 38.88333983333333, "fusion_lat": 0.0}, {"is_disabled": 0, "rental_uris": {"android": "https://dc.lft.to/lastmile_qr_scan", "ios": "https://dc.lft.to/lastmile_qr_scan"}, "is_reserved": 0, "name": "789d8cf303254226b19a79c7caf3b5c4", "lon": -77.02374116666667, "type": "electric_scooter", "bike_id": "789d8cf303254226b19a79c7caf3b5c4", "fusion_lon": 0.0, "lat": 38.91908516666667, "fusion_lat": 0.0}, {"is_disabled": 0, "rental_uris": {"android": "https://dc.lft.to/lastmile_qr_scan", "ios": "https://dc.lft.to/lastmile_qr_scan"}, "is_reserved": 0, "name": "c5aa48dd1d694484087615597907be27", "lon": -77.0059355, "type": "electric_scooter", "bike_id": "c5aa48dd1d694484087615597907be27", "fusion_lon": 0.0, "lat": 38.92763083333333, "fusion_lat": 0.0}, {"is_disabled": 0, "rental_uris": {"android": "https://dc.lft.to/lastmile_qr_scan", "ios": "https://dc.lft.to/lastmile_qr_scan"}, "is_reserved": 0, "name": "89b134f4b2a57fdfeb21455d99b95aa8", "lon": -76.99697466666667, "type": "electric_scooter", "bike_id": "89b134f4b2a57fdfeb21455d99b95aa8", "fusion_lon": 0.0, "lat": 38.83863733333333, "fusion_lat": 0.0}, {"is_disabled": 0, "rental_uris": {"android": "https://dc.lft.to/lastmile_qr_scan", "ios": "https://dc.lft.to/lastmile_qr_scan"}, "is_reserved": 0, "name": "c5fbd6f3d4f2eef1728a1acc2d63925b", "lon": -77.01768183333333, "type": "electric_scooter", "bike_id": "c5fbd6f3d4f2eef1728a1acc2d63925b", "fusion_lon": 0.0, "lat": 38.920949666666665, "fusion_lat": 0.0}, {"is_disabled": 0, "rental_uris": {"android": "https://dc.lft.to/lastmile_qr_scan", "ios": "https://dc.lft.to/lastmile_qr_scan"}, "is_reserved": 0, "name": "2750b7dfc9549078121bcc3c4755ae71", "lon": -77.03117066666667, "type": "electric_scooter", "bike_id": "2750b7dfc9549078121bcc3c4755ae71", "fusion_lon": 0.0, "lat": 38.920231333333334, "fusion_lat": 0.0}, {"is_disabled": 0, "rental_uris": {"android": "https://dc.lft.to/lastmile_qr_scan", "ios": "https://dc.lft.to/lastmile_qr_scan"}, "is_reserved": 0, "name": "21e2dd27238d8702f3b1fb6b21eeb4fc", "lon": -77.03870883333333, "type": "electric_scooter", "bike_id": "21e2dd27238d8702f3b1fb6b21eeb4fc", "fusion_lon": 0.0, "lat": 38.90811816666667, "fusion_lat": 0.0}, {"is_disabled": 0, "rental_uris": {"android": "https://dc.lft.to/lastmile_qr_scan", "ios": "https://dc.lft.to/lastmile_qr_scan"}, "is_reserved": 0, "name": "e05e3abc4c108382c19da10c7036f85f", "lon": -77.02172033333333, "type": "electric_scooter", "bike_id": "e05e3abc4c108382c19da10c7036f85f", "fusion_lon": 0.0, "lat": 38.899391333333334, "fusion_lat": 0.0}, {"is_disabled": 0, "rental_uris": {"android": "https://dc.lft.to/lastmile_qr_scan", "ios": "https://dc.lft.to/lastmile_qr_scan"}, "is_reserved": 0, "name": "4e79bb81a7211b924a02ebf9b6ec6c1b", "lon": -76.96527283333333, "type": "electric_scooter", "bike_id": "4e79bb81a7211b924a02ebf9b6ec6c1b", "fusion_lon": 0.0, "lat": 38.8762915, "fusion_lat": 0.0}, {"is_disabled": 0, "rental_uris": {"android": "https://dc.lft.to/lastmile_qr_scan", "ios": "https://dc.lft.to/lastmile_qr_scan"}, "is_reserved": 0, "name": "98b642edc04596a2026cb73be9ff30e8", "lon": -77.04845183333333, "type": "electric_scooter", "bike_id": "98b642edc04596a2026cb73be9ff30e8", "fusion_lon": 0.0, "lat": 38.911611666666666, "fusion_lat": 0.0}, {"is_disabled": 0, "rental_uris": {"android": "https://dc.lft.to/lastmile_qr_scan", "ios": "https://dc.lft.to/lastmile_qr_scan"}, "is_reserved": 0, "name": "b5e4974f06f397eeb6eea3576ef6fddd", "lon": -77.016104, "type": "electric_scooter", "bike_id": "b5e4974f06f397eeb6eea3576ef6fddd", "fusion_lon": 0.0, "lat": 38.87871616666666, "fusion_lat": 0.0}, {"is_disabled": 0, "rental_uris": {"android": "https://dc.lft.to/lastmile_qr_scan", "ios": "https://dc.lft.to/lastmile_qr_scan"}, "is_reserved": 0, "name": "2df096f91ed7ac2490a09b090f7a8afb", "lon": -77.01620016666666, "type": "electric_scooter", "bike_id": "2df096f91ed7ac2490a09b090f7a8afb", "fusion_lon": 0.0, "lat": 38.920474166666665, "fusion_lat": 0.0}, {"is_disabled": 0, "rental_uris": {"android": "https://dc.lft.to/lastmile_qr_scan", "ios": "https://dc.lft.to/lastmile_qr_scan"}, "is_reserved": 0, "name": "341bab8be26a25822a507b1c259ab042", "lon": -77.0376005, "type": "electric_scooter", "bike_id": "341bab8be26a25822a507b1c259ab042", "fusion_lon": 0.0, "lat": 38.92907183333333, "fusion_lat": 0.0}, {"is_disabled": 0, "rental_uris": {"android": "https://dc.lft.to/lastmile_qr_scan", "ios": "https://dc.lft.to/lastmile_qr_scan"}, "is_reserved": 0, "name": "966adc431b720a2c8696067060fbee47", "lon": -77.02673583333333, "type": "electric_scooter", "bike_id": "966adc431b720a2c8696067060fbee47", "fusion_lon": 0.0, "lat": 38.9127495, "fusion_lat": 0.0}, {"is_disabled": 0, "rental_uris": {"android": "https://dc.lft.to/lastmile_qr_scan", "ios": "https://dc.lft.to/lastmile_qr_scan"}, "is_reserved": 0, "name": "7d3fcfbc799f205a0112fc0d52f9ea48", "lon": -77.042503, "type": "electric_scooter", "bike_id": "7d3fcfbc799f205a0112fc0d52f9ea48", "fusion_lon": 0.0, "lat": 38.9221915, "fusion_lat": 0.0}, {"is_disabled": 0, "rental_uris": {"android": "https://dc.lft.to/lastmile_qr_scan", "ios": "https://dc.lft.to/lastmile_qr_scan"}, "is_reserved": 0, "name": "a7703e51f57731c1807f065552ebb2ea", "lon": -77.05523316666667, "type": "electric_scooter", "bike_id": "a7703e51f57731c1807f065552ebb2ea", "fusion_lon": 0.0, "lat": 38.930098666666666, "fusion_lat": 0.0}, {"is_disabled": 0, "rental_uris": {"android": "https://dc.lft.to/lastmile_qr_scan", "ios": "https://dc.lft.to/lastmile_qr_scan"}, "is_reserved": 0, "name": "0ce8bb49382f700a5a5bd2f19d23d6e2", "lon": -77.03032516666667, "type": "electric_scooter", "bike_id": "0ce8bb49382f700a5a5bd2f19d23d6e2", "fusion_lon": 0.0, "lat": 38.9311135, "fusion_lat": 0.0}, {"is_disabled": 0, "rental_uris": {"android": "https://dc.lft.to/lastmile_qr_scan", "ios": "https://dc.lft.to/lastmile_qr_scan"}, "is_reserved": 0, "name": "daa76749067a6d4a6fdd2e50a24b2156", "lon": -77.04871316666667, "type": "electric_scooter", "bike_id": "daa76749067a6d4a6fdd2e50a24b2156", "fusion_lon": 0.0, "lat": 38.909503, "fusion_lat": 0.0}, {"is_disabled": 0, "rental_uris": {"android": "https://dc.lft.to/lastmile_qr_scan", "ios": "https://dc.lft.to/lastmile_qr_scan"}, "is_reserved": 0, "name": "2771edb0e864a5cf9869573820c1d5c0", "lon": -76.9882405, "type": "electric_bike", "bike_id": "2771edb0e864a5cf9869573820c1d5c0", "fusion_lon": 0.0, "lat": 38.985626833333335, "fusion_lat": 0.0}, {"is_disabled": 0, "rental_uris": {"android": "https://dc.lft.to/lastmile_qr_scan", "ios": "https://dc.lft.to/lastmile_qr_scan"}, "is_reserved": 0, "name": "245a5c3bd023f06c23d0e4205e6660ed", "lon": -77.03863416666667, "type": "electric_scooter", "bike_id": "245a5c3bd023f06c23d0e4205e6660ed", "fusion_lon": 0.0, "lat": 38.903760166666665, "fusion_lat": 0.0}, {"is_disabled": 0, "rental_uris": {"android": "https://dc.lft.to/lastmile_qr_scan", "ios": "https://dc.lft.to/lastmile_qr_scan"}, "is_reserved": 0, "name": "abe2a2b2505ca0447ddfb1e7aaa41d04", "lon": -77.1065275, "type": "electric_bike", "bike_id": "abe2a2b2505ca0447ddfb1e7aaa41d04", "fusion_lon": 0.0, "lat": 39.03001866666666, "fusion_lat": 0.0}, {"is_disabled": 0, "rental_uris": {"android": "https://dc.lft.to/lastmile_qr_scan", "ios": "https://dc.lft.to/lastmile_qr_scan"}, "is_reserved": 0, "name": "47f0bb58e94bf39425f2b5cc3549e4af", "lon": -77.033481, "type": "electric_scooter", "bike_id": "47f0bb58e94bf39425f2b5cc3549e4af", "fusion_lon": 0.0, "lat": 38.922384, "fusion_lat": 0.0}, {"is_disabled": 0, "rental_uris": {"android": "https://dc.lft.to/lastmile_qr_scan", "ios": "https://dc.lft.to/lastmile_qr_scan"}, "is_reserved": 0, "name": "6a06d806735cb05be7f8f2f5b251f6f8", "lon": -77.03448966666667, "type": "electric_scooter", "bike_id": "6a06d806735cb05be7f8f2f5b251f6f8", "fusion_lon": 0.0, "lat": 38.9056145, "fusion_lat": 0.0}, {"is_disabled": 0, "rental_uris": {"android": "https://dc.lft.to/lastmile_qr_scan", "ios": "https://dc.lft.to/lastmile_qr_scan"}, "is_reserved": 0, "name": "67e507b2a64120c015cc63781431ede9", "lon": -77.01766566666667, "type": "electric_scooter", "bike_id": "67e507b2a64120c015cc63781431ede9", "fusion_lon": 0.0, "lat": 38.90281516666667, "fusion_lat": 0.0}, {"is_disabled": 0, "rental_uris": {"android": "https://dc.lft.to/lastmile_qr_scan", "ios": "https://dc.lft.to/lastmile_qr_scan"}, "is_reserved": 0, "name": "ec6e692108322d05414ddaa51b19c7fb", "lon": -77.07276416666667, "type": "electric_scooter", "bike_id": "ec6e692108322d05414ddaa51b19c7fb", "fusion_lon": 0.0, "lat": 38.934753, "fusion_lat": 0.0}, {"is_disabled": 0, "rental_uris": {"android": "https://dc.lft.to/lastmile_qr_scan", "ios": "https://dc.lft.to/lastmile_qr_scan"}, "is_reserved": 0, "name": "b13ff8ae33cd49e62e0190adcb4bef63", "lon": -77.01691983333333, "type": "electric_scooter", "bike_id": "b13ff8ae33cd49e62e0190adcb4bef63", "fusion_lon": 0.0, "lat": 38.9749745, "fusion_lat": 0.0}, {"is_disabled": 0, "rental_uris": {"android": "https://dc.lft.to/lastmile_qr_scan", "ios": "https://dc.lft.to/lastmile_qr_scan"}, "is_reserved": 0, "name": "abaab41216d56bf8ab94b270dd5dbb0b", "lon": -77.04012616666667, "type": "electric_scooter", "bike_id": "abaab41216d56bf8ab94b270dd5dbb0b", "fusion_lon": 0.0, "lat": 38.917986166666665, "fusion_lat": 0.0}, {"is_disabled": 0, "rental_uris": {"android": "https://dc.lft.to/lastmile_qr_scan", "ios": "https://dc.lft.to/lastmile_qr_scan"}, "is_reserved": 0, "name": "c62e2964833cfc382c08b3b9b8a31f6a", "lon": -77.027439, "type": "electric_scooter", "bike_id": "c62e2964833cfc382c08b3b9b8a31f6a", "fusion_lon": 0.0, "lat": 38.9430805, "fusion_lat": 0.0}, {"is_disabled": 0, "rental_uris": {"android": "https://dc.lft.to/lastmile_qr_scan", "ios": "https://dc.lft.to/lastmile_qr_scan"}, "is_reserved": 0, "name": "8e37bd6f15818e55f76c5afb958b4a88", "lon": -76.9878195, "type": "electric_scooter", "bike_id": "8e37bd6f15818e55f76c5afb958b4a88", "fusion_lon": 0.0, "lat": 38.84467633333333, "fusion_lat": 0.0}, {"is_disabled": 0, "rental_uris": {"android": "https://dc.lft.to/lastmile_qr_scan", "ios": "https://dc.lft.to/lastmile_qr_scan"}, "is_reserved": 0, "name": "bbdfc9cc32ce6e337cfb694abe24ffc6", "lon": -77.04708033333333, "type": "electric_scooter", "bike_id": "bbdfc9cc32ce6e337cfb694abe24ffc6", "fusion_lon": 0.0, "lat": 38.89733483333333, "fusion_lat": 0.0}, {"is_disabled": 0, "rental_uris": {"android": "https://dc.lft.to/lastmile_qr_scan", "ios": "https://dc.lft.to/lastmile_qr_scan"}, "is_reserved": 0, "name": "413ab58833ef88d330dbf7c10de68079", "lon": -77.03025933333333, "type": "electric_scooter", "bike_id": "413ab58833ef88d330dbf7c10de68079", "fusion_lon": 0.0, "lat": 38.931062833333336, "fusion_lat": 0.0}, {"is_disabled": 0, "rental_uris": {"android": "https://dc.lft.to/lastmile_qr_scan", "ios": "https://dc.lft.to/lastmile_qr_scan"}, "is_reserved": 0, "name": "de3cdd376b5d8e49d4afdfd88f30d701", "lon": -76.98067483333334, "type": "electric_scooter", "bike_id": "de3cdd376b5d8e49d4afdfd88f30d701", "fusion_lon": 0.0, "lat": 38.916745166666665, "fusion_lat": 0.0}, {"is_disabled": 0, "rental_uris": {"android": "https://dc.lft.to/lastmile_qr_scan", "ios": "https://dc.lft.to/lastmile_qr_scan"}, "is_reserved": 0, "name": "f4632c11625420570613653ca1e6208d", "lon": -77.04263233333333, "type": "electric_scooter", "bike_id": "f4632c11625420570613653ca1e6208d", "fusion_lon": 0.0, "lat": 38.910400333333335, "fusion_lat": 0.0}, {"is_disabled": 0, "rental_uris": {"android": "https://dc.lft.to/lastmile_qr_scan", "ios": "https://dc.lft.to/lastmile_qr_scan"}, "is_reserved": 0, "name": "0757cb1dc989e7586be0b7dbcbbc850e", "lon": -77.028448, "type": "electric_scooter", "bike_id": "0757cb1dc989e7586be0b7dbcbbc850e", "fusion_lon": 0.0, "lat": 38.93299783333333, "fusion_lat": 0.0}, {"is_disabled": 0, "rental_uris": {"android": "https://dc.lft.to/lastmile_qr_scan", "ios": "https://dc.lft.to/lastmile_qr_scan"}, "is_reserved": 0, "name": "1211a6b681e4cd12deda40364fcb9949", "lon": -77.04612966666667, "type": "electric_scooter", "bike_id": "1211a6b681e4cd12deda40364fcb9949", "fusion_lon": 0.0, "lat": 38.92314183333333, "fusion_lat": 0.0}, {"is_disabled": 0, "rental_uris": {"android": "https://dc.lft.to/lastmile_qr_scan", "ios": "https://dc.lft.to/lastmile_qr_scan"}, "is_reserved": 0, "name": "390fba9c9049613d38d7c00234f71271", "lon": -77.0508775, "type": "electric_scooter", "bike_id": "390fba9c9049613d38d7c00234f71271", "fusion_lon": 0.0, "lat": 38.9053875, "fusion_lat": 0.0}, {"is_disabled": 0, "rental_uris": {"android": "https://dc.lft.to/lastmile_qr_scan", "ios": "https://dc.lft.to/lastmile_qr_scan"}, "is_reserved": 0, "name": "a956515872d0dcfa310f623919d05584", "lon": -77.038952, "type": "electric_scooter", "bike_id": "a956515872d0dcfa310f623919d05584", "fusion_lon": 0.0, "lat": 38.9249955, "fusion_lat": 0.0}, {"is_disabled": 0, "rental_uris": {"android": "https://dc.lft.to/lastmile_qr_scan", "ios": "https://dc.lft.to/lastmile_qr_scan"}, "is_reserved": 0, "name": "795738fc0e3e0dd0792f758e1c6378c3", "lon": -77.02808383333333, "type": "electric_scooter", "bike_id": "795738fc0e3e0dd0792f758e1c6378c3", "fusion_lon": 0.0, "lat": 38.930845, "fusion_lat": 0.0}, {"is_disabled": 0, "rental_uris": {"android": "https://dc.lft.to/lastmile_qr_scan", "ios": "https://dc.lft.to/lastmile_qr_scan"}, "is_reserved": 0, "name": "4286d33a0982c6ce61eea45b50685dcc", "lon": -77.000832, "type": "electric_scooter", "bike_id": "4286d33a0982c6ce61eea45b50685dcc", "fusion_lon": 0.0, "lat": 38.894071333333336, "fusion_lat": 0.0}, {"is_disabled": 0, "rental_uris": {"android": "https://dc.lft.to/lastmile_qr_scan", "ios": "https://dc.lft.to/lastmile_qr_scan"}, "is_reserved": 0, "name": "226e6cbf4067cd32f54d70c4550f3346", "lon": -77.013846, "type": "electric_scooter", "bike_id": "226e6cbf4067cd32f54d70c4550f3346", "fusion_lon": 0.0, "lat": 38.910124, "fusion_lat": 0.0}, {"is_disabled": 0, "rental_uris": {"android": "https://dc.lft.to/lastmile_qr_scan", "ios": "https://dc.lft.to/lastmile_qr_scan"}, "is_reserved": 0, "name": "d9faabd772139ce1510cf123f1758c16", "lon": -77.033699, "type": "electric_scooter", "bike_id": "d9faabd772139ce1510cf123f1758c16", "fusion_lon": 0.0, "lat": 38.917124666666666, "fusion_lat": 0.0}, {"is_disabled": 0, "rental_uris": {"android": "https://dc.lft.to/lastmile_qr_scan", "ios": "https://dc.lft.to/lastmile_qr_scan"}, "is_reserved": 0, "name": "c9797eedd3e993afc918b3a7b276c12e", "lon": -77.03443216666666, "type": "electric_scooter", "bike_id": "c9797eedd3e993afc918b3a7b276c12e", "fusion_lon": 0.0, "lat": 38.905723333333334, "fusion_lat": 0.0}, {"is_disabled": 0, "rental_uris": {"android": "https://dc.lft.to/lastmile_qr_scan", "ios": "https://dc.lft.to/lastmile_qr_scan"}, "is_reserved": 0, "name": "b4681653438ee8a193c46091ccffc22c", "lon": -77.01437433333334, "type": "electric_scooter", "bike_id": "b4681653438ee8a193c46091ccffc22c", "fusion_lon": 0.0, "lat": 38.87778566666667, "fusion_lat": 0.0}, {"is_disabled": 0, "rental_uris": {"android": "https://dc.lft.to/lastmile_qr_scan", "ios": "https://dc.lft.to/lastmile_qr_scan"}, "is_reserved": 0, "name": "6d6ac52c55de6d0e14fc992a8d86807b", "lon": -77.04977416666667, "type": "electric_scooter", "bike_id": "6d6ac52c55de6d0e14fc992a8d86807b", "fusion_lon": 0.0, "lat": 38.9011495, "fusion_lat": 0.0}, {"is_disabled": 0, "rental_uris": {"android": "https://dc.lft.to/lastmile_qr_scan", "ios": "https://dc.lft.to/lastmile_qr_scan"}, "is_reserved": 0, "name": "2e0204d32b3d5e98cb5bb424dffccf9a", "lon": -77.036599, "type": "electric_scooter", "bike_id": "2e0204d32b3d5e98cb5bb424dffccf9a", "fusion_lon": 0.0, "lat": 38.917307, "fusion_lat": 0.0}, {"is_disabled": 0, "rental_uris": {"android": "https://dc.lft.to/lastmile_qr_scan", "ios": "https://dc.lft.to/lastmile_qr_scan"}, "is_reserved": 0, "name": "3b574233ac3de5e6f7bd00eef30897ec", "lon": -77.02152233333334, "type": "electric_scooter", "bike_id": "3b574233ac3de5e6f7bd00eef30897ec", "fusion_lon": 0.0, "lat": 38.926012666666665, "fusion_lat": 0.0}, {"is_disabled": 0, "rental_uris": {"android": "https://dc.lft.to/lastmile_qr_scan", "ios": "https://dc.lft.to/lastmile_qr_scan"}, "is_reserved": 0, "name": "aead676573ba8a31042c35ad9fb2385d", "lon": -77.00511633333333, "type": "electric_scooter", "bike_id": "aead676573ba8a31042c35ad9fb2385d", "fusion_lon": 0.0, "lat": 38.848772333333336, "fusion_lat": 0.0}, {"is_disabled": 0, "rental_uris": {"android": "https://dc.lft.to/lastmile_qr_scan", "ios": "https://dc.lft.to/lastmile_qr_scan"}, "is_reserved": 0, "name": "37aebaca08ac47809f63568ff7b7b2f8", "lon": -77.02807366666667, "type": "electric_scooter", "bike_id": "37aebaca08ac47809f63568ff7b7b2f8", "fusion_lon": 0.0, "lat": 38.930825166666665, "fusion_lat": 0.0}, {"is_disabled": 0, "rental_uris": {"android": "https://dc.lft.to/lastmile_qr_scan", "ios": "https://dc.lft.to/lastmile_qr_scan"}, "is_reserved": 0, "name": "066595be3994bc53d3b7fe38194076f3", "lon": -77.05700366666666, "type": "electric_scooter", "bike_id": "066595be3994bc53d3b7fe38194076f3", "fusion_lon": 0.0, "lat": 38.926212666666665, "fusion_lat": 0.0}, {"is_disabled": 0, "rental_uris": {"android": "https://dc.lft.to/lastmile_qr_scan", "ios": "https://dc.lft.to/lastmile_qr_scan"}, "is_reserved": 0, "name": "b7dc7d56f4dea189d5c9954e3c894df4", "lon": -77.023982, "type": "electric_scooter", "bike_id": "b7dc7d56f4dea189d5c9954e3c894df4", "fusion_lon": 0.0, "lat": 38.90582883333333, "fusion_lat": 0.0}, {"is_disabled": 0, "rental_uris": {"android": "https://dc.lft.to/lastmile_qr_scan", "ios": "https://dc.lft.to/lastmile_qr_scan"}, "is_reserved": 0, "name": "b46cc6277129f457860525db83d43e1c", "lon": -76.9567635, "type": "electric_scooter", "bike_id": "b46cc6277129f457860525db83d43e1c", "fusion_lon": 0.0, "lat": 38.8877275, "fusion_lat": 0.0}, {"is_disabled": 0, "rental_uris": {"android": "https://dc.lft.to/lastmile_qr_scan", "ios": "https://dc.lft.to/lastmile_qr_scan"}, "is_reserved": 0, "name": "43e2e2a67b35bad519bba9bc43534f3a", "lon": -76.98163016666666, "type": "electric_bike", "bike_id": "43e2e2a67b35bad519bba9bc43534f3a", "fusion_lon": 0.0, "lat": 38.95959583333333, "fusion_lat": 0.0}, {"is_disabled": 0, "rental_uris": {"android": "https://dc.lft.to/lastmile_qr_scan", "ios": "https://dc.lft.to/lastmile_qr_scan"}, "is_reserved": 0, "name": "e82c5f65d8a247c206da792811ed390c", "lon": -77.02467316666667, "type": "electric_bike", "bike_id": "e82c5f65d8a247c206da792811ed390c", "fusion_lon": 0.0, "lat": 38.955791, "fusion_lat": 0.0}, {"is_disabled": 0, "rental_uris": {"android": "https://dc.lft.to/lastmile_qr_scan", "ios": "https://dc.lft.to/lastmile_qr_scan"}, "is_reserved": 0, "name": "2b6649d685db518752f78eb1f3ecd040", "lon": -77.04154083333333, "type": "electric_scooter", "bike_id": "2b6649d685db518752f78eb1f3ecd040", "fusion_lon": 0.0, "lat": 38.912586, "fusion_lat": 0.0}, {"is_disabled": 0, "rental_uris": {"android": "https://dc.lft.to/lastmile_qr_scan", "ios": "https://dc.lft.to/lastmile_qr_scan"}, "is_reserved": 0, "name": "e408da1f1897e1a52539c9ab2fcadffe", "lon": -76.93349383333333, "type": "electric_scooter", "bike_id": "e408da1f1897e1a52539c9ab2fcadffe", "fusion_lon": 0.0, "lat": 38.898995, "fusion_lat": 0.0}, {"is_disabled": 0, "rental_uris": {"android": "https://dc.lft.to/lastmile_qr_scan", "ios": "https://dc.lft.to/lastmile_qr_scan"}, "is_reserved": 0, "name": "dee08297cb754529d0ea10e316224665", "lon": -77.0198075, "type": "electric_scooter", "bike_id": "dee08297cb754529d0ea10e316224665", "fusion_lon": 0.0, "lat": 38.91193633333334, "fusion_lat": 0.0}, {"is_disabled": 0, "rental_uris": {"android": "https://dc.lft.to/lastmile_qr_scan", "ios": "https://dc.lft.to/lastmile_qr_scan"}, "is_reserved": 0, "name": "b5d8808004f509f5fa393614f938129c", "lon": -77.0405235, "type": "electric_scooter", "bike_id": "b5d8808004f509f5fa393614f938129c", "fusion_lon": 0.0, "lat": 38.91035633333333, "fusion_lat": 0.0}, {"is_disabled": 0, "rental_uris": {"android": "https://dc.lft.to/lastmile_qr_scan", "ios": "https://dc.lft.to/lastmile_qr_scan"}, "is_reserved": 0, "name": "c8706e82c77a9f632820bd70b0aa4c00", "lon": -77.02787416666666, "type": "electric_scooter", "bike_id": "c8706e82c77a9f632820bd70b0aa4c00", "fusion_lon": 0.0, "lat": 38.96131116666667, "fusion_lat": 0.0}, {"is_disabled": 0, "rental_uris": {"android": "https://dc.lft.to/lastmile_qr_scan", "ios": "https://dc.lft.to/lastmile_qr_scan"}, "is_reserved": 0, "name": "4053e4632f2b8aa11eab814d6d857b14", "lon": -77.03858033333333, "type": "electric_scooter", "bike_id": "4053e4632f2b8aa11eab814d6d857b14", "fusion_lon": 0.0, "lat": 38.9078565, "fusion_lat": 0.0}, {"is_disabled": 0, "rental_uris": {"android": "https://dc.lft.to/lastmile_qr_scan", "ios": "https://dc.lft.to/lastmile_qr_scan"}, "is_reserved": 0, "name": "d907bf66d5688e448f5d9fe87fa5d98c", "lon": -76.93186866666667, "type": "electric_scooter", "bike_id": "d907bf66d5688e448f5d9fe87fa5d98c", "fusion_lon": 0.0, "lat": 38.8987665, "fusion_lat": 0.0}, {"is_disabled": 0, "rental_uris": {"android": "https://dc.lft.to/lastmile_qr_scan", "ios": "https://dc.lft.to/lastmile_qr_scan"}, "is_reserved": 0, "name": "fb6dad40a4ba8b5e07ed1cb5ee4f1f81", "lon": -77.0280595, "type": "electric_scooter", "bike_id": "fb6dad40a4ba8b5e07ed1cb5ee4f1f81", "fusion_lon": 0.0, "lat": 38.930839166666665, "fusion_lat": 0.0}, {"is_disabled": 0, "rental_uris": {"android": "https://dc.lft.to/lastmile_qr_scan", "ios": "https://dc.lft.to/lastmile_qr_scan"}, "is_reserved": 0, "name": "ff3db21df0a6051ef95f03d72741b59e", "lon": -77.02193666666666, "type": "electric_scooter", "bike_id": "ff3db21df0a6051ef95f03d72741b59e", "fusion_lon": 0.0, "lat": 38.909822, "fusion_lat": 0.0}, {"is_disabled": 0, "rental_uris": {"android": "https://dc.lft.to/lastmile_qr_scan", "ios": "https://dc.lft.to/lastmile_qr_scan"}, "is_reserved": 0, "name": "9892b914f2dc8450333734cde7f92e46", "lon": -77.03862066666667, "type": "electric_scooter", "bike_id": "9892b914f2dc8450333734cde7f92e46", "fusion_lon": 0.0, "lat": 38.90383383333333, "fusion_lat": 0.0}, {"is_disabled": 0, "rental_uris": {"android": "https://dc.lft.to/lastmile_qr_scan", "ios": "https://dc.lft.to/lastmile_qr_scan"}, "is_reserved": 0, "name": "0160c57f73279525ca776f7651347392", "lon": -76.97724383333333, "type": "electric_scooter", "bike_id": "0160c57f73279525ca776f7651347392", "fusion_lon": 0.0, "lat": 38.8948715, "fusion_lat": 0.0}, {"is_disabled": 0, "rental_uris": {"android": "https://dc.lft.to/lastmile_qr_scan", "ios": "https://dc.lft.to/lastmile_qr_scan"}, "is_reserved": 0, "name": "daf94a88cc383a710723b4df5afab93a", "lon": -76.97993333333334, "type": "electric_scooter", "bike_id": "daf94a88cc383a710723b4df5afab93a", "fusion_lon": 0.0, "lat": 38.888754, "fusion_lat": 0.0}, {"is_disabled": 0, "rental_uris": {"android": "https://dc.lft.to/lastmile_qr_scan", "ios": "https://dc.lft.to/lastmile_qr_scan"}, "is_reserved": 0, "name": "776ead3b8f55fe35038ee83d9aba4880", "lon": -77.0216445, "type": "electric_scooter", "bike_id": "776ead3b8f55fe35038ee83d9aba4880", "fusion_lon": 0.0, "lat": 38.90150333333333, "fusion_lat": 0.0}, {"is_disabled": 0, "rental_uris": {"android": "https://dc.lft.to/lastmile_qr_scan", "ios": "https://dc.lft.to/lastmile_qr_scan"}, "is_reserved": 0, "name": "b6f0a900133615a4d0b8a490159c62c5", "lon": -77.0322395, "type": "electric_scooter", "bike_id": "b6f0a900133615a4d0b8a490159c62c5", "fusion_lon": 0.0, "lat": 38.909665833333335, "fusion_lat": 0.0}, {"is_disabled": 0, "rental_uris": {"android": "https://dc.lft.to/lastmile_qr_scan", "ios": "https://dc.lft.to/lastmile_qr_scan"}, "is_reserved": 0, "name": "d9800c8aa3695bd02eec51dac18f99de", "lon": -77.059209, "type": "electric_scooter", "bike_id": "d9800c8aa3695bd02eec51dac18f99de", "fusion_lon": 0.0, "lat": 38.86248916666667, "fusion_lat": 0.0}, {"is_disabled": 0, "rental_uris": {"android": "https://dc.lft.to/lastmile_qr_scan", "ios": "https://dc.lft.to/lastmile_qr_scan"}, "is_reserved": 0, "name": "1bd0874599b79553e24640ddc038d942", "lon": -77.03863983333333, "type": "electric_scooter", "bike_id": "1bd0874599b79553e24640ddc038d942", "fusion_lon": 0.0, "lat": 38.9126075, "fusion_lat": 0.0}, {"is_disabled": 0, "rental_uris": {"android": "https://dc.lft.to/lastmile_qr_scan", "ios": "https://dc.lft.to/lastmile_qr_scan"}, "is_reserved": 0, "name": "24738e9ca69d6b784e2404f9b7c81e17", "lon": -77.02953133333334, "type": "electric_scooter", "bike_id": "24738e9ca69d6b784e2404f9b7c81e17", "fusion_lon": 0.0, "lat": 38.91197066666667, "fusion_lat": 0.0}, {"is_disabled": 0, "rental_uris": {"android": "https://dc.lft.to/lastmile_qr_scan", "ios": "https://dc.lft.to/lastmile_qr_scan"}, "is_reserved": 0, "name": "311005de34cc7b7bfcbcf73c2781ba1b", "lon": -76.98466316666666, "type": "electric_scooter", "bike_id": "311005de34cc7b7bfcbcf73c2781ba1b", "fusion_lon": 0.0, "lat": 38.89358516666667, "fusion_lat": 0.0}, {"is_disabled": 0, "rental_uris": {"android": "https://dc.lft.to/lastmile_qr_scan", "ios": "https://dc.lft.to/lastmile_qr_scan"}, "is_reserved": 0, "name": "eb22a63aefba590eee24a2fb319a1fc4", "lon": -77.03082616666667, "type": "electric_scooter", "bike_id": "eb22a63aefba590eee24a2fb319a1fc4", "fusion_lon": 0.0, "lat": 38.922397, "fusion_lat": 0.0}, {"is_disabled": 0, "rental_uris": {"android": "https://dc.lft.to/lastmile_qr_scan", "ios": "https://dc.lft.to/lastmile_qr_scan"}, "is_reserved": 0, "name": "208034bd7c3c98fe8b2b480237c0b42f", "lon": -77.1151565, "type": "electric_bike", "bike_id": "208034bd7c3c98fe8b2b480237c0b42f", "fusion_lon": 0.0, "lat": 38.88211616666667, "fusion_lat": 0.0}, {"is_disabled": 0, "rental_uris": {"android": "https://dc.lft.to/lastmile_qr_scan", "ios": "https://dc.lft.to/lastmile_qr_scan"}, "is_reserved": 0, "name": "eda38500d6f9b612d743709a655ae795", "lon": -77.0653215, "type": "electric_scooter", "bike_id": "eda38500d6f9b612d743709a655ae795", "fusion_lon": 0.0, "lat": 38.90522333333333, "fusion_lat": 0.0}, {"is_disabled": 0, "rental_uris": {"android": "https://dc.lft.to/lastmile_qr_scan", "ios": "https://dc.lft.to/lastmile_qr_scan"}, "is_reserved": 0, "name": "125eb0261dbed3506b8ac9cd9be81a2e", "lon": -77.03516483333334, "type": "electric_scooter", "bike_id": "125eb0261dbed3506b8ac9cd9be81a2e", "fusion_lon": 0.0, "lat": 38.922433833333336, "fusion_lat": 0.0}, {"is_disabled": 0, "rental_uris": {"android": "https://dc.lft.to/lastmile_qr_scan", "ios": "https://dc.lft.to/lastmile_qr_scan"}, "is_reserved": 0, "name": "7d330f1579736ba7cd39152c4dc2dfa4", "lon": -77.05396983333333, "type": "electric_scooter", "bike_id": "7d330f1579736ba7cd39152c4dc2dfa4", "fusion_lon": 0.0, "lat": 38.927849, "fusion_lat": 0.0}, {"is_disabled": 0, "rental_uris": {"android": "https://dc.lft.to/lastmile_qr_scan", "ios": "https://dc.lft.to/lastmile_qr_scan"}, "is_reserved": 0, "name": "748efb96f36a7e3637b7cabd02cde13e", "lon": -77.02792333333333, "type": "electric_scooter", "bike_id": "748efb96f36a7e3637b7cabd02cde13e", "fusion_lon": 0.0, "lat": 38.884213833333334, "fusion_lat": 0.0}, {"is_disabled": 0, "rental_uris": {"android": "https://dc.lft.to/lastmile_qr_scan", "ios": "https://dc.lft.to/lastmile_qr_scan"}, "is_reserved": 0, "name": "adaafd5dabf4c88fee3c5e955b5d3839", "lon": -77.04191366666667, "type": "electric_scooter", "bike_id": "adaafd5dabf4c88fee3c5e955b5d3839", "fusion_lon": 0.0, "lat": 38.91673933333333, "fusion_lat": 0.0}, {"is_disabled": 0, "rental_uris": {"android": "https://dc.lft.to/lastmile_qr_scan", "ios": "https://dc.lft.to/lastmile_qr_scan"}, "is_reserved": 0, "name": "2caab943c4ffdec8ca4aae9743b091d4", "lon": -77.00209116666667, "type": "electric_scooter", "bike_id": "2caab943c4ffdec8ca4aae9743b091d4", "fusion_lon": 0.0, "lat": 38.900257, "fusion_lat": 0.0}, {"is_disabled": 0, "rental_uris": {"android": "https://dc.lft.to/lastmile_qr_scan", "ios": "https://dc.lft.to/lastmile_qr_scan"}, "is_reserved": 0, "name": "d6d1801a26aa969c8efb95e6d7ebcb70", "lon": -76.9638185, "type": "electric_bike", "bike_id": "d6d1801a26aa969c8efb95e6d7ebcb70", "fusion_lon": 0.0, "lat": 38.975817666666664, "fusion_lat": 0.0}, {"is_disabled": 0, "rental_uris": {"android": "https://dc.lft.to/lastmile_qr_scan", "ios": "https://dc.lft.to/lastmile_qr_scan"}, "is_reserved": 0, "name": "edded445c5bc0aa95e43a0d094cebdad", "lon": -77.02406783333333, "type": "electric_scooter", "bike_id": "edded445c5bc0aa95e43a0d094cebdad", "fusion_lon": 0.0, "lat": 38.89254066666667, "fusion_lat": 0.0}, {"is_disabled": 0, "rental_uris": {"android": "https://dc.lft.to/lastmile_qr_scan", "ios": "https://dc.lft.to/lastmile_qr_scan"}, "is_reserved": 0, "name": "5bb889c4715526ad8d31fcd73acd8b8b", "lon": -76.93360683333333, "type": "electric_scooter", "bike_id": "5bb889c4715526ad8d31fcd73acd8b8b", "fusion_lon": 0.0, "lat": 38.899014333333334, "fusion_lat": 0.0}, {"is_disabled": 0, "rental_uris": {"android": "https://dc.lft.to/lastmile_qr_scan", "ios": "https://dc.lft.to/lastmile_qr_scan"}, "is_reserved": 0, "name": "470b094fdbbc45ec2083e29830acb7fb", "lon": -77.0078285, "type": "electric_bike", "bike_id": "470b094fdbbc45ec2083e29830acb7fb", "fusion_lon": 0.0, "lat": 38.98125783333333, "fusion_lat": 0.0}, {"is_disabled": 0, "rental_uris": {"android": "https://dc.lft.to/lastmile_qr_scan", "ios": "https://dc.lft.to/lastmile_qr_scan"}, "is_reserved": 0, "name": "ee20c2beb6bbf42053abf7deba8fa2b9", "lon": -76.98376216666666, "type": "electric_scooter", "bike_id": "ee20c2beb6bbf42053abf7deba8fa2b9", "fusion_lon": 0.0, "lat": 38.8444165, "fusion_lat": 0.0}, {"is_disabled": 0, "rental_uris": {"android": "https://dc.lft.to/lastmile_qr_scan", "ios": "https://dc.lft.to/lastmile_qr_scan"}, "is_reserved": 0, "name": "dca9f50a75920147040673f78eecf3c3", "lon": -77.01640033333334, "type": "electric_scooter", "bike_id": "dca9f50a75920147040673f78eecf3c3", "fusion_lon": 0.0, "lat": 38.928918, "fusion_lat": 0.0}, {"is_disabled": 0, "rental_uris": {"android": "https://dc.lft.to/lastmile_qr_scan", "ios": "https://dc.lft.to/lastmile_qr_scan"}, "is_reserved": 0, "name": "b9cb662a2a29546d8e14a924d77d8a8e", "lon": -77.1072585, "type": "electric_bike", "bike_id": "b9cb662a2a29546d8e14a924d77d8a8e", "fusion_lon": 0.0, "lat": 38.85575166666667, "fusion_lat": 0.0}, {"is_disabled": 0, "rental_uris": {"android": "https://dc.lft.to/lastmile_qr_scan", "ios": "https://dc.lft.to/lastmile_qr_scan"}, "is_reserved": 0, "name": "864469ad78bdf8659f2d0861b65d9081", "lon": -76.9486395, "type": "electric_bike", "bike_id": "864469ad78bdf8659f2d0861b65d9081", "fusion_lon": 0.0, "lat": 38.889687333333335, "fusion_lat": 0.0}, {"is_disabled": 0, "rental_uris": {"android": "https://dc.lft.to/lastmile_qr_scan", "ios": "https://dc.lft.to/lastmile_qr_scan"}, "is_reserved": 0, "name": "f2a6d1ae92fa78609b088b18434dca3c", "lon": -77.014767, "type": "electric_scooter", "bike_id": "f2a6d1ae92fa78609b088b18434dca3c", "fusion_lon": 0.0, "lat": 38.876458666666664, "fusion_lat": 0.0}, {"is_disabled": 0, "rental_uris": {"android": "https://dc.lft.to/lastmile_qr_scan", "ios": "https://dc.lft.to/lastmile_qr_scan"}, "is_reserved": 0, "name": "3c1c55840e56de9a1cc3aade57ee7cb1", "lon": -77.02964283333333, "type": "electric_scooter", "bike_id": "3c1c55840e56de9a1cc3aade57ee7cb1", "fusion_lon": 0.0, "lat": 38.924654833333335, "fusion_lat": 0.0}, {"is_disabled": 0, "rental_uris": {"android": "https://dc.lft.to/lastmile_qr_scan", "ios": "https://dc.lft.to/lastmile_qr_scan"}, "is_reserved": 0, "name": "2ba848636e70ea575b9ac861254ee75e", "lon": -76.87771516666666, "type": "electric_bike", "bike_id": "2ba848636e70ea575b9ac861254ee75e", "fusion_lon": 0.0, "lat": 38.992276, "fusion_lat": 0.0}, {"is_disabled": 0, "rental_uris": {"android": "https://dc.lft.to/lastmile_qr_scan", "ios": "https://dc.lft.to/lastmile_qr_scan"}, "is_reserved": 0, "name": "a2ef1ec1642923981579446f759cd8ce", "lon": -77.013082, "type": "electric_scooter", "bike_id": "a2ef1ec1642923981579446f759cd8ce", "fusion_lon": 0.0, "lat": 38.90138183333333, "fusion_lat": 0.0}, {"is_disabled": 0, "rental_uris": {"android": "https://dc.lft.to/lastmile_qr_scan", "ios": "https://dc.lft.to/lastmile_qr_scan"}, "is_reserved": 0, "name": "de3e7c4143d0d50b914c4334297dc210", "lon": -77.03993516666667, "type": "electric_scooter", "bike_id": "de3e7c4143d0d50b914c4334297dc210", "fusion_lon": 0.0, "lat": 38.914142166666664, "fusion_lat": 0.0}, {"is_disabled": 0, "rental_uris": {"android": "https://dc.lft.to/lastmile_qr_scan", "ios": "https://dc.lft.to/lastmile_qr_scan"}, "is_reserved": 0, "name": "fe5deb2eab394e1e81136f480feaab9b", "lon": -76.99833466666666, "type": "electric_bike", "bike_id": "fe5deb2eab394e1e81136f480feaab9b", "fusion_lon": 0.0, "lat": 38.9000545, "fusion_lat": 0.0}, {"is_disabled": 0, "rental_uris": {"android": "https://dc.lft.to/lastmile_qr_scan", "ios": "https://dc.lft.to/lastmile_qr_scan"}, "is_reserved": 0, "name": "d067f86a282f2c8de8fe35dccb433350", "lon": -76.96685, "type": "electric_bike", "bike_id": "d067f86a282f2c8de8fe35dccb433350", "fusion_lon": 0.0, "lat": 38.95891783333333, "fusion_lat": 0.0}, {"is_disabled": 0, "rental_uris": {"android": "https://dc.lft.to/lastmile_qr_scan", "ios": "https://dc.lft.to/lastmile_qr_scan"}, "is_reserved": 0, "name": "85179f4292a5adc99b88c30471cfcc11", "lon": -77.02226616666667, "type": "electric_scooter", "bike_id": "85179f4292a5adc99b88c30471cfcc11", "fusion_lon": 0.0, "lat": 38.887448166666665, "fusion_lat": 0.0}, {"is_disabled": 0, "rental_uris": {"android": "https://dc.lft.to/lastmile_qr_scan", "ios": "https://dc.lft.to/lastmile_qr_scan"}, "is_reserved": 0, "name": "d6fbf36cb760399f57e0eb35ab1c0d34", "lon": -76.95755516666667, "type": "electric_scooter", "bike_id": "d6fbf36cb760399f57e0eb35ab1c0d34", "fusion_lon": 0.0, "lat": 38.88433916666666, "fusion_lat": 0.0}, {"is_disabled": 0, "rental_uris": {"android": "https://dc.lft.to/lastmile_qr_scan", "ios": "https://dc.lft.to/lastmile_qr_scan"}, "is_reserved": 0, "name": "4baaab9af2bcea4dd341b8d60f19b63d", "lon": -77.03459716666667, "type": "electric_scooter", "bike_id": "4baaab9af2bcea4dd341b8d60f19b63d", "fusion_lon": 0.0, "lat": 38.909820333333336, "fusion_lat": 0.0}, {"is_disabled": 0, "rental_uris": {"android": "https://dc.lft.to/lastmile_qr_scan", "ios": "https://dc.lft.to/lastmile_qr_scan"}, "is_reserved": 0, "name": "6e516fb2bea03ae90be102a55e15e68b", "lon": -77.05024033333333, "type": "electric_scooter", "bike_id": "6e516fb2bea03ae90be102a55e15e68b", "fusion_lon": 0.0, "lat": 38.895732, "fusion_lat": 0.0}, {"is_disabled": 0, "rental_uris": {"android": "https://dc.lft.to/lastmile_qr_scan", "ios": "https://dc.lft.to/lastmile_qr_scan"}, "is_reserved": 0, "name": "4f86ceda9aff91d98027a045a0dcdd0b", "lon": -76.98851033333334, "type": "electric_scooter", "bike_id": "4f86ceda9aff91d98027a045a0dcdd0b", "fusion_lon": 0.0, "lat": 38.899963666666665, "fusion_lat": 0.0}, {"is_disabled": 0, "rental_uris": {"android": "https://dc.lft.to/lastmile_qr_scan", "ios": "https://dc.lft.to/lastmile_qr_scan"}, "is_reserved": 0, "name": "f5e2cd1ae8c9740085269dcdacbad4c2", "lon": -76.94995233333333, "type": "electric_scooter", "bike_id": "f5e2cd1ae8c9740085269dcdacbad4c2", "fusion_lon": 0.0, "lat": 38.89389666666667, "fusion_lat": 0.0}, {"is_disabled": 0, "rental_uris": {"android": "https://dc.lft.to/lastmile_qr_scan", "ios": "https://dc.lft.to/lastmile_qr_scan"}, "is_reserved": 0, "name": "f7caf33ce91a20373c67a127fed0b06c", "lon": -77.04651183333333, "type": "electric_scooter", "bike_id": "f7caf33ce91a20373c67a127fed0b06c", "fusion_lon": 0.0, "lat": 38.89339733333333, "fusion_lat": 0.0}, {"is_disabled": 0, "rental_uris": {"android": "https://dc.lft.to/lastmile_qr_scan", "ios": "https://dc.lft.to/lastmile_qr_scan"}, "is_reserved": 0, "name": "da6ba7f03424a8e85f98886f4d36deb4", "lon": -77.01989666666667, "type": "electric_scooter", "bike_id": "da6ba7f03424a8e85f98886f4d36deb4", "fusion_lon": 0.0, "lat": 38.875747833333335, "fusion_lat": 0.0}, {"is_disabled": 0, "rental_uris": {"android": "https://dc.lft.to/lastmile_qr_scan", "ios": "https://dc.lft.to/lastmile_qr_scan"}, "is_reserved": 0, "name": "25a6200f434afd6e4e627890ae2199a5", "lon": -77.06527116666666, "type": "electric_scooter", "bike_id": "25a6200f434afd6e4e627890ae2199a5", "fusion_lon": 0.0, "lat": 38.90524166666667, "fusion_lat": 0.0}, {"is_disabled": 0, "rental_uris": {"android": "https://dc.lft.to/lastmile_qr_scan", "ios": "https://dc.lft.to/lastmile_qr_scan"}, "is_reserved": 0, "name": "05696cc4bcd1a1b2ba0d1108d4bff9ff", "lon": -77.05197616666666, "type": "electric_scooter", "bike_id": "05696cc4bcd1a1b2ba0d1108d4bff9ff", "fusion_lon": 0.0, "lat": 38.92565, "fusion_lat": 0.0}, {"is_disabled": 0, "rental_uris": {"android": "https://dc.lft.to/lastmile_qr_scan", "ios": "https://dc.lft.to/lastmile_qr_scan"}, "is_reserved": 0, "name": "d288955d65b50403fa9fa9fe82d4be01", "lon": -77.026969, "type": "electric_scooter", "bike_id": "d288955d65b50403fa9fa9fe82d4be01", "fusion_lon": 0.0, "lat": 38.907391833333335, "fusion_lat": 0.0}, {"is_disabled": 0, "rental_uris": {"android": "https://dc.lft.to/lastmile_qr_scan", "ios": "https://dc.lft.to/lastmile_qr_scan"}, "is_reserved": 0, "name": "ad3b1c2d5e423e7401b9257fbf73e80e", "lon": -77.08037883333333, "type": "electric_bike", "bike_id": "ad3b1c2d5e423e7401b9257fbf73e80e", "fusion_lon": 0.0, "lat": 38.848497, "fusion_lat": 0.0}, {"is_disabled": 0, "rental_uris": {"android": "https://dc.lft.to/lastmile_qr_scan", "ios": "https://dc.lft.to/lastmile_qr_scan"}, "is_reserved": 0, "name": "74f59e26dcc2b34dfbaa645948897543", "lon": -77.04157883333333, "type": "electric_scooter", "bike_id": "74f59e26dcc2b34dfbaa645948897543", "fusion_lon": 0.0, "lat": 38.91421483333333, "fusion_lat": 0.0}, {"is_disabled": 0, "rental_uris": {"android": "https://dc.lft.to/lastmile_qr_scan", "ios": "https://dc.lft.to/lastmile_qr_scan"}, "is_reserved": 0, "name": "3b22fc90d5c55add6a9d11be1fd0e6dd", "lon": -77.02038716666667, "type": "electric_scooter", "bike_id": "3b22fc90d5c55add6a9d11be1fd0e6dd", "fusion_lon": 0.0, "lat": 38.915585, "fusion_lat": 0.0}, {"is_disabled": 0, "rental_uris": {"android": "https://dc.lft.to/lastmile_qr_scan", "ios": "https://dc.lft.to/lastmile_qr_scan"}, "is_reserved": 0, "name": "e9cac4beb24d7040923d6ea73e3ac60d", "lon": -77.0241675, "type": "electric_scooter", "bike_id": "e9cac4beb24d7040923d6ea73e3ac60d", "fusion_lon": 0.0, "lat": 38.909697333333334, "fusion_lat": 0.0}, {"is_disabled": 0, "rental_uris": {"android": "https://dc.lft.to/lastmile_qr_scan", "ios": "https://dc.lft.to/lastmile_qr_scan"}, "is_reserved": 0, "name": "09759701596122b6e4a963fbaf53ecca", "lon": -77.03180966666666, "type": "electric_scooter", "bike_id": "09759701596122b6e4a963fbaf53ecca", "fusion_lon": 0.0, "lat": 38.89229266666667, "fusion_lat": 0.0}, {"is_disabled": 0, "rental_uris": {"android": "https://dc.lft.to/lastmile_qr_scan", "ios": "https://dc.lft.to/lastmile_qr_scan"}, "is_reserved": 0, "name": "e1fe536921480e392519695a8434a8a4", "lon": -77.0541785, "type": "electric_scooter", "bike_id": "e1fe536921480e392519695a8434a8a4", "fusion_lon": 0.0, "lat": 38.92826983333333, "fusion_lat": 0.0}, {"is_disabled": 0, "rental_uris": {"android": "https://dc.lft.to/lastmile_qr_scan", "ios": "https://dc.lft.to/lastmile_qr_scan"}, "is_reserved": 0, "name": "fa285637d1c786fa654867ff16bc3f09", "lon": -77.01222233333333, "type": "electric_scooter", "bike_id": "fa285637d1c786fa654867ff16bc3f09", "fusion_lon": 0.0, "lat": 38.91691633333333, "fusion_lat": 0.0}, {"is_disabled": 0, "rental_uris": {"android": "https://dc.lft.to/lastmile_qr_scan", "ios": "https://dc.lft.to/lastmile_qr_scan"}, "is_reserved": 0, "name": "1beb39ee7569520e002c334f964ca3c9", "lon": -76.947069, "type": "electric_scooter", "bike_id": "1beb39ee7569520e002c334f964ca3c9", "fusion_lon": 0.0, "lat": 38.896727, "fusion_lat": 0.0}, {"is_disabled": 0, "rental_uris": {"android": "https://dc.lft.to/lastmile_qr_scan", "ios": "https://dc.lft.to/lastmile_qr_scan"}, "is_reserved": 0, "name": "96d6348b11f74dbf91a08ff7843d8223", "lon": -77.06107766666666, "type": "electric_scooter", "bike_id": "96d6348b11f74dbf91a08ff7843d8223", "fusion_lon": 0.0, "lat": 38.94372, "fusion_lat": 0.0}, {"is_disabled": 0, "rental_uris": {"android": "https://dc.lft.to/lastmile_qr_scan", "ios": "https://dc.lft.to/lastmile_qr_scan"}, "is_reserved": 0, "name": "742536b93e85a0e65469594600e5704f", "lon": -77.03048333333334, "type": "electric_scooter", "bike_id": "742536b93e85a0e65469594600e5704f", "fusion_lon": 0.0, "lat": 38.9012845, "fusion_lat": 0.0}, {"is_disabled": 0, "rental_uris": {"android": "https://dc.lft.to/lastmile_qr_scan", "ios": "https://dc.lft.to/lastmile_qr_scan"}, "is_reserved": 0, "name": "c6aa2dbdd411ddf9912599c8fa079ee7", "lon": -77.05292833333333, "type": "electric_scooter", "bike_id": "c6aa2dbdd411ddf9912599c8fa079ee7", "fusion_lon": 0.0, "lat": 38.903447166666666, "fusion_lat": 0.0}, {"is_disabled": 0, "rental_uris": {"android": "https://dc.lft.to/lastmile_qr_scan", "ios": "https://dc.lft.to/lastmile_qr_scan"}, "is_reserved": 0, "name": "713184d6d850ef9f10c7c1424bd5b8cb", "lon": -77.03131433333333, "type": "electric_bike", "bike_id": "713184d6d850ef9f10c7c1424bd5b8cb", "fusion_lon": 0.0, "lat": 38.96278816666667, "fusion_lat": 0.0}, {"is_disabled": 0, "rental_uris": {"android": "https://dc.lft.to/lastmile_qr_scan", "ios": "https://dc.lft.to/lastmile_qr_scan"}, "is_reserved": 0, "name": "c312053233ede64682769d6c5adfa309", "lon": -77.05134183333334, "type": "electric_scooter", "bike_id": "c312053233ede64682769d6c5adfa309", "fusion_lon": 0.0, "lat": 38.907107833333335, "fusion_lat": 0.0}, {"is_disabled": 0, "rental_uris": {"android": "https://dc.lft.to/lastmile_qr_scan", "ios": "https://dc.lft.to/lastmile_qr_scan"}, "is_reserved": 0, "name": "8555624e784499fbeff0c6157668def3", "lon": -77.01404233333334, "type": "electric_scooter", "bike_id": "8555624e784499fbeff0c6157668def3", "fusion_lon": 0.0, "lat": 38.928525666666665, "fusion_lat": 0.0}, {"is_disabled": 0, "rental_uris": {"android": "https://dc.lft.to/lastmile_qr_scan", "ios": "https://dc.lft.to/lastmile_qr_scan"}, "is_reserved": 0, "name": "d11a3d9ab3a071850a3387171be21906", "lon": -77.05166733333333, "type": "electric_scooter", "bike_id": "d11a3d9ab3a071850a3387171be21906", "fusion_lon": 0.0, "lat": 38.90327416666667, "fusion_lat": 0.0}, {"is_disabled": 0, "rental_uris": {"android": "https://dc.lft.to/lastmile_qr_scan", "ios": "https://dc.lft.to/lastmile_qr_scan"}, "is_reserved": 0, "name": "5c3be9126f7d25dd91ff536dacaf616d", "lon": -76.941569, "type": "electric_scooter", "bike_id": "5c3be9126f7d25dd91ff536dacaf616d", "fusion_lon": 0.0, "lat": 38.883664333333336, "fusion_lat": 0.0}, {"is_disabled": 0, "rental_uris": {"android": "https://dc.lft.to/lastmile_qr_scan", "ios": "https://dc.lft.to/lastmile_qr_scan"}, "is_reserved": 0, "name": "cce6bc5826c5939cd07c0e9042da81d9", "lon": -76.90951516666667, "type": "electric_bike", "bike_id": "cce6bc5826c5939cd07c0e9042da81d9", "fusion_lon": 0.0, "lat": 38.854138, "fusion_lat": 0.0}, {"is_disabled": 0, "rental_uris": {"android": "https://dc.lft.to/lastmile_qr_scan", "ios": "https://dc.lft.to/lastmile_qr_scan"}, "is_reserved": 0, "name": "69a00ba7fc2ce7fc2d5e490caf5838c4", "lon": -76.93740983333333, "type": "electric_scooter", "bike_id": "69a00ba7fc2ce7fc2d5e490caf5838c4", "fusion_lon": 0.0, "lat": 38.89017833333333, "fusion_lat": 0.0}, {"is_disabled": 0, "rental_uris": {"android": "https://dc.lft.to/lastmile_qr_scan", "ios": "https://dc.lft.to/lastmile_qr_scan"}, "is_reserved": 0, "name": "4d176bae5219ef95bd97bb941d405661", "lon": -77.03222066666666, "type": "electric_scooter", "bike_id": "4d176bae5219ef95bd97bb941d405661", "fusion_lon": 0.0, "lat": 38.924956, "fusion_lat": 0.0}, {"is_disabled": 0, "rental_uris": {"android": "https://dc.lft.to/lastmile_qr_scan", "ios": "https://dc.lft.to/lastmile_qr_scan"}, "is_reserved": 0, "name": "7a4e4d975cd0ee3c45415c75d712bf4f", "lon": -77.0531985, "type": "electric_scooter", "bike_id": "7a4e4d975cd0ee3c45415c75d712bf4f", "fusion_lon": 0.0, "lat": 38.90318633333333, "fusion_lat": 0.0}, {"is_disabled": 0, "rental_uris": {"android": "https://dc.lft.to/lastmile_qr_scan", "ios": "https://dc.lft.to/lastmile_qr_scan"}, "is_reserved": 0, "name": "3ecfa672f9d06cec866279479e2d968a", "lon": -77.02223833333333, "type": "electric_scooter", "bike_id": "3ecfa672f9d06cec866279479e2d968a", "fusion_lon": 0.0, "lat": 38.914146833333334, "fusion_lat": 0.0}, {"is_disabled": 0, "rental_uris": {"android": "https://dc.lft.to/lastmile_qr_scan", "ios": "https://dc.lft.to/lastmile_qr_scan"}, "is_reserved": 0, "name": "ecb9191caa33df63d40fae5ea772f95d", "lon": -77.02261066666667, "type": "electric_scooter", "bike_id": "ecb9191caa33df63d40fae5ea772f95d", "fusion_lon": 0.0, "lat": 38.92833566666667, "fusion_lat": 0.0}, {"is_disabled": 0, "rental_uris": {"android": "https://dc.lft.to/lastmile_qr_scan", "ios": "https://dc.lft.to/lastmile_qr_scan"}, "is_reserved": 0, "name": "6452e0b8ef5932fdaa0d10f1e2fc7f3e", "lon": -77.03759666666667, "type": "electric_scooter", "bike_id": "6452e0b8ef5932fdaa0d10f1e2fc7f3e", "fusion_lon": 0.0, "lat": 38.93613883333333, "fusion_lat": 0.0}, {"is_disabled": 0, "rental_uris": {"android": "https://dc.lft.to/lastmile_qr_scan", "ios": "https://dc.lft.to/lastmile_qr_scan"}, "is_reserved": 0, "name": "4593c7616062e245c29408e75bb9912b", "lon": -77.01014683333334, "type": "electric_scooter", "bike_id": "4593c7616062e245c29408e75bb9912b", "fusion_lon": 0.0, "lat": 38.86716933333334, "fusion_lat": 0.0}, {"is_disabled": 0, "rental_uris": {"android": "https://dc.lft.to/lastmile_qr_scan", "ios": "https://dc.lft.to/lastmile_qr_scan"}, "is_reserved": 0, "name": "629e9a63be6bb177de3c4d0975c84f93", "lon": -77.03855516666667, "type": "electric_scooter", "bike_id": "629e9a63be6bb177de3c4d0975c84f93", "fusion_lon": 0.0, "lat": 38.916911, "fusion_lat": 0.0}, {"is_disabled": 0, "rental_uris": {"android": "https://dc.lft.to/lastmile_qr_scan", "ios": "https://dc.lft.to/lastmile_qr_scan"}, "is_reserved": 0, "name": "1184ae6e72011c6df4c63e08d223d6de", "lon": -76.996467, "type": "electric_scooter", "bike_id": "1184ae6e72011c6df4c63e08d223d6de", "fusion_lon": 0.0, "lat": 38.887225666666666, "fusion_lat": 0.0}, {"is_disabled": 0, "rental_uris": {"android": "https://dc.lft.to/lastmile_qr_scan", "ios": "https://dc.lft.to/lastmile_qr_scan"}, "is_reserved": 0, "name": "01759035ab44674cd3cc3f56d1e5a335", "lon": -77.01758516666666, "type": "electric_scooter", "bike_id": "01759035ab44674cd3cc3f56d1e5a335", "fusion_lon": 0.0, "lat": 38.90387783333333, "fusion_lat": 0.0}, {"is_disabled": 0, "rental_uris": {"android": "https://dc.lft.to/lastmile_qr_scan", "ios": "https://dc.lft.to/lastmile_qr_scan"}, "is_reserved": 0, "name": "b9717529f3ff326c6d558eaff50f5511", "lon": -77.04240466666667, "type": "electric_scooter", "bike_id": "b9717529f3ff326c6d558eaff50f5511", "fusion_lon": 0.0, "lat": 38.919255166666666, "fusion_lat": 0.0}, {"is_disabled": 0, "rental_uris": {"android": "https://dc.lft.to/lastmile_qr_scan", "ios": "https://dc.lft.to/lastmile_qr_scan"}, "is_reserved": 0, "name": "8c149bdd91ff24ddde68a7f7e1340f44", "lon": -77.03236483333333, "type": "electric_scooter", "bike_id": "8c149bdd91ff24ddde68a7f7e1340f44", "fusion_lon": 0.0, "lat": 38.904513, "fusion_lat": 0.0}, {"is_disabled": 0, "rental_uris": {"android": "https://dc.lft.to/lastmile_qr_scan", "ios": "https://dc.lft.to/lastmile_qr_scan"}, "is_reserved": 0, "name": "b8c7c02a003532f99d6fdcb0d29cdeac", "lon": -77.05745766666666, "type": "electric_scooter", "bike_id": "b8c7c02a003532f99d6fdcb0d29cdeac", "fusion_lon": 0.0, "lat": 38.93349083333333, "fusion_lat": 0.0}, {"is_disabled": 0, "rental_uris": {"android": "https://dc.lft.to/lastmile_qr_scan", "ios": "https://dc.lft.to/lastmile_qr_scan"}, "is_reserved": 0, "name": "1eeec1db2f97cd2255f9d31f7f8abc50", "lon": -77.0578715, "type": "electric_scooter", "bike_id": "1eeec1db2f97cd2255f9d31f7f8abc50", "fusion_lon": 0.0, "lat": 38.905104, "fusion_lat": 0.0}, {"is_disabled": 0, "rental_uris": {"android": "https://dc.lft.to/lastmile_qr_scan", "ios": "https://dc.lft.to/lastmile_qr_scan"}, "is_reserved": 0, "name": "8fb69b49bbf6df39fc305f9f132503b0", "lon": -77.04042166666666, "type": "electric_scooter", "bike_id": "8fb69b49bbf6df39fc305f9f132503b0", "fusion_lon": 0.0, "lat": 38.90586733333333, "fusion_lat": 0.0}, {"is_disabled": 0, "rental_uris": {"android": "https://dc.lft.to/lastmile_qr_scan", "ios": "https://dc.lft.to/lastmile_qr_scan"}, "is_reserved": 0, "name": "5f92bb9b73fe04f1a1b9a93855243e7e", "lon": -77.03173383333333, "type": "electric_scooter", "bike_id": "5f92bb9b73fe04f1a1b9a93855243e7e", "fusion_lon": 0.0, "lat": 38.914211333333334, "fusion_lat": 0.0}, {"is_disabled": 0, "rental_uris": {"android": "https://dc.lft.to/lastmile_qr_scan", "ios": "https://dc.lft.to/lastmile_qr_scan"}, "is_reserved": 0, "name": "1b485097342797bc2d22e3a4cb367636", "lon": -77.03858483333333, "type": "electric_scooter", "bike_id": "1b485097342797bc2d22e3a4cb367636", "fusion_lon": 0.0, "lat": 38.9013085, "fusion_lat": 0.0}, {"is_disabled": 0, "rental_uris": {"android": "https://dc.lft.to/lastmile_qr_scan", "ios": "https://dc.lft.to/lastmile_qr_scan"}, "is_reserved": 0, "name": "7b62ad03d1c764e8358996096eac9cf7", "lon": -77.042948, "type": "electric_scooter", "bike_id": "7b62ad03d1c764e8358996096eac9cf7", "fusion_lon": 0.0, "lat": 38.91339466666667, "fusion_lat": 0.0}, {"is_disabled": 0, "rental_uris": {"android": "https://dc.lft.to/lastmile_qr_scan", "ios": "https://dc.lft.to/lastmile_qr_scan"}, "is_reserved": 0, "name": "49d355d53e09e80eb87daed7d9964a8f", "lon": -77.01523283333333, "type": "electric_scooter", "bike_id": "49d355d53e09e80eb87daed7d9964a8f", "fusion_lon": 0.0, "lat": 38.884898166666666, "fusion_lat": 0.0}, {"is_disabled": 0, "rental_uris": {"android": "https://dc.lft.to/lastmile_qr_scan", "ios": "https://dc.lft.to/lastmile_qr_scan"}, "is_reserved": 0, "name": "2d1a75bb63afa47817830108cac2f02f", "lon": -77.01878866666667, "type": "electric_scooter", "bike_id": "2d1a75bb63afa47817830108cac2f02f", "fusion_lon": 0.0, "lat": 38.90064, "fusion_lat": 0.0}, {"is_disabled": 0, "rental_uris": {"android": "https://dc.lft.to/lastmile_qr_scan", "ios": "https://dc.lft.to/lastmile_qr_scan"}, "is_reserved": 0, "name": "f6d7b835b52f08f0761ba2e7a6fa4ff2", "lon": -77.023855, "type": "electric_scooter", "bike_id": "f6d7b835b52f08f0761ba2e7a6fa4ff2", "fusion_lon": 0.0, "lat": 38.90872366666667, "fusion_lat": 0.0}, {"is_disabled": 0, "rental_uris": {"android": "https://dc.lft.to/lastmile_qr_scan", "ios": "https://dc.lft.to/lastmile_qr_scan"}, "is_reserved": 0, "name": "081b088dbfda38a6d5205fccf846246f", "lon": -77.0320655, "type": "electric_scooter", "bike_id": "081b088dbfda38a6d5205fccf846246f", "fusion_lon": 0.0, "lat": 38.916875166666664, "fusion_lat": 0.0}, {"is_disabled": 0, "rental_uris": {"android": "https://dc.lft.to/lastmile_qr_scan", "ios": "https://dc.lft.to/lastmile_qr_scan"}, "is_reserved": 0, "name": "e4db0f3415fdee8001773c19b332c33c", "lon": -77.03420216666666, "type": "electric_scooter", "bike_id": "e4db0f3415fdee8001773c19b332c33c", "fusion_lon": 0.0, "lat": 38.911984833333335, "fusion_lat": 0.0}, {"is_disabled": 0, "rental_uris": {"android": "https://dc.lft.to/lastmile_qr_scan", "ios": "https://dc.lft.to/lastmile_qr_scan"}, "is_reserved": 0, "name": "02f0797f4f7df0552afdf3f649b9dfa4", "lon": -76.98796733333333, "type": "electric_bike", "bike_id": "02f0797f4f7df0552afdf3f649b9dfa4", "fusion_lon": 0.0, "lat": 38.9221375, "fusion_lat": 0.0}, {"is_disabled": 0, "rental_uris": {"android": "https://dc.lft.to/lastmile_qr_scan", "ios": "https://dc.lft.to/lastmile_qr_scan"}, "is_reserved": 0, "name": "450294f52b6beac04038a9a8606f4f6c", "lon": -77.031995, "type": "electric_bike", "bike_id": "450294f52b6beac04038a9a8606f4f6c", "fusion_lon": 0.0, "lat": 38.92363316666667, "fusion_lat": 0.0}, {"is_disabled": 0, "rental_uris": {"android": "https://dc.lft.to/lastmile_qr_scan", "ios": "https://dc.lft.to/lastmile_qr_scan"}, "is_reserved": 0, "name": "ac97e61f107a3c704c02390f12e83f75", "lon": -77.132306, "type": "electric_bike", "bike_id": "ac97e61f107a3c704c02390f12e83f75", "fusion_lon": 0.0, "lat": 38.869770333333335, "fusion_lat": 0.0}, {"is_disabled": 0, "rental_uris": {"android": "https://dc.lft.to/lastmile_qr_scan", "ios": "https://dc.lft.to/lastmile_qr_scan"}, "is_reserved": 0, "name": "3acb478546f0b3c84b3e6b901a042106", "lon": -77.0003865, "type": "electric_scooter", "bike_id": "3acb478546f0b3c84b3e6b901a042106", "fusion_lon": 0.0, "lat": 38.92080633333333, "fusion_lat": 0.0}, {"is_disabled": 0, "rental_uris": {"android": "https://dc.lft.to/lastmile_qr_scan", "ios": "https://dc.lft.to/lastmile_qr_scan"}, "is_reserved": 0, "name": "4557b91f996b9bb7586bc363347e90ae", "lon": -77.00366583333333, "type": "electric_scooter", "bike_id": "4557b91f996b9bb7586bc363347e90ae", "fusion_lon": 0.0, "lat": 38.87768283333333, "fusion_lat": 0.0}, {"is_disabled": 0, "rental_uris": {"android": "https://dc.lft.to/lastmile_qr_scan", "ios": "https://dc.lft.to/lastmile_qr_scan"}, "is_reserved": 0, "name": "e77397fd27919f3291413b5140cd97a9", "lon": -77.05118383333334, "type": "electric_scooter", "bike_id": "e77397fd27919f3291413b5140cd97a9", "fusion_lon": 0.0, "lat": 38.923475833333335, "fusion_lat": 0.0}, {"is_disabled": 0, "rental_uris": {"android": "https://dc.lft.to/lastmile_qr_scan", "ios": "https://dc.lft.to/lastmile_qr_scan"}, "is_reserved": 0, "name": "33af91c179dae35afc1911f47f61b81d", "lon": -76.99621766666667, "type": "electric_scooter", "bike_id": "33af91c179dae35afc1911f47f61b81d", "fusion_lon": 0.0, "lat": 38.900341, "fusion_lat": 0.0}, {"is_disabled": 0, "rental_uris": {"android": "https://dc.lft.to/lastmile_qr_scan", "ios": "https://dc.lft.to/lastmile_qr_scan"}, "is_reserved": 0, "name": "a7274e2474e68e3885763cbc2f404546", "lon": -77.00540633333334, "type": "electric_scooter", "bike_id": "a7274e2474e68e3885763cbc2f404546", "fusion_lon": 0.0, "lat": 38.87884433333333, "fusion_lat": 0.0}, {"is_disabled": 0, "rental_uris": {"android": "https://dc.lft.to/lastmile_qr_scan", "ios": "https://dc.lft.to/lastmile_qr_scan"}, "is_reserved": 0, "name": "9bdd128a183cba546723b462123cde14", "lon": -77.01766533333333, "type": "electric_scooter", "bike_id": "9bdd128a183cba546723b462123cde14", "fusion_lon": 0.0, "lat": 38.87712066666667, "fusion_lat": 0.0}, {"is_disabled": 0, "rental_uris": {"android": "https://dc.lft.to/lastmile_qr_scan", "ios": "https://dc.lft.to/lastmile_qr_scan"}, "is_reserved": 0, "name": "04d4bd37c431a584b0015d0ac40c4578", "lon": -77.02292966666667, "type": "electric_scooter", "bike_id": "04d4bd37c431a584b0015d0ac40c4578", "fusion_lon": 0.0, "lat": 38.917882666666664, "fusion_lat": 0.0}, {"is_disabled": 0, "rental_uris": {"android": "https://dc.lft.to/lastmile_qr_scan", "ios": "https://dc.lft.to/lastmile_qr_scan"}, "is_reserved": 0, "name": "a3eb6a1324d2b4453f931cca0a102303", "lon": -77.021654, "type": "electric_scooter", "bike_id": "a3eb6a1324d2b4453f931cca0a102303", "fusion_lon": 0.0, "lat": 38.942948333333334, "fusion_lat": 0.0}, {"is_disabled": 0, "rental_uris": {"android": "https://dc.lft.to/lastmile_qr_scan", "ios": "https://dc.lft.to/lastmile_qr_scan"}, "is_reserved": 0, "name": "8f87b65405284f0aff8a7f82def6bd0b", "lon": -77.0249935, "type": "electric_scooter", "bike_id": "8f87b65405284f0aff8a7f82def6bd0b", "fusion_lon": 0.0, "lat": 38.8850545, "fusion_lat": 0.0}, {"is_disabled": 0, "rental_uris": {"android": "https://dc.lft.to/lastmile_qr_scan", "ios": "https://dc.lft.to/lastmile_qr_scan"}, "is_reserved": 0, "name": "1952f89b953c76cad3244b1690f42f00", "lon": -77.03317833333334, "type": "electric_scooter", "bike_id": "1952f89b953c76cad3244b1690f42f00", "fusion_lon": 0.0, "lat": 38.916303666666664, "fusion_lat": 0.0}, {"is_disabled": 0, "rental_uris": {"android": "https://dc.lft.to/lastmile_qr_scan", "ios": "https://dc.lft.to/lastmile_qr_scan"}, "is_reserved": 0, "name": "72aebce7235e8c095f87a236ffc1050d", "lon": -77.06612233333334, "type": "electric_scooter", "bike_id": "72aebce7235e8c095f87a236ffc1050d", "fusion_lon": 0.0, "lat": 38.90744466666666, "fusion_lat": 0.0}, {"is_disabled": 0, "rental_uris": {"android": "https://dc.lft.to/lastmile_qr_scan", "ios": "https://dc.lft.to/lastmile_qr_scan"}, "is_reserved": 0, "name": "9990760f8fc4a3b5daa39bc40bccfdf8", "lon": -77.039603, "type": "electric_scooter", "bike_id": "9990760f8fc4a3b5daa39bc40bccfdf8", "fusion_lon": 0.0, "lat": 38.93155766666667, "fusion_lat": 0.0}, {"is_disabled": 0, "rental_uris": {"android": "https://dc.lft.to/lastmile_qr_scan", "ios": "https://dc.lft.to/lastmile_qr_scan"}, "is_reserved": 0, "name": "db1bf46ee456f67a1daa9d5db570eb26", "lon": -77.015827, "type": "electric_scooter", "bike_id": "db1bf46ee456f67a1daa9d5db570eb26", "fusion_lon": 0.0, "lat": 38.8765045, "fusion_lat": 0.0}, {"is_disabled": 0, "rental_uris": {"android": "https://dc.lft.to/lastmile_qr_scan", "ios": "https://dc.lft.to/lastmile_qr_scan"}, "is_reserved": 0, "name": "7b0097bebe281ee9eaeb43ffa2e25afd", "lon": -77.05968816666666, "type": "electric_scooter", "bike_id": "7b0097bebe281ee9eaeb43ffa2e25afd", "fusion_lon": 0.0, "lat": 38.9052865, "fusion_lat": 0.0}, {"is_disabled": 0, "rental_uris": {"android": "https://dc.lft.to/lastmile_qr_scan", "ios": "https://dc.lft.to/lastmile_qr_scan"}, "is_reserved": 0, "name": "e85c417ecae981562ce0c5e70deaeefe", "lon": -77.037382, "type": "electric_scooter", "bike_id": "e85c417ecae981562ce0c5e70deaeefe", "fusion_lon": 0.0, "lat": 38.90977633333333, "fusion_lat": 0.0}, {"is_disabled": 0, "rental_uris": {"android": "https://dc.lft.to/lastmile_qr_scan", "ios": "https://dc.lft.to/lastmile_qr_scan"}, "is_reserved": 0, "name": "3d183800532b09bc8f7004292c5880bb", "lon": -76.93415633333333, "type": "electric_bike", "bike_id": "3d183800532b09bc8f7004292c5880bb", "fusion_lon": 0.0, "lat": 38.946278666666664, "fusion_lat": 0.0}, {"is_disabled": 0, "rental_uris": {"android": "https://dc.lft.to/lastmile_qr_scan", "ios": "https://dc.lft.to/lastmile_qr_scan"}, "is_reserved": 0, "name": "717ac13ac8a8075a4b8845276cf6fb6b", "lon": -77.02840433333333, "type": "electric_scooter", "bike_id": "717ac13ac8a8075a4b8845276cf6fb6b", "fusion_lon": 0.0, "lat": 38.93418116666667, "fusion_lat": 0.0}, {"is_disabled": 0, "rental_uris": {"android": "https://dc.lft.to/lastmile_qr_scan", "ios": "https://dc.lft.to/lastmile_qr_scan"}, "is_reserved": 0, "name": "2cec0bb10d3f61f470ddb5bb19e12061", "lon": -77.01258, "type": "electric_scooter", "bike_id": "2cec0bb10d3f61f470ddb5bb19e12061", "fusion_lon": 0.0, "lat": 38.87634283333333, "fusion_lat": 0.0}, {"is_disabled": 0, "rental_uris": {"android": "https://dc.lft.to/lastmile_qr_scan", "ios": "https://dc.lft.to/lastmile_qr_scan"}, "is_reserved": 0, "name": "45884dacaa37623775579464e42681d4", "lon": -77.02124, "type": "electric_scooter", "bike_id": "45884dacaa37623775579464e42681d4", "fusion_lon": 0.0, "lat": 38.88750366666667, "fusion_lat": 0.0}, {"is_disabled": 0, "rental_uris": {"android": "https://dc.lft.to/lastmile_qr_scan", "ios": "https://dc.lft.to/lastmile_qr_scan"}, "is_reserved": 0, "name": "afad11728f9780c4747a9e2ebe5039a0", "lon": -77.03503683333334, "type": "electric_scooter", "bike_id": "afad11728f9780c4747a9e2ebe5039a0", "fusion_lon": 0.0, "lat": 38.93591333333333, "fusion_lat": 0.0}, {"is_disabled": 0, "rental_uris": {"android": "https://dc.lft.to/lastmile_qr_scan", "ios": "https://dc.lft.to/lastmile_qr_scan"}, "is_reserved": 0, "name": "943386c20116e2631e12133d640065ce", "lon": -77.0459065, "type": "electric_scooter", "bike_id": "943386c20116e2631e12133d640065ce", "fusion_lon": 0.0, "lat": 38.909620333333336, "fusion_lat": 0.0}, {"is_disabled": 0, "rental_uris": {"android": "https://dc.lft.to/lastmile_qr_scan", "ios": "https://dc.lft.to/lastmile_qr_scan"}, "is_reserved": 0, "name": "b2120eff297fefbecbae6ba81114f019", "lon": -77.036446, "type": "electric_scooter", "bike_id": "b2120eff297fefbecbae6ba81114f019", "fusion_lon": 0.0, "lat": 38.9133645, "fusion_lat": 0.0}, {"is_disabled": 0, "rental_uris": {"android": "https://dc.lft.to/lastmile_qr_scan", "ios": "https://dc.lft.to/lastmile_qr_scan"}, "is_reserved": 0, "name": "e65142b27618112d5dbf30dee3596fa7", "lon": -77.029211, "type": "electric_scooter", "bike_id": "e65142b27618112d5dbf30dee3596fa7", "fusion_lon": 0.0, "lat": 38.938738666666666, "fusion_lat": 0.0}, {"is_disabled": 0, "rental_uris": {"android": "https://dc.lft.to/lastmile_qr_scan", "ios": "https://dc.lft.to/lastmile_qr_scan"}, "is_reserved": 0, "name": "28bebb7c25ae55cd49cc2fe0f3282018", "lon": -76.9654255, "type": "electric_scooter", "bike_id": "28bebb7c25ae55cd49cc2fe0f3282018", "fusion_lon": 0.0, "lat": 38.91890166666666, "fusion_lat": 0.0}, {"is_disabled": 0, "rental_uris": {"android": "https://dc.lft.to/lastmile_qr_scan", "ios": "https://dc.lft.to/lastmile_qr_scan"}, "is_reserved": 0, "name": "65a997fe7d828a7ae39fc9c84f333458", "lon": -77.045454, "type": "electric_scooter", "bike_id": "65a997fe7d828a7ae39fc9c84f333458", "fusion_lon": 0.0, "lat": 38.919416, "fusion_lat": 0.0}, {"is_disabled": 0, "rental_uris": {"android": "https://dc.lft.to/lastmile_qr_scan", "ios": "https://dc.lft.to/lastmile_qr_scan"}, "is_reserved": 0, "name": "e1a2a8e3fc0490205b2e95e4bef911f9", "lon": -77.00710483333333, "type": "electric_scooter", "bike_id": "e1a2a8e3fc0490205b2e95e4bef911f9", "fusion_lon": 0.0, "lat": 38.884914, "fusion_lat": 0.0}, {"is_disabled": 0, "rental_uris": {"android": "https://dc.lft.to/lastmile_qr_scan", "ios": "https://dc.lft.to/lastmile_qr_scan"}, "is_reserved": 0, "name": "149d736b56dded36dc1d7dd3f8606ad7", "lon": -77.0149495, "type": "electric_scooter", "bike_id": "149d736b56dded36dc1d7dd3f8606ad7", "fusion_lon": 0.0, "lat": 38.956474666666665, "fusion_lat": 0.0}, {"is_disabled": 0, "rental_uris": {"android": "https://dc.lft.to/lastmile_qr_scan", "ios": "https://dc.lft.to/lastmile_qr_scan"}, "is_reserved": 0, "name": "45a97201f6e3c51c319855828a7c7775", "lon": -77.0175685, "type": "electric_scooter", "bike_id": "45a97201f6e3c51c319855828a7c7775", "fusion_lon": 0.0, "lat": 38.90266716666667, "fusion_lat": 0.0}, {"is_disabled": 0, "rental_uris": {"android": "https://dc.lft.to/lastmile_qr_scan", "ios": "https://dc.lft.to/lastmile_qr_scan"}, "is_reserved": 0, "name": "13ecc2d91736253f2f03af601393fd42", "lon": -77.01389333333333, "type": "electric_scooter", "bike_id": "13ecc2d91736253f2f03af601393fd42", "fusion_lon": 0.0, "lat": 38.88033683333333, "fusion_lat": 0.0}, {"is_disabled": 0, "rental_uris": {"android": "https://dc.lft.to/lastmile_qr_scan", "ios": "https://dc.lft.to/lastmile_qr_scan"}, "is_reserved": 0, "name": "942413517eeea64173eef7d3557cb9b8", "lon": -77.1068175, "type": "electric_bike", "bike_id": "942413517eeea64173eef7d3557cb9b8", "fusion_lon": 0.0, "lat": 38.93581783333333, "fusion_lat": 0.0}, {"is_disabled": 0, "rental_uris": {"android": "https://dc.lft.to/lastmile_qr_scan", "ios": "https://dc.lft.to/lastmile_qr_scan"}, "is_reserved": 0, "name": "12ba2bf202efbf61719d10d9d69bae92", "lon": -76.986578, "type": "electric_scooter", "bike_id": "12ba2bf202efbf61719d10d9d69bae92", "fusion_lon": 0.0, "lat": 38.90150216666667, "fusion_lat": 0.0}, {"is_disabled": 0, "rental_uris": {"android": "https://dc.lft.to/lastmile_qr_scan", "ios": "https://dc.lft.to/lastmile_qr_scan"}, "is_reserved": 0, "name": "e56096928613dc61b383aedc2e1488fc", "lon": -77.02708716666666, "type": "electric_scooter", "bike_id": "e56096928613dc61b383aedc2e1488fc", "fusion_lon": 0.0, "lat": 38.90596016666667, "fusion_lat": 0.0}, {"is_disabled": 0, "rental_uris": {"android": "https://dc.lft.to/lastmile_qr_scan", "ios": "https://dc.lft.to/lastmile_qr_scan"}, "is_reserved": 0, "name": "aeb159e8355f7bc948b792bb75088777", "lon": -77.00597933333333, "type": "electric_scooter", "bike_id": "aeb159e8355f7bc948b792bb75088777", "fusion_lon": 0.0, "lat": 38.90565133333333, "fusion_lat": 0.0}, {"is_disabled": 0, "rental_uris": {"android": "https://dc.lft.to/lastmile_qr_scan", "ios": "https://dc.lft.to/lastmile_qr_scan"}, "is_reserved": 0, "name": "dc98098ec76bbdacfb8b72a74fd71ef2", "lon": -77.02011716666667, "type": "electric_scooter", "bike_id": "dc98098ec76bbdacfb8b72a74fd71ef2", "fusion_lon": 0.0, "lat": 38.89268666666667, "fusion_lat": 0.0}, {"is_disabled": 0, "rental_uris": {"android": "https://dc.lft.to/lastmile_qr_scan", "ios": "https://dc.lft.to/lastmile_qr_scan"}, "is_reserved": 0, "name": "e9f0cd3258b5589753d751a1832ff059", "lon": -77.0058665, "type": "electric_scooter", "bike_id": "e9f0cd3258b5589753d751a1832ff059", "fusion_lon": 0.0, "lat": 38.9118085, "fusion_lat": 0.0}, {"is_disabled": 0, "rental_uris": {"android": "https://dc.lft.to/lastmile_qr_scan", "ios": "https://dc.lft.to/lastmile_qr_scan"}, "is_reserved": 0, "name": "9b253e1b9c4c908db27d4c0fbb67d16d", "lon": -77.01945416666666, "type": "electric_scooter", "bike_id": "9b253e1b9c4c908db27d4c0fbb67d16d", "fusion_lon": 0.0, "lat": 38.9225345, "fusion_lat": 0.0}, {"is_disabled": 0, "rental_uris": {"android": "https://dc.lft.to/lastmile_qr_scan", "ios": "https://dc.lft.to/lastmile_qr_scan"}, "is_reserved": 0, "name": "84421ec297d480cc677e32c1e3d1a964", "lon": -77.03499416666666, "type": "electric_scooter", "bike_id": "84421ec297d480cc677e32c1e3d1a964", "fusion_lon": 0.0, "lat": 38.91697, "fusion_lat": 0.0}, {"is_disabled": 0, "rental_uris": {"android": "https://dc.lft.to/lastmile_qr_scan", "ios": "https://dc.lft.to/lastmile_qr_scan"}, "is_reserved": 0, "name": "e75bf85c16920fed0147bfb5a65848df", "lon": -76.98756733333333, "type": "electric_bike", "bike_id": "e75bf85c16920fed0147bfb5a65848df", "fusion_lon": 0.0, "lat": 38.8579055, "fusion_lat": 0.0}, {"is_disabled": 0, "rental_uris": {"android": "https://dc.lft.to/lastmile_qr_scan", "ios": "https://dc.lft.to/lastmile_qr_scan"}, "is_reserved": 0, "name": "5915b7d3c7ade47194e4f051e15f8572", "lon": -76.983678, "type": "electric_scooter", "bike_id": "5915b7d3c7ade47194e4f051e15f8572", "fusion_lon": 0.0, "lat": 38.89531516666667, "fusion_lat": 0.0}, {"is_disabled": 0, "rental_uris": {"android": "https://dc.lft.to/lastmile_qr_scan", "ios": "https://dc.lft.to/lastmile_qr_scan"}, "is_reserved": 0, "name": "7ea46b728fa58e7d7ca706da47aaf7fc", "lon": -76.98814766666666, "type": "electric_scooter", "bike_id": "7ea46b728fa58e7d7ca706da47aaf7fc", "fusion_lon": 0.0, "lat": 38.90018233333333, "fusion_lat": 0.0}, {"is_disabled": 0, "rental_uris": {"android": "https://dc.lft.to/lastmile_qr_scan", "ios": "https://dc.lft.to/lastmile_qr_scan"}, "is_reserved": 0, "name": "87838fdb6892fc958cf282ad5ae37560", "lon": -77.03217383333333, "type": "electric_scooter", "bike_id": "87838fdb6892fc958cf282ad5ae37560", "fusion_lon": 0.0, "lat": 38.9397195, "fusion_lat": 0.0}, {"is_disabled": 0, "rental_uris": {"android": "https://dc.lft.to/lastmile_qr_scan", "ios": "https://dc.lft.to/lastmile_qr_scan"}, "is_reserved": 0, "name": "9e21693cef47b6d560a547f8321f81d1", "lon": -77.0309705, "type": "electric_scooter", "bike_id": "9e21693cef47b6d560a547f8321f81d1", "fusion_lon": 0.0, "lat": 38.92573433333333, "fusion_lat": 0.0}, {"is_disabled": 0, "rental_uris": {"android": "https://dc.lft.to/lastmile_qr_scan", "ios": "https://dc.lft.to/lastmile_qr_scan"}, "is_reserved": 0, "name": "b6baf6da869354d91c834954a866fb22", "lon": -77.04436616666666, "type": "electric_scooter", "bike_id": "b6baf6da869354d91c834954a866fb22", "fusion_lon": 0.0, "lat": 38.912592833333335, "fusion_lat": 0.0}, {"is_disabled": 0, "rental_uris": {"android": "https://dc.lft.to/lastmile_qr_scan", "ios": "https://dc.lft.to/lastmile_qr_scan"}, "is_reserved": 0, "name": "b7b51062d3f9dbad81fe67e29a01b9e8", "lon": -77.03322533333333, "type": "electric_scooter", "bike_id": "b7b51062d3f9dbad81fe67e29a01b9e8", "fusion_lon": 0.0, "lat": 38.9141725, "fusion_lat": 0.0}, {"is_disabled": 0, "rental_uris": {"android": "https://dc.lft.to/lastmile_qr_scan", "ios": "https://dc.lft.to/lastmile_qr_scan"}, "is_reserved": 0, "name": "43c55886d3a2616fa795e9730fcf72d2", "lon": -77.02851283333334, "type": "electric_scooter", "bike_id": "43c55886d3a2616fa795e9730fcf72d2", "fusion_lon": 0.0, "lat": 38.901477166666666, "fusion_lat": 0.0}, {"is_disabled": 0, "rental_uris": {"android": "https://dc.lft.to/lastmile_qr_scan", "ios": "https://dc.lft.to/lastmile_qr_scan"}, "is_reserved": 0, "name": "655631aceebc3595872e718d792c4a12", "lon": -77.02667833333334, "type": "electric_scooter", "bike_id": "655631aceebc3595872e718d792c4a12", "fusion_lon": 0.0, "lat": 38.89656566666667, "fusion_lat": 0.0}, {"is_disabled": 0, "rental_uris": {"android": "https://dc.lft.to/lastmile_qr_scan", "ios": "https://dc.lft.to/lastmile_qr_scan"}, "is_reserved": 0, "name": "2360f6c9e628033015690f0662c98bfa", "lon": -77.03483066666666, "type": "electric_scooter", "bike_id": "2360f6c9e628033015690f0662c98bfa", "fusion_lon": 0.0, "lat": 38.9248565, "fusion_lat": 0.0}, {"is_disabled": 0, "rental_uris": {"android": "https://dc.lft.to/lastmile_qr_scan", "ios": "https://dc.lft.to/lastmile_qr_scan"}, "is_reserved": 0, "name": "cca0b5b9c398d67ae656ebcf26ee9534", "lon": -77.03676433333334, "type": "electric_scooter", "bike_id": "cca0b5b9c398d67ae656ebcf26ee9534", "fusion_lon": 0.0, "lat": 38.917141666666666, "fusion_lat": 0.0}, {"is_disabled": 0, "rental_uris": {"android": "https://dc.lft.to/lastmile_qr_scan", "ios": "https://dc.lft.to/lastmile_qr_scan"}, "is_reserved": 0, "name": "3a1035a7315943608ff8acc0b884ada8", "lon": -77.04158733333334, "type": "electric_scooter", "bike_id": "3a1035a7315943608ff8acc0b884ada8", "fusion_lon": 0.0, "lat": 38.9126365, "fusion_lat": 0.0}, {"is_disabled": 0, "rental_uris": {"android": "https://dc.lft.to/lastmile_qr_scan", "ios": "https://dc.lft.to/lastmile_qr_scan"}, "is_reserved": 0, "name": "dc113616c4c9c68d2ed38653f77e429d", "lon": -77.04813133333333, "type": "electric_scooter", "bike_id": "dc113616c4c9c68d2ed38653f77e429d", "fusion_lon": 0.0, "lat": 38.920333166666666, "fusion_lat": 0.0}, {"is_disabled": 0, "rental_uris": {"android": "https://dc.lft.to/lastmile_qr_scan", "ios": "https://dc.lft.to/lastmile_qr_scan"}, "is_reserved": 0, "name": "01c34aa6697d1f65455221b91651bf9e", "lon": -77.02066066666667, "type": "electric_scooter", "bike_id": "01c34aa6697d1f65455221b91651bf9e", "fusion_lon": 0.0, "lat": 38.881175999999996, "fusion_lat": 0.0}, {"is_disabled": 0, "rental_uris": {"android": "https://dc.lft.to/lastmile_qr_scan", "ios": "https://dc.lft.to/lastmile_qr_scan"}, "is_reserved": 0, "name": "aeb2c45ddda1fc803be7ff3acc0595e8", "lon": -77.0296685, "type": "electric_scooter", "bike_id": "aeb2c45ddda1fc803be7ff3acc0595e8", "fusion_lon": 0.0, "lat": 38.922565166666665, "fusion_lat": 0.0}, {"is_disabled": 0, "rental_uris": {"android": "https://dc.lft.to/lastmile_qr_scan", "ios": "https://dc.lft.to/lastmile_qr_scan"}, "is_reserved": 0, "name": "71069671e9379e0cf49322986780bdeb", "lon": -76.98886833333333, "type": "electric_scooter", "bike_id": "71069671e9379e0cf49322986780bdeb", "fusion_lon": 0.0, "lat": 38.86656966666666, "fusion_lat": 0.0}, {"is_disabled": 0, "rental_uris": {"android": "https://dc.lft.to/lastmile_qr_scan", "ios": "https://dc.lft.to/lastmile_qr_scan"}, "is_reserved": 0, "name": "40640aac27b47b016ff27bf4db45f2ea", "lon": -76.97794533333334, "type": "electric_bike", "bike_id": "40640aac27b47b016ff27bf4db45f2ea", "fusion_lon": 0.0, "lat": 38.89613333333333, "fusion_lat": 0.0}, {"is_disabled": 0, "rental_uris": {"android": "https://dc.lft.to/lastmile_qr_scan", "ios": "https://dc.lft.to/lastmile_qr_scan"}, "is_reserved": 0, "name": "6a3d4b47a67461b0e042beabab72cf25", "lon": -77.02383316666666, "type": "electric_bike", "bike_id": "6a3d4b47a67461b0e042beabab72cf25", "fusion_lon": 0.0, "lat": 38.99073633333333, "fusion_lat": 0.0}, {"is_disabled": 0, "rental_uris": {"android": "https://dc.lft.to/lastmile_qr_scan", "ios": "https://dc.lft.to/lastmile_qr_scan"}, "is_reserved": 0, "name": "07003456ecff9f9ecece20faa7d79d64", "lon": -77.00525866666666, "type": "electric_scooter", "bike_id": "07003456ecff9f9ecece20faa7d79d64", "fusion_lon": 0.0, "lat": 38.874712833333334, "fusion_lat": 0.0}, {"is_disabled": 0, "rental_uris": {"android": "https://dc.lft.to/lastmile_qr_scan", "ios": "https://dc.lft.to/lastmile_qr_scan"}, "is_reserved": 0, "name": "c838f0cde2e5ead7bfcc7178096ea2d4", "lon": -77.04273383333333, "type": "electric_scooter", "bike_id": "c838f0cde2e5ead7bfcc7178096ea2d4", "fusion_lon": 0.0, "lat": 38.9341385, "fusion_lat": 0.0}, {"is_disabled": 0, "rental_uris": {"android": "https://dc.lft.to/lastmile_qr_scan", "ios": "https://dc.lft.to/lastmile_qr_scan"}, "is_reserved": 0, "name": "f408d975f3e4ba7ff68c606ccfc14869", "lon": -77.08819383333334, "type": "electric_bike", "bike_id": "f408d975f3e4ba7ff68c606ccfc14869", "fusion_lon": 0.0, "lat": 38.90975066666667, "fusion_lat": 0.0}, {"is_disabled": 0, "rental_uris": {"android": "https://dc.lft.to/lastmile_qr_scan", "ios": "https://dc.lft.to/lastmile_qr_scan"}, "is_reserved": 0, "name": "e774c97af0f91faff227f8971689e615", "lon": -77.04402266666666, "type": "electric_scooter", "bike_id": "e774c97af0f91faff227f8971689e615", "fusion_lon": 0.0, "lat": 38.893956333333335, "fusion_lat": 0.0}, {"is_disabled": 0, "rental_uris": {"android": "https://dc.lft.to/lastmile_qr_scan", "ios": "https://dc.lft.to/lastmile_qr_scan"}, "is_reserved": 0, "name": "5926d1c75c67fe74cab3b2095af4edee", "lon": -77.0415445, "type": "electric_scooter", "bike_id": "5926d1c75c67fe74cab3b2095af4edee", "fusion_lon": 0.0, "lat": 38.917978833333336, "fusion_lat": 0.0}, {"is_disabled": 0, "rental_uris": {"android": "https://dc.lft.to/lastmile_qr_scan", "ios": "https://dc.lft.to/lastmile_qr_scan"}, "is_reserved": 0, "name": "887ad4ef4a3c90c586db0a06ffbe09e5", "lon": -76.996465, "type": "electric_scooter", "bike_id": "887ad4ef4a3c90c586db0a06ffbe09e5", "fusion_lon": 0.0, "lat": 38.88720383333333, "fusion_lat": 0.0}, {"is_disabled": 0, "rental_uris": {"android": "https://dc.lft.to/lastmile_qr_scan", "ios": "https://dc.lft.to/lastmile_qr_scan"}, "is_reserved": 0, "name": "5b78f7cbaf89fa9ddc030300f3fb111b", "lon": -77.0251675, "type": "electric_scooter", "bike_id": "5b78f7cbaf89fa9ddc030300f3fb111b", "fusion_lon": 0.0, "lat": 38.92071083333333, "fusion_lat": 0.0}, {"is_disabled": 0, "rental_uris": {"android": "https://dc.lft.to/lastmile_qr_scan", "ios": "https://dc.lft.to/lastmile_qr_scan"}, "is_reserved": 0, "name": "92449f2519dd99872990fade2b4550c0", "lon": -77.03469283333334, "type": "electric_scooter", "bike_id": "92449f2519dd99872990fade2b4550c0", "fusion_lon": 0.0, "lat": 38.92154333333333, "fusion_lat": 0.0}, {"is_disabled": 0, "rental_uris": {"android": "https://dc.lft.to/lastmile_qr_scan", "ios": "https://dc.lft.to/lastmile_qr_scan"}, "is_reserved": 0, "name": "27e1be31e7a0a0b470fca8dd30711aa4", "lon": -77.0293115, "type": "electric_scooter", "bike_id": "27e1be31e7a0a0b470fca8dd30711aa4", "fusion_lon": 0.0, "lat": 38.904273833333335, "fusion_lat": 0.0}, {"is_disabled": 0, "rental_uris": {"android": "https://dc.lft.to/lastmile_qr_scan", "ios": "https://dc.lft.to/lastmile_qr_scan"}, "is_reserved": 0, "name": "189e2cd1633fa2195ecdd620f2f2c248", "lon": -77.04378116666666, "type": "electric_scooter", "bike_id": "189e2cd1633fa2195ecdd620f2f2c248", "fusion_lon": 0.0, "lat": 38.910506, "fusion_lat": 0.0}, {"is_disabled": 0, "rental_uris": {"android": "https://dc.lft.to/lastmile_qr_scan", "ios": "https://dc.lft.to/lastmile_qr_scan"}, "is_reserved": 0, "name": "afd7cfae20d3f53a74780c9befc18487", "lon": -77.03786133333334, "type": "electric_scooter", "bike_id": "afd7cfae20d3f53a74780c9befc18487", "fusion_lon": 0.0, "lat": 38.930253, "fusion_lat": 0.0}, {"is_disabled": 0, "rental_uris": {"android": "https://dc.lft.to/lastmile_qr_scan", "ios": "https://dc.lft.to/lastmile_qr_scan"}, "is_reserved": 0, "name": "c946e27fc9435fdc6e8996f3717df8a4", "lon": -77.02512733333333, "type": "electric_scooter", "bike_id": "c946e27fc9435fdc6e8996f3717df8a4", "fusion_lon": 0.0, "lat": 38.92073466666667, "fusion_lat": 0.0}, {"is_disabled": 0, "rental_uris": {"android": "https://dc.lft.to/lastmile_qr_scan", "ios": "https://dc.lft.to/lastmile_qr_scan"}, "is_reserved": 0, "name": "c78263b7b69f0bc8d286f4bed1ecf958", "lon": -77.03263033333333, "type": "electric_scooter", "bike_id": "c78263b7b69f0bc8d286f4bed1ecf958", "fusion_lon": 0.0, "lat": 38.933313, "fusion_lat": 0.0}, {"is_disabled": 0, "rental_uris": {"android": "https://dc.lft.to/lastmile_qr_scan", "ios": "https://dc.lft.to/lastmile_qr_scan"}, "is_reserved": 0, "name": "ec25d2e73c9325c7c330eb0798d4d1cc", "lon": -77.060082, "type": "electric_scooter", "bike_id": "ec25d2e73c9325c7c330eb0798d4d1cc", "fusion_lon": 0.0, "lat": 38.9053205, "fusion_lat": 0.0}, {"is_disabled": 0, "rental_uris": {"android": "https://dc.lft.to/lastmile_qr_scan", "ios": "https://dc.lft.to/lastmile_qr_scan"}, "is_reserved": 0, "name": "60aeee55f3ca7765777c8ef5ea0206ee", "lon": -76.99199483333334, "type": "electric_scooter", "bike_id": "60aeee55f3ca7765777c8ef5ea0206ee", "fusion_lon": 0.0, "lat": 38.889631333333334, "fusion_lat": 0.0}, {"is_disabled": 0, "rental_uris": {"android": "https://dc.lft.to/lastmile_qr_scan", "ios": "https://dc.lft.to/lastmile_qr_scan"}, "is_reserved": 0, "name": "5a3438717a59e6b2354ec897c273437c", "lon": -76.94717, "type": "electric_scooter", "bike_id": "5a3438717a59e6b2354ec897c273437c", "fusion_lon": 0.0, "lat": 38.897045, "fusion_lat": 0.0}, {"is_disabled": 0, "rental_uris": {"android": "https://dc.lft.to/lastmile_qr_scan", "ios": "https://dc.lft.to/lastmile_qr_scan"}, "is_reserved": 0, "name": "eb89901bcbd2bb19941c2c8f1551da8d", "lon": -77.02774133333334, "type": "electric_scooter", "bike_id": "eb89901bcbd2bb19941c2c8f1551da8d", "fusion_lon": 0.0, "lat": 38.927639, "fusion_lat": 0.0}, {"is_disabled": 0, "rental_uris": {"android": "https://dc.lft.to/lastmile_qr_scan", "ios": "https://dc.lft.to/lastmile_qr_scan"}, "is_reserved": 0, "name": "56a74916405fe32db789f9c50708e632", "lon": -77.01645416666666, "type": "electric_scooter", "bike_id": "56a74916405fe32db789f9c50708e632", "fusion_lon": 0.0, "lat": 38.876413166666666, "fusion_lat": 0.0}, {"is_disabled": 0, "rental_uris": {"android": "https://dc.lft.to/lastmile_qr_scan", "ios": "https://dc.lft.to/lastmile_qr_scan"}, "is_reserved": 0, "name": "44e65df53dbf5dfaba365dfff6388667", "lon": -77.03386716666667, "type": "electric_scooter", "bike_id": "44e65df53dbf5dfaba365dfff6388667", "fusion_lon": 0.0, "lat": 38.919175833333334, "fusion_lat": 0.0}, {"is_disabled": 0, "rental_uris": {"android": "https://dc.lft.to/lastmile_qr_scan", "ios": "https://dc.lft.to/lastmile_qr_scan"}, "is_reserved": 0, "name": "32bdf9407fb14798d766d7152d7dd661", "lon": -77.0056495, "type": "electric_scooter", "bike_id": "32bdf9407fb14798d766d7152d7dd661", "fusion_lon": 0.0, "lat": 38.88501616666667, "fusion_lat": 0.0}, {"is_disabled": 0, "rental_uris": {"android": "https://dc.lft.to/lastmile_qr_scan", "ios": "https://dc.lft.to/lastmile_qr_scan"}, "is_reserved": 0, "name": "3d4bb7670c17f2d14790b1b41305b650", "lon": -77.0381725, "type": "electric_scooter", "bike_id": "3d4bb7670c17f2d14790b1b41305b650", "fusion_lon": 0.0, "lat": 38.9097385, "fusion_lat": 0.0}, {"is_disabled": 0, "rental_uris": {"android": "https://dc.lft.to/lastmile_qr_scan", "ios": "https://dc.lft.to/lastmile_qr_scan"}, "is_reserved": 0, "name": "3d222337bed488d42b3e4a0b6bbf0882", "lon": -77.01767733333334, "type": "electric_scooter", "bike_id": "3d222337bed488d42b3e4a0b6bbf0882", "fusion_lon": 0.0, "lat": 38.921033666666666, "fusion_lat": 0.0}, {"is_disabled": 0, "rental_uris": {"android": "https://dc.lft.to/lastmile_qr_scan", "ios": "https://dc.lft.to/lastmile_qr_scan"}, "is_reserved": 0, "name": "164f9d70fbf38d91414b4c6fe29b8fae", "lon": -76.87495633333333, "type": "electric_bike", "bike_id": "164f9d70fbf38d91414b4c6fe29b8fae", "fusion_lon": 0.0, "lat": 38.99091133333334, "fusion_lat": 0.0}, {"is_disabled": 0, "rental_uris": {"android": "https://dc.lft.to/lastmile_qr_scan", "ios": "https://dc.lft.to/lastmile_qr_scan"}, "is_reserved": 0, "name": "87a2ca33ea572fb75cc0381efc77f0d3", "lon": -77.02372766666667, "type": "electric_scooter", "bike_id": "87a2ca33ea572fb75cc0381efc77f0d3", "fusion_lon": 0.0, "lat": 38.90565266666667, "fusion_lat": 0.0}, {"is_disabled": 0, "rental_uris": {"android": "https://dc.lft.to/lastmile_qr_scan", "ios": "https://dc.lft.to/lastmile_qr_scan"}, "is_reserved": 0, "name": "5c9de1e9ac4c3ca9d85a1bec6c189566", "lon": -77.012077, "type": "electric_scooter", "bike_id": "5c9de1e9ac4c3ca9d85a1bec6c189566", "fusion_lon": 0.0, "lat": 38.910186, "fusion_lat": 0.0}, {"is_disabled": 0, "rental_uris": {"android": "https://dc.lft.to/lastmile_qr_scan", "ios": "https://dc.lft.to/lastmile_qr_scan"}, "is_reserved": 0, "name": "a31a291cb0ba870a6e20624166f8f47d", "lon": -77.07288083333333, "type": "electric_scooter", "bike_id": "a31a291cb0ba870a6e20624166f8f47d", "fusion_lon": 0.0, "lat": 38.9228405, "fusion_lat": 0.0}, {"is_disabled": 0, "rental_uris": {"android": "https://dc.lft.to/lastmile_qr_scan", "ios": "https://dc.lft.to/lastmile_qr_scan"}, "is_reserved": 0, "name": "7dbf72d8f48a35762b299e8382cfe786", "lon": -77.11220183333333, "type": "electric_bike", "bike_id": "7dbf72d8f48a35762b299e8382cfe786", "fusion_lon": 0.0, "lat": 38.828703, "fusion_lat": 0.0}, {"is_disabled": 0, "rental_uris": {"android": "https://dc.lft.to/lastmile_qr_scan", "ios": "https://dc.lft.to/lastmile_qr_scan"}, "is_reserved": 0, "name": "269de295e5d398c5a9ab5e46bb1e6050", "lon": -77.03993266666667, "type": "electric_scooter", "bike_id": "269de295e5d398c5a9ab5e46bb1e6050", "fusion_lon": 0.0, "lat": 38.902227333333336, "fusion_lat": 0.0}, {"is_disabled": 0, "rental_uris": {"android": "https://dc.lft.to/lastmile_qr_scan", "ios": "https://dc.lft.to/lastmile_qr_scan"}, "is_reserved": 0, "name": "ea38c126264cbc7b48c8ee41a01ad0f1", "lon": -77.03439166666666, "type": "electric_scooter", "bike_id": "ea38c126264cbc7b48c8ee41a01ad0f1", "fusion_lon": 0.0, "lat": 38.91808833333333, "fusion_lat": 0.0}, {"is_disabled": 0, "rental_uris": {"android": "https://dc.lft.to/lastmile_qr_scan", "ios": "https://dc.lft.to/lastmile_qr_scan"}, "is_reserved": 0, "name": "77471b061d92d22cf20681640b4fcb0c", "lon": -77.02840233333333, "type": "electric_scooter", "bike_id": "77471b061d92d22cf20681640b4fcb0c", "fusion_lon": 0.0, "lat": 38.917083833333336, "fusion_lat": 0.0}, {"is_disabled": 0, "rental_uris": {"android": "https://dc.lft.to/lastmile_qr_scan", "ios": "https://dc.lft.to/lastmile_qr_scan"}, "is_reserved": 0, "name": "9d19e6dabae505e97a698d6dd1d89d56", "lon": -77.03833733333333, "type": "electric_scooter", "bike_id": "9d19e6dabae505e97a698d6dd1d89d56", "fusion_lon": 0.0, "lat": 38.908669833333335, "fusion_lat": 0.0}, {"is_disabled": 0, "rental_uris": {"android": "https://dc.lft.to/lastmile_qr_scan", "ios": "https://dc.lft.to/lastmile_qr_scan"}, "is_reserved": 0, "name": "37f39f7a9bf4297d5ed1fdc93f449da0", "lon": -77.03185866666666, "type": "electric_scooter", "bike_id": "37f39f7a9bf4297d5ed1fdc93f449da0", "fusion_lon": 0.0, "lat": 38.89226466666667, "fusion_lat": 0.0}, {"is_disabled": 0, "rental_uris": {"android": "https://dc.lft.to/lastmile_qr_scan", "ios": "https://dc.lft.to/lastmile_qr_scan"}, "is_reserved": 0, "name": "a62e16bfec50e688ccfdab2511f9e50f", "lon": -77.0502875, "type": "electric_scooter", "bike_id": "a62e16bfec50e688ccfdab2511f9e50f", "fusion_lon": 0.0, "lat": 38.904142, "fusion_lat": 0.0}, {"is_disabled": 0, "rental_uris": {"android": "https://dc.lft.to/lastmile_qr_scan", "ios": "https://dc.lft.to/lastmile_qr_scan"}, "is_reserved": 0, "name": "791c38398e5d1ccf81143506377dbda0", "lon": -76.93750183333333, "type": "electric_scooter", "bike_id": "791c38398e5d1ccf81143506377dbda0", "fusion_lon": 0.0, "lat": 38.8902825, "fusion_lat": 0.0}, {"is_disabled": 0, "rental_uris": {"android": "https://dc.lft.to/lastmile_qr_scan", "ios": "https://dc.lft.to/lastmile_qr_scan"}, "is_reserved": 0, "name": "8940142d0e04f0d48162d9cab08d6cd6", "lon": -77.02468216666666, "type": "electric_scooter", "bike_id": "8940142d0e04f0d48162d9cab08d6cd6", "fusion_lon": 0.0, "lat": 38.93870716666667, "fusion_lat": 0.0}, {"is_disabled": 0, "rental_uris": {"android": "https://dc.lft.to/lastmile_qr_scan", "ios": "https://dc.lft.to/lastmile_qr_scan"}, "is_reserved": 0, "name": "ac2166611220eda2bf6899d88cde0deb", "lon": -76.965269, "type": "electric_scooter", "bike_id": "ac2166611220eda2bf6899d88cde0deb", "fusion_lon": 0.0, "lat": 38.87630433333333, "fusion_lat": 0.0}, {"is_disabled": 0, "rental_uris": {"android": "https://dc.lft.to/lastmile_qr_scan", "ios": "https://dc.lft.to/lastmile_qr_scan"}, "is_reserved": 0, "name": "8efd093b8df03cfb4b08aaf38140f80c", "lon": -77.00149333333333, "type": "electric_scooter", "bike_id": "8efd093b8df03cfb4b08aaf38140f80c", "fusion_lon": 0.0, "lat": 38.87399716666667, "fusion_lat": 0.0}, {"is_disabled": 0, "rental_uris": {"android": "https://dc.lft.to/lastmile_qr_scan", "ios": "https://dc.lft.to/lastmile_qr_scan"}, "is_reserved": 0, "name": "22ac18f54f9c69c042e77e3985e1ff34", "lon": -77.03376466666667, "type": "electric_scooter", "bike_id": "22ac18f54f9c69c042e77e3985e1ff34", "fusion_lon": 0.0, "lat": 38.921553833333334, "fusion_lat": 0.0}, {"is_disabled": 0, "rental_uris": {"android": "https://dc.lft.to/lastmile_qr_scan", "ios": "https://dc.lft.to/lastmile_qr_scan"}, "is_reserved": 0, "name": "3f556b5efa51fbfac5b3d9aa657b83ef", "lon": -77.02803216666666, "type": "electric_scooter", "bike_id": "3f556b5efa51fbfac5b3d9aa657b83ef", "fusion_lon": 0.0, "lat": 38.962163, "fusion_lat": 0.0}, {"is_disabled": 0, "rental_uris": {"android": "https://dc.lft.to/lastmile_qr_scan", "ios": "https://dc.lft.to/lastmile_qr_scan"}, "is_reserved": 0, "name": "1a52167436766bd6c333df56b9e6d66c", "lon": -77.0725005, "type": "electric_scooter", "bike_id": "1a52167436766bd6c333df56b9e6d66c", "fusion_lon": 0.0, "lat": 38.907841166666664, "fusion_lat": 0.0}, {"is_disabled": 0, "rental_uris": {"android": "https://dc.lft.to/lastmile_qr_scan", "ios": "https://dc.lft.to/lastmile_qr_scan"}, "is_reserved": 0, "name": "3a10b1a612b919900a4e4fa9f602e7c8", "lon": -77.03634966666667, "type": "electric_scooter", "bike_id": "3a10b1a612b919900a4e4fa9f602e7c8", "fusion_lon": 0.0, "lat": 38.94281983333333, "fusion_lat": 0.0}, {"is_disabled": 0, "rental_uris": {"android": "https://dc.lft.to/lastmile_qr_scan", "ios": "https://dc.lft.to/lastmile_qr_scan"}, "is_reserved": 0, "name": "1daf384cef0e6de121ecacf2c700fe81", "lon": -77.02175433333333, "type": "electric_scooter", "bike_id": "1daf384cef0e6de121ecacf2c700fe81", "fusion_lon": 0.0, "lat": 38.89740233333333, "fusion_lat": 0.0}, {"is_disabled": 0, "rental_uris": {"android": "https://dc.lft.to/lastmile_qr_scan", "ios": "https://dc.lft.to/lastmile_qr_scan"}, "is_reserved": 0, "name": "a935c8fe521eb8bb61f63810dd431a27", "lon": -77.031728, "type": "electric_scooter", "bike_id": "a935c8fe521eb8bb61f63810dd431a27", "fusion_lon": 0.0, "lat": 38.914153, "fusion_lat": 0.0}, {"is_disabled": 0, "rental_uris": {"android": "https://dc.lft.to/lastmile_qr_scan", "ios": "https://dc.lft.to/lastmile_qr_scan"}, "is_reserved": 0, "name": "e2a69de5fbabd85efcaec4d7601687f8", "lon": -77.0270275, "type": "electric_scooter", "bike_id": "e2a69de5fbabd85efcaec4d7601687f8", "fusion_lon": 0.0, "lat": 38.949813, "fusion_lat": 0.0}, {"is_disabled": 0, "rental_uris": {"android": "https://dc.lft.to/lastmile_qr_scan", "ios": "https://dc.lft.to/lastmile_qr_scan"}, "is_reserved": 0, "name": "5f600b044711d567dc1ed736c1f9552a", "lon": -77.03157433333334, "type": "electric_scooter", "bike_id": "5f600b044711d567dc1ed736c1f9552a", "fusion_lon": 0.0, "lat": 38.928685333333334, "fusion_lat": 0.0}, {"is_disabled": 0, "rental_uris": {"android": "https://dc.lft.to/lastmile_qr_scan", "ios": "https://dc.lft.to/lastmile_qr_scan"},