{"data": {"bikes": [{"fusion_lon": 0.0, "is_reserved": 0, "bike_id": "a73565aba69d85f5ed4ac80257391873", "lon": -77.04504716666666, "name": "a73565aba69d85f5ed4ac80257391873", "lat": 38.892253833333335, "fusion_lat": 0.0, "rental_uris": {"ios": "https://dc.lft.to/lastmile_qr_scan", "android": "https://dc.lft.to/lastmile_qr_scan"}, "is_disabled": 0, "type": "electric_scooter"}, {"fusion_lon": 0.0, "is_reserved": 0, "bike_id": "f58f7c4d71fc443816a7074884cf6eb9", "lon": -77.031114, "name": "f58f7c4d71fc443816a7074884cf6eb9", "lat": 38.92309183333333, "fusion_lat": 0.0, "rental_uris": {"ios": "https://dc.lft.to/lastmile_qr_scan", "android": "https://dc.lft.to/lastmile_qr_scan"}, "is_disabled": 0, "type": "electric_scooter"}, {"fusion_lon": 0.0, "is_reserved": 0, "bike_id": "95970556aba6a1f2d0358038c7ff48d1", "lon": -77.0241435, "name": "95970556aba6a1f2d0358038c7ff48d1", "lat": 38.892223666666666, "fusion_lat": 0.0, "rental_uris": {"ios": "https://dc.lft.to/lastmile_qr_scan", "android": "https://dc.lft.to/lastmile_qr_scan"}, "is_disabled": 0, "type": "electric_scooter"}, {"fusion_lon": 0.0, "is_reserved": 0, "bike_id": "ecfd58778121fe1b63e7079049388498", "lon": -77.04245216666666, "name": "ecfd58778121fe1b63e7079049388498", "lat": 38.92221283333333, "fusion_lat": 0.0, "rental_uris": {"ios": "https://dc.lft.to/lastmile_qr_scan", "android": "https://dc.lft.to/lastmile_qr_scan"}, "is_disabled": 0, "type": "electric_scooter"}, {"fusion_lon": 0.0, "is_reserved": 0, "bike_id": "7594b25ccbbaae305a0659686600ce08", "lon": -77.015982, "name": "7594b25ccbbaae305a0659686600ce08", "lat": 38.88790316666667, "fusion_lat": 0.0, "rental_uris": {"ios": "https://dc.lft.to/lastmile_qr_scan", "android": "https://dc.lft.to/lastmile_qr_scan"}, "is_disabled": 0, "type": "electric_scooter"}, {"fusion_lon": 0.0, "is_reserved": 0, "bike_id": "dd98c8907bc42f4eb7b6369b6afd371a", "lon": -77.0336225, "name": "dd98c8907bc42f4eb7b6369b6afd371a", "lat": 38.9244645, "fusion_lat": 0.0, "rental_uris": {"ios": "https://dc.lft.to/lastmile_qr_scan", "android": "https://dc.lft.to/lastmile_qr_scan"}, "is_disabled": 0, "type": "electric_scooter"}, {"fusion_lon": 0.0, "is_reserved": 0, "bike_id": "d5cc74219cdd7a1773eec9096622396b", "lon": -76.93187583333334, "name": "d5cc74219cdd7a1773eec9096622396b", "lat": 38.89853766666667, "fusion_lat": 0.0, "rental_uris": {"ios": "https://dc.lft.to/lastmile_qr_scan", "android": "https://dc.lft.to/lastmile_qr_scan"}, "is_disabled": 0, "type": "electric_bike"}, {"fusion_lon": 0.0, "is_reserved": 0, "bike_id": "b2806d9f1e4344f7a2dbecbcbbb07530", "lon": -77.00335333333334, "name": "b2806d9f1e4344f7a2dbecbcbbb07530", "lat": 38.89359816666666, "fusion_lat": 0.0, "rental_uris": {"ios": "https://dc.lft.to/lastmile_qr_scan", "android": "https://dc.lft.to/lastmile_qr_scan"}, "is_disabled": 0, "type": "electric_scooter"}, {"fusion_lon": 0.0, "is_reserved": 0, "bike_id": "2efb968e9fb8a57336f712237f682482", "lon": -77.02277866666667, "name": "2efb968e9fb8a57336f712237f682482", "lat": 38.881353, "fusion_lat": 0.0, "rental_uris": {"ios": "https://dc.lft.to/lastmile_qr_scan", "android": "https://dc.lft.to/lastmile_qr_scan"}, "is_disabled": 0, "type": "electric_scooter"}, {"fusion_lon": 0.0, "is_reserved": 0, "bike_id": "c05e75146ba5ca0b761188c0c4545c28", "lon": -77.0307945, "name": "c05e75146ba5ca0b761188c0c4545c28", "lat": 38.93306283333333, "fusion_lat": 0.0, "rental_uris": {"ios": "https://dc.lft.to/lastmile_qr_scan", "android": "https://dc.lft.to/lastmile_qr_scan"}, "is_disabled": 0, "type": "electric_scooter"}, {"fusion_lon": 0.0, "is_reserved": 0, "bike_id": "8af41ce02b6bdcd273f46beb55e687a1", "lon": -76.948621, "name": "8af41ce02b6bdcd273f46beb55e687a1", "lat": 38.896146333333334, "fusion_lat": 0.0, "rental_uris": {"ios": "https://dc.lft.to/lastmile_qr_scan", "android": "https://dc.lft.to/lastmile_qr_scan"}, "is_disabled": 0, "type": "electric_scooter"}, {"fusion_lon": 0.0, "is_reserved": 0, "bike_id": "636bf3a32c686bfa6823c383a3b31ec1", "lon": -76.96271583333333, "name": "636bf3a32c686bfa6823c383a3b31ec1", "lat": 38.956120166666665, "fusion_lat": 0.0, "rental_uris": {"ios": "https://dc.lft.to/lastmile_qr_scan", "android": "https://dc.lft.to/lastmile_qr_scan"}, "is_disabled": 0, "type": "electric_bike"}, {"fusion_lon": 0.0, "is_reserved": 0, "bike_id": "f027a3678d88c361dfebf8305ff9a4dd", "lon": -77.12740833333334, "name": "f027a3678d88c361dfebf8305ff9a4dd", "lat": 38.89567533333334, "fusion_lat": 0.0, "rental_uris": {"ios": "https://dc.lft.to/lastmile_qr_scan", "android": "https://dc.lft.to/lastmile_qr_scan"}, "is_disabled": 0, "type": "electric_bike"}, {"fusion_lon": 0.0, "is_reserved": 0, "bike_id": "891a4beea822405bdde35610d32c0c16", "lon": -77.02080683333334, "name": "891a4beea822405bdde35610d32c0c16", "lat": 38.92727333333333, "fusion_lat": 0.0, "rental_uris": {"ios": "https://dc.lft.to/lastmile_qr_scan", "android": "https://dc.lft.to/lastmile_qr_scan"}, "is_disabled": 0, "type": "electric_scooter"}, {"fusion_lon": 0.0, "is_reserved": 0, "bike_id": "aed0c604471944352517f003c16d8a72", "lon": -77.02522683333333, "name": "aed0c604471944352517f003c16d8a72", "lat": 38.93872783333333, "fusion_lat": 0.0, "rental_uris": {"ios": "https://dc.lft.to/lastmile_qr_scan", "android": "https://dc.lft.to/lastmile_qr_scan"}, "is_disabled": 0, "type": "electric_scooter"}, {"fusion_lon": 0.0, "is_reserved": 0, "bike_id": "3f933725b6f1f5ce65968886dcaee22a", "lon": -77.0093275, "name": "3f933725b6f1f5ce65968886dcaee22a", "lat": 38.89741333333333, "fusion_lat": 0.0, "rental_uris": {"ios": "https://dc.lft.to/lastmile_qr_scan", "android": "https://dc.lft.to/lastmile_qr_scan"}, "is_disabled": 0, "type": "electric_scooter"}, {"fusion_lon": 0.0, "is_reserved": 0, "bike_id": "d06d049c8050232669a3a64dc13d7126", "lon": -76.98436633333333, "name": "d06d049c8050232669a3a64dc13d7126", "lat": 38.928977833333335, "fusion_lat": 0.0, "rental_uris": {"ios": "https://dc.lft.to/lastmile_qr_scan", "android": "https://dc.lft.to/lastmile_qr_scan"}, "is_disabled": 0, "type": "electric_scooter"}, {"fusion_lon": 0.0, "is_reserved": 0, "bike_id": "1d96d54fe665a5ee3f71ff4403df2260", "lon": -77.01149133333334, "name": "1d96d54fe665a5ee3f71ff4403df2260", "lat": 38.929551333333336, "fusion_lat": 0.0, "rental_uris": {"ios": "https://dc.lft.to/lastmile_qr_scan", "android": "https://dc.lft.to/lastmile_qr_scan"}, "is_disabled": 0, "type": "electric_scooter"}, {"fusion_lon": 0.0, "is_reserved": 0, "bike_id": "187241391811d05f8762f183503f939f", "lon": -77.0769105, "name": "187241391811d05f8762f183503f939f", "lat": 38.94305266666667, "fusion_lat": 0.0, "rental_uris": {"ios": "https://dc.lft.to/lastmile_qr_scan", "android": "https://dc.lft.to/lastmile_qr_scan"}, "is_disabled": 0, "type": "electric_scooter"}, {"fusion_lon": 0.0, "is_reserved": 0, "bike_id": "1276b5db36b1030e88ba7fcc8887feea", "lon": -77.03864216666666, "name": "1276b5db36b1030e88ba7fcc8887feea", "lat": 38.9154375, "fusion_lat": 0.0, "rental_uris": {"ios": "https://dc.lft.to/lastmile_qr_scan", "android": "https://dc.lft.to/lastmile_qr_scan"}, "is_disabled": 0, "type": "electric_scooter"}, {"fusion_lon": 0.0, "is_reserved": 0, "bike_id": "39f1279cde6d428488669234fa2612d3", "lon": -77.04582466666666, "name": "39f1279cde6d428488669234fa2612d3", "lat": 38.91335933333333, "fusion_lat": 0.0, "rental_uris": {"ios": "https://dc.lft.to/lastmile_qr_scan", "android": "https://dc.lft.to/lastmile_qr_scan"}, "is_disabled": 0, "type": "electric_scooter"}, {"fusion_lon": 0.0, "is_reserved": 0, "bike_id": "0d6842e05c6e69917a67c2cf247cbb6b", "lon": -77.02520483333333, "name": "0d6842e05c6e69917a67c2cf247cbb6b", "lat": 38.938742500000004, "fusion_lat": 0.0, "rental_uris": {"ios": "https://dc.lft.to/lastmile_qr_scan", "android": "https://dc.lft.to/lastmile_qr_scan"}, "is_disabled": 0, "type": "electric_scooter"}, {"fusion_lon": 0.0, "is_reserved": 0, "bike_id": "12fd300c0744d49c1c2bdf1e822feb8d", "lon": -77.04701316666667, "name": "12fd300c0744d49c1c2bdf1e822feb8d", "lat": 38.8983645, "fusion_lat": 0.0, "rental_uris": {"ios": "https://dc.lft.to/lastmile_qr_scan", "android": "https://dc.lft.to/lastmile_qr_scan"}, "is_disabled": 0, "type": "electric_scooter"}, {"fusion_lon": 0.0, "is_reserved": 0, "bike_id": "6fb7fde860cc107183e755fe12abdfdf", "lon": -77.02172683333333, "name": "6fb7fde860cc107183e755fe12abdfdf", "lat": 38.892182, "fusion_lat": 0.0, "rental_uris": {"ios": "https://dc.lft.to/lastmile_qr_scan", "android": "https://dc.lft.to/lastmile_qr_scan"}, "is_disabled": 0, "type": "electric_scooter"}, {"fusion_lon": 0.0, "is_reserved": 0, "bike_id": "e18e44e036108b8ca64074c507f22d0d", "lon": -76.98821283333334, "name": "e18e44e036108b8ca64074c507f22d0d", "lat": 38.900357166666666, "fusion_lat": 0.0, "rental_uris": {"ios": "https://dc.lft.to/lastmile_qr_scan", "android": "https://dc.lft.to/lastmile_qr_scan"}, "is_disabled": 0, "type": "electric_scooter"}, {"fusion_lon": 0.0, "is_reserved": 0, "bike_id": "149f5c390a9742700c1492215c063b0d", "lon": -77.03217533333333, "name": "149f5c390a9742700c1492215c063b0d", "lat": 38.901416166666664, "fusion_lat": 0.0, "rental_uris": {"ios": "https://dc.lft.to/lastmile_qr_scan", "android": "https://dc.lft.to/lastmile_qr_scan"}, "is_disabled": 0, "type": "electric_scooter"}, {"fusion_lon": 0.0, "is_reserved": 0, "bike_id": "0f9be24ded8015cb34eab08f79f59034", "lon": -77.025995, "name": "0f9be24ded8015cb34eab08f79f59034", "lat": 38.8835725, "fusion_lat": 0.0, "rental_uris": {"ios": "https://dc.lft.to/lastmile_qr_scan", "android": "https://dc.lft.to/lastmile_qr_scan"}, "is_disabled": 0, "type": "electric_scooter"}, {"fusion_lon": 0.0, "is_reserved": 0, "bike_id": "935f3ddb1c1eede42b8f322690772e6e", "lon": -76.976161, "name": "935f3ddb1c1eede42b8f322690772e6e", "lat": 38.89291883333333, "fusion_lat": 0.0, "rental_uris": {"ios": "https://dc.lft.to/lastmile_qr_scan", "android": "https://dc.lft.to/lastmile_qr_scan"}, "is_disabled": 0, "type": "electric_bike"}, {"fusion_lon": 0.0, "is_reserved": 0, "bike_id": "7e354d3bf1ea8543fb6ad23782167a85", "lon": -77.052489, "name": "7e354d3bf1ea8543fb6ad23782167a85", "lat": 38.92339366666667, "fusion_lat": 0.0, "rental_uris": {"ios": "https://dc.lft.to/lastmile_qr_scan", "android": "https://dc.lft.to/lastmile_qr_scan"}, "is_disabled": 0, "type": "electric_scooter"}, {"fusion_lon": 0.0, "is_reserved": 0, "bike_id": "d2715f350e1e4029ec65b5559e81a9f9", "lon": -77.02200783333333, "name": "d2715f350e1e4029ec65b5559e81a9f9", "lat": 38.924740166666666, "fusion_lat": 0.0, "rental_uris": {"ios": "https://dc.lft.to/lastmile_qr_scan", "android": "https://dc.lft.to/lastmile_qr_scan"}, "is_disabled": 0, "type": "electric_scooter"}, {"fusion_lon": 0.0, "is_reserved": 0, "bike_id": "88533fc11d912a83e02c9e190f97d20a", "lon": -77.04160133333333, "name": "88533fc11d912a83e02c9e190f97d20a", "lat": 38.9175145, "fusion_lat": 0.0, "rental_uris": {"ios": "https://dc.lft.to/lastmile_qr_scan", "android": "https://dc.lft.to/lastmile_qr_scan"}, "is_disabled": 0, "type": "electric_scooter"}, {"fusion_lon": 0.0, "is_reserved": 0, "bike_id": "70022d6a498b8d943444574eb1563a0b", "lon": -77.04501133333333, "name": "70022d6a498b8d943444574eb1563a0b", "lat": 38.905744166666665, "fusion_lat": 0.0, "rental_uris": {"ios": "https://dc.lft.to/lastmile_qr_scan", "android": "https://dc.lft.to/lastmile_qr_scan"}, "is_disabled": 0, "type": "electric_scooter"}, {"fusion_lon": 0.0, "is_reserved": 0, "bike_id": "9bb50801e19edc43e60d1230f4bb69a4", "lon": -77.02997333333333, "name": "9bb50801e19edc43e60d1230f4bb69a4", "lat": 38.94049666666667, "fusion_lat": 0.0, "rental_uris": {"ios": "https://dc.lft.to/lastmile_qr_scan", "android": "https://dc.lft.to/lastmile_qr_scan"}, "is_disabled": 0, "type": "electric_bike"}, {"fusion_lon": 0.0, "is_reserved": 0, "bike_id": "dac409a4e87f41e9cd746cdb62b13c5c", "lon": -77.00316866666667, "name": "dac409a4e87f41e9cd746cdb62b13c5c", "lat": 38.907451333333334, "fusion_lat": 0.0, "rental_uris": {"ios": "https://dc.lft.to/lastmile_qr_scan", "android": "https://dc.lft.to/lastmile_qr_scan"}, "is_disabled": 0, "type": "electric_scooter"}, {"fusion_lon": 0.0, "is_reserved": 0, "bike_id": "606e4357060c6d53c5a45df19efb1c8c", "lon": -77.02226416666667, "name": "606e4357060c6d53c5a45df19efb1c8c", "lat": 38.92102516666667, "fusion_lat": 0.0, "rental_uris": {"ios": "https://dc.lft.to/lastmile_qr_scan", "android": "https://dc.lft.to/lastmile_qr_scan"}, "is_disabled": 0, "type": "electric_scooter"}, {"fusion_lon": 0.0, "is_reserved": 0, "bike_id": "5593968e1896722d4c439f367c1ec03e", "lon": -77.022713, "name": "5593968e1896722d4c439f367c1ec03e", "lat": 38.901801666666664, "fusion_lat": 0.0, "rental_uris": {"ios": "https://dc.lft.to/lastmile_qr_scan", "android": "https://dc.lft.to/lastmile_qr_scan"}, "is_disabled": 0, "type": "electric_scooter"}, {"fusion_lon": 0.0, "is_reserved": 0, "bike_id": "1175dba7f5a00cc7e2727f758fc58082", "lon": -77.0101435, "name": "1175dba7f5a00cc7e2727f758fc58082", "lat": 38.8672635, "fusion_lat": 0.0, "rental_uris": {"ios": "https://dc.lft.to/lastmile_qr_scan", "android": "https://dc.lft.to/lastmile_qr_scan"}, "is_disabled": 0, "type": "electric_scooter"}, {"fusion_lon": 0.0, "is_reserved": 0, "bike_id": "5d4ae27ade4aa2cc40f5287c2b603ebb", "lon": -77.068201, "name": "5d4ae27ade4aa2cc40f5287c2b603ebb", "lat": 38.93155866666667, "fusion_lat": 0.0, "rental_uris": {"ios": "https://dc.lft.to/lastmile_qr_scan", "android": "https://dc.lft.to/lastmile_qr_scan"}, "is_disabled": 0, "type": "electric_scooter"}, {"fusion_lon": 0.0, "is_reserved": 0, "bike_id": "b65955335206b74be1647ec68a9ff773", "lon": -77.04647583333333, "name": "b65955335206b74be1647ec68a9ff773", "lat": 38.90292866666667, "fusion_lat": 0.0, "rental_uris": {"ios": "https://dc.lft.to/lastmile_qr_scan", "android": "https://dc.lft.to/lastmile_qr_scan"}, "is_disabled": 0, "type": "electric_scooter"}, {"fusion_lon": 0.0, "is_reserved": 0, "bike_id": "41a98d7675e2e80be9a51bfb780cecaa", "lon": -77.022976, "name": "41a98d7675e2e80be9a51bfb780cecaa", "lat": 38.91631816666667, "fusion_lat": 0.0, "rental_uris": {"ios": "https://dc.lft.to/lastmile_qr_scan", "android": "https://dc.lft.to/lastmile_qr_scan"}, "is_disabled": 0, "type": "electric_scooter"}, {"fusion_lon": 0.0, "is_reserved": 0, "bike_id": "a7b3a649b6e8b3d205ec8d4d601b9616", "lon": -76.981558, "name": "a7b3a649b6e8b3d205ec8d4d601b9616", "lat": 39.00721433333333, "fusion_lat": 0.0, "rental_uris": {"ios": "https://dc.lft.to/lastmile_qr_scan", "android": "https://dc.lft.to/lastmile_qr_scan"}, "is_disabled": 0, "type": "electric_bike"}, {"fusion_lon": 0.0, "is_reserved": 0, "bike_id": "70ce9a65c9f07f18a7e963f1e780dbe3", "lon": -77.01799533333333, "name": "70ce9a65c9f07f18a7e963f1e780dbe3", "lat": 38.920624833333335, "fusion_lat": 0.0, "rental_uris": {"ios": "https://dc.lft.to/lastmile_qr_scan", "android": "https://dc.lft.to/lastmile_qr_scan"}, "is_disabled": 0, "type": "electric_scooter"}, {"fusion_lon": 0.0, "is_reserved": 0, "bike_id": "e01eecd5d704ce4cff3975475f514598", "lon": -77.00329, "name": "e01eecd5d704ce4cff3975475f514598", "lat": 38.893669833333334, "fusion_lat": 0.0, "rental_uris": {"ios": "https://dc.lft.to/lastmile_qr_scan", "android": "https://dc.lft.to/lastmile_qr_scan"}, "is_disabled": 0, "type": "electric_scooter"}, {"fusion_lon": 0.0, "is_reserved": 0, "bike_id": "b5a83753add6b79a35d36921b2fb3bf8", "lon": -77.02379716666667, "name": "b5a83753add6b79a35d36921b2fb3bf8", "lat": 38.9022615, "fusion_lat": 0.0, "rental_uris": {"ios": "https://dc.lft.to/lastmile_qr_scan", "android": "https://dc.lft.to/lastmile_qr_scan"}, "is_disabled": 0, "type": "electric_scooter"}, {"fusion_lon": 0.0, "is_reserved": 0, "bike_id": "e6feb7925d1a846503ef56a086d8065e", "lon": -77.0434425, "name": "e6feb7925d1a846503ef56a086d8065e", "lat": 38.896853666666665, "fusion_lat": 0.0, "rental_uris": {"ios": "https://dc.lft.to/lastmile_qr_scan", "android": "https://dc.lft.to/lastmile_qr_scan"}, "is_disabled": 0, "type": "electric_scooter"}, {"fusion_lon": 0.0, "is_reserved": 0, "bike_id": "bd1de0a931f451c1c73b8be1bb12b705", "lon": -77.04491516666667, "name": "bd1de0a931f451c1c73b8be1bb12b705", "lat": 38.900165333333334, "fusion_lat": 0.0, "rental_uris": {"ios": "https://dc.lft.to/lastmile_qr_scan", "android": "https://dc.lft.to/lastmile_qr_scan"}, "is_disabled": 0, "type": "electric_scooter"}, {"fusion_lon": 0.0, "is_reserved": 0, "bike_id": "12856868c21ba80c7cd256ca9675c8a2", "lon": -77.0379785, "name": "12856868c21ba80c7cd256ca9675c8a2", "lat": 38.920747166666665, "fusion_lat": 0.0, "rental_uris": {"ios": "https://dc.lft.to/lastmile_qr_scan", "android": "https://dc.lft.to/lastmile_qr_scan"}, "is_disabled": 0, "type": "electric_scooter"}, {"fusion_lon": 0.0, "is_reserved": 0, "bike_id": "2e3b227bec7040fe7f4e1f45a6eeea37", "lon": -77.033674, "name": "2e3b227bec7040fe7f4e1f45a6eeea37", "lat": 38.91922183333333, "fusion_lat": 0.0, "rental_uris": {"ios": "https://dc.lft.to/lastmile_qr_scan", "android": "https://dc.lft.to/lastmile_qr_scan"}, "is_disabled": 0, "type": "electric_scooter"}, {"fusion_lon": 0.0, "is_reserved": 0, "bike_id": "afd725095a4c85a57db6f174826d8c25", "lon": -76.99813, "name": "afd725095a4c85a57db6f174826d8c25", "lat": 38.9292485, "fusion_lat": 0.0, "rental_uris": {"ios": "https://dc.lft.to/lastmile_qr_scan", "android": "https://dc.lft.to/lastmile_qr_scan"}, "is_disabled": 0, "type": "electric_scooter"}, {"fusion_lon": 0.0, "is_reserved": 0, "bike_id": "72c8f11c8f58b1e099b257ee467eefa6", "lon": -77.00031033333333, "name": "72c8f11c8f58b1e099b257ee467eefa6", "lat": 38.87392466666667, "fusion_lat": 0.0, "rental_uris": {"ios": "https://dc.lft.to/lastmile_qr_scan", "android": "https://dc.lft.to/lastmile_qr_scan"}, "is_disabled": 0, "type": "electric_scooter"}, {"fusion_lon": 0.0, "is_reserved": 0, "bike_id": "314e29f5f47acefa7cdb2a38c0772183", "lon": -77.02054566666666, "name": "314e29f5f47acefa7cdb2a38c0772183", "lat": 38.9326385, "fusion_lat": 0.0, "rental_uris": {"ios": "https://dc.lft.to/lastmile_qr_scan", "android": "https://dc.lft.to/lastmile_qr_scan"}, "is_disabled": 0, "type": "electric_scooter"}, {"fusion_lon": 0.0, "is_reserved": 0, "bike_id": "ae768c64840cf15df0831c62cc6e9e57", "lon": -77.080804, "name": "ae768c64840cf15df0831c62cc6e9e57", "lat": 38.908606666666664, "fusion_lat": 0.0, "rental_uris": {"ios": "https://dc.lft.to/lastmile_qr_scan", "android": "https://dc.lft.to/lastmile_qr_scan"}, "is_disabled": 0, "type": "electric_bike"}, {"fusion_lon": 0.0, "is_reserved": 0, "bike_id": "567f6b5c846276145b576da84f7df0b8", "lon": -77.040297, "name": "567f6b5c846276145b576da84f7df0b8", "lat": 38.90158, "fusion_lat": 0.0, "rental_uris": {"ios": "https://dc.lft.to/lastmile_qr_scan", "android": "https://dc.lft.to/lastmile_qr_scan"}, "is_disabled": 0, "type": "electric_scooter"}, {"fusion_lon": 0.0, "is_reserved": 0, "bike_id": "68df76a3a5389a7e3fe3ba58a42c440e", "lon": -77.022203, "name": "68df76a3a5389a7e3fe3ba58a42c440e", "lat": 38.912750833333334, "fusion_lat": 0.0, "rental_uris": {"ios": "https://dc.lft.to/lastmile_qr_scan", "android": "https://dc.lft.to/lastmile_qr_scan"}, "is_disabled": 0, "type": "electric_scooter"}, {"fusion_lon": 0.0, "is_reserved": 0, "bike_id": "004b0242708516b276cade01cd92c5c8", "lon": -77.03779516666667, "name": "004b0242708516b276cade01cd92c5c8", "lat": 38.9170115, "fusion_lat": 0.0, "rental_uris": {"ios": "https://dc.lft.to/lastmile_qr_scan", "android": "https://dc.lft.to/lastmile_qr_scan"}, "is_disabled": 0, "type": "electric_scooter"}, {"fusion_lon": 0.0, "is_reserved": 0, "bike_id": "b0506440ac6c5c6e309712a1ae96fde4", "lon": -77.04142766666666, "name": "b0506440ac6c5c6e309712a1ae96fde4", "lat": 38.93398233333333, "fusion_lat": 0.0, "rental_uris": {"ios": "https://dc.lft.to/lastmile_qr_scan", "android": "https://dc.lft.to/lastmile_qr_scan"}, "is_disabled": 0, "type": "electric_scooter"}, {"fusion_lon": 0.0, "is_reserved": 0, "bike_id": "a4f93174fd2ff66bde830402e3a9bd72", "lon": -77.04907233333333, "name": "a4f93174fd2ff66bde830402e3a9bd72", "lat": 38.898989, "fusion_lat": 0.0, "rental_uris": {"ios": "https://dc.lft.to/lastmile_qr_scan", "android": "https://dc.lft.to/lastmile_qr_scan"}, "is_disabled": 0, "type": "electric_scooter"}, {"fusion_lon": 0.0, "is_reserved": 0, "bike_id": "5950e25c56c38959769f8240334945a9", "lon": -77.01464866666667, "name": "5950e25c56c38959769f8240334945a9", "lat": 38.885092, "fusion_lat": 0.0, "rental_uris": {"ios": "https://dc.lft.to/lastmile_qr_scan", "android": "https://dc.lft.to/lastmile_qr_scan"}, "is_disabled": 0, "type": "electric_scooter"}, {"fusion_lon": 0.0, "is_reserved": 0, "bike_id": "72492a4a2cd45cc6dd20767089fca239", "lon": -77.03159816666667, "name": "72492a4a2cd45cc6dd20767089fca239", "lat": 38.9202495, "fusion_lat": 0.0, "rental_uris": {"ios": "https://dc.lft.to/lastmile_qr_scan", "android": "https://dc.lft.to/lastmile_qr_scan"}, "is_disabled": 0, "type": "electric_scooter"}, {"fusion_lon": 0.0, "is_reserved": 0, "bike_id": "487e3f94203aaef5d2ac122b9b33ef3f", "lon": -77.01799833333334, "name": "487e3f94203aaef5d2ac122b9b33ef3f", "lat": 38.921443333333336, "fusion_lat": 0.0, "rental_uris": {"ios": "https://dc.lft.to/lastmile_qr_scan", "android": "https://dc.lft.to/lastmile_qr_scan"}, "is_disabled": 0, "type": "electric_scooter"}, {"fusion_lon": 0.0, "is_reserved": 0, "bike_id": "ef541ce44eddaff6cfc046b7505b8273", "lon": -77.03181916666666, "name": "ef541ce44eddaff6cfc046b7505b8273", "lat": 38.91544483333333, "fusion_lat": 0.0, "rental_uris": {"ios": "https://dc.lft.to/lastmile_qr_scan", "android": "https://dc.lft.to/lastmile_qr_scan"}, "is_disabled": 0, "type": "electric_scooter"}, {"fusion_lon": 0.0, "is_reserved": 0, "bike_id": "c5f26ca8a6404fbe1a809d8f474256a9", "lon": -76.99492683333334, "name": "c5f26ca8a6404fbe1a809d8f474256a9", "lat": 38.838693666666664, "fusion_lat": 0.0, "rental_uris": {"ios": "https://dc.lft.to/lastmile_qr_scan", "android": "https://dc.lft.to/lastmile_qr_scan"}, "is_disabled": 0, "type": "electric_bike"}, {"fusion_lon": 0.0, "is_reserved": 0, "bike_id": "d1b57fcdb3fc0a9662edae105816fa9a", "lon": -77.05316083333334, "name": "d1b57fcdb3fc0a9662edae105816fa9a", "lat": 38.918331, "fusion_lat": 0.0, "rental_uris": {"ios": "https://dc.lft.to/lastmile_qr_scan", "android": "https://dc.lft.to/lastmile_qr_scan"}, "is_disabled": 0, "type": "electric_scooter"}, {"fusion_lon": 0.0, "is_reserved": 0, "bike_id": "4ab790f64a2e1e696995bd1cfb4ce86d", "lon": -77.00219733333333, "name": "4ab790f64a2e1e696995bd1cfb4ce86d", "lat": 38.87778483333334, "fusion_lat": 0.0, "rental_uris": {"ios": "https://dc.lft.to/lastmile_qr_scan", "android": "https://dc.lft.to/lastmile_qr_scan"}, "is_disabled": 0, "type": "electric_scooter"}, {"fusion_lon": 0.0, "is_reserved": 0, "bike_id": "1a7be3b79aca32e8e953e52181cfa399", "lon": -77.00956483333333, "name": "1a7be3b79aca32e8e953e52181cfa399", "lat": 38.8976205, "fusion_lat": 0.0, "rental_uris": {"ios": "https://dc.lft.to/lastmile_qr_scan", "android": "https://dc.lft.to/lastmile_qr_scan"}, "is_disabled": 0, "type": "electric_scooter"}, {"fusion_lon": 0.0, "is_reserved": 0, "bike_id": "ee63784f0b3deb219f54200224ee8810", "lon": -77.04647116666666, "name": "ee63784f0b3deb219f54200224ee8810", "lat": 38.89222983333333, "fusion_lat": 0.0, "rental_uris": {"ios": "https://dc.lft.to/lastmile_qr_scan", "android": "https://dc.lft.to/lastmile_qr_scan"}, "is_disabled": 0, "type": "electric_scooter"}, {"fusion_lon": 0.0, "is_reserved": 0, "bike_id": "e33e01ef18f4347a65ee9c97fe7cfd89", "lon": -77.04815816666667, "name": "e33e01ef18f4347a65ee9c97fe7cfd89", "lat": 38.89979266666667, "fusion_lat": 0.0, "rental_uris": {"ios": "https://dc.lft.to/lastmile_qr_scan", "android": "https://dc.lft.to/lastmile_qr_scan"}, "is_disabled": 0, "type": "electric_scooter"}, {"fusion_lon": 0.0, "is_reserved": 0, "bike_id": "857bb0a71e183b226afacb42044f8f36", "lon": -77.0321295, "name": "857bb0a71e183b226afacb42044f8f36", "lat": 38.901383, "fusion_lat": 0.0, "rental_uris": {"ios": "https://dc.lft.to/lastmile_qr_scan", "android": "https://dc.lft.to/lastmile_qr_scan"}, "is_disabled": 0, "type": "electric_scooter"}, {"fusion_lon": 0.0, "is_reserved": 0, "bike_id": "7a38ceef6f1f2ec21d84a1278add0e09", "lon": -77.04493433333333, "name": "7a38ceef6f1f2ec21d84a1278add0e09", "lat": 38.913665333333334, "fusion_lat": 0.0, "rental_uris": {"ios": "https://dc.lft.to/lastmile_qr_scan", "android": "https://dc.lft.to/lastmile_qr_scan"}, "is_disabled": 0, "type": "electric_scooter"}, {"fusion_lon": 0.0, "is_reserved": 0, "bike_id": "4a31d850002f31afc5aa36bc04bd841d", "lon": -77.03298366666667, "name": "4a31d850002f31afc5aa36bc04bd841d", "lat": 38.8991215, "fusion_lat": 0.0, "rental_uris": {"ios": "https://dc.lft.to/lastmile_qr_scan", "android": "https://dc.lft.to/lastmile_qr_scan"}, "is_disabled": 0, "type": "electric_scooter"}, {"fusion_lon": 0.0, "is_reserved": 0, "bike_id": "79e723864f174df8d761cb01e3538231", "lon": -76.98182083333333, "name": "79e723864f174df8d761cb01e3538231", "lat": 38.9531515, "fusion_lat": 0.0, "rental_uris": {"ios": "https://dc.lft.to/lastmile_qr_scan", "android": "https://dc.lft.to/lastmile_qr_scan"}, "is_disabled": 0, "type": "electric_bike"}, {"fusion_lon": 0.0, "is_reserved": 0, "bike_id": "77290a7258c5195eba181b058e85131c", "lon": -77.02758466666667, "name": "77290a7258c5195eba181b058e85131c", "lat": 38.892288666666666, "fusion_lat": 0.0, "rental_uris": {"ios": "https://dc.lft.to/lastmile_qr_scan", "android": "https://dc.lft.to/lastmile_qr_scan"}, "is_disabled": 0, "type": "electric_scooter"}, {"fusion_lon": 0.0, "is_reserved": 0, "bike_id": "4342e909c4efce8498004c7592129024", "lon": -77.02246516666666, "name": "4342e909c4efce8498004c7592129024", "lat": 38.92471183333333, "fusion_lat": 0.0, "rental_uris": {"ios": "https://dc.lft.to/lastmile_qr_scan", "android": "https://dc.lft.to/lastmile_qr_scan"}, "is_disabled": 0, "type": "electric_scooter"}, {"fusion_lon": 0.0, "is_reserved": 0, "bike_id": "52573d14d481070dae5d4ad7ec8ba470", "lon": -77.07659366666667, "name": "52573d14d481070dae5d4ad7ec8ba470", "lat": 38.809805, "fusion_lat": 0.0, "rental_uris": {"ios": "https://dc.lft.to/lastmile_qr_scan", "android": "https://dc.lft.to/lastmile_qr_scan"}, "is_disabled": 0, "type": "electric_bike"}, {"fusion_lon": 0.0, "is_reserved": 0, "bike_id": "0d00c662c21fcd501a5234dc5fec5b09", "lon": -77.019555, "name": "0d00c662c21fcd501a5234dc5fec5b09", "lat": 38.922996833333336, "fusion_lat": 0.0, "rental_uris": {"ios": "https://dc.lft.to/lastmile_qr_scan", "android": "https://dc.lft.to/lastmile_qr_scan"}, "is_disabled": 0, "type": "electric_scooter"}, {"fusion_lon": 0.0, "is_reserved": 0, "bike_id": "c681b48fd6358f19f95d3f35dbaef1fa", "lon": -77.02465283333333, "name": "c681b48fd6358f19f95d3f35dbaef1fa", "lat": 38.89922133333334, "fusion_lat": 0.0, "rental_uris": {"ios": "https://dc.lft.to/lastmile_qr_scan", "android": "https://dc.lft.to/lastmile_qr_scan"}, "is_disabled": 0, "type": "electric_scooter"}, {"fusion_lon": 0.0, "is_reserved": 0, "bike_id": "1d13228cc504756e235ac24d158ad302", "lon": -77.03844983333333, "name": "1d13228cc504756e235ac24d158ad302", "lat": 38.93183633333334, "fusion_lat": 0.0, "rental_uris": {"ios": "https://dc.lft.to/lastmile_qr_scan", "android": "https://dc.lft.to/lastmile_qr_scan"}, "is_disabled": 0, "type": "electric_scooter"}, {"fusion_lon": 0.0, "is_reserved": 0, "bike_id": "360e534000d428c193902994f0b13282", "lon": -77.0400525, "name": "360e534000d428c193902994f0b13282", "lat": 38.918142, "fusion_lat": 0.0, "rental_uris": {"ios": "https://dc.lft.to/lastmile_qr_scan", "android": "https://dc.lft.to/lastmile_qr_scan"}, "is_disabled": 0, "type": "electric_scooter"}, {"fusion_lon": 0.0, "is_reserved": 0, "bike_id": "1e48e04cdf00b0315633e46ab94f2020", "lon": -76.99052083333333, "name": "1e48e04cdf00b0315633e46ab94f2020", "lat": 38.858503, "fusion_lat": 0.0, "rental_uris": {"ios": "https://dc.lft.to/lastmile_qr_scan", "android": "https://dc.lft.to/lastmile_qr_scan"}, "is_disabled": 0, "type": "electric_scooter"}, {"fusion_lon": 0.0, "is_reserved": 0, "bike_id": "3a4e3a235f1da5006469175943437225", "lon": -76.95769466666667, "name": "3a4e3a235f1da5006469175943437225", "lat": 38.884429833333336, "fusion_lat": 0.0, "rental_uris": {"ios": "https://dc.lft.to/lastmile_qr_scan", "android": "https://dc.lft.to/lastmile_qr_scan"}, "is_disabled": 0, "type": "electric_scooter"}, {"fusion_lon": 0.0, "is_reserved": 0, "bike_id": "21acc654cceaa8d543ecd5f6d89e0674", "lon": -77.04507433333333, "name": "21acc654cceaa8d543ecd5f6d89e0674", "lat": 38.892253833333335, "fusion_lat": 0.0, "rental_uris": {"ios": "https://dc.lft.to/lastmile_qr_scan", "android": "https://dc.lft.to/lastmile_qr_scan"}, "is_disabled": 0, "type": "electric_scooter"}, {"fusion_lon": 0.0, "is_reserved": 0, "bike_id": "990642d7a3069df64438eba86cb0106f", "lon": -77.0223125, "name": "990642d7a3069df64438eba86cb0106f", "lat": 38.956861833333335, "fusion_lat": 0.0, "rental_uris": {"ios": "https://dc.lft.to/lastmile_qr_scan", "android": "https://dc.lft.to/lastmile_qr_scan"}, "is_disabled": 0, "type": "electric_scooter"}, {"fusion_lon": 0.0, "is_reserved": 0, "bike_id": "d6b43ecc159f8a91bbece6e6b2716d81", "lon": -77.00061783333334, "name": "d6b43ecc159f8a91bbece6e6b2716d81", "lat": 38.87683166666667, "fusion_lat": 0.0, "rental_uris": {"ios": "https://dc.lft.to/lastmile_qr_scan", "android": "https://dc.lft.to/lastmile_qr_scan"}, "is_disabled": 0, "type": "electric_scooter"}, {"fusion_lon": 0.0, "is_reserved": 0, "bike_id": "7d48e2fd1024f84320404d206b9a37d1", "lon": -76.99827666666667, "name": "7d48e2fd1024f84320404d206b9a37d1", "lat": 38.8853275, "fusion_lat": 0.0, "rental_uris": {"ios": "https://dc.lft.to/lastmile_qr_scan", "android": "https://dc.lft.to/lastmile_qr_scan"}, "is_disabled": 0, "type": "electric_scooter"}, {"fusion_lon": 0.0, "is_reserved": 0, "bike_id": "3a39666f863aed174f938ca70e5d91c2", "lon": -77.0241205, "name": "3a39666f863aed174f938ca70e5d91c2", "lat": 38.957323, "fusion_lat": 0.0, "rental_uris": {"ios": "https://dc.lft.to/lastmile_qr_scan", "android": "https://dc.lft.to/lastmile_qr_scan"}, "is_disabled": 0, "type": "electric_scooter"}, {"fusion_lon": 0.0, "is_reserved": 0, "bike_id": "40981b6d2092078d28cffdba4328ce8b", "lon": -77.01514833333333, "name": "40981b6d2092078d28cffdba4328ce8b", "lat": 38.90051666666667, "fusion_lat": 0.0, "rental_uris": {"ios": "https://dc.lft.to/lastmile_qr_scan", "android": "https://dc.lft.to/lastmile_qr_scan"}, "is_disabled": 0, "type": "electric_scooter"}, {"fusion_lon": 0.0, "is_reserved": 0, "bike_id": "1e0bf311e205d180a9974e87b958e995", "lon": -76.98552733333334, "name": "1e0bf311e205d180a9974e87b958e995", "lat": 38.88386, "fusion_lat": 0.0, "rental_uris": {"ios": "https://dc.lft.to/lastmile_qr_scan", "android": "https://dc.lft.to/lastmile_qr_scan"}, "is_disabled": 0, "type": "electric_scooter"}, {"fusion_lon": 0.0, "is_reserved": 0, "bike_id": "33637e7c11a7542eaa3f9b792c915b03", "lon": -77.032129, "name": "33637e7c11a7542eaa3f9b792c915b03", "lat": 38.9276105, "fusion_lat": 0.0, "rental_uris": {"ios": "https://dc.lft.to/lastmile_qr_scan", "android": "https://dc.lft.to/lastmile_qr_scan"}, "is_disabled": 0, "type": "electric_scooter"}, {"fusion_lon": 0.0, "is_reserved": 0, "bike_id": "ecf332cb0311a890c5685467bd8c424d", "lon": -77.04865733333334, "name": "ecf332cb0311a890c5685467bd8c424d", "lat": 38.90478683333333, "fusion_lat": 0.0, "rental_uris": {"ios": "https://dc.lft.to/lastmile_qr_scan", "android": "https://dc.lft.to/lastmile_qr_scan"}, "is_disabled": 0, "type": "electric_scooter"}, {"fusion_lon": 0.0, "is_reserved": 0, "bike_id": "a4c75d5d754a7dbedead9eef4c445ef3", "lon": -77.07962616666667, "name": "a4c75d5d754a7dbedead9eef4c445ef3", "lat": 38.9456115, "fusion_lat": 0.0, "rental_uris": {"ios": "https://dc.lft.to/lastmile_qr_scan", "android": "https://dc.lft.to/lastmile_qr_scan"}, "is_disabled": 0, "type": "electric_scooter"}, {"fusion_lon": 0.0, "is_reserved": 0, "bike_id": "48590c0246fc2e0912e22accc5430dbc", "lon": -77.01981866666667, "name": "48590c0246fc2e0912e22accc5430dbc", "lat": 38.88477533333333, "fusion_lat": 0.0, "rental_uris": {"ios": "https://dc.lft.to/lastmile_qr_scan", "android": "https://dc.lft.to/lastmile_qr_scan"}, "is_disabled": 0, "type": "electric_scooter"}, {"fusion_lon": 0.0, "is_reserved": 0, "bike_id": "a8b5142038db6e1b1582295da86f5f8e", "lon": -77.00339833333334, "name": "a8b5142038db6e1b1582295da86f5f8e", "lat": 38.8935745, "fusion_lat": 0.0, "rental_uris": {"ios": "https://dc.lft.to/lastmile_qr_scan", "android": "https://dc.lft.to/lastmile_qr_scan"}, "is_disabled": 0, "type": "electric_scooter"}, {"fusion_lon": 0.0, "is_reserved": 0, "bike_id": "9d44c4c0fe6e6a31ceda08a97bf6424d", "lon": -77.03260366666666, "name": "9d44c4c0fe6e6a31ceda08a97bf6424d", "lat": 38.9304005, "fusion_lat": 0.0, "rental_uris": {"ios": "https://dc.lft.to/lastmile_qr_scan", "android": "https://dc.lft.to/lastmile_qr_scan"}, "is_disabled": 0, "type": "electric_scooter"}, {"fusion_lon": 0.0, "is_reserved": 0, "bike_id": "7a048895d273203464f40047d512e1e3", "lon": -76.98665116666666, "name": "7a048895d273203464f40047d512e1e3", "lat": 38.8687345, "fusion_lat": 0.0, "rental_uris": {"ios": "https://dc.lft.to/lastmile_qr_scan", "android": "https://dc.lft.to/lastmile_qr_scan"}, "is_disabled": 0, "type": "electric_scooter"}, {"fusion_lon": 0.0, "is_reserved": 0, "bike_id": "b0bc5333313a9d9bf5e0f380ed777ac7", "lon": -77.083251, "name": "b0bc5333313a9d9bf5e0f380ed777ac7", "lat": 38.85445983333334, "fusion_lat": 0.0, "rental_uris": {"ios": "https://dc.lft.to/lastmile_qr_scan", "android": "https://dc.lft.to/lastmile_qr_scan"}, "is_disabled": 0, "type": "electric_bike"}, {"fusion_lon": 0.0, "is_reserved": 0, "bike_id": "3c511496ac2f3d51d68f6111c00536e9", "lon": -77.02130166666667, "name": "3c511496ac2f3d51d68f6111c00536e9", "lat": 38.9224265, "fusion_lat": 0.0, "rental_uris": {"ios": "https://dc.lft.to/lastmile_qr_scan", "android": "https://dc.lft.to/lastmile_qr_scan"}, "is_disabled": 0, "type": "electric_scooter"}, {"fusion_lon": 0.0, "is_reserved": 0, "bike_id": "8ffd3e7c07922cbbad9bc75b85b3081b", "lon": -77.031372, "name": "8ffd3e7c07922cbbad9bc75b85b3081b", "lat": 38.9307625, "fusion_lat": 0.0, "rental_uris": {"ios": "https://dc.lft.to/lastmile_qr_scan", "android": "https://dc.lft.to/lastmile_qr_scan"}, "is_disabled": 0, "type": "electric_scooter"}, {"fusion_lon": 0.0, "is_reserved": 0, "bike_id": "d3d188dded3dda7b4daf1f7e902cc2d7", "lon": -77.02453466666667, "name": "d3d188dded3dda7b4daf1f7e902cc2d7", "lat": 38.91556583333333, "fusion_lat": 0.0, "rental_uris": {"ios": "https://dc.lft.to/lastmile_qr_scan", "android": "https://dc.lft.to/lastmile_qr_scan"}, "is_disabled": 0, "type": "electric_scooter"}, {"fusion_lon": 0.0, "is_reserved": 0, "bike_id": "a6724d0d1a7331ad9f190d17e564e6f4", "lon": -77.00925666666667, "name": "a6724d0d1a7331ad9f190d17e564e6f4", "lat": 38.895508166666666, "fusion_lat": 0.0, "rental_uris": {"ios": "https://dc.lft.to/lastmile_qr_scan", "android": "https://dc.lft.to/lastmile_qr_scan"}, "is_disabled": 0, "type": "electric_scooter"}, {"fusion_lon": 0.0, "is_reserved": 0, "bike_id": "3ca53234493343172868c9434792efa3", "lon": -77.04657183333333, "name": "3ca53234493343172868c9434792efa3", "lat": 38.90426866666667, "fusion_lat": 0.0, "rental_uris": {"ios": "https://dc.lft.to/lastmile_qr_scan", "android": "https://dc.lft.to/lastmile_qr_scan"}, "is_disabled": 0, "type": "electric_scooter"}, {"fusion_lon": 0.0, "is_reserved": 0, "bike_id": "0693d7df6f7be85c91261998d67f3b29", "lon": -77.0340025, "name": "0693d7df6f7be85c91261998d67f3b29", "lat": 38.919219, "fusion_lat": 0.0, "rental_uris": {"ios": "https://dc.lft.to/lastmile_qr_scan", "android": "https://dc.lft.to/lastmile_qr_scan"}, "is_disabled": 0, "type": "electric_scooter"}, {"fusion_lon": 0.0, "is_reserved": 0, "bike_id": "191e1ed5ba39ed58988bb15baaec8c4e", "lon": -77.02231533333334, "name": "191e1ed5ba39ed58988bb15baaec8c4e", "lat": 38.910168666666664, "fusion_lat": 0.0, "rental_uris": {"ios": "https://dc.lft.to/lastmile_qr_scan", "android": "https://dc.lft.to/lastmile_qr_scan"}, "is_disabled": 0, "type": "electric_scooter"}, {"fusion_lon": 0.0, "is_reserved": 0, "bike_id": "2cb91e21f4918f01da03f5fe0fdb1ada", "lon": -77.05680783333334, "name": "2cb91e21f4918f01da03f5fe0fdb1ada", "lat": 38.923309333333336, "fusion_lat": 0.0, "rental_uris": {"ios": "https://dc.lft.to/lastmile_qr_scan", "android": "https://dc.lft.to/lastmile_qr_scan"}, "is_disabled": 0, "type": "electric_scooter"}, {"fusion_lon": 0.0, "is_reserved": 0, "bike_id": "63aa631ac6709d071c935b46ee313655", "lon": -77.03766133333333, "name": "63aa631ac6709d071c935b46ee313655", "lat": 38.916927, "fusion_lat": 0.0, "rental_uris": {"ios": "https://dc.lft.to/lastmile_qr_scan", "android": "https://dc.lft.to/lastmile_qr_scan"}, "is_disabled": 0, "type": "electric_scooter"}, {"fusion_lon": 0.0, "is_reserved": 0, "bike_id": "a401b0c32e4ea2ea81938acd964688d3", "lon": -77.02157266666667, "name": "a401b0c32e4ea2ea81938acd964688d3", "lat": 38.92556316666667, "fusion_lat": 0.0, "rental_uris": {"ios": "https://dc.lft.to/lastmile_qr_scan", "android": "https://dc.lft.to/lastmile_qr_scan"}, "is_disabled": 0, "type": "electric_scooter"}, {"fusion_lon": 0.0, "is_reserved": 0, "bike_id": "e13b0c33f7c33b1c3e32e2417cf51be9", "lon": -77.021719, "name": "e13b0c33f7c33b1c3e32e2417cf51be9", "lat": 38.926156666666664, "fusion_lat": 0.0, "rental_uris": {"ios": "https://dc.lft.to/lastmile_qr_scan", "android": "https://dc.lft.to/lastmile_qr_scan"}, "is_disabled": 0, "type": "electric_scooter"}, {"fusion_lon": 0.0, "is_reserved": 0, "bike_id": "eac7d15da6c2e68d7c25113b0de1270d", "lon": -77.06334566666666, "name": "eac7d15da6c2e68d7c25113b0de1270d", "lat": 38.9440975, "fusion_lat": 0.0, "rental_uris": {"ios": "https://dc.lft.to/lastmile_qr_scan", "android": "https://dc.lft.to/lastmile_qr_scan"}, "is_disabled": 0, "type": "electric_scooter"}, {"fusion_lon": 0.0, "is_reserved": 0, "bike_id": "7cdb8e8e00573d926e800ab889769ce4", "lon": -77.00127333333333, "name": "7cdb8e8e00573d926e800ab889769ce4", "lat": 38.9048505, "fusion_lat": 0.0, "rental_uris": {"ios": "https://dc.lft.to/lastmile_qr_scan", "android": "https://dc.lft.to/lastmile_qr_scan"}, "is_disabled": 0, "type": "electric_scooter"}, {"fusion_lon": 0.0, "is_reserved": 0, "bike_id": "dbe81deffca609d22870948ee56c379c", "lon": -77.03690183333333, "name": "dbe81deffca609d22870948ee56c379c", "lat": 38.939340666666666, "fusion_lat": 0.0, "rental_uris": {"ios": "https://dc.lft.to/lastmile_qr_scan", "android": "https://dc.lft.to/lastmile_qr_scan"}, "is_disabled": 0, "type": "electric_scooter"}, {"fusion_lon": 0.0, "is_reserved": 0, "bike_id": "6370f4bec471d645076ec8d867d39886", "lon": -77.00941716666667, "name": "6370f4bec471d645076ec8d867d39886", "lat": 38.90572233333333, "fusion_lat": 0.0, "rental_uris": {"ios": "https://dc.lft.to/lastmile_qr_scan", "android": "https://dc.lft.to/lastmile_qr_scan"}, "is_disabled": 0, "type": "electric_scooter"}, {"fusion_lon": 0.0, "is_reserved": 0, "bike_id": "37f6c18b0e0edcd629fbb523f092bb1e", "lon": -77.18409816666667, "name": "37f6c18b0e0edcd629fbb523f092bb1e", "lat": 38.8910165, "fusion_lat": 0.0, "rental_uris": {"ios": "https://dc.lft.to/lastmile_qr_scan", "android": "https://dc.lft.to/lastmile_qr_scan"}, "is_disabled": 0, "type": "electric_bike"}, {"fusion_lon": 0.0, "is_reserved": 0, "bike_id": "e9c95633dcf7359fc6f5f015c5908280", "lon": -77.03258466666666, "name": "e9c95633dcf7359fc6f5f015c5908280", "lat": 38.91993933333333, "fusion_lat": 0.0, "rental_uris": {"ios": "https://dc.lft.to/lastmile_qr_scan", "android": "https://dc.lft.to/lastmile_qr_scan"}, "is_disabled": 0, "type": "electric_scooter"}, {"fusion_lon": 0.0, "is_reserved": 0, "bike_id": "0f21b218d0ecfed131b581a64a11aaeb", "lon": -76.95051783333334, "name": "0f21b218d0ecfed131b581a64a11aaeb", "lat": 39.084897833333336, "fusion_lat": 0.0, "rental_uris": {"ios": "https://dc.lft.to/lastmile_qr_scan", "android": "https://dc.lft.to/lastmile_qr_scan"}, "is_disabled": 0, "type": "electric_bike"}, {"fusion_lon": 0.0, "is_reserved": 0, "bike_id": "d66abfc4e7caebb8d2e91754c832c07e", "lon": -77.06363883333333, "name": "d66abfc4e7caebb8d2e91754c832c07e", "lat": 38.944465, "fusion_lat": 0.0, "rental_uris": {"ios": "https://dc.lft.to/lastmile_qr_scan", "android": "https://dc.lft.to/lastmile_qr_scan"}, "is_disabled": 0, "type": "electric_scooter"}, {"fusion_lon": 0.0, "is_reserved": 0, "bike_id": "bae444818e7edd7449cfaaa1218a2059", "lon": -77.02993, "name": "bae444818e7edd7449cfaaa1218a2059", "lat": 38.9057925, "fusion_lat": 0.0, "rental_uris": {"ios": "https://dc.lft.to/lastmile_qr_scan", "android": "https://dc.lft.to/lastmile_qr_scan"}, "is_disabled": 0, "type": "electric_scooter"}, {"fusion_lon": 0.0, "is_reserved": 0, "bike_id": "2dc6d4a0f99238ab9d4e925bee659db5", "lon": -77.02200283333333, "name": "2dc6d4a0f99238ab9d4e925bee659db5", "lat": 38.9112125, "fusion_lat": 0.0, "rental_uris": {"ios": "https://dc.lft.to/lastmile_qr_scan", "android": "https://dc.lft.to/lastmile_qr_scan"}, "is_disabled": 0, "type": "electric_scooter"}, {"fusion_lon": 0.0, "is_reserved": 0, "bike_id": "37cee4700ad275e42e29f11e3959b32d", "lon": -77.00760083333333, "name": "37cee4700ad275e42e29f11e3959b32d", "lat": 38.900530333333336, "fusion_lat": 0.0, "rental_uris": {"ios": "https://dc.lft.to/lastmile_qr_scan", "android": "https://dc.lft.to/lastmile_qr_scan"}, "is_disabled": 0, "type": "electric_scooter"}, {"fusion_lon": 0.0, "is_reserved": 0, "bike_id": "b8d9c91506866a93097488188af637d4", "lon": -77.0352755, "name": "b8d9c91506866a93097488188af637d4", "lat": 38.9186075, "fusion_lat": 0.0, "rental_uris": {"ios": "https://dc.lft.to/lastmile_qr_scan", "android": "https://dc.lft.to/lastmile_qr_scan"}, "is_disabled": 0, "type": "electric_scooter"}, {"fusion_lon": 0.0, "is_reserved": 0, "bike_id": "0e8665650303deb430c94fa5f4dc33ce", "lon": -77.04815033333334, "name": "0e8665650303deb430c94fa5f4dc33ce", "lat": 38.898327, "fusion_lat": 0.0, "rental_uris": {"ios": "https://dc.lft.to/lastmile_qr_scan", "android": "https://dc.lft.to/lastmile_qr_scan"}, "is_disabled": 0, "type": "electric_scooter"}, {"fusion_lon": 0.0, "is_reserved": 0, "bike_id": "7e2c45456ebfde66ba16de0f1cf30fb4", "lon": -77.05921066666667, "name": "7e2c45456ebfde66ba16de0f1cf30fb4", "lat": 38.90216683333333, "fusion_lat": 0.0, "rental_uris": {"ios": "https://dc.lft.to/lastmile_qr_scan", "android": "https://dc.lft.to/lastmile_qr_scan"}, "is_disabled": 0, "type": "electric_scooter"}, {"fusion_lon": 0.0, "is_reserved": 0, "bike_id": "4930f2b020519e1d7ff5eb5e5a0ccfb1", "lon": -77.234048, "name": "4930f2b020519e1d7ff5eb5e5a0ccfb1", "lat": 38.87179033333334, "fusion_lat": 0.0, "rental_uris": {"ios": "https://dc.lft.to/lastmile_qr_scan", "android": "https://dc.lft.to/lastmile_qr_scan"}, "is_disabled": 0, "type": "electric_bike"}, {"fusion_lon": 0.0, "is_reserved": 0, "bike_id": "5a7cd39548a196655c026761d34e9b5a", "lon": -76.9985815, "name": "5a7cd39548a196655c026761d34e9b5a", "lat": 38.900182666666666, "fusion_lat": 0.0, "rental_uris": {"ios": "https://dc.lft.to/lastmile_qr_scan", "android": "https://dc.lft.to/lastmile_qr_scan"}, "is_disabled": 0, "type": "electric_scooter"}, {"fusion_lon": 0.0, "is_reserved": 0, "bike_id": "e1adf047e3c15dd09dc21d3a36a97384", "lon": -77.02052716666667, "name": "e1adf047e3c15dd09dc21d3a36a97384", "lat": 38.915576, "fusion_lat": 0.0, "rental_uris": {"ios": "https://dc.lft.to/lastmile_qr_scan", "android": "https://dc.lft.to/lastmile_qr_scan"}, "is_disabled": 0, "type": "electric_scooter"}, {"fusion_lon": 0.0, "is_reserved": 0, "bike_id": "5a085c7e6ec43bb7b876318c10dfcef1", "lon": -76.979611, "name": "5a085c7e6ec43bb7b876318c10dfcef1", "lat": 38.892163833333335, "fusion_lat": 0.0, "rental_uris": {"ios": "https://dc.lft.to/lastmile_qr_scan", "android": "https://dc.lft.to/lastmile_qr_scan"}, "is_disabled": 0, "type": "electric_scooter"}, {"fusion_lon": 0.0, "is_reserved": 0, "bike_id": "a81cfe461a60eb0a271c8754c437c72c", "lon": -77.021827, "name": "a81cfe461a60eb0a271c8754c437c72c", "lat": 38.91508866666667, "fusion_lat": 0.0, "rental_uris": {"ios": "https://dc.lft.to/lastmile_qr_scan", "android": "https://dc.lft.to/lastmile_qr_scan"}, "is_disabled": 0, "type": "electric_scooter"}, {"fusion_lon": 0.0, "is_reserved": 0, "bike_id": "0fe7df5371c54f65c40b7d7f717902d8", "lon": -77.02272283333333, "name": "0fe7df5371c54f65c40b7d7f717902d8", "lat": 38.91666333333333, "fusion_lat": 0.0, "rental_uris": {"ios": "https://dc.lft.to/lastmile_qr_scan", "android": "https://dc.lft.to/lastmile_qr_scan"}, "is_disabled": 0, "type": "electric_scooter"}, {"fusion_lon": 0.0, "is_reserved": 0, "bike_id": "644018cc23ca520a70c73d2397c43f35", "lon": -77.00347366666666, "name": "644018cc23ca520a70c73d2397c43f35", "lat": 38.8927475, "fusion_lat": 0.0, "rental_uris": {"ios": "https://dc.lft.to/lastmile_qr_scan", "android": "https://dc.lft.to/lastmile_qr_scan"}, "is_disabled": 0, "type": "electric_scooter"}, {"fusion_lon": 0.0, "is_reserved": 0, "bike_id": "9ea5ec898a1e43529c511a378ef1e423", "lon": -77.04491983333334, "name": "9ea5ec898a1e43529c511a378ef1e423", "lat": 38.91868816666667, "fusion_lat": 0.0, "rental_uris": {"ios": "https://dc.lft.to/lastmile_qr_scan", "android": "https://dc.lft.to/lastmile_qr_scan"}, "is_disabled": 0, "type": "electric_scooter"}, {"fusion_lon": 0.0, "is_reserved": 0, "bike_id": "6be76c2c1daaf76fdb90f9f6988c7de2", "lon": -77.01787866666666, "name": "6be76c2c1daaf76fdb90f9f6988c7de2", "lat": 38.87665283333333, "fusion_lat": 0.0, "rental_uris": {"ios": "https://dc.lft.to/lastmile_qr_scan", "android": "https://dc.lft.to/lastmile_qr_scan"}, "is_disabled": 0, "type": "electric_scooter"}, {"fusion_lon": 0.0, "is_reserved": 0, "bike_id": "d8c467b9fb71bc7aa6574ce0949e55fb", "lon": -76.942637, "name": "d8c467b9fb71bc7aa6574ce0949e55fb", "lat": 38.98034783333333, "fusion_lat": 0.0, "rental_uris": {"ios": "https://dc.lft.to/lastmile_qr_scan", "android": "https://dc.lft.to/lastmile_qr_scan"}, "is_disabled": 0, "type": "electric_bike"}, {"fusion_lon": 0.0, "is_reserved": 0, "bike_id": "727e2868a9996380b9e2e23822c780c5", "lon": -77.03452483333334, "name": "727e2868a9996380b9e2e23822c780c5", "lat": 38.90510316666666, "fusion_lat": 0.0, "rental_uris": {"ios": "https://dc.lft.to/lastmile_qr_scan", "android": "https://dc.lft.to/lastmile_qr_scan"}, "is_disabled": 0, "type": "electric_scooter"}, {"fusion_lon": 0.0, "is_reserved": 0, "bike_id": "6a4afc0d3aeb2cd4f342b26405b77c2e", "lon": -77.04483133333333, "name": "6a4afc0d3aeb2cd4f342b26405b77c2e", "lat": 38.91066433333334, "fusion_lat": 0.0, "rental_uris": {"ios": "https://dc.lft.to/lastmile_qr_scan", "android": "https://dc.lft.to/lastmile_qr_scan"}, "is_disabled": 0, "type": "electric_scooter"}, {"fusion_lon": 0.0, "is_reserved": 0, "bike_id": "e40b80a2f7fcebe1c5bca8910e0c4919", "lon": -77.02289866666666, "name": "e40b80a2f7fcebe1c5bca8910e0c4919", "lat": 38.89709916666666, "fusion_lat": 0.0, "rental_uris": {"ios": "https://dc.lft.to/lastmile_qr_scan", "android": "https://dc.lft.to/lastmile_qr_scan"}, "is_disabled": 0, "type": "electric_scooter"}, {"fusion_lon": 0.0, "is_reserved": 0, "bike_id": "f65b09392f41e9bc2248b9481c5685f7", "lon": -77.03663733333333, "name": "f65b09392f41e9bc2248b9481c5685f7", "lat": 38.9224175, "fusion_lat": 0.0, "rental_uris": {"ios": "https://dc.lft.to/lastmile_qr_scan", "android": "https://dc.lft.to/lastmile_qr_scan"}, "is_disabled": 0, "type": "electric_scooter"}, {"fusion_lon": 0.0, "is_reserved": 0, "bike_id": "b5c61e2200dc0bc59c1cdd47af339881", "lon": -76.96088233333333, "name": "b5c61e2200dc0bc59c1cdd47af339881", "lat": 38.9186575, "fusion_lat": 0.0, "rental_uris": {"ios": "https://dc.lft.to/lastmile_qr_scan", "android": "https://dc.lft.to/lastmile_qr_scan"}, "is_disabled": 0, "type": "electric_bike"}, {"fusion_lon": 0.0, "is_reserved": 0, "bike_id": "8008e0883a92381ba89064e970b9be87", "lon": -76.97426216666666, "name": "8008e0883a92381ba89064e970b9be87", "lat": 38.9014795, "fusion_lat": 0.0, "rental_uris": {"ios": "https://dc.lft.to/lastmile_qr_scan", "android": "https://dc.lft.to/lastmile_qr_scan"}, "is_disabled": 0, "type": "electric_scooter"}, {"fusion_lon": 0.0, "is_reserved": 0, "bike_id": "c48fd3b4693b08852b0fbca700a7d08a", "lon": -77.02385083333333, "name": "c48fd3b4693b08852b0fbca700a7d08a", "lat": 38.92060383333333, "fusion_lat": 0.0, "rental_uris": {"ios": "https://dc.lft.to/lastmile_qr_scan", "android": "https://dc.lft.to/lastmile_qr_scan"}, "is_disabled": 0, "type": "electric_scooter"}, {"fusion_lon": 0.0, "is_reserved": 0, "bike_id": "20e6762992a4ba7c1ac7d9ba2ad06457", "lon": -77.04767933333333, "name": "20e6762992a4ba7c1ac7d9ba2ad06457", "lat": 38.917729666666666, "fusion_lat": 0.0, "rental_uris": {"ios": "https://dc.lft.to/lastmile_qr_scan", "android": "https://dc.lft.to/lastmile_qr_scan"}, "is_disabled": 0, "type": "electric_scooter"}, {"fusion_lon": 0.0, "is_reserved": 0, "bike_id": "72107c090463eb998d1619ce80c277c7", "lon": -77.02262383333333, "name": "72107c090463eb998d1619ce80c277c7", "lat": 38.94655483333333, "fusion_lat": 0.0, "rental_uris": {"ios": "https://dc.lft.to/lastmile_qr_scan", "android": "https://dc.lft.to/lastmile_qr_scan"}, "is_disabled": 0, "type": "electric_scooter"}, {"fusion_lon": 0.0, "is_reserved": 0, "bike_id": "f7fdd498a99c80e7d0e1117787b5f777", "lon": -77.04432616666666, "name": "f7fdd498a99c80e7d0e1117787b5f777", "lat": 38.8960695, "fusion_lat": 0.0, "rental_uris": {"ios": "https://dc.lft.to/lastmile_qr_scan", "android": "https://dc.lft.to/lastmile_qr_scan"}, "is_disabled": 0, "type": "electric_scooter"}, {"fusion_lon": 0.0, "is_reserved": 0, "bike_id": "2cd7c110f983518655272733c3ef044f", "lon": -77.06880583333333, "name": "2cd7c110f983518655272733c3ef044f", "lat": 38.82920983333333, "fusion_lat": 0.0, "rental_uris": {"ios": "https://dc.lft.to/lastmile_qr_scan", "android": "https://dc.lft.to/lastmile_qr_scan"}, "is_disabled": 0, "type": "electric_bike"}, {"fusion_lon": 0.0, "is_reserved": 0, "bike_id": "2e7e1c32a9ce34c11bf1415f5d9cacb2", "lon": -77.03355983333333, "name": "2e7e1c32a9ce34c11bf1415f5d9cacb2", "lat": 38.90199766666667, "fusion_lat": 0.0, "rental_uris": {"ios": "https://dc.lft.to/lastmile_qr_scan", "android": "https://dc.lft.to/lastmile_qr_scan"}, "is_disabled": 0, "type": "electric_scooter"}, {"fusion_lon": 0.0, "is_reserved": 0, "bike_id": "7e08650023a375b350e1480987b1ea96", "lon": -77.038665, "name": "7e08650023a375b350e1480987b1ea96", "lat": 38.91708666666667, "fusion_lat": 0.0, "rental_uris": {"ios": "https://dc.lft.to/lastmile_qr_scan", "android": "https://dc.lft.to/lastmile_qr_scan"}, "is_disabled": 0, "type": "electric_scooter"}, {"fusion_lon": 0.0, "is_reserved": 0, "bike_id": "b38738289af282318ec320d6e18bb59f", "lon": -77.03448416666667, "name": "b38738289af282318ec320d6e18bb59f", "lat": 38.90568533333333, "fusion_lat": 0.0, "rental_uris": {"ios": "https://dc.lft.to/lastmile_qr_scan", "android": "https://dc.lft.to/lastmile_qr_scan"}, "is_disabled": 0, "type": "electric_scooter"}, {"fusion_lon": 0.0, "is_reserved": 0, "bike_id": "06e273098fbc3d0bc470f2ffc161a649", "lon": -77.00203416666666, "name": "06e273098fbc3d0bc470f2ffc161a649", "lat": 38.906635, "fusion_lat": 0.0, "rental_uris": {"ios": "https://dc.lft.to/lastmile_qr_scan", "android": "https://dc.lft.to/lastmile_qr_scan"}, "is_disabled": 0, "type": "electric_scooter"}, {"fusion_lon": 0.0, "is_reserved": 0, "bike_id": "36ca53b710af119c164d2a449b7b4bcc", "lon": -77.00676483333334, "name": "36ca53b710af119c164d2a449b7b4bcc", "lat": 38.929304333333334, "fusion_lat": 0.0, "rental_uris": {"ios": "https://dc.lft.to/lastmile_qr_scan", "android": "https://dc.lft.to/lastmile_qr_scan"}, "is_disabled": 0, "type": "electric_scooter"}, {"fusion_lon": 0.0, "is_reserved": 0, "bike_id": "690df525a1582eddfa31ddb2eb7b79e4", "lon": -77.02271566666667, "name": "690df525a1582eddfa31ddb2eb7b79e4", "lat": 38.928243333333334, "fusion_lat": 0.0, "rental_uris": {"ios": "https://dc.lft.to/lastmile_qr_scan", "android": "https://dc.lft.to/lastmile_qr_scan"}, "is_disabled": 0, "type": "electric_scooter"}, {"fusion_lon": 0.0, "is_reserved": 0, "bike_id": "5cf06f8594ecbb74f31af43ba73ad4d2", "lon": -77.0397245, "name": "5cf06f8594ecbb74f31af43ba73ad4d2", "lat": 38.903752833333336, "fusion_lat": 0.0, "rental_uris": {"ios": "https://dc.lft.to/lastmile_qr_scan", "android": "https://dc.lft.to/lastmile_qr_scan"}, "is_disabled": 0, "type": "electric_scooter"}, {"fusion_lon": 0.0, "is_reserved": 0, "bike_id": "985e14835f78a4d96efc2d4f7e561f94", "lon": -77.04503233333334, "name": "985e14835f78a4d96efc2d4f7e561f94", "lat": 38.892246166666666, "fusion_lat": 0.0, "rental_uris": {"ios": "https://dc.lft.to/lastmile_qr_scan", "android": "https://dc.lft.to/lastmile_qr_scan"}, "is_disabled": 0, "type": "electric_scooter"}, {"fusion_lon": 0.0, "is_reserved": 0, "bike_id": "971d2a2af28b961974cbac4c427a1617", "lon": -77.02838483333333, "name": "971d2a2af28b961974cbac4c427a1617", "lat": 38.957811, "fusion_lat": 0.0, "rental_uris": {"ios": "https://dc.lft.to/lastmile_qr_scan", "android": "https://dc.lft.to/lastmile_qr_scan"}, "is_disabled": 0, "type": "electric_scooter"}, {"fusion_lon": 0.0, "is_reserved": 0, "bike_id": "f3cb7af2b42b12245b62b1f334949e33", "lon": -77.02545433333333, "name": "f3cb7af2b42b12245b62b1f334949e33", "lat": 38.93286416666667, "fusion_lat": 0.0, "rental_uris": {"ios": "https://dc.lft.to/lastmile_qr_scan", "android": "https://dc.lft.to/lastmile_qr_scan"}, "is_disabled": 0, "type": "electric_scooter"}, {"fusion_lon": 0.0, "is_reserved": 0, "bike_id": "1882a403de2dd956ae5e789640771b7c", "lon": -77.05816383333334, "name": "1882a403de2dd956ae5e789640771b7c", "lat": 38.93463166666667, "fusion_lat": 0.0, "rental_uris": {"ios": "https://dc.lft.to/lastmile_qr_scan", "android": "https://dc.lft.to/lastmile_qr_scan"}, "is_disabled": 0, "type": "electric_scooter"}, {"fusion_lon": 0.0, "is_reserved": 0, "bike_id": "7d4394c3c763303b9940d75327949364", "lon": -77.03164116666666, "name": "7d4394c3c763303b9940d75327949364", "lat": 38.91631916666667, "fusion_lat": 0.0, "rental_uris": {"ios": "https://dc.lft.to/lastmile_qr_scan", "android": "https://dc.lft.to/lastmile_qr_scan"}, "is_disabled": 0, "type": "electric_scooter"}, {"fusion_lon": 0.0, "is_reserved": 0, "bike_id": "c078331504e10ecfc0f9a04e18c68bb0", "lon": -77.02852816666666, "name": "c078331504e10ecfc0f9a04e18c68bb0", "lat": 38.9170335, "fusion_lat": 0.0, "rental_uris": {"ios": "https://dc.lft.to/lastmile_qr_scan", "android": "https://dc.lft.to/lastmile_qr_scan"}, "is_disabled": 0, "type": "electric_scooter"}, {"fusion_lon": 0.0, "is_reserved": 0, "bike_id": "10b400dbd3d49ddea56ea2f74bb37d08", "lon": -77.02163283333333, "name": "10b400dbd3d49ddea56ea2f74bb37d08", "lat": 38.926135, "fusion_lat": 0.0, "rental_uris": {"ios": "https://dc.lft.to/lastmile_qr_scan", "android": "https://dc.lft.to/lastmile_qr_scan"}, "is_disabled": 0, "type": "electric_scooter"}, {"fusion_lon": 0.0, "is_reserved": 0, "bike_id": "66c229b9a674c7018f817c16a1a74d84", "lon": -76.930495, "name": "66c229b9a674c7018f817c16a1a74d84", "lat": 38.883755, "fusion_lat": 0.0, "rental_uris": {"ios": "https://dc.lft.to/lastmile_qr_scan", "android": "https://dc.lft.to/lastmile_qr_scan"}, "is_disabled": 0, "type": "electric_scooter"}, {"fusion_lon": 0.0, "is_reserved": 0, "bike_id": "95c71f81eee65beb584fe3b188348f2c", "lon": -76.99498016666666, "name": "95c71f81eee65beb584fe3b188348f2c", "lat": 38.882346, "fusion_lat": 0.0, "rental_uris": {"ios": "https://dc.lft.to/lastmile_qr_scan", "android": "https://dc.lft.to/lastmile_qr_scan"}, "is_disabled": 0, "type": "electric_scooter"}, {"fusion_lon": 0.0, "is_reserved": 0, "bike_id": "ec383b01fc35608754ad79e202b68ff7", "lon": -76.951427, "name": "ec383b01fc35608754ad79e202b68ff7", "lat": 39.084329, "fusion_lat": 0.0, "rental_uris": {"ios": "https://dc.lft.to/lastmile_qr_scan", "android": "https://dc.lft.to/lastmile_qr_scan"}, "is_disabled": 0, "type": "electric_bike"}, {"fusion_lon": 0.0, "is_reserved": 0, "bike_id": "cc561f3fae65bf98e344eb65f2412770", "lon": -77.026583, "name": "cc561f3fae65bf98e344eb65f2412770", "lat": 38.89724066666667, "fusion_lat": 0.0, "rental_uris": {"ios": "https://dc.lft.to/lastmile_qr_scan", "android": "https://dc.lft.to/lastmile_qr_scan"}, "is_disabled": 0, "type": "electric_scooter"}, {"fusion_lon": 0.0, "is_reserved": 0, "bike_id": "aec750dca655a19aa1126bb4d83e36ee", "lon": -76.93674983333334, "name": "aec750dca655a19aa1126bb4d83e36ee", "lat": 38.886678, "fusion_lat": 0.0, "rental_uris": {"ios": "https://dc.lft.to/lastmile_qr_scan", "android": "https://dc.lft.to/lastmile_qr_scan"}, "is_disabled": 0, "type": "electric_scooter"}, {"fusion_lon": 0.0, "is_reserved": 0, "bike_id": "89e84e542811f0211380c0eddb79ee61", "lon": -77.01168516666667, "name": "89e84e542811f0211380c0eddb79ee61", "lat": 38.92133283333333, "fusion_lat": 0.0, "rental_uris": {"ios": "https://dc.lft.to/lastmile_qr_scan", "android": "https://dc.lft.to/lastmile_qr_scan"}, "is_disabled": 0, "type": "electric_scooter"}, {"fusion_lon": 0.0, "is_reserved": 0, "bike_id": "847029399594bd7c6013fdec4a0f7b99", "lon": -76.97803266666666, "name": "847029399594bd7c6013fdec4a0f7b99", "lat": 38.906211166666665, "fusion_lat": 0.0, "rental_uris": {"ios": "https://dc.lft.to/lastmile_qr_scan", "android": "https://dc.lft.to/lastmile_qr_scan"}, "is_disabled": 0, "type": "electric_scooter"}, {"fusion_lon": 0.0, "is_reserved": 0, "bike_id": "70f8b63c625353b0fe5c1f049d429165", "lon": -77.0180425, "name": "70f8b63c625353b0fe5c1f049d429165", "lat": 38.921389, "fusion_lat": 0.0, "rental_uris": {"ios": "https://dc.lft.to/lastmile_qr_scan", "android": "https://dc.lft.to/lastmile_qr_scan"}, "is_disabled": 0, "type": "electric_scooter"}, {"fusion_lon": 0.0, "is_reserved": 0, "bike_id": "9345788c655e30a366aae3e1f9043059", "lon": -77.0222145, "name": "9345788c655e30a366aae3e1f9043059", "lat": 38.92483033333333, "fusion_lat": 0.0, "rental_uris": {"ios": "https://dc.lft.to/lastmile_qr_scan", "android": "https://dc.lft.to/lastmile_qr_scan"}, "is_disabled": 0, "type": "electric_scooter"}, {"fusion_lon": 0.0, "is_reserved": 0, "bike_id": "bda929ab1d41d0e92374fa223ee2a93d", "lon": -77.03554016666666, "name": "bda929ab1d41d0e92374fa223ee2a93d", "lat": 38.92863633333333, "fusion_lat": 0.0, "rental_uris": {"ios": "https://dc.lft.to/lastmile_qr_scan", "android": "https://dc.lft.to/lastmile_qr_scan"}, "is_disabled": 0, "type": "electric_scooter"}, {"fusion_lon": 0.0, "is_reserved": 0, "bike_id": "ca023266730c492474cabc45cdf6b2d5", "lon": -77.031586, "name": "ca023266730c492474cabc45cdf6b2d5", "lat": 38.903524166666664, "fusion_lat": 0.0, "rental_uris": {"ios": "https://dc.lft.to/lastmile_qr_scan", "android": "https://dc.lft.to/lastmile_qr_scan"}, "is_disabled": 0, "type": "electric_scooter"}, {"fusion_lon": 0.0, "is_reserved": 0, "bike_id": "ff1ee332e5a8ee9b7d5eeb7b89045228", "lon": -77.04565583333333, "name": "ff1ee332e5a8ee9b7d5eeb7b89045228", "lat": 38.92075916666667, "fusion_lat": 0.0, "rental_uris": {"ios": "https://dc.lft.to/lastmile_qr_scan", "android": "https://dc.lft.to/lastmile_qr_scan"}, "is_disabled": 0, "type": "electric_scooter"}, {"fusion_lon": 0.0, "is_reserved": 0, "bike_id": "b61872fd3098f47d568a85851bdb64a7", "lon": -77.03187066666666, "name": "b61872fd3098f47d568a85851bdb64a7", "lat": 38.919865333333334, "fusion_lat": 0.0, "rental_uris": {"ios": "https://dc.lft.to/lastmile_qr_scan", "android": "https://dc.lft.to/lastmile_qr_scan"}, "is_disabled": 0, "type": "electric_scooter"}, {"fusion_lon": 0.0, "is_reserved": 0, "bike_id": "eed639ab715f28665aff0f352a971d0b", "lon": -77.35979366666666, "name": "eed639ab715f28665aff0f352a971d0b", "lat": 38.95707633333333, "fusion_lat": 0.0, "rental_uris": {"ios": "https://dc.lft.to/lastmile_qr_scan", "android": "https://dc.lft.to/lastmile_qr_scan"}, "is_disabled": 0, "type": "electric_bike"}, {"fusion_lon": 0.0, "is_reserved": 0, "bike_id": "022b94511e7e73f4ae34b8b5fe553366", "lon": -77.04191266666666, "name": "022b94511e7e73f4ae34b8b5fe553366", "lat": 38.903740666666664, "fusion_lat": 0.0, "rental_uris": {"ios": "https://dc.lft.to/lastmile_qr_scan", "android": "https://dc.lft.to/lastmile_qr_scan"}, "is_disabled": 0, "type": "electric_scooter"}, {"fusion_lon": 0.0, "is_reserved": 0, "bike_id": "6e6270e64ecee33d9a13bfca84081ded", "lon": -77.0026555, "name": "6e6270e64ecee33d9a13bfca84081ded", "lat": 38.907088, "fusion_lat": 0.0, "rental_uris": {"ios": "https://dc.lft.to/lastmile_qr_scan", "android": "https://dc.lft.to/lastmile_qr_scan"}, "is_disabled": 0, "type": "electric_scooter"}, {"fusion_lon": 0.0, "is_reserved": 0, "bike_id": "58353e02f1649bbeb6e53691e5de6cb0", "lon": -76.93969433333334, "name": "58353e02f1649bbeb6e53691e5de6cb0", "lat": 38.893207, "fusion_lat": 0.0, "rental_uris": {"ios": "https://dc.lft.to/lastmile_qr_scan", "android": "https://dc.lft.to/lastmile_qr_scan"}, "is_disabled": 0, "type": "electric_scooter"}, {"fusion_lon": 0.0, "is_reserved": 0, "bike_id": "8583cfcfc1085c04e64abaa2bab3322b", "lon": -77.03141883333333, "name": "8583cfcfc1085c04e64abaa2bab3322b", "lat": 38.892228, "fusion_lat": 0.0, "rental_uris": {"ios": "https://dc.lft.to/lastmile_qr_scan", "android": "https://dc.lft.to/lastmile_qr_scan"}, "is_disabled": 0, "type": "electric_scooter"}, {"fusion_lon": 0.0, "is_reserved": 0, "bike_id": "5ba691ba786dd6681fd3e04e35a4b691", "lon": -77.0538795, "name": "5ba691ba786dd6681fd3e04e35a4b691", "lat": 38.8475975, "fusion_lat": 0.0, "rental_uris": {"ios": "https://dc.lft.to/lastmile_qr_scan", "android": "https://dc.lft.to/lastmile_qr_scan"}, "is_disabled": 0, "type": "electric_bike"}, {"fusion_lon": 0.0, "is_reserved": 0, "bike_id": "755b04ff4e2c508689b31fe90288c8b7", "lon": -77.02265216666666, "name": "755b04ff4e2c508689b31fe90288c8b7", "lat": 38.93130133333333, "fusion_lat": 0.0, "rental_uris": {"ios": "https://dc.lft.to/lastmile_qr_scan", "android": "https://dc.lft.to/lastmile_qr_scan"}, "is_disabled": 0, "type": "electric_scooter"}, {"fusion_lon": 0.0, "is_reserved": 0, "bike_id": "cc8fb7d116944d2ac5bbb0038285b64a", "lon": -77.02722916666667, "name": "cc8fb7d116944d2ac5bbb0038285b64a", "lat": 38.89675616666667, "fusion_lat": 0.0, "rental_uris": {"ios": "https://dc.lft.to/lastmile_qr_scan", "android": "https://dc.lft.to/lastmile_qr_scan"}, "is_disabled": 0, "type": "electric_scooter"}, {"fusion_lon": 0.0, "is_reserved": 0, "bike_id": "4ae2f1f04d5497ec41451d7f4f198807", "lon": -77.02829333333334, "name": "4ae2f1f04d5497ec41451d7f4f198807", "lat": 38.887157333333334, "fusion_lat": 0.0, "rental_uris": {"ios": "https://dc.lft.to/lastmile_qr_scan", "android": "https://dc.lft.to/lastmile_qr_scan"}, "is_disabled": 0, "type": "electric_scooter"}, {"fusion_lon": 0.0, "is_reserved": 0, "bike_id": "1f53c102df5802cef92fb1360ce0111d", "lon": -77.013306, "name": "1f53c102df5802cef92fb1360ce0111d", "lat": 38.89717433333333, "fusion_lat": 0.0, "rental_uris": {"ios": "https://dc.lft.to/lastmile_qr_scan", "android": "https://dc.lft.to/lastmile_qr_scan"}, "is_disabled": 0, "type": "electric_scooter"}, {"fusion_lon": 0.0, "is_reserved": 0, "bike_id": "b230fc5947c3d52439b10000e8f2e6e7", "lon": -76.948942, "name": "b230fc5947c3d52439b10000e8f2e6e7", "lat": 38.894910833333334, "fusion_lat": 0.0, "rental_uris": {"ios": "https://dc.lft.to/lastmile_qr_scan", "android": "https://dc.lft.to/lastmile_qr_scan"}, "is_disabled": 0, "type": "electric_scooter"}, {"fusion_lon": 0.0, "is_reserved": 0, "bike_id": "0ccf5b0b0ddf9c9b73b48c254be74442", "lon": -77.0623745, "name": "0ccf5b0b0ddf9c9b73b48c254be74442", "lat": 38.90215333333333, "fusion_lat": 0.0, "rental_uris": {"ios": "https://dc.lft.to/lastmile_qr_scan", "android": "https://dc.lft.to/lastmile_qr_scan"}, "is_disabled": 0, "type": "electric_scooter"}, {"fusion_lon": 0.0, "is_reserved": 0, "bike_id": "b13c7e586e4fbff5b4f99e6885077899", "lon": -77.02935716666667, "name": "b13c7e586e4fbff5b4f99e6885077899", "lat": 38.9024965, "fusion_lat": 0.0, "rental_uris": {"ios": "https://dc.lft.to/lastmile_qr_scan", "android": "https://dc.lft.to/lastmile_qr_scan"}, "is_disabled": 0, "type": "electric_scooter"}, {"fusion_lon": 0.0, "is_reserved": 0, "bike_id": "e9b0f7ba9c03f52d4821fb761d6d1206", "lon": -77.03984916666667, "name": "e9b0f7ba9c03f52d4821fb761d6d1206", "lat": 38.9207295, "fusion_lat": 0.0, "rental_uris": {"ios": "https://dc.lft.to/lastmile_qr_scan", "android": "https://dc.lft.to/lastmile_qr_scan"}, "is_disabled": 0, "type": "electric_scooter"}, {"fusion_lon": 0.0, "is_reserved": 0, "bike_id": "3266499fe2ff8c82230585a98cc39eb9", "lon": -77.03559283333334, "name": "3266499fe2ff8c82230585a98cc39eb9", "lat": 38.9235795, "fusion_lat": 0.0, "rental_uris": {"ios": "https://dc.lft.to/lastmile_qr_scan", "android": "https://dc.lft.to/lastmile_qr_scan"}, "is_disabled": 0, "type": "electric_scooter"}, {"fusion_lon": 0.0, "is_reserved": 0, "bike_id": "7d0fede0e93b3d03eaa9925117920ad5", "lon": -77.05816966666667, "name": "7d0fede0e93b3d03eaa9925117920ad5", "lat": 38.93534733333333, "fusion_lat": 0.0, "rental_uris": {"ios": "https://dc.lft.to/lastmile_qr_scan", "android": "https://dc.lft.to/lastmile_qr_scan"}, "is_disabled": 0, "type": "electric_scooter"}, {"fusion_lon": 0.0, "is_reserved": 0, "bike_id": "78ad3c076830546f62930c0ee9fdd578", "lon": -76.98252816666667, "name": "78ad3c076830546f62930c0ee9fdd578", "lat": 38.95321466666667, "fusion_lat": 0.0, "rental_uris": {"ios": "https://dc.lft.to/lastmile_qr_scan", "android": "https://dc.lft.to/lastmile_qr_scan"}, "is_disabled": 0, "type": "electric_bike"}, {"fusion_lon": 0.0, "is_reserved": 0, "bike_id": "ba2ec3cf2530f8edb6285a4c93491f52", "lon": -76.99098283333333, "name": "ba2ec3cf2530f8edb6285a4c93491f52", "lat": 38.90023, "fusion_lat": 0.0, "rental_uris": {"ios": "https://dc.lft.to/lastmile_qr_scan", "android": "https://dc.lft.to/lastmile_qr_scan"}, "is_disabled": 0, "type": "electric_scooter"}, {"fusion_lon": 0.0, "is_reserved": 0, "bike_id": "a36462bf6aa56c1cb89ad8dafd22f886", "lon": -77.05877266666667, "name": "a36462bf6aa56c1cb89ad8dafd22f886", "lat": 38.935896, "fusion_lat": 0.0, "rental_uris": {"ios": "https://dc.lft.to/lastmile_qr_scan", "android": "https://dc.lft.to/lastmile_qr_scan"}, "is_disabled": 0, "type": "electric_scooter"}, {"fusion_lon": 0.0, "is_reserved": 0, "bike_id": "ebbe787f15a5728584d187628e8712b1", "lon": -76.93741333333334, "name": "ebbe787f15a5728584d187628e8712b1", "lat": 38.89012916666667, "fusion_lat": 0.0, "rental_uris": {"ios": "https://dc.lft.to/lastmile_qr_scan", "android": "https://dc.lft.to/lastmile_qr_scan"}, "is_disabled": 0, "type": "electric_scooter"}, {"fusion_lon": 0.0, "is_reserved": 0, "bike_id": "3de35004f1e67f6abb347f25e2cd40bb", "lon": -76.99371616666667, "name": "3de35004f1e67f6abb347f25e2cd40bb", "lat": 38.8793975, "fusion_lat": 0.0, "rental_uris": {"ios": "https://dc.lft.to/lastmile_qr_scan", "android": "https://dc.lft.to/lastmile_qr_scan"}, "is_disabled": 0, "type": "electric_scooter"}, {"fusion_lon": 0.0, "is_reserved": 0, "bike_id": "a9582939a5f68bc6d84b1796e6426bd1", "lon": -77.05712333333334, "name": "a9582939a5f68bc6d84b1796e6426bd1", "lat": 38.905464, "fusion_lat": 0.0, "rental_uris": {"ios": "https://dc.lft.to/lastmile_qr_scan", "android": "https://dc.lft.to/lastmile_qr_scan"}, "is_disabled": 0, "type": "electric_scooter"}, {"fusion_lon": 0.0, "is_reserved": 0, "bike_id": "bdcc06102a31d8c318f8f95cb60932a1", "lon": -77.02003316666666, "name": "bdcc06102a31d8c318f8f95cb60932a1", "lat": 38.915818, "fusion_lat": 0.0, "rental_uris": {"ios": "https://dc.lft.to/lastmile_qr_scan", "android": "https://dc.lft.to/lastmile_qr_scan"}, "is_disabled": 0, "type": "electric_scooter"}, {"fusion_lon": 0.0, "is_reserved": 0, "bike_id": "ce0557209eb6b7715d147e2c0575d225", "lon": -77.04485416666667, "name": "ce0557209eb6b7715d147e2c0575d225", "lat": 38.91867633333333, "fusion_lat": 0.0, "rental_uris": {"ios": "https://dc.lft.to/lastmile_qr_scan", "android": "https://dc.lft.to/lastmile_qr_scan"}, "is_disabled": 0, "type": "electric_scooter"}, {"fusion_lon": 0.0, "is_reserved": 0, "bike_id": "20402a09afda1bf8ce690d578f3f36c7", "lon": -76.98966916666667, "name": "20402a09afda1bf8ce690d578f3f36c7", "lat": 38.90138566666667, "fusion_lat": 0.0, "rental_uris": {"ios": "https://dc.lft.to/lastmile_qr_scan", "android": "https://dc.lft.to/lastmile_qr_scan"}, "is_disabled": 0, "type": "electric_scooter"}, {"fusion_lon": 0.0, "is_reserved": 0, "bike_id": "307c2e4b1eccab5531a83969ffc457b1", "lon": -76.98224883333333, "name": "307c2e4b1eccab5531a83969ffc457b1", "lat": 38.85706316666667, "fusion_lat": 0.0, "rental_uris": {"ios": "https://dc.lft.to/lastmile_qr_scan", "android": "https://dc.lft.to/lastmile_qr_scan"}, "is_disabled": 0, "type": "electric_scooter"}, {"fusion_lon": 0.0, "is_reserved": 0, "bike_id": "70155cbd61cf048ae903b8636e98c5d3", "lon": -76.99860433333333, "name": "70155cbd61cf048ae903b8636e98c5d3", "lat": 38.90036633333333, "fusion_lat": 0.0, "rental_uris": {"ios": "https://dc.lft.to/lastmile_qr_scan", "android": "https://dc.lft.to/lastmile_qr_scan"}, "is_disabled": 0, "type": "electric_scooter"}, {"fusion_lon": 0.0, "is_reserved": 0, "bike_id": "8c0fe4a44463689f6d895286b9053e5c", "lon": -77.03308266666667, "name": "8c0fe4a44463689f6d895286b9053e5c", "lat": 38.920680833333336, "fusion_lat": 0.0, "rental_uris": {"ios": "https://dc.lft.to/lastmile_qr_scan", "android": "https://dc.lft.to/lastmile_qr_scan"}, "is_disabled": 0, "type": "electric_scooter"}, {"fusion_lon": 0.0, "is_reserved": 0, "bike_id": "0225fd489b40d4b61a3b5f3ca6cca468", "lon": -77.04067066666667, "name": "0225fd489b40d4b61a3b5f3ca6cca468", "lat": 38.9027145, "fusion_lat": 0.0, "rental_uris": {"ios": "https://dc.lft.to/lastmile_qr_scan", "android": "https://dc.lft.to/lastmile_qr_scan"}, "is_disabled": 0, "type": "electric_scooter"}, {"fusion_lon": 0.0, "is_reserved": 0, "bike_id": "fed489e2be7cc1af0253e1dfee18009d", "lon": -77.03766083333333, "name": "fed489e2be7cc1af0253e1dfee18009d", "lat": 38.9170485, "fusion_lat": 0.0, "rental_uris": {"ios": "https://dc.lft.to/lastmile_qr_scan", "android": "https://dc.lft.to/lastmile_qr_scan"}, "is_disabled": 0, "type": "electric_scooter"}, {"fusion_lon": 0.0, "is_reserved": 0, "bike_id": "d5e36cd5566cc8b2ffe43d590403f88f", "lon": -77.05145166666667, "name": "d5e36cd5566cc8b2ffe43d590403f88f", "lat": 38.927236666666666, "fusion_lat": 0.0, "rental_uris": {"ios": "https://dc.lft.to/lastmile_qr_scan", "android": "https://dc.lft.to/lastmile_qr_scan"}, "is_disabled": 0, "type": "electric_scooter"}, {"fusion_lon": 0.0, "is_reserved": 0, "bike_id": "4e3533454517ef3a5000802d89d0d644", "lon": -77.019538, "name": "4e3533454517ef3a5000802d89d0d644", "lat": 38.923222833333334, "fusion_lat": 0.0, "rental_uris": {"ios": "https://dc.lft.to/lastmile_qr_scan", "android": "https://dc.lft.to/lastmile_qr_scan"}, "is_disabled": 0, "type": "electric_scooter"}, {"fusion_lon": 0.0, "is_reserved": 0, "bike_id": "6f3a4dc280bef05b2d9cb513f1477485", "lon": -77.03864466666667, "name": "6f3a4dc280bef05b2d9cb513f1477485", "lat": 38.90277733333333, "fusion_lat": 0.0, "rental_uris": {"ios": "https://dc.lft.to/lastmile_qr_scan", "android": "https://dc.lft.to/lastmile_qr_scan"}, "is_disabled": 0, "type": "electric_scooter"}, {"fusion_lon": 0.0, "is_reserved": 0, "bike_id": "0eeb186ab47b7d3ff8ae1ea1b3be3ebf", "lon": -77.04657033333334, "name": "0eeb186ab47b7d3ff8ae1ea1b3be3ebf", "lat": 38.89388183333333, "fusion_lat": 0.0, "rental_uris": {"ios": "https://dc.lft.to/lastmile_qr_scan", "android": "https://dc.lft.to/lastmile_qr_scan"}, "is_disabled": 0, "type": "electric_scooter"}, {"fusion_lon": 0.0, "is_reserved": 0, "bike_id": "831b1ef62aa94fa5c0bdc94af5f5afcc", "lon": -77.02301516666667, "name": "831b1ef62aa94fa5c0bdc94af5f5afcc", "lat": 38.92061966666667, "fusion_lat": 0.0, "rental_uris": {"ios": "https://dc.lft.to/lastmile_qr_scan", "android": "https://dc.lft.to/lastmile_qr_scan"}, "is_disabled": 0, "type": "electric_scooter"}, {"fusion_lon": 0.0, "is_reserved": 0, "bike_id": "0ef60eb5db3ed6f7e0fef7a13168faed", "lon": -76.99439, "name": "0ef60eb5db3ed6f7e0fef7a13168faed", "lat": 38.93345933333333, "fusion_lat": 0.0, "rental_uris": {"ios": "https://dc.lft.to/lastmile_qr_scan", "android": "https://dc.lft.to/lastmile_qr_scan"}, "is_disabled": 0, "type": "electric_scooter"}, {"fusion_lon": 0.0, "is_reserved": 0, "bike_id": "be53dc4d03bf1391b2c7c26097dc7957", "lon": -77.02925583333334, "name": "be53dc4d03bf1391b2c7c26097dc7957", "lat": 38.892440666666666, "fusion_lat": 0.0, "rental_uris": {"ios": "https://dc.lft.to/lastmile_qr_scan", "android": "https://dc.lft.to/lastmile_qr_scan"}, "is_disabled": 0, "type": "electric_scooter"}, {"fusion_lon": 0.0, "is_reserved": 0, "bike_id": "7e2271f0ae0fad463572a626a9fbf9c5", "lon": -77.04575333333334, "name": "7e2271f0ae0fad463572a626a9fbf9c5", "lat": 38.91407983333333, "fusion_lat": 0.0, "rental_uris": {"ios": "https://dc.lft.to/lastmile_qr_scan", "android": "https://dc.lft.to/lastmile_qr_scan"}, "is_disabled": 0, "type": "electric_scooter"}, {"fusion_lon": 0.0, "is_reserved": 0, "bike_id": "74d287ae4a8dcdf22a1722cbe9425fa7", "lon": -77.00591066666667, "name": "74d287ae4a8dcdf22a1722cbe9425fa7", "lat": 38.876026333333336, "fusion_lat": 0.0, "rental_uris": {"ios": "https://dc.lft.to/lastmile_qr_scan", "android": "https://dc.lft.to/lastmile_qr_scan"}, "is_disabled": 0, "type": "electric_scooter"}, {"fusion_lon": 0.0, "is_reserved": 0, "bike_id": "16d1764e4bb194de70a36756d08f5291", "lon": -77.030624, "name": "16d1764e4bb194de70a36756d08f5291", "lat": 38.92379866666667, "fusion_lat": 0.0, "rental_uris": {"ios": "https://dc.lft.to/lastmile_qr_scan", "android": "https://dc.lft.to/lastmile_qr_scan"}, "is_disabled": 0, "type": "electric_scooter"}, {"fusion_lon": 0.0, "is_reserved": 0, "bike_id": "cfc4e2d7473f6018f2ca9814cc1e877f", "lon": -77.02845233333333, "name": "cfc4e2d7473f6018f2ca9814cc1e877f", "lat": 38.942629833333335, "fusion_lat": 0.0, "rental_uris": {"ios": "https://dc.lft.to/lastmile_qr_scan", "android": "https://dc.lft.to/lastmile_qr_scan"}, "is_disabled": 0, "type": "electric_scooter"}, {"fusion_lon": 0.0, "is_reserved": 0, "bike_id": "80c9d9087249d8add1f0ee4afec50e91", "lon": -77.02187433333333, "name": "80c9d9087249d8add1f0ee4afec50e91", "lat": 38.8870195, "fusion_lat": 0.0, "rental_uris": {"ios": "https://dc.lft.to/lastmile_qr_scan", "android": "https://dc.lft.to/lastmile_qr_scan"}, "is_disabled": 0, "type": "electric_scooter"}, {"fusion_lon": 0.0, "is_reserved": 0, "bike_id": "a7c916d3014dd36efb7dcf20ade21be5", "lon": -77.04171066666666, "name": "a7c916d3014dd36efb7dcf20ade21be5", "lat": 38.910527, "fusion_lat": 0.0, "rental_uris": {"ios": "https://dc.lft.to/lastmile_qr_scan", "android": "https://dc.lft.to/lastmile_qr_scan"}, "is_disabled": 0, "type": "electric_scooter"}, {"fusion_lon": 0.0, "is_reserved": 0, "bike_id": "1a0c65021e0d4984e259e006e0ff734a", "lon": -77.036231, "name": "1a0c65021e0d4984e259e006e0ff734a", "lat": 38.92848716666666, "fusion_lat": 0.0, "rental_uris": {"ios": "https://dc.lft.to/lastmile_qr_scan", "android": "https://dc.lft.to/lastmile_qr_scan"}, "is_disabled": 0, "type": "electric_scooter"}, {"fusion_lon": 0.0, "is_reserved": 0, "bike_id": "fc96fb578f1faf5cd66fb66ecb353900", "lon": -77.02156233333334, "name": "fc96fb578f1faf5cd66fb66ecb353900", "lat": 38.90241183333333, "fusion_lat": 0.0, "rental_uris": {"ios": "https://dc.lft.to/lastmile_qr_scan", "android": "https://dc.lft.to/lastmile_qr_scan"}, "is_disabled": 0, "type": "electric_scooter"}, {"fusion_lon": 0.0, "is_reserved": 0, "bike_id": "582458d8a37a147203ab15ccdd059aaa", "lon": -77.03863116666666, "name": "582458d8a37a147203ab15ccdd059aaa", "lat": 38.903918833333336, "fusion_lat": 0.0, "rental_uris": {"ios": "https://dc.lft.to/lastmile_qr_scan", "android": "https://dc.lft.to/lastmile_qr_scan"}, "is_disabled": 0, "type": "electric_scooter"}, {"fusion_lon": 0.0, "is_reserved": 0, "bike_id": "f7bec6f3663923d587af83b2bc625054", "lon": -77.0503465, "name": "f7bec6f3663923d587af83b2bc625054", "lat": 38.91574083333333, "fusion_lat": 0.0, "rental_uris": {"ios": "https://dc.lft.to/lastmile_qr_scan", "android": "https://dc.lft.to/lastmile_qr_scan"}, "is_disabled": 0, "type": "electric_scooter"}, {"fusion_lon": 0.0, "is_reserved": 0, "bike_id": "1e90a30d10637b60d5c709b0c94a948d", "lon": -76.997404, "name": "1e90a30d10637b60d5c709b0c94a948d", "lat": 38.88222433333333, "fusion_lat": 0.0, "rental_uris": {"ios": "https://dc.lft.to/lastmile_qr_scan", "android": "https://dc.lft.to/lastmile_qr_scan"}, "is_disabled": 0, "type": "electric_scooter"}, {"fusion_lon": 0.0, "is_reserved": 0, "bike_id": "94fa1946870c086de8d79507a1d02c32", "lon": -76.97488983333334, "name": "94fa1946870c086de8d79507a1d02c32", "lat": 38.8655775, "fusion_lat": 0.0, "rental_uris": {"ios": "https://dc.lft.to/lastmile_qr_scan", "android": "https://dc.lft.to/lastmile_qr_scan"}, "is_disabled": 0, "type": "electric_bike"}, {"fusion_lon": 0.0, "is_reserved": 0, "bike_id": "ef48688e169147f97e15b6457416d626", "lon": -77.120432, "name": "ef48688e169147f97e15b6457416d626", "lat": 38.824328666666666, "fusion_lat": 0.0, "rental_uris": {"ios": "https://dc.lft.to/lastmile_qr_scan", "android": "https://dc.lft.to/lastmile_qr_scan"}, "is_disabled": 0, "type": "electric_bike"}, {"fusion_lon": 0.0, "is_reserved": 0, "bike_id": "33b6177fe634b1a1efe6ec04703030a9", "lon": -77.010749, "name": "33b6177fe634b1a1efe6ec04703030a9", "lat": 38.87251783333333, "fusion_lat": 0.0, "rental_uris": {"ios": "https://dc.lft.to/lastmile_qr_scan", "android": "https://dc.lft.to/lastmile_qr_scan"}, "is_disabled": 0, "type": "electric_scooter"}, {"fusion_lon": 0.0, "is_reserved": 0, "bike_id": "e4e803eee9ce4f001580c44fb53ba1c2", "lon": -77.02623233333334, "name": "e4e803eee9ce4f001580c44fb53ba1c2", "lat": 38.89620166666667, "fusion_lat": 0.0, "rental_uris": {"ios": "https://dc.lft.to/lastmile_qr_scan", "android": "https://dc.lft.to/lastmile_qr_scan"}, "is_disabled": 0, "type": "electric_scooter"}, {"fusion_lon": 0.0, "is_reserved": 0, "bike_id": "b634f16fa4538fcbfa1442b70ef0e093", "lon": -77.00395716666667, "name": "b634f16fa4538fcbfa1442b70ef0e093", "lat": 38.877557333333336, "fusion_lat": 0.0, "rental_uris": {"ios": "https://dc.lft.to/lastmile_qr_scan", "android": "https://dc.lft.to/lastmile_qr_scan"}, "is_disabled": 0, "type": "electric_scooter"}, {"fusion_lon": 0.0, "is_reserved": 0, "bike_id": "03c84e5e2f8409dc4ac30e774ec0b284", "lon": -76.98617583333333, "name": "03c84e5e2f8409dc4ac30e774ec0b284", "lat": 38.93975066666667, "fusion_lat": 0.0, "rental_uris": {"ios": "https://dc.lft.to/lastmile_qr_scan", "android": "https://dc.lft.to/lastmile_qr_scan"}, "is_disabled": 0, "type": "electric_bike"}, {"fusion_lon": 0.0, "is_reserved": 0, "bike_id": "ca6d78e4bc94753cc449d5db93085cb8", "lon": -77.0298705, "name": "ca6d78e4bc94753cc449d5db93085cb8", "lat": 38.89606833333333, "fusion_lat": 0.0, "rental_uris": {"ios": "https://dc.lft.to/lastmile_qr_scan", "android": "https://dc.lft.to/lastmile_qr_scan"}, "is_disabled": 0, "type": "electric_scooter"}, {"fusion_lon": 0.0, "is_reserved": 0, "bike_id": "fddfb0a8820411adab2f799d61541f90", "lon": -77.0683955, "name": "fddfb0a8820411adab2f799d61541f90", "lat": 38.85642983333334, "fusion_lat": 0.0, "rental_uris": {"ios": "https://dc.lft.to/lastmile_qr_scan", "android": "https://dc.lft.to/lastmile_qr_scan"}, "is_disabled": 0, "type": "electric_bike"}, {"fusion_lon": 0.0, "is_reserved": 0, "bike_id": "e560356f71fe01ce0862d485e822b33a", "lon": -77.02763116666667, "name": "e560356f71fe01ce0862d485e822b33a", "lat": 38.90262833333333, "fusion_lat": 0.0, "rental_uris": {"ios": "https://dc.lft.to/lastmile_qr_scan", "android": "https://dc.lft.to/lastmile_qr_scan"}, "is_disabled": 0, "type": "electric_scooter"}, {"fusion_lon": 0.0, "is_reserved": 0, "bike_id": "9c3c7344b355e737bd97435beb143341", "lon": -77.04135333333333, "name": "9c3c7344b355e737bd97435beb143341", "lat": 38.93401816666667, "fusion_lat": 0.0, "rental_uris": {"ios": "https://dc.lft.to/lastmile_qr_scan", "android": "https://dc.lft.to/lastmile_qr_scan"}, "is_disabled": 0, "type": "electric_scooter"}, {"fusion_lon": 0.0, "is_reserved": 0, "bike_id": "2217c9c9997aefa7dfc6a99b3e9d4657", "lon": -77.03893466666666, "name": "2217c9c9997aefa7dfc6a99b3e9d4657", "lat": 38.91710033333333, "fusion_lat": 0.0, "rental_uris": {"ios": "https://dc.lft.to/lastmile_qr_scan", "android": "https://dc.lft.to/lastmile_qr_scan"}, "is_disabled": 0, "type": "electric_scooter"}, {"fusion_lon": 0.0, "is_reserved": 0, "bike_id": "a46ca7d18df6b4dbf59df5440a19b19b", "lon": -77.04824666666667, "name": "a46ca7d18df6b4dbf59df5440a19b19b", "lat": 38.90971033333334, "fusion_lat": 0.0, "rental_uris": {"ios": "https://dc.lft.to/lastmile_qr_scan", "android": "https://dc.lft.to/lastmile_qr_scan"}, "is_disabled": 0, "type": "electric_scooter"}, {"fusion_lon": 0.0, "is_reserved": 0, "bike_id": "a45b4fb51219252df50b8a32a5a29851", "lon": -77.03316, "name": "a45b4fb51219252df50b8a32a5a29851", "lat": 38.9206145, "fusion_lat": 0.0, "rental_uris": {"ios": "https://dc.lft.to/lastmile_qr_scan", "android": "https://dc.lft.to/lastmile_qr_scan"}, "is_disabled": 0, "type": "electric_bike"}, {"fusion_lon": 0.0, "is_reserved": 0, "bike_id": "85d8f4d89a04c41068d3e7787e467e76", "lon": -77.02162266666667, "name": "85d8f4d89a04c41068d3e7787e467e76", "lat": 38.925005666666664, "fusion_lat": 0.0, "rental_uris": {"ios": "https://dc.lft.to/lastmile_qr_scan", "android": "https://dc.lft.to/lastmile_qr_scan"}, "is_disabled": 0, "type": "electric_scooter"}, {"fusion_lon": 0.0, "is_reserved": 0, "bike_id": "b6e94ba244be86da85305fa2cef1214a", "lon": -76.97997683333334, "name": "b6e94ba244be86da85305fa2cef1214a", "lat": 38.89892, "fusion_lat": 0.0, "rental_uris": {"ios": "https://dc.lft.to/lastmile_qr_scan", "android": "https://dc.lft.to/lastmile_qr_scan"}, "is_disabled": 0, "type": "electric_scooter"}, {"fusion_lon": 0.0, "is_reserved": 0, "bike_id": "062ce2bfab3cdbbac24fd3e689e0f5e4", "lon": -77.03215366666667, "name": "062ce2bfab3cdbbac24fd3e689e0f5e4", "lat": 38.9189575, "fusion_lat": 0.0, "rental_uris": {"ios": "https://dc.lft.to/lastmile_qr_scan", "android": "https://dc.lft.to/lastmile_qr_scan"}, "is_disabled": 0, "type": "electric_scooter"}, {"fusion_lon": 0.0, "is_reserved": 0, "bike_id": "cb5bf0bea274002a9a4f8db07d264aab", "lon": -76.9723275, "name": "cb5bf0bea274002a9a4f8db07d264aab", "lat": 38.924583166666665, "fusion_lat": 0.0, "rental_uris": {"ios": "https://dc.lft.to/lastmile_qr_scan", "android": "https://dc.lft.to/lastmile_qr_scan"}, "is_disabled": 0, "type": "electric_scooter"}, {"fusion_lon": 0.0, "is_reserved": 0, "bike_id": "a03029eee31b905e8c590093a6e15e27", "lon": -76.97753366666667, "name": "a03029eee31b905e8c590093a6e15e27", "lat": 38.864906166666664, "fusion_lat": 0.0, "rental_uris": {"ios": "https://dc.lft.to/lastmile_qr_scan", "android": "https://dc.lft.to/lastmile_qr_scan"}, "is_disabled": 0, "type": "electric_bike"}, {"fusion_lon": 0.0, "is_reserved": 0, "bike_id": "026b68ab1d7141aa6a50f1d62abe18fa", "lon": -77.05436383333333, "name": "026b68ab1d7141aa6a50f1d62abe18fa", "lat": 38.92677833333333, "fusion_lat": 0.0, "rental_uris": {"ios": "https://dc.lft.to/lastmile_qr_scan", "android": "https://dc.lft.to/lastmile_qr_scan"}, "is_disabled": 0, "type": "electric_scooter"}, {"fusion_lon": 0.0, "is_reserved": 0, "bike_id": "b6bcb25d2866d3dc339816e4bf398f71", "lon": -77.04581933333333, "name": "b6bcb25d2866d3dc339816e4bf398f71", "lat": 38.921275, "fusion_lat": 0.0, "rental_uris": {"ios": "https://dc.lft.to/lastmile_qr_scan", "android": "https://dc.lft.to/lastmile_qr_scan"}, "is_disabled": 0, "type": "electric_scooter"}, {"fusion_lon": 0.0, "is_reserved": 0, "bike_id": "d2b5552beb43ad8b5da72fde69c24479", "lon": -77.03965616666666, "name": "d2b5552beb43ad8b5da72fde69c24479", "lat": 38.90615283333333, "fusion_lat": 0.0, "rental_uris": {"ios": "https://dc.lft.to/lastmile_qr_scan", "android": "https://dc.lft.to/lastmile_qr_scan"}, "is_disabled": 0, "type": "electric_scooter"}, {"fusion_lon": 0.0, "is_reserved": 0, "bike_id": "7b154dd4fc09f78d525f536411777f7c", "lon": -77.02152766666667, "name": "7b154dd4fc09f78d525f536411777f7c", "lat": 38.92447583333333, "fusion_lat": 0.0, "rental_uris": {"ios": "https://dc.lft.to/lastmile_qr_scan", "android": "https://dc.lft.to/lastmile_qr_scan"}, "is_disabled": 0, "type": "electric_scooter"}, {"fusion_lon": 0.0, "is_reserved": 0, "bike_id": "fe5cddf1bb3d9992c2f85a5df1e564dd", "lon": -77.05812633333333, "name": "fe5cddf1bb3d9992c2f85a5df1e564dd", "lat": 38.934661, "fusion_lat": 0.0, "rental_uris": {"ios": "https://dc.lft.to/lastmile_qr_scan", "android": "https://dc.lft.to/lastmile_qr_scan"}, "is_disabled": 0, "type": "electric_scooter"}, {"fusion_lon": 0.0, "is_reserved": 0, "bike_id": "d918ee665c8ee6c8023331a58f98a32a", "lon": -77.01906133333334, "name": "d918ee665c8ee6c8023331a58f98a32a", "lat": 38.923435833333336, "fusion_lat": 0.0, "rental_uris": {"ios": "https://dc.lft.to/lastmile_qr_scan", "android": "https://dc.lft.to/lastmile_qr_scan"}, "is_disabled": 0, "type": "electric_scooter"}, {"fusion_lon": 0.0, "is_reserved": 0, "bike_id": "058e048831e370cc6d2a9addb420c5e8", "lon": -77.03086366666666, "name": "058e048831e370cc6d2a9addb420c5e8", "lat": 38.9279245, "fusion_lat": 0.0, "rental_uris": {"ios": "https://dc.lft.to/lastmile_qr_scan", "android": "https://dc.lft.to/lastmile_qr_scan"}, "is_disabled": 0, "type": "electric_scooter"}, {"fusion_lon": 0.0, "is_reserved": 0, "bike_id": "3f68009bc808fefd3e64b13522bcdb36", "lon": -77.02952433333333, "name": "3f68009bc808fefd3e64b13522bcdb36", "lat": 38.904621666666664, "fusion_lat": 0.0, "rental_uris": {"ios": "https://dc.lft.to/lastmile_qr_scan", "android": "https://dc.lft.to/lastmile_qr_scan"}, "is_disabled": 0, "type": "electric_scooter"}, {"fusion_lon": 0.0, "is_reserved": 0, "bike_id": "8a2d0fb18ad7edf01a70924dc24bd284", "lon": -77.00347333333333, "name": "8a2d0fb18ad7edf01a70924dc24bd284", "lat": 38.8935495, "fusion_lat": 0.0, "rental_uris": {"ios": "https://dc.lft.to/lastmile_qr_scan", "android": "https://dc.lft.to/lastmile_qr_scan"}, "is_disabled": 0, "type": "electric_scooter"}, {"fusion_lon": 0.0, "is_reserved": 0, "bike_id": "4f0cdea07157b0dbbc4e6bee0d513fcc", "lon": -77.0614575, "name": "4f0cdea07157b0dbbc4e6bee0d513fcc", "lat": 38.9411845, "fusion_lat": 0.0, "rental_uris": {"ios": "https://dc.lft.to/lastmile_qr_scan", "android": "https://dc.lft.to/lastmile_qr_scan"}, "is_disabled": 0, "type": "electric_scooter"}, {"fusion_lon": 0.0, "is_reserved": 0, "bike_id": "245c00f4996edf32968c4e04abd4f04e", "lon": -77.04133433333334, "name": "245c00f4996edf32968c4e04abd4f04e", "lat": 38.9249925, "fusion_lat": 0.0, "rental_uris": {"ios": "https://dc.lft.to/lastmile_qr_scan", "android": "https://dc.lft.to/lastmile_qr_scan"}, "is_disabled": 0, "type": "electric_scooter"}, {"fusion_lon": 0.0, "is_reserved": 0, "bike_id": "21ebd4b1ec42b9db4afb70bcceb35434", "lon": -77.049018, "name": "21ebd4b1ec42b9db4afb70bcceb35434", "lat": 38.9001915, "fusion_lat": 0.0, "rental_uris": {"ios": "https://dc.lft.to/lastmile_qr_scan", "android": "https://dc.lft.to/lastmile_qr_scan"}, "is_disabled": 0, "type": "electric_scooter"}, {"fusion_lon": 0.0, "is_reserved": 0, "bike_id": "9e5b566d5566d1f8c5d9607073c87ad8", "lon": -77.04617266666666, "name": "9e5b566d5566d1f8c5d9607073c87ad8", "lat": 38.8982975, "fusion_lat": 0.0, "rental_uris": {"ios": "https://dc.lft.to/lastmile_qr_scan", "android": "https://dc.lft.to/lastmile_qr_scan"}, "is_disabled": 0, "type": "electric_scooter"}, {"fusion_lon": 0.0, "is_reserved": 0, "bike_id": "e36aff0ec0e4d80bf57772b6a911d328", "lon": -76.93935816666666, "name": "e36aff0ec0e4d80bf57772b6a911d328", "lat": 38.8933265, "fusion_lat": 0.0, "rental_uris": {"ios": "https://dc.lft.to/lastmile_qr_scan", "android": "https://dc.lft.to/lastmile_qr_scan"}, "is_disabled": 0, "type": "electric_scooter"}, {"fusion_lon": 0.0, "is_reserved": 0, "bike_id": "860e7786cd4e433e8c15df3423d3e0a9", "lon": -77.03333216666667, "name": "860e7786cd4e433e8c15df3423d3e0a9", "lat": 38.9217075, "fusion_lat": 0.0, "rental_uris": {"ios": "https://dc.lft.to/lastmile_qr_scan", "android": "https://dc.lft.to/lastmile_qr_scan"}, "is_disabled": 0, "type": "electric_scooter"}, {"fusion_lon": 0.0, "is_reserved": 0, "bike_id": "8aef74e4f3098277f41bb90021d73264", "lon": -77.03274483333334, "name": "8aef74e4f3098277f41bb90021d73264", "lat": 38.919857, "fusion_lat": 0.0, "rental_uris": {"ios": "https://dc.lft.to/lastmile_qr_scan", "android": "https://dc.lft.to/lastmile_qr_scan"}, "is_disabled": 0, "type": "electric_scooter"}, {"fusion_lon": 0.0, "is_reserved": 0, "bike_id": "9d6eda261b361d3755dd294a4ec61495", "lon": -77.03168283333333, "name": "9d6eda261b361d3755dd294a4ec61495", "lat": 38.88621933333334, "fusion_lat": 0.0, "rental_uris": {"ios": "https://dc.lft.to/lastmile_qr_scan", "android": "https://dc.lft.to/lastmile_qr_scan"}, "is_disabled": 0, "type": "electric_scooter"}, {"fusion_lon": 0.0, "is_reserved": 0, "bike_id": "3548be2032e9603612b3172c682ad7cc", "lon": -77.02214766666667, "name": "3548be2032e9603612b3172c682ad7cc", "lat": 38.914197, "fusion_lat": 0.0, "rental_uris": {"ios": "https://dc.lft.to/lastmile_qr_scan", "android": "https://dc.lft.to/lastmile_qr_scan"}, "is_disabled": 0, "type": "electric_scooter"}, {"fusion_lon": 0.0, "is_reserved": 0, "bike_id": "6ef1331a728bd2243685f1a4a109a047", "lon": -77.06404883333333, "name": "6ef1331a728bd2243685f1a4a109a047", "lat": 38.944859666666666, "fusion_lat": 0.0, "rental_uris": {"ios": "https://dc.lft.to/lastmile_qr_scan", "android": "https://dc.lft.to/lastmile_qr_scan"}, "is_disabled": 0, "type": "electric_scooter"}, {"fusion_lon": 0.0, "is_reserved": 0, "bike_id": "279097978498d81f248642de9d3f394d", "lon": -77.0568, "name": "279097978498d81f248642de9d3f394d", "lat": 38.92338516666667, "fusion_lat": 0.0, "rental_uris": {"ios": "https://dc.lft.to/lastmile_qr_scan", "android": "https://dc.lft.to/lastmile_qr_scan"}, "is_disabled": 0, "type": "electric_scooter"}, {"fusion_lon": 0.0, "is_reserved": 0, "bike_id": "57494e4a53d33ad7c7f56da90f16fc33", "lon": -77.11429733333334, "name": "57494e4a53d33ad7c7f56da90f16fc33", "lat": 38.852469666666664, "fusion_lat": 0.0, "rental_uris": {"ios": "https://dc.lft.to/lastmile_qr_scan", "android": "https://dc.lft.to/lastmile_qr_scan"}, "is_disabled": 0, "type": "electric_bike"}, {"fusion_lon": 0.0, "is_reserved": 0, "bike_id": "3eefa0ca915a6c1ab71e9e6effd7e19e", "lon": -77.02406166666667, "name": "3eefa0ca915a6c1ab71e9e6effd7e19e", "lat": 38.9573475, "fusion_lat": 0.0, "rental_uris": {"ios": "https://dc.lft.to/lastmile_qr_scan", "android": "https://dc.lft.to/lastmile_qr_scan"}, "is_disabled": 0, "type": "electric_scooter"}, {"fusion_lon": 0.0, "is_reserved": 0, "bike_id": "ab21f81b1a9d1581640aa8338a8a7382", "lon": -77.0418665, "name": "ab21f81b1a9d1581640aa8338a8a7382", "lat": 38.919640666666666, "fusion_lat": 0.0, "rental_uris": {"ios": "https://dc.lft.to/lastmile_qr_scan", "android": "https://dc.lft.to/lastmile_qr_scan"}, "is_disabled": 0, "type": "electric_scooter"}, {"fusion_lon": 0.0, "is_reserved": 0, "bike_id": "fc3653557b1b6788f10d821b24d338ba", "lon": -77.043419, "name": "fc3653557b1b6788f10d821b24d338ba", "lat": 38.92346516666667, "fusion_lat": 0.0, "rental_uris": {"ios": "https://dc.lft.to/lastmile_qr_scan", "android": "https://dc.lft.to/lastmile_qr_scan"}, "is_disabled": 0, "type": "electric_scooter"}, {"fusion_lon": 0.0, "is_reserved": 0, "bike_id": "127ffbbf2888d2c3fa2f38b716009def", "lon": -77.088733, "name": "127ffbbf2888d2c3fa2f38b716009def", "lat": 38.951086, "fusion_lat": 0.0, "rental_uris": {"ios": "https://dc.lft.to/lastmile_qr_scan", "android": "https://dc.lft.to/lastmile_qr_scan"}, "is_disabled": 0, "type": "electric_bike"}, {"fusion_lon": 0.0, "is_reserved": 0, "bike_id": "b404a9a66807489efd6818fe9879ad55", "lon": -77.05607183333333, "name": "b404a9a66807489efd6818fe9879ad55", "lat": 38.93706783333333, "fusion_lat": 0.0, "rental_uris": {"ios": "https://dc.lft.to/lastmile_qr_scan", "android": "https://dc.lft.to/lastmile_qr_scan"}, "is_disabled": 0, "type": "electric_scooter"}, {"fusion_lon": 0.0, "is_reserved": 0, "bike_id": "cf0e7488f74db3ac6610c9a921af477f", "lon": -77.03212316666666, "name": "cf0e7488f74db3ac6610c9a921af477f", "lat": 38.90037683333333, "fusion_lat": 0.0, "rental_uris": {"ios": "https://dc.lft.to/lastmile_qr_scan", "android": "https://dc.lft.to/lastmile_qr_scan"}, "is_disabled": 0, "type": "electric_scooter"}, {"fusion_lon": 0.0, "is_reserved": 0, "bike_id": "bb307022f8382a9626a4a00e97988c7a", "lon": -77.0219285, "name": "bb307022f8382a9626a4a00e97988c7a", "lat": 38.908317, "fusion_lat": 0.0, "rental_uris": {"ios": "https://dc.lft.to/lastmile_qr_scan", "android": "https://dc.lft.to/lastmile_qr_scan"}, "is_disabled": 0, "type": "electric_scooter"}, {"fusion_lon": 0.0, "is_reserved": 0, "bike_id": "04c4495cccde61c29bc593a442430645", "lon": -77.020309, "name": "04c4495cccde61c29bc593a442430645", "lat": 38.9241825, "fusion_lat": 0.0, "rental_uris": {"ios": "https://dc.lft.to/lastmile_qr_scan", "android": "https://dc.lft.to/lastmile_qr_scan"}, "is_disabled": 0, "type": "electric_scooter"}, {"fusion_lon": 0.0, "is_reserved": 0, "bike_id": "00aefdb77879b1d329cdeebe3a692abe", "lon": -77.03013033333333, "name": "00aefdb77879b1d329cdeebe3a692abe", "lat": 38.924776666666666, "fusion_lat": 0.0, "rental_uris": {"ios": "https://dc.lft.to/lastmile_qr_scan", "android": "https://dc.lft.to/lastmile_qr_scan"}, "is_disabled": 0, "type": "electric_scooter"}, {"fusion_lon": 0.0, "is_reserved": 0, "bike_id": "582cd42ec08325564e4d4e6ad4c44769", "lon": -76.948936, "name": "582cd42ec08325564e4d4e6ad4c44769", "lat": 38.894948, "fusion_lat": 0.0, "rental_uris": {"ios": "https://dc.lft.to/lastmile_qr_scan", "android": "https://dc.lft.to/lastmile_qr_scan"}, "is_disabled": 0, "type": "electric_scooter"}, {"fusion_lon": 0.0, "is_reserved": 0, "bike_id": "325be44cb343fca35671f4b0836caf3a", "lon": -77.05811983333334, "name": "325be44cb343fca35671f4b0836caf3a", "lat": 38.9346435, "fusion_lat": 0.0, "rental_uris": {"ios": "https://dc.lft.to/lastmile_qr_scan", "android": "https://dc.lft.to/lastmile_qr_scan"}, "is_disabled": 0, "type": "electric_scooter"}, {"fusion_lon": 0.0, "is_reserved": 0, "bike_id": "67ec0f2307d38365bc237f94632245e8", "lon": -77.00936966666667, "name": "67ec0f2307d38365bc237f94632245e8", "lat": 38.87461533333333, "fusion_lat": 0.0, "rental_uris": {"ios": "https://dc.lft.to/lastmile_qr_scan", "android": "https://dc.lft.to/lastmile_qr_scan"}, "is_disabled": 0, "type": "electric_scooter"}, {"fusion_lon": 0.0, "is_reserved": 0, "bike_id": "a60c1543736121b42a5b9cdb5c1e8d30", "lon": -76.92908383333334, "name": "a60c1543736121b42a5b9cdb5c1e8d30", "lat": 38.88295516666667, "fusion_lat": 0.0, "rental_uris": {"ios": "https://dc.lft.to/lastmile_qr_scan", "android": "https://dc.lft.to/lastmile_qr_scan"}, "is_disabled": 0, "type": "electric_scooter"}, {"fusion_lon": 0.0, "is_reserved": 0, "bike_id": "dc0d4405c5c1a6f04483b6d6fe770899", "lon": -77.01597233333334, "name": "dc0d4405c5c1a6f04483b6d6fe770899", "lat": 38.900066833333334, "fusion_lat": 0.0, "rental_uris": {"ios": "https://dc.lft.to/lastmile_qr_scan", "android": "https://dc.lft.to/lastmile_qr_scan"}, "is_disabled": 0, "type": "electric_scooter"}, {"fusion_lon": 0.0, "is_reserved": 0, "bike_id": "2ddd49ae7b9318e14e7590cadf3c9147", "lon": -76.92110933333333, "name": "2ddd49ae7b9318e14e7590cadf3c9147", "lat": 38.890039333333334, "fusion_lat": 0.0, "rental_uris": {"ios": "https://dc.lft.to/lastmile_qr_scan", "android": "https://dc.lft.to/lastmile_qr_scan"}, "is_disabled": 0, "type": "electric_scooter"}, {"fusion_lon": 0.0, "is_reserved": 0, "bike_id": "ea56a488dea4c7cae7bbde364b2f1a02", "lon": -76.93173683333333, "name": "ea56a488dea4c7cae7bbde364b2f1a02", "lat": 38.898876, "fusion_lat": 0.0, "rental_uris": {"ios": "https://dc.lft.to/lastmile_qr_scan", "android": "https://dc.lft.to/lastmile_qr_scan"}, "is_disabled": 0, "type": "electric_scooter"}, {"fusion_lon": 0.0, "is_reserved": 0, "bike_id": "78662ebea4c99f02716310ae3ebb2d9f", "lon": -77.02992883333333, "name": "78662ebea4c99f02716310ae3ebb2d9f", "lat": 38.89902566666667, "fusion_lat": 0.0, "rental_uris": {"ios": "https://dc.lft.to/lastmile_qr_scan", "android": "https://dc.lft.to/lastmile_qr_scan"}, "is_disabled": 0, "type": "electric_scooter"}, {"fusion_lon": 0.0, "is_reserved": 0, "bike_id": "cdacecda8b1dab06ca642881985d0709", "lon": -77.04883483333333, "name": "cdacecda8b1dab06ca642881985d0709", "lat": 38.892323, "fusion_lat": 0.0, "rental_uris": {"ios": "https://dc.lft.to/lastmile_qr_scan", "android": "https://dc.lft.to/lastmile_qr_scan"}, "is_disabled": 0, "type": "electric_scooter"}, {"fusion_lon": 0.0, "is_reserved": 0, "bike_id": "5485ad56de3c2d98a75b810c5b735516", "lon": -77.021846, "name": "5485ad56de3c2d98a75b810c5b735516", "lat": 38.91691333333333, "fusion_lat": 0.0, "rental_uris": {"ios": "https://dc.lft.to/lastmile_qr_scan", "android": "https://dc.lft.to/lastmile_qr_scan"}, "is_disabled": 0, "type": "electric_scooter"}, {"fusion_lon": 0.0, "is_reserved": 0, "bike_id": "a2464bd5b08d5746d859340de5e86649", "lon": -76.98532383333334, "name": "a2464bd5b08d5746d859340de5e86649", "lat": 38.87997983333333, "fusion_lat": 0.0, "rental_uris": {"ios": "https://dc.lft.to/lastmile_qr_scan", "android": "https://dc.lft.to/lastmile_qr_scan"}, "is_disabled": 0, "type": "electric_scooter"}, {"fusion_lon": 0.0, "is_reserved": 0, "bike_id": "747a82d053c3780d2ee32f2c868228ca", "lon": -77.0312465, "name": "747a82d053c3780d2ee32f2c868228ca", "lat": 38.912675166666666, "fusion_lat": 0.0, "rental_uris": {"ios": "https://dc.lft.to/lastmile_qr_scan", "android": "https://dc.lft.to/lastmile_qr_scan"}, "is_disabled": 0, "type": "electric_scooter"}, {"fusion_lon": 0.0, "is_reserved": 0, "bike_id": "cabe8f9872ea37b0afca7b9aefcbc9de", "lon": -77.03145616666667, "name": "cabe8f9872ea37b0afca7b9aefcbc9de", "lat": 38.892197833333334, "fusion_lat": 0.0, "rental_uris": {"ios": "https://dc.lft.to/lastmile_qr_scan", "android": "https://dc.lft.to/lastmile_qr_scan"}, "is_disabled": 0, "type": "electric_scooter"}, {"fusion_lon": 0.0, "is_reserved": 0, "bike_id": "821c470cf95c34e224b0c7b8293483f8", "lon": -77.02313516666666, "name": "821c470cf95c34e224b0c7b8293483f8", "lat": 38.933958, "fusion_lat": 0.0, "rental_uris": {"ios": "https://dc.lft.to/lastmile_qr_scan", "android": "https://dc.lft.to/lastmile_qr_scan"}, "is_disabled": 0, "type": "electric_scooter"}, {"fusion_lon": 0.0, "is_reserved": 0, "bike_id": "ee1bac34ca4308e4876cc007f2ccb419", "lon": -77.116906, "name": "ee1bac34ca4308e4876cc007f2ccb419", "lat": 38.885496833333335, "fusion_lat": 0.0, "rental_uris": {"ios": "https://dc.lft.to/lastmile_qr_scan", "android": "https://dc.lft.to/lastmile_qr_scan"}, "is_disabled": 0, "type": "electric_bike"}, {"fusion_lon": 0.0, "is_reserved": 0, "bike_id": "76a6535e9b31760ce846d3f1d2abf704", "lon": -77.02191416666666, "name": "76a6535e9b31760ce846d3f1d2abf704", "lat": 38.914801, "fusion_lat": 0.0, "rental_uris": {"ios": "https://dc.lft.to/lastmile_qr_scan", "android": "https://dc.lft.to/lastmile_qr_scan"}, "is_disabled": 0, "type": "electric_scooter"}, {"fusion_lon": 0.0, "is_reserved": 0, "bike_id": "a41d187498e21453c9733edf5b834660", "lon": -77.041613, "name": "a41d187498e21453c9733edf5b834660", "lat": 38.895053, "fusion_lat": 0.0, "rental_uris": {"ios": "https://dc.lft.to/lastmile_qr_scan", "android": "https://dc.lft.to/lastmile_qr_scan"}, "is_disabled": 0, "type": "electric_scooter"}, {"fusion_lon": 0.0, "is_reserved": 0, "bike_id": "090f6a2cd79240160b23371e58927926", "lon": -77.16233066666666, "name": "090f6a2cd79240160b23371e58927926", "lat": 38.886695833333334, "fusion_lat": 0.0, "rental_uris": {"ios": "https://dc.lft.to/lastmile_qr_scan", "android": "https://dc.lft.to/lastmile_qr_scan"}, "is_disabled": 0, "type": "electric_bike"},