{"data": {"bikes": [{"rental_uris": {"ios": "https://dc.lft.to/lastmile_qr_scan", "android": "https://dc.lft.to/lastmile_qr_scan"}, "type": "electric_scooter", "name": "92ddb0dae6e74658325065fdb389720c", "is_reserved": 0, "lon": -77.041988, "is_disabled": 0, "fusion_lat": 0.0, "lat": 38.920676666666665, "bike_id": "92ddb0dae6e74658325065fdb389720c", "fusion_lon": 0.0}, {"rental_uris": {"ios": "https://dc.lft.to/lastmile_qr_scan", "android": "https://dc.lft.to/lastmile_qr_scan"}, "type": "electric_scooter", "name": "fa6ecb85da7f5cd532f328abf495d5f5", "is_reserved": 0, "lon": -76.975709, "is_disabled": 0, "fusion_lat": 0.0, "lat": 38.944258833333336, "bike_id": "fa6ecb85da7f5cd532f328abf495d5f5", "fusion_lon": 0.0}, {"rental_uris": {"ios": "https://dc.lft.to/lastmile_qr_scan", "android": "https://dc.lft.to/lastmile_qr_scan"}, "type": "electric_scooter", "name": "d28fd67a6111d4d488de3fc5af2da47d", "is_reserved": 0, "lon": -77.04397383333334, "is_disabled": 0, "fusion_lat": 0.0, "lat": 38.92246133333333, "bike_id": "d28fd67a6111d4d488de3fc5af2da47d", "fusion_lon": 0.0}, {"rental_uris": {"ios": "https://dc.lft.to/lastmile_qr_scan", "android": "https://dc.lft.to/lastmile_qr_scan"}, "type": "electric_bike", "name": "cdcd20a33f4ba964d00808139a280b1a", "is_reserved": 0, "lon": -77.00133716666667, "is_disabled": 0, "fusion_lat": 0.0, "lat": 38.994968166666666, "bike_id": "cdcd20a33f4ba964d00808139a280b1a", "fusion_lon": 0.0}, {"rental_uris": {"ios": "https://dc.lft.to/lastmile_qr_scan", "android": "https://dc.lft.to/lastmile_qr_scan"}, "type": "electric_scooter", "name": "961f3a95b331cb4834fc36149614be87", "is_reserved": 0, "lon": -77.02356983333334, "is_disabled": 0, "fusion_lat": 0.0, "lat": 38.93538683333333, "bike_id": "961f3a95b331cb4834fc36149614be87", "fusion_lon": 0.0}, {"rental_uris": {"ios": "https://dc.lft.to/lastmile_qr_scan", "android": "https://dc.lft.to/lastmile_qr_scan"}, "type": "electric_scooter", "name": "641c0da0bc3602959960a1f32a924543", "is_reserved": 0, "lon": -77.035996, "is_disabled": 0, "fusion_lat": 0.0, "lat": 38.9168645, "bike_id": "641c0da0bc3602959960a1f32a924543", "fusion_lon": 0.0}, {"rental_uris": {"ios": "https://dc.lft.to/lastmile_qr_scan", "android": "https://dc.lft.to/lastmile_qr_scan"}, "type": "electric_scooter", "name": "b32d56fd2f5f66cc43b741217f6ae38d", "is_reserved": 0, "lon": -77.03190633333334, "is_disabled": 0, "fusion_lat": 0.0, "lat": 38.91649366666667, "bike_id": "b32d56fd2f5f66cc43b741217f6ae38d", "fusion_lon": 0.0}, {"rental_uris": {"ios": "https://dc.lft.to/lastmile_qr_scan", "android": "https://dc.lft.to/lastmile_qr_scan"}, "type": "electric_bike", "name": "6032b46a916ccfea000a7af2e83321d5", "is_reserved": 0, "lon": -76.95794816666667, "is_disabled": 0, "fusion_lat": 0.0, "lat": 38.980449166666666, "bike_id": "6032b46a916ccfea000a7af2e83321d5", "fusion_lon": 0.0}, {"rental_uris": {"ios": "https://dc.lft.to/lastmile_qr_scan", "android": "https://dc.lft.to/lastmile_qr_scan"}, "type": "electric_scooter", "name": "1381a3fbf6a8f0db99103b58b3071c9b", "is_reserved": 0, "lon": -76.99790616666667, "is_disabled": 0, "fusion_lat": 0.0, "lat": 38.87631583333334, "bike_id": "1381a3fbf6a8f0db99103b58b3071c9b", "fusion_lon": 0.0}, {"rental_uris": {"ios": "https://dc.lft.to/lastmile_qr_scan", "android": "https://dc.lft.to/lastmile_qr_scan"}, "type": "electric_bike", "name": "23f7a88de25b0b872e2b40d033fc53d5", "is_reserved": 0, "lon": -76.9929845, "is_disabled": 0, "fusion_lat": 0.0, "lat": 38.926648166666666, "bike_id": "23f7a88de25b0b872e2b40d033fc53d5", "fusion_lon": 0.0}, {"rental_uris": {"ios": "https://dc.lft.to/lastmile_qr_scan", "android": "https://dc.lft.to/lastmile_qr_scan"}, "type": "electric_scooter", "name": "9711d4729bdb8f91c86624dedddf580c", "is_reserved": 0, "lon": -77.05123166666667, "is_disabled": 0, "fusion_lat": 0.0, "lat": 38.897076, "bike_id": "9711d4729bdb8f91c86624dedddf580c", "fusion_lon": 0.0}, {"rental_uris": {"ios": "https://dc.lft.to/lastmile_qr_scan", "android": "https://dc.lft.to/lastmile_qr_scan"}, "type": "electric_scooter", "name": "71825a2cccdebc653bb5b295bdaf341d", "is_reserved": 0, "lon": -77.03839883333333, "is_disabled": 0, "fusion_lat": 0.0, "lat": 38.91090833333333, "bike_id": "71825a2cccdebc653bb5b295bdaf341d", "fusion_lon": 0.0}, {"rental_uris": {"ios": "https://dc.lft.to/lastmile_qr_scan", "android": "https://dc.lft.to/lastmile_qr_scan"}, "type": "electric_bike", "name": "d42fa94b6bf1b5222a7b5426bed1360f", "is_reserved": 0, "lon": -76.98673933333333, "is_disabled": 0, "fusion_lat": 0.0, "lat": 38.89960766666667, "bike_id": "d42fa94b6bf1b5222a7b5426bed1360f", "fusion_lon": 0.0}, {"rental_uris": {"ios": "https://dc.lft.to/lastmile_qr_scan", "android": "https://dc.lft.to/lastmile_qr_scan"}, "type": "electric_bike", "name": "eebee134213962dd355d2ecc98513693", "is_reserved": 0, "lon": -77.047594, "is_disabled": 0, "fusion_lat": 0.0, "lat": 38.917696666666664, "bike_id": "eebee134213962dd355d2ecc98513693", "fusion_lon": 0.0}, {"rental_uris": {"ios": "https://dc.lft.to/lastmile_qr_scan", "android": "https://dc.lft.to/lastmile_qr_scan"}, "type": "electric_scooter", "name": "c7632a251d4241321a73e4f4cfa0076d", "is_reserved": 0, "lon": -77.0121815, "is_disabled": 0, "fusion_lat": 0.0, "lat": 38.876637333333335, "bike_id": "c7632a251d4241321a73e4f4cfa0076d", "fusion_lon": 0.0}, {"rental_uris": {"ios": "https://dc.lft.to/lastmile_qr_scan", "android": "https://dc.lft.to/lastmile_qr_scan"}, "type": "electric_scooter", "name": "27640922620314caf83d85d1d0b7d09c", "is_reserved": 0, "lon": -77.03634566666666, "is_disabled": 0, "fusion_lat": 0.0, "lat": 38.923335, "bike_id": "27640922620314caf83d85d1d0b7d09c", "fusion_lon": 0.0}, {"rental_uris": {"ios": "https://dc.lft.to/lastmile_qr_scan", "android": "https://dc.lft.to/lastmile_qr_scan"}, "type": "electric_scooter", "name": "b247fdbcfaaf81dbd99abaf10d59fbe5", "is_reserved": 0, "lon": -77.00778366666667, "is_disabled": 0, "fusion_lat": 0.0, "lat": 38.87909716666667, "bike_id": "b247fdbcfaaf81dbd99abaf10d59fbe5", "fusion_lon": 0.0}, {"rental_uris": {"ios": "https://dc.lft.to/lastmile_qr_scan", "android": "https://dc.lft.to/lastmile_qr_scan"}, "type": "electric_scooter", "name": "9da085092f830401a47ea919f538bd1c", "is_reserved": 0, "lon": -77.038627, "is_disabled": 0, "fusion_lat": 0.0, "lat": 38.911735666666665, "bike_id": "9da085092f830401a47ea919f538bd1c", "fusion_lon": 0.0}, {"rental_uris": {"ios": "https://dc.lft.to/lastmile_qr_scan", "android": "https://dc.lft.to/lastmile_qr_scan"}, "type": "electric_scooter", "name": "540c9b24aac9023d31ee08bae94d3d69", "is_reserved": 0, "lon": -77.03274966666666, "is_disabled": 0, "fusion_lat": 0.0, "lat": 38.89880216666667, "bike_id": "540c9b24aac9023d31ee08bae94d3d69", "fusion_lon": 0.0}, {"rental_uris": {"ios": "https://dc.lft.to/lastmile_qr_scan", "android": "https://dc.lft.to/lastmile_qr_scan"}, "type": "electric_scooter", "name": "3a7ca9e893df362cc448a873c42731bb", "is_reserved": 0, "lon": -77.065256, "is_disabled": 0, "fusion_lat": 0.0, "lat": 38.905258, "bike_id": "3a7ca9e893df362cc448a873c42731bb", "fusion_lon": 0.0}, {"rental_uris": {"ios": "https://dc.lft.to/lastmile_qr_scan", "android": "https://dc.lft.to/lastmile_qr_scan"}, "type": "electric_scooter", "name": "1a8d030671d74e3eb421ce6ea5af38ed", "is_reserved": 0, "lon": -77.0297255, "is_disabled": 0, "fusion_lat": 0.0, "lat": 38.9191125, "bike_id": "1a8d030671d74e3eb421ce6ea5af38ed", "fusion_lon": 0.0}, {"rental_uris": {"ios": "https://dc.lft.to/lastmile_qr_scan", "android": "https://dc.lft.to/lastmile_qr_scan"}, "type": "electric_bike", "name": "74163b053d8e6f96307bd83d1bcabfa9", "is_reserved": 0, "lon": -77.221867, "is_disabled": 0, "fusion_lat": 0.0, "lat": 38.871695, "bike_id": "74163b053d8e6f96307bd83d1bcabfa9", "fusion_lon": 0.0}, {"rental_uris": {"ios": "https://dc.lft.to/lastmile_qr_scan", "android": "https://dc.lft.to/lastmile_qr_scan"}, "type": "electric_scooter", "name": "bdf02fcf9cba610d9e79bb35fbd1201c", "is_reserved": 0, "lon": -77.05200566666667, "is_disabled": 0, "fusion_lat": 0.0, "lat": 38.902331833333335, "bike_id": "bdf02fcf9cba610d9e79bb35fbd1201c", "fusion_lon": 0.0}, {"rental_uris": {"ios": "https://dc.lft.to/lastmile_qr_scan", "android": "https://dc.lft.to/lastmile_qr_scan"}, "type": "electric_scooter", "name": "c3710f3c858e004ebd095bf288dd34c9", "is_reserved": 0, "lon": -77.03255083333333, "is_disabled": 0, "fusion_lat": 0.0, "lat": 38.915512, "bike_id": "c3710f3c858e004ebd095bf288dd34c9", "fusion_lon": 0.0}, {"rental_uris": {"ios": "https://dc.lft.to/lastmile_qr_scan", "android": "https://dc.lft.to/lastmile_qr_scan"}, "type": "electric_scooter", "name": "178df825f23668e48e1427eb365bf02b", "is_reserved": 0, "lon": -77.04493166666667, "is_disabled": 0, "fusion_lat": 0.0, "lat": 38.89614, "bike_id": "178df825f23668e48e1427eb365bf02b", "fusion_lon": 0.0}, {"rental_uris": {"ios": "https://dc.lft.to/lastmile_qr_scan", "android": "https://dc.lft.to/lastmile_qr_scan"}, "type": "electric_scooter", "name": "1cd5ce49461e38f8c8d4b38d6b77460d", "is_reserved": 0, "lon": -77.0336455, "is_disabled": 0, "fusion_lat": 0.0, "lat": 38.916355, "bike_id": "1cd5ce49461e38f8c8d4b38d6b77460d", "fusion_lon": 0.0}, {"rental_uris": {"ios": "https://dc.lft.to/lastmile_qr_scan", "android": "https://dc.lft.to/lastmile_qr_scan"}, "type": "electric_bike", "name": "51f56d756c07fa57b69fb11d4b7130b8", "is_reserved": 0, "lon": -76.98018583333334, "is_disabled": 0, "fusion_lat": 0.0, "lat": 38.85305916666667, "bike_id": "51f56d756c07fa57b69fb11d4b7130b8", "fusion_lon": 0.0}, {"rental_uris": {"ios": "https://dc.lft.to/lastmile_qr_scan", "android": "https://dc.lft.to/lastmile_qr_scan"}, "type": "electric_scooter", "name": "a3d32fd0f01cefa4fd15fc67732a8358", "is_reserved": 0, "lon": -77.04081283333333, "is_disabled": 0, "fusion_lat": 0.0, "lat": 38.9478765, "bike_id": "a3d32fd0f01cefa4fd15fc67732a8358", "fusion_lon": 0.0}, {"rental_uris": {"ios": "https://dc.lft.to/lastmile_qr_scan", "android": "https://dc.lft.to/lastmile_qr_scan"}, "type": "electric_scooter", "name": "18fe18ad661b2065632a073284f2ba3e", "is_reserved": 0, "lon": -77.03706816666667, "is_disabled": 0, "fusion_lat": 0.0, "lat": 38.9265125, "bike_id": "18fe18ad661b2065632a073284f2ba3e", "fusion_lon": 0.0}, {"rental_uris": {"ios": "https://dc.lft.to/lastmile_qr_scan", "android": "https://dc.lft.to/lastmile_qr_scan"}, "type": "electric_scooter", "name": "60f1454ebc5c72d0424a80813b0b8ffb", "is_reserved": 0, "lon": -77.0245915, "is_disabled": 0, "fusion_lat": 0.0, "lat": 38.91708416666667, "bike_id": "60f1454ebc5c72d0424a80813b0b8ffb", "fusion_lon": 0.0}, {"rental_uris": {"ios": "https://dc.lft.to/lastmile_qr_scan", "android": "https://dc.lft.to/lastmile_qr_scan"}, "type": "electric_scooter", "name": "d4a6e978b4d1fd47e24314c3adc6882e", "is_reserved": 0, "lon": -76.98051783333334, "is_disabled": 0, "fusion_lat": 0.0, "lat": 38.90004483333333, "bike_id": "d4a6e978b4d1fd47e24314c3adc6882e", "fusion_lon": 0.0}, {"rental_uris": {"ios": "https://dc.lft.to/lastmile_qr_scan", "android": "https://dc.lft.to/lastmile_qr_scan"}, "type": "electric_scooter", "name": "4a3f4bfe74b825a47a3e0eb68b8e81b1", "is_reserved": 0, "lon": -77.03897366666666, "is_disabled": 0, "fusion_lat": 0.0, "lat": 38.903567833333334, "bike_id": "4a3f4bfe74b825a47a3e0eb68b8e81b1", "fusion_lon": 0.0}, {"rental_uris": {"ios": "https://dc.lft.to/lastmile_qr_scan", "android": "https://dc.lft.to/lastmile_qr_scan"}, "type": "electric_scooter", "name": "76bcd36d9a0cd26d67eb2dcdbb60b748", "is_reserved": 0, "lon": -77.01960816666667, "is_disabled": 0, "fusion_lat": 0.0, "lat": 38.92325, "bike_id": "76bcd36d9a0cd26d67eb2dcdbb60b748", "fusion_lon": 0.0}, {"rental_uris": {"ios": "https://dc.lft.to/lastmile_qr_scan", "android": "https://dc.lft.to/lastmile_qr_scan"}, "type": "electric_scooter", "name": "ae90dd1d940a89ea18a8f89bd3ca0f82", "is_reserved": 0, "lon": -77.01915616666666, "is_disabled": 0, "fusion_lat": 0.0, "lat": 38.8973425, "bike_id": "ae90dd1d940a89ea18a8f89bd3ca0f82", "fusion_lon": 0.0}, {"rental_uris": {"ios": "https://dc.lft.to/lastmile_qr_scan", "android": "https://dc.lft.to/lastmile_qr_scan"}, "type": "electric_bike", "name": "334386283960d4ebf7e8090b5c675f3d", "is_reserved": 0, "lon": -76.98246633333333, "is_disabled": 0, "fusion_lat": 0.0, "lat": 38.952433666666664, "bike_id": "334386283960d4ebf7e8090b5c675f3d", "fusion_lon": 0.0}, {"rental_uris": {"ios": "https://dc.lft.to/lastmile_qr_scan", "android": "https://dc.lft.to/lastmile_qr_scan"}, "type": "electric_scooter", "name": "2105def2bc5d6d3b594a373b621c6057", "is_reserved": 0, "lon": -77.053907, "is_disabled": 0, "fusion_lat": 0.0, "lat": 38.92359016666666, "bike_id": "2105def2bc5d6d3b594a373b621c6057", "fusion_lon": 0.0}, {"rental_uris": {"ios": "https://dc.lft.to/lastmile_qr_scan", "android": "https://dc.lft.to/lastmile_qr_scan"}, "type": "electric_scooter", "name": "50e303c94777121f95f6794f44e3886e", "is_reserved": 0, "lon": -76.96542466666666, "is_disabled": 0, "fusion_lat": 0.0, "lat": 38.87890433333333, "bike_id": "50e303c94777121f95f6794f44e3886e", "fusion_lon": 0.0}, {"rental_uris": {"ios": "https://dc.lft.to/lastmile_qr_scan", "android": "https://dc.lft.to/lastmile_qr_scan"}, "type": "electric_scooter", "name": "ecd0fa68be6e14d3583b769c90d6e5a5", "is_reserved": 0, "lon": -77.04642133333333, "is_disabled": 0, "fusion_lat": 0.0, "lat": 38.9104135, "bike_id": "ecd0fa68be6e14d3583b769c90d6e5a5", "fusion_lon": 0.0}, {"rental_uris": {"ios": "https://dc.lft.to/lastmile_qr_scan", "android": "https://dc.lft.to/lastmile_qr_scan"}, "type": "electric_bike", "name": "23dacfa864572bec64857ab3fd675f65", "is_reserved": 0, "lon": -77.08362883333334, "is_disabled": 0, "fusion_lat": 0.0, "lat": 38.85415316666667, "bike_id": "23dacfa864572bec64857ab3fd675f65", "fusion_lon": 0.0}, {"rental_uris": {"ios": "https://dc.lft.to/lastmile_qr_scan", "android": "https://dc.lft.to/lastmile_qr_scan"}, "type": "electric_scooter", "name": "d63dfed707e2f09ea42b80d476384f05", "is_reserved": 0, "lon": -77.01607233333333, "is_disabled": 0, "fusion_lat": 0.0, "lat": 38.901186, "bike_id": "d63dfed707e2f09ea42b80d476384f05", "fusion_lon": 0.0}, {"rental_uris": {"ios": "https://dc.lft.to/lastmile_qr_scan", "android": "https://dc.lft.to/lastmile_qr_scan"}, "type": "electric_scooter", "name": "b552cb11cd72cc081e394ef32aacfc6a", "is_reserved": 0, "lon": -77.0241025, "is_disabled": 0, "fusion_lat": 0.0, "lat": 38.89238266666667, "bike_id": "b552cb11cd72cc081e394ef32aacfc6a", "fusion_lon": 0.0}, {"rental_uris": {"ios": "https://dc.lft.to/lastmile_qr_scan", "android": "https://dc.lft.to/lastmile_qr_scan"}, "type": "electric_scooter", "name": "5044d4b8d9a28053e086f8ce1b14b6b1", "is_reserved": 0, "lon": -76.9973685, "is_disabled": 0, "fusion_lat": 0.0, "lat": 38.92042083333333, "bike_id": "5044d4b8d9a28053e086f8ce1b14b6b1", "fusion_lon": 0.0}, {"rental_uris": {"ios": "https://dc.lft.to/lastmile_qr_scan", "android": "https://dc.lft.to/lastmile_qr_scan"}, "type": "electric_scooter", "name": "433c94270985719da90c1bab3246ce40", "is_reserved": 0, "lon": -77.02150683333333, "is_disabled": 0, "fusion_lat": 0.0, "lat": 38.9029515, "bike_id": "433c94270985719da90c1bab3246ce40", "fusion_lon": 0.0}, {"rental_uris": {"ios": "https://dc.lft.to/lastmile_qr_scan", "android": "https://dc.lft.to/lastmile_qr_scan"}, "type": "electric_scooter", "name": "61d570e70acbb0060145574b6219644d", "is_reserved": 0, "lon": -77.00048016666666, "is_disabled": 0, "fusion_lat": 0.0, "lat": 38.876087166666665, "bike_id": "61d570e70acbb0060145574b6219644d", "fusion_lon": 0.0}, {"rental_uris": {"ios": "https://dc.lft.to/lastmile_qr_scan", "android": "https://dc.lft.to/lastmile_qr_scan"}, "type": "electric_scooter", "name": "4d7398c81ad9530d893664176289c196", "is_reserved": 0, "lon": -77.04327683333334, "is_disabled": 0, "fusion_lat": 0.0, "lat": 38.90873033333333, "bike_id": "4d7398c81ad9530d893664176289c196", "fusion_lon": 0.0}, {"rental_uris": {"ios": "https://dc.lft.to/lastmile_qr_scan", "android": "https://dc.lft.to/lastmile_qr_scan"}, "type": "electric_scooter", "name": "e4dd5471e754e3cf71c4a9abb328df0e", "is_reserved": 0, "lon": -77.04226516666667, "is_disabled": 0, "fusion_lat": 0.0, "lat": 38.907122666666666, "bike_id": "e4dd5471e754e3cf71c4a9abb328df0e", "fusion_lon": 0.0}, {"rental_uris": {"ios": "https://dc.lft.to/lastmile_qr_scan", "android": "https://dc.lft.to/lastmile_qr_scan"}, "type": "electric_scooter", "name": "73eda6b8e36c7fca8aefa099cf271f72", "is_reserved": 0, "lon": -76.97146933333333, "is_disabled": 0, "fusion_lat": 0.0, "lat": 38.91618016666666, "bike_id": "73eda6b8e36c7fca8aefa099cf271f72", "fusion_lon": 0.0}, {"rental_uris": {"ios": "https://dc.lft.to/lastmile_qr_scan", "android": "https://dc.lft.to/lastmile_qr_scan"}, "type": "electric_scooter", "name": "7f3aa9ed3238b04089292944237166a8", "is_reserved": 0, "lon": -77.01263116666667, "is_disabled": 0, "fusion_lat": 0.0, "lat": 38.89728483333333, "bike_id": "7f3aa9ed3238b04089292944237166a8", "fusion_lon": 0.0}, {"rental_uris": {"ios": "https://dc.lft.to/lastmile_qr_scan", "android": "https://dc.lft.to/lastmile_qr_scan"}, "type": "electric_scooter", "name": "c9b136f2cbf6e794cb64b033660f6cf9", "is_reserved": 0, "lon": -77.02985733333334, "is_disabled": 0, "fusion_lat": 0.0, "lat": 38.91559383333333, "bike_id": "c9b136f2cbf6e794cb64b033660f6cf9", "fusion_lon": 0.0}, {"rental_uris": {"ios": "https://dc.lft.to/lastmile_qr_scan", "android": "https://dc.lft.to/lastmile_qr_scan"}, "type": "electric_scooter", "name": "38af6b946e40107bc52f02fe62a6daee", "is_reserved": 0, "lon": -77.04994883333333, "is_disabled": 0, "fusion_lat": 0.0, "lat": 38.90786833333333, "bike_id": "38af6b946e40107bc52f02fe62a6daee", "fusion_lon": 0.0}, {"rental_uris": {"ios": "https://dc.lft.to/lastmile_qr_scan", "android": "https://dc.lft.to/lastmile_qr_scan"}, "type": "electric_scooter", "name": "827004c6f88cc6107219ca4569ca2dc6", "is_reserved": 0, "lon": -77.0217425, "is_disabled": 0, "fusion_lat": 0.0, "lat": 38.88723516666667, "bike_id": "827004c6f88cc6107219ca4569ca2dc6", "fusion_lon": 0.0}, {"rental_uris": {"ios": "https://dc.lft.to/lastmile_qr_scan", "android": "https://dc.lft.to/lastmile_qr_scan"}, "type": "electric_scooter", "name": "0df791e7463de9d903898b0c725b7d25", "is_reserved": 0, "lon": -77.04257416666667, "is_disabled": 0, "fusion_lat": 0.0, "lat": 38.922317666666665, "bike_id": "0df791e7463de9d903898b0c725b7d25", "fusion_lon": 0.0}, {"rental_uris": {"ios": "https://dc.lft.to/lastmile_qr_scan", "android": "https://dc.lft.to/lastmile_qr_scan"}, "type": "electric_scooter", "name": "9483f2be60d02efbb6d04bd4c96e1c7b", "is_reserved": 0, "lon": -76.99607683333333, "is_disabled": 0, "fusion_lat": 0.0, "lat": 38.90914733333334, "bike_id": "9483f2be60d02efbb6d04bd4c96e1c7b", "fusion_lon": 0.0}, {"rental_uris": {"ios": "https://dc.lft.to/lastmile_qr_scan", "android": "https://dc.lft.to/lastmile_qr_scan"}, "type": "electric_bike", "name": "125e52dd8c934fa7e425f0fbf52517d5", "is_reserved": 0, "lon": -77.12648466666667, "is_disabled": 0, "fusion_lat": 0.0, "lat": 38.81904333333333, "bike_id": "125e52dd8c934fa7e425f0fbf52517d5", "fusion_lon": 0.0}, {"rental_uris": {"ios": "https://dc.lft.to/lastmile_qr_scan", "android": "https://dc.lft.to/lastmile_qr_scan"}, "type": "electric_scooter", "name": "d68bebd1d6801efbf574c9dc94deb0a6", "is_reserved": 0, "lon": -77.06399233333333, "is_disabled": 0, "fusion_lat": 0.0, "lat": 38.9085065, "bike_id": "d68bebd1d6801efbf574c9dc94deb0a6", "fusion_lon": 0.0}, {"rental_uris": {"ios": "https://dc.lft.to/lastmile_qr_scan", "android": "https://dc.lft.to/lastmile_qr_scan"}, "type": "electric_scooter", "name": "f26eb1a8c8d63dc3a15d5029c8911fd4", "is_reserved": 0, "lon": -77.03831933333333, "is_disabled": 0, "fusion_lat": 0.0, "lat": 38.911818833333335, "bike_id": "f26eb1a8c8d63dc3a15d5029c8911fd4", "fusion_lon": 0.0}, {"rental_uris": {"ios": "https://dc.lft.to/lastmile_qr_scan", "android": "https://dc.lft.to/lastmile_qr_scan"}, "type": "electric_scooter", "name": "63a9cf3ea2f6658d6ed1d872a7358a48", "is_reserved": 0, "lon": -77.046326, "is_disabled": 0, "fusion_lat": 0.0, "lat": 38.897364833333334, "bike_id": "63a9cf3ea2f6658d6ed1d872a7358a48", "fusion_lon": 0.0}, {"rental_uris": {"ios": "https://dc.lft.to/lastmile_qr_scan", "android": "https://dc.lft.to/lastmile_qr_scan"}, "type": "electric_scooter", "name": "42988306dba5fbfd059f4e7e2e1cad63", "is_reserved": 0, "lon": -77.0343625, "is_disabled": 0, "fusion_lat": 0.0, "lat": 38.909748, "bike_id": "42988306dba5fbfd059f4e7e2e1cad63", "fusion_lon": 0.0}, {"rental_uris": {"ios": "https://dc.lft.to/lastmile_qr_scan", "android": "https://dc.lft.to/lastmile_qr_scan"}, "type": "electric_scooter", "name": "8fde60420e27c37431b778b0999169cb", "is_reserved": 0, "lon": -77.038033, "is_disabled": 0, "fusion_lat": 0.0, "lat": 38.93223016666666, "bike_id": "8fde60420e27c37431b778b0999169cb", "fusion_lon": 0.0}, {"rental_uris": {"ios": "https://dc.lft.to/lastmile_qr_scan", "android": "https://dc.lft.to/lastmile_qr_scan"}, "type": "electric_scooter", "name": "2024595d7c042c5c6bafbecefd793122", "is_reserved": 0, "lon": -77.03866633333334, "is_disabled": 0, "fusion_lat": 0.0, "lat": 38.911099, "bike_id": "2024595d7c042c5c6bafbecefd793122", "fusion_lon": 0.0}, {"rental_uris": {"ios": "https://dc.lft.to/lastmile_qr_scan", "android": "https://dc.lft.to/lastmile_qr_scan"}, "type": "electric_scooter", "name": "c253233b1f57ccb7312ee186558dfa70", "is_reserved": 0, "lon": -77.04657916666666, "is_disabled": 0, "fusion_lat": 0.0, "lat": 38.9075425, "bike_id": "c253233b1f57ccb7312ee186558dfa70", "fusion_lon": 0.0}, {"rental_uris": {"ios": "https://dc.lft.to/lastmile_qr_scan", "android": "https://dc.lft.to/lastmile_qr_scan"}, "type": "electric_scooter", "name": "5b8407df17f4feb1b6f5c070d231a3fa", "is_reserved": 0, "lon": -77.01372916666666, "is_disabled": 0, "fusion_lat": 0.0, "lat": 38.894795333333334, "bike_id": "5b8407df17f4feb1b6f5c070d231a3fa", "fusion_lon": 0.0}, {"rental_uris": {"ios": "https://dc.lft.to/lastmile_qr_scan", "android": "https://dc.lft.to/lastmile_qr_scan"}, "type": "electric_scooter", "name": "6559fe54fe8240196a14ec7bb5c74f1b", "is_reserved": 0, "lon": -76.92828633333333, "is_disabled": 0, "fusion_lat": 0.0, "lat": 38.90183, "bike_id": "6559fe54fe8240196a14ec7bb5c74f1b", "fusion_lon": 0.0}, {"rental_uris": {"ios": "https://dc.lft.to/lastmile_qr_scan", "android": "https://dc.lft.to/lastmile_qr_scan"}, "type": "electric_scooter", "name": "bed840550ae0ad96f0cb429f499895f1", "is_reserved": 0, "lon": -77.06373166666667, "is_disabled": 0, "fusion_lat": 0.0, "lat": 38.93560033333333, "bike_id": "bed840550ae0ad96f0cb429f499895f1", "fusion_lon": 0.0}, {"rental_uris": {"ios": "https://dc.lft.to/lastmile_qr_scan", "android": "https://dc.lft.to/lastmile_qr_scan"}, "type": "electric_scooter", "name": "1b17dad39f01c4c948aa2bb7898c873c", "is_reserved": 0, "lon": -77.04522033333333, "is_disabled": 0, "fusion_lat": 0.0, "lat": 38.91593366666667, "bike_id": "1b17dad39f01c4c948aa2bb7898c873c", "fusion_lon": 0.0}, {"rental_uris": {"ios": "https://dc.lft.to/lastmile_qr_scan", "android": "https://dc.lft.to/lastmile_qr_scan"}, "type": "electric_bike", "name": "f07751d963d448a8d314290a63cc3d3b", "is_reserved": 0, "lon": -76.95249783333334, "is_disabled": 0, "fusion_lat": 0.0, "lat": 38.906949, "bike_id": "f07751d963d448a8d314290a63cc3d3b", "fusion_lon": 0.0}, {"rental_uris": {"ios": "https://dc.lft.to/lastmile_qr_scan", "android": "https://dc.lft.to/lastmile_qr_scan"}, "type": "electric_scooter", "name": "9bd57ac12ee5d430337f9d766352bf07", "is_reserved": 0, "lon": -76.9470395, "is_disabled": 0, "fusion_lat": 0.0, "lat": 38.89299616666667, "bike_id": "9bd57ac12ee5d430337f9d766352bf07", "fusion_lon": 0.0}, {"rental_uris": {"ios": "https://dc.lft.to/lastmile_qr_scan", "android": "https://dc.lft.to/lastmile_qr_scan"}, "type": "electric_scooter", "name": "353044f5d2cf9421ab6e23de06014f8a", "is_reserved": 0, "lon": -77.02483483333333, "is_disabled": 0, "fusion_lat": 0.0, "lat": 38.9180175, "bike_id": "353044f5d2cf9421ab6e23de06014f8a", "fusion_lon": 0.0}, {"rental_uris": {"ios": "https://dc.lft.to/lastmile_qr_scan", "android": "https://dc.lft.to/lastmile_qr_scan"}, "type": "electric_scooter", "name": "06c7222dd7729ea5b2234983484664cd", "is_reserved": 0, "lon": -77.01833766666667, "is_disabled": 0, "fusion_lat": 0.0, "lat": 38.90521066666667, "bike_id": "06c7222dd7729ea5b2234983484664cd", "fusion_lon": 0.0}, {"rental_uris": {"ios": "https://dc.lft.to/lastmile_qr_scan", "android": "https://dc.lft.to/lastmile_qr_scan"}, "type": "electric_scooter", "name": "c8a30b6b8f35fc88673f38aef7dd8ef9", "is_reserved": 0, "lon": -76.994227, "is_disabled": 0, "fusion_lat": 0.0, "lat": 38.916879333333334, "bike_id": "c8a30b6b8f35fc88673f38aef7dd8ef9", "fusion_lon": 0.0}, {"rental_uris": {"ios": "https://dc.lft.to/lastmile_qr_scan", "android": "https://dc.lft.to/lastmile_qr_scan"}, "type": "electric_scooter", "name": "7cbbaaa368010056121fb62e2100ef8e", "is_reserved": 0, "lon": -77.04733083333333, "is_disabled": 0, "fusion_lat": 0.0, "lat": 38.89552916666667, "bike_id": "7cbbaaa368010056121fb62e2100ef8e", "fusion_lon": 0.0}, {"rental_uris": {"ios": "https://dc.lft.to/lastmile_qr_scan", "android": "https://dc.lft.to/lastmile_qr_scan"}, "type": "electric_scooter", "name": "f29326becf3f0c793e3d976d845644dd", "is_reserved": 0, "lon": -77.038226, "is_disabled": 0, "fusion_lat": 0.0, "lat": 38.962618166666665, "bike_id": "f29326becf3f0c793e3d976d845644dd", "fusion_lon": 0.0}, {"rental_uris": {"ios": "https://dc.lft.to/lastmile_qr_scan", "android": "https://dc.lft.to/lastmile_qr_scan"}, "type": "electric_scooter", "name": "5636b224eb7c8d46cf496de1726583fa", "is_reserved": 0, "lon": -77.03825483333334, "is_disabled": 0, "fusion_lat": 0.0, "lat": 38.9626915, "bike_id": "5636b224eb7c8d46cf496de1726583fa", "fusion_lon": 0.0}, {"rental_uris": {"ios": "https://dc.lft.to/lastmile_qr_scan", "android": "https://dc.lft.to/lastmile_qr_scan"}, "type": "electric_scooter", "name": "f4776ecb1562749e6edb6d621a0b7c1b", "is_reserved": 0, "lon": -77.03956833333334, "is_disabled": 0, "fusion_lat": 0.0, "lat": 38.9011495, "bike_id": "f4776ecb1562749e6edb6d621a0b7c1b", "fusion_lon": 0.0}, {"rental_uris": {"ios": "https://dc.lft.to/lastmile_qr_scan", "android": "https://dc.lft.to/lastmile_qr_scan"}, "type": "electric_scooter", "name": "172d6c7fffc0e68e8d911d9b566fb0a9", "is_reserved": 0, "lon": -77.04999516666666, "is_disabled": 0, "fusion_lat": 0.0, "lat": 38.892314166666665, "bike_id": "172d6c7fffc0e68e8d911d9b566fb0a9", "fusion_lon": 0.0}, {"rental_uris": {"ios": "https://dc.lft.to/lastmile_qr_scan", "android": "https://dc.lft.to/lastmile_qr_scan"}, "type": "electric_scooter", "name": "bc8460d9720ca6fe7d9b4eeacef4b5fa", "is_reserved": 0, "lon": -77.07013916666666, "is_disabled": 0, "fusion_lat": 0.0, "lat": 38.89366283333333, "bike_id": "bc8460d9720ca6fe7d9b4eeacef4b5fa", "fusion_lon": 0.0}, {"rental_uris": {"ios": "https://dc.lft.to/lastmile_qr_scan", "android": "https://dc.lft.to/lastmile_qr_scan"}, "type": "electric_scooter", "name": "22d5da2371e2e47227b40317ef2fab5b", "is_reserved": 0, "lon": -77.0004415, "is_disabled": 0, "fusion_lat": 0.0, "lat": 38.90679166666666, "bike_id": "22d5da2371e2e47227b40317ef2fab5b", "fusion_lon": 0.0}, {"rental_uris": {"ios": "https://dc.lft.to/lastmile_qr_scan", "android": "https://dc.lft.to/lastmile_qr_scan"}, "type": "electric_scooter", "name": "00f3ef9ad1e4d68b1549be916a3356d7", "is_reserved": 0, "lon": -77.01314483333333, "is_disabled": 0, "fusion_lat": 0.0, "lat": 38.920237, "bike_id": "00f3ef9ad1e4d68b1549be916a3356d7", "fusion_lon": 0.0}, {"rental_uris": {"ios": "https://dc.lft.to/lastmile_qr_scan", "android": "https://dc.lft.to/lastmile_qr_scan"}, "type": "electric_scooter", "name": "b77da542fcae963266eb1aaf06ddd90f", "is_reserved": 0, "lon": -76.99942516666667, "is_disabled": 0, "fusion_lat": 0.0, "lat": 38.900521166666664, "bike_id": "b77da542fcae963266eb1aaf06ddd90f", "fusion_lon": 0.0}, {"rental_uris": {"ios": "https://dc.lft.to/lastmile_qr_scan", "android": "https://dc.lft.to/lastmile_qr_scan"}, "type": "electric_scooter", "name": "339e0127bba260cc3e2d78c6f73438af", "is_reserved": 0, "lon": -76.99550883333333, "is_disabled": 0, "fusion_lat": 0.0, "lat": 38.862339666666664, "bike_id": "339e0127bba260cc3e2d78c6f73438af", "fusion_lon": 0.0}, {"rental_uris": {"ios": "https://dc.lft.to/lastmile_qr_scan", "android": "https://dc.lft.to/lastmile_qr_scan"}, "type": "electric_scooter", "name": "1dd1b890d14c1d9214a42d7cc58852a7", "is_reserved": 0, "lon": -76.99919116666666, "is_disabled": 0, "fusion_lat": 0.0, "lat": 38.900604666666666, "bike_id": "1dd1b890d14c1d9214a42d7cc58852a7", "fusion_lon": 0.0}, {"rental_uris": {"ios": "https://dc.lft.to/lastmile_qr_scan", "android": "https://dc.lft.to/lastmile_qr_scan"}, "type": "electric_bike", "name": "94972921a6ace2425c07752bfe401066", "is_reserved": 0, "lon": -76.94151683333334, "is_disabled": 0, "fusion_lat": 0.0, "lat": 38.89019916666667, "bike_id": "94972921a6ace2425c07752bfe401066", "fusion_lon": 0.0}, {"rental_uris": {"ios": "https://dc.lft.to/lastmile_qr_scan", "android": "https://dc.lft.to/lastmile_qr_scan"}, "type": "electric_bike", "name": "1179ef7169afba5a1cb0f1e2dd6dc9dd", "is_reserved": 0, "lon": -77.12934566666667, "is_disabled": 0, "fusion_lat": 0.0, "lat": 38.866000666666665, "bike_id": "1179ef7169afba5a1cb0f1e2dd6dc9dd", "fusion_lon": 0.0}, {"rental_uris": {"ios": "https://dc.lft.to/lastmile_qr_scan", "android": "https://dc.lft.to/lastmile_qr_scan"}, "type": "electric_scooter", "name": "9f71da0d84f43bfd8ab84ad0745c5551", "is_reserved": 0, "lon": -76.987371, "is_disabled": 0, "fusion_lat": 0.0, "lat": 38.878295333333334, "bike_id": "9f71da0d84f43bfd8ab84ad0745c5551", "fusion_lon": 0.0}, {"rental_uris": {"ios": "https://dc.lft.to/lastmile_qr_scan", "android": "https://dc.lft.to/lastmile_qr_scan"}, "type": "electric_bike", "name": "46f393c00e62117f1cd1bccb044d43fe", "is_reserved": 0, "lon": -76.94535116666667, "is_disabled": 0, "fusion_lat": 0.0, "lat": 38.8675505, "bike_id": "46f393c00e62117f1cd1bccb044d43fe", "fusion_lon": 0.0}, {"rental_uris": {"ios": "https://dc.lft.to/lastmile_qr_scan", "android": "https://dc.lft.to/lastmile_qr_scan"}, "type": "electric_scooter", "name": "c8d67207a17d585e9a66e9540eac1362", "is_reserved": 0, "lon": -77.0003715, "is_disabled": 0, "fusion_lat": 0.0, "lat": 38.874311166666665, "bike_id": "c8d67207a17d585e9a66e9540eac1362", "fusion_lon": 0.0}, {"rental_uris": {"ios": "https://dc.lft.to/lastmile_qr_scan", "android": "https://dc.lft.to/lastmile_qr_scan"}, "type": "electric_scooter", "name": "cbbb3f174188f879a87d92ced6f9ba55", "is_reserved": 0, "lon": -77.024816, "is_disabled": 0, "fusion_lat": 0.0, "lat": 38.93096333333333, "bike_id": "cbbb3f174188f879a87d92ced6f9ba55", "fusion_lon": 0.0}, {"rental_uris": {"ios": "https://dc.lft.to/lastmile_qr_scan", "android": "https://dc.lft.to/lastmile_qr_scan"}, "type": "electric_scooter", "name": "0a66faef7c714a2ce7a60ee177fc69d5", "is_reserved": 0, "lon": -77.04569983333333, "is_disabled": 0, "fusion_lat": 0.0, "lat": 38.909352, "bike_id": "0a66faef7c714a2ce7a60ee177fc69d5", "fusion_lon": 0.0}, {"rental_uris": {"ios": "https://dc.lft.to/lastmile_qr_scan", "android": "https://dc.lft.to/lastmile_qr_scan"}, "type": "electric_scooter", "name": "28f0a9439125b8eb4fc7f87ce9280047", "is_reserved": 0, "lon": -77.04612483333334, "is_disabled": 0, "fusion_lat": 0.0, "lat": 38.9001805, "bike_id": "28f0a9439125b8eb4fc7f87ce9280047", "fusion_lon": 0.0}, {"rental_uris": {"ios": "https://dc.lft.to/lastmile_qr_scan", "android": "https://dc.lft.to/lastmile_qr_scan"}, "type": "electric_bike", "name": "423c6b5e2139388ed40d7116f87470dc", "is_reserved": 0, "lon": -77.07162383333333, "is_disabled": 0, "fusion_lat": 0.0, "lat": 38.90787616666667, "bike_id": "423c6b5e2139388ed40d7116f87470dc", "fusion_lon": 0.0}, {"rental_uris": {"ios": "https://dc.lft.to/lastmile_qr_scan", "android": "https://dc.lft.to/lastmile_qr_scan"}, "type": "electric_scooter", "name": "64b7f718abe415e1ffbcbf0c2700a92b", "is_reserved": 0, "lon": -77.00526883333333, "is_disabled": 0, "fusion_lat": 0.0, "lat": 38.8851715, "bike_id": "64b7f718abe415e1ffbcbf0c2700a92b", "fusion_lon": 0.0}, {"rental_uris": {"ios": "https://dc.lft.to/lastmile_qr_scan", "android": "https://dc.lft.to/lastmile_qr_scan"}, "type": "electric_scooter", "name": "631f4f90b313b71342e9ebefef21969d", "is_reserved": 0, "lon": -77.04865566666666, "is_disabled": 0, "fusion_lat": 0.0, "lat": 38.89221916666666, "bike_id": "631f4f90b313b71342e9ebefef21969d", "fusion_lon": 0.0}, {"rental_uris": {"ios": "https://dc.lft.to/lastmile_qr_scan", "android": "https://dc.lft.to/lastmile_qr_scan"}, "type": "electric_scooter", "name": "ea27bf627fc2453b5331a2f926af674d", "is_reserved": 0, "lon": -77.01220566666667, "is_disabled": 0, "fusion_lat": 0.0, "lat": 38.920344666666665, "bike_id": "ea27bf627fc2453b5331a2f926af674d", "fusion_lon": 0.0}, {"rental_uris": {"ios": "https://dc.lft.to/lastmile_qr_scan", "android": "https://dc.lft.to/lastmile_qr_scan"}, "type": "electric_scooter", "name": "3fb5a83e56367b2c567f03f152dc0fe8", "is_reserved": 0, "lon": -77.05221266666666, "is_disabled": 0, "fusion_lat": 0.0, "lat": 38.924960666666664, "bike_id": "3fb5a83e56367b2c567f03f152dc0fe8", "fusion_lon": 0.0}, {"rental_uris": {"ios": "https://dc.lft.to/lastmile_qr_scan", "android": "https://dc.lft.to/lastmile_qr_scan"}, "type": "electric_bike", "name": "1ce35d05bb73d4c4db9424b732050ec1", "is_reserved": 0, "lon": -76.960925, "is_disabled": 0, "fusion_lat": 0.0, "lat": 38.949571166666665, "bike_id": "1ce35d05bb73d4c4db9424b732050ec1", "fusion_lon": 0.0}, {"rental_uris": {"ios": "https://dc.lft.to/lastmile_qr_scan", "android": "https://dc.lft.to/lastmile_qr_scan"}, "type": "electric_scooter", "name": "45f0546b545be2891d24148d886b63e2", "is_reserved": 0, "lon": -77.02381866666667, "is_disabled": 0, "fusion_lat": 0.0, "lat": 38.909599166666666, "bike_id": "45f0546b545be2891d24148d886b63e2", "fusion_lon": 0.0}, {"rental_uris": {"ios": "https://dc.lft.to/lastmile_qr_scan", "android": "https://dc.lft.to/lastmile_qr_scan"}, "type": "electric_scooter", "name": "1c57edc7e2e36c0b4ec915ff700d6e06", "is_reserved": 0, "lon": -77.01099816666667, "is_disabled": 0, "fusion_lat": 0.0, "lat": 38.885411833333336, "bike_id": "1c57edc7e2e36c0b4ec915ff700d6e06", "fusion_lon": 0.0}, {"rental_uris": {"ios": "https://dc.lft.to/lastmile_qr_scan", "android": "https://dc.lft.to/lastmile_qr_scan"}, "type": "electric_scooter", "name": "a3e4018d7e747210b93954c5cd7549bb", "is_reserved": 0, "lon": -77.0267955, "is_disabled": 0, "fusion_lat": 0.0, "lat": 38.8996795, "bike_id": "a3e4018d7e747210b93954c5cd7549bb", "fusion_lon": 0.0}, {"rental_uris": {"ios": "https://dc.lft.to/lastmile_qr_scan", "android": "https://dc.lft.to/lastmile_qr_scan"}, "type": "electric_scooter", "name": "e5bdf8aaeb3a6d15fe03329f1c4d6ec4", "is_reserved": 0, "lon": -77.04059466666666, "is_disabled": 0, "fusion_lat": 0.0, "lat": 38.91767933333333, "bike_id": "e5bdf8aaeb3a6d15fe03329f1c4d6ec4", "fusion_lon": 0.0}, {"rental_uris": {"ios": "https://dc.lft.to/lastmile_qr_scan", "android": "https://dc.lft.to/lastmile_qr_scan"}, "type": "electric_scooter", "name": "e6056c2df2729dc8ef7fb6ef47d2d1b2", "is_reserved": 0, "lon": -77.0358005, "is_disabled": 0, "fusion_lat": 0.0, "lat": 38.9061765, "bike_id": "e6056c2df2729dc8ef7fb6ef47d2d1b2", "fusion_lon": 0.0}, {"rental_uris": {"ios": "https://dc.lft.to/lastmile_qr_scan", "android": "https://dc.lft.to/lastmile_qr_scan"}, "type": "electric_scooter", "name": "f6a3100dd89c1e36e9281cf964237565", "is_reserved": 0, "lon": -77.03150516666666, "is_disabled": 0, "fusion_lat": 0.0, "lat": 38.92022, "bike_id": "f6a3100dd89c1e36e9281cf964237565", "fusion_lon": 0.0}, {"rental_uris": {"ios": "https://dc.lft.to/lastmile_qr_scan", "android": "https://dc.lft.to/lastmile_qr_scan"}, "type": "electric_scooter", "name": "23595bd4c69706360fa81ef81b8124a0", "is_reserved": 0, "lon": -77.02592183333333, "is_disabled": 0, "fusion_lat": 0.0, "lat": 38.880835166666664, "bike_id": "23595bd4c69706360fa81ef81b8124a0", "fusion_lon": 0.0}, {"rental_uris": {"ios": "https://dc.lft.to/lastmile_qr_scan", "android": "https://dc.lft.to/lastmile_qr_scan"}, "type": "electric_scooter", "name": "fda8384bce8a116ca86c4d187fcb0d39", "is_reserved": 0, "lon": -77.057779, "is_disabled": 0, "fusion_lat": 0.0, "lat": 38.905159833333336, "bike_id": "fda8384bce8a116ca86c4d187fcb0d39", "fusion_lon": 0.0}, {"rental_uris": {"ios": "https://dc.lft.to/lastmile_qr_scan", "android": "https://dc.lft.to/lastmile_qr_scan"}, "type": "electric_scooter", "name": "6195ba176a6d771ec1441b71b8075255", "is_reserved": 0, "lon": -77.044441, "is_disabled": 0, "fusion_lat": 0.0, "lat": 38.911164166666666, "bike_id": "6195ba176a6d771ec1441b71b8075255", "fusion_lon": 0.0}, {"rental_uris": {"ios": "https://dc.lft.to/lastmile_qr_scan", "android": "https://dc.lft.to/lastmile_qr_scan"}, "type": "electric_scooter", "name": "40a222b612bbff1d9e0dd0e9455be392", "is_reserved": 0, "lon": -77.01951, "is_disabled": 0, "fusion_lat": 0.0, "lat": 38.892804166666664, "bike_id": "40a222b612bbff1d9e0dd0e9455be392", "fusion_lon": 0.0}, {"rental_uris": {"ios": "https://dc.lft.to/lastmile_qr_scan", "android": "https://dc.lft.to/lastmile_qr_scan"}, "type": "electric_scooter", "name": "41b8e13c3c2d1cb134e172436e035d78", "is_reserved": 0, "lon": -77.02064133333333, "is_disabled": 0, "fusion_lat": 0.0, "lat": 38.897141, "bike_id": "41b8e13c3c2d1cb134e172436e035d78", "fusion_lon": 0.0}, {"rental_uris": {"ios": "https://dc.lft.to/lastmile_qr_scan", "android": "https://dc.lft.to/lastmile_qr_scan"}, "type": "electric_scooter", "name": "559ac2765fd5c5452f2aeca16abd65b6", "is_reserved": 0, "lon": -77.0240825, "is_disabled": 0, "fusion_lat": 0.0, "lat": 38.9451015, "bike_id": "559ac2765fd5c5452f2aeca16abd65b6", "fusion_lon": 0.0}, {"rental_uris": {"ios": "https://dc.lft.to/lastmile_qr_scan", "android": "https://dc.lft.to/lastmile_qr_scan"}, "type": "electric_bike", "name": "764f16d79ec5ba021b430b6d7c295756", "is_reserved": 0, "lon": -76.98057733333333, "is_disabled": 0, "fusion_lat": 0.0, "lat": 38.972539833333336, "bike_id": "764f16d79ec5ba021b430b6d7c295756", "fusion_lon": 0.0}, {"rental_uris": {"ios": "https://dc.lft.to/lastmile_qr_scan", "android": "https://dc.lft.to/lastmile_qr_scan"}, "type": "electric_scooter", "name": "df11f41d658185871edc97620417c93c", "is_reserved": 0, "lon": -77.03971933333334, "is_disabled": 0, "fusion_lat": 0.0, "lat": 38.9012585, "bike_id": "df11f41d658185871edc97620417c93c", "fusion_lon": 0.0}, {"rental_uris": {"ios": "https://dc.lft.to/lastmile_qr_scan", "android": "https://dc.lft.to/lastmile_qr_scan"}, "type": "electric_scooter", "name": "8fc206c327d2cd861ec10ddba9097a80", "is_reserved": 0, "lon": -77.043569, "is_disabled": 0, "fusion_lat": 0.0, "lat": 38.9157355, "bike_id": "8fc206c327d2cd861ec10ddba9097a80", "fusion_lon": 0.0}, {"rental_uris": {"ios": "https://dc.lft.to/lastmile_qr_scan", "android": "https://dc.lft.to/lastmile_qr_scan"}, "type": "electric_bike", "name": "63a9a77ed6bd92f370b4d062c0399e41", "is_reserved": 0, "lon": -77.00390383333334, "is_disabled": 0, "fusion_lat": 0.0, "lat": 38.92113666666667, "bike_id": "63a9a77ed6bd92f370b4d062c0399e41", "fusion_lon": 0.0}, {"rental_uris": {"ios": "https://dc.lft.to/lastmile_qr_scan", "android": "https://dc.lft.to/lastmile_qr_scan"}, "type": "electric_scooter", "name": "ac47c47b9a631d5033d2f0429746d21b", "is_reserved": 0, "lon": -77.037859, "is_disabled": 0, "fusion_lat": 0.0, "lat": 38.931110333333336, "bike_id": "ac47c47b9a631d5033d2f0429746d21b", "fusion_lon": 0.0}, {"rental_uris": {"ios": "https://dc.lft.to/lastmile_qr_scan", "android": "https://dc.lft.to/lastmile_qr_scan"}, "type": "electric_bike", "name": "0321fcc1a86162c32e95084771a3c295", "is_reserved": 0, "lon": -76.94552783333333, "is_disabled": 0, "fusion_lat": 0.0, "lat": 38.982932166666664, "bike_id": "0321fcc1a86162c32e95084771a3c295", "fusion_lon": 0.0}, {"rental_uris": {"ios": "https://dc.lft.to/lastmile_qr_scan", "android": "https://dc.lft.to/lastmile_qr_scan"}, "type": "electric_bike", "name": "f964232abf6a75776c252a1f2b94a6e8", "is_reserved": 0, "lon": -77.073645, "is_disabled": 0, "fusion_lat": 0.0, "lat": 38.96157733333333, "bike_id": "f964232abf6a75776c252a1f2b94a6e8", "fusion_lon": 0.0}, {"rental_uris": {"ios": "https://dc.lft.to/lastmile_qr_scan", "android": "https://dc.lft.to/lastmile_qr_scan"}, "type": "electric_scooter", "name": "3ec36477fa8054fb5acd4f4c0c43f8db", "is_reserved": 0, "lon": -77.08400633333333, "is_disabled": 0, "fusion_lat": 0.0, "lat": 38.907896666666666, "bike_id": "3ec36477fa8054fb5acd4f4c0c43f8db", "fusion_lon": 0.0}, {"rental_uris": {"ios": "https://dc.lft.to/lastmile_qr_scan", "android": "https://dc.lft.to/lastmile_qr_scan"}, "type": "electric_scooter", "name": "a0963291af5cfde192f194aed3ed416c", "is_reserved": 0, "lon": -77.00348283333334, "is_disabled": 0, "fusion_lat": 0.0, "lat": 38.876920166666665, "bike_id": "a0963291af5cfde192f194aed3ed416c", "fusion_lon": 0.0}, {"rental_uris": {"ios": "https://dc.lft.to/lastmile_qr_scan", "android": "https://dc.lft.to/lastmile_qr_scan"}, "type": "electric_bike", "name": "2e0e870cf7721b5ce5cff4367b6e56f4", "is_reserved": 0, "lon": -77.07522116666667, "is_disabled": 0, "fusion_lat": 0.0, "lat": 38.8428415, "bike_id": "2e0e870cf7721b5ce5cff4367b6e56f4", "fusion_lon": 0.0}, {"rental_uris": {"ios": "https://dc.lft.to/lastmile_qr_scan", "android": "https://dc.lft.to/lastmile_qr_scan"}, "type": "electric_scooter", "name": "f63201c581802fcc44ef30592148e313", "is_reserved": 0, "lon": -77.0144215, "is_disabled": 0, "fusion_lat": 0.0, "lat": 38.91110833333333, "bike_id": "f63201c581802fcc44ef30592148e313", "fusion_lon": 0.0}, {"rental_uris": {"ios": "https://dc.lft.to/lastmile_qr_scan", "android": "https://dc.lft.to/lastmile_qr_scan"}, "type": "electric_bike", "name": "90ecf588f126dff550fa5ec4227d424b", "is_reserved": 0, "lon": -76.95245233333333, "is_disabled": 0, "fusion_lat": 0.0, "lat": 38.884622666666665, "bike_id": "90ecf588f126dff550fa5ec4227d424b", "fusion_lon": 0.0}, {"rental_uris": {"ios": "https://dc.lft.to/lastmile_qr_scan", "android": "https://dc.lft.to/lastmile_qr_scan"}, "type": "electric_scooter", "name": "91bff8fe1c9d94bbb8fb137c990135f3", "is_reserved": 0, "lon": -77.03223816666667, "is_disabled": 0, "fusion_lat": 0.0, "lat": 38.896244, "bike_id": "91bff8fe1c9d94bbb8fb137c990135f3", "fusion_lon": 0.0}, {"rental_uris": {"ios": "https://dc.lft.to/lastmile_qr_scan", "android": "https://dc.lft.to/lastmile_qr_scan"}, "type": "electric_scooter", "name": "6fa1ddec9a1dc095c86989c9f55f1dff", "is_reserved": 0, "lon": -77.01207933333333, "is_disabled": 0, "fusion_lat": 0.0, "lat": 38.87171566666667, "bike_id": "6fa1ddec9a1dc095c86989c9f55f1dff", "fusion_lon": 0.0}, {"rental_uris": {"ios": "https://dc.lft.to/lastmile_qr_scan", "android": "https://dc.lft.to/lastmile_qr_scan"}, "type": "electric_bike", "name": "7c9bda89414aa6c336d014804ce484a8", "is_reserved": 0, "lon": -76.9795765, "is_disabled": 0, "fusion_lat": 0.0, "lat": 38.9203595, "bike_id": "7c9bda89414aa6c336d014804ce484a8", "fusion_lon": 0.0}, {"rental_uris": {"ios": "https://dc.lft.to/lastmile_qr_scan", "android": "https://dc.lft.to/lastmile_qr_scan"}, "type": "electric_bike", "name": "a0001029f285ece256bdde56f4659b8b", "is_reserved": 0, "lon": -76.98353933333334, "is_disabled": 0, "fusion_lat": 0.0, "lat": 38.86264883333333, "bike_id": "a0001029f285ece256bdde56f4659b8b", "fusion_lon": 0.0}, {"rental_uris": {"ios": "https://dc.lft.to/lastmile_qr_scan", "android": "https://dc.lft.to/lastmile_qr_scan"}, "type": "electric_bike", "name": "cd674d54ada3b1a382bb2fb64ea51c4a", "is_reserved": 0, "lon": -76.928904, "is_disabled": 0, "fusion_lat": 0.0, "lat": 38.978279, "bike_id": "cd674d54ada3b1a382bb2fb64ea51c4a", "fusion_lon": 0.0}, {"rental_uris": {"ios": "https://dc.lft.to/lastmile_qr_scan", "android": "https://dc.lft.to/lastmile_qr_scan"}, "type": "electric_scooter", "name": "7b0b8c53e74e5e8901761ea5ad1bf677", "is_reserved": 0, "lon": -77.0465625, "is_disabled": 0, "fusion_lat": 0.0, "lat": 38.9097125, "bike_id": "7b0b8c53e74e5e8901761ea5ad1bf677", "fusion_lon": 0.0}, {"rental_uris": {"ios": "https://dc.lft.to/lastmile_qr_scan", "android": "https://dc.lft.to/lastmile_qr_scan"}, "type": "electric_scooter", "name": "38cd33de5f84ea362c50c7bfe6b4e139", "is_reserved": 0, "lon": -77.02208533333334, "is_disabled": 0, "fusion_lat": 0.0, "lat": 38.9101035, "bike_id": "38cd33de5f84ea362c50c7bfe6b4e139", "fusion_lon": 0.0}, {"rental_uris": {"ios": "https://dc.lft.to/lastmile_qr_scan", "android": "https://dc.lft.to/lastmile_qr_scan"}, "type": "electric_scooter", "name": "ce67a0ac24b59d654537a1aa699977db", "is_reserved": 0, "lon": -77.04881483333334, "is_disabled": 0, "fusion_lat": 0.0, "lat": 38.900678, "bike_id": "ce67a0ac24b59d654537a1aa699977db", "fusion_lon": 0.0}, {"rental_uris": {"ios": "https://dc.lft.to/lastmile_qr_scan", "android": "https://dc.lft.to/lastmile_qr_scan"}, "type": "electric_scooter", "name": "d2df30cdf55e12d05e1a54058e4a09d5", "is_reserved": 0, "lon": -77.02770833333334, "is_disabled": 0, "fusion_lat": 0.0, "lat": 38.91697416666667, "bike_id": "d2df30cdf55e12d05e1a54058e4a09d5", "fusion_lon": 0.0}, {"rental_uris": {"ios": "https://dc.lft.to/lastmile_qr_scan", "android": "https://dc.lft.to/lastmile_qr_scan"}, "type": "electric_scooter", "name": "bbeb4da40bf7357d6fd661ca271e3962", "is_reserved": 0, "lon": -77.02352583333334, "is_disabled": 0, "fusion_lat": 0.0, "lat": 38.931785, "bike_id": "bbeb4da40bf7357d6fd661ca271e3962", "fusion_lon": 0.0}, {"rental_uris": {"ios": "https://dc.lft.to/lastmile_qr_scan", "android": "https://dc.lft.to/lastmile_qr_scan"}, "type": "electric_scooter", "name": "d28a24777c1b7425dc8b8b9f145139fc", "is_reserved": 0, "lon": -77.028021, "is_disabled": 0, "fusion_lat": 0.0, "lat": 38.907307833333334, "bike_id": "d28a24777c1b7425dc8b8b9f145139fc", "fusion_lon": 0.0}, {"rental_uris": {"ios": "https://dc.lft.to/lastmile_qr_scan", "android": "https://dc.lft.to/lastmile_qr_scan"}, "type": "electric_scooter", "name": "e28dafadbf7ec63db389dc5d787b7158", "is_reserved": 0, "lon": -77.024202, "is_disabled": 0, "fusion_lat": 0.0, "lat": 38.90299733333333, "bike_id": "e28dafadbf7ec63db389dc5d787b7158", "fusion_lon": 0.0}, {"rental_uris": {"ios": "https://dc.lft.to/lastmile_qr_scan", "android": "https://dc.lft.to/lastmile_qr_scan"}, "type": "electric_scooter", "name": "b19befb1ed121ca95cd7bb6b6f03d2b2", "is_reserved": 0, "lon": -76.98580733333333, "is_disabled": 0, "fusion_lat": 0.0, "lat": 38.8618255, "bike_id": "b19befb1ed121ca95cd7bb6b6f03d2b2", "fusion_lon": 0.0}, {"rental_uris": {"ios": "https://dc.lft.to/lastmile_qr_scan", "android": "https://dc.lft.to/lastmile_qr_scan"}, "type": "electric_bike", "name": "2cb67671f76615f926730bfd40314c6b", "is_reserved": 0, "lon": -76.95708583333334, "is_disabled": 0, "fusion_lat": 0.0, "lat": 38.850817666666664, "bike_id": "2cb67671f76615f926730bfd40314c6b", "fusion_lon": 0.0}, {"rental_uris": {"ios": "https://dc.lft.to/lastmile_qr_scan", "android": "https://dc.lft.to/lastmile_qr_scan"}, "type": "electric_bike", "name": "c51ff4bf7f14ad54a0a24215fb241d82", "is_reserved": 0, "lon": -77.09010883333333, "is_disabled": 0, "fusion_lat": 0.0, "lat": 38.92643666666667, "bike_id": "c51ff4bf7f14ad54a0a24215fb241d82", "fusion_lon": 0.0}, {"rental_uris": {"ios": "https://dc.lft.to/lastmile_qr_scan", "android": "https://dc.lft.to/lastmile_qr_scan"}, "type": "electric_scooter", "name": "a8666eb5c13a875a319a6dd842360ead", "is_reserved": 0, "lon": -77.02665466666667, "is_disabled": 0, "fusion_lat": 0.0, "lat": 38.88477266666666, "bike_id": "a8666eb5c13a875a319a6dd842360ead", "fusion_lon": 0.0}, {"rental_uris": {"ios": "https://dc.lft.to/lastmile_qr_scan", "android": "https://dc.lft.to/lastmile_qr_scan"}, "type": "electric_scooter", "name": "a11ada5b7e8ec392c27be0d4ec830dff", "is_reserved": 0, "lon": -77.00757166666666, "is_disabled": 0, "fusion_lat": 0.0, "lat": 38.925384333333334, "bike_id": "a11ada5b7e8ec392c27be0d4ec830dff", "fusion_lon": 0.0}, {"rental_uris": {"ios": "https://dc.lft.to/lastmile_qr_scan", "android": "https://dc.lft.to/lastmile_qr_scan"}, "type": "electric_scooter", "name": "7304982d1ee998d9a3a81e17d4b32d21", "is_reserved": 0, "lon": -76.986164, "is_disabled": 0, "fusion_lat": 0.0, "lat": 38.903476833333336, "bike_id": "7304982d1ee998d9a3a81e17d4b32d21", "fusion_lon": 0.0}, {"rental_uris": {"ios": "https://dc.lft.to/lastmile_qr_scan", "android": "https://dc.lft.to/lastmile_qr_scan"}, "type": "electric_scooter", "name": "7f9c4feaaa9e1ea537688f0305154ba5", "is_reserved": 0, "lon": -76.9587905, "is_disabled": 0, "fusion_lat": 0.0, "lat": 38.85833983333333, "bike_id": "7f9c4feaaa9e1ea537688f0305154ba5", "fusion_lon": 0.0}, {"rental_uris": {"ios": "https://dc.lft.to/lastmile_qr_scan", "android": "https://dc.lft.to/lastmile_qr_scan"}, "type": "electric_bike", "name": "bababcc7b646086f828c3a45a6fb5f92", "is_reserved": 0, "lon": -77.127037, "is_disabled": 0, "fusion_lat": 0.0, "lat": 38.89568333333333, "bike_id": "bababcc7b646086f828c3a45a6fb5f92", "fusion_lon": 0.0}, {"rental_uris": {"ios": "https://dc.lft.to/lastmile_qr_scan", "android": "https://dc.lft.to/lastmile_qr_scan"}, "type": "electric_scooter", "name": "0824d0e5ec8d7f58a09c5a1e01ced49a", "is_reserved": 0, "lon": -77.02526833333333, "is_disabled": 0, "fusion_lat": 0.0, "lat": 38.89855083333333, "bike_id": "0824d0e5ec8d7f58a09c5a1e01ced49a", "fusion_lon": 0.0}, {"rental_uris": {"ios": "https://dc.lft.to/lastmile_qr_scan", "android": "https://dc.lft.to/lastmile_qr_scan"}, "type": "electric_scooter", "name": "1088b08bc052f0dc61cdc1998ff3fbd8", "is_reserved": 0, "lon": -77.0341915, "is_disabled": 0, "fusion_lat": 0.0, "lat": 38.90961766666667, "bike_id": "1088b08bc052f0dc61cdc1998ff3fbd8", "fusion_lon": 0.0}, {"rental_uris": {"ios": "https://dc.lft.to/lastmile_qr_scan", "android": "https://dc.lft.to/lastmile_qr_scan"}, "type": "electric_scooter", "name": "46ff2a9df30878fa951adc5469edd86b", "is_reserved": 0, "lon": -77.04378566666666, "is_disabled": 0, "fusion_lat": 0.0, "lat": 38.92063433333333, "bike_id": "46ff2a9df30878fa951adc5469edd86b", "fusion_lon": 0.0}, {"rental_uris": {"ios": "https://dc.lft.to/lastmile_qr_scan", "android": "https://dc.lft.to/lastmile_qr_scan"}, "type": "electric_scooter", "name": "d7fd697bde54b9462ed5d51c4658c9ba", "is_reserved": 0, "lon": -77.0307305, "is_disabled": 0, "fusion_lat": 0.0, "lat": 38.9387685, "bike_id": "d7fd697bde54b9462ed5d51c4658c9ba", "fusion_lon": 0.0}, {"rental_uris": {"ios": "https://dc.lft.to/lastmile_qr_scan", "android": "https://dc.lft.to/lastmile_qr_scan"}, "type": "electric_bike", "name": "e09409f2be5f7c6d306203a4060cf09c", "is_reserved": 0, "lon": -77.00003566666666, "is_disabled": 0, "fusion_lat": 0.0, "lat": 38.923909, "bike_id": "e09409f2be5f7c6d306203a4060cf09c", "fusion_lon": 0.0}, {"rental_uris": {"ios": "https://dc.lft.to/lastmile_qr_scan", "android": "https://dc.lft.to/lastmile_qr_scan"}, "type": "electric_scooter", "name": "c206022b3055881b9c8dd8e62de9a49a", "is_reserved": 0, "lon": -77.0450765, "is_disabled": 0, "fusion_lat": 0.0, "lat": 38.900948666666665, "bike_id": "c206022b3055881b9c8dd8e62de9a49a", "fusion_lon": 0.0}, {"rental_uris": {"ios": "https://dc.lft.to/lastmile_qr_scan", "android": "https://dc.lft.to/lastmile_qr_scan"}, "type": "electric_scooter", "name": "c24aa26c4a4e51939721a9cae0fdad12", "is_reserved": 0, "lon": -77.04684666666667, "is_disabled": 0, "fusion_lat": 0.0, "lat": 38.8922355, "bike_id": "c24aa26c4a4e51939721a9cae0fdad12", "fusion_lon": 0.0}, {"rental_uris": {"ios": "https://dc.lft.to/lastmile_qr_scan", "android": "https://dc.lft.to/lastmile_qr_scan"}, "type": "electric_scooter", "name": "2e19c331b4e4668c6d241ba6b64dc3bc", "is_reserved": 0, "lon": -77.02832433333333, "is_disabled": 0, "fusion_lat": 0.0, "lat": 38.88718433333333, "bike_id": "2e19c331b4e4668c6d241ba6b64dc3bc", "fusion_lon": 0.0}, {"rental_uris": {"ios": "https://dc.lft.to/lastmile_qr_scan", "android": "https://dc.lft.to/lastmile_qr_scan"}, "type": "electric_scooter", "name": "336b0dac3564324737589c95dee846f7", "is_reserved": 0, "lon": -77.02716583333333, "is_disabled": 0, "fusion_lat": 0.0, "lat": 38.906048, "bike_id": "336b0dac3564324737589c95dee846f7", "fusion_lon": 0.0}, {"rental_uris": {"ios": "https://dc.lft.to/lastmile_qr_scan", "android": "https://dc.lft.to/lastmile_qr_scan"}, "type": "electric_bike", "name": "f5d4a2f61dc42f2463282d4b54adc03d", "is_reserved": 0, "lon": -77.01227483333334, "is_disabled": 0, "fusion_lat": 0.0, "lat": 38.9508715, "bike_id": "f5d4a2f61dc42f2463282d4b54adc03d", "fusion_lon": 0.0}, {"rental_uris": {"ios": "https://dc.lft.to/lastmile_qr_scan", "android": "https://dc.lft.to/lastmile_qr_scan"}, "type": "electric_scooter", "name": "8a717a94d0b0912cf561b93f3ae99113", "is_reserved": 0, "lon": -77.03207033333334, "is_disabled": 0, "fusion_lat": 0.0, "lat": 38.916336333333334, "bike_id": "8a717a94d0b0912cf561b93f3ae99113", "fusion_lon": 0.0}, {"rental_uris": {"ios": "https://dc.lft.to/lastmile_qr_scan", "android": "https://dc.lft.to/lastmile_qr_scan"}, "type": "electric_scooter", "name": "51c369ee1920c2612c553b2b4711f4a3", "is_reserved": 0, "lon": -77.03391566666667, "is_disabled": 0, "fusion_lat": 0.0, "lat": 38.92033933333333, "bike_id": "51c369ee1920c2612c553b2b4711f4a3", "fusion_lon": 0.0}, {"rental_uris": {"ios": "https://dc.lft.to/lastmile_qr_scan", "android": "https://dc.lft.to/lastmile_qr_scan"}, "type": "electric_scooter", "name": "81ce2b86c4165905eb8a2b92477d772b", "is_reserved": 0, "lon": -77.04121016666667, "is_disabled": 0, "fusion_lat": 0.0, "lat": 38.931061, "bike_id": "81ce2b86c4165905eb8a2b92477d772b", "fusion_lon": 0.0}, {"rental_uris": {"ios": "https://dc.lft.to/lastmile_qr_scan", "android": "https://dc.lft.to/lastmile_qr_scan"}, "type": "electric_scooter", "name": "2e6ac25c1eefeea25f4b071b8e235fd6", "is_reserved": 0, "lon": -76.98573316666666, "is_disabled": 0, "fusion_lat": 0.0, "lat": 38.85443183333334, "bike_id": "2e6ac25c1eefeea25f4b071b8e235fd6", "fusion_lon": 0.0}, {"rental_uris": {"ios": "https://dc.lft.to/lastmile_qr_scan", "android": "https://dc.lft.to/lastmile_qr_scan"}, "type": "electric_scooter", "name": "59db7900b764ff9489d28b9316d55e9c", "is_reserved": 0, "lon": -77.02760966666666, "is_disabled": 0, "fusion_lat": 0.0, "lat": 38.92964283333333, "bike_id": "59db7900b764ff9489d28b9316d55e9c", "fusion_lon": 0.0}, {"rental_uris": {"ios": "https://dc.lft.to/lastmile_qr_scan", "android": "https://dc.lft.to/lastmile_qr_scan"}, "type": "electric_scooter", "name": "d5d30d3c62855011c436102f133e1578", "is_reserved": 0, "lon": -77.0276005, "is_disabled": 0, "fusion_lat": 0.0, "lat": 38.91343216666667, "bike_id": "d5d30d3c62855011c436102f133e1578", "fusion_lon": 0.0}, {"rental_uris": {"ios": "https://dc.lft.to/lastmile_qr_scan", "android": "https://dc.lft.to/lastmile_qr_scan"}, "type": "electric_scooter", "name": "733e6754f5312bcc4420956b2b87f6ba", "is_reserved": 0, "lon": -77.0075165, "is_disabled": 0, "fusion_lat": 0.0, "lat": 38.9037025, "bike_id": "733e6754f5312bcc4420956b2b87f6ba", "fusion_lon": 0.0}, {"rental_uris": {"ios": "https://dc.lft.to/lastmile_qr_scan", "android": "https://dc.lft.to/lastmile_qr_scan"}, "type": "electric_scooter", "name": "e0c62842d4bf3b6c7f6d4349c5e00051", "is_reserved": 0, "lon": -77.01945916666666, "is_disabled": 0, "fusion_lat": 0.0, "lat": 38.9225215, "bike_id": "e0c62842d4bf3b6c7f6d4349c5e00051", "fusion_lon": 0.0}, {"rental_uris": {"ios": "https://dc.lft.to/lastmile_qr_scan", "android": "https://dc.lft.to/lastmile_qr_scan"}, "type": "electric_scooter", "name": "0be263089fe60f28186b3d9a4977a38e", "is_reserved": 0, "lon": -77.03211866666666, "is_disabled": 0, "fusion_lat": 0.0, "lat": 38.892343333333336, "bike_id": "0be263089fe60f28186b3d9a4977a38e", "fusion_lon": 0.0}, {"rental_uris": {"ios": "https://dc.lft.to/lastmile_qr_scan", "android": "https://dc.lft.to/lastmile_qr_scan"}, "type": "electric_scooter", "name": "41c122093ccedffe981bf1efaf4a3a69", "is_reserved": 0, "lon": -77.006069, "is_disabled": 0, "fusion_lat": 0.0, "lat": 38.87179283333333, "bike_id": "41c122093ccedffe981bf1efaf4a3a69", "fusion_lon": 0.0}, {"rental_uris": {"ios": "https://dc.lft.to/lastmile_qr_scan", "android": "https://dc.lft.to/lastmile_qr_scan"}, "type": "electric_scooter", "name": "fd82d560a19457d5827604a5373a623f", "is_reserved": 0, "lon": -77.055247, "is_disabled": 0, "fusion_lat": 0.0, "lat": 38.93007266666667, "bike_id": "fd82d560a19457d5827604a5373a623f", "fusion_lon": 0.0}, {"rental_uris": {"ios": "https://dc.lft.to/lastmile_qr_scan", "android": "https://dc.lft.to/lastmile_qr_scan"}, "type": "electric_scooter", "name": "13fef993ea2268c0cee5a5e915c1f2ae", "is_reserved": 0, "lon": -76.997319, "is_disabled": 0, "fusion_lat": 0.0, "lat": 38.90789266666667, "bike_id": "13fef993ea2268c0cee5a5e915c1f2ae", "fusion_lon": 0.0}, {"rental_uris": {"ios": "https://dc.lft.to/lastmile_qr_scan", "android": "https://dc.lft.to/lastmile_qr_scan"}, "type": "electric_scooter", "name": "0ed58c9c3dee08753703d2a0bd78b8fc", "is_reserved": 0, "lon": -77.0453915, "is_disabled": 0, "fusion_lat": 0.0, "lat": 38.899563666666666, "bike_id": "0ed58c9c3dee08753703d2a0bd78b8fc", "fusion_lon": 0.0}, {"rental_uris": {"ios": "https://dc.lft.to/lastmile_qr_scan", "android": "https://dc.lft.to/lastmile_qr_scan"}, "type": "electric_scooter", "name": "8f662fe7c744f0a8eae3c68076261533", "is_reserved": 0, "lon": -77.05210916666667, "is_disabled": 0, "fusion_lat": 0.0, "lat": 38.92445416666666, "bike_id": "8f662fe7c744f0a8eae3c68076261533", "fusion_lon": 0.0}, {"rental_uris": {"ios": "https://dc.lft.to/lastmile_qr_scan", "android": "https://dc.lft.to/lastmile_qr_scan"}, "type": "electric_scooter", "name": "202daac0a751cc4a64f9e7117b1a9268", "is_reserved": 0, "lon": -77.02973083333333, "is_disabled": 0, "fusion_lat": 0.0, "lat": 38.924023, "bike_id": "202daac0a751cc4a64f9e7117b1a9268", "fusion_lon": 0.0}, {"rental_uris": {"ios": "https://dc.lft.to/lastmile_qr_scan", "android": "https://dc.lft.to/lastmile_qr_scan"}, "type": "electric_scooter", "name": "57e5b2ededd6e0c6ec5ffd178321aed2", "is_reserved": 0, "lon": -76.98405066666666, "is_disabled": 0, "fusion_lat": 0.0, "lat": 38.914608333333334, "bike_id": "57e5b2ededd6e0c6ec5ffd178321aed2", "fusion_lon": 0.0}, {"rental_uris": {"ios": "https://dc.lft.to/lastmile_qr_scan", "android": "https://dc.lft.to/lastmile_qr_scan"}, "type": "electric_scooter", "name": "bdba9d3737cf3738cea2fa18e9d1574e", "is_reserved": 0, "lon": -77.07327516666666, "is_disabled": 0, "fusion_lat": 0.0, "lat": 38.913620333333334, "bike_id": "bdba9d3737cf3738cea2fa18e9d1574e", "fusion_lon": 0.0}, {"rental_uris": {"ios": "https://dc.lft.to/lastmile_qr_scan", "android": "https://dc.lft.to/lastmile_qr_scan"}, "type": "electric_scooter", "name": "c68a0b141918e196817f6b762a979888", "is_reserved": 0, "lon": -76.92892766666667, "is_disabled": 0, "fusion_lat": 0.0, "lat": 38.8794075, "bike_id": "c68a0b141918e196817f6b762a979888", "fusion_lon": 0.0}, {"rental_uris": {"ios": "https://dc.lft.to/lastmile_qr_scan", "android": "https://dc.lft.to/lastmile_qr_scan"}, "type": "electric_scooter", "name": "4ca37b179a058f5e31517d8142858d33", "is_reserved": 0, "lon": -77.0097875, "is_disabled": 0, "fusion_lat": 0.0, "lat": 38.90572316666667, "bike_id": "4ca37b179a058f5e31517d8142858d33", "fusion_lon": 0.0}, {"rental_uris": {"ios": "https://dc.lft.to/lastmile_qr_scan", "android": "https://dc.lft.to/lastmile_qr_scan"}, "type": "electric_scooter", "name": "ad74f92a7c7aeeffc2ea74b79806061e", "is_reserved": 0, "lon": -77.005628, "is_disabled": 0, "fusion_lat": 0.0, "lat": 38.874689833333335, "bike_id": "ad74f92a7c7aeeffc2ea74b79806061e", "fusion_lon": 0.0}, {"rental_uris": {"ios": "https://dc.lft.to/lastmile_qr_scan", "android": "https://dc.lft.to/lastmile_qr_scan"}, "type": "electric_scooter", "name": "354a957b384e72fd2ee44c56b4dd3856", "is_reserved": 0, "lon": -77.03836633333333, "is_disabled": 0, "fusion_lat": 0.0, "lat": 38.91098233333334, "bike_id": "354a957b384e72fd2ee44c56b4dd3856", "fusion_lon": 0.0}, {"rental_uris": {"ios": "https://dc.lft.to/lastmile_qr_scan", "android": "https://dc.lft.to/lastmile_qr_scan"}, "type": "electric_scooter", "name": "d93969ed4fa56a78a43ac8d18f5e8e24", "is_reserved": 0, "lon": -77.03153883333333, "is_disabled": 0, "fusion_lat": 0.0, "lat": 38.9191285, "bike_id": "d93969ed4fa56a78a43ac8d18f5e8e24", "fusion_lon": 0.0}, {"rental_uris": {"ios": "https://dc.lft.to/lastmile_qr_scan", "android": "https://dc.lft.to/lastmile_qr_scan"}, "type": "electric_scooter", "name": "5eea78de4e432b8a9063af979367096a", "is_reserved": 0, "lon": -77.02807633333333, "is_disabled": 0, "fusion_lat": 0.0, "lat": 38.907320166666665, "bike_id": "5eea78de4e432b8a9063af979367096a", "fusion_lon": 0.0}, {"rental_uris": {"ios": "https://dc.lft.to/lastmile_qr_scan", "android": "https://dc.lft.to/lastmile_qr_scan"}, "type": "electric_scooter", "name": "71702bf5d7734f89937034b235f7ca4b", "is_reserved": 0, "lon": -77.05238116666666, "is_disabled": 0, "fusion_lat": 0.0, "lat": 38.92462316666666, "bike_id": "71702bf5d7734f89937034b235f7ca4b", "fusion_lon": 0.0}, {"rental_uris": {"ios": "https://dc.lft.to/lastmile_qr_scan", "android": "https://dc.lft.to/lastmile_qr_scan"}, "type": "electric_scooter", "name": "6ec007f92214ed058e90ac8258c9d0e0", "is_reserved": 0, "lon": -77.00544383333333, "is_disabled": 0, "fusion_lat": 0.0, "lat": 38.900315, "bike_id": "6ec007f92214ed058e90ac8258c9d0e0", "fusion_lon": 0.0}, {"rental_uris": {"ios": "https://dc.lft.to/lastmile_qr_scan", "android": "https://dc.lft.to/lastmile_qr_scan"}, "type": "electric_scooter", "name": "e6bd7cd6948e88942dbad09a06c783bd", "is_reserved": 0, "lon": -77.04054466666666, "is_disabled": 0, "fusion_lat": 0.0, "lat": 38.90381716666667, "bike_id": "e6bd7cd6948e88942dbad09a06c783bd", "fusion_lon": 0.0}, {"rental_uris": {"ios": "https://dc.lft.to/lastmile_qr_scan", "android": "https://dc.lft.to/lastmile_qr_scan"}, "type": "electric_scooter", "name": "666914468a1b8b07845c107b279629d0", "is_reserved": 0, "lon": -77.02811, "is_disabled": 0, "fusion_lat": 0.0, "lat": 38.9074035, "bike_id": "666914468a1b8b07845c107b279629d0", "fusion_lon": 0.0}, {"rental_uris": {"ios": "https://dc.lft.to/lastmile_qr_scan", "android": "https://dc.lft.to/lastmile_qr_scan"}, "type": "electric_scooter", "name": "650785a2b6f8a9185aab374cc236bcf8", "is_reserved": 0, "lon": -77.0253215, "is_disabled": 0, "fusion_lat": 0.0, "lat": 38.94533666666667, "bike_id": "650785a2b6f8a9185aab374cc236bcf8", "fusion_lon": 0.0}, {"rental_uris": {"ios": "https://dc.lft.to/lastmile_qr_scan", "android": "https://dc.lft.to/lastmile_qr_scan"}, "type": "electric_scooter", "name": "ace07b6324d6a6533dbfd5cddc729a83", "is_reserved": 0, "lon": -77.00660633333334, "is_disabled": 0, "fusion_lat": 0.0, "lat": 38.901061166666665, "bike_id": "ace07b6324d6a6533dbfd5cddc729a83", "fusion_lon": 0.0}, {"rental_uris": {"ios": "https://dc.lft.to/lastmile_qr_scan", "android": "https://dc.lft.to/lastmile_qr_scan"}, "type": "electric_scooter", "name": "37fe40f7d9ee9b20a3cc1242a472310d", "is_reserved": 0, "lon": -77.03832683333333, "is_disabled": 0, "fusion_lat": 0.0, "lat": 38.9118135, "bike_id": "37fe40f7d9ee9b20a3cc1242a472310d", "fusion_lon": 0.0}, {"rental_uris": {"ios": "https://dc.lft.to/lastmile_qr_scan", "android": "https://dc.lft.to/lastmile_qr_scan"}, "type": "electric_scooter", "name": "cc4b364cc1d8b982e999ab228f7969a2", "is_reserved": 0, "lon": -77.0068645, "is_disabled": 0, "fusion_lat": 0.0, "lat": 38.88421483333333, "bike_id": "cc4b364cc1d8b982e999ab228f7969a2", "fusion_lon": 0.0}, {"rental_uris": {"ios": "https://dc.lft.to/lastmile_qr_scan", "android": "https://dc.lft.to/lastmile_qr_scan"}, "type": "electric_scooter", "name": "d02cdbda25b496bdda7ee85ecb98beed", "is_reserved": 0, "lon": -77.02802483333333, "is_disabled": 0, "fusion_lat": 0.0, "lat": 38.92315033333333, "bike_id": "d02cdbda25b496bdda7ee85ecb98beed", "fusion_lon": 0.0}, {"rental_uris": {"ios": "https://dc.lft.to/lastmile_qr_scan", "android": "https://dc.lft.to/lastmile_qr_scan"}, "type": "electric_scooter", "name": "e7644177fb9649187f00ae2b086a58ba", "is_reserved": 0, "lon": -77.07347766666666, "is_disabled": 0, "fusion_lat": 0.0, "lat": 38.89468133333333, "bike_id": "e7644177fb9649187f00ae2b086a58ba", "fusion_lon": 0.0}, {"rental_uris": {"ios": "https://dc.lft.to/lastmile_qr_scan", "android": "https://dc.lft.to/lastmile_qr_scan"}, "type": "electric_scooter", "name": "bbe655a5269e66a82987227d6cad104f", "is_reserved": 0, "lon": -77.03786733333334, "is_disabled": 0, "fusion_lat": 0.0, "lat": 38.91545166666667, "bike_id": "bbe655a5269e66a82987227d6cad104f", "fusion_lon": 0.0}, {"rental_uris": {"ios": "https://dc.lft.to/lastmile_qr_scan", "android": "https://dc.lft.to/lastmile_qr_scan"}, "type": "electric_scooter", "name": "1871bede8d7378bdb30b2ffe471dff86", "is_reserved": 0, "lon": -77.049201, "is_disabled": 0, "fusion_lat": 0.0, "lat": 38.9085985, "bike_id": "1871bede8d7378bdb30b2ffe471dff86", "fusion_lon": 0.0}, {"rental_uris": {"ios": "https://dc.lft.to/lastmile_qr_scan", "android": "https://dc.lft.to/lastmile_qr_scan"}, "type": "electric_scooter", "name": "180bc90050cc72569a90f0dd7e6e7f7c", "is_reserved": 0, "lon": -77.026822, "is_disabled": 0, "fusion_lat": 0.0, "lat": 38.8996955, "bike_id": "180bc90050cc72569a90f0dd7e6e7f7c", "fusion_lon": 0.0}, {"rental_uris": {"ios": "https://dc.lft.to/lastmile_qr_scan", "android": "https://dc.lft.to/lastmile_qr_scan"}, "type": "electric_scooter", "name": "064e674a6d70e62110e9d71ca95d7738", "is_reserved": 0, "lon": -77.07521233333334, "is_disabled": 0, "fusion_lat": 0.0, "lat": 38.939514, "bike_id": "064e674a6d70e62110e9d71ca95d7738", "fusion_lon": 0.0}, {"rental_uris": {"ios": "https://dc.lft.to/lastmile_qr_scan", "android": "https://dc.lft.to/lastmile_qr_scan"}, "type": "electric_scooter", "name": "b68be1e79bdc57e0854bd5b11230f6dd", "is_reserved": 0, "lon": -76.99528683333334, "is_disabled": 0, "fusion_lat": 0.0, "lat": 38.862679666666665, "bike_id": "b68be1e79bdc57e0854bd5b11230f6dd", "fusion_lon": 0.0}, {"rental_uris": {"ios": "https://dc.lft.to/lastmile_qr_scan", "android": "https://dc.lft.to/lastmile_qr_scan"}, "type": "electric_scooter", "name": "661363110f9638ef8d215543f2a2fe30", "is_reserved": 0, "lon": -76.99882783333334, "is_disabled": 0, "fusion_lat": 0.0, "lat": 38.920552, "bike_id": "661363110f9638ef8d215543f2a2fe30", "fusion_lon": 0.0}, {"rental_uris": {"ios": "https://dc.lft.to/lastmile_qr_scan", "android": "https://dc.lft.to/lastmile_qr_scan"}, "type": "electric_scooter", "name": "7d02c50502ce2a886c28bf0ea7f301d8", "is_reserved": 0, "lon": -77.01431216666667, "is_disabled": 0, "fusion_lat": 0.0, "lat": 38.88738516666667, "bike_id": "7d02c50502ce2a886c28bf0ea7f301d8", "fusion_lon": 0.0}, {"rental_uris": {"ios": "https://dc.lft.to/lastmile_qr_scan", "android": "https://dc.lft.to/lastmile_qr_scan"}, "type": "electric_scooter", "name": "6e978df14cf135b02c8e37c9727b7e10", "is_reserved": 0, "lon": -76.99562116666667, "is_disabled": 0, "fusion_lat": 0.0, "lat": 38.92665433333333, "bike_id": "6e978df14cf135b02c8e37c9727b7e10", "fusion_lon": 0.0}, {"rental_uris": {"ios": "https://dc.lft.to/lastmile_qr_scan", "android": "https://dc.lft.to/lastmile_qr_scan"}, "type": "electric_scooter", "name": "000d0c2e0771395113d335b91456a43e", "is_reserved": 0, "lon": -77.03154383333333, "is_disabled": 0, "fusion_lat": 0.0, "lat": 38.91697383333333, "bike_id": "000d0c2e0771395113d335b91456a43e", "fusion_lon": 0.0}, {"rental_uris": {"ios": "https://dc.lft.to/lastmile_qr_scan", "android": "https://dc.lft.to/lastmile_qr_scan"}, "type": "electric_scooter", "name": "9bbe038b5a7f36e9c8db0e92b0473a35", "is_reserved": 0, "lon": -77.051999, "is_disabled": 0, "fusion_lat": 0.0, "lat": 38.90231883333333, "bike_id": "9bbe038b5a7f36e9c8db0e92b0473a35", "fusion_lon": 0.0}, {"rental_uris": {"ios": "https://dc.lft.to/lastmile_qr_scan", "android": "https://dc.lft.to/lastmile_qr_scan"}, "type": "electric_scooter", "name": "8c41d0f9622029ac227ac84688aa4239", "is_reserved": 0, "lon": -77.04044666666667, "is_disabled": 0, "fusion_lat": 0.0, "lat": 38.918698, "bike_id": "8c41d0f9622029ac227ac84688aa4239", "fusion_lon": 0.0}, {"rental_uris": {"ios": "https://dc.lft.to/lastmile_qr_scan", "android": "https://dc.lft.to/lastmile_qr_scan"}, "type": "electric_scooter", "name": "5fa500e64b8670fca095aedc0891a7c1", "is_reserved": 0, "lon": -77.04305033333333, "is_disabled": 0, "fusion_lat": 0.0, "lat": 38.92329466666666, "bike_id": "5fa500e64b8670fca095aedc0891a7c1", "fusion_lon": 0.0}, {"rental_uris": {"ios": "https://dc.lft.to/lastmile_qr_scan", "android": "https://dc.lft.to/lastmile_qr_scan"}, "type": "electric_scooter", "name": "31448505505f67fddc345aa551236e66", "is_reserved": 0, "lon": -77.05869683333333, "is_disabled": 0, "fusion_lat": 0.0, "lat": 38.942392, "bike_id": "31448505505f67fddc345aa551236e66", "fusion_lon": 0.0}, {"rental_uris": {"ios": "https://dc.lft.to/lastmile_qr_scan", "android": "https://dc.lft.to/lastmile_qr_scan"}, "type": "electric_scooter", "name": "5c93712be65b9ddf311318ebead2b821", "is_reserved": 0, "lon": -77.04186466666667, "is_disabled": 0, "fusion_lat": 0.0, "lat": 38.9220275, "bike_id": "5c93712be65b9ddf311318ebead2b821", "fusion_lon": 0.0}, {"rental_uris": {"ios": "https://dc.lft.to/lastmile_qr_scan", "android": "https://dc.lft.to/lastmile_qr_scan"}, "type": "electric_scooter", "name": "579a4b8bca03c59e4b39d5c8854dd39b", "is_reserved": 0, "lon": -76.929188, "is_disabled": 0, "fusion_lat": 0.0, "lat": 38.886531833333336, "bike_id": "579a4b8bca03c59e4b39d5c8854dd39b", "fusion_lon": 0.0}, {"rental_uris": {"ios": "https://dc.lft.to/lastmile_qr_scan", "android": "https://dc.lft.to/lastmile_qr_scan"}, "type": "electric_scooter", "name": "6baa9e0b80fa7cb8e72788a67e45ac64", "is_reserved": 0, "lon": -76.98733083333333, "is_disabled": 0, "fusion_lat": 0.0, "lat": 38.842207, "bike_id": "6baa9e0b80fa7cb8e72788a67e45ac64", "fusion_lon": 0.0}, {"rental_uris": {"ios": "https://dc.lft.to/lastmile_qr_scan", "android": "https://dc.lft.to/lastmile_qr_scan"}, "type": "electric_scooter", "name": "26292c07dcef2915eb827ad9d2d15d54", "is_reserved": 0, "lon": -77.0365435, "is_disabled": 0, "fusion_lat": 0.0, "lat": 38.956015, "bike_id": "26292c07dcef2915eb827ad9d2d15d54", "fusion_lon": 0.0}, {"rental_uris": {"ios": "https://dc.lft.to/lastmile_qr_scan", "android": "https://dc.lft.to/lastmile_qr_scan"}, "type": "electric_scooter", "name": "5abd1f1f31896f905c9f8dffd50138d5", "is_reserved": 0, "lon": -76.99484966666667, "is_disabled": 0, "fusion_lat": 0.0, "lat": 38.862218166666665, "bike_id": "5abd1f1f31896f905c9f8dffd50138d5", "fusion_lon": 0.0}, {"rental_uris": {"ios": "https://dc.lft.to/lastmile_qr_scan", "android": "https://dc.lft.to/lastmile_qr_scan"}, "type": "electric_scooter", "name": "20851ee12d08570d021c0732925e6190", "is_reserved": 0, "lon": -77.02218716666667, "is_disabled": 0, "fusion_lat": 0.0, "lat": 38.924705, "bike_id": "20851ee12d08570d021c0732925e6190", "fusion_lon": 0.0}, {"rental_uris": {"ios": "https://dc.lft.to/lastmile_qr_scan", "android": "https://dc.lft.to/lastmile_qr_scan"}, "type": "electric_bike", "name": "0791d7530712e0c3c310d9e7312a5d85", "is_reserved": 0, "lon": -76.9876605, "is_disabled": 0, "fusion_lat": 0.0, "lat": 38.85770333333333, "bike_id": "0791d7530712e0c3c310d9e7312a5d85", "fusion_lon": 0.0}, {"rental_uris": {"ios": "https://dc.lft.to/lastmile_qr_scan", "android": "https://dc.lft.to/lastmile_qr_scan"}, "type": "electric_scooter", "name": "a797d15de93b8252d12f82593248824b", "is_reserved": 0, "lon": -77.000322, "is_disabled": 0, "fusion_lat": 0.0, "lat": 38.907562666666664, "bike_id": "a797d15de93b8252d12f82593248824b", "fusion_lon": 0.0}, {"rental_uris": {"ios": "https://dc.lft.to/lastmile_qr_scan", "android": "https://dc.lft.to/lastmile_qr_scan"}, "type": "electric_scooter", "name": "99fd1376b5fe9337dd962ad0e31cb7f2", "is_reserved": 0, "lon": -77.02425366666667, "is_disabled": 0, "fusion_lat": 0.0, "lat": 38.899009666666664, "bike_id": "99fd1376b5fe9337dd962ad0e31cb7f2", "fusion_lon": 0.0}, {"rental_uris": {"ios": "https://dc.lft.to/lastmile_qr_scan", "android": "https://dc.lft.to/lastmile_qr_scan"}, "type": "electric_scooter", "name": "ea563edf60c3dc05bdb82a66cd60cf15", "is_reserved": 0, "lon": -77.0460945, "is_disabled": 0, "fusion_lat": 0.0, "lat": 38.909623, "bike_id": "ea563edf60c3dc05bdb82a66cd60cf15", "fusion_lon": 0.0}, {"rental_uris": {"ios": "https://dc.lft.to/lastmile_qr_scan", "android": "https://dc.lft.to/lastmile_qr_scan"}, "type": "electric_scooter", "name": "80ae976a12614ca97c49e9b03389a14b", "is_reserved": 0, "lon": -77.03944783333333, "is_disabled": 0, "fusion_lat": 0.0, "lat": 38.902662666666664, "bike_id": "80ae976a12614ca97c49e9b03389a14b", "fusion_lon": 0.0}, {"rental_uris": {"ios": "https://dc.lft.to/lastmile_qr_scan", "android": "https://dc.lft.to/lastmile_qr_scan"}, "type": "electric_scooter", "name": "a563a9bc34a284a5168144712b61c181", "is_reserved": 0, "lon": -76.98833833333333, "is_disabled": 0, "fusion_lat": 0.0, "lat": 38.8949715, "bike_id": "a563a9bc34a284a5168144712b61c181", "fusion_lon": 0.0}, {"rental_uris": {"ios": "https://dc.lft.to/lastmile_qr_scan", "android": "https://dc.lft.to/lastmile_qr_scan"}, "type": "electric_bike", "name": "dd0f3c75173cbc7ca2ad5b8bf6134b72", "is_reserved": 0, "lon": -76.99015016666667, "is_disabled": 0, "fusion_lat": 0.0, "lat": 38.954758, "bike_id": "dd0f3c75173cbc7ca2ad5b8bf6134b72", "fusion_lon": 0.0}, {"rental_uris": {"ios": "https://dc.lft.to/lastmile_qr_scan", "android": "https://dc.lft.to/lastmile_qr_scan"}, "type": "electric_scooter", "name": "9691939a9d18ed693793e3f2e38a8e80", "is_reserved": 0, "lon": -77.02420966666666, "is_disabled": 0, "fusion_lat": 0.0, "lat": 38.8941325, "bike_id": "9691939a9d18ed693793e3f2e38a8e80", "fusion_lon": 0.0}, {"rental_uris": {"ios": "https://dc.lft.to/lastmile_qr_scan", "android": "https://dc.lft.to/lastmile_qr_scan"}, "type": "electric_scooter", "name": "35ddf84986b9414c4c035e8244805dbb", "is_reserved": 0, "lon": -77.02301066666666, "is_disabled": 0, "fusion_lat": 0.0, "lat": 38.901596, "bike_id": "35ddf84986b9414c4c035e8244805dbb", "fusion_lon": 0.0}, {"rental_uris": {"ios": "https://dc.lft.to/lastmile_qr_scan", "android": "https://dc.lft.to/lastmile_qr_scan"}, "type": "electric_scooter", "name": "1f502fbcf285e740dce183b7c7053d01", "is_reserved": 0, "lon": -77.07711783333333, "is_disabled": 0, "fusion_lat": 0.0, "lat": 38.942834, "bike_id": "1f502fbcf285e740dce183b7c7053d01", "fusion_lon": 0.0}, {"rental_uris": {"ios": "https://dc.lft.to/lastmile_qr_scan", "android": "https://dc.lft.to/lastmile_qr_scan"}, "type": "electric_scooter", "name": "28ef43b4bebc27f0277fadd969f50a61", "is_reserved": 0, "lon": -77.0280325, "is_disabled": 0, "fusion_lat": 0.0, "lat": 38.90733433333333, "bike_id": "28ef43b4bebc27f0277fadd969f50a61", "fusion_lon": 0.0}, {"rental_uris": {"ios": "https://dc.lft.to/lastmile_qr_scan", "android": "https://dc.lft.to/lastmile_qr_scan"}, "type": "electric_scooter", "name": "a1b21421eef09403c2fb8f486a5ee608", "is_reserved": 0, "lon": -77.03443166666666, "is_disabled": 0, "fusion_lat": 0.0, "lat": 38.91024616666667, "bike_id": "a1b21421eef09403c2fb8f486a5ee608", "fusion_lon": 0.0}, {"rental_uris": {"ios": "https://dc.lft.to/lastmile_qr_scan", "android": "https://dc.lft.to/lastmile_qr_scan"}, "type": "electric_bike", "name": "fc7f8a497d753ec96539e9864dfb0c7c", "is_reserved": 0, "lon": -77.11319166666667, "is_disabled": 0, "fusion_lat": 0.0, "lat": 38.855812666666665, "bike_id": "fc7f8a497d753ec96539e9864dfb0c7c", "fusion_lon": 0.0}, {"rental_uris": {"ios": "https://dc.lft.to/lastmile_qr_scan", "android": "https://dc.lft.to/lastmile_qr_scan"}, "type": "electric_scooter", "name": "23215b300d5da00890a90ee5b57c829b", "is_reserved": 0, "lon": -77.03260666666667, "is_disabled": 0, "fusion_lat": 0.0, "lat": 38.938940333333335, "bike_id": "23215b300d5da00890a90ee5b57c829b", "fusion_lon": 0.0}, {"rental_uris": {"ios": "https://dc.lft.to/lastmile_qr_scan", "android": "https://dc.lft.to/lastmile_qr_scan"}, "type": "electric_scooter", "name": "75be54e99adc9163bc4823273241eb7f", "is_reserved": 0, "lon": -77.04875733333333, "is_disabled": 0, "fusion_lat": 0.0, "lat": 38.899210833333335, "bike_id": "75be54e99adc9163bc4823273241eb7f", "fusion_lon": 0.0}, {"rental_uris": {"ios": "https://dc.lft.to/lastmile_qr_scan", "android": "https://dc.lft.to/lastmile_qr_scan"}, "type": "electric_scooter", "name": "83eba4ae370b6d8c42bbdd1c63942d89", "is_reserved": 0, "lon": -76.99388183333333, "is_disabled": 0, "fusion_lat": 0.0, "lat": 38.91018966666667, "bike_id": "83eba4ae370b6d8c42bbdd1c63942d89", "fusion_lon": 0.0}, {"rental_uris": {"ios": "https://dc.lft.to/lastmile_qr_scan", "android": "https://dc.lft.to/lastmile_qr_scan"}, "type": "electric_scooter", "name": "fcdc908085223b253843cd6158ea8974", "is_reserved": 0, "lon": -77.007808, "is_disabled": 0, "fusion_lat": 0.0, "lat": 38.89723266666667, "bike_id": "fcdc908085223b253843cd6158ea8974", "fusion_lon": 0.0}, {"rental_uris": {"ios": "https://dc.lft.to/lastmile_qr_scan", "android": "https://dc.lft.to/lastmile_qr_scan"}, "type": "electric_scooter", "name": "d90bd00e024d70b75eb5e3ec68196fba", "is_reserved": 0, "lon": -77.02785716666666, "is_disabled": 0, "fusion_lat": 0.0, "lat": 38.917038166666664, "bike_id": "d90bd00e024d70b75eb5e3ec68196fba", "fusion_lon": 0.0}, {"rental_uris": {"ios": "https://dc.lft.to/lastmile_qr_scan", "android": "https://dc.lft.to/lastmile_qr_scan"}, "type": "electric_scooter", "name": "dea350147fa46b4a8eb7f8809f7080de", "is_reserved": 0, "lon": -77.02828616666666, "is_disabled": 0, "fusion_lat": 0.0, "lat": 38.93884216666667, "bike_id": "dea350147fa46b4a8eb7f8809f7080de", "fusion_lon": 0.0}, {"rental_uris": {"ios": "https://dc.lft.to/lastmile_qr_scan", "android": "https://dc.lft.to/lastmile_qr_scan"}, "type": "electric_scooter", "name": "b96cc60e7307ec815fa2922436227f78", "is_reserved": 0, "lon": -77.02797083333333, "is_disabled": 0, "fusion_lat": 0.0, "lat": 38.8953435, "bike_id": "b96cc60e7307ec815fa2922436227f78", "fusion_lon": 0.0}, {"rental_uris": {"ios": "https://dc.lft.to/lastmile_qr_scan", "android": "https://dc.lft.to/lastmile_qr_scan"}, "type": "electric_scooter", "name": "007b50701580cb0359b90bd7a2487415", "is_reserved": 0, "lon": -76.99622233333334, "is_disabled": 0, "fusion_lat": 0.0, "lat": 38.904489, "bike_id": "007b50701580cb0359b90bd7a2487415", "fusion_lon": 0.0}, {"rental_uris": {"ios": "https://dc.lft.to/lastmile_qr_scan", "android": "https://dc.lft.to/lastmile_qr_scan"}, "type": "electric_scooter", "name": "c07f794a5daf3f0aae45bd72a129fabe", "is_reserved": 0, "lon": -77.037072, "is_disabled": 0, "fusion_lat": 0.0, "lat": 38.92649383333333, "bike_id": "c07f794a5daf3f0aae45bd72a129fabe", "fusion_lon": 0.0}, {"rental_uris": {"ios": "https://dc.lft.to/lastmile_qr_scan", "android": "https://dc.lft.to/lastmile_qr_scan"}, "type": "electric_scooter", "name": "c59c6f3e0cbcdacb48426e0d881be804", "is_reserved": 0, "lon": -77.030842, "is_disabled": 0, "fusion_lat": 0.0, "lat": 38.938783, "bike_id": "c59c6f3e0cbcdacb48426e0d881be804", "fusion_lon": 0.0}, {"rental_uris": {"ios": "https://dc.lft.to/lastmile_qr_scan", "android": "https://dc.lft.to/lastmile_qr_scan"}, "type": "electric_scooter", "name": "7fefaecbd95c90bc786140aaec38ec4a", "is_reserved": 0, "lon": -77.02138633333334, "is_disabled": 0, "fusion_lat": 0.0, "lat": 38.92485333333333, "bike_id": "7fefaecbd95c90bc786140aaec38ec4a", "fusion_lon": 0.0}, {"rental_uris": {"ios": "https://dc.lft.to/lastmile_qr_scan", "android": "https://dc.lft.to/lastmile_qr_scan"}, "type": "electric_scooter", "name": "07c084cc2db5ddb0747c1fd74cbeeada", "is_reserved": 0, "lon": -77.04248783333334, "is_disabled": 0, "fusion_lat": 0.0, "lat": 38.922909833333335, "bike_id": "07c084cc2db5ddb0747c1fd74cbeeada", "fusion_lon": 0.0}, {"rental_uris": {"ios": "https://dc.lft.to/lastmile_qr_scan", "android": "https://dc.lft.to/lastmile_qr_scan"}, "type": "electric_scooter", "name": "4f666fdc988a237da56143a48dff7939", "is_reserved": 0, "lon": -77.06778633333333, "is_disabled": 0, "fusion_lat": 0.0, "lat": 38.908801833333335, "bike_id": "4f666fdc988a237da56143a48dff7939", "fusion_lon": 0.0}, {"rental_uris": {"ios": "https://dc.lft.to/lastmile_qr_scan", "android": "https://dc.lft.to/lastmile_qr_scan"}, "type": "electric_scooter", "name": "a89f0cdf4b14d53b1279b5e208f3066b", "is_reserved": 0, "lon": -77.02145483333334, "is_disabled": 0, "fusion_lat": 0.0, "lat": 38.9156565, "bike_id": "a89f0cdf4b14d53b1279b5e208f3066b", "fusion_lon": 0.0}, {"rental_uris": {"ios": "https://dc.lft.to/lastmile_qr_scan", "android": "https://dc.lft.to/lastmile_qr_scan"}, "type": "electric_scooter", "name": "4c7b3e9b12aae9eaf2d3835e652371ef", "is_reserved": 0, "lon": -77.06441283333334, "is_disabled": 0, "fusion_lat": 0.0, "lat": 38.90882783333333, "bike_id": "4c7b3e9b12aae9eaf2d3835e652371ef", "fusion_lon": 0.0}, {"rental_uris": {"ios": "https://dc.lft.to/lastmile_qr_scan", "android": "https://dc.lft.to/lastmile_qr_scan"}, "type": "electric_bike", "name": "4fc64cba5a3d07a8d1f0a6534d06974c", "is_reserved": 0, "lon": -76.95738516666667, "is_disabled": 0, "fusion_lat": 0.0, "lat": 38.88859033333333, "bike_id": "4fc64cba5a3d07a8d1f0a6534d06974c", "fusion_lon": 0.0}, {"rental_uris": {"ios": "https://dc.lft.to/lastmile_qr_scan", "android": "https://dc.lft.to/lastmile_qr_scan"}, "type": "electric_scooter", "name": "47fc5e92907df29099f6410594f6c10c", "is_reserved": 0, "lon": -76.9841385, "is_disabled": 0, "fusion_lat": 0.0, "lat": 38.91473283333333, "bike_id": "47fc5e92907df29099f6410594f6c10c", "fusion_lon": 0.0}, {"rental_uris": {"ios": "https://dc.lft.to/lastmile_qr_scan", "android": "https://dc.lft.to/lastmile_qr_scan"}, "type": "electric_scooter", "name": "f1e8188c7d5ec4eaa1c6ae890f801420", "is_reserved": 0, "lon": -77.02664166666666, "is_disabled": 0, "fusion_lat": 0.0, "lat": 38.88491483333333, "bike_id": "f1e8188c7d5ec4eaa1c6ae890f801420", "fusion_lon": 0.0}, {"rental_uris": {"ios": "https://dc.lft.to/lastmile_qr_scan", "android": "https://dc.lft.to/lastmile_qr_scan"}, "type": "electric_scooter", "name": "5472008e8334531acf831e77a06d5801", "is_reserved": 0, "lon": -77.04082483333333, "is_disabled": 0, "fusion_lat": 0.0, "lat": 38.90568783333333, "bike_id": "5472008e8334531acf831e77a06d5801", "fusion_lon": 0.0}, {"rental_uris": {"ios": "https://dc.lft.to/lastmile_qr_scan", "android": "https://dc.lft.to/lastmile_qr_scan"}, "type": "electric_scooter", "name": "fe678030e38c0a159cf1fbe3152cb7ee", "is_reserved": 0, "lon": -77.037486, "is_disabled": 0, "fusion_lat": 0.0, "lat": 38.93200616666667, "bike_id": "fe678030e38c0a159cf1fbe3152cb7ee", "fusion_lon": 0.0}, {"rental_uris": {"ios": "https://dc.lft.to/lastmile_qr_scan", "android": "https://dc.lft.to/lastmile_qr_scan"}, "type": "electric_scooter", "name": "90f69c560fc35f3cf32364c3eab42f33", "is_reserved": 0, "lon": -76.94717983333334, "is_disabled": 0, "fusion_lat": 0.0, "lat": 38.89079783333333, "bike_id": "90f69c560fc35f3cf32364c3eab42f33", "fusion_lon": 0.0}, {"rental_uris": {"ios": "https://dc.lft.to/lastmile_qr_scan", "android": "https://dc.lft.to/lastmile_qr_scan"}, "type": "electric_scooter", "name": "ad7bb3db8d617828a7a506dc55a448c2", "is_reserved": 0, "lon": -77.03188933333334, "is_disabled": 0, "fusion_lat": 0.0, "lat": 38.90824516666667, "bike_id": "ad7bb3db8d617828a7a506dc55a448c2", "fusion_lon": 0.0}, {"rental_uris": {"ios": "https://dc.lft.to/lastmile_qr_scan", "android": "https://dc.lft.to/lastmile_qr_scan"}, "type": "electric_scooter", "name": "96bc9f89a3f8473aa8520100a0a92e6b", "is_reserved": 0, "lon": -77.05790433333334, "is_disabled": 0, "fusion_lat": 0.0, "lat": 38.905112833333334, "bike_id": "96bc9f89a3f8473aa8520100a0a92e6b", "fusion_lon": 0.0}, {"rental_uris": {"ios": "https://dc.lft.to/lastmile_qr_scan", "android": "https://dc.lft.to/lastmile_qr_scan"}, "type": "electric_bike", "name": "08135fd1e69348207518191c6cde652d", "is_reserved": 0, "lon": -76.96916933333333, "is_disabled": 0, "fusion_lat": 0.0, "lat": 38.8461335, "bike_id": "08135fd1e69348207518191c6cde652d", "fusion_lon": 0.0}, {"rental_uris": {"ios": "https://dc.lft.to/lastmile_qr_scan", "android": "https://dc.lft.to/lastmile_qr_scan"}, "type": "electric_scooter", "name": "f3cb99ba0a10832efc41d67cdb34e6ab", "is_reserved": 0, "lon": -77.04533716666667, "is_disabled": 0, "fusion_lat": 0.0, "lat": 38.9007085, "bike_id": "f3cb99ba0a10832efc41d67cdb34e6ab", "fusion_lon": 0.0}, {"rental_uris": {"ios": "https://dc.lft.to/lastmile_qr_scan", "android": "https://dc.lft.to/lastmile_qr_scan"}, "type": "electric_bike", "name": "8a9e62cb8448404aeb525a9dd0e468a8", "is_reserved": 0, "lon": -77.001376, "is_disabled": 0, "fusion_lat": 0.0, "lat": 38.99497916666667, "bike_id": "8a9e62cb8448404aeb525a9dd0e468a8", "fusion_lon": 0.0}, {"rental_uris": {"ios": "https://dc.lft.to/lastmile_qr_scan", "android": "https://dc.lft.to/lastmile_qr_scan"}, "type": "electric_scooter", "name": "87bd62cf2dfccc423cacc1fef46150a0", "is_reserved": 0, "lon": -77.033607, "is_disabled": 0, "fusion_lat": 0.0, "lat": 38.88755733333333, "bike_id": "87bd62cf2dfccc423cacc1fef46150a0", "fusion_lon": 0.0}, {"rental_uris": {"ios": "https://dc.lft.to/lastmile_qr_scan", "android": "https://dc.lft.to/lastmile_qr_scan"}, "type": "electric_scooter", "name": "256d57205c2852b9b0aff848dd0dce6e", "is_reserved": 0, "lon": -76.979361, "is_disabled": 0, "fusion_lat": 0.0, "lat": 38.90661133333333, "bike_id": "256d57205c2852b9b0aff848dd0dce6e", "fusion_lon": 0.0}, {"rental_uris": {"ios": "https://dc.lft.to/lastmile_qr_scan", "android": "https://dc.lft.to/lastmile_qr_scan"}, "type": "electric_scooter", "name": "064ef421bef9b0abde673f612d2d1702", "is_reserved": 0, "lon": -77.05142966666666, "is_disabled": 0, "fusion_lat": 0.0, "lat": 38.9045115, "bike_id": "064ef421bef9b0abde673f612d2d1702", "fusion_lon": 0.0}, {"rental_uris": {"ios": "https://dc.lft.to/lastmile_qr_scan", "android": "https://dc.lft.to/lastmile_qr_scan"}, "type": "electric_scooter", "name": "a0601e2693da751bcf40e599a48c9a2b", "is_reserved": 0, "lon": -77.07265583333333, "is_disabled": 0, "fusion_lat": 0.0, "lat": 38.922271, "bike_id": "a0601e2693da751bcf40e599a48c9a2b", "fusion_lon": 0.0}, {"rental_uris": {"ios": "https://dc.lft.to/lastmile_qr_scan", "android": "https://dc.lft.to/lastmile_qr_scan"}, "type": "electric_scooter", "name": "269d62eafcb41556ad63015d44a9c2a1", "is_reserved": 0, "lon": -77.03519016666667, "is_disabled": 0, "fusion_lat": 0.0, "lat": 38.909473, "bike_id": "269d62eafcb41556ad63015d44a9c2a1", "fusion_lon": 0.0}, {"rental_uris": {"ios": "https://dc.lft.to/lastmile_qr_scan", "android": "https://dc.lft.to/lastmile_qr_scan"}, "type": "electric_scooter", "name": "27aac5d3f30635d7ebd15bbe6c166559", "is_reserved": 0, "lon": -77.0090795, "is_disabled": 0, "fusion_lat": 0.0, "lat": 38.898853833333334, "bike_id": "27aac5d3f30635d7ebd15bbe6c166559", "fusion_lon": 0.0}, {"rental_uris": {"ios": "https://dc.lft.to/lastmile_qr_scan", "android": "https://dc.lft.to/lastmile_qr_scan"}, "type": "electric_scooter", "name": "287a2cca3204a1416cff2362d3306410", "is_reserved": 0, "lon": -77.03302383333333, "is_disabled": 0, "fusion_lat": 0.0, "lat": 38.90386983333333, "bike_id": "287a2cca3204a1416cff2362d3306410", "fusion_lon": 0.0}, {"rental_uris": {"ios": "https://dc.lft.to/lastmile_qr_scan", "android": "https://dc.lft.to/lastmile_qr_scan"}, "type": "electric_scooter", "name": "e2c405ff017b46fb2bab9b5f59215064", "is_reserved": 0, "lon": -77.016693, "is_disabled": 0, "fusion_lat": 0.0, "lat": 38.935156166666665, "bike_id": "e2c405ff017b46fb2bab9b5f59215064", "fusion_lon": 0.0}, {"rental_uris": {"ios": "https://dc.lft.to/lastmile_qr_scan", "android": "https://dc.lft.to/lastmile_qr_scan"}, "type": "electric_scooter", "name": "d94d588236c468b2345e6308065d99c3", "is_reserved": 0, "lon": -77.00209533333333, "is_disabled": 0, "fusion_lat": 0.0, "lat": 38.893257166666665, "bike_id": "d94d588236c468b2345e6308065d99c3", "fusion_lon": 0.0}, {"rental_uris": {"ios": "https://dc.lft.to/lastmile_qr_scan", "android": "https://dc.lft.to/lastmile_qr_scan"}, "type": "electric_scooter", "name": "d922b40a82d92b3d09c108a3fa7b6fb9", "is_reserved": 0, "lon": -77.0500185, "is_disabled": 0, "fusion_lat": 0.0, "lat": 38.89231233333334, "bike_id": "d922b40a82d92b3d09c108a3fa7b6fb9", "fusion_lon": 0.0}, {"rental_uris": {"ios": "https://dc.lft.to/lastmile_qr_scan", "android": "https://dc.lft.to/lastmile_qr_scan"}, "type": "electric_scooter", "name": "220c9072a66a5d6b915d9cd91d172e11", "is_reserved": 0, "lon": -77.0150415, "is_disabled": 0, "fusion_lat": 0.0, "lat": 38.901424666666664, "bike_id": "220c9072a66a5d6b915d9cd91d172e11", "fusion_lon": 0.0}, {"rental_uris": {"ios": "https://dc.lft.to/lastmile_qr_scan", "android": "https://dc.lft.to/lastmile_qr_scan"}, "type": "electric_scooter", "name": "afd134d664c03e67a9a5531c7082a338", "is_reserved": 0, "lon": -77.02758583333333, "is_disabled": 0, "fusion_lat": 0.0, "lat": 38.91343883333333, "bike_id": "afd134d664c03e67a9a5531c7082a338", "fusion_lon": 0.0}, {"rental_uris": {"ios": "https://dc.lft.to/lastmile_qr_scan", "android": "https://dc.lft.to/lastmile_qr_scan"}, "type": "electric_scooter", "name": "ad3c91eb8346b2fd7fbf29cc2b4b0c18", "is_reserved": 0, "lon": -77.04043483333334, "is_disabled": 0, "fusion_lat": 0.0, "lat": 38.92443816666667, "bike_id": "ad3c91eb8346b2fd7fbf29cc2b4b0c18", "fusion_lon": 0.0}, {"rental_uris": {"ios": "https://dc.lft.to/lastmile_qr_scan", "android": "https://dc.lft.to/lastmile_qr_scan"}, "type": "electric_scooter", "name": "9c0442521b4d5f529cfe085b306da685", "is_reserved": 0, "lon": -77.04819983333333, "is_disabled": 0, "fusion_lat": 0.0, "lat": 38.90954816666667, "bike_id": "9c0442521b4d5f529cfe085b306da685", "fusion_lon": 0.0}, {"rental_uris": {"ios": "https://dc.lft.to/lastmile_qr_scan", "android": "https://dc.lft.to/lastmile_qr_scan"}, "type": "electric_scooter", "name": "45e73c65f2c527a21a8bd036c1f3dcfe", "is_reserved": 0, "lon": -76.94325483333333, "is_disabled": 0, "fusion_lat": 0.0, "lat": 38.879251833333335, "bike_id": "45e73c65f2c527a21a8bd036c1f3dcfe", "fusion_lon": 0.0}, {"rental_uris": {"ios": "https://dc.lft.to/lastmile_qr_scan", "android": "https://dc.lft.to/lastmile_qr_scan"}, "type": "electric_scooter", "name": "f2c10b0051165a5cca06c2580baebd72", "is_reserved": 0, "lon": -77.04233816666667, "is_disabled": 0, "fusion_lat": 0.0, "lat": 38.909783, "bike_id": "f2c10b0051165a5cca06c2580baebd72", "fusion_lon": 0.0}, {"rental_uris": {"ios": "https://dc.lft.to/lastmile_qr_scan", "android": "https://dc.lft.to/lastmile_qr_scan"}, "type": "electric_bike", "name": "b9074059484d10f148e370259231ea37", "is_reserved": 0, "lon": -77.07238283333334, "is_disabled": 0, "fusion_lat": 0.0, "lat": 38.813608333333335, "bike_id": "b9074059484d10f148e370259231ea37", "fusion_lon": 0.0}, {"rental_uris": {"ios": "https://dc.lft.to/lastmile_qr_scan", "android": "https://dc.lft.to/lastmile_qr_scan"}, "type": "electric_scooter", "name": "d7d00461038e3f5c15e79af908d062d6", "is_reserved": 0, "lon": -77.02769066666667, "is_disabled": 0, "fusion_lat": 0.0, "lat": 38.897595333333335, "bike_id": "d7d00461038e3f5c15e79af908d062d6", "fusion_lon": 0.0}, {"rental_uris": {"ios": "https://dc.lft.to/lastmile_qr_scan", "android": "https://dc.lft.to/lastmile_qr_scan"}, "type": "electric_scooter", "name": "4f7a8e8fb2e3fa755be0cc42a8781e38", "is_reserved": 0, "lon": -77.04415566666667, "is_disabled": 0, "fusion_lat": 0.0, "lat": 38.925872, "bike_id": "4f7a8e8fb2e3fa755be0cc42a8781e38", "fusion_lon": 0.0}, {"rental_uris": {"ios": "https://dc.lft.to/lastmile_qr_scan", "android": "https://dc.lft.to/lastmile_qr_scan"}, "type": "electric_scooter", "name": "503c6a872c950283f9c89f9c8cafd01f", "is_reserved": 0, "lon": -76.98569616666667, "is_disabled": 0, "fusion_lat": 0.0, "lat": 38.89617366666667, "bike_id": "503c6a872c950283f9c89f9c8cafd01f", "fusion_lon": 0.0}, {"rental_uris": {"ios": "https://dc.lft.to/lastmile_qr_scan", "android": "https://dc.lft.to/lastmile_qr_scan"}, "type": "electric_bike", "name": "440095be9d2d9729fa6d37b9b252e2f0", "is_reserved": 0, "lon": -76.96322866666667, "is_disabled": 0, "fusion_lat": 0.0, "lat": 38.93896066666667, "bike_id": "440095be9d2d9729fa6d37b9b252e2f0", "fusion_lon": 0.0}, {"rental_uris": {"ios": "https://dc.lft.to/lastmile_qr_scan", "android": "https://dc.lft.to/lastmile_qr_scan"}, "type": "electric_scooter", "name": "0371d7a059b0dd124dae3b65e14595ca", "is_reserved": 0, "lon": -77.0343825, "is_disabled": 0, "fusion_lat": 0.0, "lat": 38.906659, "bike_id": "0371d7a059b0dd124dae3b65e14595ca", "fusion_lon": 0.0}, {"rental_uris": {"ios": "https://dc.lft.to/lastmile_qr_scan", "android": "https://dc.lft.to/lastmile_qr_scan"}, "type": "electric_scooter", "name": "e7ce4e56f1c9beb4cd287c9a03d0c216", "is_reserved": 0, "lon": -76.9961295, "is_disabled": 0, "fusion_lat": 0.0, "lat": 38.931768, "bike_id": "e7ce4e56f1c9beb4cd287c9a03d0c216", "fusion_lon": 0.0}, {"rental_uris": {"ios": "https://dc.lft.to/lastmile_qr_scan", "android": "https://dc.lft.to/lastmile_qr_scan"}, "type": "electric_scooter", "name": "2575282a0b620bea62783689bf008872", "is_reserved": 0, "lon": -77.05937233333333, "is_disabled": 0, "fusion_lat": 0.0, "lat": 38.901446166666666, "bike_id": "2575282a0b620bea62783689bf008872", "fusion_lon": 0.0}, {"rental_uris": {"ios": "https://dc.lft.to/lastmile_qr_scan", "android": "https://dc.lft.to/lastmile_qr_scan"}, "type": "electric_scooter", "name": "7b85b3b2752f80ba212834b03cf6c2f3", "is_reserved": 0, "lon": -77.02498233333333, "is_disabled": 0, "fusion_lat": 0.0, "lat": 38.94176516666667, "bike_id": "7b85b3b2752f80ba212834b03cf6c2f3", "fusion_lon": 0.0}, {"rental_uris": {"ios": "https://dc.lft.to/lastmile_qr_scan", "android": "https://dc.lft.to/lastmile_qr_scan"}, "type": "electric_scooter", "name": "5f09974c4fba0ac75a665886b8edc5a3", "is_reserved": 0, "lon": -77.029657, "is_disabled": 0, "fusion_lat": 0.0, "lat": 38.928427666666664, "bike_id": "5f09974c4fba0ac75a665886b8edc5a3", "fusion_lon": 0.0}, {"rental_uris": {"ios": "https://dc.lft.to/lastmile_qr_scan", "android": "https://dc.lft.to/lastmile_qr_scan"}, "type": "electric_bike", "name": "2cf7f17fb9546173fcff6941b6c18f02", "is_reserved": 0, "lon": -77.0813805, "is_disabled": 0, "fusion_lat": 0.0, "lat": 38.82295883333333, "bike_id": "2cf7f17fb9546173fcff6941b6c18f02", "fusion_lon": 0.0}, {"rental_uris": {"ios": "https://dc.lft.to/lastmile_qr_scan", "android": "https://dc.lft.to/lastmile_qr_scan"}, "type": "electric_scooter", "name": "7292736afabe6d50aea8a4f80361ce68", "is_reserved": 0, "lon": -77.02432, "is_disabled": 0, "fusion_lat": 0.0, "lat": 38.907186, "bike_id": "7292736afabe6d50aea8a4f80361ce68", "fusion_lon": 0.0}, {"rental_uris": {"ios": "https://dc.lft.to/lastmile_qr_scan", "android": "https://dc.lft.to/lastmile_qr_scan"}, "type": "electric_scooter", "name": "b7dfabe5b7cd3453d9e443cc9d2ae9c1", "is_reserved": 0, "lon": -77.0785025, "is_disabled": 0, "fusion_lat": 0.0, "lat": 38.93135316666667, "bike_id": "b7dfabe5b7cd3453d9e443cc9d2ae9c1", "fusion_lon": 0.0}, {"rental_uris": {"ios": "https://dc.lft.to/lastmile_qr_scan", "android": "https://dc.lft.to/lastmile_qr_scan"}, "type": "electric_scooter", "name": "2f621ab5160bb56ee9504fcca5b065b3", "is_reserved": 0, "lon": -77.03780183333333, "is_disabled": 0, "fusion_lat": 0.0, "lat": 38.91264666666667, "bike_id": "2f621ab5160bb56ee9504fcca5b065b3", "fusion_lon": 0.0}, {"rental_uris": {"ios": "https://dc.lft.to/lastmile_qr_scan", "android": "https://dc.lft.to/lastmile_qr_scan"}, "type": "electric_scooter", "name": "740bcebf0f5601bca2f35893340e2b4e", "is_reserved": 0, "lon": -77.01193933333333, "is_disabled": 0, "fusion_lat": 0.0, "lat": 38.89681866666667, "bike_id": "740bcebf0f5601bca2f35893340e2b4e", "fusion_lon": 0.0}, {"rental_uris": {"ios": "https://dc.lft.to/lastmile_qr_scan", "android": "https://dc.lft.to/lastmile_qr_scan"}, "type": "electric_scooter", "name": "452a2df137268471097159cdab03eba0", "is_reserved": 0, "lon": -76.94856683333333, "is_disabled": 0, "fusion_lat": 0.0, "lat": 38.883072, "bike_id": "452a2df137268471097159cdab03eba0", "fusion_lon": 0.0}, {"rental_uris": {"ios": "https://dc.lft.to/lastmile_qr_scan", "android": "https://dc.lft.to/lastmile_qr_scan"}, "type": "electric_scooter", "name": "55dbd888557db4b89b91f009cd445b5b", "is_reserved": 0, "lon": -77.02080083333334, "is_disabled": 0, "fusion_lat": 0.0, "lat": 38.92407516666667, "bike_id": "55dbd888557db4b89b91f009cd445b5b", "fusion_lon": 0.0}, {"rental_uris": {"ios": "https://dc.lft.to/lastmile_qr_scan", "android": "https://dc.lft.to/lastmile_qr_scan"}, "type": "electric_scooter", "name": "cdc7aa377c0e56cba47f739876e89462", "is_reserved": 0, "lon": -77.00346033333334, "is_disabled": 0, "fusion_lat": 0.0, "lat": 38.89253, "bike_id": "cdc7aa377c0e56cba47f739876e89462", "fusion_lon": 0.0}, {"rental_uris": {"ios": "https://dc.lft.to/lastmile_qr_scan", "android": "https://dc.lft.to/lastmile_qr_scan"}, "type": "electric_scooter", "name": "7063ed89796effd8eee18c51899ca8d4", "is_reserved": 0, "lon": -77.023897, "is_disabled": 0, "fusion_lat": 0.0, "lat": 38.932040666666666, "bike_id": "7063ed89796effd8eee18c51899ca8d4", "fusion_lon": 0.0}, {"rental_uris": {"ios": "https://dc.lft.to/lastmile_qr_scan", "android": "https://dc.lft.to/lastmile_qr_scan"}, "type": "electric_scooter", "name": "98b9b0e107a5d1a7da45d710c41ce79c", "is_reserved": 0, "lon": -77.02123666666667, "is_disabled": 0, "fusion_lat": 0.0, "lat": 38.92373166666667, "bike_id": "98b9b0e107a5d1a7da45d710c41ce79c", "fusion_lon": 0.0}, {"rental_uris": {"ios": "https://dc.lft.to/lastmile_qr_scan", "android": "https://dc.lft.to/lastmile_qr_scan"}, "type": "electric_scooter", "name": "2e2ebdb5800749b5cfe3c377ff4178ec", "is_reserved": 0, "lon": -77.040569, "is_disabled": 0, "fusion_lat": 0.0, "lat": 38.917481, "bike_id": "2e2ebdb5800749b5cfe3c377ff4178ec", "fusion_lon": 0.0}, {"rental_uris": {"ios": "https://dc.lft.to/lastmile_qr_scan", "android": "https://dc.lft.to/lastmile_qr_scan"}, "type": "electric_scooter", "name": "2f543f9cd91bf1dd559d4e622b38b176", "is_reserved": 0, "lon": -76.9810115, "is_disabled": 0, "fusion_lat": 0.0, "lat": 38.9039605, "bike_id": "2f543f9cd91bf1dd559d4e622b38b176", "fusion_lon": 0.0}, {"rental_uris": {"ios": "https://dc.lft.to/lastmile_qr_scan", "android": "https://dc.lft.to/lastmile_qr_scan"}, "type": "electric_scooter", "name": "2034431f9d1bee5a831d957b02a905de", "is_reserved": 0, "lon": -77.0266255, "is_disabled": 0, "fusion_lat": 0.0, "lat": 38.9385685, "bike_id": "2034431f9d1bee5a831d957b02a905de", "fusion_lon": 0.0}, {"rental_uris": {"ios": "https://dc.lft.to/lastmile_qr_scan", "android": "https://dc.lft.to/lastmile_qr_scan"}, "type": "electric_scooter", "name": "4b9c86e54e7e09d89c77b6b10797ca4a", "is_reserved": 0, "lon": -77.03875133333334, "is_disabled": 0, "fusion_lat": 0.0, "lat": 38.91883216666667, "bike_id": "4b9c86e54e7e09d89c77b6b10797ca4a", "fusion_lon": 0.0}, {"rental_uris": {"ios": "https://dc.lft.to/lastmile_qr_scan", "android": "https://dc.lft.to/lastmile_qr_scan"}, "type": "electric_bike", "name": "070bb2f21cd1182d7ac2189113ae0680", "is_reserved": 0, "lon": -76.9582255, "is_disabled": 0, "fusion_lat": 0.0, "lat": 38.919975666666666, "bike_id": "070bb2f21cd1182d7ac2189113ae0680", "fusion_lon": 0.0}, {"rental_uris": {"ios": "https://dc.lft.to/lastmile_qr_scan", "android": "https://dc.lft.to/lastmile_qr_scan"}, "type": "electric_scooter", "name": "c0bfad62843d92ef508e1506c94dc2d5", "is_reserved": 0, "lon": -77.02170783333334, "is_disabled": 0, "fusion_lat": 0.0, "lat": 38.89470266666667, "bike_id": "c0bfad62843d92ef508e1506c94dc2d5", "fusion_lon": 0.0}, {"rental_uris": {"ios": "https://dc.lft.to/lastmile_qr_scan", "android": "https://dc.lft.to/lastmile_qr_scan"},