{"data": {"bikes": [{"rental_uris": {"ios": "https://dc.lft.to/lastmile_qr_scan", "android": "https://dc.lft.to/lastmile_qr_scan"}, "lat": 38.92847716666667, "is_reserved": 0, "bike_id": "e38a6ae479a7c3c69e578b4f8e5ff876", "lon": -76.9960005, "is_disabled": 0, "fusion_lat": 0.0, "fusion_lon": 0.0, "name": "e38a6ae479a7c3c69e578b4f8e5ff876", "type": "electric_scooter"}, {"rental_uris": {"ios": "https://dc.lft.to/lastmile_qr_scan", "android": "https://dc.lft.to/lastmile_qr_scan"}, "lat": 38.864346, "is_reserved": 0, "bike_id": "d1229c1203b84f4d1a4c0ce2be043135", "lon": -76.97999916666667, "is_disabled": 0, "fusion_lat": 0.0, "fusion_lon": 0.0, "name": "d1229c1203b84f4d1a4c0ce2be043135", "type": "electric_scooter"}, {"rental_uris": {"ios": "https://dc.lft.to/lastmile_qr_scan", "android": "https://dc.lft.to/lastmile_qr_scan"}, "lat": 38.90402383333333, "is_reserved": 0, "bike_id": "6b2b6e3f85ebdfc99314c154b2e179ab", "lon": -77.0348195, "is_disabled": 0, "fusion_lat": 0.0, "fusion_lon": 0.0, "name": "6b2b6e3f85ebdfc99314c154b2e179ab", "type": "electric_scooter"}, {"rental_uris": {"ios": "https://dc.lft.to/lastmile_qr_scan", "android": "https://dc.lft.to/lastmile_qr_scan"}, "lat": 38.910996, "is_reserved": 0, "bike_id": "83ba0f8772a6e429b90111fda9b035ff", "lon": -77.02721883333334, "is_disabled": 0, "fusion_lat": 0.0, "fusion_lon": 0.0, "name": "83ba0f8772a6e429b90111fda9b035ff", "type": "electric_scooter"}, {"rental_uris": {"ios": "https://dc.lft.to/lastmile_qr_scan", "android": "https://dc.lft.to/lastmile_qr_scan"}, "lat": 38.89634316666667, "is_reserved": 0, "bike_id": "9e47e5b6478c192751fafc981b19c9b6", "lon": -77.04011433333334, "is_disabled": 0, "fusion_lat": 0.0, "fusion_lon": 0.0, "name": "9e47e5b6478c192751fafc981b19c9b6", "type": "electric_scooter"}, {"rental_uris": {"ios": "https://dc.lft.to/lastmile_qr_scan", "android": "https://dc.lft.to/lastmile_qr_scan"}, "lat": 38.87581933333333, "is_reserved": 0, "bike_id": "3f5e3fdf63ea4c528cbb2944540caf17", "lon": -77.00416666666666, "is_disabled": 0, "fusion_lat": 0.0, "fusion_lon": 0.0, "name": "3f5e3fdf63ea4c528cbb2944540caf17", "type": "electric_scooter"}, {"rental_uris": {"ios": "https://dc.lft.to/lastmile_qr_scan", "android": "https://dc.lft.to/lastmile_qr_scan"}, "lat": 38.90281233333333, "is_reserved": 0, "bike_id": "ea8a7ab74fdb0dc20c050df61b466cc3", "lon": -77.020744, "is_disabled": 0, "fusion_lat": 0.0, "fusion_lon": 0.0, "name": "ea8a7ab74fdb0dc20c050df61b466cc3", "type": "electric_scooter"}, {"rental_uris": {"ios": "https://dc.lft.to/lastmile_qr_scan", "android": "https://dc.lft.to/lastmile_qr_scan"}, "lat": 38.920773, "is_reserved": 0, "bike_id": "cbb7a5d8ab628c2db90f002dd49d039d", "lon": -77.01821366666667, "is_disabled": 0, "fusion_lat": 0.0, "fusion_lon": 0.0, "name": "cbb7a5d8ab628c2db90f002dd49d039d", "type": "electric_scooter"}, {"rental_uris": {"ios": "https://dc.lft.to/lastmile_qr_scan", "android": "https://dc.lft.to/lastmile_qr_scan"}, "lat": 38.856061833333335, "is_reserved": 0, "bike_id": "4484c64d56f9904207741fac3b4d3ccb", "lon": -76.97853, "is_disabled": 0, "fusion_lat": 0.0, "fusion_lon": 0.0, "name": "4484c64d56f9904207741fac3b4d3ccb", "type": "electric_scooter"}, {"rental_uris": {"ios": "https://dc.lft.to/lastmile_qr_scan", "android": "https://dc.lft.to/lastmile_qr_scan"}, "lat": 38.902729, "is_reserved": 0, "bike_id": "f00b21b26e9e937e6ee4875b2840a69f", "lon": -77.03842283333333, "is_disabled": 0, "fusion_lat": 0.0, "fusion_lon": 0.0, "name": "f00b21b26e9e937e6ee4875b2840a69f", "type": "electric_scooter"}, {"rental_uris": {"ios": "https://dc.lft.to/lastmile_qr_scan", "android": "https://dc.lft.to/lastmile_qr_scan"}, "lat": 38.923122166666666, "is_reserved": 0, "bike_id": "86de081a5cb0fb4b3366afe6d30fe908", "lon": -77.02907433333333, "is_disabled": 0, "fusion_lat": 0.0, "fusion_lon": 0.0, "name": "86de081a5cb0fb4b3366afe6d30fe908", "type": "electric_scooter"}, {"rental_uris": {"ios": "https://dc.lft.to/lastmile_qr_scan", "android": "https://dc.lft.to/lastmile_qr_scan"}, "lat": 38.922524833333334, "is_reserved": 0, "bike_id": "c7ce229845018dcca83714ace1950fc5", "lon": -77.0424485, "is_disabled": 0, "fusion_lat": 0.0, "fusion_lon": 0.0, "name": "c7ce229845018dcca83714ace1950fc5", "type": "electric_scooter"}, {"rental_uris": {"ios": "https://dc.lft.to/lastmile_qr_scan", "android": "https://dc.lft.to/lastmile_qr_scan"}, "lat": 38.906747833333334, "is_reserved": 0, "bike_id": "a1c14cebf9a8f0b94dd0473115db52dc", "lon": -77.03667833333333, "is_disabled": 0, "fusion_lat": 0.0, "fusion_lon": 0.0, "name": "a1c14cebf9a8f0b94dd0473115db52dc", "type": "electric_scooter"}, {"rental_uris": {"ios": "https://dc.lft.to/lastmile_qr_scan", "android": "https://dc.lft.to/lastmile_qr_scan"}, "lat": 38.923336, "is_reserved": 0, "bike_id": "7618ef066e2b3502b2e6126702f90931", "lon": -77.03895433333334, "is_disabled": 0, "fusion_lat": 0.0, "fusion_lon": 0.0, "name": "7618ef066e2b3502b2e6126702f90931", "type": "electric_scooter"}, {"rental_uris": {"ios": "https://dc.lft.to/lastmile_qr_scan", "android": "https://dc.lft.to/lastmile_qr_scan"}, "lat": 38.926015666666665, "is_reserved": 0, "bike_id": "4af5f6ff762602cdea7612f39da76b92", "lon": -77.0122635, "is_disabled": 0, "fusion_lat": 0.0, "fusion_lon": 0.0, "name": "4af5f6ff762602cdea7612f39da76b92", "type": "electric_scooter"}, {"rental_uris": {"ios": "https://dc.lft.to/lastmile_qr_scan", "android": "https://dc.lft.to/lastmile_qr_scan"}, "lat": 38.892335833333334, "is_reserved": 0, "bike_id": "bd743d0d2e294d296f52a53d8b66287a", "lon": -77.03209066666666, "is_disabled": 0, "fusion_lat": 0.0, "fusion_lon": 0.0, "name": "bd743d0d2e294d296f52a53d8b66287a", "type": "electric_scooter"}, {"rental_uris": {"ios": "https://dc.lft.to/lastmile_qr_scan", "android": "https://dc.lft.to/lastmile_qr_scan"}, "lat": 38.90236216666667, "is_reserved": 0, "bike_id": "ecdcfa9e88f268cef815eaa42ef96d41", "lon": -77.04348716666667, "is_disabled": 0, "fusion_lat": 0.0, "fusion_lon": 0.0, "name": "ecdcfa9e88f268cef815eaa42ef96d41", "type": "electric_scooter"}, {"rental_uris": {"ios": "https://dc.lft.to/lastmile_qr_scan", "android": "https://dc.lft.to/lastmile_qr_scan"}, "lat": 38.88485516666667, "is_reserved": 0, "bike_id": "0505e27b795125275f39419f9aad358c", "lon": -77.00711383333334, "is_disabled": 0, "fusion_lat": 0.0, "fusion_lon": 0.0, "name": "0505e27b795125275f39419f9aad358c", "type": "electric_scooter"}, {"rental_uris": {"ios": "https://dc.lft.to/lastmile_qr_scan", "android": "https://dc.lft.to/lastmile_qr_scan"}, "lat": 38.90731316666667, "is_reserved": 0, "bike_id": "eb41fec5e95320d6cacd4cdbdd599f60", "lon": -77.04277816666666, "is_disabled": 0, "fusion_lat": 0.0, "fusion_lon": 0.0, "name": "eb41fec5e95320d6cacd4cdbdd599f60", "type": "electric_scooter"}, {"rental_uris": {"ios": "https://dc.lft.to/lastmile_qr_scan", "android": "https://dc.lft.to/lastmile_qr_scan"}, "lat": 38.874781, "is_reserved": 0, "bike_id": "f023af63569990e4ee0627fdd63e56ae", "lon": -77.00822766666667, "is_disabled": 0, "fusion_lat": 0.0, "fusion_lon": 0.0, "name": "f023af63569990e4ee0627fdd63e56ae", "type": "electric_scooter"}, {"rental_uris": {"ios": "https://dc.lft.to/lastmile_qr_scan", "android": "https://dc.lft.to/lastmile_qr_scan"}, "lat": 38.92477083333333, "is_reserved": 0, "bike_id": "3c5541ac857ba256e960b19b8d7d0e75", "lon": -77.02652183333333, "is_disabled": 0, "fusion_lat": 0.0, "fusion_lon": 0.0, "name": "3c5541ac857ba256e960b19b8d7d0e75", "type": "electric_scooter"}, {"rental_uris": {"ios": "https://dc.lft.to/lastmile_qr_scan", "android": "https://dc.lft.to/lastmile_qr_scan"}, "lat": 38.903473, "is_reserved": 0, "bike_id": "224b312b22e32a3d68c98460d5d5c958", "lon": -77.04340166666667, "is_disabled": 0, "fusion_lat": 0.0, "fusion_lon": 0.0, "name": "224b312b22e32a3d68c98460d5d5c958", "type": "electric_scooter"}, {"rental_uris": {"ios": "https://dc.lft.to/lastmile_qr_scan", "android": "https://dc.lft.to/lastmile_qr_scan"}, "lat": 38.86764383333333, "is_reserved": 0, "bike_id": "910cba84812012cc05c604bc26273a80", "lon": -76.98276666666666, "is_disabled": 0, "fusion_lat": 0.0, "fusion_lon": 0.0, "name": "910cba84812012cc05c604bc26273a80", "type": "electric_scooter"}, {"rental_uris": {"ios": "https://dc.lft.to/lastmile_qr_scan", "android": "https://dc.lft.to/lastmile_qr_scan"}, "lat": 38.88140333333333, "is_reserved": 0, "bike_id": "dfa0c58a20494de14ff9d8d5b485eba4", "lon": -77.02705633333333, "is_disabled": 0, "fusion_lat": 0.0, "fusion_lon": 0.0, "name": "dfa0c58a20494de14ff9d8d5b485eba4", "type": "electric_scooter"}, {"rental_uris": {"ios": "https://dc.lft.to/lastmile_qr_scan", "android": "https://dc.lft.to/lastmile_qr_scan"}, "lat": 38.952326666666664, "is_reserved": 0, "bike_id": "5a856bcc7f55ea974a154517ca231481", "lon": -77.01378983333333, "is_disabled": 0, "fusion_lat": 0.0, "fusion_lon": 0.0, "name": "5a856bcc7f55ea974a154517ca231481", "type": "electric_scooter"}, {"rental_uris": {"ios": "https://dc.lft.to/lastmile_qr_scan", "android": "https://dc.lft.to/lastmile_qr_scan"}, "lat": 38.9609155, "is_reserved": 0, "bike_id": "b9a3140139146ed2cb87863aec225217", "lon": -77.027461, "is_disabled": 0, "fusion_lat": 0.0, "fusion_lon": 0.0, "name": "b9a3140139146ed2cb87863aec225217", "type": "electric_scooter"}, {"rental_uris": {"ios": "https://dc.lft.to/lastmile_qr_scan", "android": "https://dc.lft.to/lastmile_qr_scan"}, "lat": 38.8987115, "is_reserved": 0, "bike_id": "2d645099ec8b111b2f90c360a39368b7", "lon": -77.03273283333333, "is_disabled": 0, "fusion_lat": 0.0, "fusion_lon": 0.0, "name": "2d645099ec8b111b2f90c360a39368b7", "type": "electric_scooter"}, {"rental_uris": {"ios": "https://dc.lft.to/lastmile_qr_scan", "android": "https://dc.lft.to/lastmile_qr_scan"}, "lat": 38.902009, "is_reserved": 0, "bike_id": "f8c35bb16b60d80b8877ac98758d2f90", "lon": -76.98251933333333, "is_disabled": 0, "fusion_lat": 0.0, "fusion_lon": 0.0, "name": "f8c35bb16b60d80b8877ac98758d2f90", "type": "electric_scooter"}, {"rental_uris": {"ios": "https://dc.lft.to/lastmile_qr_scan", "android": "https://dc.lft.to/lastmile_qr_scan"}, "lat": 38.95649566666667, "is_reserved": 0, "bike_id": "59c1298951d0907d16de0d8613f724b8", "lon": -77.0130795, "is_disabled": 0, "fusion_lat": 0.0, "fusion_lon": 0.0, "name": "59c1298951d0907d16de0d8613f724b8", "type": "electric_scooter"}, {"rental_uris": {"ios": "https://dc.lft.to/lastmile_qr_scan", "android": "https://dc.lft.to/lastmile_qr_scan"}, "lat": 38.93178916666667, "is_reserved": 0, "bike_id": "2473150b52538d5e8b76a612425360c4", "lon": -77.04297816666667, "is_disabled": 0, "fusion_lat": 0.0, "fusion_lon": 0.0, "name": "2473150b52538d5e8b76a612425360c4", "type": "electric_scooter"}, {"rental_uris": {"ios": "https://dc.lft.to/lastmile_qr_scan", "android": "https://dc.lft.to/lastmile_qr_scan"}, "lat": 38.914088166666666, "is_reserved": 0, "bike_id": "9232ee6ca09582cd6c6f24d18dd70309", "lon": -77.015633, "is_disabled": 0, "fusion_lat": 0.0, "fusion_lon": 0.0, "name": "9232ee6ca09582cd6c6f24d18dd70309", "type": "electric_scooter"}, {"rental_uris": {"ios": "https://dc.lft.to/lastmile_qr_scan", "android": "https://dc.lft.to/lastmile_qr_scan"}, "lat": 38.91297616666667, "is_reserved": 0, "bike_id": "67f217bcaad47d9c893bf05c14af3c35", "lon": -77.0487345, "is_disabled": 0, "fusion_lat": 0.0, "fusion_lon": 0.0, "name": "67f217bcaad47d9c893bf05c14af3c35", "type": "electric_scooter"}, {"rental_uris": {"ios": "https://dc.lft.to/lastmile_qr_scan", "android": "https://dc.lft.to/lastmile_qr_scan"}, "lat": 38.9412355, "is_reserved": 0, "bike_id": "f7998caf8ecce31efffd982e5c890156", "lon": -77.01540783333333, "is_disabled": 0, "fusion_lat": 0.0, "fusion_lon": 0.0, "name": "f7998caf8ecce31efffd982e5c890156", "type": "electric_scooter"}, {"rental_uris": {"ios": "https://dc.lft.to/lastmile_qr_scan", "android": "https://dc.lft.to/lastmile_qr_scan"}, "lat": 38.9410245, "is_reserved": 0, "bike_id": "1b4a6b634d7a8f54b7f69e7fafb7844a", "lon": -77.07599233333333, "is_disabled": 0, "fusion_lat": 0.0, "fusion_lon": 0.0, "name": "1b4a6b634d7a8f54b7f69e7fafb7844a", "type": "electric_scooter"}, {"rental_uris": {"ios": "https://dc.lft.to/lastmile_qr_scan", "android": "https://dc.lft.to/lastmile_qr_scan"}, "lat": 38.896541, "is_reserved": 0, "bike_id": "50ba7e18c90b10ff14661cc1362c3120", "lon": -77.0186645, "is_disabled": 0, "fusion_lat": 0.0, "fusion_lon": 0.0, "name": "50ba7e18c90b10ff14661cc1362c3120", "type": "electric_scooter"}, {"rental_uris": {"ios": "https://dc.lft.to/lastmile_qr_scan", "android": "https://dc.lft.to/lastmile_qr_scan"}, "lat": 38.90415016666667, "is_reserved": 0, "bike_id": "3808b09c2ea8780dae464544174bf9f9", "lon": -77.00574266666666, "is_disabled": 0, "fusion_lat": 0.0, "fusion_lon": 0.0, "name": "3808b09c2ea8780dae464544174bf9f9", "type": "electric_scooter"}, {"rental_uris": {"ios": "https://dc.lft.to/lastmile_qr_scan", "android": "https://dc.lft.to/lastmile_qr_scan"}, "lat": 38.91614966666667, "is_reserved": 0, "bike_id": "aa5a14f0411e94e7f997d3c67f7d5c6b", "lon": -77.041565, "is_disabled": 0, "fusion_lat": 0.0, "fusion_lon": 0.0, "name": "aa5a14f0411e94e7f997d3c67f7d5c6b", "type": "electric_scooter"}, {"rental_uris": {"ios": "https://dc.lft.to/lastmile_qr_scan", "android": "https://dc.lft.to/lastmile_qr_scan"}, "lat": 38.90964866666667, "is_reserved": 0, "bike_id": "4b1093c6645f6163d7bcfffd415b55ca", "lon": -77.0231145, "is_disabled": 0, "fusion_lat": 0.0, "fusion_lon": 0.0, "name": "4b1093c6645f6163d7bcfffd415b55ca", "type": "electric_scooter"}, {"rental_uris": {"ios": "https://dc.lft.to/lastmile_qr_scan", "android": "https://dc.lft.to/lastmile_qr_scan"}, "lat": 38.91805566666667, "is_reserved": 0, "bike_id": "4f5e9fd20acf7b82b72136e4e4de39c7", "lon": -77.034395, "is_disabled": 0, "fusion_lat": 0.0, "fusion_lon": 0.0, "name": "4f5e9fd20acf7b82b72136e4e4de39c7", "type": "electric_scooter"}, {"rental_uris": {"ios": "https://dc.lft.to/lastmile_qr_scan", "android": "https://dc.lft.to/lastmile_qr_scan"}, "lat": 38.91703, "is_reserved": 0, "bike_id": "18885685fc6edcbb9939dfd534554370", "lon": -77.04347466666667, "is_disabled": 0, "fusion_lat": 0.0, "fusion_lon": 0.0, "name": "18885685fc6edcbb9939dfd534554370", "type": "electric_scooter"}, {"rental_uris": {"ios": "https://dc.lft.to/lastmile_qr_scan", "android": "https://dc.lft.to/lastmile_qr_scan"}, "lat": 38.89073533333333, "is_reserved": 0, "bike_id": "f303dcaea9747ac13baf90845944eb3d", "lon": -76.98828966666666, "is_disabled": 0, "fusion_lat": 0.0, "fusion_lon": 0.0, "name": "f303dcaea9747ac13baf90845944eb3d", "type": "electric_scooter"}, {"rental_uris": {"ios": "https://dc.lft.to/lastmile_qr_scan", "android": "https://dc.lft.to/lastmile_qr_scan"}, "lat": 38.86649366666666, "is_reserved": 0, "bike_id": "80055e7b1bc7e9d125acd529ff8822c3", "lon": -76.9850785, "is_disabled": 0, "fusion_lat": 0.0, "fusion_lon": 0.0, "name": "80055e7b1bc7e9d125acd529ff8822c3", "type": "electric_scooter"}, {"rental_uris": {"ios": "https://dc.lft.to/lastmile_qr_scan", "android": "https://dc.lft.to/lastmile_qr_scan"}, "lat": 38.90465783333333, "is_reserved": 0, "bike_id": "7d4a24002e524e21e463abfc7bf8f791", "lon": -77.019368, "is_disabled": 0, "fusion_lat": 0.0, "fusion_lon": 0.0, "name": "7d4a24002e524e21e463abfc7bf8f791", "type": "electric_scooter"}, {"rental_uris": {"ios": "https://dc.lft.to/lastmile_qr_scan", "android": "https://dc.lft.to/lastmile_qr_scan"}, "lat": 38.88448483333333, "is_reserved": 0, "bike_id": "7a9f2089f76d9d3383b5b527e6ebda20", "lon": -76.95098016666667, "is_disabled": 0, "fusion_lat": 0.0, "fusion_lon": 0.0, "name": "7a9f2089f76d9d3383b5b527e6ebda20", "type": "electric_scooter"}, {"rental_uris": {"ios": "https://dc.lft.to/lastmile_qr_scan", "android": "https://dc.lft.to/lastmile_qr_scan"}, "lat": 38.906971166666665, "is_reserved": 0, "bike_id": "dfd036f9e73224c5b44e450ad2164031", "lon": -76.999776, "is_disabled": 0, "fusion_lat": 0.0, "fusion_lon": 0.0, "name": "dfd036f9e73224c5b44e450ad2164031", "type": "electric_scooter"}, {"rental_uris": {"ios": "https://dc.lft.to/lastmile_qr_scan", "android": "https://dc.lft.to/lastmile_qr_scan"}, "lat": 38.91048816666667, "is_reserved": 0, "bike_id": "9cb76d2624bf22849be6b80433ac9af0", "lon": -77.02685366666667, "is_disabled": 0, "fusion_lat": 0.0, "fusion_lon": 0.0, "name": "9cb76d2624bf22849be6b80433ac9af0", "type": "electric_scooter"}, {"rental_uris": {"ios": "https://dc.lft.to/lastmile_qr_scan", "android": "https://dc.lft.to/lastmile_qr_scan"}, "lat": 38.918125833333335, "is_reserved": 0, "bike_id": "01fea5e3ef9ed689728ed2cc927f7205", "lon": -77.03174533333333, "is_disabled": 0, "fusion_lat": 0.0, "fusion_lon": 0.0, "name": "01fea5e3ef9ed689728ed2cc927f7205", "type": "electric_scooter"}, {"rental_uris": {"ios": "https://dc.lft.to/lastmile_qr_scan", "android": "https://dc.lft.to/lastmile_qr_scan"}, "lat": 38.87692083333334, "is_reserved": 0, "bike_id": "8dee1e0a83e8b41d93bea00ac461bea8", "lon": -77.00686166666667, "is_disabled": 0, "fusion_lat": 0.0, "fusion_lon": 0.0, "name": "8dee1e0a83e8b41d93bea00ac461bea8", "type": "electric_scooter"}, {"rental_uris": {"ios": "https://dc.lft.to/lastmile_qr_scan", "android": "https://dc.lft.to/lastmile_qr_scan"}, "lat": 38.866808166666665, "is_reserved": 0, "bike_id": "9e57d65e54a272347c0ef0679130bc0d", "lon": -76.985659, "is_disabled": 0, "fusion_lat": 0.0, "fusion_lon": 0.0, "name": "9e57d65e54a272347c0ef0679130bc0d", "type": "electric_scooter"}, {"rental_uris": {"ios": "https://dc.lft.to/lastmile_qr_scan", "android": "https://dc.lft.to/lastmile_qr_scan"}, "lat": 38.90111666666667, "is_reserved": 0, "bike_id": "6f70f632bbd6ddcf0971a14c09967c0a", "lon": -77.04233516666666, "is_disabled": 0, "fusion_lat": 0.0, "fusion_lon": 0.0, "name": "6f70f632bbd6ddcf0971a14c09967c0a", "type": "electric_scooter"}, {"rental_uris": {"ios": "https://dc.lft.to/lastmile_qr_scan", "android": "https://dc.lft.to/lastmile_qr_scan"}, "lat": 38.91599933333333, "is_reserved": 0, "bike_id": "3a1672858104ba7791e016c3ef4a168d", "lon": -77.02194166666666, "is_disabled": 0, "fusion_lat": 0.0, "fusion_lon": 0.0, "name": "3a1672858104ba7791e016c3ef4a168d", "type": "electric_scooter"}, {"rental_uris": {"ios": "https://dc.lft.to/lastmile_qr_scan", "android": "https://dc.lft.to/lastmile_qr_scan"}, "lat": 38.917066166666665, "is_reserved": 0, "bike_id": "add3ad6063e3d597fa229ebf6a916413", "lon": -77.03864866666666, "is_disabled": 0, "fusion_lat": 0.0, "fusion_lon": 0.0, "name": "add3ad6063e3d597fa229ebf6a916413", "type": "electric_scooter"}, {"rental_uris": {"ios": "https://dc.lft.to/lastmile_qr_scan", "android": "https://dc.lft.to/lastmile_qr_scan"}, "lat": 38.89233183333333, "is_reserved": 0, "bike_id": "17a33fe8df93aa44135e11b9edb95ff4", "lon": -77.03209316666667, "is_disabled": 0, "fusion_lat": 0.0, "fusion_lon": 0.0, "name": "17a33fe8df93aa44135e11b9edb95ff4", "type": "electric_scooter"}, {"rental_uris": {"ios": "https://dc.lft.to/lastmile_qr_scan", "android": "https://dc.lft.to/lastmile_qr_scan"}, "lat": 38.91186616666667, "is_reserved": 0, "bike_id": "b7c4b4982f2ac1d4587c58e87283369d", "lon": -77.07307966666667, "is_disabled": 0, "fusion_lat": 0.0, "fusion_lon": 0.0, "name": "b7c4b4982f2ac1d4587c58e87283369d", "type": "electric_scooter"}, {"rental_uris": {"ios": "https://dc.lft.to/lastmile_qr_scan", "android": "https://dc.lft.to/lastmile_qr_scan"}, "lat": 38.918472666666666, "is_reserved": 0, "bike_id": "764bb13beeaf271641ffdb7d5c6b324f", "lon": -77.06190816666667, "is_disabled": 0, "fusion_lat": 0.0, "fusion_lon": 0.0, "name": "764bb13beeaf271641ffdb7d5c6b324f", "type": "electric_scooter"}, {"rental_uris": {"ios": "https://dc.lft.to/lastmile_qr_scan", "android": "https://dc.lft.to/lastmile_qr_scan"}, "lat": 38.919522666666666, "is_reserved": 0, "bike_id": "8d47121031f5f9f5a0ff81a3250b300e", "lon": -77.041754, "is_disabled": 0, "fusion_lat": 0.0, "fusion_lon": 0.0, "name": "8d47121031f5f9f5a0ff81a3250b300e", "type": "electric_scooter"}, {"rental_uris": {"ios": "https://dc.lft.to/lastmile_qr_scan", "android": "https://dc.lft.to/lastmile_qr_scan"}, "lat": 38.94446683333334, "is_reserved": 0, "bike_id": "e7fa04de894d3d5ba10411975d21b75a", "lon": -77.02344616666667, "is_disabled": 0, "fusion_lat": 0.0, "fusion_lon": 0.0, "name": "e7fa04de894d3d5ba10411975d21b75a", "type": "electric_scooter"}, {"rental_uris": {"ios": "https://dc.lft.to/lastmile_qr_scan", "android": "https://dc.lft.to/lastmile_qr_scan"}, "lat": 38.90406816666667, "is_reserved": 0, "bike_id": "47f3ac82c24631ad3578651ae8486709", "lon": -77.0436135, "is_disabled": 0, "fusion_lat": 0.0, "fusion_lon": 0.0, "name": "47f3ac82c24631ad3578651ae8486709", "type": "electric_scooter"}, {"rental_uris": {"ios": "https://dc.lft.to/lastmile_qr_scan", "android": "https://dc.lft.to/lastmile_qr_scan"}, "lat": 38.976296833333336, "is_reserved": 0, "bike_id": "6dd3686378abd12e5372dd4c8d79f051", "lon": -77.01566466666667, "is_disabled": 0, "fusion_lat": 0.0, "fusion_lon": 0.0, "name": "6dd3686378abd12e5372dd4c8d79f051", "type": "electric_scooter"}, {"rental_uris": {"ios": "https://dc.lft.to/lastmile_qr_scan", "android": "https://dc.lft.to/lastmile_qr_scan"}, "lat": 38.892319, "is_reserved": 0, "bike_id": "1f1e29f9c94e636f236211a65ad52f0b", "lon": -77.022066, "is_disabled": 0, "fusion_lat": 0.0, "fusion_lon": 0.0, "name": "1f1e29f9c94e636f236211a65ad52f0b", "type": "electric_scooter"}, {"rental_uris": {"ios": "https://dc.lft.to/lastmile_qr_scan", "android": "https://dc.lft.to/lastmile_qr_scan"}, "lat": 38.920931833333334, "is_reserved": 0, "bike_id": "37832d9d98539f9a0606dcf81590c340", "lon": -77.0203725, "is_disabled": 0, "fusion_lat": 0.0, "fusion_lon": 0.0, "name": "37832d9d98539f9a0606dcf81590c340", "type": "electric_scooter"}, {"rental_uris": {"ios": "https://dc.lft.to/lastmile_qr_scan", "android": "https://dc.lft.to/lastmile_qr_scan"}, "lat": 38.94146633333333, "is_reserved": 0, "bike_id": "1bdb4fe36ad0c23f14625c73a12d5f2f", "lon": -77.00191783333334, "is_disabled": 0, "fusion_lat": 0.0, "fusion_lon": 0.0, "name": "1bdb4fe36ad0c23f14625c73a12d5f2f", "type": "electric_bike"}, {"rental_uris": {"ios": "https://dc.lft.to/lastmile_qr_scan", "android": "https://dc.lft.to/lastmile_qr_scan"}, "lat": 38.866883333333334, "is_reserved": 0, "bike_id": "4491130ca92d940042ec03d41a391d18", "lon": -76.98545783333333, "is_disabled": 0, "fusion_lat": 0.0, "fusion_lon": 0.0, "name": "4491130ca92d940042ec03d41a391d18", "type": "electric_scooter"}, {"rental_uris": {"ios": "https://dc.lft.to/lastmile_qr_scan", "android": "https://dc.lft.to/lastmile_qr_scan"}, "lat": 38.9327095, "is_reserved": 0, "bike_id": "6a05cefe26acd64f3acec8df3f3c8300", "lon": -77.04535216666666, "is_disabled": 0, "fusion_lat": 0.0, "fusion_lon": 0.0, "name": "6a05cefe26acd64f3acec8df3f3c8300", "type": "electric_scooter"}, {"rental_uris": {"ios": "https://dc.lft.to/lastmile_qr_scan", "android": "https://dc.lft.to/lastmile_qr_scan"}, "lat": 38.90227766666667, "is_reserved": 0, "bike_id": "53dd2faab4a926b1b5c2970a16d5ae80", "lon": -77.03772783333334, "is_disabled": 0, "fusion_lat": 0.0, "fusion_lon": 0.0, "name": "53dd2faab4a926b1b5c2970a16d5ae80", "type": "electric_scooter"}, {"rental_uris": {"ios": "https://dc.lft.to/lastmile_qr_scan", "android": "https://dc.lft.to/lastmile_qr_scan"}, "lat": 38.906512166666666, "is_reserved": 0, "bike_id": "c1d1f175fb41cb88d9c18c957ce47fa4", "lon": -77.02529316666667, "is_disabled": 0, "fusion_lat": 0.0, "fusion_lon": 0.0, "name": "c1d1f175fb41cb88d9c18c957ce47fa4", "type": "electric_scooter"}, {"rental_uris": {"ios": "https://dc.lft.to/lastmile_qr_scan", "android": "https://dc.lft.to/lastmile_qr_scan"}, "lat": 38.931014166666664, "is_reserved": 0, "bike_id": "e275b92fd5fa7d03b1e91962bf6e884d", "lon": -77.02482283333333, "is_disabled": 0, "fusion_lat": 0.0, "fusion_lon": 0.0, "name": "e275b92fd5fa7d03b1e91962bf6e884d", "type": "electric_scooter"}, {"rental_uris": {"ios": "https://dc.lft.to/lastmile_qr_scan", "android": "https://dc.lft.to/lastmile_qr_scan"}, "lat": 38.928125, "is_reserved": 0, "bike_id": "f264b9365bcb5d5ebaaa9b8e5cd3e6fe", "lon": -77.02675633333334, "is_disabled": 0, "fusion_lat": 0.0, "fusion_lon": 0.0, "name": "f264b9365bcb5d5ebaaa9b8e5cd3e6fe", "type": "electric_scooter"}, {"rental_uris": {"ios": "https://dc.lft.to/lastmile_qr_scan", "android": "https://dc.lft.to/lastmile_qr_scan"}, "lat": 38.921857, "is_reserved": 0, "bike_id": "e487d3e29ad8043976bc9cc5ffaa06e6", "lon": -77.042275, "is_disabled": 0, "fusion_lat": 0.0, "fusion_lon": 0.0, "name": "e487d3e29ad8043976bc9cc5ffaa06e6", "type": "electric_scooter"}, {"rental_uris": {"ios": "https://dc.lft.to/lastmile_qr_scan", "android": "https://dc.lft.to/lastmile_qr_scan"}, "lat": 38.927945333333334, "is_reserved": 0, "bike_id": "70193721e574fe9bed2a805d5adfc5c3", "lon": -77.05534916666667, "is_disabled": 0, "fusion_lat": 0.0, "fusion_lon": 0.0, "name": "70193721e574fe9bed2a805d5adfc5c3", "type": "electric_scooter"}, {"rental_uris": {"ios": "https://dc.lft.to/lastmile_qr_scan", "android": "https://dc.lft.to/lastmile_qr_scan"}, "lat": 38.88468616666667, "is_reserved": 0, "bike_id": "6448ae1d4f49f536d5b71a14789126f2", "lon": -76.95669266666667, "is_disabled": 0, "fusion_lat": 0.0, "fusion_lon": 0.0, "name": "6448ae1d4f49f536d5b71a14789126f2", "type": "electric_bike"}, {"rental_uris": {"ios": "https://dc.lft.to/lastmile_qr_scan", "android": "https://dc.lft.to/lastmile_qr_scan"}, "lat": 38.8747795, "is_reserved": 0, "bike_id": "d8503c979885138c1b5130de7dc58b55", "lon": -77.00827333333334, "is_disabled": 0, "fusion_lat": 0.0, "fusion_lon": 0.0, "name": "d8503c979885138c1b5130de7dc58b55", "type": "electric_scooter"}, {"rental_uris": {"ios": "https://dc.lft.to/lastmile_qr_scan", "android": "https://dc.lft.to/lastmile_qr_scan"}, "lat": 38.91835, "is_reserved": 0, "bike_id": "a7c8da5c3ff07269f9ad5735f8ffa44e", "lon": -77.03889516666666, "is_disabled": 0, "fusion_lat": 0.0, "fusion_lon": 0.0, "name": "a7c8da5c3ff07269f9ad5735f8ffa44e", "type": "electric_scooter"}, {"rental_uris": {"ios": "https://dc.lft.to/lastmile_qr_scan", "android": "https://dc.lft.to/lastmile_qr_scan"}, "lat": 38.879023, "is_reserved": 0, "bike_id": "1c184e98cc403d3024983e6a3b29fe0a", "lon": -77.02155616666667, "is_disabled": 0, "fusion_lat": 0.0, "fusion_lon": 0.0, "name": "1c184e98cc403d3024983e6a3b29fe0a", "type": "electric_scooter"}, {"rental_uris": {"ios": "https://dc.lft.to/lastmile_qr_scan", "android": "https://dc.lft.to/lastmile_qr_scan"}, "lat": 38.897438666666666, "is_reserved": 0, "bike_id": "6175fb1043746eb7842aa49984e604a9", "lon": -77.018965, "is_disabled": 0, "fusion_lat": 0.0, "fusion_lon": 0.0, "name": "6175fb1043746eb7842aa49984e604a9", "type": "electric_scooter"}, {"rental_uris": {"ios": "https://dc.lft.to/lastmile_qr_scan", "android": "https://dc.lft.to/lastmile_qr_scan"}, "lat": 38.90682433333333, "is_reserved": 0, "bike_id": "5549bf20ffbffa997635278a28edc240", "lon": -76.98500033333333, "is_disabled": 0, "fusion_lat": 0.0, "fusion_lon": 0.0, "name": "5549bf20ffbffa997635278a28edc240", "type": "electric_scooter"}, {"rental_uris": {"ios": "https://dc.lft.to/lastmile_qr_scan", "android": "https://dc.lft.to/lastmile_qr_scan"}, "lat": 38.882690833333335, "is_reserved": 0, "bike_id": "4c40b664395c51f959522be62b42ca26", "lon": -76.9948175, "is_disabled": 0, "fusion_lat": 0.0, "fusion_lon": 0.0, "name": "4c40b664395c51f959522be62b42ca26", "type": "electric_scooter"}, {"rental_uris": {"ios": "https://dc.lft.to/lastmile_qr_scan", "android": "https://dc.lft.to/lastmile_qr_scan"}, "lat": 38.87687483333333, "is_reserved": 0, "bike_id": "ee187753707763c99054ee0254a0c8eb", "lon": -77.00061866666667, "is_disabled": 0, "fusion_lat": 0.0, "fusion_lon": 0.0, "name": "ee187753707763c99054ee0254a0c8eb", "type": "electric_scooter"}, {"rental_uris": {"ios": "https://dc.lft.to/lastmile_qr_scan", "android": "https://dc.lft.to/lastmile_qr_scan"}, "lat": 38.92465116666666, "is_reserved": 0, "bike_id": "a08ad52a3d9d9e9cc725cc8b29eeec6a", "lon": -77.0220695, "is_disabled": 0, "fusion_lat": 0.0, "fusion_lon": 0.0, "name": "a08ad52a3d9d9e9cc725cc8b29eeec6a", "type": "electric_scooter"}, {"rental_uris": {"ios": "https://dc.lft.to/lastmile_qr_scan", "android": "https://dc.lft.to/lastmile_qr_scan"}, "lat": 38.8863655, "is_reserved": 0, "bike_id": "5726efb5ea83b7907b6a97c05608d1ad", "lon": -77.0155065, "is_disabled": 0, "fusion_lat": 0.0, "fusion_lon": 0.0, "name": "5726efb5ea83b7907b6a97c05608d1ad", "type": "electric_scooter"}, {"rental_uris": {"ios": "https://dc.lft.to/lastmile_qr_scan", "android": "https://dc.lft.to/lastmile_qr_scan"}, "lat": 38.95724, "is_reserved": 0, "bike_id": "0893e0ce6e2b2de695d7a40f0f07ea1d", "lon": -77.028716, "is_disabled": 0, "fusion_lat": 0.0, "fusion_lon": 0.0, "name": "0893e0ce6e2b2de695d7a40f0f07ea1d", "type": "electric_scooter"}, {"rental_uris": {"ios": "https://dc.lft.to/lastmile_qr_scan", "android": "https://dc.lft.to/lastmile_qr_scan"}, "lat": 39.03897933333333, "is_reserved": 0, "bike_id": "7dd87c18f3cab6123a82b733a017b125", "lon": -77.05042966666667, "is_disabled": 0, "fusion_lat": 0.0, "fusion_lon": 0.0, "name": "7dd87c18f3cab6123a82b733a017b125", "type": "electric_bike"}, {"rental_uris": {"ios": "https://dc.lft.to/lastmile_qr_scan", "android": "https://dc.lft.to/lastmile_qr_scan"}, "lat": 38.897326, "is_reserved": 0, "bike_id": "4e472341dda36a39e3f4506f6988b992", "lon": -77.04714033333333, "is_disabled": 0, "fusion_lat": 0.0, "fusion_lon": 0.0, "name": "4e472341dda36a39e3f4506f6988b992", "type": "electric_scooter"}, {"rental_uris": {"ios": "https://dc.lft.to/lastmile_qr_scan", "android": "https://dc.lft.to/lastmile_qr_scan"}, "lat": 38.903522333333335, "is_reserved": 0, "bike_id": "85c9a4d5d35eec423a886ecc2a4b48db", "lon": -77.0371485, "is_disabled": 0, "fusion_lat": 0.0, "fusion_lon": 0.0, "name": "85c9a4d5d35eec423a886ecc2a4b48db", "type": "electric_scooter"}, {"rental_uris": {"ios": "https://dc.lft.to/lastmile_qr_scan", "android": "https://dc.lft.to/lastmile_qr_scan"}, "lat": 38.87549633333333, "is_reserved": 0, "bike_id": "a628457493e9d88a6d5208bce5ad9fbc", "lon": -77.10699533333333, "is_disabled": 0, "fusion_lat": 0.0, "fusion_lon": 0.0, "name": "a628457493e9d88a6d5208bce5ad9fbc", "type": "electric_bike"}, {"rental_uris": {"ios": "https://dc.lft.to/lastmile_qr_scan", "android": "https://dc.lft.to/lastmile_qr_scan"}, "lat": 38.924977166666665, "is_reserved": 0, "bike_id": "737253713e722ca7e7f8ad3c8c337533", "lon": -77.05764766666667, "is_disabled": 0, "fusion_lat": 0.0, "fusion_lon": 0.0, "name": "737253713e722ca7e7f8ad3c8c337533", "type": "electric_scooter"}, {"rental_uris": {"ios": "https://dc.lft.to/lastmile_qr_scan", "android": "https://dc.lft.to/lastmile_qr_scan"}, "lat": 38.926552, "is_reserved": 0, "bike_id": "9a29326ae1d467b0975b7593fe100061", "lon": -77.03729766666666, "is_disabled": 0, "fusion_lat": 0.0, "fusion_lon": 0.0, "name": "9a29326ae1d467b0975b7593fe100061", "type": "electric_scooter"}, {"rental_uris": {"ios": "https://dc.lft.to/lastmile_qr_scan", "android": "https://dc.lft.to/lastmile_qr_scan"}, "lat": 38.8748945, "is_reserved": 0, "bike_id": "abb98761da4328de5b3692349cf64463", "lon": -77.2112905, "is_disabled": 0, "fusion_lat": 0.0, "fusion_lon": 0.0, "name": "abb98761da4328de5b3692349cf64463", "type": "electric_bike"}, {"rental_uris": {"ios": "https://dc.lft.to/lastmile_qr_scan", "android": "https://dc.lft.to/lastmile_qr_scan"}, "lat": 38.8910145, "is_reserved": 0, "bike_id": "326388f40ca6e2c46a91cb2e6e38c2c1", "lon": -76.93486816666666, "is_disabled": 0, "fusion_lat": 0.0, "fusion_lon": 0.0, "name": "326388f40ca6e2c46a91cb2e6e38c2c1", "type": "electric_bike"}, {"rental_uris": {"ios": "https://dc.lft.to/lastmile_qr_scan", "android": "https://dc.lft.to/lastmile_qr_scan"}, "lat": 38.916295166666664, "is_reserved": 0, "bike_id": "33d9723fd7d642f9d7d64efdabbfb7ae", "lon": -77.02602266666666, "is_disabled": 0, "fusion_lat": 0.0, "fusion_lon": 0.0, "name": "33d9723fd7d642f9d7d64efdabbfb7ae", "type": "electric_scooter"}, {"rental_uris": {"ios": "https://dc.lft.to/lastmile_qr_scan", "android": "https://dc.lft.to/lastmile_qr_scan"}, "lat": 38.896140333333335, "is_reserved": 0, "bike_id": "34affb1cb1ad11b79c0701f4b5dedfd4", "lon": -76.90735933333333, "is_disabled": 0, "fusion_lat": 0.0, "fusion_lon": 0.0, "name": "34affb1cb1ad11b79c0701f4b5dedfd4", "type": "electric_bike"}, {"rental_uris": {"ios": "https://dc.lft.to/lastmile_qr_scan", "android": "https://dc.lft.to/lastmile_qr_scan"}, "lat": 38.91878216666667, "is_reserved": 0, "bike_id": "add2a8f0d6363e74b9b9e935300d9765", "lon": -77.02208066666667, "is_disabled": 0, "fusion_lat": 0.0, "fusion_lon": 0.0, "name": "add2a8f0d6363e74b9b9e935300d9765", "type": "electric_scooter"}, {"rental_uris": {"ios": "https://dc.lft.to/lastmile_qr_scan", "android": "https://dc.lft.to/lastmile_qr_scan"}, "lat": 38.92737266666666, "is_reserved": 0, "bike_id": "8a36dcbdcaf48293b26c9ce226e310ce", "lon": -77.022611, "is_disabled": 0, "fusion_lat": 0.0, "fusion_lon": 0.0, "name": "8a36dcbdcaf48293b26c9ce226e310ce", "type": "electric_scooter"}, {"rental_uris": {"ios": "https://dc.lft.to/lastmile_qr_scan", "android": "https://dc.lft.to/lastmile_qr_scan"}, "lat": 38.897336833333334, "is_reserved": 0, "bike_id": "a5ae7b3e62146508c33efe6670702c2d", "lon": -77.03362216666666, "is_disabled": 0, "fusion_lat": 0.0, "fusion_lon": 0.0, "name": "a5ae7b3e62146508c33efe6670702c2d", "type": "electric_scooter"}, {"rental_uris": {"ios": "https://dc.lft.to/lastmile_qr_scan", "android": "https://dc.lft.to/lastmile_qr_scan"}, "lat": 38.897512666666664, "is_reserved": 0, "bike_id": "351f21dc1d3706e40d02f175f192fdab", "lon": -77.01892616666666, "is_disabled": 0, "fusion_lat": 0.0, "fusion_lon": 0.0, "name": "351f21dc1d3706e40d02f175f192fdab", "type": "electric_scooter"}, {"rental_uris": {"ios": "https://dc.lft.to/lastmile_qr_scan", "android": "https://dc.lft.to/lastmile_qr_scan"}, "lat": 38.91902666666667, "is_reserved": 0, "bike_id": "2d456fe695c7c55c849ab7cf2e5c9cac", "lon": -77.03123083333334, "is_disabled": 0, "fusion_lat": 0.0, "fusion_lon": 0.0, "name": "2d456fe695c7c55c849ab7cf2e5c9cac", "type": "electric_scooter"}, {"rental_uris": {"ios": "https://dc.lft.to/lastmile_qr_scan", "android": "https://dc.lft.to/lastmile_qr_scan"}, "lat": 38.84610033333333, "is_reserved": 0, "bike_id": "69725455b724b320524d2b08feb88d3d", "lon": -76.9691565, "is_disabled": 0, "fusion_lat": 0.0, "fusion_lon": 0.0, "name": "69725455b724b320524d2b08feb88d3d", "type": "electric_bike"}, {"rental_uris": {"ios": "https://dc.lft.to/lastmile_qr_scan", "android": "https://dc.lft.to/lastmile_qr_scan"}, "lat": 38.874224, "is_reserved": 0, "bike_id": "c72b4ad6a59146a8bbb8d9b08740a5b4", "lon": -77.0856715, "is_disabled": 0, "fusion_lat": 0.0, "fusion_lon": 0.0, "name": "c72b4ad6a59146a8bbb8d9b08740a5b4", "type": "electric_bike"}, {"rental_uris": {"ios": "https://dc.lft.to/lastmile_qr_scan", "android": "https://dc.lft.to/lastmile_qr_scan"}, "lat": 38.909470666666664, "is_reserved": 0, "bike_id": "4a32d138b9b66447c26b0de41218987a", "lon": -77.03181983333333, "is_disabled": 0, "fusion_lat": 0.0, "fusion_lon": 0.0, "name": "4a32d138b9b66447c26b0de41218987a", "type": "electric_bike"}, {"rental_uris": {"ios": "https://dc.lft.to/lastmile_qr_scan", "android": "https://dc.lft.to/lastmile_qr_scan"}, "lat": 38.91725533333333, "is_reserved": 0, "bike_id": "593a30374c5e39a9f4e1b23c81dfdc9a", "lon": -77.06834466666666, "is_disabled": 0, "fusion_lat": 0.0, "fusion_lon": 0.0, "name": "593a30374c5e39a9f4e1b23c81dfdc9a", "type": "electric_scooter"}, {"rental_uris": {"ios": "https://dc.lft.to/lastmile_qr_scan", "android": "https://dc.lft.to/lastmile_qr_scan"}, "lat": 38.912538166666664, "is_reserved": 0, "bike_id": "00874b34f0e68d26b5d6a8f1d4c27b5b", "lon": -77.03935383333334, "is_disabled": 0, "fusion_lat": 0.0, "fusion_lon": 0.0, "name": "00874b34f0e68d26b5d6a8f1d4c27b5b", "type": "electric_scooter"}, {"rental_uris": {"ios": "https://dc.lft.to/lastmile_qr_scan", "android": "https://dc.lft.to/lastmile_qr_scan"}, "lat": 38.87569666666667, "is_reserved": 0, "bike_id": "34d11e60eedcca682be5aed197c49322", "lon": -77.00595866666667, "is_disabled": 0, "fusion_lat": 0.0, "fusion_lon": 0.0, "name": "34d11e60eedcca682be5aed197c49322", "type": "electric_scooter"}, {"rental_uris": {"ios": "https://dc.lft.to/lastmile_qr_scan", "android": "https://dc.lft.to/lastmile_qr_scan"}, "lat": 38.922438166666666, "is_reserved": 0, "bike_id": "a817c66df1738fd72d5604bc08ec4740", "lon": -77.01977483333333, "is_disabled": 0, "fusion_lat": 0.0, "fusion_lon": 0.0, "name": "a817c66df1738fd72d5604bc08ec4740", "type": "electric_scooter"}, {"rental_uris": {"ios": "https://dc.lft.to/lastmile_qr_scan", "android": "https://dc.lft.to/lastmile_qr_scan"}, "lat": 38.918326666666665, "is_reserved": 0, "bike_id": "66cbadf5fb73ed4d2c8244e942c3e581", "lon": -77.0271075, "is_disabled": 0, "fusion_lat": 0.0, "fusion_lon": 0.0, "name": "66cbadf5fb73ed4d2c8244e942c3e581", "type": "electric_scooter"}, {"rental_uris": {"ios": "https://dc.lft.to/lastmile_qr_scan", "android": "https://dc.lft.to/lastmile_qr_scan"}, "lat": 38.89624633333333, "is_reserved": 0, "bike_id": "b131f2f22a950adfe0ee4970827ca579", "lon": -77.02698966666667, "is_disabled": 0, "fusion_lat": 0.0, "fusion_lon": 0.0, "name": "b131f2f22a950adfe0ee4970827ca579", "type": "electric_scooter"}, {"rental_uris": {"ios": "https://dc.lft.to/lastmile_qr_scan", "android": "https://dc.lft.to/lastmile_qr_scan"}, "lat": 38.911102666666665, "is_reserved": 0, "bike_id": "58f73ca7376a68cdf6a41ed61b761660", "lon": -77.04504733333333, "is_disabled": 0, "fusion_lat": 0.0, "fusion_lon": 0.0, "name": "58f73ca7376a68cdf6a41ed61b761660", "type": "electric_scooter"}, {"rental_uris": {"ios": "https://dc.lft.to/lastmile_qr_scan", "android": "https://dc.lft.to/lastmile_qr_scan"}, "lat": 38.93881483333333, "is_reserved": 0, "bike_id": "71421ebd605b3310f123ce72ca804b83", "lon": -77.032634, "is_disabled": 0, "fusion_lat": 0.0, "fusion_lon": 0.0, "name": "71421ebd605b3310f123ce72ca804b83", "type": "electric_scooter"}, {"rental_uris": {"ios": "https://dc.lft.to/lastmile_qr_scan", "android": "https://dc.lft.to/lastmile_qr_scan"}, "lat": 38.91864616666667, "is_reserved": 0, "bike_id": "3490c2a61cc00af396e454bc7b4a4a0b", "lon": -77.03653266666667, "is_disabled": 0, "fusion_lat": 0.0, "fusion_lon": 0.0, "name": "3490c2a61cc00af396e454bc7b4a4a0b", "type": "electric_scooter"}, {"rental_uris": {"ios": "https://dc.lft.to/lastmile_qr_scan", "android": "https://dc.lft.to/lastmile_qr_scan"}, "lat": 38.900063, "is_reserved": 0, "bike_id": "3a075d81dc2bc05e6aae20beb74421a7", "lon": -76.9883295, "is_disabled": 0, "fusion_lat": 0.0, "fusion_lon": 0.0, "name": "3a075d81dc2bc05e6aae20beb74421a7", "type": "electric_scooter"}, {"rental_uris": {"ios": "https://dc.lft.to/lastmile_qr_scan", "android": "https://dc.lft.to/lastmile_qr_scan"}, "lat": 38.86570833333333, "is_reserved": 0, "bike_id": "52687272188184c0afda40961ddc36c8", "lon": -76.983408, "is_disabled": 0, "fusion_lat": 0.0, "fusion_lon": 0.0, "name": "52687272188184c0afda40961ddc36c8", "type": "electric_scooter"}, {"rental_uris": {"ios": "https://dc.lft.to/lastmile_qr_scan", "android": "https://dc.lft.to/lastmile_qr_scan"}, "lat": 38.92546, "is_reserved": 0, "bike_id": "329569e80e929249ab0a875d1e027c1a", "lon": -77.02702866666667, "is_disabled": 0, "fusion_lat": 0.0, "fusion_lon": 0.0, "name": "329569e80e929249ab0a875d1e027c1a", "type": "electric_scooter"}, {"rental_uris": {"ios": "https://dc.lft.to/lastmile_qr_scan", "android": "https://dc.lft.to/lastmile_qr_scan"}, "lat": 38.939824, "is_reserved": 0, "bike_id": "4a960f403fb6e9bc17582a58d94ed130", "lon": -77.0326495, "is_disabled": 0, "fusion_lat": 0.0, "fusion_lon": 0.0, "name": "4a960f403fb6e9bc17582a58d94ed130", "type": "electric_scooter"}, {"rental_uris": {"ios": "https://dc.lft.to/lastmile_qr_scan", "android": "https://dc.lft.to/lastmile_qr_scan"}, "lat": 38.95594, "is_reserved": 0, "bike_id": "65ac4b4ec7c6b6332dfe24f91a613ca7", "lon": -77.08058883333334, "is_disabled": 0, "fusion_lat": 0.0, "fusion_lon": 0.0, "name": "65ac4b4ec7c6b6332dfe24f91a613ca7", "type": "electric_scooter"}, {"rental_uris": {"ios": "https://dc.lft.to/lastmile_qr_scan", "android": "https://dc.lft.to/lastmile_qr_scan"}, "lat": 38.88430833333334, "is_reserved": 0, "bike_id": "d67e143eae411b53491a7c3e6d28aa29", "lon": -77.02499683333333, "is_disabled": 0, "fusion_lat": 0.0, "fusion_lon": 0.0, "name": "d67e143eae411b53491a7c3e6d28aa29", "type": "electric_scooter"}, {"rental_uris": {"ios": "https://dc.lft.to/lastmile_qr_scan", "android": "https://dc.lft.to/lastmile_qr_scan"}, "lat": 38.9065795, "is_reserved": 0, "bike_id": "d62a7896126fb55d6bca34765f5a86e6", "lon": -77.02686266666667, "is_disabled": 0, "fusion_lat": 0.0, "fusion_lon": 0.0, "name": "d62a7896126fb55d6bca34765f5a86e6", "type": "electric_scooter"}, {"rental_uris": {"ios": "https://dc.lft.to/lastmile_qr_scan", "android": "https://dc.lft.to/lastmile_qr_scan"}, "lat": 38.933437, "is_reserved": 0, "bike_id": "c860b5f4fc1387ee3f8a793d6fc1988b", "lon": -77.02851416666667, "is_disabled": 0, "fusion_lat": 0.0, "fusion_lon": 0.0, "name": "c860b5f4fc1387ee3f8a793d6fc1988b", "type": "electric_scooter"}, {"rental_uris": {"ios": "https://dc.lft.to/lastmile_qr_scan", "android": "https://dc.lft.to/lastmile_qr_scan"}, "lat": 38.89813083333333, "is_reserved": 0, "bike_id": "50e8fe3c0b5b3065e88aa869597e5cb4", "lon": -76.93135616666666, "is_disabled": 0, "fusion_lat": 0.0, "fusion_lon": 0.0, "name": "50e8fe3c0b5b3065e88aa869597e5cb4", "type": "electric_scooter"}, {"rental_uris": {"ios": "https://dc.lft.to/lastmile_qr_scan", "android": "https://dc.lft.to/lastmile_qr_scan"}, "lat": 38.90033283333333, "is_reserved": 0, "bike_id": "cd1da47326139b295811ce80188ff327", "lon": -76.99846716666667, "is_disabled": 0, "fusion_lat": 0.0, "fusion_lon": 0.0, "name": "cd1da47326139b295811ce80188ff327", "type": "electric_scooter"}, {"rental_uris": {"ios": "https://dc.lft.to/lastmile_qr_scan", "android": "https://dc.lft.to/lastmile_qr_scan"}, "lat": 38.928329, "is_reserved": 0, "bike_id": "4157ba87b6d107607d3d6ed76defbd6c", "lon": -77.014121, "is_disabled": 0, "fusion_lat": 0.0, "fusion_lon": 0.0, "name": "4157ba87b6d107607d3d6ed76defbd6c", "type": "electric_scooter"}, {"rental_uris": {"ios": "https://dc.lft.to/lastmile_qr_scan", "android": "https://dc.lft.to/lastmile_qr_scan"}, "lat": 38.9030805, "is_reserved": 0, "bike_id": "8e72195d628199b1835c6b6863c57488", "lon": -77.034627, "is_disabled": 0, "fusion_lat": 0.0, "fusion_lon": 0.0, "name": "8e72195d628199b1835c6b6863c57488", "type": "electric_scooter"}, {"rental_uris": {"ios": "https://dc.lft.to/lastmile_qr_scan", "android": "https://dc.lft.to/lastmile_qr_scan"}, "lat": 38.92216966666667, "is_reserved": 0, "bike_id": "9911f5251165591a51577dfb6d9e17ea", "lon": -77.2014095, "is_disabled": 0, "fusion_lat": 0.0, "fusion_lon": 0.0, "name": "9911f5251165591a51577dfb6d9e17ea", "type": "electric_bike"}, {"rental_uris": {"ios": "https://dc.lft.to/lastmile_qr_scan", "android": "https://dc.lft.to/lastmile_qr_scan"}, "lat": 38.92981183333333, "is_reserved": 0, "bike_id": "08c4715dff44e6d0faa93ac1d81e4ca0", "lon": -77.0366025, "is_disabled": 0, "fusion_lat": 0.0, "fusion_lon": 0.0, "name": "08c4715dff44e6d0faa93ac1d81e4ca0", "type": "electric_scooter"}, {"rental_uris": {"ios": "https://dc.lft.to/lastmile_qr_scan", "android": "https://dc.lft.to/lastmile_qr_scan"}, "lat": 38.90320166666667, "is_reserved": 0, "bike_id": "d58e0058a8dd55e8be988fe8a529eddb", "lon": -76.97546466666667, "is_disabled": 0, "fusion_lat": 0.0, "fusion_lon": 0.0, "name": "d58e0058a8dd55e8be988fe8a529eddb", "type": "electric_scooter"}, {"rental_uris": {"ios": "https://dc.lft.to/lastmile_qr_scan", "android": "https://dc.lft.to/lastmile_qr_scan"}, "lat": 38.900845833333335, "is_reserved": 0, "bike_id": "bbbdeb538b11186372ce889f161a0751", "lon": -77.01300783333333, "is_disabled": 0, "fusion_lat": 0.0, "fusion_lon": 0.0, "name": "bbbdeb538b11186372ce889f161a0751", "type": "electric_bike"}, {"rental_uris": {"ios": "https://dc.lft.to/lastmile_qr_scan", "android": "https://dc.lft.to/lastmile_qr_scan"}, "lat": 38.923528833333336, "is_reserved": 0, "bike_id": "1b623bc6fead9a8547e194d912d65eb5", "lon": -77.04391883333334, "is_disabled": 0, "fusion_lat": 0.0, "fusion_lon": 0.0, "name": "1b623bc6fead9a8547e194d912d65eb5", "type": "electric_scooter"}, {"rental_uris": {"ios": "https://dc.lft.to/lastmile_qr_scan", "android": "https://dc.lft.to/lastmile_qr_scan"}, "lat": 38.954969, "is_reserved": 0, "bike_id": "df2ce39c42f1408619fe4296421f0ebc", "lon": -77.00199216666667, "is_disabled": 0, "fusion_lat": 0.0, "fusion_lon": 0.0, "name": "df2ce39c42f1408619fe4296421f0ebc", "type": "electric_bike"}, {"rental_uris": {"ios": "https://dc.lft.to/lastmile_qr_scan", "android": "https://dc.lft.to/lastmile_qr_scan"}, "lat": 38.92087183333334, "is_reserved": 0, "bike_id": "4c77ec8a766b83f904062a53e6edd8de", "lon": -77.02543316666667, "is_disabled": 0, "fusion_lat": 0.0, "fusion_lon": 0.0, "name": "4c77ec8a766b83f904062a53e6edd8de", "type": "electric_scooter"}, {"rental_uris": {"ios": "https://dc.lft.to/lastmile_qr_scan", "android": "https://dc.lft.to/lastmile_qr_scan"}, "lat": 38.9169215, "is_reserved": 0, "bike_id": "24e6fc3a6882c89b815889c82d930334", "lon": -77.0314495, "is_disabled": 0, "fusion_lat": 0.0, "fusion_lon": 0.0, "name": "24e6fc3a6882c89b815889c82d930334", "type": "electric_scooter"}, {"rental_uris": {"ios": "https://dc.lft.to/lastmile_qr_scan", "android": "https://dc.lft.to/lastmile_qr_scan"}, "lat": 38.89861, "is_reserved": 0, "bike_id": "309a5fac843beacee1ed9bb3a11b47de", "lon": -76.946406, "is_disabled": 0, "fusion_lat": 0.0, "fusion_lon": 0.0, "name": "309a5fac843beacee1ed9bb3a11b47de", "type": "electric_scooter"}, {"rental_uris": {"ios": "https://dc.lft.to/lastmile_qr_scan", "android": "https://dc.lft.to/lastmile_qr_scan"}, "lat": 38.87653783333333, "is_reserved": 0, "bike_id": "c1853d65351df7e84488dd2a548ea210", "lon": -77.00414966666666, "is_disabled": 0, "fusion_lat": 0.0, "fusion_lon": 0.0, "name": "c1853d65351df7e84488dd2a548ea210", "type": "electric_scooter"}, {"rental_uris": {"ios": "https://dc.lft.to/lastmile_qr_scan", "android": "https://dc.lft.to/lastmile_qr_scan"}, "lat": 38.86683083333333, "is_reserved": 0, "bike_id": "d2f33871bdef67e4565dcbf0adf6e2cc", "lon": -76.98565583333334, "is_disabled": 0, "fusion_lat": 0.0, "fusion_lon": 0.0, "name": "d2f33871bdef67e4565dcbf0adf6e2cc", "type": "electric_scooter"}, {"rental_uris": {"ios": "https://dc.lft.to/lastmile_qr_scan", "android": "https://dc.lft.to/lastmile_qr_scan"}, "lat": 38.883817, "is_reserved": 0, "bike_id": "94562b6e321d5018d562d74643746aa2", "lon": -76.99523, "is_disabled": 0, "fusion_lat": 0.0, "fusion_lon": 0.0, "name": "94562b6e321d5018d562d74643746aa2", "type": "electric_scooter"}, {"rental_uris": {"ios": "https://dc.lft.to/lastmile_qr_scan", "android": "https://dc.lft.to/lastmile_qr_scan"}, "lat": 38.899859166666666, "is_reserved": 0, "bike_id": "216d9c6cb8744dbc514be8b51765f096", "lon": -77.02122016666667, "is_disabled": 0, "fusion_lat": 0.0, "fusion_lon": 0.0, "name": "216d9c6cb8744dbc514be8b51765f096", "type": "electric_bike"}, {"rental_uris": {"ios": "https://dc.lft.to/lastmile_qr_scan", "android": "https://dc.lft.to/lastmile_qr_scan"}, "lat": 38.907333666666666, "is_reserved": 0, "bike_id": "4ca482332a5da22ebcac78f88013b564", "lon": -77.01140383333333, "is_disabled": 0, "fusion_lat": 0.0, "fusion_lon": 0.0, "name": "4ca482332a5da22ebcac78f88013b564", "type": "electric_scooter"}, {"rental_uris": {"ios": "https://dc.lft.to/lastmile_qr_scan", "android": "https://dc.lft.to/lastmile_qr_scan"}, "lat": 38.85788633333333, "is_reserved": 0, "bike_id": "7f0a5ff6a6cde6c514165d2ee39e79f4", "lon": -77.099646, "is_disabled": 0, "fusion_lat": 0.0, "fusion_lon": 0.0, "name": "7f0a5ff6a6cde6c514165d2ee39e79f4", "type": "electric_bike"}, {"rental_uris": {"ios": "https://dc.lft.to/lastmile_qr_scan", "android": "https://dc.lft.to/lastmile_qr_scan"}, "lat": 38.89526383333333, "is_reserved": 0, "bike_id": "a60324018326648f8c99b61981ed8e57", "lon": -77.00198966666666, "is_disabled": 0, "fusion_lat": 0.0, "fusion_lon": 0.0, "name": "a60324018326648f8c99b61981ed8e57", "type": "electric_scooter"}, {"rental_uris": {"ios": "https://dc.lft.to/lastmile_qr_scan", "android": "https://dc.lft.to/lastmile_qr_scan"}, "lat": 38.909142, "is_reserved": 0, "bike_id": "91267c14f7a4628e54289ff623f1b408", "lon": -76.9863415, "is_disabled": 0, "fusion_lat": 0.0, "fusion_lon": 0.0, "name": "91267c14f7a4628e54289ff623f1b408", "type": "electric_scooter"}, {"rental_uris": {"ios": "https://dc.lft.to/lastmile_qr_scan", "android": "https://dc.lft.to/lastmile_qr_scan"}, "lat": 39.0141445, "is_reserved": 0, "bike_id": "6e8ef827a3399439ca42f88e8f8a940d", "lon": -77.04499866666667, "is_disabled": 0, "fusion_lat": 0.0, "fusion_lon": 0.0, "name": "6e8ef827a3399439ca42f88e8f8a940d", "type": "electric_bike"}, {"rental_uris": {"ios": "https://dc.lft.to/lastmile_qr_scan", "android": "https://dc.lft.to/lastmile_qr_scan"}, "lat": 38.81606633333333, "is_reserved": 0, "bike_id": "90161674b6356f078a452f1cc1db4bfa", "lon": -76.9965985, "is_disabled": 0, "fusion_lat": 0.0, "fusion_lon": 0.0, "name": "90161674b6356f078a452f1cc1db4bfa", "type": "electric_bike"}, {"rental_uris": {"ios": "https://dc.lft.to/lastmile_qr_scan", "android": "https://dc.lft.to/lastmile_qr_scan"}, "lat": 38.96110316666667, "is_reserved": 0, "bike_id": "e0651e61e64088935c3ef76bd59e1956", "lon": -77.00948583333333, "is_disabled": 0, "fusion_lat": 0.0, "fusion_lon": 0.0, "name": "e0651e61e64088935c3ef76bd59e1956", "type": "electric_scooter"}, {"rental_uris": {"ios": "https://dc.lft.to/lastmile_qr_scan", "android": "https://dc.lft.to/lastmile_qr_scan"}, "lat": 38.898008833333336, "is_reserved": 0, "bike_id": "52077d035090cfc2b1788bc9bdeb1113", "lon": -76.990725, "is_disabled": 0, "fusion_lat": 0.0, "fusion_lon": 0.0, "name": "52077d035090cfc2b1788bc9bdeb1113", "type": "electric_bike"}, {"rental_uris": {"ios": "https://dc.lft.to/lastmile_qr_scan", "android": "https://dc.lft.to/lastmile_qr_scan"}, "lat": 38.930451833333336, "is_reserved": 0, "bike_id": "bd81d2b77489d144ec1496dbeac0f49f", "lon": -76.95837683333333, "is_disabled": 0, "fusion_lat": 0.0, "fusion_lon": 0.0, "name": "bd81d2b77489d144ec1496dbeac0f49f", "type": "electric_bike"}, {"rental_uris": {"ios": "https://dc.lft.to/lastmile_qr_scan", "android": "https://dc.lft.to/lastmile_qr_scan"}, "lat": 38.925487833333335, "is_reserved": 0, "bike_id": "70152e774fe08fb7b6587f5d84715d39", "lon": -77.00073466666667, "is_disabled": 0, "fusion_lat": 0.0, "fusion_lon": 0.0, "name": "70152e774fe08fb7b6587f5d84715d39", "type": "electric_scooter"}, {"rental_uris": {"ios": "https://dc.lft.to/lastmile_qr_scan", "android": "https://dc.lft.to/lastmile_qr_scan"}, "lat": 38.90863233333334, "is_reserved": 0, "bike_id": "93befbee4f02febffb9abee2a1cbdc38", "lon": -77.04271916666667, "is_disabled": 0, "fusion_lat": 0.0, "fusion_lon": 0.0, "name": "93befbee4f02febffb9abee2a1cbdc38", "type": "electric_scooter"}, {"rental_uris": {"ios": "https://dc.lft.to/lastmile_qr_scan", "android": "https://dc.lft.to/lastmile_qr_scan"}, "lat": 38.9003135, "is_reserved": 0, "bike_id": "09c9a0e52f369ac375ccbd4bf07fd8b7", "lon": -76.99619366666667, "is_disabled": 0, "fusion_lat": 0.0, "fusion_lon": 0.0, "name": "09c9a0e52f369ac375ccbd4bf07fd8b7", "type": "electric_scooter"}, {"rental_uris": {"ios": "https://dc.lft.to/lastmile_qr_scan", "android": "https://dc.lft.to/lastmile_qr_scan"}, "lat": 38.8955375, "is_reserved": 0, "bike_id": "2e6031235f839aa9585fef7c8666b7c6", "lon": -77.01103566666667, "is_disabled": 0, "fusion_lat": 0.0, "fusion_lon": 0.0, "name": "2e6031235f839aa9585fef7c8666b7c6", "type": "electric_scooter"}, {"rental_uris": {"ios": "https://dc.lft.to/lastmile_qr_scan", "android": "https://dc.lft.to/lastmile_qr_scan"}, "lat": 38.91704, "is_reserved": 0, "bike_id": "9d752e4e31e4a4aab84e840a01e7bf87", "lon": -77.04122583333333, "is_disabled": 0, "fusion_lat": 0.0, "fusion_lon": 0.0, "name": "9d752e4e31e4a4aab84e840a01e7bf87", "type": "electric_scooter"}, {"rental_uris": {"ios": "https://dc.lft.to/lastmile_qr_scan", "android": "https://dc.lft.to/lastmile_qr_scan"}, "lat": 38.896747, "is_reserved": 0, "bike_id": "c87e1fa322f9ed48f04f627c05a478a6", "lon": -77.0491955, "is_disabled": 0, "fusion_lat": 0.0, "fusion_lon": 0.0, "name": "c87e1fa322f9ed48f04f627c05a478a6", "type": "electric_scooter"}, {"rental_uris": {"ios": "https://dc.lft.to/lastmile_qr_scan", "android": "https://dc.lft.to/lastmile_qr_scan"}, "lat": 38.88742666666667, "is_reserved": 0, "bike_id": "2df3e5746e84a4a46d93d20d87670434", "lon": -77.02848816666666, "is_disabled": 0, "fusion_lat": 0.0, "fusion_lon": 0.0, "name": "2df3e5746e84a4a46d93d20d87670434", "type": "electric_scooter"}, {"rental_uris": {"ios": "https://dc.lft.to/lastmile_qr_scan", "android": "https://dc.lft.to/lastmile_qr_scan"}, "lat": 38.92428016666667, "is_reserved": 0, "bike_id": "308b88a01c8c35f7df4685a4ec6917d1", "lon": -77.021361, "is_disabled": 0, "fusion_lat": 0.0, "fusion_lon": 0.0, "name": "308b88a01c8c35f7df4685a4ec6917d1", "type": "electric_scooter"}, {"rental_uris": {"ios": "https://dc.lft.to/lastmile_qr_scan", "android": "https://dc.lft.to/lastmile_qr_scan"}, "lat": 38.90368633333333, "is_reserved": 0, "bike_id": "1b91d8c28d6123d725a4988040f0efc2", "lon": -77.043387, "is_disabled": 0, "fusion_lat": 0.0, "fusion_lon": 0.0, "name": "1b91d8c28d6123d725a4988040f0efc2", "type": "electric_scooter"}, {"rental_uris": {"ios": "https://dc.lft.to/lastmile_qr_scan", "android": "https://dc.lft.to/lastmile_qr_scan"}, "lat": 38.8429405, "is_reserved": 0, "bike_id": "c86ea948ce7011cd0ba71a7b07a0351a", "lon": -76.999473, "is_disabled": 0, "fusion_lat": 0.0, "fusion_lon": 0.0, "name": "c86ea948ce7011cd0ba71a7b07a0351a", "type": "electric_scooter"}, {"rental_uris": {"ios": "https://dc.lft.to/lastmile_qr_scan", "android": "https://dc.lft.to/lastmile_qr_scan"}, "lat": 38.921499, "is_reserved": 0, "bike_id": "8c64e91a90a866df6dbdad50d8ac6aed", "lon": -77.04236716666666, "is_disabled": 0, "fusion_lat": 0.0, "fusion_lon": 0.0, "name": "8c64e91a90a866df6dbdad50d8ac6aed", "type": "electric_scooter"}, {"rental_uris": {"ios": "https://dc.lft.to/lastmile_qr_scan", "android": "https://dc.lft.to/lastmile_qr_scan"}, "lat": 38.90033733333333, "is_reserved": 0, "bike_id": "a78b8bf782848c7b0d1c55de0f770e4f", "lon": -77.00199983333333, "is_disabled": 0, "fusion_lat": 0.0, "fusion_lon": 0.0, "name": "a78b8bf782848c7b0d1c55de0f770e4f", "type": "electric_scooter"}, {"rental_uris": {"ios": "https://dc.lft.to/lastmile_qr_scan", "android": "https://dc.lft.to/lastmile_qr_scan"}, "lat": 38.89223466666667, "is_reserved": 0, "bike_id": "21224841ca26b8963b097ef04b8aa9bf", "lon": -77.0437845, "is_disabled": 0, "fusion_lat": 0.0, "fusion_lon": 0.0, "name": "21224841ca26b8963b097ef04b8aa9bf", "type": "electric_scooter"}, {"rental_uris": {"ios": "https://dc.lft.to/lastmile_qr_scan", "android": "https://dc.lft.to/lastmile_qr_scan"}, "lat": 38.902568333333335, "is_reserved": 0, "bike_id": "4140e890dd2e103e574e421b6c1a7c31", "lon": -77.03352, "is_disabled": 0, "fusion_lat": 0.0, "fusion_lon": 0.0, "name": "4140e890dd2e103e574e421b6c1a7c31", "type": "electric_scooter"}, {"rental_uris": {"ios": "https://dc.lft.to/lastmile_qr_scan", "android": "https://dc.lft.to/lastmile_qr_scan"}, "lat": 38.973764833333334, "is_reserved": 0, "bike_id": "5a7f334bacc8f554e7684721ce68d4a5", "lon": -77.01810466666667, "is_disabled": 0, "fusion_lat": 0.0, "fusion_lon": 0.0, "name": "5a7f334bacc8f554e7684721ce68d4a5", "type": "electric_scooter"}, {"rental_uris": {"ios": "https://dc.lft.to/lastmile_qr_scan", "android": "https://dc.lft.to/lastmile_qr_scan"}, "lat": 38.90015783333333, "is_reserved": 0, "bike_id": "fe019118985a73d15604e26d245c2ffb", "lon": -77.04655733333334, "is_disabled": 0, "fusion_lat": 0.0, "fusion_lon": 0.0, "name": "fe019118985a73d15604e26d245c2ffb", "type": "electric_scooter"}, {"rental_uris": {"ios": "https://dc.lft.to/lastmile_qr_scan", "android": "https://dc.lft.to/lastmile_qr_scan"}, "lat": 38.8979635, "is_reserved": 0, "bike_id": "da7319d7cdcb2366184ae51b69e84f98", "lon": -76.93119666666666, "is_disabled": 0, "fusion_lat": 0.0, "fusion_lon": 0.0, "name": "da7319d7cdcb2366184ae51b69e84f98", "type": "electric_scooter"}, {"rental_uris": {"ios": "https://dc.lft.to/lastmile_qr_scan", "android": "https://dc.lft.to/lastmile_qr_scan"}, "lat": 38.912242166666665, "is_reserved": 0, "bike_id": "617aab648f4633c0a2444ed028000b27", "lon": -76.98787316666667, "is_disabled": 0, "fusion_lat": 0.0, "fusion_lon": 0.0, "name": "617aab648f4633c0a2444ed028000b27", "type": "electric_scooter"}, {"rental_uris": {"ios": "https://dc.lft.to/lastmile_qr_scan", "android": "https://dc.lft.to/lastmile_qr_scan"}, "lat": 38.911418166666664, "is_reserved": 0, "bike_id": "14c6035118eeb9f48608115002fb4074", "lon": -77.024213, "is_disabled": 0, "fusion_lat": 0.0, "fusion_lon": 0.0, "name": "14c6035118eeb9f48608115002fb4074", "type": "electric_scooter"}, {"rental_uris": {"ios": "https://dc.lft.to/lastmile_qr_scan", "android": "https://dc.lft.to/lastmile_qr_scan"}, "lat": 38.8982595, "is_reserved": 0, "bike_id": "35a5fcdcb48fa0c70411fa3cabdc5224", "lon": -77.02805766666667, "is_disabled": 0, "fusion_lat": 0.0, "fusion_lon": 0.0, "name": "35a5fcdcb48fa0c70411fa3cabdc5224", "type": "electric_scooter"}, {"rental_uris": {"ios": "https://dc.lft.to/lastmile_qr_scan", "android": "https://dc.lft.to/lastmile_qr_scan"}, "lat": 38.91737583333333, "is_reserved": 0, "bike_id": "6770ac6db523e4697c8db09341625d03", "lon": -77.02398233333334, "is_disabled": 0, "fusion_lat": 0.0, "fusion_lon": 0.0, "name": "6770ac6db523e4697c8db09341625d03", "type": "electric_scooter"}, {"rental_uris": {"ios": "https://dc.lft.to/lastmile_qr_scan", "android": "https://dc.lft.to/lastmile_qr_scan"}, "lat": 38.901408333333336, "is_reserved": 0, "bike_id": "634e5b1281a5acbd9e52e34035855a95", "lon": -77.03871566666666, "is_disabled": 0, "fusion_lat": 0.0, "fusion_lon": 0.0, "name": "634e5b1281a5acbd9e52e34035855a95", "type": "electric_scooter"}, {"rental_uris": {"ios": "https://dc.lft.to/lastmile_qr_scan", "android": "https://dc.lft.to/lastmile_qr_scan"}, "lat": 38.865028333333335, "is_reserved": 0, "bike_id": "316d6f70f3a4035696f15b5083825c36", "lon": -76.99001733333333, "is_disabled": 0, "fusion_lat": 0.0, "fusion_lon": 0.0, "name": "316d6f70f3a4035696f15b5083825c36", "type": "electric_scooter"}, {"rental_uris": {"ios": "https://dc.lft.to/lastmile_qr_scan", "android": "https://dc.lft.to/lastmile_qr_scan"}, "lat": 38.90044983333333, "is_reserved": 0, "bike_id": "76b9a2455bcda27f1427898ebdfc1c7e", "lon": -77.0021975, "is_disabled": 0, "fusion_lat": 0.0, "fusion_lon": 0.0, "name": "76b9a2455bcda27f1427898ebdfc1c7e", "type": "electric_scooter"}, {"rental_uris": {"ios": "https://dc.lft.to/lastmile_qr_scan", "android": "https://dc.lft.to/lastmile_qr_scan"}, "lat": 38.929789166666666, "is_reserved": 0, "bike_id": "1d9e38c3a17af12bfccad431d0cc46df", "lon": -77.05501366666667, "is_disabled": 0, "fusion_lat": 0.0, "fusion_lon": 0.0, "name": "1d9e38c3a17af12bfccad431d0cc46df", "type": "electric_scooter"}, {"rental_uris": {"ios": "https://dc.lft.to/lastmile_qr_scan", "android": "https://dc.lft.to/lastmile_qr_scan"}, "lat": 38.91174066666667, "is_reserved": 0, "bike_id": "878822ff6fa4ba5e16401857eff2a45a", "lon": -77.02832366666667, "is_disabled": 0, "fusion_lat": 0.0, "fusion_lon": 0.0, "name": "878822ff6fa4ba5e16401857eff2a45a", "type": "electric_scooter"}, {"rental_uris": {"ios": "https://dc.lft.to/lastmile_qr_scan", "android": "https://dc.lft.to/lastmile_qr_scan"}, "lat": 38.933725, "is_reserved": 0, "bike_id": "9c40da1e801d2571c7fc6094fb1aaffb", "lon": -77.026759, "is_disabled": 0, "fusion_lat": 0.0, "fusion_lon": 0.0, "name": "9c40da1e801d2571c7fc6094fb1aaffb", "type": "electric_scooter"}, {"rental_uris": {"ios": "https://dc.lft.to/lastmile_qr_scan", "android": "https://dc.lft.to/lastmile_qr_scan"}, "lat": 38.89861666666667, "is_reserved": 0, "bike_id": "0fb9300e7fc807ac81338b6ea545d959", "lon": -77.02811583333333, "is_disabled": 0, "fusion_lat": 0.0, "fusion_lon": 0.0, "name": "0fb9300e7fc807ac81338b6ea545d959", "type": "electric_scooter"}, {"rental_uris": {"ios": "https://dc.lft.to/lastmile_qr_scan", "android": "https://dc.lft.to/lastmile_qr_scan"}, "lat": 38.90968783333334, "is_reserved": 0, "bike_id": "670c74cbd4c51365f211e1a01519538a", "lon": -77.01846783333333, "is_disabled": 0, "fusion_lat": 0.0, "fusion_lon": 0.0, "name": "670c74cbd4c51365f211e1a01519538a", "type": "electric_scooter"}, {"rental_uris": {"ios": "https://dc.lft.to/lastmile_qr_scan", "android": "https://dc.lft.to/lastmile_qr_scan"}, "lat": 38.928349833333336, "is_reserved": 0, "bike_id": "63b8606a3068c91426f3b83a1e38f60c", "lon": -77.03242116666667, "is_disabled": 0, "fusion_lat": 0.0, "fusion_lon": 0.0, "name": "63b8606a3068c91426f3b83a1e38f60c", "type": "electric_scooter"}, {"rental_uris": {"ios": "https://dc.lft.to/lastmile_qr_scan", "android": "https://dc.lft.to/lastmile_qr_scan"}, "lat": 38.89222383333333, "is_reserved": 0, "bike_id": "46ab350389bbab9395388949687cfa2c", "lon": -77.04374783333333, "is_disabled": 0, "fusion_lat": 0.0, "fusion_lon": 0.0, "name": "46ab350389bbab9395388949687cfa2c", "type": "electric_scooter"}, {"rental_uris": {"ios": "https://dc.lft.to/lastmile_qr_scan", "android": "https://dc.lft.to/lastmile_qr_scan"}, "lat": 38.86137166666666, "is_reserved": 0, "bike_id": "24691408703688646fce4ec94d12044c", "lon": -76.97168483333333, "is_disabled": 0, "fusion_lat": 0.0, "fusion_lon": 0.0, "name": "24691408703688646fce4ec94d12044c", "type": "electric_scooter"}, {"rental_uris": {"ios": "https://dc.lft.to/lastmile_qr_scan", "android": "https://dc.lft.to/lastmile_qr_scan"}, "lat": 38.8986225, "is_reserved": 0, "bike_id": "bd39be0def065c9bb45e90f6ac04b02e", "lon": -76.94642433333334, "is_disabled": 0, "fusion_lat": 0.0, "fusion_lon": 0.0, "name": "bd39be0def065c9bb45e90f6ac04b02e", "type": "electric_scooter"}, {"rental_uris": {"ios": "https://dc.lft.to/lastmile_qr_scan", "android": "https://dc.lft.to/lastmile_qr_scan"}, "lat": 39.056325333333334, "is_reserved": 0, "bike_id": "3219187b19d50360b0ffcc7ff1eabfdf", "lon": -77.12529266666667, "is_disabled": 0, "fusion_lat": 0.0, "fusion_lon": 0.0, "name": "3219187b19d50360b0ffcc7ff1eabfdf", "type": "electric_bike"}, {"rental_uris": {"ios": "https://dc.lft.to/lastmile_qr_scan", "android": "https://dc.lft.to/lastmile_qr_scan"}, "lat": 38.876738, "is_reserved": 0, "bike_id": "74e86b8fc36b53428468115604acb795", "lon": -77.017644, "is_disabled": 0, "fusion_lat": 0.0, "fusion_lon": 0.0, "name": "74e86b8fc36b53428468115604acb795", "type": "electric_scooter"}, {"rental_uris": {"ios": "https://dc.lft.to/lastmile_qr_scan", "android": "https://dc.lft.to/lastmile_qr_scan"}, "lat": 38.92431, "is_reserved": 0, "bike_id": "cd94d645031c29472a1a0e0e74333e7a", "lon": -77.04006733333334, "is_disabled": 0, "fusion_lat": 0.0, "fusion_lon": 0.0, "name": "cd94d645031c29472a1a0e0e74333e7a", "type": "electric_scooter"}, {"rental_uris": {"ios": "https://dc.lft.to/lastmile_qr_scan", "android": "https://dc.lft.to/lastmile_qr_scan"}, "lat": 38.896179000000004, "is_reserved": 0, "bike_id": "ab4529309fe0ce828a4d02cd0e1ca82d", "lon": -77.044647, "is_disabled": 0, "fusion_lat": 0.0, "fusion_lon": 0.0, "name": "ab4529309fe0ce828a4d02cd0e1ca82d", "type": "electric_scooter"}, {"rental_uris": {"ios": "https://dc.lft.to/lastmile_qr_scan", "android": "https://dc.lft.to/lastmile_qr_scan"}, "lat": 38.93106183333333, "is_reserved": 0, "bike_id": "2842101d0c1e7937a254493bce3032d1", "lon": -77.02982866666666, "is_disabled": 0, "fusion_lat": 0.0, "fusion_lon": 0.0, "name": "2842101d0c1e7937a254493bce3032d1", "type": "electric_scooter"}, {"rental_uris": {"ios": "https://dc.lft.to/lastmile_qr_scan", "android": "https://dc.lft.to/lastmile_qr_scan"}, "lat": 38.925092666666664, "is_reserved": 0, "bike_id": "169159c5e34f50e6e0b6e7cf38bebcd9", "lon": -77.00225366666666, "is_disabled": 0, "fusion_lat": 0.0, "fusion_lon": 0.0, "name": "169159c5e34f50e6e0b6e7cf38bebcd9", "type": "electric_scooter"}, {"rental_uris": {"ios": "https://dc.lft.to/lastmile_qr_scan", "android": "https://dc.lft.to/lastmile_qr_scan"}, "lat": 38.90067533333333, "is_reserved": 0, "bike_id": "43ddc7cc342f3e1be9c0a98bfa667965", "lon": -77.012913, "is_disabled": 0, "fusion_lat": 0.0, "fusion_lon": 0.0, "name": "43ddc7cc342f3e1be9c0a98bfa667965", "type": "electric_scooter"}, {"rental_uris": {"ios": "https://dc.lft.to/lastmile_qr_scan", "android": "https://dc.lft.to/lastmile_qr_scan"}, "lat": 38.90826583333333, "is_reserved": 0, "bike_id": "7f324eb43058d4b60bcc2caf997bc687", "lon": -77.0339785, "is_disabled": 0, "fusion_lat": 0.0, "fusion_lon": 0.0, "name": "7f324eb43058d4b60bcc2caf997bc687", "type": "electric_scooter"}, {"rental_uris": {"ios": "https://dc.lft.to/lastmile_qr_scan", "android": "https://dc.lft.to/lastmile_qr_scan"}, "lat": 38.94898233333333, "is_reserved": 0, "bike_id": "9d6f49cc893114318046c3095ff7ea2a", "lon": -76.96368433333333, "is_disabled": 0, "fusion_lat": 0.0, "fusion_lon": 0.0, "name": "9d6f49cc893114318046c3095ff7ea2a", "type": "electric_bike"}, {"rental_uris": {"ios": "https://dc.lft.to/lastmile_qr_scan", "android": "https://dc.lft.to/lastmile_qr_scan"}, "lat": 38.9287495, "is_reserved": 0, "bike_id": "2b8728787900766684daeb87fdc0aa53", "lon": -77.03345766666666, "is_disabled": 0, "fusion_lat": 0.0, "fusion_lon": 0.0, "name": "2b8728787900766684daeb87fdc0aa53", "type": "electric_scooter"}, {"rental_uris": {"ios": "https://dc.lft.to/lastmile_qr_scan", "android": "https://dc.lft.to/lastmile_qr_scan"}, "lat": 38.884630666666666, "is_reserved": 0, "bike_id": "b8d6067ac8919499f22f7a660c799cf5", "lon": -77.02367733333334, "is_disabled": 0, "fusion_lat": 0.0, "fusion_lon": 0.0, "name": "b8d6067ac8919499f22f7a660c799cf5", "type": "electric_scooter"}, {"rental_uris": {"ios": "https://dc.lft.to/lastmile_qr_scan", "android": "https://dc.lft.to/lastmile_qr_scan"}, "lat": 38.91412366666667, "is_reserved": 0, "bike_id": "81980132f568dc2bebb71ec5b927db34", "lon": -77.02334883333333, "is_disabled": 0, "fusion_lat": 0.0, "fusion_lon": 0.0, "name": "81980132f568dc2bebb71ec5b927db34", "type": "electric_scooter"}, {"rental_uris": {"ios": "https://dc.lft.to/lastmile_qr_scan", "android": "https://dc.lft.to/lastmile_qr_scan"}, "lat": 38.907299, "is_reserved": 0, "bike_id": "77faf8532df64ea750c7fb15303e8449", "lon": -77.03161716666666, "is_disabled": 0, "fusion_lat": 0.0, "fusion_lon": 0.0, "name": "77faf8532df64ea750c7fb15303e8449", "type": "electric_scooter"}, {"rental_uris": {"ios": "https://dc.lft.to/lastmile_qr_scan", "android": "https://dc.lft.to/lastmile_qr_scan"}, "lat": 38.92077333333334, "is_reserved": 0, "bike_id": "5c393407b365ca38eb7440f753568bdc", "lon": -77.02333016666667, "is_disabled": 0, "fusion_lat": 0.0, "fusion_lon": 0.0, "name": "5c393407b365ca38eb7440f753568bdc", "type": "electric_scooter"}, {"rental_uris": {"ios": "https://dc.lft.to/lastmile_qr_scan", "android": "https://dc.lft.to/lastmile_qr_scan"}, "lat": 38.923681, "is_reserved": 0, "bike_id": "ea6220e82493c97eea7e25ea1c08bf41", "lon": -77.02127383333334, "is_disabled": 0, "fusion_lat": 0.0, "fusion_lon": 0.0, "name": "ea6220e82493c97eea7e25ea1c08bf41", "type": "electric_scooter"}, {"rental_uris": {"ios": "https://dc.lft.to/lastmile_qr_scan", "android": "https://dc.lft.to/lastmile_qr_scan"}, "lat": 38.95634883333334, "is_reserved": 0, "bike_id": "f6afcf3b1fff611b7c0d61807379959d", "lon": -76.93875316666667, "is_disabled": 0, "fusion_lat": 0.0, "fusion_lon": 0.0, "name": "f6afcf3b1fff611b7c0d61807379959d", "type": "electric_bike"}, {"rental_uris": {"ios": "https://dc.lft.to/lastmile_qr_scan", "android": "https://dc.lft.to/lastmile_qr_scan"}, "lat": 38.89730983333333, "is_reserved": 0, "bike_id": "9022f5aa49a8af633003b809e648393d", "lon": -77.00989433333334, "is_disabled": 0, "fusion_lat": 0.0, "fusion_lon": 0.0, "name": "9022f5aa49a8af633003b809e648393d", "type": "electric_scooter"}, {"rental_uris": {"ios": "https://dc.lft.to/lastmile_qr_scan", "android": "https://dc.lft.to/lastmile_qr_scan"}, "lat": 38.91977383333333, "is_reserved": 0, "bike_id": "68f247cfb60a527e96ac1fe9211ab67e", "lon": -77.02367366666667, "is_disabled": 0, "fusion_lat": 0.0, "fusion_lon": 0.0, "name": "68f247cfb60a527e96ac1fe9211ab67e", "type": "electric_scooter"}, {"rental_uris": {"ios": "https://dc.lft.to/lastmile_qr_scan", "android": "https://dc.lft.to/lastmile_qr_scan"}, "lat": 38.9155085, "is_reserved": 0, "bike_id": "334e412ae22b77b6d9ebbf57cc6daaa8", "lon": -77.03172483333333, "is_disabled": 0, "fusion_lat": 0.0, "fusion_lon": 0.0, "name": "334e412ae22b77b6d9ebbf57cc6daaa8", "type": "electric_scooter"}, {"rental_uris": {"ios": "https://dc.lft.to/lastmile_qr_scan", "android": "https://dc.lft.to/lastmile_qr_scan"}, "lat": 38.920601833333336, "is_reserved": 0, "bike_id": "be833f5d106ca8417ec774f60b2a9ddc", "lon": -77.02303683333334, "is_disabled": 0, "fusion_lat": 0.0, "fusion_lon": 0.0, "name": "be833f5d106ca8417ec774f60b2a9ddc", "type": "electric_scooter"}, {"rental_uris": {"ios": "https://dc.lft.to/lastmile_qr_scan", "android": "https://dc.lft.to/lastmile_qr_scan"}, "lat": 38.91915483333333, "is_reserved": 0, "bike_id": "9f615134872edd6df0fbc705ad228a00", "lon": -77.02138016666666, "is_disabled": 0, "fusion_lat": 0.0, "fusion_lon": 0.0, "name": "9f615134872edd6df0fbc705ad228a00", "type": "electric_scooter"}, {"rental_uris": {"ios": "https://dc.lft.to/lastmile_qr_scan", "android": "https://dc.lft.to/lastmile_qr_scan"}, "lat": 38.921651, "is_reserved": 0, "bike_id": "1cfa49a0f5a70a394dd69b2c19d42875", "lon": -77.033792, "is_disabled": 0, "fusion_lat": 0.0, "fusion_lon": 0.0, "name": "1cfa49a0f5a70a394dd69b2c19d42875", "type": "electric_scooter"}, {"rental_uris": {"ios": "https://dc.lft.to/lastmile_qr_scan", "android": "https://dc.lft.to/lastmile_qr_scan"}, "lat": 38.91098566666667, "is_reserved": 0, "bike_id": "909a3d511c7ff44ea64bcd1f52d41588", "lon": -77.03860816666666, "is_disabled": 0, "fusion_lat": 0.0, "fusion_lon": 0.0, "name": "909a3d511c7ff44ea64bcd1f52d41588", "type": "electric_scooter"}, {"rental_uris": {"ios": "https://dc.lft.to/lastmile_qr_scan", "android": "https://dc.lft.to/lastmile_qr_scan"}, "lat": 38.9121925, "is_reserved": 0, "bike_id": "8f614b160479ea9a8806a641f1fd2e0f", "lon": -77.031984, "is_disabled": 0, "fusion_lat": 0.0, "fusion_lon": 0.0, "name": "8f614b160479ea9a8806a641f1fd2e0f", "type": "electric_scooter"}, {"rental_uris": {"ios": "https://dc.lft.to/lastmile_qr_scan", "android": "https://dc.lft.to/lastmile_qr_scan"}, "lat": 38.89727083333333, "is_reserved": 0, "bike_id": "ce37c72cc613515a6abd2632685cf922", "lon": -77.003745, "is_disabled": 0, "fusion_lat": 0.0, "fusion_lon": 0.0, "name": "ce37c72cc613515a6abd2632685cf922", "type": "electric_scooter"}, {"rental_uris": {"ios": "https://dc.lft.to/lastmile_qr_scan", "android": "https://dc.lft.to/lastmile_qr_scan"}, "lat": 38.930992833333335, "is_reserved": 0, "bike_id": "12256fcc2d6f93d219c675feb3b94391", "lon": -77.024789, "is_disabled": 0, "fusion_lat": 0.0, "fusion_lon": 0.0, "name": "12256fcc2d6f93d219c675feb3b94391", "type": "electric_scooter"}, {"rental_uris": {"ios": "https://dc.lft.to/lastmile_qr_scan", "android": "https://dc.lft.to/lastmile_qr_scan"}, "lat": 38.922551166666665, "is_reserved": 0, "bike_id": "9a4ce1d40e4378ec5084bb98317f1b6b", "lon": -77.00915883333333, "is_disabled": 0, "fusion_lat": 0.0, "fusion_lon": 0.0, "name": "9a4ce1d40e4378ec5084bb98317f1b6b", "type": "electric_scooter"}, {"rental_uris": {"ios": "https://dc.lft.to/lastmile_qr_scan", "android": "https://dc.lft.to/lastmile_qr_scan"}, "lat": 38.90031666666667, "is_reserved": 0, "bike_id": "151852ef3a2d6926e84d684ce7f573f2", "lon": -76.97226166666667, "is_disabled": 0, "fusion_lat": 0.0, "fusion_lon": 0.0, "name": "151852ef3a2d6926e84d684ce7f573f2", "type": "electric_bike"}, {"rental_uris": {"ios": "https://dc.lft.to/lastmile_qr_scan", "android": "https://dc.lft.to/lastmile_qr_scan"}, "lat": 38.88454633333333, "is_reserved": 0, "bike_id": "f4223635dae4c0f36416e0d63dbfbf03", "lon": -77.02804416666666, "is_disabled": 0, "fusion_lat": 0.0, "fusion_lon": 0.0, "name": "f4223635dae4c0f36416e0d63dbfbf03", "type": "electric_scooter"}, {"rental_uris": {"ios": "https://dc.lft.to/lastmile_qr_scan", "android": "https://dc.lft.to/lastmile_qr_scan"}, "lat": 38.90565566666667, "is_reserved": 0, "bike_id": "8102b34dad95b20cff0d0d03f7b39246", "lon": -77.03475883333333, "is_disabled": 0, "fusion_lat": 0.0, "fusion_lon": 0.0, "name": "8102b34dad95b20cff0d0d03f7b39246", "type": "electric_scooter"}, {"rental_uris": {"ios": "https://dc.lft.to/lastmile_qr_scan", "android": "https://dc.lft.to/lastmile_qr_scan"}, "lat": 38.87726333333333, "is_reserved": 0, "bike_id": "ba55bfde49585084901a88f93144af22", "lon": -77.00427783333333, "is_disabled": 0, "fusion_lat": 0.0, "fusion_lon": 0.0, "name": "ba55bfde49585084901a88f93144af22", "type": "electric_scooter"}, {"rental_uris": {"ios": "https://dc.lft.to/lastmile_qr_scan", "android": "https://dc.lft.to/lastmile_qr_scan"}, "lat": 38.92484483333333, "is_reserved": 0, "bike_id": "b87e6d413babb21595c3389f8c7bc72d", "lon": -77.0214165, "is_disabled": 0, "fusion_lat": 0.0, "fusion_lon": 0.0, "name": "b87e6d413babb21595c3389f8c7bc72d", "type": "electric_scooter"}, {"rental_uris": {"ios": "https://dc.lft.to/lastmile_qr_scan", "android": "https://dc.lft.to/lastmile_qr_scan"}, "lat": 38.9141825, "is_reserved": 0, "bike_id": "5c12e6076cf78ae166c00478ec9f5fbc", "lon": -77.03191883333334, "is_disabled": 0, "fusion_lat": 0.0, "fusion_lon": 0.0, "name": "5c12e6076cf78ae166c00478ec9f5fbc", "type": "electric_scooter"}, {"rental_uris": {"ios": "https://dc.lft.to/lastmile_qr_scan", "android": "https://dc.lft.to/lastmile_qr_scan"}, "lat": 38.930949, "is_reserved": 0, "bike_id": "73a52c786fe4c9c24baeef08ff38ee6b", "lon": -77.03068266666666, "is_disabled": 0, "fusion_lat": 0.0, "fusion_lon": 0.0, "name": "73a52c786fe4c9c24baeef08ff38ee6b", "type": "electric_scooter"}, {"rental_uris": {"ios": "https://dc.lft.to/lastmile_qr_scan", "android": "https://dc.lft.to/lastmile_qr_scan"}, "lat": 38.8943895, "is_reserved": 0, "bike_id": "64b342c78ec2847ae2bb415feab2c517", "lon": -77.0012525, "is_disabled": 0, "fusion_lat": 0.0, "fusion_lon": 0.0, "name": "64b342c78ec2847ae2bb415feab2c517", "type": "electric_scooter"}, {"rental_uris": {"ios": "https://dc.lft.to/lastmile_qr_scan", "android": "https://dc.lft.to/lastmile_qr_scan"}, "lat": 38.918156, "is_reserved": 0, "bike_id": "feb616f66f61c6c8e34fb6926a19c451", "lon": -77.0247805, "is_disabled": 0, "fusion_lat": 0.0, "fusion_lon": 0.0, "name": "feb616f66f61c6c8e34fb6926a19c451", "type": "electric_scooter"}, {"rental_uris": {"ios": "https://dc.lft.to/lastmile_qr_scan", "android": "https://dc.lft.to/lastmile_qr_scan"}, "lat": 38.91418516666667, "is_reserved": 0, "bike_id": "aabddcf0b291f90603d9adfd5c3ad20b", "lon": -77.0319335, "is_disabled": 0, "fusion_lat": 0.0, "fusion_lon": 0.0, "name": "aabddcf0b291f90603d9adfd5c3ad20b", "type": "electric_scooter"}, {"rental_uris": {"ios": "https://dc.lft.to/lastmile_qr_scan", "android": "https://dc.lft.to/lastmile_qr_scan"}, "lat": 38.894798333333334, "is_reserved": 0, "bike_id": "91935f8696c50c70441f9c3a1d91d269", "lon": -77.015272, "is_disabled": 0, "fusion_lat": 0.0, "fusion_lon": 0.0, "name": "91935f8696c50c70441f9c3a1d91d269", "type": "electric_scooter"}, {"rental_uris": {"ios": "https://dc.lft.to/lastmile_qr_scan", "android": "https://dc.lft.to/lastmile_qr_scan"}, "lat": 38.9003525, "is_reserved": 0, "bike_id": "c8794c4af86ae6ee2c9c70468d1554b1", "lon": -76.99839683333333, "is_disabled": 0, "fusion_lat": 0.0, "fusion_lon": 0.0, "name": "c8794c4af86ae6ee2c9c70468d1554b1", "type": "electric_scooter"}, {"rental_uris": {"ios": "https://dc.lft.to/lastmile_qr_scan", "android": "https://dc.lft.to/lastmile_qr_scan"}, "lat": 38.92496166666667, "is_reserved": 0, "bike_id": "0a703a7d5d17189cbd695e0d7cec3ef2", "lon": -77.03555733333333, "is_disabled": 0, "fusion_lat": 0.0, "fusion_lon": 0.0, "name": "0a703a7d5d17189cbd695e0d7cec3ef2", "type": "electric_scooter"}, {"rental_uris": {"ios": "https://dc.lft.to/lastmile_qr_scan", "android": "https://dc.lft.to/lastmile_qr_scan"}, "lat": 38.996281, "is_reserved": 0, "bike_id": "68163f962faf480d92a1fed7256178ab", "lon": -77.03954066666667, "is_disabled": 0, "fusion_lat": 0.0, "fusion_lon": 0.0, "name": "68163f962faf480d92a1fed7256178ab", "type": "electric_bike"}, {"rental_uris": {"ios": "https://dc.lft.to/lastmile_qr_scan", "android": "https://dc.lft.to/lastmile_qr_scan"}, "lat": 38.91568, "is_reserved": 0, "bike_id": "2fd4b8b82eb30a62f7dbc5980d3c0edc", "lon": -77.01183166666667, "is_disabled": 0, "fusion_lat": 0.0, "fusion_lon": 0.0, "name": "2fd4b8b82eb30a62f7dbc5980d3c0edc", "type": "electric_scooter"}, {"rental_uris": {"ios": "https://dc.lft.to/lastmile_qr_scan", "android": "https://dc.lft.to/lastmile_qr_scan"}, "lat": 38.9013465, "is_reserved": 0, "bike_id": "8b06ef35782ad0526246b72088e0c389", "lon": -77.031958, "is_disabled": 0, "fusion_lat": 0.0, "fusion_lon": 0.0, "name": "8b06ef35782ad0526246b72088e0c389", "type": "electric_scooter"}, {"rental_uris": {"ios": "https://dc.lft.to/lastmile_qr_scan", "android": "https://dc.lft.to/lastmile_qr_scan"}, "lat": 38.916512, "is_reserved": 0, "bike_id": "acaf481ea868700549a464a600a5dce1", "lon": -77.02796616666667, "is_disabled": 0, "fusion_lat": 0.0, "fusion_lon": 0.0, "name": "acaf481ea868700549a464a600a5dce1", "type": "electric_scooter"}, {"rental_uris": {"ios": "https://dc.lft.to/lastmile_qr_scan", "android": "https://dc.lft.to/lastmile_qr_scan"}, "lat": 38.902223166666666, "is_reserved": 0, "bike_id": "873a3670414f6960bc65a0c8c475da58", "lon": -77.04566266666667, "is_disabled": 0, "fusion_lat": 0.0, "fusion_lon": 0.0, "name": "873a3670414f6960bc65a0c8c475da58", "type": "electric_bike"}, {"rental_uris": {"ios": "https://dc.lft.to/lastmile_qr_scan", "android": "https://dc.lft.to/lastmile_qr_scan"}, "lat": 38.919139333333334, "is_reserved": 0, "bike_id": "eed0269fde9252e75b770c1167de56d6", "lon": -77.031858, "is_disabled": 0, "fusion_lat": 0.0, "fusion_lon": 0.0, "name": "eed0269fde9252e75b770c1167de56d6", "type": "electric_scooter"}, {"rental_uris": {"ios": "https://dc.lft.to/lastmile_qr_scan", "android": "https://dc.lft.to/lastmile_qr_scan"}, "lat": 38.92826916666667, "is_reserved": 0, "bike_id": "3e0fa3895233f143757fcaff4b96afc7", "lon": -77.021939, "is_disabled": 0, "fusion_lat": 0.0, "fusion_lon": 0.0, "name": "3e0fa3895233f143757fcaff4b96afc7", "type": "electric_scooter"}, {"rental_uris": {"ios": "https://dc.lft.to/lastmile_qr_scan", "android": "https://dc.lft.to/lastmile_qr_scan"}, "lat": 38.931833, "is_reserved": 0, "bike_id": "d1011db522a9c2da017fed51d6ec1c1f", "lon": -77.036367, "is_disabled": 0, "fusion_lat": 0.0, "fusion_lon": 0.0, "name": "d1011db522a9c2da017fed51d6ec1c1f", "type": "electric_scooter"}, {"rental_uris": {"ios": "https://dc.lft.to/lastmile_qr_scan", "android": "https://dc.lft.to/lastmile_qr_scan"}, "lat": 38.91475916666667, "is_reserved": 0, "bike_id": "5d4d383f98e482939ea2c72f4468cf3a", "lon": -77.04610166666667, "is_disabled": 0, "fusion_lat": 0.0, "fusion_lon": 0.0, "name": "5d4d383f98e482939ea2c72f4468cf3a", "type": "electric_scooter"}, {"rental_uris": {"ios": "https://dc.lft.to/lastmile_qr_scan", "android": "https://dc.lft.to/lastmile_qr_scan"}, "lat": 38.9010815, "is_reserved": 0, "bike_id": "53fbbdc46dcb9bc4984159f71e298880", "lon": -77.04883716666667, "is_disabled": 0, "fusion_lat": 0.0, "fusion_lon": 0.0, "name": "53fbbdc46dcb9bc4984159f71e298880", "type": "electric_bike"}, {"rental_uris": {"ios": "https://dc.lft.to/lastmile_qr_scan", "android": "https://dc.lft.to/lastmile_qr_scan"}, "lat": 38.887391, "is_reserved": 0, "bike_id": "6db6c2a2667adc1726bd6068802b097a", "lon": -77.002057, "is_disabled": 0, "fusion_lat": 0.0, "fusion_lon": 0.0, "name": "6db6c2a2667adc1726bd6068802b097a", "type": "electric_scooter"}, {"rental_uris": {"ios": "https://dc.lft.to/lastmile_qr_scan", "android": "https://dc.lft.to/lastmile_qr_scan"}, "lat": 38.915516, "is_reserved": 0, "bike_id": "ada85f6456ed3cf7242c3898219ed315", "lon": -77.031758, "is_disabled": 0, "fusion_lat": 0.0, "fusion_lon": 0.0, "name": "ada85f6456ed3cf7242c3898219ed315", "type": "electric_scooter"}, {"rental_uris": {"ios": "https://dc.lft.to/lastmile_qr_scan", "android": "https://dc.lft.to/lastmile_qr_scan"}, "lat": 38.91694666666667, "is_reserved": 0, "bike_id": "a2322fc2b1fea7a0fd67549b2186f632", "lon": -77.027638, "is_disabled": 0, "fusion_lat": 0.0, "fusion_lon": 0.0, "name": "a2322fc2b1fea7a0fd67549b2186f632", "type": "electric_scooter"}, {"rental_uris": {"ios": "https://dc.lft.to/lastmile_qr_scan", "android": "https://dc.lft.to/lastmile_qr_scan"}, "lat": 38.894331333333334, "is_reserved": 0, "bike_id": "19f2a14215bfbf589ddb043d329dadc6", "lon": -76.983571, "is_disabled": 0, "fusion_lat": 0.0, "fusion_lon": 0.0, "name": "19f2a14215bfbf589ddb043d329dadc6", "type": "electric_scooter"}, {"rental_uris": {"ios": "https://dc.lft.to/lastmile_qr_scan", "android": "https://dc.lft.to/lastmile_qr_scan"}, "lat": 38.894527333333336, "is_reserved": 0, "bike_id": "475c487dd1099669d3504564318a281f", "lon": -77.02692, "is_disabled": 0, "fusion_lat": 0.0, "fusion_lon": 0.0, "name": "475c487dd1099669d3504564318a281f", "type": "electric_scooter"}, {"rental_uris": {"ios": "https://dc.lft.to/lastmile_qr_scan", "android": "https://dc.lft.to/lastmile_qr_scan"}, "lat": 38.892553166666666, "is_reserved": 0, "bike_id": "3e7aaafd6ebe3a113134464f2905ef22", "lon": -77.01958433333333, "is_disabled": 0, "fusion_lat": 0.0, "fusion_lon": 0.0, "name": "3e7aaafd6ebe3a113134464f2905ef22", "type": "electric_scooter"}, {"rental_uris": {"ios": "https://dc.lft.to/lastmile_qr_scan", "android": "https://dc.lft.to/lastmile_qr_scan"}, "lat": 38.85513616666667, "is_reserved": 0, "bike_id": "50923d1496548d22359a7d3229859d38", "lon": -76.98419433333333, "is_disabled": 0, "fusion_lat": 0.0, "fusion_lon": 0.0, "name": "50923d1496548d22359a7d3229859d38", "type": "electric_bike"}, {"rental_uris": {"ios": "https://dc.lft.to/lastmile_qr_scan", "android": "https://dc.lft.to/lastmile_qr_scan"}, "lat": 38.923481333333335, "is_reserved": 0, "bike_id": "5fccc22329e372d82c84eb8d7f4065f6", "lon": -77.03531483333333, "is_disabled": 0, "fusion_lat": 0.0, "fusion_lon": 0.0, "name": "5fccc22329e372d82c84eb8d7f4065f6", "type": "electric_scooter"}, {"rental_uris": {"ios": "https://dc.lft.to/lastmile_qr_scan", "android": "https://dc.lft.to/lastmile_qr_scan"}, "lat": 38.901055, "is_reserved": 0, "bike_id": "9b7293576626f9dc4b9c7f96c398cea5", "lon": -77.04986616666666, "is_disabled": 0, "fusion_lat": 0.0, "fusion_lon": 0.0, "name": "9b7293576626f9dc4b9c7f96c398cea5", "type": "electric_scooter"}, {"rental_uris": {"ios": "https://dc.lft.to/lastmile_qr_scan", "android": "https://dc.lft.to/lastmile_qr_scan"}, "lat": 38.885211, "is_reserved": 0, "bike_id": "09dca6751c744aa29f1cb4d7d33bf93d", "lon": -76.977104, "is_disabled": 0, "fusion_lat": 0.0, "fusion_lon": 0.0, "name": "09dca6751c744aa29f1cb4d7d33bf93d", "type": "electric_scooter"}, {"rental_uris": {"ios": "https://dc.lft.to/lastmile_qr_scan", "android": "https://dc.lft.to/lastmile_qr_scan"}, "lat": 38.90861266666667, "is_reserved": 0, "bike_id": "0f1e05a6146f2b2b2f0a1489d3d56dc4", "lon": -77.02252316666667, "is_disabled": 0, "fusion_lat": 0.0, "fusion_lon": 0.0, "name": "0f1e05a6146f2b2b2f0a1489d3d56dc4", "type": "electric_scooter"}, {"rental_uris": {"ios": "https://dc.lft.to/lastmile_qr_scan", "android": "https://dc.lft.to/lastmile_qr_scan"}, "lat": 38.92653833333333, "is_reserved": 0, "bike_id": "cd52e143ea1e4474708da78f145ec46b", "lon": -77.0242465, "is_disabled": 0, "fusion_lat": 0.0, "fusion_lon": 0.0, "name": "cd52e143ea1e4474708da78f145ec46b", "type": "electric_scooter"}, {"rental_uris": {"ios": "https://dc.lft.to/lastmile_qr_scan", "android": "https://dc.lft.to/lastmile_qr_scan"}, "lat": 38.907256833333335, "is_reserved": 0, "bike_id": "4af52535084550f2ad8b16b507cf604c", "lon": -77.02380133333334, "is_disabled": 0, "fusion_lat": 0.0, "fusion_lon": 0.0, "name": "4af52535084550f2ad8b16b507cf604c", "type": "electric_scooter"}, {"rental_uris": {"ios": "https://dc.lft.to/lastmile_qr_scan", "android": "https://dc.lft.to/lastmile_qr_scan"}, "lat": 38.90017, "is_reserved": 0, "bike_id": "001becc79a62685f5c1a3a099e09aa8c", "lon": -76.99560666666666, "is_disabled": 0, "fusion_lat": 0.0, "fusion_lon": 0.0, "name": "001becc79a62685f5c1a3a099e09aa8c", "type": "electric_scooter"}, {"rental_uris": {"ios": "https://dc.lft.to/lastmile_qr_scan", "android": "https://dc.lft.to/lastmile_qr_scan"}, "lat": 38.89732866666667, "is_reserved": 0, "bike_id": "e31d7b1af155210b16edb6078b86a2bf", "lon": -77.04740033333333, "is_disabled": 0, "fusion_lat": 0.0, "fusion_lon": 0.0, "name": "e31d7b1af155210b16edb6078b86a2bf", "type": "electric_scooter"}, {"rental_uris": {"ios": "https://dc.lft.to/lastmile_qr_scan", "android": "https://dc.lft.to/lastmile_qr_scan"}, "lat": 38.89626716666667, "is_reserved": 0, "bike_id": "f5c8d6479b71da6a746ef35305f1cb97", "lon": -77.02691433333334, "is_disabled": 0, "fusion_lat": 0.0, "fusion_lon": 0.0, "name": "f5c8d6479b71da6a746ef35305f1cb97", "type": "electric_scooter"}, {"rental_uris": {"ios": "https://dc.lft.to/lastmile_qr_scan", "android": "https://dc.lft.to/lastmile_qr_scan"}, "lat": 38.88145816666667, "is_reserved": 0, "bike_id": "ae18c0238608af31b21cdd0d868478e9", "lon": -77.0274235, "is_disabled": 0, "fusion_lat": 0.0, "fusion_lon": 0.0, "name": "ae18c0238608af31b21cdd0d868478e9", "type": "electric_scooter"}, {"rental_uris": {"ios": "https://dc.lft.to/lastmile_qr_scan", "android": "https://dc.lft.to/lastmile_qr_scan"}, "lat": 38.884896499999996, "is_reserved": 0, "bike_id": "7a64e355259ea0e3d25d4d23406023cb", "lon": -76.956639, "is_disabled": 0, "fusion_lat": 0.0, "fusion_lon": 0.0, "name": "7a64e355259ea0e3d25d4d23406023cb", "type": "electric_bike"}, {"rental_uris": {"ios": "https://dc.lft.to/lastmile_qr_scan", "android": "https://dc.lft.to/lastmile_qr_scan"}, "lat": 38.90663416666666, "is_reserved": 0, "bike_id": "6235c24cb5d72f293478b5ab5f7b73b8", "lon": -77.04631183333333, "is_disabled": 0, "fusion_lat": 0.0, "fusion_lon": 0.0, "name": "6235c24cb5d72f293478b5ab5f7b73b8", "type": "electric_scooter"}, {"rental_uris": {"ios": "https://dc.lft.to/lastmile_qr_scan", "android": "https://dc.lft.to/lastmile_qr_scan"}, "lat": 38.89231233333334, "is_reserved": 0, "bike_id": "8cc036afe53aa118321a2fc586466d9e", "lon": -77.05003466666666, "is_disabled": 0, "fusion_lat": 0.0, "fusion_lon": 0.0, "name": "8cc036afe53aa118321a2fc586466d9e", "type": "electric_scooter"}, {"rental_uris": {"ios": "https://dc.lft.to/lastmile_qr_scan", "android": "https://dc.lft.to/lastmile_qr_scan"}, "lat": 38.894676833333335, "is_reserved": 0, "bike_id": "d13a8e68ff0c9a67888915c44ebe3534", "lon": -77.01665033333333, "is_disabled": 0, "fusion_lat": 0.0, "fusion_lon": 0.0, "name": "d13a8e68ff0c9a67888915c44ebe3534", "type": "electric_scooter"}, {"rental_uris": {"ios": "https://dc.lft.to/lastmile_qr_scan", "android": "https://dc.lft.to/lastmile_qr_scan"}, "lat": 38.8829145, "is_reserved": 0, "bike_id": "40b38f126e58bb61b6039307f3a7e21a", "lon": -77.01757383333333, "is_disabled": 0, "fusion_lat": 0.0, "fusion_lon": 0.0, "name": "40b38f126e58bb61b6039307f3a7e21a", "type": "electric_scooter"}, {"rental_uris": {"ios": "https://dc.lft.to/lastmile_qr_scan", "android": "https://dc.lft.to/lastmile_qr_scan"}, "lat": 38.902267333333334, "is_reserved": 0, "bike_id": "0969a5225ca281de1c3ab3bd67bc9410", "lon": -77.034306, "is_disabled": 0, "fusion_lat": 0.0, "fusion_lon": 0.0, "name": "0969a5225ca281de1c3ab3bd67bc9410", "type": "electric_scooter"}, {"rental_uris": {"ios": "https://dc.lft.to/lastmile_qr_scan", "android": "https://dc.lft.to/lastmile_qr_scan"}, "lat": 38.886937, "is_reserved": 0, "bike_id": "eec855ae3729405372e66c584160ac87", "lon": -77.00059266666666, "is_disabled": 0, "fusion_lat": 0.0, "fusion_lon": 0.0, "name": "eec855ae3729405372e66c584160ac87", "type": "electric_scooter"}, {"rental_uris": {"ios": "https://dc.lft.to/lastmile_qr_scan", "android": "https://dc.lft.to/lastmile_qr_scan"}, "lat": 38.92488266666667, "is_reserved": 0, "bike_id": "635627858362bd23478eb52d8365df6c", "lon": -77.02160083333334, "is_disabled": 0, "fusion_lat": 0.0, "fusion_lon": 0.0, "name": "635627858362bd23478eb52d8365df6c", "type": "electric_scooter"}, {"rental_uris": {"ios": "https://dc.lft.to/lastmile_qr_scan", "android": "https://dc.lft.to/lastmile_qr_scan"}, "lat": 38.886140166666664, "is_reserved": 0, "bike_id": "dfa22602fed40f60a293aee4c63349c6", "lon": -77.01248, "is_disabled": 0, "fusion_lat": 0.0, "fusion_lon": 0.0, "name": "dfa22602fed40f60a293aee4c63349c6", "type": "electric_scooter"}, {"rental_uris": {"ios": "https://dc.lft.to/lastmile_qr_scan", "android": "https://dc.lft.to/lastmile_qr_scan"}, "lat": 38.9149535, "is_reserved": 0, "bike_id": "eacd956d3431e9b9767937b3ca870e82", "lon": -76.98364433333333, "is_disabled": 0, "fusion_lat": 0.0, "fusion_lon": 0.0, "name": "eacd956d3431e9b9767937b3ca870e82", "type": "electric_scooter"}, {"rental_uris": {"ios": "https://dc.lft.to/lastmile_qr_scan", "android": "https://dc.lft.to/lastmile_qr_scan"}, "lat": 38.92040866666667, "is_reserved": 0, "bike_id": "f59b79214a60219a311469dbd0ea3a73", "lon": -77.016799, "is_disabled": 0, "fusion_lat": 0.0, "fusion_lon": 0.0, "name": "f59b79214a60219a311469dbd0ea3a73", "type": "electric_scooter"}, {"rental_uris": {"ios": "https://dc.lft.to/lastmile_qr_scan", "android": "https://dc.lft.to/lastmile_qr_scan"}, "lat": 38.9244035, "is_reserved": 0, "bike_id": "981b1b5ff944e3b62a584da820dff888", "lon": -77.02029133333333, "is_disabled": 0, "fusion_lat": 0.0, "fusion_lon": 0.0, "name": "981b1b5ff944e3b62a584da820dff888", "type": "electric_scooter"}, {"rental_uris": {"ios": "https://dc.lft.to/lastmile_qr_scan", "android": "https://dc.lft.to/lastmile_qr_scan"}, "lat": 38.908631, "is_reserved": 0, "bike_id": "8be9c6697dd303b62df6acbbb27aaa25", "lon": -77.06915033333334, "is_disabled": 0, "fusion_lat": 0.0, "fusion_lon": 0.0, "name": "8be9c6697dd303b62df6acbbb27aaa25", "type": "electric_scooter"}, {"rental_uris": {"ios": "https://dc.lft.to/lastmile_qr_scan", "android": "https://dc.lft.to/lastmile_qr_scan"}, "lat": 38.89725766666667, "is_reserved": 0, "bike_id": "1309405cdc06ff84043eb3221752fa13", "lon": -76.994708, "is_disabled": 0, "fusion_lat": 0.0, "fusion_lon": 0.0, "name": "1309405cdc06ff84043eb3221752fa13", "type": "electric_scooter"}, {"rental_uris": {"ios": "https://dc.lft.to/lastmile_qr_scan", "android": "https://dc.lft.to/lastmile_qr_scan"}, "lat": 38.92904766666667, "is_reserved": 0, "bike_id": "ad2f447e716a5201cea6c464d6ca05bc", "lon": -77.03246566666667, "is_disabled": 0, "fusion_lat": 0.0, "fusion_lon": 0.0, "name": "ad2f447e716a5201cea6c464d6ca05bc", "type": "electric_scooter"}, {"rental_uris": {"ios": "https://dc.lft.to/lastmile_qr_scan", "android": "https://dc.lft.to/lastmile_qr_scan"}, "lat": 38.972328166666664, "is_reserved": 0, "bike_id": "3bccf1ed79a6900ec719ee2dadb74926", "lon": -77.02711666666667, "is_disabled": 0, "fusion_lat": 0.0, "fusion_lon": 0.0, "name": "3bccf1ed79a6900ec719ee2dadb74926", "type": "electric_scooter"}, {"rental_uris": {"ios": "https://dc.lft.to/lastmile_qr_scan", "android": "https://dc.lft.to/lastmile_qr_scan"}, "lat": 38.91804533333333, "is_reserved": 0, "bike_id": "74b33bad752d2caa4245d54f979d7970", "lon": -77.03723, "is_disabled": 0, "fusion_lat": 0.0, "fusion_lon": 0.0, "name": "74b33bad752d2caa4245d54f979d7970", "type": "electric_scooter"}, {"rental_uris": {"ios": "https://dc.lft.to/lastmile_qr_scan", "android": "https://dc.lft.to/lastmile_qr_scan"}, "lat": 38.926887666666666, "is_reserved": 0, "bike_id": "e47a8cf1a86090bf623148fd192d6184", "lon": -77.032315, "is_disabled": 0, "fusion_lat": 0.0, "fusion_lon": 0.0, "name": "e47a8cf1a86090bf623148fd192d6184", "type": "electric_scooter"}, {"rental_uris": {"ios": "https://dc.lft.to/lastmile_qr_scan", "android": "https://dc.lft.to/lastmile_qr_scan"}, "lat": 38.9026315, "is_reserved": 0, "bike_id": "e2ed4d3db10d0d9ed3240d03c173e795", "lon": -77.0386195, "is_disabled": 0, "fusion_lat": 0.0, "fusion_lon": 0.0, "name": "e2ed4d3db10d0d9ed3240d03c173e795", "type": "electric_scooter"}, {"rental_uris": {"ios": "https://dc.lft.to/lastmile_qr_scan", "android": "https://dc.lft.to/lastmile_qr_scan"}, "lat": 38.90108083333333, "is_reserved": 0, "bike_id": "af429d23d76e9cfc1ddff327b573a812", "lon": -77.027874, "is_disabled": 0, "fusion_lat": 0.0, "fusion_lon": 0.0, "name": "af429d23d76e9cfc1ddff327b573a812", "type": "electric_scooter"}, {"rental_uris": {"ios": "https://dc.lft.to/lastmile_qr_scan", "android": "https://dc.lft.to/lastmile_qr_scan"}, "lat": 38.87900233333333, "is_reserved": 0, "bike_id": "88eb6818a52a64fdd3a4eb71779c538a", "lon": -77.01375533333334, "is_disabled": 0, "fusion_lat": 0.0, "fusion_lon": 0.0, "name": "88eb6818a52a64fdd3a4eb71779c538a", "type": "electric_scooter"}, {"rental_uris": {"ios": "https://dc.lft.to/lastmile_qr_scan", "android": "https://dc.lft.to/lastmile_qr_scan"}, "lat": 38.8996375, "is_reserved": 0, "bike_id": "dafa56f69dc3e0f532fbc793547c6460", "lon": -77.01623116666667, "is_disabled": 0, "fusion_lat": 0.0, "fusion_lon": 0.0, "name": "dafa56f69dc3e0f532fbc793547c6460", "type": "electric_scooter"}, {"rental_uris": {"ios": "https://dc.lft.to/lastmile_qr_scan", "android": "https://dc.lft.to/lastmile_qr_scan"}, "lat": 38.95869233333333, "is_reserved": 0, "bike_id": "071e5583ed0f24ecb92309c8a0c02722", "lon": -76.9705815, "is_disabled": 0, "fusion_lat": 0.0, "fusion_lon": 0.0, "name": "071e5583ed0f24ecb92309c8a0c02722", "type": "electric_bike"}, {"rental_uris": {"ios": "https://dc.lft.to/lastmile_qr_scan", "android": "https://dc.lft.to/lastmile_qr_scan"}, "lat": 38.912508333333335, "is_reserved": 0, "bike_id": "3cd794c0b65642ef4effb104e420136f", "lon": -77.022269, "is_disabled": 0, "fusion_lat": 0.0, "fusion_lon": 0.0, "name": "3cd794c0b65642ef4effb104e420136f", "type": "electric_scooter"}, {"rental_uris": {"ios": "https://dc.lft.to/lastmile_qr_scan", "android": "https://dc.lft.to/lastmile_qr_scan"}, "lat": 38.90338633333333, "is_reserved": 0, "bike_id": "e39410170f71c50f925ff0469545bb5b", "lon": -77.02007833333333, "is_disabled": 0, "fusion_lat": 0.0, "fusion_lon": 0.0, "name": "e39410170f71c50f925ff0469545bb5b", "type": "electric_scooter"}, {"rental_uris": {"ios": "https://dc.lft.to/lastmile_qr_scan", "android": "https://dc.lft.to/lastmile_qr_scan"}, "lat": 38.934241, "is_reserved": 0, "bike_id": "a37e9a960c01ee57b196f78e47a1f6d8", "lon": -77.0400345, "is_disabled": 0, "fusion_lat": 0.0, "fusion_lon": 0.0, "name": "a37e9a960c01ee57b196f78e47a1f6d8", "type": "electric_scooter"}, {"rental_uris": {"ios": "https://dc.lft.to/lastmile_qr_scan", "android": "https://dc.lft.to/lastmile_qr_scan"}, "lat": 38.89234866666666, "is_reserved": 0, "bike_id": "9ea062921d8507545647856e268c093a", "lon": -77.0217405, "is_disabled": 0, "fusion_lat": 0.0, "fusion_lon": 0.0, "name": "9ea062921d8507545647856e268c093a", "type": "electric_scooter"}, {"rental_uris": {"ios": "https://dc.lft.to/lastmile_qr_scan", "android": "https://dc.lft.to/lastmile_qr_scan"}, "lat": 38.90138983333333, "is_reserved": 0, "bike_id": "f6b1e76e74334b70e16e768357425f46", "lon": -77.0357845, "is_disabled": 0, "fusion_lat": 0.0, "fusion_lon": 0.0, "name": "f6b1e76e74334b70e16e768357425f46", "type": "electric_scooter"}, {"rental_uris": {"ios": "https://dc.lft.to/lastmile_qr_scan", "android": "https://dc.lft.to/lastmile_qr_scan"}, "lat": 38.866819, "is_reserved": 0, "bike_id": "ad9558b048780f492de3b5f9beb405f8", "lon": -76.98574933333333, "is_disabled": 0, "fusion_lat": 0.0, "fusion_lon": 0.0, "name": "ad9558b048780f492de3b5f9beb405f8", "type": "electric_scooter"}, {"rental_uris": {"ios": "https://dc.lft.to/lastmile_qr_scan", "android": "https://dc.lft.to/lastmile_qr_scan"}, "lat": 38.89742733333333, "is_reserved": 0, "bike_id": "8ec3910df243cfae60048e7677f99ba8", "lon": -76.9797765, "is_disabled": 0, "fusion_lat": 0.0, "fusion_lon": 0.0, "name": "8ec3910df243cfae60048e7677f99ba8", "type": "electric_scooter"}, {"rental_uris": {"ios": "https://dc.lft.to/lastmile_qr_scan", "android": "https://dc.lft.to/lastmile_qr_scan"}, "lat": 38.87621566666667, "is_reserved": 0, "bike_id": "15a7d703076a94ba2deb55adca9d6784", "lon": -77.00742816666667, "is_disabled": 0, "fusion_lat": 0.0, "fusion_lon": 0.0, "name": "15a7d703076a94ba2deb55adca9d6784", "type": "electric_scooter"}, {"rental_uris": {"ios": "https://dc.lft.to/lastmile_qr_scan", "android": "https://dc.lft.to/lastmile_qr_scan"}, "lat": 38.8975075, "is_reserved": 0, "bike_id": "00045662d4304a3f519378a12bf67538", "lon": -77.05145533333334, "is_disabled": 0, "fusion_lat": 0.0, "fusion_lon": 0.0, "name": "00045662d4304a3f519378a12bf67538", "type": "electric_scooter"}, {"rental_uris": {"ios": "https://dc.lft.to/lastmile_qr_scan", "android": "https://dc.lft.to/lastmile_qr_scan"}, "lat": 38.89642883333333, "is_reserved": 0, "bike_id": "0bf5dff1a52fe89da7a6f6297a33cb78", "lon": -77.00926, "is_disabled": 0, "fusion_lat": 0.0, "fusion_lon": 0.0, "name": "0bf5dff1a52fe89da7a6f6297a33cb78", "type": "electric_scooter"}, {"rental_uris": {"ios": "https://dc.lft.to/lastmile_qr_scan", "android": "https://dc.lft.to/lastmile_qr_scan"}, "lat": 38.916400333333335, "is_reserved": 0, "bike_id": "e009a63a7501b8f17bf9734566b034e1", "lon": -77.03209883333334, "is_disabled": 0, "fusion_lat": 0.0, "fusion_lon": 0.0, "name": "e009a63a7501b8f17bf9734566b034e1", "type": "electric_scooter"}, {"rental_uris": {"ios": "https://dc.lft.to/lastmile_qr_scan", "android": "https://dc.lft.to/lastmile_qr_scan"}, "lat": 38.93258566666667, "is_reserved": 0, "bike_id": "a707a954247950d8f95648a076763bbd", "lon": -77.0328485, "is_disabled": 0, "fusion_lat": 0.0, "fusion_lon": 0.0, "name": "a707a954247950d8f95648a076763bbd", "type": "electric_scooter"}, {"rental_uris": {"ios": "https://dc.lft.to/lastmile_qr_scan", "android": "https://dc.lft.to/lastmile_qr_scan"}, "lat": 38.892209333333334, "is_reserved": 0, "bike_id": "e1fd22c1d443be7c1bb116f2b8e3915c", "lon": -77.04514616666667, "is_disabled": 0, "fusion_lat": 0.0, "fusion_lon": 0.0, "name": "e1fd22c1d443be7c1bb116f2b8e3915c", "type": "electric_scooter"}, {"rental_uris": {"ios": "https://dc.lft.to/lastmile_qr_scan", "android": "https://dc.lft.to/lastmile_qr_scan"}, "lat": 38.9078685, "is_reserved": 0, "bike_id": "33beb823198c80548f9ca0b74eb0b790", "lon": -77.037965, "is_disabled": 0, "fusion_lat": 0.0, "fusion_lon": 0.0, "name": "33beb823198c80548f9ca0b74eb0b790", "type": "electric_scooter"}, {"rental_uris": {"ios": "https://dc.lft.to/lastmile_qr_scan", "android": "https://dc.lft.to/lastmile_qr_scan"}, "lat": 38.9558175, "is_reserved": 0, "bike_id": "469087f7cfa2fb71b28cffc909282e85", "lon": -77.070087, "is_disabled": 0, "fusion_lat": 0.0, "fusion_lon": 0.0, "name": "469087f7cfa2fb71b28cffc909282e85", "type": "electric_scooter"}, {"rental_uris": {"ios": "https://dc.lft.to/lastmile_qr_scan", "android": "https://dc.lft.to/lastmile_qr_scan"}, "lat": 38.92735716666667, "is_reserved": 0, "bike_id": "5fa1735c45d59dd685a404cf9bfd3e64", "lon": -77.03427816666667, "is_disabled": 0, "fusion_lat": 0.0, "fusion_lon": 0.0, "name": "5fa1735c45d59dd685a404cf9bfd3e64", "type": "electric_scooter"}, {"rental_uris": {"ios": "https://dc.lft.to/lastmile_qr_scan", "android": "https://dc.lft.to/lastmile_qr_scan"}, "lat": 38.90308983333333, "is_reserved": 0, "bike_id": "5c1e52b6c41d0ed56afd4ffc8f13e4be", "lon": -77.021229, "is_disabled": 0, "fusion_lat": 0.0, "fusion_lon": 0.0, "name": "5c1e52b6c41d0ed56afd4ffc8f13e4be", "type": "electric_scooter"}, {"rental_uris": {"ios": "https://dc.lft.to/lastmile_qr_scan", "android": "https://dc.lft.to/lastmile_qr_scan"},