{"data": {"bikes": [{"type": "electric_scooter", "name": "d132d0cd7c64d5e7ef81b8ccb464be53", "lat": 38.89549366666667, "fusion_lat": 0.0, "bike_id": "d132d0cd7c64d5e7ef81b8ccb464be53", "is_reserved": 0, "lon": -77.02959216666666, "is_disabled": 0, "fusion_lon": 0.0, "rental_uris": {"android": "https://dc.lft.to/lastmile_qr_scan", "ios": "https://dc.lft.to/lastmile_qr_scan"}}, {"type": "electric_scooter", "name": "c09f718542ad29eea7e79aca33d24d88", "lat": 38.90133066666667, "fusion_lat": 0.0, "bike_id": "c09f718542ad29eea7e79aca33d24d88", "is_reserved": 0, "lon": -77.03195083333334, "is_disabled": 0, "fusion_lon": 0.0, "rental_uris": {"android": "https://dc.lft.to/lastmile_qr_scan", "ios": "https://dc.lft.to/lastmile_qr_scan"}}, {"type": "electric_scooter", "name": "948b5633a892841d7c4657ae92a87440", "lat": 38.90568366666667, "fusion_lat": 0.0, "bike_id": "948b5633a892841d7c4657ae92a87440", "is_reserved": 0, "lon": -77.05142283333333, "is_disabled": 0, "fusion_lon": 0.0, "rental_uris": {"android": "https://dc.lft.to/lastmile_qr_scan", "ios": "https://dc.lft.to/lastmile_qr_scan"}}, {"type": "electric_scooter", "name": "b1549857fc03297f81871bb229e25c08", "lat": 38.93399183333333, "fusion_lat": 0.0, "bike_id": "b1549857fc03297f81871bb229e25c08", "is_reserved": 0, "lon": -77.05743666666666, "is_disabled": 0, "fusion_lon": 0.0, "rental_uris": {"android": "https://dc.lft.to/lastmile_qr_scan", "ios": "https://dc.lft.to/lastmile_qr_scan"}}, {"type": "electric_scooter", "name": "e081d9824509f95d352997a116ed0a85", "lat": 38.928668333333334, "fusion_lat": 0.0, "bike_id": "e081d9824509f95d352997a116ed0a85", "is_reserved": 0, "lon": -77.0343305, "is_disabled": 0, "fusion_lon": 0.0, "rental_uris": {"android": "https://dc.lft.to/lastmile_qr_scan", "ios": "https://dc.lft.to/lastmile_qr_scan"}}, {"type": "electric_scooter", "name": "3f270496574cd036d49ef73f986dac1b", "lat": 38.914162166666664, "fusion_lat": 0.0, "bike_id": "3f270496574cd036d49ef73f986dac1b", "is_reserved": 0, "lon": -77.02332966666667, "is_disabled": 0, "fusion_lon": 0.0, "rental_uris": {"android": "https://dc.lft.to/lastmile_qr_scan", "ios": "https://dc.lft.to/lastmile_qr_scan"}}, {"type": "electric_scooter", "name": "28be0d0d7b8440f5fd48f47f50270277", "lat": 38.9175555, "fusion_lat": 0.0, "bike_id": "28be0d0d7b8440f5fd48f47f50270277", "is_reserved": 0, "lon": -77.02815616666666, "is_disabled": 0, "fusion_lon": 0.0, "rental_uris": {"android": "https://dc.lft.to/lastmile_qr_scan", "ios": "https://dc.lft.to/lastmile_qr_scan"}}, {"type": "electric_scooter", "name": "b842337d67930e5baa35a939f7212022", "lat": 38.920342833333336, "fusion_lat": 0.0, "bike_id": "b842337d67930e5baa35a939f7212022", "is_reserved": 0, "lon": -77.01743516666667, "is_disabled": 0, "fusion_lon": 0.0, "rental_uris": {"android": "https://dc.lft.to/lastmile_qr_scan", "ios": "https://dc.lft.to/lastmile_qr_scan"}}, {"type": "electric_scooter", "name": "d9a98be845d5ff14c8348f671e2a478b", "lat": 38.8736075, "fusion_lat": 0.0, "bike_id": "d9a98be845d5ff14c8348f671e2a478b", "is_reserved": 0, "lon": -77.00108833333333, "is_disabled": 0, "fusion_lon": 0.0, "rental_uris": {"android": "https://dc.lft.to/lastmile_qr_scan", "ios": "https://dc.lft.to/lastmile_qr_scan"}}, {"type": "electric_scooter", "name": "5b08324469eb50fa044d30c8ab6aa502", "lat": 38.923823166666665, "fusion_lat": 0.0, "bike_id": "5b08324469eb50fa044d30c8ab6aa502", "is_reserved": 0, "lon": -77.02563783333333, "is_disabled": 0, "fusion_lon": 0.0, "rental_uris": {"android": "https://dc.lft.to/lastmile_qr_scan", "ios": "https://dc.lft.to/lastmile_qr_scan"}}, {"type": "electric_scooter", "name": "9ebbee27b438b8bae6b6ccfbe3ad5b01", "lat": 38.927616, "fusion_lat": 0.0, "bike_id": "9ebbee27b438b8bae6b6ccfbe3ad5b01", "is_reserved": 0, "lon": -77.01194366666667, "is_disabled": 0, "fusion_lon": 0.0, "rental_uris": {"android": "https://dc.lft.to/lastmile_qr_scan", "ios": "https://dc.lft.to/lastmile_qr_scan"}}, {"type": "electric_scooter", "name": "676a4eeedc9fd4dba902a27f7342fe51", "lat": 38.905286833333335, "fusion_lat": 0.0, "bike_id": "676a4eeedc9fd4dba902a27f7342fe51", "is_reserved": 0, "lon": -77.06097433333333, "is_disabled": 0, "fusion_lon": 0.0, "rental_uris": {"android": "https://dc.lft.to/lastmile_qr_scan", "ios": "https://dc.lft.to/lastmile_qr_scan"}}, {"type": "electric_bike", "name": "5a48539df8617cdfe6a76ee5143c76a8", "lat": 38.81333, "fusion_lat": 0.0, "bike_id": "5a48539df8617cdfe6a76ee5143c76a8", "is_reserved": 0, "lon": -77.05085183333334, "is_disabled": 0, "fusion_lon": 0.0, "rental_uris": {"android": "https://dc.lft.to/lastmile_qr_scan", "ios": "https://dc.lft.to/lastmile_qr_scan"}}, {"type": "electric_scooter", "name": "3a84a9edce897e21266fe474bf8de284", "lat": 38.882888666666666, "fusion_lat": 0.0, "bike_id": "3a84a9edce897e21266fe474bf8de284", "is_reserved": 0, "lon": -77.0247315, "is_disabled": 0, "fusion_lon": 0.0, "rental_uris": {"android": "https://dc.lft.to/lastmile_qr_scan", "ios": "https://dc.lft.to/lastmile_qr_scan"}}, {"type": "electric_scooter", "name": "472b13428bb2277f94903a485d12409b", "lat": 38.902706, "fusion_lat": 0.0, "bike_id": "472b13428bb2277f94903a485d12409b", "is_reserved": 0, "lon": -77.03432233333334, "is_disabled": 0, "fusion_lon": 0.0, "rental_uris": {"android": "https://dc.lft.to/lastmile_qr_scan", "ios": "https://dc.lft.to/lastmile_qr_scan"}}, {"type": "electric_scooter", "name": "2ee62acd897699fa1d7ca2069703697f", "lat": 38.88362466666667, "fusion_lat": 0.0, "bike_id": "2ee62acd897699fa1d7ca2069703697f", "is_reserved": 0, "lon": -77.01991516666666, "is_disabled": 0, "fusion_lon": 0.0, "rental_uris": {"android": "https://dc.lft.to/lastmile_qr_scan", "ios": "https://dc.lft.to/lastmile_qr_scan"}}, {"type": "electric_bike", "name": "52e98cc8725f19a706f2356bd3435e9d", "lat": 38.93191733333333, "fusion_lat": 0.0, "bike_id": "52e98cc8725f19a706f2356bd3435e9d", "is_reserved": 0, "lon": -77.22925283333333, "is_disabled": 0, "fusion_lon": 0.0, "rental_uris": {"android": "https://dc.lft.to/lastmile_qr_scan", "ios": "https://dc.lft.to/lastmile_qr_scan"}}, {"type": "electric_scooter", "name": "92449de6dc1e5cb18984f812736d051e", "lat": 38.90018283333333, "fusion_lat": 0.0, "bike_id": "92449de6dc1e5cb18984f812736d051e", "is_reserved": 0, "lon": -76.99165183333334, "is_disabled": 0, "fusion_lon": 0.0, "rental_uris": {"android": "https://dc.lft.to/lastmile_qr_scan", "ios": "https://dc.lft.to/lastmile_qr_scan"}}, {"type": "electric_scooter", "name": "624fb7fc25e2d868ff3490013b8250b7", "lat": 38.92715833333333, "fusion_lat": 0.0, "bike_id": "624fb7fc25e2d868ff3490013b8250b7", "is_reserved": 0, "lon": -77.01592383333333, "is_disabled": 0, "fusion_lon": 0.0, "rental_uris": {"android": "https://dc.lft.to/lastmile_qr_scan", "ios": "https://dc.lft.to/lastmile_qr_scan"}}, {"type": "electric_scooter", "name": "1bffe952fde85c91498f770178f83b58", "lat": 38.901408333333336, "fusion_lat": 0.0, "bike_id": "1bffe952fde85c91498f770178f83b58", "is_reserved": 0, "lon": -77.03870466666666, "is_disabled": 0, "fusion_lon": 0.0, "rental_uris": {"android": "https://dc.lft.to/lastmile_qr_scan", "ios": "https://dc.lft.to/lastmile_qr_scan"}}, {"type": "electric_scooter", "name": "535e97d257e073fed7e5c346a2f9d5fc", "lat": 38.973733333333335, "fusion_lat": 0.0, "bike_id": "535e97d257e073fed7e5c346a2f9d5fc", "is_reserved": 0, "lon": -77.01812, "is_disabled": 0, "fusion_lon": 0.0, "rental_uris": {"android": "https://dc.lft.to/lastmile_qr_scan", "ios": "https://dc.lft.to/lastmile_qr_scan"}}, {"type": "electric_scooter", "name": "70cc101e49d4a3d220a745523136b262", "lat": 38.86503866666666, "fusion_lat": 0.0, "bike_id": "70cc101e49d4a3d220a745523136b262", "is_reserved": 0, "lon": -76.989993, "is_disabled": 0, "fusion_lon": 0.0, "rental_uris": {"android": "https://dc.lft.to/lastmile_qr_scan", "ios": "https://dc.lft.to/lastmile_qr_scan"}}, {"type": "electric_scooter", "name": "63c6371dbe1e5f9fbe3fac016062ab0b", "lat": 38.8947005, "fusion_lat": 0.0, "bike_id": "63c6371dbe1e5f9fbe3fac016062ab0b", "is_reserved": 0, "lon": -77.01751883333333, "is_disabled": 0, "fusion_lon": 0.0, "rental_uris": {"android": "https://dc.lft.to/lastmile_qr_scan", "ios": "https://dc.lft.to/lastmile_qr_scan"}}, {"type": "electric_scooter", "name": "b550e67ca975e1ea391613f142141da6", "lat": 38.91737766666667, "fusion_lat": 0.0, "bike_id": "b550e67ca975e1ea391613f142141da6", "is_reserved": 0, "lon": -77.023921, "is_disabled": 0, "fusion_lon": 0.0, "rental_uris": {"android": "https://dc.lft.to/lastmile_qr_scan", "ios": "https://dc.lft.to/lastmile_qr_scan"}}, {"type": "electric_scooter", "name": "0183a4e3bbeeb2beaf63297bc5f227ef", "lat": 38.912312, "fusion_lat": 0.0, "bike_id": "0183a4e3bbeeb2beaf63297bc5f227ef", "is_reserved": 0, "lon": -76.987885, "is_disabled": 0, "fusion_lon": 0.0, "rental_uris": {"android": "https://dc.lft.to/lastmile_qr_scan", "ios": "https://dc.lft.to/lastmile_qr_scan"}}, {"type": "electric_scooter", "name": "91289c7206d133773b4f37cfe2890073", "lat": 38.92787233333333, "fusion_lat": 0.0, "bike_id": "91289c7206d133773b4f37cfe2890073", "is_reserved": 0, "lon": -77.031452, "is_disabled": 0, "fusion_lon": 0.0, "rental_uris": {"android": "https://dc.lft.to/lastmile_qr_scan", "ios": "https://dc.lft.to/lastmile_qr_scan"}}, {"type": "electric_scooter", "name": "6161498d535bd0684ebbf9e1ad579b94", "lat": 38.89735983333333, "fusion_lat": 0.0, "bike_id": "6161498d535bd0684ebbf9e1ad579b94", "is_reserved": 0, "lon": -77.0316305, "is_disabled": 0, "fusion_lon": 0.0, "rental_uris": {"android": "https://dc.lft.to/lastmile_qr_scan", "ios": "https://dc.lft.to/lastmile_qr_scan"}}, {"type": "electric_scooter", "name": "7c34ffc55eda2880e4d37ef376e85a4e", "lat": 38.89837633333333, "fusion_lat": 0.0, "bike_id": "7c34ffc55eda2880e4d37ef376e85a4e", "is_reserved": 0, "lon": -77.02816566666667, "is_disabled": 0, "fusion_lon": 0.0, "rental_uris": {"android": "https://dc.lft.to/lastmile_qr_scan", "ios": "https://dc.lft.to/lastmile_qr_scan"}}, {"type": "electric_scooter", "name": "ecd67e1df7da21d4f49b0ad10051d217", "lat": 38.91733516666667, "fusion_lat": 0.0, "bike_id": "ecd67e1df7da21d4f49b0ad10051d217", "is_reserved": 0, "lon": -77.03639366666667, "is_disabled": 0, "fusion_lon": 0.0, "rental_uris": {"android": "https://dc.lft.to/lastmile_qr_scan", "ios": "https://dc.lft.to/lastmile_qr_scan"}}, {"type": "electric_scooter", "name": "147af71bdad2fe2aa175bb40f2274ed7", "lat": 38.89787966666667, "fusion_lat": 0.0, "bike_id": "147af71bdad2fe2aa175bb40f2274ed7", "is_reserved": 0, "lon": -76.93117316666667, "is_disabled": 0, "fusion_lon": 0.0, "rental_uris": {"android": "https://dc.lft.to/lastmile_qr_scan", "ios": "https://dc.lft.to/lastmile_qr_scan"}}, {"type": "electric_scooter", "name": "dc0060b75b4ae4839af8fb2d029c4133", "lat": 38.90247266666667, "fusion_lat": 0.0, "bike_id": "dc0060b75b4ae4839af8fb2d029c4133", "is_reserved": 0, "lon": -77.03344683333333, "is_disabled": 0, "fusion_lon": 0.0, "rental_uris": {"android": "https://dc.lft.to/lastmile_qr_scan", "ios": "https://dc.lft.to/lastmile_qr_scan"}}, {"type": "electric_scooter", "name": "28383fca53cf7335e1fd9d74b3d0df6f", "lat": 38.892245333333335, "fusion_lat": 0.0, "bike_id": "28383fca53cf7335e1fd9d74b3d0df6f", "is_reserved": 0, "lon": -77.043761, "is_disabled": 0, "fusion_lon": 0.0, "rental_uris": {"android": "https://dc.lft.to/lastmile_qr_scan", "ios": "https://dc.lft.to/lastmile_qr_scan"}}, {"type": "electric_scooter", "name": "b8b09fe05593f8b5b1797d323d4d8c5e", "lat": 38.924657333333336, "fusion_lat": 0.0, "bike_id": "b8b09fe05593f8b5b1797d323d4d8c5e", "is_reserved": 0, "lon": -77.05235416666666, "is_disabled": 0, "fusion_lon": 0.0, "rental_uris": {"android": "https://dc.lft.to/lastmile_qr_scan", "ios": "https://dc.lft.to/lastmile_qr_scan"}}, {"type": "electric_scooter", "name": "b92bc469922e2a9956c28c22ca455627", "lat": 38.911439666666666, "fusion_lat": 0.0, "bike_id": "b92bc469922e2a9956c28c22ca455627", "is_reserved": 0, "lon": -77.02419566666667, "is_disabled": 0, "fusion_lon": 0.0, "rental_uris": {"android": "https://dc.lft.to/lastmile_qr_scan", "ios": "https://dc.lft.to/lastmile_qr_scan"}}, {"type": "electric_scooter", "name": "454314109e3d3c9f926b392c3f639067", "lat": 38.90032216666667, "fusion_lat": 0.0, "bike_id": "454314109e3d3c9f926b392c3f639067", "is_reserved": 0, "lon": -77.03507083333334, "is_disabled": 0, "fusion_lon": 0.0, "rental_uris": {"android": "https://dc.lft.to/lastmile_qr_scan", "ios": "https://dc.lft.to/lastmile_qr_scan"}}, {"type": "electric_scooter", "name": "22acc143568b438f846f6843b13be5ad", "lat": 38.892205, "fusion_lat": 0.0, "bike_id": "22acc143568b438f846f6843b13be5ad", "is_reserved": 0, "lon": -77.04192716666667, "is_disabled": 0, "fusion_lon": 0.0, "rental_uris": {"android": "https://dc.lft.to/lastmile_qr_scan", "ios": "https://dc.lft.to/lastmile_qr_scan"}}, {"type": "electric_scooter", "name": "d617bef12ec0d3bdc4f9fddf6737b25f", "lat": 38.9549535, "fusion_lat": 0.0, "bike_id": "d617bef12ec0d3bdc4f9fddf6737b25f", "is_reserved": 0, "lon": -77.01722883333333, "is_disabled": 0, "fusion_lon": 0.0, "rental_uris": {"android": "https://dc.lft.to/lastmile_qr_scan", "ios": "https://dc.lft.to/lastmile_qr_scan"}}, {"type": "electric_scooter", "name": "52d77486c1b329e653dee235d22e5413", "lat": 38.92822983333333, "fusion_lat": 0.0, "bike_id": "52d77486c1b329e653dee235d22e5413", "is_reserved": 0, "lon": -77.014045, "is_disabled": 0, "fusion_lon": 0.0, "rental_uris": {"android": "https://dc.lft.to/lastmile_qr_scan", "ios": "https://dc.lft.to/lastmile_qr_scan"}}, {"type": "electric_scooter", "name": "5ee3b76009636f4d176fb9663f50a461", "lat": 38.92361966666667, "fusion_lat": 0.0, "bike_id": "5ee3b76009636f4d176fb9663f50a461", "is_reserved": 0, "lon": -77.0189905, "is_disabled": 0, "fusion_lon": 0.0, "rental_uris": {"android": "https://dc.lft.to/lastmile_qr_scan", "ios": "https://dc.lft.to/lastmile_qr_scan"}}, {"type": "electric_scooter", "name": "8b5ea0360575996d5a72c2f7d5333f23", "lat": 38.927673, "fusion_lat": 0.0, "bike_id": "8b5ea0360575996d5a72c2f7d5333f23", "is_reserved": 0, "lon": -77.02741016666667, "is_disabled": 0, "fusion_lon": 0.0, "rental_uris": {"android": "https://dc.lft.to/lastmile_qr_scan", "ios": "https://dc.lft.to/lastmile_qr_scan"}}, {"type": "electric_scooter", "name": "979eb0a7bc26ebad637a4bad2a079a5e", "lat": 38.87474233333333, "fusion_lat": 0.0, "bike_id": "979eb0a7bc26ebad637a4bad2a079a5e", "is_reserved": 0, "lon": -77.01887433333333, "is_disabled": 0, "fusion_lon": 0.0, "rental_uris": {"android": "https://dc.lft.to/lastmile_qr_scan", "ios": "https://dc.lft.to/lastmile_qr_scan"}}, {"type": "electric_bike", "name": "e83b030095071190f32cc80757b6a00d", "lat": 38.952155, "fusion_lat": 0.0, "bike_id": "e83b030095071190f32cc80757b6a00d", "is_reserved": 0, "lon": -77.0027175, "is_disabled": 0, "fusion_lon": 0.0, "rental_uris": {"android": "https://dc.lft.to/lastmile_qr_scan", "ios": "https://dc.lft.to/lastmile_qr_scan"}}, {"type": "electric_scooter", "name": "64ed713ab26899dc8fd2146d800c5d72", "lat": 38.84644516666667, "fusion_lat": 0.0, "bike_id": "64ed713ab26899dc8fd2146d800c5d72", "is_reserved": 0, "lon": -76.98408833333333, "is_disabled": 0, "fusion_lon": 0.0, "rental_uris": {"android": "https://dc.lft.to/lastmile_qr_scan", "ios": "https://dc.lft.to/lastmile_qr_scan"}}, {"type": "electric_scooter", "name": "3da12d7d4dbf71fb31fa573e8b4cfdaf", "lat": 38.902729, "fusion_lat": 0.0, "bike_id": "3da12d7d4dbf71fb31fa573e8b4cfdaf", "is_reserved": 0, "lon": -77.03932016666667, "is_disabled": 0, "fusion_lon": 0.0, "rental_uris": {"android": "https://dc.lft.to/lastmile_qr_scan", "ios": "https://dc.lft.to/lastmile_qr_scan"}}, {"type": "electric_scooter", "name": "d249e9130aea6298d70802f461e66e4d", "lat": 38.90572366666667, "fusion_lat": 0.0, "bike_id": "d249e9130aea6298d70802f461e66e4d", "is_reserved": 0, "lon": -77.04326033333334, "is_disabled": 0, "fusion_lon": 0.0, "rental_uris": {"android": "https://dc.lft.to/lastmile_qr_scan", "ios": "https://dc.lft.to/lastmile_qr_scan"}}, {"type": "electric_scooter", "name": "34ab578f4463dcccb58d3ea4fdb35718", "lat": 38.91801516666666, "fusion_lat": 0.0, "bike_id": "34ab578f4463dcccb58d3ea4fdb35718", "is_reserved": 0, "lon": -77.0269655, "is_disabled": 0, "fusion_lon": 0.0, "rental_uris": {"android": "https://dc.lft.to/lastmile_qr_scan", "ios": "https://dc.lft.to/lastmile_qr_scan"}}, {"type": "electric_scooter", "name": "c9c4b2b5ec5a1db4910e3254cace03dd", "lat": 38.926602833333334, "fusion_lat": 0.0, "bike_id": "c9c4b2b5ec5a1db4910e3254cace03dd", "is_reserved": 0, "lon": -77.0238325, "is_disabled": 0, "fusion_lon": 0.0, "rental_uris": {"android": "https://dc.lft.to/lastmile_qr_scan", "ios": "https://dc.lft.to/lastmile_qr_scan"}}, {"type": "electric_bike", "name": "56894f05fa58313719041dd1e50bd897", "lat": 38.884732166666666, "fusion_lat": 0.0, "bike_id": "56894f05fa58313719041dd1e50bd897", "is_reserved": 0, "lon": -77.01921483333334, "is_disabled": 0, "fusion_lon": 0.0, "rental_uris": {"android": "https://dc.lft.to/lastmile_qr_scan", "ios": "https://dc.lft.to/lastmile_qr_scan"}}, {"type": "electric_scooter", "name": "a4bf8baf1556c5fcf90ef898fc0d8914", "lat": 38.903400500000004, "fusion_lat": 0.0, "bike_id": "a4bf8baf1556c5fcf90ef898fc0d8914", "is_reserved": 0, "lon": -77.04323966666666, "is_disabled": 0, "fusion_lon": 0.0, "rental_uris": {"android": "https://dc.lft.to/lastmile_qr_scan", "ios": "https://dc.lft.to/lastmile_qr_scan"}}, {"type": "electric_scooter", "name": "3077ffc2a8a11ba8dcb8c799bf2690af", "lat": 38.91101533333333, "fusion_lat": 0.0, "bike_id": "3077ffc2a8a11ba8dcb8c799bf2690af", "is_reserved": 0, "lon": -77.0444095, "is_disabled": 0, "fusion_lon": 0.0, "rental_uris": {"android": "https://dc.lft.to/lastmile_qr_scan", "ios": "https://dc.lft.to/lastmile_qr_scan"}}, {"type": "electric_bike", "name": "a70598f2e1e6daa596cbdb4c3a6a81b5", "lat": 38.8951185, "fusion_lat": 0.0, "bike_id": "a70598f2e1e6daa596cbdb4c3a6a81b5", "is_reserved": 0, "lon": -77.04543983333333, "is_disabled": 0, "fusion_lon": 0.0, "rental_uris": {"android": "https://dc.lft.to/lastmile_qr_scan", "ios": "https://dc.lft.to/lastmile_qr_scan"}}, {"type": "electric_scooter", "name": "8be53983333d48a275392a2226b09629", "lat": 38.896532666666666, "fusion_lat": 0.0, "bike_id": "8be53983333d48a275392a2226b09629", "is_reserved": 0, "lon": -77.050275, "is_disabled": 0, "fusion_lon": 0.0, "rental_uris": {"android": "https://dc.lft.to/lastmile_qr_scan", "ios": "https://dc.lft.to/lastmile_qr_scan"}}, {"type": "electric_scooter", "name": "dd527487547dc05bca5bab833f2c4eb9", "lat": 38.899027, "fusion_lat": 0.0, "bike_id": "dd527487547dc05bca5bab833f2c4eb9", "is_reserved": 0, "lon": -77.0499875, "is_disabled": 0, "fusion_lon": 0.0, "rental_uris": {"android": "https://dc.lft.to/lastmile_qr_scan", "ios": "https://dc.lft.to/lastmile_qr_scan"}}, {"type": "electric_scooter", "name": "c37b55caf8c4bc74f63abb18dc531d5b", "lat": 38.92623066666667, "fusion_lat": 0.0, "bike_id": "c37b55caf8c4bc74f63abb18dc531d5b", "is_reserved": 0, "lon": -77.0216695, "is_disabled": 0, "fusion_lon": 0.0, "rental_uris": {"android": "https://dc.lft.to/lastmile_qr_scan", "ios": "https://dc.lft.to/lastmile_qr_scan"}}, {"type": "electric_scooter", "name": "74145b245843ca4946b6f98553faafa1", "lat": 38.906267, "fusion_lat": 0.0, "bike_id": "74145b245843ca4946b6f98553faafa1", "is_reserved": 0, "lon": -77.05011233333333, "is_disabled": 0, "fusion_lon": 0.0, "rental_uris": {"android": "https://dc.lft.to/lastmile_qr_scan", "ios": "https://dc.lft.to/lastmile_qr_scan"}}, {"type": "electric_scooter", "name": "303fbb3c0e3cf6d862233bfc18883102", "lat": 38.9143165, "fusion_lat": 0.0, "bike_id": "303fbb3c0e3cf6d862233bfc18883102", "is_reserved": 0, "lon": -77.02289366666666, "is_disabled": 0, "fusion_lon": 0.0, "rental_uris": {"android": "https://dc.lft.to/lastmile_qr_scan", "ios": "https://dc.lft.to/lastmile_qr_scan"}}, {"type": "electric_scooter", "name": "eeaf2497989a5186b35b1c453c9923f9", "lat": 38.883123, "fusion_lat": 0.0, "bike_id": "eeaf2497989a5186b35b1c453c9923f9", "is_reserved": 0, "lon": -77.01761266666666, "is_disabled": 0, "fusion_lon": 0.0, "rental_uris": {"android": "https://dc.lft.to/lastmile_qr_scan", "ios": "https://dc.lft.to/lastmile_qr_scan"}}, {"type": "electric_scooter", "name": "f9531777e7c7c3a5868dc8e565a95e6e", "lat": 38.927291333333336, "fusion_lat": 0.0, "bike_id": "f9531777e7c7c3a5868dc8e565a95e6e", "is_reserved": 0, "lon": -77.03238983333334, "is_disabled": 0, "fusion_lon": 0.0, "rental_uris": {"android": "https://dc.lft.to/lastmile_qr_scan", "ios": "https://dc.lft.to/lastmile_qr_scan"}}, {"type": "electric_scooter", "name": "d75edfcde72c6bbc60ff7282727bdc05", "lat": 38.892332833333334, "fusion_lat": 0.0, "bike_id": "d75edfcde72c6bbc60ff7282727bdc05", "is_reserved": 0, "lon": -77.0500315, "is_disabled": 0, "fusion_lon": 0.0, "rental_uris": {"android": "https://dc.lft.to/lastmile_qr_scan", "ios": "https://dc.lft.to/lastmile_qr_scan"}}, {"type": "electric_scooter", "name": "a804fae689971b1f1ddda52f749f5a04", "lat": 38.9086245, "fusion_lat": 0.0, "bike_id": "a804fae689971b1f1ddda52f749f5a04", "is_reserved": 0, "lon": -77.04566333333334, "is_disabled": 0, "fusion_lon": 0.0, "rental_uris": {"android": "https://dc.lft.to/lastmile_qr_scan", "ios": "https://dc.lft.to/lastmile_qr_scan"}}, {"type": "electric_bike", "name": "014874ab7a0db55a42984f5fc95f0815", "lat": 39.0408285, "fusion_lat": 0.0, "bike_id": "014874ab7a0db55a42984f5fc95f0815", "is_reserved": 0, "lon": -77.0533615, "is_disabled": 0, "fusion_lon": 0.0, "rental_uris": {"android": "https://dc.lft.to/lastmile_qr_scan", "ios": "https://dc.lft.to/lastmile_qr_scan"}}, {"type": "electric_scooter", "name": "18da912fbe4ecb3a329045aefd3a687e", "lat": 38.93585933333333, "fusion_lat": 0.0, "bike_id": "18da912fbe4ecb3a329045aefd3a687e", "is_reserved": 0, "lon": -77.0335145, "is_disabled": 0, "fusion_lon": 0.0, "rental_uris": {"android": "https://dc.lft.to/lastmile_qr_scan", "ios": "https://dc.lft.to/lastmile_qr_scan"}}, {"type": "electric_bike", "name": "537b819181b2bb659ac9f0e29dab0fba", "lat": 38.9725705, "fusion_lat": 0.0, "bike_id": "537b819181b2bb659ac9f0e29dab0fba", "is_reserved": 0, "lon": -76.992732, "is_disabled": 0, "fusion_lon": 0.0, "rental_uris": {"android": "https://dc.lft.to/lastmile_qr_scan", "ios": "https://dc.lft.to/lastmile_qr_scan"}}, {"type": "electric_bike", "name": "eaa74a25b9b737221be02cbe753d6a2d", "lat": 38.880758666666665, "fusion_lat": 0.0, "bike_id": "eaa74a25b9b737221be02cbe753d6a2d", "is_reserved": 0, "lon": -77.08630016666666, "is_disabled": 0, "fusion_lon": 0.0, "rental_uris": {"android": "https://dc.lft.to/lastmile_qr_scan", "ios": "https://dc.lft.to/lastmile_qr_scan"}}, {"type": "electric_scooter", "name": "ba58aca514e0ed78b4f7e7535009db1f", "lat": 38.8972405, "fusion_lat": 0.0, "bike_id": "ba58aca514e0ed78b4f7e7535009db1f", "is_reserved": 0, "lon": -77.05520683333333, "is_disabled": 0, "fusion_lon": 0.0, "rental_uris": {"android": "https://dc.lft.to/lastmile_qr_scan", "ios": "https://dc.lft.to/lastmile_qr_scan"}}, {"type": "electric_scooter", "name": "34ba6d4ee6b35d961f8b1d49f9070543", "lat": 38.90283083333333, "fusion_lat": 0.0, "bike_id": "34ba6d4ee6b35d961f8b1d49f9070543", "is_reserved": 0, "lon": -77.03836366666667, "is_disabled": 0, "fusion_lon": 0.0, "rental_uris": {"android": "https://dc.lft.to/lastmile_qr_scan", "ios": "https://dc.lft.to/lastmile_qr_scan"}}, {"type": "electric_scooter", "name": "77340a743c584d754a8454681a17624d", "lat": 38.89465166666667, "fusion_lat": 0.0, "bike_id": "77340a743c584d754a8454681a17624d", "is_reserved": 0, "lon": -77.03092733333334, "is_disabled": 0, "fusion_lon": 0.0, "rental_uris": {"android": "https://dc.lft.to/lastmile_qr_scan", "ios": "https://dc.lft.to/lastmile_qr_scan"}}, {"type": "electric_scooter", "name": "a113d447f1d2d5d6a709f07fb59f4829", "lat": 38.95075116666667, "fusion_lat": 0.0, "bike_id": "a113d447f1d2d5d6a709f07fb59f4829", "is_reserved": 0, "lon": -76.99616916666666, "is_disabled": 0, "fusion_lon": 0.0, "rental_uris": {"android": "https://dc.lft.to/lastmile_qr_scan", "ios": "https://dc.lft.to/lastmile_qr_scan"}}, {"type": "electric_scooter", "name": "5415f2639db472cf00673bd4cfcf02fe", "lat": 38.925334, "fusion_lat": 0.0, "bike_id": "5415f2639db472cf00673bd4cfcf02fe", "is_reserved": 0, "lon": -77.03382816666667, "is_disabled": 0, "fusion_lon": 0.0, "rental_uris": {"android": "https://dc.lft.to/lastmile_qr_scan", "ios": "https://dc.lft.to/lastmile_qr_scan"}}, {"type": "electric_scooter", "name": "6caba1f1dbeb40c452973b403bdf0916", "lat": 38.906101666666665, "fusion_lat": 0.0, "bike_id": "6caba1f1dbeb40c452973b403bdf0916", "is_reserved": 0, "lon": -77.04139116666667, "is_disabled": 0, "fusion_lon": 0.0, "rental_uris": {"android": "https://dc.lft.to/lastmile_qr_scan", "ios": "https://dc.lft.to/lastmile_qr_scan"}}, {"type": "electric_scooter", "name": "5c7b354d1b8cda8da9ce23334edf1621", "lat": 38.885010333333334, "fusion_lat": 0.0, "bike_id": "5c7b354d1b8cda8da9ce23334edf1621", "is_reserved": 0, "lon": -77.02169516666666, "is_disabled": 0, "fusion_lon": 0.0, "rental_uris": {"android": "https://dc.lft.to/lastmile_qr_scan", "ios": "https://dc.lft.to/lastmile_qr_scan"}}, {"type": "electric_scooter", "name": "89da5be4e43a251a54023757eff6b57e", "lat": 38.8711505, "fusion_lat": 0.0, "bike_id": "89da5be4e43a251a54023757eff6b57e", "is_reserved": 0, "lon": -77.007529, "is_disabled": 0, "fusion_lon": 0.0, "rental_uris": {"android": "https://dc.lft.to/lastmile_qr_scan", "ios": "https://dc.lft.to/lastmile_qr_scan"}}, {"type": "electric_scooter", "name": "f89c7d146024e316b866c2c89c55d939", "lat": 38.895892833333335, "fusion_lat": 0.0, "bike_id": "f89c7d146024e316b866c2c89c55d939", "is_reserved": 0, "lon": -77.04097183333333, "is_disabled": 0, "fusion_lon": 0.0, "rental_uris": {"android": "https://dc.lft.to/lastmile_qr_scan", "ios": "https://dc.lft.to/lastmile_qr_scan"}}, {"type": "electric_scooter", "name": "c3304c1631cf40c7492ed07e6bf49d68", "lat": 38.86660066666666, "fusion_lat": 0.0, "bike_id": "c3304c1631cf40c7492ed07e6bf49d68", "is_reserved": 0, "lon": -76.98880616666666, "is_disabled": 0, "fusion_lon": 0.0, "rental_uris": {"android": "https://dc.lft.to/lastmile_qr_scan", "ios": "https://dc.lft.to/lastmile_qr_scan"}}, {"type": "electric_scooter", "name": "9d7a38c374a927638d99d623a9b208a8", "lat": 38.92489916666667, "fusion_lat": 0.0, "bike_id": "9d7a38c374a927638d99d623a9b208a8", "is_reserved": 0, "lon": -77.02136616666667, "is_disabled": 0, "fusion_lon": 0.0, "rental_uris": {"android": "https://dc.lft.to/lastmile_qr_scan", "ios": "https://dc.lft.to/lastmile_qr_scan"}}, {"type": "electric_scooter", "name": "ca6da03e8449da646c7c75177f1c473d", "lat": 38.92472766666667, "fusion_lat": 0.0, "bike_id": "ca6da03e8449da646c7c75177f1c473d", "is_reserved": 0, "lon": -77.022173, "is_disabled": 0, "fusion_lon": 0.0, "rental_uris": {"android": "https://dc.lft.to/lastmile_qr_scan", "ios": "https://dc.lft.to/lastmile_qr_scan"}}, {"type": "electric_scooter", "name": "64886d0e8f179efc5960ad63264b4386", "lat": 38.89944066666666, "fusion_lat": 0.0, "bike_id": "64886d0e8f179efc5960ad63264b4386", "is_reserved": 0, "lon": -76.98160183333333, "is_disabled": 0, "fusion_lon": 0.0, "rental_uris": {"android": "https://dc.lft.to/lastmile_qr_scan", "ios": "https://dc.lft.to/lastmile_qr_scan"}}, {"type": "electric_scooter", "name": "497d0196acdcbbd1d2c37af9c33cb6fb", "lat": 38.890421833333335, "fusion_lat": 0.0, "bike_id": "497d0196acdcbbd1d2c37af9c33cb6fb", "is_reserved": 0, "lon": -76.95245066666666, "is_disabled": 0, "fusion_lon": 0.0, "rental_uris": {"android": "https://dc.lft.to/lastmile_qr_scan", "ios": "https://dc.lft.to/lastmile_qr_scan"}}, {"type": "electric_scooter", "name": "4e758501ff6621c703c781973e72962b", "lat": 38.907877166666665, "fusion_lat": 0.0, "bike_id": "4e758501ff6621c703c781973e72962b", "is_reserved": 0, "lon": -77.02699766666667, "is_disabled": 0, "fusion_lon": 0.0, "rental_uris": {"android": "https://dc.lft.to/lastmile_qr_scan", "ios": "https://dc.lft.to/lastmile_qr_scan"}}, {"type": "electric_scooter", "name": "2c8aa151ceeacba56fec2ff05d5fa53b", "lat": 38.8978945, "fusion_lat": 0.0, "bike_id": "2c8aa151ceeacba56fec2ff05d5fa53b", "is_reserved": 0, "lon": -77.0135565, "is_disabled": 0, "fusion_lon": 0.0, "rental_uris": {"android": "https://dc.lft.to/lastmile_qr_scan", "ios": "https://dc.lft.to/lastmile_qr_scan"}}, {"type": "electric_scooter", "name": "dd6260746120f227852e84efa1f9cc96", "lat": 38.9243805, "fusion_lat": 0.0, "bike_id": "dd6260746120f227852e84efa1f9cc96", "is_reserved": 0, "lon": -77.0340905, "is_disabled": 0, "fusion_lon": 0.0, "rental_uris": {"android": "https://dc.lft.to/lastmile_qr_scan", "ios": "https://dc.lft.to/lastmile_qr_scan"}}, {"type": "electric_scooter", "name": "72602a65575ff1625bec8876cd2563ef", "lat": 38.91458033333333, "fusion_lat": 0.0, "bike_id": "72602a65575ff1625bec8876cd2563ef", "is_reserved": 0, "lon": -77.03642066666667, "is_disabled": 0, "fusion_lon": 0.0, "rental_uris": {"android": "https://dc.lft.to/lastmile_qr_scan", "ios": "https://dc.lft.to/lastmile_qr_scan"}}, {"type": "electric_scooter", "name": "972e1dff323f30fe0508f63706200939", "lat": 38.89216366666667, "fusion_lat": 0.0, "bike_id": "972e1dff323f30fe0508f63706200939", "is_reserved": 0, "lon": -77.01353966666667, "is_disabled": 0, "fusion_lon": 0.0, "rental_uris": {"android": "https://dc.lft.to/lastmile_qr_scan", "ios": "https://dc.lft.to/lastmile_qr_scan"}}, {"type": "electric_scooter", "name": "d3738e8a418bb9a74997c18d7c5d3cb2", "lat": 38.898882666666665, "fusion_lat": 0.0, "bike_id": "d3738e8a418bb9a74997c18d7c5d3cb2", "is_reserved": 0, "lon": -77.03278516666667, "is_disabled": 0, "fusion_lon": 0.0, "rental_uris": {"android": "https://dc.lft.to/lastmile_qr_scan", "ios": "https://dc.lft.to/lastmile_qr_scan"}}, {"type": "electric_scooter", "name": "b0cbe7c273e6e1e54f60ad3c81db6ede", "lat": 38.9244735, "fusion_lat": 0.0, "bike_id": "b0cbe7c273e6e1e54f60ad3c81db6ede", "is_reserved": 0, "lon": -77.02143183333334, "is_disabled": 0, "fusion_lon": 0.0, "rental_uris": {"android": "https://dc.lft.to/lastmile_qr_scan", "ios": "https://dc.lft.to/lastmile_qr_scan"}}, {"type": "electric_scooter", "name": "6d180b766f19c0dd21295f19d6c064f0", "lat": 38.937506166666665, "fusion_lat": 0.0, "bike_id": "6d180b766f19c0dd21295f19d6c064f0", "is_reserved": 0, "lon": -77.02522966666666, "is_disabled": 0, "fusion_lon": 0.0, "rental_uris": {"android": "https://dc.lft.to/lastmile_qr_scan", "ios": "https://dc.lft.to/lastmile_qr_scan"}}, {"type": "electric_scooter", "name": "c6f365936856f033f4154a43fa84bf82", "lat": 38.92864866666667, "fusion_lat": 0.0, "bike_id": "c6f365936856f033f4154a43fa84bf82", "is_reserved": 0, "lon": -77.02729083333334, "is_disabled": 0, "fusion_lon": 0.0, "rental_uris": {"android": "https://dc.lft.to/lastmile_qr_scan", "ios": "https://dc.lft.to/lastmile_qr_scan"}}, {"type": "electric_scooter", "name": "0eb7a9e8addf72c7124564a03f3d30e4", "lat": 38.926905833333336, "fusion_lat": 0.0, "bike_id": "0eb7a9e8addf72c7124564a03f3d30e4", "is_reserved": 0, "lon": -77.032336, "is_disabled": 0, "fusion_lon": 0.0, "rental_uris": {"android": "https://dc.lft.to/lastmile_qr_scan", "ios": "https://dc.lft.to/lastmile_qr_scan"}}, {"type": "electric_scooter", "name": "098572494a96bf58db28bae55208536e", "lat": 38.956858, "fusion_lat": 0.0, "bike_id": "098572494a96bf58db28bae55208536e", "is_reserved": 0, "lon": -77.01149283333334, "is_disabled": 0, "fusion_lon": 0.0, "rental_uris": {"android": "https://dc.lft.to/lastmile_qr_scan", "ios": "https://dc.lft.to/lastmile_qr_scan"}}, {"type": "electric_scooter", "name": "037c6475721e76fe882023d0f8eb7634", "lat": 38.90323166666667, "fusion_lat": 0.0, "bike_id": "037c6475721e76fe882023d0f8eb7634", "is_reserved": 0, "lon": -77.0401015, "is_disabled": 0, "fusion_lon": 0.0, "rental_uris": {"android": "https://dc.lft.to/lastmile_qr_scan", "ios": "https://dc.lft.to/lastmile_qr_scan"}}, {"type": "electric_scooter", "name": "af955874601bcac95460b5ed8d4a93f5", "lat": 38.902805666666666, "fusion_lat": 0.0, "bike_id": "af955874601bcac95460b5ed8d4a93f5", "is_reserved": 0, "lon": -77.03841683333333, "is_disabled": 0, "fusion_lon": 0.0, "rental_uris": {"android": "https://dc.lft.to/lastmile_qr_scan", "ios": "https://dc.lft.to/lastmile_qr_scan"}}, {"type": "electric_scooter", "name": "2cc29937401f5025bcfa7eabd9986acd", "lat": 38.91251033333333, "fusion_lat": 0.0, "bike_id": "2cc29937401f5025bcfa7eabd9986acd", "is_reserved": 0, "lon": -77.02225216666666, "is_disabled": 0, "fusion_lon": 0.0, "rental_uris": {"android": "https://dc.lft.to/lastmile_qr_scan", "ios": "https://dc.lft.to/lastmile_qr_scan"}}, {"type": "electric_scooter", "name": "41846c3a6c47c8a9ac480508e5ff007f", "lat": 38.90025583333333, "fusion_lat": 0.0, "bike_id": "41846c3a6c47c8a9ac480508e5ff007f", "is_reserved": 0, "lon": -77.043849, "is_disabled": 0, "fusion_lon": 0.0, "rental_uris": {"android": "https://dc.lft.to/lastmile_qr_scan", "ios": "https://dc.lft.to/lastmile_qr_scan"}}, {"type": "electric_scooter", "name": "93fbd09c9bb90e8ccde73ed42ac8dee4", "lat": 38.9049745, "fusion_lat": 0.0, "bike_id": "93fbd09c9bb90e8ccde73ed42ac8dee4", "is_reserved": 0, "lon": -77.0295015, "is_disabled": 0, "fusion_lon": 0.0, "rental_uris": {"android": "https://dc.lft.to/lastmile_qr_scan", "ios": "https://dc.lft.to/lastmile_qr_scan"}}, {"type": "electric_scooter", "name": "12f3a06b37e2ba9c0c11633a0a29d6c6", "lat": 38.8790345, "fusion_lat": 0.0, "bike_id": "12f3a06b37e2ba9c0c11633a0a29d6c6", "is_reserved": 0, "lon": -77.01375566666667, "is_disabled": 0, "fusion_lon": 0.0, "rental_uris": {"android": "https://dc.lft.to/lastmile_qr_scan", "ios": "https://dc.lft.to/lastmile_qr_scan"}}, {"type": "electric_scooter", "name": "56bb719005e922e999eea903c00cefc3", "lat": 38.903378833333335, "fusion_lat": 0.0, "bike_id": "56bb719005e922e999eea903c00cefc3", "is_reserved": 0, "lon": -77.020091, "is_disabled": 0, "fusion_lon": 0.0, "rental_uris": {"android": "https://dc.lft.to/lastmile_qr_scan", "ios": "https://dc.lft.to/lastmile_qr_scan"}}, {"type": "electric_scooter", "name": "06d56ac1de888aa50a29eb7b5efb1642", "lat": 38.9289665, "fusion_lat": 0.0, "bike_id": "06d56ac1de888aa50a29eb7b5efb1642", "is_reserved": 0, "lon": -77.03265933333333, "is_disabled": 0, "fusion_lon": 0.0, "rental_uris": {"android": "https://dc.lft.to/lastmile_qr_scan", "ios": "https://dc.lft.to/lastmile_qr_scan"}}, {"type": "electric_scooter", "name": "a99750d6791d4517d8af06a3415f9879", "lat": 38.934279, "fusion_lat": 0.0, "bike_id": "a99750d6791d4517d8af06a3415f9879", "is_reserved": 0, "lon": -77.03997416666667, "is_disabled": 0, "fusion_lon": 0.0, "rental_uris": {"android": "https://dc.lft.to/lastmile_qr_scan", "ios": "https://dc.lft.to/lastmile_qr_scan"}}, {"type": "electric_bike", "name": "d93cf6604e29c28e0e96f37fa260877f", "lat": 38.958763833333336, "fusion_lat": 0.0, "bike_id": "d93cf6604e29c28e0e96f37fa260877f", "is_reserved": 0, "lon": -76.9705355, "is_disabled": 0, "fusion_lon": 0.0, "rental_uris": {"android": "https://dc.lft.to/lastmile_qr_scan", "ios": "https://dc.lft.to/lastmile_qr_scan"}}, {"type": "electric_scooter", "name": "e553c1e5eaf2c42bb8a6db7ac0fb312d", "lat": 38.899599333333335, "fusion_lat": 0.0, "bike_id": "e553c1e5eaf2c42bb8a6db7ac0fb312d", "is_reserved": 0, "lon": -77.01604616666667, "is_disabled": 0, "fusion_lon": 0.0, "rental_uris": {"android": "https://dc.lft.to/lastmile_qr_scan", "ios": "https://dc.lft.to/lastmile_qr_scan"}}, {"type": "electric_scooter", "name": "cb6f45e82a6dfd490f821d3dfd223c01", "lat": 38.92156383333333, "fusion_lat": 0.0, "bike_id": "cb6f45e82a6dfd490f821d3dfd223c01", "is_reserved": 0, "lon": -77.0366245, "is_disabled": 0, "fusion_lon": 0.0, "rental_uris": {"android": "https://dc.lft.to/lastmile_qr_scan", "ios": "https://dc.lft.to/lastmile_qr_scan"}}, {"type": "electric_scooter", "name": "db214e4d4f303dc1cab91ce612892c96", "lat": 38.899613, "fusion_lat": 0.0, "bike_id": "db214e4d4f303dc1cab91ce612892c96", "is_reserved": 0, "lon": -77.01606733333334, "is_disabled": 0, "fusion_lon": 0.0, "rental_uris": {"android": "https://dc.lft.to/lastmile_qr_scan", "ios": "https://dc.lft.to/lastmile_qr_scan"}}, {"type": "electric_scooter", "name": "61b15969055fbad257434b80f23abf02", "lat": 38.900362666666666, "fusion_lat": 0.0, "bike_id": "61b15969055fbad257434b80f23abf02", "is_reserved": 0, "lon": -77.00192116666666, "is_disabled": 0, "fusion_lon": 0.0, "rental_uris": {"android": "https://dc.lft.to/lastmile_qr_scan", "ios": "https://dc.lft.to/lastmile_qr_scan"}}, {"type": "electric_scooter", "name": "c89db14b83b0b013bc4d76af2a3b2078", "lat": 38.937070166666665, "fusion_lat": 0.0, "bike_id": "c89db14b83b0b013bc4d76af2a3b2078", "is_reserved": 0, "lon": -77.032307, "is_disabled": 0, "fusion_lon": 0.0, "rental_uris": {"android": "https://dc.lft.to/lastmile_qr_scan", "ios": "https://dc.lft.to/lastmile_qr_scan"}}, {"type": "electric_scooter", "name": "75c7b8f7ebb51cf0e438bcdc3a9d4c2a", "lat": 38.908424333333336, "fusion_lat": 0.0, "bike_id": "75c7b8f7ebb51cf0e438bcdc3a9d4c2a", "is_reserved": 0, "lon": -77.0416435, "is_disabled": 0, "fusion_lon": 0.0, "rental_uris": {"android": "https://dc.lft.to/lastmile_qr_scan", "ios": "https://dc.lft.to/lastmile_qr_scan"}}, {"type": "electric_scooter", "name": "e4146e8279743f6cfac4e835c30cdde0", "lat": 38.932138333333334, "fusion_lat": 0.0, "bike_id": "e4146e8279743f6cfac4e835c30cdde0", "is_reserved": 0, "lon": -77.0326935, "is_disabled": 0, "fusion_lon": 0.0, "rental_uris": {"android": "https://dc.lft.to/lastmile_qr_scan", "ios": "https://dc.lft.to/lastmile_qr_scan"}}, {"type": "electric_scooter", "name": "cef4d4e754a40d4970a51cff4e215fc5", "lat": 38.90409783333333, "fusion_lat": 0.0, "bike_id": "cef4d4e754a40d4970a51cff4e215fc5", "is_reserved": 0, "lon": -76.98535033333333, "is_disabled": 0, "fusion_lon": 0.0, "rental_uris": {"android": "https://dc.lft.to/lastmile_qr_scan", "ios": "https://dc.lft.to/lastmile_qr_scan"}}, {"type": "electric_scooter", "name": "a05e920b6e110978d477f868f7302887", "lat": 38.90149183333333, "fusion_lat": 0.0, "bike_id": "a05e920b6e110978d477f868f7302887", "is_reserved": 0, "lon": -77.022115, "is_disabled": 0, "fusion_lon": 0.0, "rental_uris": {"android": "https://dc.lft.to/lastmile_qr_scan", "ios": "https://dc.lft.to/lastmile_qr_scan"}}, {"type": "electric_scooter", "name": "778bd5a6439bc8bca36510b58941dfc2", "lat": 38.91403183333333, "fusion_lat": 0.0, "bike_id": "778bd5a6439bc8bca36510b58941dfc2", "is_reserved": 0, "lon": -77.02275783333333, "is_disabled": 0, "fusion_lon": 0.0, "rental_uris": {"android": "https://dc.lft.to/lastmile_qr_scan", "ios": "https://dc.lft.to/lastmile_qr_scan"}}, {"type": "electric_scooter", "name": "17c8a52975dacb0e6d1dd942b8a00dee", "lat": 38.89899, "fusion_lat": 0.0, "bike_id": "17c8a52975dacb0e6d1dd942b8a00dee", "is_reserved": 0, "lon": -77.01983916666667, "is_disabled": 0, "fusion_lon": 0.0, "rental_uris": {"android": "https://dc.lft.to/lastmile_qr_scan", "ios": "https://dc.lft.to/lastmile_qr_scan"}}, {"type": "electric_scooter", "name": "07c7a08fedb0ce5b090e987b87c8f24a", "lat": 38.8650925, "fusion_lat": 0.0, "bike_id": "07c7a08fedb0ce5b090e987b87c8f24a", "is_reserved": 0, "lon": -76.99002116666666, "is_disabled": 0, "fusion_lon": 0.0, "rental_uris": {"android": "https://dc.lft.to/lastmile_qr_scan", "ios": "https://dc.lft.to/lastmile_qr_scan"}}, {"type": "electric_scooter", "name": "a7a39671b21afc4a63757909be17fb2c", "lat": 38.92153966666667, "fusion_lat": 0.0, "bike_id": "a7a39671b21afc4a63757909be17fb2c", "is_reserved": 0, "lon": -77.04220216666667, "is_disabled": 0, "fusion_lon": 0.0, "rental_uris": {"android": "https://dc.lft.to/lastmile_qr_scan", "ios": "https://dc.lft.to/lastmile_qr_scan"}}, {"type": "electric_scooter", "name": "9e7cd7914ddaaac9a3ebfd04044e3c2c", "lat": 38.8982575, "fusion_lat": 0.0, "bike_id": "9e7cd7914ddaaac9a3ebfd04044e3c2c", "is_reserved": 0, "lon": -77.04333833333334, "is_disabled": 0, "fusion_lon": 0.0, "rental_uris": {"android": "https://dc.lft.to/lastmile_qr_scan", "ios": "https://dc.lft.to/lastmile_qr_scan"}}, {"type": "electric_bike", "name": "1463eed28bc42af8663686eb128301af", "lat": 38.863839666666664, "fusion_lat": 0.0, "bike_id": "1463eed28bc42af8663686eb128301af", "is_reserved": 0, "lon": -76.974903, "is_disabled": 0, "fusion_lon": 0.0, "rental_uris": {"android": "https://dc.lft.to/lastmile_qr_scan", "ios": "https://dc.lft.to/lastmile_qr_scan"}}, {"type": "electric_scooter", "name": "ffdd8a5249bee06f524ac6bae84d2326", "lat": 38.9054855, "fusion_lat": 0.0, "bike_id": "ffdd8a5249bee06f524ac6bae84d2326", "is_reserved": 0, "lon": -77.03462066666667, "is_disabled": 0, "fusion_lon": 0.0, "rental_uris": {"android": "https://dc.lft.to/lastmile_qr_scan", "ios": "https://dc.lft.to/lastmile_qr_scan"}}, {"type": "electric_bike", "name": "f2f7cf2642df16b1a0975ef827507724", "lat": 38.921749, "fusion_lat": 0.0, "bike_id": "f2f7cf2642df16b1a0975ef827507724", "is_reserved": 0, "lon": -76.99408066666666, "is_disabled": 0, "fusion_lon": 0.0, "rental_uris": {"android": "https://dc.lft.to/lastmile_qr_scan", "ios": "https://dc.lft.to/lastmile_qr_scan"}}, {"type": "electric_bike", "name": "16b4c40d7891bb0859dc4b4391e649b4", "lat": 38.860259166666665, "fusion_lat": 0.0, "bike_id": "16b4c40d7891bb0859dc4b4391e649b4", "is_reserved": 0, "lon": -76.96773566666667, "is_disabled": 0, "fusion_lon": 0.0, "rental_uris": {"android": "https://dc.lft.to/lastmile_qr_scan", "ios": "https://dc.lft.to/lastmile_qr_scan"}}, {"type": "electric_scooter", "name": "aff00c4e6812cad9d73470aac5de1b46", "lat": 38.92439366666667, "fusion_lat": 0.0, "bike_id": "aff00c4e6812cad9d73470aac5de1b46", "is_reserved": 0, "lon": -77.0340145, "is_disabled": 0, "fusion_lon": 0.0, "rental_uris": {"android": "https://dc.lft.to/lastmile_qr_scan", "ios": "https://dc.lft.to/lastmile_qr_scan"}}, {"type": "electric_scooter", "name": "e6d4ad8ff192934d33cb4c00840b42e9", "lat": 38.90780483333333, "fusion_lat": 0.0, "bike_id": "e6d4ad8ff192934d33cb4c00840b42e9", "is_reserved": 0, "lon": -77.0400075, "is_disabled": 0, "fusion_lon": 0.0, "rental_uris": {"android": "https://dc.lft.to/lastmile_qr_scan", "ios": "https://dc.lft.to/lastmile_qr_scan"}}, {"type": "electric_scooter", "name": "ce3464fab94992fd5b1a9bb02eeb2da2", "lat": 38.91848, "fusion_lat": 0.0, "bike_id": "ce3464fab94992fd5b1a9bb02eeb2da2", "is_reserved": 0, "lon": -77.06199016666666, "is_disabled": 0, "fusion_lon": 0.0, "rental_uris": {"android": "https://dc.lft.to/lastmile_qr_scan", "ios": "https://dc.lft.to/lastmile_qr_scan"}}, {"type": "electric_scooter", "name": "3002db22a67f10f9b20f391f892e43e7", "lat": 38.944609166666666, "fusion_lat": 0.0, "bike_id": "3002db22a67f10f9b20f391f892e43e7", "is_reserved": 0, "lon": -77.02338866666666, "is_disabled": 0, "fusion_lon": 0.0, "rental_uris": {"android": "https://dc.lft.to/lastmile_qr_scan", "ios": "https://dc.lft.to/lastmile_qr_scan"}}, {"type": "electric_scooter", "name": "6e2112a3343748f6da8ff7d1518c3287", "lat": 38.899776333333335, "fusion_lat": 0.0, "bike_id": "6e2112a3343748f6da8ff7d1518c3287", "is_reserved": 0, "lon": -77.0221425, "is_disabled": 0, "fusion_lon": 0.0, "rental_uris": {"android": "https://dc.lft.to/lastmile_qr_scan", "ios": "https://dc.lft.to/lastmile_qr_scan"}}, {"type": "electric_bike", "name": "148bca2fcf36c16b885d87cf5ee1bb79", "lat": 38.94151316666667, "fusion_lat": 0.0, "bike_id": "148bca2fcf36c16b885d87cf5ee1bb79", "is_reserved": 0, "lon": -77.00196116666666, "is_disabled": 0, "fusion_lon": 0.0, "rental_uris": {"android": "https://dc.lft.to/lastmile_qr_scan", "ios": "https://dc.lft.to/lastmile_qr_scan"}}, {"type": "electric_scooter", "name": "3a9f250ec2e04abd6a650ca9c7a7c1bb", "lat": 38.95265716666667, "fusion_lat": 0.0, "bike_id": "3a9f250ec2e04abd6a650ca9c7a7c1bb", "is_reserved": 0, "lon": -77.00193666666667, "is_disabled": 0, "fusion_lon": 0.0, "rental_uris": {"android": "https://dc.lft.to/lastmile_qr_scan", "ios": "https://dc.lft.to/lastmile_qr_scan"}}, {"type": "electric_scooter", "name": "2d1462613472c080ce52a6493979d1ca", "lat": 38.938562833333336, "fusion_lat": 0.0, "bike_id": "2d1462613472c080ce52a6493979d1ca", "is_reserved": 0, "lon": -77.08660483333334, "is_disabled": 0, "fusion_lon": 0.0, "rental_uris": {"android": "https://dc.lft.to/lastmile_qr_scan", "ios": "https://dc.lft.to/lastmile_qr_scan"}}, {"type": "electric_scooter", "name": "e23087a751afe637de73780bc66e29bc", "lat": 38.910835166666665, "fusion_lat": 0.0, "bike_id": "e23087a751afe637de73780bc66e29bc", "is_reserved": 0, "lon": -77.05047766666667, "is_disabled": 0, "fusion_lon": 0.0, "rental_uris": {"android": "https://dc.lft.to/lastmile_qr_scan", "ios": "https://dc.lft.to/lastmile_qr_scan"}}, {"type": "electric_scooter", "name": "c4d5599dfe8d9da85d9355c7a77b1974", "lat": 38.86689716666667, "fusion_lat": 0.0, "bike_id": "c4d5599dfe8d9da85d9355c7a77b1974", "is_reserved": 0, "lon": -76.98543683333334, "is_disabled": 0, "fusion_lon": 0.0, "rental_uris": {"android": "https://dc.lft.to/lastmile_qr_scan", "ios": "https://dc.lft.to/lastmile_qr_scan"}}, {"type": "electric_scooter", "name": "d1f1cf70b6ff32f2e770c19a1a166980", "lat": 38.92088016666666, "fusion_lat": 0.0, "bike_id": "d1f1cf70b6ff32f2e770c19a1a166980", "is_reserved": 0, "lon": -77.02041366666667, "is_disabled": 0, "fusion_lon": 0.0, "rental_uris": {"android": "https://dc.lft.to/lastmile_qr_scan", "ios": "https://dc.lft.to/lastmile_qr_scan"}}, {"type": "electric_scooter", "name": "685f9aa4f0e2306d6a7fbe7a247ee325", "lat": 38.904011833333335, "fusion_lat": 0.0, "bike_id": "685f9aa4f0e2306d6a7fbe7a247ee325", "is_reserved": 0, "lon": -77.04369633333333, "is_disabled": 0, "fusion_lon": 0.0, "rental_uris": {"android": "https://dc.lft.to/lastmile_qr_scan", "ios": "https://dc.lft.to/lastmile_qr_scan"}}, {"type": "electric_scooter", "name": "e7291392e44411b06523f42a15594371", "lat": 38.892366333333335, "fusion_lat": 0.0, "bike_id": "e7291392e44411b06523f42a15594371", "is_reserved": 0, "lon": -77.03208533333333, "is_disabled": 0, "fusion_lon": 0.0, "rental_uris": {"android": "https://dc.lft.to/lastmile_qr_scan", "ios": "https://dc.lft.to/lastmile_qr_scan"}}, {"type": "electric_scooter", "name": "270eeb7ca2e701d3e33fde4377fa11d8", "lat": 38.876989333333334, "fusion_lat": 0.0, "bike_id": "270eeb7ca2e701d3e33fde4377fa11d8", "is_reserved": 0, "lon": -77.01763883333334, "is_disabled": 0, "fusion_lon": 0.0, "rental_uris": {"android": "https://dc.lft.to/lastmile_qr_scan", "ios": "https://dc.lft.to/lastmile_qr_scan"}}, {"type": "electric_scooter", "name": "92654201c10aabd67b824d433975bb23", "lat": 38.878833, "fusion_lat": 0.0, "bike_id": "92654201c10aabd67b824d433975bb23", "is_reserved": 0, "lon": -77.0233115, "is_disabled": 0, "fusion_lon": 0.0, "rental_uris": {"android": "https://dc.lft.to/lastmile_qr_scan", "ios": "https://dc.lft.to/lastmile_qr_scan"}}, {"type": "electric_scooter", "name": "4cbfc52e9efa1dda5aadaa7433ec386e", "lat": 38.9119635, "fusion_lat": 0.0, "bike_id": "4cbfc52e9efa1dda5aadaa7433ec386e", "is_reserved": 0, "lon": -77.04145733333333, "is_disabled": 0, "fusion_lon": 0.0, "rental_uris": {"android": "https://dc.lft.to/lastmile_qr_scan", "ios": "https://dc.lft.to/lastmile_qr_scan"}}, {"type": "electric_scooter", "name": "d6fa85b073f2c8c1a58bb1724c660548", "lat": 38.91305283333333, "fusion_lat": 0.0, "bike_id": "d6fa85b073f2c8c1a58bb1724c660548", "is_reserved": 0, "lon": -77.02036683333333, "is_disabled": 0, "fusion_lon": 0.0, "rental_uris": {"android": "https://dc.lft.to/lastmile_qr_scan", "ios": "https://dc.lft.to/lastmile_qr_scan"}}, {"type": "electric_scooter", "name": "2aa706a141bcfb921e9828b8f7edd216", "lat": 38.92505383333334, "fusion_lat": 0.0, "bike_id": "2aa706a141bcfb921e9828b8f7edd216", "is_reserved": 0, "lon": -77.0378465, "is_disabled": 0, "fusion_lon": 0.0, "rental_uris": {"android": "https://dc.lft.to/lastmile_qr_scan", "ios": "https://dc.lft.to/lastmile_qr_scan"}}, {"type": "electric_bike", "name": "e2177ccfaeb1a2fe8ccd5bd3b9ed371e", "lat": 38.890659666666664, "fusion_lat": 0.0, "bike_id": "e2177ccfaeb1a2fe8ccd5bd3b9ed371e", "is_reserved": 0, "lon": -77.1843245, "is_disabled": 0, "fusion_lon": 0.0, "rental_uris": {"android": "https://dc.lft.to/lastmile_qr_scan", "ios": "https://dc.lft.to/lastmile_qr_scan"}}, {"type": "electric_scooter", "name": "2cf7cb9cbac75653e8ef9b5e0d7981bb", "lat": 38.9246505, "fusion_lat": 0.0, "bike_id": "2cf7cb9cbac75653e8ef9b5e0d7981bb", "is_reserved": 0, "lon": -77.021514, "is_disabled": 0, "fusion_lon": 0.0, "rental_uris": {"android": "https://dc.lft.to/lastmile_qr_scan", "ios": "https://dc.lft.to/lastmile_qr_scan"}}, {"type": "electric_bike", "name": "3670abdfa4ff61a2f29c9a1fbc041eb1", "lat": 38.81993083333333, "fusion_lat": 0.0, "bike_id": "3670abdfa4ff61a2f29c9a1fbc041eb1", "is_reserved": 0, "lon": -76.998149, "is_disabled": 0, "fusion_lon": 0.0, "rental_uris": {"android": "https://dc.lft.to/lastmile_qr_scan", "ios": "https://dc.lft.to/lastmile_qr_scan"}}, {"type": "electric_scooter", "name": "a2de3fd10b168b5755b334cd8aff5035", "lat": 38.894662333333336, "fusion_lat": 0.0, "bike_id": "a2de3fd10b168b5755b334cd8aff5035", "is_reserved": 0, "lon": -76.94959333333334, "is_disabled": 0, "fusion_lon": 0.0, "rental_uris": {"android": "https://dc.lft.to/lastmile_qr_scan", "ios": "https://dc.lft.to/lastmile_qr_scan"}}, {"type": "electric_bike", "name": "9fa10ec9ce49f52114673f0c945d35d1", "lat": 38.833253166666665, "fusion_lat": 0.0, "bike_id": "9fa10ec9ce49f52114673f0c945d35d1", "is_reserved": 0, "lon": -76.99997, "is_disabled": 0, "fusion_lon": 0.0, "rental_uris": {"android": "https://dc.lft.to/lastmile_qr_scan", "ios": "https://dc.lft.to/lastmile_qr_scan"}}, {"type": "electric_scooter", "name": "f101e8f26b448564b2a97ffdcbb5ee2e", "lat": 38.9181905, "fusion_lat": 0.0, "bike_id": "f101e8f26b448564b2a97ffdcbb5ee2e", "is_reserved": 0, "lon": -77.04166266666667, "is_disabled": 0, "fusion_lon": 0.0, "rental_uris": {"android": "https://dc.lft.to/lastmile_qr_scan", "ios": "https://dc.lft.to/lastmile_qr_scan"}}, {"type": "electric_scooter", "name": "fb406282be23981e17b8ccaf71dad567", "lat": 38.934312, "fusion_lat": 0.0, "bike_id": "fb406282be23981e17b8ccaf71dad567", "is_reserved": 0, "lon": -77.0400005, "is_disabled": 0, "fusion_lon": 0.0, "rental_uris": {"android": "https://dc.lft.to/lastmile_qr_scan", "ios": "https://dc.lft.to/lastmile_qr_scan"}}, {"type": "electric_scooter", "name": "f4754a49f28afe43677d6f807b5d8f37", "lat": 38.88495316666667, "fusion_lat": 0.0, "bike_id": "f4754a49f28afe43677d6f807b5d8f37", "is_reserved": 0, "lon": -77.02181383333334, "is_disabled": 0, "fusion_lon": 0.0, "rental_uris": {"android": "https://dc.lft.to/lastmile_qr_scan", "ios": "https://dc.lft.to/lastmile_qr_scan"}}, {"type": "electric_scooter", "name": "2528b946a79e54ef2f0066f2f49370ae", "lat": 38.86628483333333, "fusion_lat": 0.0, "bike_id": "2528b946a79e54ef2f0066f2f49370ae", "is_reserved": 0, "lon": -76.98712283333333, "is_disabled": 0, "fusion_lon": 0.0, "rental_uris": {"android": "https://dc.lft.to/lastmile_qr_scan", "ios": "https://dc.lft.to/lastmile_qr_scan"}}, {"type": "electric_scooter", "name": "6ea86070330a65f6acc2a2ca50740744", "lat": 38.86419633333333, "fusion_lat": 0.0, "bike_id": "6ea86070330a65f6acc2a2ca50740744", "is_reserved": 0, "lon": -76.9743605, "is_disabled": 0, "fusion_lon": 0.0, "rental_uris": {"android": "https://dc.lft.to/lastmile_qr_scan", "ios": "https://dc.lft.to/lastmile_qr_scan"}}, {"type": "electric_scooter", "name": "d46ee9c13003b89b3bc5cdddbebafad9", "lat": 38.90305166666667, "fusion_lat": 0.0, "bike_id": "d46ee9c13003b89b3bc5cdddbebafad9", "is_reserved": 0, "lon": -77.06024633333334, "is_disabled": 0, "fusion_lon": 0.0, "rental_uris": {"android": "https://dc.lft.to/lastmile_qr_scan", "ios": "https://dc.lft.to/lastmile_qr_scan"}}, {"type": "electric_scooter", "name": "ec235b8621fd795a642c1810a5c6d122", "lat": 38.93881016666667, "fusion_lat": 0.0, "bike_id": "ec235b8621fd795a642c1810a5c6d122", "is_reserved": 0, "lon": -77.02483033333333, "is_disabled": 0, "fusion_lon": 0.0, "rental_uris": {"android": "https://dc.lft.to/lastmile_qr_scan", "ios": "https://dc.lft.to/lastmile_qr_scan"}}, {"type": "electric_scooter", "name": "ac76b664c5f513405ae12f8b2931303b", "lat": 38.92061916666667, "fusion_lat": 0.0, "bike_id": "ac76b664c5f513405ae12f8b2931303b", "is_reserved": 0, "lon": -76.9819395, "is_disabled": 0, "fusion_lon": 0.0, "rental_uris": {"android": "https://dc.lft.to/lastmile_qr_scan", "ios": "https://dc.lft.to/lastmile_qr_scan"}}, {"type": "electric_scooter", "name": "61e5bc08c2c6401db14546a1f43fa533", "lat": 38.94808416666667, "fusion_lat": 0.0, "bike_id": "61e5bc08c2c6401db14546a1f43fa533", "is_reserved": 0, "lon": -77.02142, "is_disabled": 0, "fusion_lon": 0.0, "rental_uris": {"android": "https://dc.lft.to/lastmile_qr_scan", "ios": "https://dc.lft.to/lastmile_qr_scan"}}, {"type": "electric_bike", "name": "babb3b51774612814bc51c41856a150d", "lat": 38.974945166666664, "fusion_lat": 0.0, "bike_id": "babb3b51774612814bc51c41856a150d", "is_reserved": 0, "lon": -77.01759683333333, "is_disabled": 0, "fusion_lon": 0.0, "rental_uris": {"android": "https://dc.lft.to/lastmile_qr_scan", "ios": "https://dc.lft.to/lastmile_qr_scan"}}, {"type": "electric_scooter", "name": "db97ed8c15855367b2033429fa454bf0", "lat": 38.89222816666667, "fusion_lat": 0.0, "bike_id": "db97ed8c15855367b2033429fa454bf0", "is_reserved": 0, "lon": -77.02504516666667, "is_disabled": 0, "fusion_lon": 0.0, "rental_uris": {"android": "https://dc.lft.to/lastmile_qr_scan", "ios": "https://dc.lft.to/lastmile_qr_scan"}}, {"type": "electric_bike", "name": "2481b717f57692222b2cff21a3ecefb5", "lat": 38.936910166666664, "fusion_lat": 0.0, "bike_id": "2481b717f57692222b2cff21a3ecefb5", "is_reserved": 0, "lon": -76.99058733333334, "is_disabled": 0, "fusion_lon": 0.0, "rental_uris": {"android": "https://dc.lft.to/lastmile_qr_scan", "ios": "https://dc.lft.to/lastmile_qr_scan"}}, {"type": "electric_bike", "name": "45e7fdbe268967c5a12aef9046a21eaa", "lat": 38.990974, "fusion_lat": 0.0, "bike_id": "45e7fdbe268967c5a12aef9046a21eaa", "is_reserved": 0, "lon": -76.99367583333333, "is_disabled": 0, "fusion_lon": 0.0, "rental_uris": {"android": "https://dc.lft.to/lastmile_qr_scan", "ios": "https://dc.lft.to/lastmile_qr_scan"}}, {"type": "electric_scooter", "name": "8b37bffb097cebddb284c5f380484625", "lat": 38.923640166666665, "fusion_lat": 0.0, "bike_id": "8b37bffb097cebddb284c5f380484625", "is_reserved": 0, "lon": -77.05028216666666, "is_disabled": 0, "fusion_lon": 0.0, "rental_uris": {"android": "https://dc.lft.to/lastmile_qr_scan", "ios": "https://dc.lft.to/lastmile_qr_scan"}}, {"type": "electric_scooter", "name": "e99d75a1ecc988536e60d2638880c66b", "lat": 38.8668365, "fusion_lat": 0.0, "bike_id": "e99d75a1ecc988536e60d2638880c66b", "is_reserved": 0, "lon": -76.98563216666666, "is_disabled": 0, "fusion_lon": 0.0, "rental_uris": {"android": "https://dc.lft.to/lastmile_qr_scan", "ios": "https://dc.lft.to/lastmile_qr_scan"}}, {"type": "electric_scooter", "name": "2bb14ecce6427445e0699be499449764", "lat": 38.89225, "fusion_lat": 0.0, "bike_id": "2bb14ecce6427445e0699be499449764", "is_reserved": 0, "lon": -77.0220975, "is_disabled": 0, "fusion_lon": 0.0, "rental_uris": {"android": "https://dc.lft.to/lastmile_qr_scan", "ios": "https://dc.lft.to/lastmile_qr_scan"}}, {"type": "electric_scooter", "name": "25ab89d8c8fcbad4faec83260bd641bc", "lat": 38.87707916666667, "fusion_lat": 0.0, "bike_id": "25ab89d8c8fcbad4faec83260bd641bc", "is_reserved": 0, "lon": -77.00451966666667, "is_disabled": 0, "fusion_lon": 0.0, "rental_uris": {"android": "https://dc.lft.to/lastmile_qr_scan", "ios": "https://dc.lft.to/lastmile_qr_scan"}}, {"type": "electric_scooter", "name": "933f849b54e765a2012c8e51cd628630", "lat": 38.914275833333335, "fusion_lat": 0.0, "bike_id": "933f849b54e765a2012c8e51cd628630", "is_reserved": 0, "lon": -77.031833, "is_disabled": 0, "fusion_lon": 0.0, "rental_uris": {"android": "https://dc.lft.to/lastmile_qr_scan", "ios": "https://dc.lft.to/lastmile_qr_scan"}}, {"type": "electric_scooter", "name": "e40566385e181c0d01e5443354c83cb4", "lat": 38.93863366666667, "fusion_lat": 0.0, "bike_id": "e40566385e181c0d01e5443354c83cb4", "is_reserved": 0, "lon": -77.02781916666666, "is_disabled": 0, "fusion_lon": 0.0, "rental_uris": {"android": "https://dc.lft.to/lastmile_qr_scan", "ios": "https://dc.lft.to/lastmile_qr_scan"}}, {"type": "electric_scooter", "name": "eb634bd58862aa6f6595c9db6111b67c", "lat": 38.88729083333333, "fusion_lat": 0.0, "bike_id": "eb634bd58862aa6f6595c9db6111b67c", "is_reserved": 0, "lon": -77.013813, "is_disabled": 0, "fusion_lon": 0.0, "rental_uris": {"android": "https://dc.lft.to/lastmile_qr_scan", "ios": "https://dc.lft.to/lastmile_qr_scan"}}, {"type": "electric_scooter", "name": "e77da63a83734ea97cd2795d21f1cfc0", "lat": 38.9326995, "fusion_lat": 0.0, "bike_id": "e77da63a83734ea97cd2795d21f1cfc0", "is_reserved": 0, "lon": -77.03867666666666, "is_disabled": 0, "fusion_lon": 0.0, "rental_uris": {"android": "https://dc.lft.to/lastmile_qr_scan", "ios": "https://dc.lft.to/lastmile_qr_scan"}}, {"type": "electric_scooter", "name": "16f6978c97a6c2ee0be3fe267013f587", "lat": 38.901456333333336, "fusion_lat": 0.0, "bike_id": "16f6978c97a6c2ee0be3fe267013f587", "is_reserved": 0, "lon": -77.035545, "is_disabled": 0, "fusion_lon": 0.0, "rental_uris": {"android": "https://dc.lft.to/lastmile_qr_scan", "ios": "https://dc.lft.to/lastmile_qr_scan"}}, {"type": "electric_scooter", "name": "f23ac16ca4121bd9e4bb2c5411dcd631", "lat": 38.9099505, "fusion_lat": 0.0, "bike_id": "f23ac16ca4121bd9e4bb2c5411dcd631", "is_reserved": 0, "lon": -77.02703533333333, "is_disabled": 0, "fusion_lon": 0.0, "rental_uris": {"android": "https://dc.lft.to/lastmile_qr_scan", "ios": "https://dc.lft.to/lastmile_qr_scan"}}, {"type": "electric_scooter", "name": "6954752ddbdfe2a11ded5cac45a74caa", "lat": 38.909074333333336, "fusion_lat": 0.0, "bike_id": "6954752ddbdfe2a11ded5cac45a74caa", "is_reserved": 0, "lon": -77.07275516666667, "is_disabled": 0, "fusion_lon": 0.0, "rental_uris": {"android": "https://dc.lft.to/lastmile_qr_scan", "ios": "https://dc.lft.to/lastmile_qr_scan"}}, {"type": "electric_scooter", "name": "5ad628efc23113fc6179d5c46e4447f9", "lat": 38.89737216666666, "fusion_lat": 0.0, "bike_id": "5ad628efc23113fc6179d5c46e4447f9", "is_reserved": 0, "lon": -77.04737366666667, "is_disabled": 0, "fusion_lon": 0.0, "rental_uris": {"android": "https://dc.lft.to/lastmile_qr_scan", "ios": "https://dc.lft.to/lastmile_qr_scan"}}, {"type": "electric_scooter", "name": "c3e30c78448f1764ef47b7bfc1b2c010", "lat": 38.909441, "fusion_lat": 0.0, "bike_id": "c3e30c78448f1764ef47b7bfc1b2c010", "is_reserved": 0, "lon": -77.03461866666666, "is_disabled": 0, "fusion_lon": 0.0, "rental_uris": {"android": "https://dc.lft.to/lastmile_qr_scan", "ios": "https://dc.lft.to/lastmile_qr_scan"}}, {"type": "electric_scooter", "name": "81b2f538d271c30a14300cbf9dbf4b55", "lat": 38.909806, "fusion_lat": 0.0, "bike_id": "81b2f538d271c30a14300cbf9dbf4b55", "is_reserved": 0, "lon": -77.02184433333333, "is_disabled": 0, "fusion_lon": 0.0, "rental_uris": {"android": "https://dc.lft.to/lastmile_qr_scan", "ios": "https://dc.lft.to/lastmile_qr_scan"}}, {"type": "electric_scooter", "name": "54bd3d79f982901af8537105517c9ed1", "lat": 38.94789983333333, "fusion_lat": 0.0, "bike_id": "54bd3d79f982901af8537105517c9ed1", "is_reserved": 0, "lon": -77.08017116666667, "is_disabled": 0, "fusion_lon": 0.0, "rental_uris": {"android": "https://dc.lft.to/lastmile_qr_scan", "ios": "https://dc.lft.to/lastmile_qr_scan"}}, {"type": "electric_scooter", "name": "1eb07c4a80a01d408f16fa9b67a00477", "lat": 38.941834, "fusion_lat": 0.0, "bike_id": "1eb07c4a80a01d408f16fa9b67a00477", "is_reserved": 0, "lon": -77.02409066666667, "is_disabled": 0, "fusion_lon": 0.0, "rental_uris": {"android": "https://dc.lft.to/lastmile_qr_scan", "ios": "https://dc.lft.to/lastmile_qr_scan"}}, {"type": "electric_scooter", "name": "f1e7c91d7516fee355cfe83950f29300", "lat": 38.9036555, "fusion_lat": 0.0, "bike_id": "f1e7c91d7516fee355cfe83950f29300", "is_reserved": 0, "lon": -77.03702533333333, "is_disabled": 0, "fusion_lon": 0.0, "rental_uris": {"android": "https://dc.lft.to/lastmile_qr_scan", "ios": "https://dc.lft.to/lastmile_qr_scan"}}, {"type": "electric_bike", "name": "f19523e92e26ad8541313ea13658b1e9", "lat": 38.9086065, "fusion_lat": 0.0, "bike_id": "f19523e92e26ad8541313ea13658b1e9", "is_reserved": 0, "lon": -76.99955, "is_disabled": 0, "fusion_lon": 0.0, "rental_uris": {"android": "https://dc.lft.to/lastmile_qr_scan", "ios": "https://dc.lft.to/lastmile_qr_scan"}}, {"type": "electric_scooter", "name": "8819604d84134e9319d174e71de048b8", "lat": 38.89228283333333, "fusion_lat": 0.0, "bike_id": "8819604d84134e9319d174e71de048b8", "is_reserved": 0, "lon": -77.022086, "is_disabled": 0, "fusion_lon": 0.0, "rental_uris": {"android": "https://dc.lft.to/lastmile_qr_scan", "ios": "https://dc.lft.to/lastmile_qr_scan"}}, {"type": "electric_scooter", "name": "86606b7efd3002712f1c3620a8c121d1", "lat": 38.917091, "fusion_lat": 0.0, "bike_id": "86606b7efd3002712f1c3620a8c121d1", "is_reserved": 0, "lon": -77.04123316666667, "is_disabled": 0, "fusion_lon": 0.0, "rental_uris": {"android": "https://dc.lft.to/lastmile_qr_scan", "ios": "https://dc.lft.to/lastmile_qr_scan"}}, {"type": "electric_scooter", "name": "29e34ff6aa181d5ada54ab5fee0ecac3", "lat": 38.91606483333333, "fusion_lat": 0.0, "bike_id": "29e34ff6aa181d5ada54ab5fee0ecac3", "is_reserved": 0, "lon": -77.0312655, "is_disabled": 0, "fusion_lon": 0.0, "rental_uris": {"android": "https://dc.lft.to/lastmile_qr_scan", "ios": "https://dc.lft.to/lastmile_qr_scan"}}, {"type": "electric_scooter", "name": "1dac34b5fced98353f80c96a2b9fed4c", "lat": 38.91611116666667, "fusion_lat": 0.0, "bike_id": "1dac34b5fced98353f80c96a2b9fed4c", "is_reserved": 0, "lon": -77.03644766666666, "is_disabled": 0, "fusion_lon": 0.0, "rental_uris": {"android": "https://dc.lft.to/lastmile_qr_scan", "ios": "https://dc.lft.to/lastmile_qr_scan"}}, {"type": "electric_scooter", "name": "5e83b6e5a878e6e994058a98edbd4258", "lat": 38.905364666666664, "fusion_lat": 0.0, "bike_id": "5e83b6e5a878e6e994058a98edbd4258", "is_reserved": 0, "lon": -77.0053005, "is_disabled": 0, "fusion_lon": 0.0, "rental_uris": {"android": "https://dc.lft.to/lastmile_qr_scan", "ios": "https://dc.lft.to/lastmile_qr_scan"}}, {"type": "electric_scooter", "name": "f81117dde236a73df673a9a6596d2b3c", "lat": 38.9108985, "fusion_lat": 0.0, "bike_id": "f81117dde236a73df673a9a6596d2b3c", "is_reserved": 0, "lon": -77.04233, "is_disabled": 0, "fusion_lon": 0.0, "rental_uris": {"android": "https://dc.lft.to/lastmile_qr_scan", "ios": "https://dc.lft.to/lastmile_qr_scan"}}, {"type": "electric_scooter", "name": "65cfad421afc5b36144f5517f7748453", "lat": 38.909021833333334, "fusion_lat": 0.0, "bike_id": "65cfad421afc5b36144f5517f7748453", "is_reserved": 0, "lon": -77.0439425, "is_disabled": 0, "fusion_lon": 0.0, "rental_uris": {"android": "https://dc.lft.to/lastmile_qr_scan", "ios": "https://dc.lft.to/lastmile_qr_scan"}}, {"type": "electric_scooter", "name": "8e619e592761b280ccdecd86a6dee26e", "lat": 38.86060883333333, "fusion_lat": 0.0, "bike_id": "8e619e592761b280ccdecd86a6dee26e", "is_reserved": 0, "lon": -76.98506916666666, "is_disabled": 0, "fusion_lon": 0.0, "rental_uris": {"android": "https://dc.lft.to/lastmile_qr_scan", "ios": "https://dc.lft.to/lastmile_qr_scan"}}, {"type": "electric_bike", "name": "36bcde8af4cb766e62e0bda68a1ac8f6", "lat": 38.875766166666665, "fusion_lat": 0.0, "bike_id": "36bcde8af4cb766e62e0bda68a1ac8f6", "is_reserved": 0, "lon": -77.23409683333334, "is_disabled": 0, "fusion_lon": 0.0, "rental_uris": {"android": "https://dc.lft.to/lastmile_qr_scan", "ios": "https://dc.lft.to/lastmile_qr_scan"}}, {"type": "electric_scooter", "name": "e3b490c7db9c4bcd9b7e6ef8d8fec4de", "lat": 38.911046666666664, "fusion_lat": 0.0, "bike_id": "e3b490c7db9c4bcd9b7e6ef8d8fec4de", "is_reserved": 0, "lon": -77.04225766666667, "is_disabled": 0, "fusion_lon": 0.0, "rental_uris": {"android": "https://dc.lft.to/lastmile_qr_scan", "ios": "https://dc.lft.to/lastmile_qr_scan"}}, {"type": "electric_scooter", "name": "378c5f3d0819ec4aae6fcb5e7e6c5f1a", "lat": 38.923656666666666, "fusion_lat": 0.0, "bike_id": "378c5f3d0819ec4aae6fcb5e7e6c5f1a", "is_reserved": 0, "lon": -77.02121583333333, "is_disabled": 0, "fusion_lon": 0.0, "rental_uris": {"android": "https://dc.lft.to/lastmile_qr_scan", "ios": "https://dc.lft.to/lastmile_qr_scan"}}, {"type": "electric_scooter", "name": "7c393d24bdbc27b6d01f8c4be6b1860b", "lat": 38.914901666666665, "fusion_lat": 0.0, "bike_id": "7c393d24bdbc27b6d01f8c4be6b1860b", "is_reserved": 0, "lon": -76.983618, "is_disabled": 0, "fusion_lon": 0.0, "rental_uris": {"android": "https://dc.lft.to/lastmile_qr_scan", "ios": "https://dc.lft.to/lastmile_qr_scan"}}, {"type": "electric_scooter", "name": "86a263352632df5f0c2e967200357290", "lat": 38.915504, "fusion_lat": 0.0, "bike_id": "86a263352632df5f0c2e967200357290", "is_reserved": 0, "lon": -77.01045416666666, "is_disabled": 0, "fusion_lon": 0.0, "rental_uris": {"android": "https://dc.lft.to/lastmile_qr_scan", "ios": "https://dc.lft.to/lastmile_qr_scan"}}, {"type": "electric_scooter", "name": "94f633891183473e90edd9cc0e23f9ae", "lat": 38.90032333333333, "fusion_lat": 0.0, "bike_id": "94f633891183473e90edd9cc0e23f9ae", "is_reserved": 0, "lon": -77.0118345, "is_disabled": 0, "fusion_lon": 0.0, "rental_uris": {"android": "https://dc.lft.to/lastmile_qr_scan", "ios": "https://dc.lft.to/lastmile_qr_scan"}}, {"type": "electric_scooter", "name": "aff732ea78b976581a579e40aa544490", "lat": 38.8716865, "fusion_lat": 0.0, "bike_id": "aff732ea78b976581a579e40aa544490", "is_reserved": 0, "lon": -77.0068235, "is_disabled": 0, "fusion_lon": 0.0, "rental_uris": {"android": "https://dc.lft.to/lastmile_qr_scan", "ios": "https://dc.lft.to/lastmile_qr_scan"}}, {"type": "electric_scooter", "name": "ba64c7994edce3833ddd7b6fbafff347", "lat": 38.893431666666665, "fusion_lat": 0.0, "bike_id": "ba64c7994edce3833ddd7b6fbafff347", "is_reserved": 0, "lon": -76.93967066666667, "is_disabled": 0, "fusion_lon": 0.0, "rental_uris": {"android": "https://dc.lft.to/lastmile_qr_scan", "ios": "https://dc.lft.to/lastmile_qr_scan"}}, {"type": "electric_scooter", "name": "a633edd3756270918052391d36b62d55", "lat": 38.906111333333335, "fusion_lat": 0.0, "bike_id": "a633edd3756270918052391d36b62d55", "is_reserved": 0, "lon": -77.006877, "is_disabled": 0, "fusion_lon": 0.0, "rental_uris": {"android": "https://dc.lft.to/lastmile_qr_scan", "ios": "https://dc.lft.to/lastmile_qr_scan"}}, {"type": "electric_scooter", "name": "7dbf0f010108f2727baccf070d9cdf75", "lat": 38.90973483333333, "fusion_lat": 0.0, "bike_id": "7dbf0f010108f2727baccf070d9cdf75", "is_reserved": 0, "lon": -77.0442665, "is_disabled": 0, "fusion_lon": 0.0, "rental_uris": {"android": "https://dc.lft.to/lastmile_qr_scan", "ios": "https://dc.lft.to/lastmile_qr_scan"}}, {"type": "electric_scooter", "name": "0978a56b78ef2b024cae377500d74e79", "lat": 38.91112533333333, "fusion_lat": 0.0, "bike_id": "0978a56b78ef2b024cae377500d74e79", "is_reserved": 0, "lon": -77.03831733333334, "is_disabled": 0, "fusion_lon": 0.0, "rental_uris": {"android": "https://dc.lft.to/lastmile_qr_scan", "ios": "https://dc.lft.to/lastmile_qr_scan"}}, {"type": "electric_scooter", "name": "da46798d3b87dca1925f6229bc170959", "lat": 38.9227285, "fusion_lat": 0.0, "bike_id": "da46798d3b87dca1925f6229bc170959", "is_reserved": 0, "lon": -77.03408766666666, "is_disabled": 0, "fusion_lon": 0.0, "rental_uris": {"android": "https://dc.lft.to/lastmile_qr_scan", "ios": "https://dc.lft.to/lastmile_qr_scan"}}, {"type": "electric_scooter", "name": "1a1c1170f0f6982fb759e38ed075e2cf", "lat": 38.90722816666667, "fusion_lat": 0.0, "bike_id": "1a1c1170f0f6982fb759e38ed075e2cf", "is_reserved": 0, "lon": -77.02366616666667, "is_disabled": 0, "fusion_lon": 0.0, "rental_uris": {"android": "https://dc.lft.to/lastmile_qr_scan", "ios": "https://dc.lft.to/lastmile_qr_scan"}}, {"type": "electric_scooter", "name": "b5045b1d03fe2c90fc7232aa14692ffe", "lat": 38.902651, "fusion_lat": 0.0, "bike_id": "b5045b1d03fe2c90fc7232aa14692ffe", "is_reserved": 0, "lon": -77.039379, "is_disabled": 0, "fusion_lon": 0.0, "rental_uris": {"android": "https://dc.lft.to/lastmile_qr_scan", "ios": "https://dc.lft.to/lastmile_qr_scan"}}, {"type": "electric_scooter", "name": "550669363537fd34006ee638737acfa3", "lat": 38.898355, "fusion_lat": 0.0, "bike_id": "550669363537fd34006ee638737acfa3", "is_reserved": 0, "lon": -77.012721, "is_disabled": 0, "fusion_lon": 0.0, "rental_uris": {"android": "https://dc.lft.to/lastmile_qr_scan", "ios": "https://dc.lft.to/lastmile_qr_scan"}}, {"type": "electric_scooter", "name": "07152d8c2eeffee4ed2a621446d55b2d", "lat": 38.90266116666667, "fusion_lat": 0.0, "bike_id": "07152d8c2eeffee4ed2a621446d55b2d", "is_reserved": 0, "lon": -77.03943166666667, "is_disabled": 0, "fusion_lon": 0.0, "rental_uris": {"android": "https://dc.lft.to/lastmile_qr_scan", "ios": "https://dc.lft.to/lastmile_qr_scan"}}, {"type": "electric_scooter", "name": "6223de6c6b7e6ac8c4e6dd19b4fb9225", "lat": 38.911096, "fusion_lat": 0.0, "bike_id": "6223de6c6b7e6ac8c4e6dd19b4fb9225", "is_reserved": 0, "lon": -77.04227, "is_disabled": 0, "fusion_lon": 0.0, "rental_uris": {"android": "https://dc.lft.to/lastmile_qr_scan", "ios": "https://dc.lft.to/lastmile_qr_scan"}}, {"type": "electric_scooter", "name": "a94562bed2e77a75a31e68cd72685467", "lat": 38.9327145, "fusion_lat": 0.0, "bike_id": "a94562bed2e77a75a31e68cd72685467", "is_reserved": 0, "lon": -77.03868733333333, "is_disabled": 0, "fusion_lon": 0.0, "rental_uris": {"android": "https://dc.lft.to/lastmile_qr_scan", "ios": "https://dc.lft.to/lastmile_qr_scan"}}, {"type": "electric_scooter", "name": "d4fd3791651dec8e2802ac0f373dd302", "lat": 38.920192, "fusion_lat": 0.0, "bike_id": "d4fd3791651dec8e2802ac0f373dd302", "is_reserved": 0, "lon": -76.99574033333333, "is_disabled": 0, "fusion_lon": 0.0, "rental_uris": {"android": "https://dc.lft.to/lastmile_qr_scan", "ios": "https://dc.lft.to/lastmile_qr_scan"}}, {"type": "electric_bike", "name": "3f375319bbf26e618becba1893ffebf6", "lat": 39.01078033333334, "fusion_lat": 0.0, "bike_id": "3f375319bbf26e618becba1893ffebf6", "is_reserved": 0, "lon": -76.91064666666666, "is_disabled": 0, "fusion_lon": 0.0, "rental_uris": {"android": "https://dc.lft.to/lastmile_qr_scan", "ios": "https://dc.lft.to/lastmile_qr_scan"}}, {"type": "electric_scooter", "name": "3eb0c220c6c48c6e904d56d10b1962f9", "lat": 38.94440266666667, "fusion_lat": 0.0, "bike_id": "3eb0c220c6c48c6e904d56d10b1962f9", "is_reserved": 0, "lon": -77.0640775, "is_disabled": 0, "fusion_lon": 0.0, "rental_uris": {"android": "https://dc.lft.to/lastmile_qr_scan", "ios": "https://dc.lft.to/lastmile_qr_scan"}}, {"type": "electric_scooter", "name": "65551bacf2fb721688b186c351c9867f", "lat": 38.894757, "fusion_lat": 0.0, "bike_id": "65551bacf2fb721688b186c351c9867f", "is_reserved": 0, "lon": -77.02026383333333, "is_disabled": 0, "fusion_lon": 0.0, "rental_uris": {"android": "https://dc.lft.to/lastmile_qr_scan", "ios": "https://dc.lft.to/lastmile_qr_scan"}}, {"type": "electric_scooter", "name": "63816d5f6603e1051db3a7b926e6e022", "lat": 38.92112616666667, "fusion_lat": 0.0, "bike_id": "63816d5f6603e1051db3a7b926e6e022", "is_reserved": 0, "lon": -77.02078266666666, "is_disabled": 0, "fusion_lon": 0.0, "rental_uris": {"android": "https://dc.lft.to/lastmile_qr_scan", "ios": "https://dc.lft.to/lastmile_qr_scan"}}, {"type": "electric_scooter", "name": "ff0845c0321f59475c6032febe2ec62b", "lat": 38.91109, "fusion_lat": 0.0, "bike_id": "ff0845c0321f59475c6032febe2ec62b", "is_reserved": 0, "lon": -77.03833083333333, "is_disabled": 0, "fusion_lon": 0.0, "rental_uris": {"android": "https://dc.lft.to/lastmile_qr_scan", "ios": "https://dc.lft.to/lastmile_qr_scan"}}, {"type": "electric_scooter", "name": "0ea15eea664e83a5fde1448a6eb7c03d", "lat": 38.901543, "fusion_lat": 0.0, "bike_id": "0ea15eea664e83a5fde1448a6eb7c03d", "is_reserved": 0, "lon": -77.02217133333333, "is_disabled": 0, "fusion_lon": 0.0, "rental_uris": {"android": "https://dc.lft.to/lastmile_qr_scan", "ios": "https://dc.lft.to/lastmile_qr_scan"}}, {"type": "electric_scooter", "name": "def638b2603901c3e5a6679380bedbbc", "lat": 38.89224383333333, "fusion_lat": 0.0, "bike_id": "def638b2603901c3e5a6679380bedbbc", "is_reserved": 0, "lon": -77.04375366666666, "is_disabled": 0, "fusion_lon": 0.0, "rental_uris": {"android": "https://dc.lft.to/lastmile_qr_scan", "ios": "https://dc.lft.to/lastmile_qr_scan"}}, {"type": "electric_scooter", "name": "fe2ecc8bdc02e1e8b3534d9077949552", "lat": 38.898647833333335, "fusion_lat": 0.0, "bike_id": "fe2ecc8bdc02e1e8b3534d9077949552", "is_reserved": 0, "lon": -77.02830783333333, "is_disabled": 0, "fusion_lon": 0.0, "rental_uris": {"android": "https://dc.lft.to/lastmile_qr_scan", "ios": "https://dc.lft.to/lastmile_qr_scan"}}, {"type": "electric_scooter", "name": "37168ac859fcb4733a726ba56c6bb6e9", "lat": 38.92827583333333, "fusion_lat": 0.0, "bike_id": "37168ac859fcb4733a726ba56c6bb6e9", "is_reserved": 0, "lon": -77.03268166666666, "is_disabled": 0, "fusion_lon": 0.0, "rental_uris": {"android": "https://dc.lft.to/lastmile_qr_scan", "ios": "https://dc.lft.to/lastmile_qr_scan"}}, {"type": "electric_scooter", "name": "316e4964b2c3ee6a4ea6280b46e829f7", "lat": 38.91248316666667, "fusion_lat": 0.0, "bike_id": "316e4964b2c3ee6a4ea6280b46e829f7", "is_reserved": 0, "lon": -77.02227133333334, "is_disabled": 0, "fusion_lon": 0.0, "rental_uris": {"android": "https://dc.lft.to/lastmile_qr_scan", "ios": "https://dc.lft.to/lastmile_qr_scan"}}, {"type": "electric_scooter", "name": "4aee4aa9e0c8c6b0e8bde9fc5df6bb4b", "lat": 38.925095166666665, "fusion_lat": 0.0, "bike_id": "4aee4aa9e0c8c6b0e8bde9fc5df6bb4b", "is_reserved": 0, "lon": -77.00225783333333, "is_disabled": 0, "fusion_lon": 0.0, "rental_uris": {"android": "https://dc.lft.to/lastmile_qr_scan", "ios": "https://dc.lft.to/lastmile_qr_scan"}}, {"type": "electric_scooter", "name": "4a1d3fd3937239978761dbd82980917a", "lat": 38.9310715, "fusion_lat": 0.0, "bike_id": "4a1d3fd3937239978761dbd82980917a", "is_reserved": 0, "lon": -77.02987766666666, "is_disabled": 0, "fusion_lon": 0.0, "rental_uris": {"android": "https://dc.lft.to/lastmile_qr_scan", "ios": "https://dc.lft.to/lastmile_qr_scan"}}, {"type": "electric_scooter", "name": "e1357b5a5b4a1001e95027afc1749727", "lat": 38.89606233333333, "fusion_lat": 0.0, "bike_id": "e1357b5a5b4a1001e95027afc1749727", "is_reserved": 0, "lon": -77.045151, "is_disabled": 0, "fusion_lon": 0.0, "rental_uris": {"android": "https://dc.lft.to/lastmile_qr_scan", "ios": "https://dc.lft.to/lastmile_qr_scan"}}, {"type": "electric_bike", "name": "178bca494f19ea00487d145feeb46d69", "lat": 39.0563285, "fusion_lat": 0.0, "bike_id": "178bca494f19ea00487d145feeb46d69", "is_reserved": 0, "lon": -77.1252645, "is_disabled": 0, "fusion_lon": 0.0, "rental_uris": {"android": "https://dc.lft.to/lastmile_qr_scan", "ios": "https://dc.lft.to/lastmile_qr_scan"}}, {"type": "electric_scooter", "name": "25c88a57dce98f91eb4bd56483b75647", "lat": 38.898644166666664, "fusion_lat": 0.0, "bike_id": "25c88a57dce98f91eb4bd56483b75647", "is_reserved": 0, "lon": -76.9464095, "is_disabled": 0, "fusion_lon": 0.0, "rental_uris": {"android": "https://dc.lft.to/lastmile_qr_scan", "ios": "https://dc.lft.to/lastmile_qr_scan"}}, {"type": "electric_scooter", "name": "ebfe6b9e858d419f02ad54dd0358312c", "lat": 38.89664283333333, "fusion_lat": 0.0, "bike_id": "ebfe6b9e858d419f02ad54dd0358312c", "is_reserved": 0, "lon": -77.027364, "is_disabled": 0, "fusion_lon": 0.0, "rental_uris": {"android": "https://dc.lft.to/lastmile_qr_scan", "ios": "https://dc.lft.to/lastmile_qr_scan"}}, {"type": "electric_scooter", "name": "a4ac361261e74ea5a03425557f038274", "lat": 38.933755833333336, "fusion_lat": 0.0, "bike_id": "a4ac361261e74ea5a03425557f038274", "is_reserved": 0, "lon": -77.0268415, "is_disabled": 0, "fusion_lon": 0.0, "rental_uris": {"android": "https://dc.lft.to/lastmile_qr_scan", "ios": "https://dc.lft.to/lastmile_qr_scan"}}, {"type": "electric_scooter", "name": "16c8a436b76fbfd7de138cd3c86345f0", "lat": 38.861409, "fusion_lat": 0.0, "bike_id": "16c8a436b76fbfd7de138cd3c86345f0", "is_reserved": 0, "lon": -76.97166183333333, "is_disabled": 0, "fusion_lon": 0.0, "rental_uris": {"android": "https://dc.lft.to/lastmile_qr_scan", "ios": "https://dc.lft.to/lastmile_qr_scan"}}, {"type": "electric_scooter", "name": "a554f058ff51061eee1d32b8b9fad69d", "lat": 38.875644333333334, "fusion_lat": 0.0, "bike_id": "a554f058ff51061eee1d32b8b9fad69d", "is_reserved": 0, "lon": -77.0058125, "is_disabled": 0, "fusion_lon": 0.0, "rental_uris": {"android": "https://dc.lft.to/lastmile_qr_scan", "ios": "https://dc.lft.to/lastmile_qr_scan"}}, {"type": "electric_scooter", "name": "d24ac98bcac57b7375a87d2bc861ab80", "lat": 38.917274666666664, "fusion_lat": 0.0, "bike_id": "d24ac98bcac57b7375a87d2bc861ab80", "is_reserved": 0, "lon": -77.04172033333333, "is_disabled": 0, "fusion_lon": 0.0, "rental_uris": {"android": "https://dc.lft.to/lastmile_qr_scan", "ios": "https://dc.lft.to/lastmile_qr_scan"}}, {"type": "electric_scooter", "name": "d5bca4b585b568131071aead3898e34f", "lat": 38.91830083333333, "fusion_lat": 0.0, "bike_id": "d5bca4b585b568131071aead3898e34f", "is_reserved": 0, "lon": -77.02696433333334, "is_disabled": 0, "fusion_lon": 0.0, "rental_uris": {"android": "https://dc.lft.to/lastmile_qr_scan", "ios": "https://dc.lft.to/lastmile_qr_scan"}}, {"type": "electric_scooter", "name": "e1f6a1c31c82da2caa4fa2ea3d15c169", "lat": 38.9009345, "fusion_lat": 0.0, "bike_id": "e1f6a1c31c82da2caa4fa2ea3d15c169", "is_reserved": 0, "lon": -77.04499866666667, "is_disabled": 0, "fusion_lon": 0.0, "rental_uris": {"android": "https://dc.lft.to/lastmile_qr_scan", "ios": "https://dc.lft.to/lastmile_qr_scan"}}, {"type": "electric_bike", "name": "8a8f5a8c272db6d9c2a387bf506f6748", "lat": 38.99782066666667, "fusion_lat": 0.0, "bike_id": "8a8f5a8c272db6d9c2a387bf506f6748", "is_reserved": 0, "lon": -77.00759933333333, "is_disabled": 0, "fusion_lon": 0.0, "rental_uris": {"android": "https://dc.lft.to/lastmile_qr_scan", "ios": "https://dc.lft.to/lastmile_qr_scan"}}, {"type": "electric_scooter", "name": "479e34ffec725fd533dcbad7bf946918", "lat": 38.938834, "fusion_lat": 0.0, "bike_id": "479e34ffec725fd533dcbad7bf946918", "is_reserved": 0, "lon": -77.032635, "is_disabled": 0, "fusion_lon": 0.0, "rental_uris": {"android": "https://dc.lft.to/lastmile_qr_scan", "ios": "https://dc.lft.to/lastmile_qr_scan"}}, {"type": "electric_scooter", "name": "48ca12f1fb9552d5bdc94fdf7bccd9c5", "lat": 38.908415166666664, "fusion_lat": 0.0, "bike_id": "48ca12f1fb9552d5bdc94fdf7bccd9c5", "is_reserved": 0, "lon": -77.04011666666666, "is_disabled": 0, "fusion_lon": 0.0, "rental_uris": {"android": "https://dc.lft.to/lastmile_qr_scan", "ios": "https://dc.lft.to/lastmile_qr_scan"}}, {"type": "electric_scooter", "name": "9bf2c20460736c9fc0e58a79ead941f7", "lat": 38.91872716666666, "fusion_lat": 0.0, "bike_id": "9bf2c20460736c9fc0e58a79ead941f7", "is_reserved": 0, "lon": -77.03679583333333, "is_disabled": 0, "fusion_lon": 0.0, "rental_uris": {"android": "https://dc.lft.to/lastmile_qr_scan", "ios": "https://dc.lft.to/lastmile_qr_scan"}}, {"type": "electric_scooter", "name": "d87e0d135c862b9089e28049171097ec", "lat": 38.909909, "fusion_lat": 0.0, "bike_id": "d87e0d135c862b9089e28049171097ec", "is_reserved": 0, "lon": -77.03207416666666, "is_disabled": 0, "fusion_lon": 0.0, "rental_uris": {"android": "https://dc.lft.to/lastmile_qr_scan", "ios": "https://dc.lft.to/lastmile_qr_scan"}}, {"type": "electric_scooter", "name": "7352a03aa80c0ebb916ddd833673ed19", "lat": 38.909769833333335, "fusion_lat": 0.0, "bike_id": "7352a03aa80c0ebb916ddd833673ed19", "is_reserved": 0, "lon": -77.03431516666667, "is_disabled": 0, "fusion_lon": 0.0, "rental_uris": {"android": "https://dc.lft.to/lastmile_qr_scan", "ios": "https://dc.lft.to/lastmile_qr_scan"}}, {"type": "electric_scooter", "name": "479f7413a4b430fa003209d1765c224d", "lat": 38.917160333333335, "fusion_lat": 0.0, "bike_id": "479f7413a4b430fa003209d1765c224d", "is_reserved": 0, "lon": -77.0683585, "is_disabled": 0, "fusion_lon": 0.0, "rental_uris": {"android": "https://dc.lft.to/lastmile_qr_scan", "ios": "https://dc.lft.to/lastmile_qr_scan"}}, {"type": "electric_scooter", "name": "6b7aa2b5bde24938b783e6caabe1e8be", "lat": 38.92551533333334, "fusion_lat": 0.0, "bike_id": "6b7aa2b5bde24938b783e6caabe1e8be", "is_reserved": 0, "lon": -77.03809433333333, "is_disabled": 0, "fusion_lon": 0.0, "rental_uris": {"android": "https://dc.lft.to/lastmile_qr_scan", "ios": "https://dc.lft.to/lastmile_qr_scan"}}, {"type": "electric_bike", "name": "f5b128a473fda1a5ecbe7ce9c3e0ea80", "lat": 38.85786616666667, "fusion_lat": 0.0, "bike_id": "f5b128a473fda1a5ecbe7ce9c3e0ea80", "is_reserved": 0, "lon": -77.12016233333334, "is_disabled": 0, "fusion_lon": 0.0, "rental_uris": {"android": "https://dc.lft.to/lastmile_qr_scan", "ios": "https://dc.lft.to/lastmile_qr_scan"}}, {"type": "electric_scooter", "name": "510de83dd5db7feb526a99b514fed682", "lat": 38.9192815, "fusion_lat": 0.0, "bike_id": "510de83dd5db7feb526a99b514fed682", "is_reserved": 0, "lon": -77.03220083333333, "is_disabled": 0, "fusion_lon": 0.0, "rental_uris": {"android": "https://dc.lft.to/lastmile_qr_scan", "ios": "https://dc.lft.to/lastmile_qr_scan"}}, {"type": "electric_scooter", "name": "ac5a9abc3a3cb761517e356bed66e0e6", "lat": 38.8980375, "fusion_lat": 0.0, "bike_id": "ac5a9abc3a3cb761517e356bed66e0e6", "is_reserved": 0, "lon": -77.033091, "is_disabled": 0, "fusion_lon": 0.0, "rental_uris": {"android": "https://dc.lft.to/lastmile_qr_scan", "ios": "https://dc.lft.to/lastmile_qr_scan"}}, {"type": "electric_scooter", "name": "3afb2b342e2f1a13294723cf6f9416c3", "lat": 38.89207716666667, "fusion_lat": 0.0, "bike_id": "3afb2b342e2f1a13294723cf6f9416c3", "is_reserved": 0, "lon": -76.956958, "is_disabled": 0, "fusion_lon": 0.0, "rental_uris": {"android": "https://dc.lft.to/lastmile_qr_scan", "ios": "https://dc.lft.to/lastmile_qr_scan"}}, {"type": "electric_scooter", "name": "3ae7eb61110865a2c7c8a90c45e3c96d", "lat": 38.9134305, "fusion_lat": 0.0, "bike_id": "3ae7eb61110865a2c7c8a90c45e3c96d", "is_reserved": 0, "lon": -77.044018, "is_disabled": 0, "fusion_lon": 0.0, "rental_uris": {"android": "https://dc.lft.to/lastmile_qr_scan", "ios": "https://dc.lft.to/lastmile_qr_scan"}}, {"type": "electric_scooter", "name": "f7a4871ad1c2342bbaf57d133e589582", "lat": 38.9406415, "fusion_lat": 0.0, "bike_id": "f7a4871ad1c2342bbaf57d133e589582", "is_reserved": 0, "lon": -76.999448, "is_disabled": 0, "fusion_lon": 0.0, "rental_uris": {"android": "https://dc.lft.to/lastmile_qr_scan", "ios": "https://dc.lft.to/lastmile_qr_scan"}}, {"type": "electric_scooter", "name": "b80567b260e3db99d68d3e8b5c4e502c", "lat": 38.920472833333335, "fusion_lat": 0.0, "bike_id": "b80567b260e3db99d68d3e8b5c4e502c", "is_reserved": 0, "lon": -77.02574666666666, "is_disabled": 0, "fusion_lon": 0.0, "rental_uris": {"android": "https://dc.lft.to/lastmile_qr_scan", "ios": "https://dc.lft.to/lastmile_qr_scan"}}, {"type": "electric_bike", "name": "7a80cb0dad46207d327bef35b7b8d731", "lat": 38.992240333333335, "fusion_lat": 0.0, "bike_id": "7a80cb0dad46207d327bef35b7b8d731", "is_reserved": 0, "lon": -76.9441875, "is_disabled": 0, "fusion_lon": 0.0, "rental_uris": {"android": "https://dc.lft.to/lastmile_qr_scan", "ios": "https://dc.lft.to/lastmile_qr_scan"}}, {"type": "electric_scooter", "name": "af28eb86fad9844e2b6f07198549856a", "lat": 38.8956065, "fusion_lat": 0.0, "bike_id": "af28eb86fad9844e2b6f07198549856a", "is_reserved": 0, "lon": -77.02565116666666, "is_disabled": 0, "fusion_lon": 0.0, "rental_uris": {"android": "https://dc.lft.to/lastmile_qr_scan", "ios": "https://dc.lft.to/lastmile_qr_scan"}}, {"type": "electric_scooter", "name": "1156aa3e2f4103e15215b3265951584e", "lat": 38.921397666666664, "fusion_lat": 0.0, "bike_id": "1156aa3e2f4103e15215b3265951584e", "is_reserved": 0, "lon": -77.01166683333334, "is_disabled": 0, "fusion_lon": 0.0, "rental_uris": {"android": "https://dc.lft.to/lastmile_qr_scan", "ios": "https://dc.lft.to/lastmile_qr_scan"}}, {"type": "electric_scooter", "name": "cf252a36b0dc05376a27382c1e3eaef9", "lat": 38.876575, "fusion_lat": 0.0, "bike_id": "cf252a36b0dc05376a27382c1e3eaef9", "is_reserved": 0, "lon": -77.00238966666667, "is_disabled": 0, "fusion_lon": 0.0, "rental_uris": {"android": "https://dc.lft.to/lastmile_qr_scan", "ios": "https://dc.lft.to/lastmile_qr_scan"}}, {"type": "electric_scooter", "name": "831978e2a228431ef1f00b62b4f00bb0", "lat": 38.90040833333333, "fusion_lat": 0.0, "bike_id": "831978e2a228431ef1f00b62b4f00bb0", "is_reserved": 0, "lon": -77.01167333333333, "is_disabled": 0, "fusion_lon": 0.0, "rental_uris": {"android": "https://dc.lft.to/lastmile_qr_scan", "ios": "https://dc.lft.to/lastmile_qr_scan"}}, {"type": "electric_bike", "name": "bd4bbc4944fa82920f69235813b17a25", "lat": 38.855265333333335, "fusion_lat": 0.0, "bike_id": "bd4bbc4944fa82920f69235813b17a25", "is_reserved": 0, "lon": -77.1141005, "is_disabled": 0, "fusion_lon": 0.0, "rental_uris": {"android": "https://dc.lft.to/lastmile_qr_scan", "ios": "https://dc.lft.to/lastmile_qr_scan"}}, {"type": "electric_scooter", "name": "be5e9f0492b9123d5fe6ca511b428647", "lat": 38.916632166666666, "fusion_lat": 0.0, "bike_id": "be5e9f0492b9123d5fe6ca511b428647", "is_reserved": 0, "lon": -77.0271415, "is_disabled": 0, "fusion_lon": 0.0, "rental_uris": {"android": "https://dc.lft.to/lastmile_qr_scan", "ios": "https://dc.lft.to/lastmile_qr_scan"}}, {"type": "electric_scooter", "name": "6926cc11aa9070ae81847379658717e9", "lat": 38.96740066666667, "fusion_lat": 0.0, "bike_id": "6926cc11aa9070ae81847379658717e9", "is_reserved": 0, "lon": -77.00864233333333, "is_disabled": 0, "fusion_lon": 0.0, "rental_uris": {"android": "https://dc.lft.to/lastmile_qr_scan", "ios": "https://dc.lft.to/lastmile_qr_scan"}}, {"type": "electric_bike", "name": "3fb01e80024e8c50b03ef266072117f1", "lat": 38.85513533333334, "fusion_lat": 0.0, "bike_id": "3fb01e80024e8c50b03ef266072117f1", "is_reserved": 0, "lon": -77.120174, "is_disabled": 0, "fusion_lon": 0.0, "rental_uris": {"android": "https://dc.lft.to/lastmile_qr_scan", "ios": "https://dc.lft.to/lastmile_qr_scan"}}, {"type": "electric_scooter", "name": "84da807811833c139e57224e031aabf4", "lat": 38.902702166666664, "fusion_lat": 0.0, "bike_id": "84da807811833c139e57224e031aabf4", "is_reserved": 0, "lon": -77.03982333333333, "is_disabled": 0, "fusion_lon": 0.0, "rental_uris": {"android": "https://dc.lft.to/lastmile_qr_scan", "ios": "https://dc.lft.to/lastmile_qr_scan"}}, {"type": "electric_scooter", "name": "4f51dc618a92e2ed54122361012419f6", "lat": 38.9035425, "fusion_lat": 0.0, "bike_id": "4f51dc618a92e2ed54122361012419f6", "is_reserved": 0, "lon": -77.0343955, "is_disabled": 0, "fusion_lon": 0.0, "rental_uris": {"android": "https://dc.lft.to/lastmile_qr_scan", "ios": "https://dc.lft.to/lastmile_qr_scan"}}, {"type": "electric_scooter", "name": "5715b5d2beb607b5c50d35c5e704deeb", "lat": 38.87921466666667, "fusion_lat": 0.0, "bike_id": "5715b5d2beb607b5c50d35c5e704deeb", "is_reserved": 0, "lon": -77.01698816666666, "is_disabled": 0, "fusion_lon": 0.0, "rental_uris": {"android": "https://dc.lft.to/lastmile_qr_scan", "ios": "https://dc.lft.to/lastmile_qr_scan"}}, {"type": "electric_scooter", "name": "85a0abcd387a607bb1a9dc75b1b6e5cb", "lat": 38.892225833333335, "fusion_lat": 0.0, "bike_id": "85a0abcd387a607bb1a9dc75b1b6e5cb", "is_reserved": 0, "lon": -77.04690416666666, "is_disabled": 0, "fusion_lon": 0.0, "rental_uris": {"android": "https://dc.lft.to/lastmile_qr_scan", "ios": "https://dc.lft.to/lastmile_qr_scan"}}, {"type": "electric_scooter", "name": "5aef734f8c92309308efb75c19326e83", "lat": 38.89555133333333, "fusion_lat": 0.0, "bike_id": "5aef734f8c92309308efb75c19326e83", "is_reserved": 0, "lon": -77.04674516666667, "is_disabled": 0, "fusion_lon": 0.0, "rental_uris": {"android": "https://dc.lft.to/lastmile_qr_scan", "ios": "https://dc.lft.to/lastmile_qr_scan"}}, {"type": "electric_scooter", "name": "534b75bae77ad8159ddda5ad7fc7a52a", "lat": 38.89727383333334, "fusion_lat": 0.0, "bike_id": "534b75bae77ad8159ddda5ad7fc7a52a", "is_reserved": 0, "lon": -77.00369233333333, "is_disabled": 0, "fusion_lon": 0.0, "rental_uris": {"android": "https://dc.lft.to/lastmile_qr_scan", "ios": "https://dc.lft.to/lastmile_qr_scan"}}, {"type": "electric_scooter", "name": "b973170e1693dd0eac8897f10813022d", "lat": 38.8517935, "fusion_lat": 0.0, "bike_id": "b973170e1693dd0eac8897f10813022d", "is_reserved": 0, "lon": -76.99580883333333, "is_disabled": 0, "fusion_lon": 0.0, "rental_uris": {"android": "https://dc.lft.to/lastmile_qr_scan", "ios": "https://dc.lft.to/lastmile_qr_scan"}}, {"type": "electric_scooter", "name": "be49081b36aa7c0c9ac9c0e3b69f3c27", "lat": 38.931557833333336, "fusion_lat": 0.0, "bike_id": "be49081b36aa7c0c9ac9c0e3b69f3c27", "is_reserved": 0, "lon": -77.0361015, "is_disabled": 0, "fusion_lon": 0.0, "rental_uris": {"android": "https://dc.lft.to/lastmile_qr_scan", "ios": "https://dc.lft.to/lastmile_qr_scan"}}, {"type": "electric_scooter", "name": "194bf95a210f72bbd38f05b38b5a2c42", "lat": 38.9076615, "fusion_lat": 0.0, "bike_id": "194bf95a210f72bbd38f05b38b5a2c42", "is_reserved": 0, "lon": -77.00146183333334, "is_disabled": 0, "fusion_lon": 0.0, "rental_uris": {"android": "https://dc.lft.to/lastmile_qr_scan", "ios": "https://dc.lft.to/lastmile_qr_scan"}}, {"type": "electric_scooter", "name": "683622fde3416d42866c7614f8de8a98", "lat": 38.866246833333335, "fusion_lat": 0.0, "bike_id": "683622fde3416d42866c7614f8de8a98", "is_reserved": 0, "lon": -76.98724833333333, "is_disabled": 0, "fusion_lon": 0.0, "rental_uris": {"android": "https://dc.lft.to/lastmile_qr_scan", "ios": "https://dc.lft.to/lastmile_qr_scan"}}, {"type": "electric_scooter", "name": "d4e01936c36e493ef05b886540fe6980", "lat": 38.9240965, "fusion_lat": 0.0, "bike_id": "d4e01936c36e493ef05b886540fe6980", "is_reserved": 0, "lon": -77.01937316666667, "is_disabled": 0, "fusion_lon": 0.0, "rental_uris": {"android": "https://dc.lft.to/lastmile_qr_scan", "ios": "https://dc.lft.to/lastmile_qr_scan"}}, {"type": "electric_scooter", "name": "6539156ef98de69c5f2d273d1ac4164b", "lat": 38.909070666666665, "fusion_lat": 0.0, "bike_id": "6539156ef98de69c5f2d273d1ac4164b", "is_reserved": 0, "lon": -77.07191266666666, "is_disabled": 0, "fusion_lon": 0.0, "rental_uris": {"android": "https://dc.lft.to/lastmile_qr_scan", "ios": "https://dc.lft.to/lastmile_qr_scan"}}, {"type": "electric_scooter", "name": "f4a261d1f43af385691b48750457082a", "lat": 38.9170405, "fusion_lat": 0.0, "bike_id": "f4a261d1f43af385691b48750457082a", "is_reserved": 0, "lon": -77.032175, "is_disabled": 0, "fusion_lon": 0.0, "rental_uris": {"android": "https://dc.lft.to/lastmile_qr_scan", "ios": "https://dc.lft.to/lastmile_qr_scan"}}, {"type": "electric_scooter", "name": "b5e4ac4e3362a6eedd32d5928d4fb012", "lat": 38.9232405, "fusion_lat": 0.0, "bike_id": "b5e4ac4e3362a6eedd32d5928d4fb012", "is_reserved": 0, "lon": -77.045133, "is_disabled": 0, "fusion_lon": 0.0, "rental_uris": {"android": "https://dc.lft.to/lastmile_qr_scan", "ios": "https://dc.lft.to/lastmile_qr_scan"}}, {"type": "electric_scooter", "name": "152acf5630373bb383353ac9cc52d20f", "lat": 38.901095, "fusion_lat": 0.0, "bike_id": "152acf5630373bb383353ac9cc52d20f", "is_reserved": 0, "lon": -77.03179416666667, "is_disabled": 0, "fusion_lon": 0.0, "rental_uris": {"android": "https://dc.lft.to/lastmile_qr_scan", "ios": "https://dc.lft.to/lastmile_qr_scan"}}, {"type": "electric_scooter", "name": "95ef681e717f288c87c39542c50df91d", "lat": 38.884790333333335, "fusion_lat": 0.0, "bike_id": "95ef681e717f288c87c39542c50df91d", "is_reserved": 0, "lon": -76.95652466666667, "is_disabled": 0, "fusion_lon": 0.0, "rental_uris": {"android": "https://dc.lft.to/lastmile_qr_scan", "ios": "https://dc.lft.to/lastmile_qr_scan"}}, {"type": "electric_scooter", "name": "7435fe9d90e02fcdf71d61c0d4eacc79", "lat": 38.873969, "fusion_lat": 0.0, "bike_id": "7435fe9d90e02fcdf71d61c0d4eacc79", "is_reserved": 0, "lon": -77.00009883333334, "is_disabled": 0, "fusion_lon": 0.0, "rental_uris": {"android": "https://dc.lft.to/lastmile_qr_scan", "ios": "https://dc.lft.to/lastmile_qr_scan"}}, {"type": "electric_scooter", "name": "a695ae2d43ecf44382a8d4bd8a858154", "lat": 38.92751166666667, "fusion_lat": 0.0, "bike_id": "a695ae2d43ecf44382a8d4bd8a858154", "is_reserved": 0, "lon": -77.03310266666666, "is_disabled": 0, "fusion_lon": 0.0, "rental_uris": {"android": "https://dc.lft.to/lastmile_qr_scan", "ios": "https://dc.lft.to/lastmile_qr_scan"}}, {"type": "electric_scooter", "name": "e33b57a690b102db0907f713892d01af", "lat": 38.9241745, "fusion_lat": 0.0, "bike_id": "e33b57a690b102db0907f713892d01af", "is_reserved": 0, "lon": -77.01948083333333, "is_disabled": 0, "fusion_lon": 0.0, "rental_uris": {"android": "https://dc.lft.to/lastmile_qr_scan", "ios": "https://dc.lft.to/lastmile_qr_scan"}}, {"type": "electric_scooter", "name": "f67ea8ef9fea04871926801ff470861b", "lat": 38.887428, "fusion_lat": 0.0, "bike_id": "f67ea8ef9fea04871926801ff470861b", "is_reserved": 0, "lon": -77.02225683333333, "is_disabled": 0, "fusion_lon": 0.0, "rental_uris": {"android": "https://dc.lft.to/lastmile_qr_scan", "ios": "https://dc.lft.to/lastmile_qr_scan"}}, {"type": "electric_scooter", "name": "9dc40f21c8c4ad3e404ded2e43b24292", "lat": 38.90293, "fusion_lat": 0.0, "bike_id": "9dc40f21c8c4ad3e404ded2e43b24292", "is_reserved": 0, "lon": -77.034553, "is_disabled": 0, "fusion_lon": 0.0, "rental_uris": {"android": "https://dc.lft.to/lastmile_qr_scan", "ios": "https://dc.lft.to/lastmile_qr_scan"}}, {"type": "electric_scooter", "name": "8edc15b969129c62fbcdda8c9372d975", "lat": 38.90916766666667, "fusion_lat": 0.0, "bike_id": "8edc15b969129c62fbcdda8c9372d975", "is_reserved": 0, "lon": -77.03191633333333, "is_disabled": 0, "fusion_lon": 0.0, "rental_uris": {"android": "https://dc.lft.to/lastmile_qr_scan", "ios": "https://dc.lft.to/lastmile_qr_scan"}}, {"type": "electric_scooter", "name": "48911ce6577ffbb18f6e48f8b714ed81", "lat": 38.952007, "fusion_lat": 0.0, "bike_id": "48911ce6577ffbb18f6e48f8b714ed81", "is_reserved": 0, "lon": -77.027378, "is_disabled": 0, "fusion_lon": 0.0, "rental_uris": {"android": "https://dc.lft.to/lastmile_qr_scan", "ios": "https://dc.lft.to/lastmile_qr_scan"}}, {"type": "electric_scooter", "name": "60ba35368ad3fba2d142993ab46c0945", "lat": 38.928585166666664, "fusion_lat": 0.0, "bike_id": "60ba35368ad3fba2d142993ab46c0945", "is_reserved": 0, "lon": -77.033591, "is_disabled": 0, "fusion_lon": 0.0, "rental_uris": {"android": "https://dc.lft.to/lastmile_qr_scan", "ios": "https://dc.lft.to/lastmile_qr_scan"}}, {"type": "electric_scooter", "name": "30f7a8ed9a13f2fb2450746495b3fda2", "lat": 38.8967185, "fusion_lat": 0.0, "bike_id": "30f7a8ed9a13f2fb2450746495b3fda2", "is_reserved": 0, "lon": -77.023859, "is_disabled": 0, "fusion_lon": 0.0, "rental_uris": {"android": "https://dc.lft.to/lastmile_qr_scan", "ios": "https://dc.lft.to/lastmile_qr_scan"}}, {"type": "electric_scooter", "name": "c2845f18435e54cd52a4cff4f01b7e45", "lat": 38.920485166666666, "fusion_lat": 0.0, "bike_id": "c2845f18435e54cd52a4cff4f01b7e45", "is_reserved": 0, "lon": -77.01682533333333, "is_disabled": 0, "fusion_lon": 0.0, "rental_uris": {"android": "https://dc.lft.to/lastmile_qr_scan", "ios": "https://dc.lft.to/lastmile_qr_scan"}}, {"type": "electric_scooter", "name": "b463b83731472a998b867e2914f3afc2", "lat": 38.924750833333334, "fusion_lat": 0.0, "bike_id": "b463b83731472a998b867e2914f3afc2", "is_reserved": 0, "lon": -77.0221225, "is_disabled": 0, "fusion_lon": 0.0, "rental_uris": {"android": "https://dc.lft.to/lastmile_qr_scan", "ios": "https://dc.lft.to/lastmile_qr_scan"}}, {"type": "electric_scooter", "name": "7d6be9cd7e659628b335deb1324f0c05", "lat": 38.874635833333336, "fusion_lat": 0.0, "bike_id": "7d6be9cd7e659628b335deb1324f0c05", "is_reserved": 0, "lon": -77.0048575, "is_disabled": 0, "fusion_lon": 0.0, "rental_uris": {"android": "https://dc.lft.to/lastmile_qr_scan", "ios": "https://dc.lft.to/lastmile_qr_scan"}}, {"type": "electric_scooter", "name": "625a5fb90576ae10b44946a7b1210aef", "lat": 38.89248833333333, "fusion_lat": 0.0, "bike_id": "625a5fb90576ae10b44946a7b1210aef", "is_reserved": 0, "lon": -77.03958283333333, "is_disabled": 0, "fusion_lon": 0.0, "rental_uris": {"android": "https://dc.lft.to/lastmile_qr_scan", "ios": "https://dc.lft.to/lastmile_qr_scan"}}, {"type": "electric_scooter", "name": "9aac18d8073a06960e18d70f53aeb8bf", "lat": 38.91685233333333, "fusion_lat": 0.0, "bike_id": "9aac18d8073a06960e18d70f53aeb8bf", "is_reserved": 0, "lon": -77.02946483333334, "is_disabled": 0, "fusion_lon": 0.0, "rental_uris": {"android": "https://dc.lft.to/lastmile_qr_scan", "ios": "https://dc.lft.to/lastmile_qr_scan"}}, {"type": "electric_scooter", "name": "57f38a34ecc46c5a843afb5d1140f8b8", "lat": 38.896706, "fusion_lat": 0.0, "bike_id": "57f38a34ecc46c5a843afb5d1140f8b8", "is_reserved": 0, "lon": -76.93206866666667, "is_disabled": 0, "fusion_lon": 0.0, "rental_uris": {"android": "https://dc.lft.to/lastmile_qr_scan", "ios": "https://dc.lft.to/lastmile_qr_scan"}}, {"type": "electric_scooter", "name": "d8a588737b0409244c62fa6f7d65c921", "lat": 38.8873975, "fusion_lat": 0.0, "bike_id": "d8a588737b0409244c62fa6f7d65c921", "is_reserved": 0, "lon": -77.03167633333334, "is_disabled": 0, "fusion_lon": 0.0, "rental_uris": {"android": "https://dc.lft.to/lastmile_qr_scan", "ios": "https://dc.lft.to/lastmile_qr_scan"}}, {"type": "electric_scooter", "name": "84909c00d407fc739134556d753b671e", "lat": 38.896386666666665, "fusion_lat": 0.0, "bike_id": "84909c00d407fc739134556d753b671e", "is_reserved": 0, "lon": -77.04058033333334, "is_disabled": 0, "fusion_lon": 0.0, "rental_uris": {"android": "https://dc.lft.to/lastmile_qr_scan", "ios": "https://dc.lft.to/lastmile_qr_scan"}}, {"type": "electric_scooter", "name": "5d02cfef819ce39a79bbb5604141c3a2", "lat": 38.907281166666664, "fusion_lat": 0.0, "bike_id": "5d02cfef819ce39a79bbb5604141c3a2", "is_reserved": 0, "lon": -77.04269566666666, "is_disabled": 0, "fusion_lon": 0.0, "rental_uris": {"android": "https://dc.lft.to/lastmile_qr_scan", "ios": "https://dc.lft.to/lastmile_qr_scan"}}, {"type": "electric_scooter", "name": "5074ce0b75399d5327046512f86adb23", "lat": 38.900066, "fusion_lat": 0.0, "bike_id": "5074ce0b75399d5327046512f86adb23", "is_reserved": 0, "lon": -76.98834516666666, "is_disabled": 0, "fusion_lon": 0.0, "rental_uris": {"android": "https://dc.lft.to/lastmile_qr_scan", "ios": "https://dc.lft.to/lastmile_qr_scan"}}, {"type": "electric_scooter", "name": "f20ffa2f94a898faa9e519110c28813e", "lat": 38.89979133333333, "fusion_lat": 0.0, "bike_id": "f20ffa2f94a898faa9e519110c28813e", "is_reserved": 0, "lon": -76.985408, "is_disabled": 0, "fusion_lon": 0.0, "rental_uris": {"android": "https://dc.lft.to/lastmile_qr_scan", "ios": "https://dc.lft.to/lastmile_qr_scan"}}, {"type": "electric_scooter", "name": "0f74cd432f382353b22e1e87c4c3e0e4", "lat": 38.93013933333334, "fusion_lat": 0.0, "bike_id": "0f74cd432f382353b22e1e87c4c3e0e4", "is_reserved": 0, "lon": -77.020779, "is_disabled": 0, "fusion_lon": 0.0, "rental_uris": {"android": "https://dc.lft.to/lastmile_qr_scan", "ios": "https://dc.lft.to/lastmile_qr_scan"}}, {"type": "electric_scooter", "name": "8305afd72132a785df3ade82ed9cb29e", "lat": 38.898894166666665, "fusion_lat": 0.0, "bike_id": "8305afd72132a785df3ade82ed9cb29e", "is_reserved": 0, "lon": -77.00723833333333, "is_disabled": 0, "fusion_lon": 0.0, "rental_uris": {"android": "https://dc.lft.to/lastmile_qr_scan", "ios": "https://dc.lft.to/lastmile_qr_scan"}},