{"data": {"bikes": [{"bike_id": "c5e3efc90a3a689f72308ebf7077c6d4", "fusion_lon": 0.0, "type": "electric_scooter", "name": "c5e3efc90a3a689f72308ebf7077c6d4", "rental_uris": {"android": "https://dc.lft.to/lastmile_qr_scan", "ios": "https://dc.lft.to/lastmile_qr_scan"}, "fusion_lat": 0.0, "lat": 38.9072795, "is_disabled": 0, "lon": -77.02369016666667, "is_reserved": 0}, {"bike_id": "d670dd8df9ab95fb5496de00629ef227", "fusion_lon": 0.0, "type": "electric_scooter", "name": "d670dd8df9ab95fb5496de00629ef227", "rental_uris": {"android": "https://dc.lft.to/lastmile_qr_scan", "ios": "https://dc.lft.to/lastmile_qr_scan"}, "fusion_lat": 0.0, "lat": 38.87632766666667, "is_disabled": 0, "lon": -77.01249316666667, "is_reserved": 0}, {"bike_id": "f7629c0ceca7d644b0a981aebcb535f6", "fusion_lon": 0.0, "type": "electric_scooter", "name": "f7629c0ceca7d644b0a981aebcb535f6", "rental_uris": {"android": "https://dc.lft.to/lastmile_qr_scan", "ios": "https://dc.lft.to/lastmile_qr_scan"}, "fusion_lat": 0.0, "lat": 38.89135266666667, "is_disabled": 0, "lon": -76.95180683333334, "is_reserved": 0}, {"bike_id": "968e4d9c6bea0f24ae02d912afc901b1", "fusion_lon": 0.0, "type": "electric_scooter", "name": "968e4d9c6bea0f24ae02d912afc901b1", "rental_uris": {"android": "https://dc.lft.to/lastmile_qr_scan", "ios": "https://dc.lft.to/lastmile_qr_scan"}, "fusion_lat": 0.0, "lat": 38.929988333333334, "is_disabled": 0, "lon": -77.03254783333334, "is_reserved": 0}, {"bike_id": "ded803a35cb8747d0dcb5215d304aaed", "fusion_lon": 0.0, "type": "electric_scooter", "name": "ded803a35cb8747d0dcb5215d304aaed", "rental_uris": {"android": "https://dc.lft.to/lastmile_qr_scan", "ios": "https://dc.lft.to/lastmile_qr_scan"}, "fusion_lat": 0.0, "lat": 38.890192, "is_disabled": 0, "lon": -76.93732716666666, "is_reserved": 0}, {"bike_id": "7772143c622dce16ccf4e4f83dea8ebc", "fusion_lon": 0.0, "type": "electric_scooter", "name": "7772143c622dce16ccf4e4f83dea8ebc", "rental_uris": {"android": "https://dc.lft.to/lastmile_qr_scan", "ios": "https://dc.lft.to/lastmile_qr_scan"}, "fusion_lat": 0.0, "lat": 38.905614166666666, "is_disabled": 0, "lon": -77.0059135, "is_reserved": 0}, {"bike_id": "70e24ac46ae9d3584504bb06b5f8b6af", "fusion_lon": 0.0, "type": "electric_scooter", "name": "70e24ac46ae9d3584504bb06b5f8b6af", "rental_uris": {"android": "https://dc.lft.to/lastmile_qr_scan", "ios": "https://dc.lft.to/lastmile_qr_scan"}, "fusion_lat": 0.0, "lat": 38.926124333333334, "is_disabled": 0, "lon": -77.02414616666667, "is_reserved": 0}, {"bike_id": "fcf05f1df0e68b258392256b806f7523", "fusion_lon": 0.0, "type": "electric_scooter", "name": "fcf05f1df0e68b258392256b806f7523", "rental_uris": {"android": "https://dc.lft.to/lastmile_qr_scan", "ios": "https://dc.lft.to/lastmile_qr_scan"}, "fusion_lat": 0.0, "lat": 38.92712916666667, "is_disabled": 0, "lon": -77.02392816666666, "is_reserved": 0}, {"bike_id": "e187849978b3b767f7ca62e168daa920", "fusion_lon": 0.0, "type": "electric_scooter", "name": "e187849978b3b767f7ca62e168daa920", "rental_uris": {"android": "https://dc.lft.to/lastmile_qr_scan", "ios": "https://dc.lft.to/lastmile_qr_scan"}, "fusion_lat": 0.0, "lat": 38.91558033333333, "is_disabled": 0, "lon": -77.020497, "is_reserved": 0}, {"bike_id": "1dff7ded737fc3fc0648d72c232e6340", "fusion_lon": 0.0, "type": "electric_scooter", "name": "1dff7ded737fc3fc0648d72c232e6340", "rental_uris": {"android": "https://dc.lft.to/lastmile_qr_scan", "ios": "https://dc.lft.to/lastmile_qr_scan"}, "fusion_lat": 0.0, "lat": 38.924294333333336, "is_disabled": 0, "lon": -77.03627333333333, "is_reserved": 0}, {"bike_id": "5c64d86600d5364c532fb8707eab985a", "fusion_lon": 0.0, "type": "electric_scooter", "name": "5c64d86600d5364c532fb8707eab985a", "rental_uris": {"android": "https://dc.lft.to/lastmile_qr_scan", "ios": "https://dc.lft.to/lastmile_qr_scan"}, "fusion_lat": 0.0, "lat": 38.95767583333333, "is_disabled": 0, "lon": -77.015914, "is_reserved": 0}, {"bike_id": "7f75365e8b7cd5b6e346be46fba5a7e6", "fusion_lon": 0.0, "type": "electric_bike", "name": "7f75365e8b7cd5b6e346be46fba5a7e6", "rental_uris": {"android": "https://dc.lft.to/lastmile_qr_scan", "ios": "https://dc.lft.to/lastmile_qr_scan"}, "fusion_lat": 0.0, "lat": 38.872387333333336, "is_disabled": 0, "lon": -76.93196383333333, "is_reserved": 0}, {"bike_id": "490b27d41576e272e0ad2ea255f6f816", "fusion_lon": 0.0, "type": "electric_scooter", "name": "490b27d41576e272e0ad2ea255f6f816", "rental_uris": {"android": "https://dc.lft.to/lastmile_qr_scan", "ios": "https://dc.lft.to/lastmile_qr_scan"}, "fusion_lat": 0.0, "lat": 38.9565615, "is_disabled": 0, "lon": -77.03291633333333, "is_reserved": 0}, {"bike_id": "907ca7097ddc27b0c7135c35ec72cbb7", "fusion_lon": 0.0, "type": "electric_scooter", "name": "907ca7097ddc27b0c7135c35ec72cbb7", "rental_uris": {"android": "https://dc.lft.to/lastmile_qr_scan", "ios": "https://dc.lft.to/lastmile_qr_scan"}, "fusion_lat": 0.0, "lat": 38.88681716666667, "is_disabled": 0, "lon": -76.952359, "is_reserved": 0}, {"bike_id": "509226f246ecdd5e883d2e1d91fb5910", "fusion_lon": 0.0, "type": "electric_scooter", "name": "509226f246ecdd5e883d2e1d91fb5910", "rental_uris": {"android": "https://dc.lft.to/lastmile_qr_scan", "ios": "https://dc.lft.to/lastmile_qr_scan"}, "fusion_lat": 0.0, "lat": 38.9173085, "is_disabled": 0, "lon": -77.01902716666666, "is_reserved": 0}, {"bike_id": "c2972431a7f076a2d68577d09cf6f40f", "fusion_lon": 0.0, "type": "electric_scooter", "name": "c2972431a7f076a2d68577d09cf6f40f", "rental_uris": {"android": "https://dc.lft.to/lastmile_qr_scan", "ios": "https://dc.lft.to/lastmile_qr_scan"}, "fusion_lat": 0.0, "lat": 38.94999683333333, "is_disabled": 0, "lon": -77.027072, "is_reserved": 0}, {"bike_id": "575588a7a9cad53881fce0950a463c42", "fusion_lon": 0.0, "type": "electric_scooter", "name": "575588a7a9cad53881fce0950a463c42", "rental_uris": {"android": "https://dc.lft.to/lastmile_qr_scan", "ios": "https://dc.lft.to/lastmile_qr_scan"}, "fusion_lat": 0.0, "lat": 38.9024265, "is_disabled": 0, "lon": -77.00199666666667, "is_reserved": 0}, {"bike_id": "363ec0eaf38a7766d3783d18d09f19fa", "fusion_lon": 0.0, "type": "electric_scooter", "name": "363ec0eaf38a7766d3783d18d09f19fa", "rental_uris": {"android": "https://dc.lft.to/lastmile_qr_scan", "ios": "https://dc.lft.to/lastmile_qr_scan"}, "fusion_lat": 0.0, "lat": 38.9199215, "is_disabled": 0, "lon": -77.03262533333333, "is_reserved": 0}, {"bike_id": "f55981b4eea5d28f4e705f7668d0380d", "fusion_lon": 0.0, "type": "electric_bike", "name": "f55981b4eea5d28f4e705f7668d0380d", "rental_uris": {"android": "https://dc.lft.to/lastmile_qr_scan", "ios": "https://dc.lft.to/lastmile_qr_scan"}, "fusion_lat": 0.0, "lat": 38.8411535, "is_disabled": 0, "lon": -77.08947833333333, "is_reserved": 0}, {"bike_id": "8da6d87e80abd24c225c213825ed062e", "fusion_lon": 0.0, "type": "electric_scooter", "name": "8da6d87e80abd24c225c213825ed062e", "rental_uris": {"android": "https://dc.lft.to/lastmile_qr_scan", "ios": "https://dc.lft.to/lastmile_qr_scan"}, "fusion_lat": 0.0, "lat": 38.90469, "is_disabled": 0, "lon": -77.03846033333333, "is_reserved": 0}, {"bike_id": "8547b3b71eb45e1675f29a01c32ffac5", "fusion_lon": 0.0, "type": "electric_scooter", "name": "8547b3b71eb45e1675f29a01c32ffac5", "rental_uris": {"android": "https://dc.lft.to/lastmile_qr_scan", "ios": "https://dc.lft.to/lastmile_qr_scan"}, "fusion_lat": 0.0, "lat": 38.925027, "is_disabled": 0, "lon": -77.02253233333333, "is_reserved": 0}, {"bike_id": "3c88421df6d65125c43cfe612bb6bd2a", "fusion_lon": 0.0, "type": "electric_scooter", "name": "3c88421df6d65125c43cfe612bb6bd2a", "rental_uris": {"android": "https://dc.lft.to/lastmile_qr_scan", "ios": "https://dc.lft.to/lastmile_qr_scan"}, "fusion_lat": 0.0, "lat": 38.90254183333333, "is_disabled": 0, "lon": -77.019858, "is_reserved": 0}, {"bike_id": "d86d914d497dab22393fe805fb23a0b9", "fusion_lon": 0.0, "type": "electric_bike", "name": "d86d914d497dab22393fe805fb23a0b9", "rental_uris": {"android": "https://dc.lft.to/lastmile_qr_scan", "ios": "https://dc.lft.to/lastmile_qr_scan"}, "fusion_lat": 0.0, "lat": 38.81241966666666, "is_disabled": 0, "lon": -77.04072283333333, "is_reserved": 0}, {"bike_id": "2615c53fd02618ad2e5040d13c9e73fb", "fusion_lon": 0.0, "type": "electric_scooter", "name": "2615c53fd02618ad2e5040d13c9e73fb", "rental_uris": {"android": "https://dc.lft.to/lastmile_qr_scan", "ios": "https://dc.lft.to/lastmile_qr_scan"}, "fusion_lat": 0.0, "lat": 38.95635766666667, "is_disabled": 0, "lon": -77.029854, "is_reserved": 0}, {"bike_id": "acdf7cdfa25af1bbea9e5fab1d93d4a5", "fusion_lon": 0.0, "type": "electric_scooter", "name": "acdf7cdfa25af1bbea9e5fab1d93d4a5", "rental_uris": {"android": "https://dc.lft.to/lastmile_qr_scan", "ios": "https://dc.lft.to/lastmile_qr_scan"}, "fusion_lat": 0.0, "lat": 38.90565616666667, "is_disabled": 0, "lon": -77.02791933333333, "is_reserved": 0}, {"bike_id": "79e4fb707351edb9dcac0fc66e4f7df1", "fusion_lon": 0.0, "type": "electric_bike", "name": "79e4fb707351edb9dcac0fc66e4f7df1", "rental_uris": {"android": "https://dc.lft.to/lastmile_qr_scan", "ios": "https://dc.lft.to/lastmile_qr_scan"}, "fusion_lat": 0.0, "lat": 38.92418, "is_disabled": 0, "lon": -77.05041, "is_reserved": 0}, {"bike_id": "c40799abae863c34da33e680d84d9cf3", "fusion_lon": 0.0, "type": "electric_scooter", "name": "c40799abae863c34da33e680d84d9cf3", "rental_uris": {"android": "https://dc.lft.to/lastmile_qr_scan", "ios": "https://dc.lft.to/lastmile_qr_scan"}, "fusion_lat": 0.0, "lat": 38.9005275, "is_disabled": 0, "lon": -77.0448525, "is_reserved": 0}, {"bike_id": "5d9016093b3a30024649c5a9505018ff", "fusion_lon": 0.0, "type": "electric_scooter", "name": "5d9016093b3a30024649c5a9505018ff", "rental_uris": {"android": "https://dc.lft.to/lastmile_qr_scan", "ios": "https://dc.lft.to/lastmile_qr_scan"}, "fusion_lat": 0.0, "lat": 38.88660433333333, "is_disabled": 0, "lon": -77.03384866666667, "is_reserved": 0}, {"bike_id": "74db6f5e397b6562cc1528596dce439a", "fusion_lon": 0.0, "type": "electric_scooter", "name": "74db6f5e397b6562cc1528596dce439a", "rental_uris": {"android": "https://dc.lft.to/lastmile_qr_scan", "ios": "https://dc.lft.to/lastmile_qr_scan"}, "fusion_lat": 0.0, "lat": 38.914790333333336, "is_disabled": 0, "lon": -77.04654016666667, "is_reserved": 0}, {"bike_id": "bb6f240630689c96a5ce2e1c02b96304", "fusion_lon": 0.0, "type": "electric_scooter", "name": "bb6f240630689c96a5ce2e1c02b96304", "rental_uris": {"android": "https://dc.lft.to/lastmile_qr_scan", "ios": "https://dc.lft.to/lastmile_qr_scan"}, "fusion_lat": 0.0, "lat": 38.91881466666667, "is_disabled": 0, "lon": -77.03505583333333, "is_reserved": 0}, {"bike_id": "0be1ebae68b6df01fa236e11cc67801d", "fusion_lon": 0.0, "type": "electric_scooter", "name": "0be1ebae68b6df01fa236e11cc67801d", "rental_uris": {"android": "https://dc.lft.to/lastmile_qr_scan", "ios": "https://dc.lft.to/lastmile_qr_scan"}, "fusion_lat": 0.0, "lat": 38.9391025, "is_disabled": 0, "lon": -77.06041033333334, "is_reserved": 0}, {"bike_id": "2ba654f6f479e161ca5cb3b1badc4ac6", "fusion_lon": 0.0, "type": "electric_scooter", "name": "2ba654f6f479e161ca5cb3b1badc4ac6", "rental_uris": {"android": "https://dc.lft.to/lastmile_qr_scan", "ios": "https://dc.lft.to/lastmile_qr_scan"}, "fusion_lat": 0.0, "lat": 38.89698666666666, "is_disabled": 0, "lon": -77.0217655, "is_reserved": 0}, {"bike_id": "a7b98a962cc6cede80a3f46981820e40", "fusion_lon": 0.0, "type": "electric_bike", "name": "a7b98a962cc6cede80a3f46981820e40", "rental_uris": {"android": "https://dc.lft.to/lastmile_qr_scan", "ios": "https://dc.lft.to/lastmile_qr_scan"}, "fusion_lat": 0.0, "lat": 38.863813666666665, "is_disabled": 0, "lon": -77.1289945, "is_reserved": 0}, {"bike_id": "0132e9a222f5b2d97900fbe7e400250d", "fusion_lon": 0.0, "type": "electric_scooter", "name": "0132e9a222f5b2d97900fbe7e400250d", "rental_uris": {"android": "https://dc.lft.to/lastmile_qr_scan", "ios": "https://dc.lft.to/lastmile_qr_scan"}, "fusion_lat": 0.0, "lat": 38.942856, "is_disabled": 0, "lon": -77.02936416666667, "is_reserved": 0}, {"bike_id": "c1cf8069c3fae93b6475b20820422cb2", "fusion_lon": 0.0, "type": "electric_scooter", "name": "c1cf8069c3fae93b6475b20820422cb2", "rental_uris": {"android": "https://dc.lft.to/lastmile_qr_scan", "ios": "https://dc.lft.to/lastmile_qr_scan"}, "fusion_lat": 0.0, "lat": 38.87534733333333, "is_disabled": 0, "lon": -77.00549883333333, "is_reserved": 0}, {"bike_id": "8de58f2b05dc4881d47921b6809ce550", "fusion_lon": 0.0, "type": "electric_scooter", "name": "8de58f2b05dc4881d47921b6809ce550", "rental_uris": {"android": "https://dc.lft.to/lastmile_qr_scan", "ios": "https://dc.lft.to/lastmile_qr_scan"}, "fusion_lat": 0.0, "lat": 38.93121033333333, "is_disabled": 0, "lon": -77.02403933333333, "is_reserved": 0}, {"bike_id": "82dcd10edcaca479be280f39990e07ac", "fusion_lon": 0.0, "type": "electric_bike", "name": "82dcd10edcaca479be280f39990e07ac", "rental_uris": {"android": "https://dc.lft.to/lastmile_qr_scan", "ios": "https://dc.lft.to/lastmile_qr_scan"}, "fusion_lat": 0.0, "lat": 38.960239666666666, "is_disabled": 0, "lon": -77.0199765, "is_reserved": 0}, {"bike_id": "1f4d6f2ee741b70d52b19974914a1bac", "fusion_lon": 0.0, "type": "electric_bike", "name": "1f4d6f2ee741b70d52b19974914a1bac", "rental_uris": {"android": "https://dc.lft.to/lastmile_qr_scan", "ios": "https://dc.lft.to/lastmile_qr_scan"}, "fusion_lat": 0.0, "lat": 38.95006933333333, "is_disabled": 0, "lon": -77.353105, "is_reserved": 0}, {"bike_id": "3f55b3cf3382e75c85349ec398d8ae39", "fusion_lon": 0.0, "type": "electric_scooter", "name": "3f55b3cf3382e75c85349ec398d8ae39", "rental_uris": {"android": "https://dc.lft.to/lastmile_qr_scan", "ios": "https://dc.lft.to/lastmile_qr_scan"}, "fusion_lat": 0.0, "lat": 38.87122633333333, "is_disabled": 0, "lon": -77.0075615, "is_reserved": 0}, {"bike_id": "3b58fca152d194164f3acaa29c221c7d", "fusion_lon": 0.0, "type": "electric_scooter", "name": "3b58fca152d194164f3acaa29c221c7d", "rental_uris": {"android": "https://dc.lft.to/lastmile_qr_scan", "ios": "https://dc.lft.to/lastmile_qr_scan"}, "fusion_lat": 0.0, "lat": 38.951398833333336, "is_disabled": 0, "lon": -77.02725433333333, "is_reserved": 0}, {"bike_id": "2e5c3103fc6599de1a770ffadf3d8b18", "fusion_lon": 0.0, "type": "electric_scooter", "name": "2e5c3103fc6599de1a770ffadf3d8b18", "rental_uris": {"android": "https://dc.lft.to/lastmile_qr_scan", "ios": "https://dc.lft.to/lastmile_qr_scan"}, "fusion_lat": 0.0, "lat": 38.923186, "is_disabled": 0, "lon": -77.054276, "is_reserved": 0}, {"bike_id": "66378a86f8db2a11a07e9d49a68e9c0e", "fusion_lon": 0.0, "type": "electric_scooter", "name": "66378a86f8db2a11a07e9d49a68e9c0e", "rental_uris": {"android": "https://dc.lft.to/lastmile_qr_scan", "ios": "https://dc.lft.to/lastmile_qr_scan"}, "fusion_lat": 0.0, "lat": 38.920198, "is_disabled": 0, "lon": -77.03982933333333, "is_reserved": 0}, {"bike_id": "191a864839776ed94b92b1f6df27a162", "fusion_lon": 0.0, "type": "electric_scooter", "name": "191a864839776ed94b92b1f6df27a162", "rental_uris": {"android": "https://dc.lft.to/lastmile_qr_scan", "ios": "https://dc.lft.to/lastmile_qr_scan"}, "fusion_lat": 0.0, "lat": 38.915299, "is_disabled": 0, "lon": -77.01972633333334, "is_reserved": 0}, {"bike_id": "e2b405b3abc6368a0a2ddc07e7067092", "fusion_lon": 0.0, "type": "electric_scooter", "name": "e2b405b3abc6368a0a2ddc07e7067092", "rental_uris": {"android": "https://dc.lft.to/lastmile_qr_scan", "ios": "https://dc.lft.to/lastmile_qr_scan"}, "fusion_lat": 0.0, "lat": 38.896083833333336, "is_disabled": 0, "lon": -77.00927416666667, "is_reserved": 0}, {"bike_id": "e6fd41794632f2d3a4a4b136a601ef36", "fusion_lon": 0.0, "type": "electric_scooter", "name": "e6fd41794632f2d3a4a4b136a601ef36", "rental_uris": {"android": "https://dc.lft.to/lastmile_qr_scan", "ios": "https://dc.lft.to/lastmile_qr_scan"}, "fusion_lat": 0.0, "lat": 38.902706333333334, "is_disabled": 0, "lon": -77.03449433333333, "is_reserved": 0}, {"bike_id": "147a682d03c2004b5edf11c4b09934fc", "fusion_lon": 0.0, "type": "electric_scooter", "name": "147a682d03c2004b5edf11c4b09934fc", "rental_uris": {"android": "https://dc.lft.to/lastmile_qr_scan", "ios": "https://dc.lft.to/lastmile_qr_scan"}, "fusion_lat": 0.0, "lat": 38.910317666666664, "is_disabled": 0, "lon": -77.03132833333333, "is_reserved": 0}, {"bike_id": "aee4a4cd2b87047c4e813db383feb6a1", "fusion_lon": 0.0, "type": "electric_scooter", "name": "aee4a4cd2b87047c4e813db383feb6a1", "rental_uris": {"android": "https://dc.lft.to/lastmile_qr_scan", "ios": "https://dc.lft.to/lastmile_qr_scan"}, "fusion_lat": 0.0, "lat": 38.91641083333333, "is_disabled": 0, "lon": -77.02272183333334, "is_reserved": 0}, {"bike_id": "2d9106e481ab95ea255738c649e085b7", "fusion_lon": 0.0, "type": "electric_scooter", "name": "2d9106e481ab95ea255738c649e085b7", "rental_uris": {"android": "https://dc.lft.to/lastmile_qr_scan", "ios": "https://dc.lft.to/lastmile_qr_scan"}, "fusion_lat": 0.0, "lat": 38.844272833333335, "is_disabled": 0, "lon": -76.998249, "is_reserved": 0}, {"bike_id": "74f50444b562ed5e2abe6676bcedf3b0", "fusion_lon": 0.0, "type": "electric_scooter", "name": "74f50444b562ed5e2abe6676bcedf3b0", "rental_uris": {"android": "https://dc.lft.to/lastmile_qr_scan", "ios": "https://dc.lft.to/lastmile_qr_scan"}, "fusion_lat": 0.0, "lat": 38.93111116666667, "is_disabled": 0, "lon": -77.03811033333334, "is_reserved": 0}, {"bike_id": "29ce04be2a99a3ce1cc2a71ecee302bb", "fusion_lon": 0.0, "type": "electric_bike", "name": "29ce04be2a99a3ce1cc2a71ecee302bb", "rental_uris": {"android": "https://dc.lft.to/lastmile_qr_scan", "ios": "https://dc.lft.to/lastmile_qr_scan"}, "fusion_lat": 0.0, "lat": 38.951248, "is_disabled": 0, "lon": -76.96543016666666, "is_reserved": 0}, {"bike_id": "3997cfe3ba221a416bf93d8496f7bc82", "fusion_lon": 0.0, "type": "electric_bike", "name": "3997cfe3ba221a416bf93d8496f7bc82", "rental_uris": {"android": "https://dc.lft.to/lastmile_qr_scan", "ios": "https://dc.lft.to/lastmile_qr_scan"}, "fusion_lat": 0.0, "lat": 39.05812616666667, "is_disabled": 0, "lon": -77.12624666666666, "is_reserved": 0}, {"bike_id": "6713df80960380ecfa6bcf6b15850cfe", "fusion_lon": 0.0, "type": "electric_scooter", "name": "6713df80960380ecfa6bcf6b15850cfe", "rental_uris": {"android": "https://dc.lft.to/lastmile_qr_scan", "ios": "https://dc.lft.to/lastmile_qr_scan"}, "fusion_lat": 0.0, "lat": 38.97372883333333, "is_disabled": 0, "lon": -77.01864033333334, "is_reserved": 0}, {"bike_id": "446d753479eb5cab473b02c961cd2bdf", "fusion_lon": 0.0, "type": "electric_scooter", "name": "446d753479eb5cab473b02c961cd2bdf", "rental_uris": {"android": "https://dc.lft.to/lastmile_qr_scan", "ios": "https://dc.lft.to/lastmile_qr_scan"}, "fusion_lat": 0.0, "lat": 38.955949833333335, "is_disabled": 0, "lon": -77.03649466666667, "is_reserved": 0}, {"bike_id": "2f9a2146b26eff5aa07349ed370bfe1c", "fusion_lon": 0.0, "type": "electric_bike", "name": "2f9a2146b26eff5aa07349ed370bfe1c", "rental_uris": {"android": "https://dc.lft.to/lastmile_qr_scan", "ios": "https://dc.lft.to/lastmile_qr_scan"}, "fusion_lat": 0.0, "lat": 38.85795566666667, "is_disabled": 0, "lon": -76.98742, "is_reserved": 0}, {"bike_id": "d426de198f2dbe82a25953f33018a260", "fusion_lon": 0.0, "type": "electric_scooter", "name": "d426de198f2dbe82a25953f33018a260", "rental_uris": {"android": "https://dc.lft.to/lastmile_qr_scan", "ios": "https://dc.lft.to/lastmile_qr_scan"}, "fusion_lat": 0.0, "lat": 38.903744, "is_disabled": 0, "lon": -77.04027716666667, "is_reserved": 0}, {"bike_id": "ebcbf2d22af1ac765195a8cb7ecb8e22", "fusion_lon": 0.0, "type": "electric_scooter", "name": "ebcbf2d22af1ac765195a8cb7ecb8e22", "rental_uris": {"android": "https://dc.lft.to/lastmile_qr_scan", "ios": "https://dc.lft.to/lastmile_qr_scan"}, "fusion_lat": 0.0, "lat": 38.9064315, "is_disabled": 0, "lon": -77.053217, "is_reserved": 0}, {"bike_id": "0a65f3405717da814682982e2ffa004c", "fusion_lon": 0.0, "type": "electric_scooter", "name": "0a65f3405717da814682982e2ffa004c", "rental_uris": {"android": "https://dc.lft.to/lastmile_qr_scan", "ios": "https://dc.lft.to/lastmile_qr_scan"}, "fusion_lat": 0.0, "lat": 38.89221, "is_disabled": 0, "lon": -77.02960133333333, "is_reserved": 0}, {"bike_id": "3c67af2af63f21bf7864e1b07efc336a", "fusion_lon": 0.0, "type": "electric_bike", "name": "3c67af2af63f21bf7864e1b07efc336a", "rental_uris": {"android": "https://dc.lft.to/lastmile_qr_scan", "ios": "https://dc.lft.to/lastmile_qr_scan"}, "fusion_lat": 0.0, "lat": 38.92217, "is_disabled": 0, "lon": -76.98795583333333, "is_reserved": 0}, {"bike_id": "eca47476e162ad56983bfc0f0b8a706a", "fusion_lon": 0.0, "type": "electric_scooter", "name": "eca47476e162ad56983bfc0f0b8a706a", "rental_uris": {"android": "https://dc.lft.to/lastmile_qr_scan", "ios": "https://dc.lft.to/lastmile_qr_scan"}, "fusion_lat": 0.0, "lat": 38.90032166666667, "is_disabled": 0, "lon": -76.98774533333334, "is_reserved": 0}, {"bike_id": "424a44e60b141c82903a3f142b995cc3", "fusion_lon": 0.0, "type": "electric_scooter", "name": "424a44e60b141c82903a3f142b995cc3", "rental_uris": {"android": "https://dc.lft.to/lastmile_qr_scan", "ios": "https://dc.lft.to/lastmile_qr_scan"}, "fusion_lat": 0.0, "lat": 38.90018516666667, "is_disabled": 0, "lon": -76.97743733333333, "is_reserved": 0}, {"bike_id": "916a8d32743461e922e73ec0e69c35ad", "fusion_lon": 0.0, "type": "electric_bike", "name": "916a8d32743461e922e73ec0e69c35ad", "rental_uris": {"android": "https://dc.lft.to/lastmile_qr_scan", "ios": "https://dc.lft.to/lastmile_qr_scan"}, "fusion_lat": 0.0, "lat": 38.88964683333333, "is_disabled": 0, "lon": -76.948723, "is_reserved": 0}, {"bike_id": "bb2c15e772a246e52854b15301b7191d", "fusion_lon": 0.0, "type": "electric_bike", "name": "bb2c15e772a246e52854b15301b7191d", "rental_uris": {"android": "https://dc.lft.to/lastmile_qr_scan", "ios": "https://dc.lft.to/lastmile_qr_scan"}, "fusion_lat": 0.0, "lat": 38.99234233333333, "is_disabled": 0, "lon": -76.87819, "is_reserved": 0}, {"bike_id": "9545c5d3d8e97fa9af02f4b597c5b789", "fusion_lon": 0.0, "type": "electric_scooter", "name": "9545c5d3d8e97fa9af02f4b597c5b789", "rental_uris": {"android": "https://dc.lft.to/lastmile_qr_scan", "ios": "https://dc.lft.to/lastmile_qr_scan"}, "fusion_lat": 0.0, "lat": 38.90001633333333, "is_disabled": 0, "lon": -77.0201465, "is_reserved": 0}, {"bike_id": "80922697b65ccf74ae135d7d24d95314", "fusion_lon": 0.0, "type": "electric_bike", "name": "80922697b65ccf74ae135d7d24d95314", "rental_uris": {"android": "https://dc.lft.to/lastmile_qr_scan", "ios": "https://dc.lft.to/lastmile_qr_scan"}, "fusion_lat": 0.0, "lat": 38.85528383333333, "is_disabled": 0, "lon": -77.10720533333334, "is_reserved": 0}, {"bike_id": "ce63a9b95efdd69ee8ad44fde00dd421", "fusion_lon": 0.0, "type": "electric_scooter", "name": "ce63a9b95efdd69ee8ad44fde00dd421", "rental_uris": {"android": "https://dc.lft.to/lastmile_qr_scan", "ios": "https://dc.lft.to/lastmile_qr_scan"}, "fusion_lat": 0.0, "lat": 38.9263865, "is_disabled": 0, "lon": -77.0379015, "is_reserved": 0}, {"bike_id": "587e1bf37335749dcf1ff83bc847cedb", "fusion_lon": 0.0, "type": "electric_bike", "name": "587e1bf37335749dcf1ff83bc847cedb", "rental_uris": {"android": "https://dc.lft.to/lastmile_qr_scan", "ios": "https://dc.lft.to/lastmile_qr_scan"}, "fusion_lat": 0.0, "lat": 38.925103166666666, "is_disabled": 0, "lon": -76.9822685, "is_reserved": 0}, {"bike_id": "0b8641e12f41d96c6d94ff3bba198185", "fusion_lon": 0.0, "type": "electric_scooter", "name": "0b8641e12f41d96c6d94ff3bba198185", "rental_uris": {"android": "https://dc.lft.to/lastmile_qr_scan", "ios": "https://dc.lft.to/lastmile_qr_scan"}, "fusion_lat": 0.0, "lat": 38.90042566666666, "is_disabled": 0, "lon": -76.98174683333333, "is_reserved": 0}, {"bike_id": "7faf0b3f89d81032b959badc9e2c2773", "fusion_lon": 0.0, "type": "electric_scooter", "name": "7faf0b3f89d81032b959badc9e2c2773", "rental_uris": {"android": "https://dc.lft.to/lastmile_qr_scan", "ios": "https://dc.lft.to/lastmile_qr_scan"}, "fusion_lat": 0.0, "lat": 38.899152666666666, "is_disabled": 0, "lon": -77.05532216666667, "is_reserved": 0}, {"bike_id": "14356458f49e86345b98d9cdb3c401e7", "fusion_lon": 0.0, "type": "electric_scooter", "name": "14356458f49e86345b98d9cdb3c401e7", "rental_uris": {"android": "https://dc.lft.to/lastmile_qr_scan", "ios": "https://dc.lft.to/lastmile_qr_scan"}, "fusion_lat": 0.0, "lat": 38.88367816666667, "is_disabled": 0, "lon": -77.02565733333333, "is_reserved": 0}, {"bike_id": "6c4b1bd9b67469064cd2a2d1793463db", "fusion_lon": 0.0, "type": "electric_scooter", "name": "6c4b1bd9b67469064cd2a2d1793463db", "rental_uris": {"android": "https://dc.lft.to/lastmile_qr_scan", "ios": "https://dc.lft.to/lastmile_qr_scan"}, "fusion_lat": 0.0, "lat": 38.87910983333333, "is_disabled": 0, "lon": -76.9913945, "is_reserved": 0}, {"bike_id": "36c7d3d534a49fce54ff0cab4c852755", "fusion_lon": 0.0, "type": "electric_scooter", "name": "36c7d3d534a49fce54ff0cab4c852755", "rental_uris": {"android": "https://dc.lft.to/lastmile_qr_scan", "ios": "https://dc.lft.to/lastmile_qr_scan"}, "fusion_lat": 0.0, "lat": 38.92953883333333, "is_disabled": 0, "lon": -77.03412116666667, "is_reserved": 0}, {"bike_id": "a9c94b4d61af433f5befd838b97f791c", "fusion_lon": 0.0, "type": "electric_scooter", "name": "a9c94b4d61af433f5befd838b97f791c", "rental_uris": {"android": "https://dc.lft.to/lastmile_qr_scan", "ios": "https://dc.lft.to/lastmile_qr_scan"}, "fusion_lat": 0.0, "lat": 38.9166115, "is_disabled": 0, "lon": -77.01919416666667, "is_reserved": 0}, {"bike_id": "4916e8fadfbd3756c157a44dd8e78556", "fusion_lon": 0.0, "type": "electric_scooter", "name": "4916e8fadfbd3756c157a44dd8e78556", "rental_uris": {"android": "https://dc.lft.to/lastmile_qr_scan", "ios": "https://dc.lft.to/lastmile_qr_scan"}, "fusion_lat": 0.0, "lat": 38.907273333333336, "is_disabled": 0, "lon": -77.04283316666667, "is_reserved": 0}, {"bike_id": "a62ea9475fc5b1f2e40e5b61fd93f88e", "fusion_lon": 0.0, "type": "electric_scooter", "name": "a62ea9475fc5b1f2e40e5b61fd93f88e", "rental_uris": {"android": "https://dc.lft.to/lastmile_qr_scan", "ios": "https://dc.lft.to/lastmile_qr_scan"}, "fusion_lat": 0.0, "lat": 38.9111185, "is_disabled": 0, "lon": -77.04811833333333, "is_reserved": 0}, {"bike_id": "13fc3996370403f67730aa5de46c18a4", "fusion_lon": 0.0, "type": "electric_scooter", "name": "13fc3996370403f67730aa5de46c18a4", "rental_uris": {"android": "https://dc.lft.to/lastmile_qr_scan", "ios": "https://dc.lft.to/lastmile_qr_scan"}, "fusion_lat": 0.0, "lat": 38.92272766666667, "is_disabled": 0, "lon": -77.02964783333333, "is_reserved": 0}, {"bike_id": "e4830409637128cc73639c494eb89d3e", "fusion_lon": 0.0, "type": "electric_scooter", "name": "e4830409637128cc73639c494eb89d3e", "rental_uris": {"android": "https://dc.lft.to/lastmile_qr_scan", "ios": "https://dc.lft.to/lastmile_qr_scan"}, "fusion_lat": 0.0, "lat": 38.915859166666664, "is_disabled": 0, "lon": -77.04681083333334, "is_reserved": 0}, {"bike_id": "6b26f8f2bc95e02369e5785189a883f3", "fusion_lon": 0.0, "type": "electric_scooter", "name": "6b26f8f2bc95e02369e5785189a883f3", "rental_uris": {"android": "https://dc.lft.to/lastmile_qr_scan", "ios": "https://dc.lft.to/lastmile_qr_scan"}, "fusion_lat": 0.0, "lat": 38.90562466666667, "is_disabled": 0, "lon": -77.02421066666666, "is_reserved": 0}, {"bike_id": "91b615e4d66e9eea341a3d7b042f0006", "fusion_lon": 0.0, "type": "electric_scooter", "name": "91b615e4d66e9eea341a3d7b042f0006", "rental_uris": {"android": "https://dc.lft.to/lastmile_qr_scan", "ios": "https://dc.lft.to/lastmile_qr_scan"}, "fusion_lat": 0.0, "lat": 38.909696333333336, "is_disabled": 0, "lon": -77.02411766666667, "is_reserved": 0}, {"bike_id": "25cf096091721e7f55532f18941ec0e4", "fusion_lon": 0.0, "type": "electric_bike", "name": "25cf096091721e7f55532f18941ec0e4", "rental_uris": {"android": "https://dc.lft.to/lastmile_qr_scan", "ios": "https://dc.lft.to/lastmile_qr_scan"}, "fusion_lat": 0.0, "lat": 38.86915166666667, "is_disabled": 0, "lon": -77.131765, "is_reserved": 0}, {"bike_id": "ee1593da89be17e05c65c4cc06ca044c", "fusion_lon": 0.0, "type": "electric_bike", "name": "ee1593da89be17e05c65c4cc06ca044c", "rental_uris": {"android": "https://dc.lft.to/lastmile_qr_scan", "ios": "https://dc.lft.to/lastmile_qr_scan"}, "fusion_lat": 0.0, "lat": 38.99671333333333, "is_disabled": 0, "lon": -77.03762483333334, "is_reserved": 0}, {"bike_id": "29af3016711f04222b6499865944a8c7", "fusion_lon": 0.0, "type": "electric_scooter", "name": "29af3016711f04222b6499865944a8c7", "rental_uris": {"android": "https://dc.lft.to/lastmile_qr_scan", "ios": "https://dc.lft.to/lastmile_qr_scan"}, "fusion_lat": 0.0, "lat": 38.880468, "is_disabled": 0, "lon": -77.0306575, "is_reserved": 0}, {"bike_id": "de255e27f43a2b8d92025d4b7fd8c281", "fusion_lon": 0.0, "type": "electric_scooter", "name": "de255e27f43a2b8d92025d4b7fd8c281", "rental_uris": {"android": "https://dc.lft.to/lastmile_qr_scan", "ios": "https://dc.lft.to/lastmile_qr_scan"}, "fusion_lat": 0.0, "lat": 38.88194383333333, "is_disabled": 0, "lon": -77.0035415, "is_reserved": 0}, {"bike_id": "bb5f15869029109330f5b93782605281", "fusion_lon": 0.0, "type": "electric_scooter", "name": "bb5f15869029109330f5b93782605281", "rental_uris": {"android": "https://dc.lft.to/lastmile_qr_scan", "ios": "https://dc.lft.to/lastmile_qr_scan"}, "fusion_lat": 0.0, "lat": 38.89445533333333, "is_disabled": 0, "lon": -76.94776566666667, "is_reserved": 0}, {"bike_id": "47bcfcd136bbb19f8958b90ae66fcab4", "fusion_lon": 0.0, "type": "electric_bike", "name": "47bcfcd136bbb19f8958b90ae66fcab4", "rental_uris": {"android": "https://dc.lft.to/lastmile_qr_scan", "ios": "https://dc.lft.to/lastmile_qr_scan"}, "fusion_lat": 0.0, "lat": 38.82878016666667, "is_disabled": 0, "lon": -77.1122125, "is_reserved": 0}, {"bike_id": "e47e5eb0c4d1e0036bf56786f1bc6831", "fusion_lon": 0.0, "type": "electric_scooter", "name": "e47e5eb0c4d1e0036bf56786f1bc6831", "rental_uris": {"android": "https://dc.lft.to/lastmile_qr_scan", "ios": "https://dc.lft.to/lastmile_qr_scan"}, "fusion_lat": 0.0, "lat": 38.898836, "is_disabled": 0, "lon": -76.9315885, "is_reserved": 0}, {"bike_id": "c66c7c1673202f10cf25206cdf8e69ce", "fusion_lon": 0.0, "type": "electric_scooter", "name": "c66c7c1673202f10cf25206cdf8e69ce", "rental_uris": {"android": "https://dc.lft.to/lastmile_qr_scan", "ios": "https://dc.lft.to/lastmile_qr_scan"}, "fusion_lat": 0.0, "lat": 38.8803835, "is_disabled": 0, "lon": -76.99626066666667, "is_reserved": 0}, {"bike_id": "3af9288d8a3fe3ce3379620070429e03", "fusion_lon": 0.0, "type": "electric_scooter", "name": "3af9288d8a3fe3ce3379620070429e03", "rental_uris": {"android": "https://dc.lft.to/lastmile_qr_scan", "ios": "https://dc.lft.to/lastmile_qr_scan"}, "fusion_lat": 0.0, "lat": 38.918461666666666, "is_disabled": 0, "lon": -76.965554, "is_reserved": 0}, {"bike_id": "ea6216747d88df7bbc272e17c918fe09", "fusion_lon": 0.0, "type": "electric_scooter", "name": "ea6216747d88df7bbc272e17c918fe09", "rental_uris": {"android": "https://dc.lft.to/lastmile_qr_scan", "ios": "https://dc.lft.to/lastmile_qr_scan"}, "fusion_lat": 0.0, "lat": 38.89852, "is_disabled": 0, "lon": -77.03332916666666, "is_reserved": 0}, {"bike_id": "2af82f324fed9151a096fb6b3171a127", "fusion_lon": 0.0, "type": "electric_scooter", "name": "2af82f324fed9151a096fb6b3171a127", "rental_uris": {"android": "https://dc.lft.to/lastmile_qr_scan", "ios": "https://dc.lft.to/lastmile_qr_scan"}, "fusion_lat": 0.0, "lat": 38.91572083333333, "is_disabled": 0, "lon": -77.03132766666667, "is_reserved": 0}, {"bike_id": "de620726bb2595c32230dfd1d31b7041", "fusion_lon": 0.0, "type": "electric_bike", "name": "de620726bb2595c32230dfd1d31b7041", "rental_uris": {"android": "https://dc.lft.to/lastmile_qr_scan", "ios": "https://dc.lft.to/lastmile_qr_scan"}, "fusion_lat": 0.0, "lat": 38.9909515, "is_disabled": 0, "lon": -76.87493283333333, "is_reserved": 0}, {"bike_id": "d1884f30415967701dc180adbceacb75", "fusion_lon": 0.0, "type": "electric_scooter", "name": "d1884f30415967701dc180adbceacb75", "rental_uris": {"android": "https://dc.lft.to/lastmile_qr_scan", "ios": "https://dc.lft.to/lastmile_qr_scan"}, "fusion_lat": 0.0, "lat": 38.9214265, "is_disabled": 0, "lon": -77.00956133333334, "is_reserved": 0}, {"bike_id": "0283e2d949ebc09fc286e76ccc22162b", "fusion_lon": 0.0, "type": "electric_scooter", "name": "0283e2d949ebc09fc286e76ccc22162b", "rental_uris": {"android": "https://dc.lft.to/lastmile_qr_scan", "ios": "https://dc.lft.to/lastmile_qr_scan"}, "fusion_lat": 0.0, "lat": 38.957110166666666, "is_disabled": 0, "lon": -77.02398816666667, "is_reserved": 0}, {"bike_id": "a8ba8aba7137ab5a62c4b9f1d893ec44", "fusion_lon": 0.0, "type": "electric_scooter", "name": "a8ba8aba7137ab5a62c4b9f1d893ec44", "rental_uris": {"android": "https://dc.lft.to/lastmile_qr_scan", "ios": "https://dc.lft.to/lastmile_qr_scan"}, "fusion_lat": 0.0, "lat": 38.86357, "is_disabled": 0, "lon": -76.99088216666667, "is_reserved": 0}, {"bike_id": "f840ff47b9a9d5e06956744044fa50f3", "fusion_lon": 0.0, "type": "electric_scooter", "name": "f840ff47b9a9d5e06956744044fa50f3", "rental_uris": {"android": "https://dc.lft.to/lastmile_qr_scan", "ios": "https://dc.lft.to/lastmile_qr_scan"}, "fusion_lat": 0.0, "lat": 38.8874555, "is_disabled": 0, "lon": -77.02827733333334, "is_reserved": 0}, {"bike_id": "3a9997edc123b9970aa54c5b2d2e8df0", "fusion_lon": 0.0, "type": "electric_scooter", "name": "3a9997edc123b9970aa54c5b2d2e8df0", "rental_uris": {"android": "https://dc.lft.to/lastmile_qr_scan", "ios": "https://dc.lft.to/lastmile_qr_scan"}, "fusion_lat": 0.0, "lat": 38.93988133333333, "is_disabled": 0, "lon": -77.0270395, "is_reserved": 0}, {"bike_id": "b427c911f6ff1ebd66448dd1aaeedb5c", "fusion_lon": 0.0, "type": "electric_bike", "name": "b427c911f6ff1ebd66448dd1aaeedb5c", "rental_uris": {"android": "https://dc.lft.to/lastmile_qr_scan", "ios": "https://dc.lft.to/lastmile_qr_scan"}, "fusion_lat": 0.0, "lat": 38.9354105, "is_disabled": 0, "lon": -77.0521375, "is_reserved": 0}, {"bike_id": "abce11ea4bfc10ed6e4c96d12128707f", "fusion_lon": 0.0, "type": "electric_scooter", "name": "abce11ea4bfc10ed6e4c96d12128707f", "rental_uris": {"android": "https://dc.lft.to/lastmile_qr_scan", "ios": "https://dc.lft.to/lastmile_qr_scan"}, "fusion_lat": 0.0, "lat": 38.91994283333333, "is_disabled": 0, "lon": -77.07187216666667, "is_reserved": 0}, {"bike_id": "5f8dd9589cc709fa2e1b1806abd917ae", "fusion_lon": 0.0, "type": "electric_scooter", "name": "5f8dd9589cc709fa2e1b1806abd917ae", "rental_uris": {"android": "https://dc.lft.to/lastmile_qr_scan", "ios": "https://dc.lft.to/lastmile_qr_scan"}, "fusion_lat": 0.0, "lat": 38.90218483333334, "is_disabled": 0, "lon": -77.02046683333333, "is_reserved": 0}, {"bike_id": "2bf2cb5b4feaabc4188e0e978ab4bfdd", "fusion_lon": 0.0, "type": "electric_scooter", "name": "2bf2cb5b4feaabc4188e0e978ab4bfdd", "rental_uris": {"android": "https://dc.lft.to/lastmile_qr_scan", "ios": "https://dc.lft.to/lastmile_qr_scan"}, "fusion_lat": 0.0, "lat": 38.93592066666667, "is_disabled": 0, "lon": -77.0353235, "is_reserved": 0}, {"bike_id": "0b771e55d31a82f9b27ca154392c46fb", "fusion_lon": 0.0, "type": "electric_scooter", "name": "0b771e55d31a82f9b27ca154392c46fb", "rental_uris": {"android": "https://dc.lft.to/lastmile_qr_scan", "ios": "https://dc.lft.to/lastmile_qr_scan"}, "fusion_lat": 0.0, "lat": 38.90039316666667, "is_disabled": 0, "lon": -76.99365266666666, "is_reserved": 0}, {"bike_id": "2d84f0fe01926481fe9611259fd1ff2e", "fusion_lon": 0.0, "type": "electric_scooter", "name": "2d84f0fe01926481fe9611259fd1ff2e", "rental_uris": {"android": "https://dc.lft.to/lastmile_qr_scan", "ios": "https://dc.lft.to/lastmile_qr_scan"}, "fusion_lat": 0.0, "lat": 38.929974333333334, "is_disabled": 0, "lon": -77.032438, "is_reserved": 0}, {"bike_id": "7162f81e1af03a9ff41c8cf03892ba48", "fusion_lon": 0.0, "type": "electric_scooter", "name": "7162f81e1af03a9ff41c8cf03892ba48", "rental_uris": {"android": "https://dc.lft.to/lastmile_qr_scan", "ios": "https://dc.lft.to/lastmile_qr_scan"}, "fusion_lat": 0.0, "lat": 38.853230333333336, "is_disabled": 0, "lon": -76.980015, "is_reserved": 0}, {"bike_id": "0943bdcc7b887edf11479ebb95bbcbaa", "fusion_lon": 0.0, "type": "electric_bike", "name": "0943bdcc7b887edf11479ebb95bbcbaa", "rental_uris": {"android": "https://dc.lft.to/lastmile_qr_scan", "ios": "https://dc.lft.to/lastmile_qr_scan"}, "fusion_lat": 0.0, "lat": 38.824527833333335, "is_disabled": 0, "lon": -77.07043833333333, "is_reserved": 0}, {"bike_id": "4dbb0ce0b94394d5baf58eea93e56493", "fusion_lon": 0.0, "type": "electric_bike", "name": "4dbb0ce0b94394d5baf58eea93e56493", "rental_uris": {"android": "https://dc.lft.to/lastmile_qr_scan", "ios": "https://dc.lft.to/lastmile_qr_scan"}, "fusion_lat": 0.0, "lat": 38.799928666666666, "is_disabled": 0, "lon": -77.12984866666666, "is_reserved": 0}, {"bike_id": "af47519385491fe160a6e2cd72525de3", "fusion_lon": 0.0, "type": "electric_bike", "name": "af47519385491fe160a6e2cd72525de3", "rental_uris": {"android": "https://dc.lft.to/lastmile_qr_scan", "ios": "https://dc.lft.to/lastmile_qr_scan"}, "fusion_lat": 0.0, "lat": 38.87979283333333, "is_disabled": 0, "lon": -76.91602266666666, "is_reserved": 0}, {"bike_id": "004e5a03b80eefc5f866dc73d91eb850", "fusion_lon": 0.0, "type": "electric_scooter", "name": "004e5a03b80eefc5f866dc73d91eb850", "rental_uris": {"android": "https://dc.lft.to/lastmile_qr_scan", "ios": "https://dc.lft.to/lastmile_qr_scan"}, "fusion_lat": 0.0, "lat": 38.92049083333333, "is_disabled": 0, "lon": -77.03390933333333, "is_reserved": 0}, {"bike_id": "769966550bbd1f232118f7dc7dd0ffbe", "fusion_lon": 0.0, "type": "electric_scooter", "name": "769966550bbd1f232118f7dc7dd0ffbe", "rental_uris": {"android": "https://dc.lft.to/lastmile_qr_scan", "ios": "https://dc.lft.to/lastmile_qr_scan"}, "fusion_lat": 0.0, "lat": 38.896845, "is_disabled": 0, "lon": -76.94717816666666, "is_reserved": 0}, {"bike_id": "af5794ae589c45047a8951a5be8f0379", "fusion_lon": 0.0, "type": "electric_scooter", "name": "af5794ae589c45047a8951a5be8f0379", "rental_uris": {"android": "https://dc.lft.to/lastmile_qr_scan", "ios": "https://dc.lft.to/lastmile_qr_scan"}, "fusion_lat": 0.0, "lat": 38.905380666666666, "is_disabled": 0, "lon": -77.01696233333334, "is_reserved": 0}, {"bike_id": "38371e5d8026869378f6585b7963e57f", "fusion_lon": 0.0, "type": "electric_bike", "name": "38371e5d8026869378f6585b7963e57f", "rental_uris": {"android": "https://dc.lft.to/lastmile_qr_scan", "ios": "https://dc.lft.to/lastmile_qr_scan"}, "fusion_lat": 0.0, "lat": 38.865377, "is_disabled": 0, "lon": -77.12813966666667, "is_reserved": 0}, {"bike_id": "d90d4a0dde2f2a47b6147393ccdeaa1b", "fusion_lon": 0.0, "type": "electric_scooter", "name": "d90d4a0dde2f2a47b6147393ccdeaa1b", "rental_uris": {"android": "https://dc.lft.to/lastmile_qr_scan", "ios": "https://dc.lft.to/lastmile_qr_scan"}, "fusion_lat": 0.0, "lat": 38.9057065, "is_disabled": 0, "lon": -77.039958, "is_reserved": 0}, {"bike_id": "33648be463f500c3b8f9a7e95850dabd", "fusion_lon": 0.0, "type": "electric_scooter", "name": "33648be463f500c3b8f9a7e95850dabd", "rental_uris": {"android": "https://dc.lft.to/lastmile_qr_scan", "ios": "https://dc.lft.to/lastmile_qr_scan"}, "fusion_lat": 0.0, "lat": 38.9403215, "is_disabled": 0, "lon": -77.06889216666667, "is_reserved": 0}, {"bike_id": "9c2a6c50736b062a1aa9f4d610f5e1c9", "fusion_lon": 0.0, "type": "electric_scooter", "name": "9c2a6c50736b062a1aa9f4d610f5e1c9", "rental_uris": {"android": "https://dc.lft.to/lastmile_qr_scan", "ios": "https://dc.lft.to/lastmile_qr_scan"}, "fusion_lat": 0.0, "lat": 38.92907916666667, "is_disabled": 0, "lon": -77.06391616666667, "is_reserved": 0}, {"bike_id": "0fa074d2e70d091225a6d56d051e93f6", "fusion_lon": 0.0, "type": "electric_bike", "name": "0fa074d2e70d091225a6d56d051e93f6", "rental_uris": {"android": "https://dc.lft.to/lastmile_qr_scan", "ios": "https://dc.lft.to/lastmile_qr_scan"}, "fusion_lat": 0.0, "lat": 38.928468333333335, "is_disabled": 0, "lon": -77.02056733333333, "is_reserved": 0}, {"bike_id": "044a4b0cd6c9d0f0ca0a2b22dd5b268f", "fusion_lon": 0.0, "type": "electric_scooter", "name": "044a4b0cd6c9d0f0ca0a2b22dd5b268f", "rental_uris": {"android": "https://dc.lft.to/lastmile_qr_scan", "ios": "https://dc.lft.to/lastmile_qr_scan"}, "fusion_lat": 0.0, "lat": 38.89624216666667, "is_disabled": 0, "lon": -76.999355, "is_reserved": 0}, {"bike_id": "aaa9d72a89d01e23f65878cdf76e30b9", "fusion_lon": 0.0, "type": "electric_scooter", "name": "aaa9d72a89d01e23f65878cdf76e30b9", "rental_uris": {"android": "https://dc.lft.to/lastmile_qr_scan", "ios": "https://dc.lft.to/lastmile_qr_scan"}, "fusion_lat": 0.0, "lat": 38.9027245, "is_disabled": 0, "lon": -77.05432183333333, "is_reserved": 0}, {"bike_id": "e0b393a111c8e543747c5c1052b27016", "fusion_lon": 0.0, "type": "electric_scooter", "name": "e0b393a111c8e543747c5c1052b27016", "rental_uris": {"android": "https://dc.lft.to/lastmile_qr_scan", "ios": "https://dc.lft.to/lastmile_qr_scan"}, "fusion_lat": 0.0, "lat": 38.9159345, "is_disabled": 0, "lon": -77.017124, "is_reserved": 0}, {"bike_id": "82302e5c94b7b7263cf7adeb8deccd01", "fusion_lon": 0.0, "type": "electric_bike", "name": "82302e5c94b7b7263cf7adeb8deccd01", "rental_uris": {"android": "https://dc.lft.to/lastmile_qr_scan", "ios": "https://dc.lft.to/lastmile_qr_scan"}, "fusion_lat": 0.0, "lat": 38.87554216666667, "is_disabled": 0, "lon": -76.9649075, "is_reserved": 0}, {"bike_id": "d8763b1b6181f766241c318e8ff1b5e3", "fusion_lon": 0.0, "type": "electric_scooter", "name": "d8763b1b6181f766241c318e8ff1b5e3", "rental_uris": {"android": "https://dc.lft.to/lastmile_qr_scan", "ios": "https://dc.lft.to/lastmile_qr_scan"}, "fusion_lat": 0.0, "lat": 38.929926333333334, "is_disabled": 0, "lon": -77.023454, "is_reserved": 0}, {"bike_id": "318cb3611aa6e904032771384aaa565a", "fusion_lon": 0.0, "type": "electric_scooter", "name": "318cb3611aa6e904032771384aaa565a", "rental_uris": {"android": "https://dc.lft.to/lastmile_qr_scan", "ios": "https://dc.lft.to/lastmile_qr_scan"}, "fusion_lat": 0.0, "lat": 38.91921633333333, "is_disabled": 0, "lon": -77.03406533333333, "is_reserved": 0}, {"bike_id": "b9937b096ab74ad695e3ff5b9496c507", "fusion_lon": 0.0, "type": "electric_scooter", "name": "b9937b096ab74ad695e3ff5b9496c507", "rental_uris": {"android": "https://dc.lft.to/lastmile_qr_scan", "ios": "https://dc.lft.to/lastmile_qr_scan"}, "fusion_lat": 0.0, "lat": 38.8988045, "is_disabled": 0, "lon": -76.9318445, "is_reserved": 0}, {"bike_id": "779165bf05701a5fe8656834b3aa6626", "fusion_lon": 0.0, "type": "electric_scooter", "name": "779165bf05701a5fe8656834b3aa6626", "rental_uris": {"android": "https://dc.lft.to/lastmile_qr_scan", "ios": "https://dc.lft.to/lastmile_qr_scan"}, "fusion_lat": 0.0, "lat": 38.917140333333336, "is_disabled": 0, "lon": -77.03209933333333, "is_reserved": 0}, {"bike_id": "1b9a4b7549317a9f3a4f3a6114fa6fea", "fusion_lon": 0.0, "type": "electric_scooter", "name": "1b9a4b7549317a9f3a4f3a6114fa6fea", "rental_uris": {"android": "https://dc.lft.to/lastmile_qr_scan", "ios": "https://dc.lft.to/lastmile_qr_scan"}, "fusion_lat": 0.0, "lat": 38.9277665, "is_disabled": 0, "lon": -77.027774, "is_reserved": 0}, {"bike_id": "0c40aef833532922250391d05334abdf", "fusion_lon": 0.0, "type": "electric_bike", "name": "0c40aef833532922250391d05334abdf", "rental_uris": {"android": "https://dc.lft.to/lastmile_qr_scan", "ios": "https://dc.lft.to/lastmile_qr_scan"}, "fusion_lat": 0.0, "lat": 38.936744, "is_disabled": 0, "lon": -76.95207916666666, "is_reserved": 0}, {"bike_id": "93299df0f1f82dd3ce507e7ae5655ca2", "fusion_lon": 0.0, "type": "electric_scooter", "name": "93299df0f1f82dd3ce507e7ae5655ca2", "rental_uris": {"android": "https://dc.lft.to/lastmile_qr_scan", "ios": "https://dc.lft.to/lastmile_qr_scan"}, "fusion_lat": 0.0, "lat": 38.876909166666664, "is_disabled": 0, "lon": -77.01608783333333, "is_reserved": 0}, {"bike_id": "a8cd21de2655e9016edccbd2262d3e0e", "fusion_lon": 0.0, "type": "electric_scooter", "name": "a8cd21de2655e9016edccbd2262d3e0e", "rental_uris": {"android": "https://dc.lft.to/lastmile_qr_scan", "ios": "https://dc.lft.to/lastmile_qr_scan"}, "fusion_lat": 0.0, "lat": 38.90043633333333, "is_disabled": 0, "lon": -76.98834633333334, "is_reserved": 0}, {"bike_id": "eae7354d8077794600b2d9e45e557246", "fusion_lon": 0.0, "type": "electric_scooter", "name": "eae7354d8077794600b2d9e45e557246", "rental_uris": {"android": "https://dc.lft.to/lastmile_qr_scan", "ios": "https://dc.lft.to/lastmile_qr_scan"}, "fusion_lat": 0.0, "lat": 38.904153666666666, "is_disabled": 0, "lon": -77.00131866666666, "is_reserved": 0}, {"bike_id": "92f855632d7ac8ee234f96fd00ebaa41", "fusion_lon": 0.0, "type": "electric_scooter", "name": "92f855632d7ac8ee234f96fd00ebaa41", "rental_uris": {"android": "https://dc.lft.to/lastmile_qr_scan", "ios": "https://dc.lft.to/lastmile_qr_scan"}, "fusion_lat": 0.0, "lat": 38.92381366666667, "is_disabled": 0, "lon": -77.0356185, "is_reserved": 0}, {"bike_id": "d5cc366679342defd885e7915ce62578", "fusion_lon": 0.0, "type": "electric_scooter", "name": "d5cc366679342defd885e7915ce62578", "rental_uris": {"android": "https://dc.lft.to/lastmile_qr_scan", "ios": "https://dc.lft.to/lastmile_qr_scan"}, "fusion_lat": 0.0, "lat": 38.92868633333333, "is_disabled": 0, "lon": -77.01376366666666, "is_reserved": 0}, {"bike_id": "09f602838549a11a295cd4e860de982e", "fusion_lon": 0.0, "type": "electric_scooter", "name": "09f602838549a11a295cd4e860de982e", "rental_uris": {"android": "https://dc.lft.to/lastmile_qr_scan", "ios": "https://dc.lft.to/lastmile_qr_scan"}, "fusion_lat": 0.0, "lat": 38.905503333333336, "is_disabled": 0, "lon": -77.02182433333333, "is_reserved": 0}, {"bike_id": "51ef66fd665b62f4ef657abd4fc59f70", "fusion_lon": 0.0, "type": "electric_scooter", "name": "51ef66fd665b62f4ef657abd4fc59f70", "rental_uris": {"android": "https://dc.lft.to/lastmile_qr_scan", "ios": "https://dc.lft.to/lastmile_qr_scan"}, "fusion_lat": 0.0, "lat": 38.9242085, "is_disabled": 0, "lon": -77.02007783333333, "is_reserved": 0}, {"bike_id": "98ad422b1df6dfc43ffa19a49d44684f", "fusion_lon": 0.0, "type": "electric_scooter", "name": "98ad422b1df6dfc43ffa19a49d44684f", "rental_uris": {"android": "https://dc.lft.to/lastmile_qr_scan", "ios": "https://dc.lft.to/lastmile_qr_scan"}, "fusion_lat": 0.0, "lat": 38.90219416666667, "is_disabled": 0, "lon": -77.00208216666667, "is_reserved": 0}, {"bike_id": "f9287cd7204a928595d1ec5086203b75", "fusion_lon": 0.0, "type": "electric_scooter", "name": "f9287cd7204a928595d1ec5086203b75", "rental_uris": {"android": "https://dc.lft.to/lastmile_qr_scan", "ios": "https://dc.lft.to/lastmile_qr_scan"}, "fusion_lat": 0.0, "lat": 38.914077166666665, "is_disabled": 0, "lon": -77.0417735, "is_reserved": 0}, {"bike_id": "59cd957d8f547c19f4cd84cc957792e4", "fusion_lon": 0.0, "type": "electric_scooter", "name": "59cd957d8f547c19f4cd84cc957792e4", "rental_uris": {"android": "https://dc.lft.to/lastmile_qr_scan", "ios": "https://dc.lft.to/lastmile_qr_scan"}, "fusion_lat": 0.0, "lat": 38.930388, "is_disabled": 0, "lon": -77.0330205, "is_reserved": 0}, {"bike_id": "6fdf2a3d177cd14482e9345fd7464a6a", "fusion_lon": 0.0, "type": "electric_scooter", "name": "6fdf2a3d177cd14482e9345fd7464a6a", "rental_uris": {"android": "https://dc.lft.to/lastmile_qr_scan", "ios": "https://dc.lft.to/lastmile_qr_scan"}, "fusion_lat": 0.0, "lat": 38.95216933333333, "is_disabled": 0, "lon": -77.06779116666667, "is_reserved": 0}, {"bike_id": "7fad80d192fe6fcd1327d5d6817d111d", "fusion_lon": 0.0, "type": "electric_scooter", "name": "7fad80d192fe6fcd1327d5d6817d111d", "rental_uris": {"android": "https://dc.lft.to/lastmile_qr_scan", "ios": "https://dc.lft.to/lastmile_qr_scan"}, "fusion_lat": 0.0, "lat": 38.94993516666667, "is_disabled": 0, "lon": -77.01846333333333, "is_reserved": 0}, {"bike_id": "0316f9c58ac81b9d4a5182949de478fb", "fusion_lon": 0.0, "type": "electric_scooter", "name": "0316f9c58ac81b9d4a5182949de478fb", "rental_uris": {"android": "https://dc.lft.to/lastmile_qr_scan", "ios": "https://dc.lft.to/lastmile_qr_scan"}, "fusion_lat": 0.0, "lat": 38.939732166666666, "is_disabled": 0, "lon": -77.0249025, "is_reserved": 0}, {"bike_id": "346744415e19119b7f5db825fc4b50cb", "fusion_lon": 0.0, "type": "electric_scooter", "name": "346744415e19119b7f5db825fc4b50cb", "rental_uris": {"android": "https://dc.lft.to/lastmile_qr_scan", "ios": "https://dc.lft.to/lastmile_qr_scan"}, "fusion_lat": 0.0, "lat": 38.928750666666666, "is_disabled": 0, "lon": -77.0281545, "is_reserved": 0}, {"bike_id": "6dfa35cab8638c0f2f496e9ecbd1a54e", "fusion_lon": 0.0, "type": "electric_scooter", "name": "6dfa35cab8638c0f2f496e9ecbd1a54e", "rental_uris": {"android": "https://dc.lft.to/lastmile_qr_scan", "ios": "https://dc.lft.to/lastmile_qr_scan"}, "fusion_lat": 0.0, "lat": 38.955285, "is_disabled": 0, "lon": -77.00736283333333, "is_reserved": 0}, {"bike_id": "b6a58382ae3d8e677e6ef674335fb5aa", "fusion_lon": 0.0, "type": "electric_scooter", "name": "b6a58382ae3d8e677e6ef674335fb5aa", "rental_uris": {"android": "https://dc.lft.to/lastmile_qr_scan", "ios": "https://dc.lft.to/lastmile_qr_scan"}, "fusion_lat": 0.0, "lat": 38.91200166666667, "is_disabled": 0, "lon": -77.01894333333334, "is_reserved": 0}, {"bike_id": "26bba67d847addb24e3004d5ae7e52ff", "fusion_lon": 0.0, "type": "electric_scooter", "name": "26bba67d847addb24e3004d5ae7e52ff", "rental_uris": {"android": "https://dc.lft.to/lastmile_qr_scan", "ios": "https://dc.lft.to/lastmile_qr_scan"}, "fusion_lat": 0.0, "lat": 38.908665166666665, "is_disabled": 0, "lon": -76.99949266666667, "is_reserved": 0}, {"bike_id": "1496ed6899980eb2b2dbf07b7f20e9b9", "fusion_lon": 0.0, "type": "electric_scooter", "name": "1496ed6899980eb2b2dbf07b7f20e9b9", "rental_uris": {"android": "https://dc.lft.to/lastmile_qr_scan", "ios": "https://dc.lft.to/lastmile_qr_scan"}, "fusion_lat": 0.0, "lat": 38.897938333333336, "is_disabled": 0, "lon": -77.00740483333334, "is_reserved": 0}, {"bike_id": "dd937a218bd977439c9d001a5f2068e5", "fusion_lon": 0.0, "type": "electric_bike", "name": "dd937a218bd977439c9d001a5f2068e5", "rental_uris": {"android": "https://dc.lft.to/lastmile_qr_scan", "ios": "https://dc.lft.to/lastmile_qr_scan"}, "fusion_lat": 0.0, "lat": 38.9255615, "is_disabled": 0, "lon": -77.00136033333334, "is_reserved": 0}, {"bike_id": "687a55dd38349a896de05527ce0a899a", "fusion_lon": 0.0, "type": "electric_scooter", "name": "687a55dd38349a896de05527ce0a899a", "rental_uris": {"android": "https://dc.lft.to/lastmile_qr_scan", "ios": "https://dc.lft.to/lastmile_qr_scan"}, "fusion_lat": 0.0, "lat": 38.909556, "is_disabled": 0, "lon": -77.04883766666667, "is_reserved": 0}, {"bike_id": "b1497de2af5a810c95875934e48f4d4e", "fusion_lon": 0.0, "type": "electric_scooter", "name": "b1497de2af5a810c95875934e48f4d4e", "rental_uris": {"android": "https://dc.lft.to/lastmile_qr_scan", "ios": "https://dc.lft.to/lastmile_qr_scan"}, "fusion_lat": 0.0, "lat": 38.92844683333333, "is_disabled": 0, "lon": -77.03283233333333, "is_reserved": 0}, {"bike_id": "e9aa525a577530e45ca02ddc739a63a7", "fusion_lon": 0.0, "type": "electric_scooter", "name": "e9aa525a577530e45ca02ddc739a63a7", "rental_uris": {"android": "https://dc.lft.to/lastmile_qr_scan", "ios": "https://dc.lft.to/lastmile_qr_scan"}, "fusion_lat": 0.0, "lat": 38.94785483333333, "is_disabled": 0, "lon": -77.06748816666666, "is_reserved": 0}, {"bike_id": "bef8002f2815b0168d3a31de9e6a2338", "fusion_lon": 0.0, "type": "electric_scooter", "name": "bef8002f2815b0168d3a31de9e6a2338", "rental_uris": {"android": "https://dc.lft.to/lastmile_qr_scan", "ios": "https://dc.lft.to/lastmile_qr_scan"}, "fusion_lat": 0.0, "lat": 38.921426, "is_disabled": 0, "lon": -77.04124333333333, "is_reserved": 0}, {"bike_id": "5216f8dce66eebc339866301414193bb", "fusion_lon": 0.0, "type": "electric_bike", "name": "5216f8dce66eebc339866301414193bb", "rental_uris": {"android": "https://dc.lft.to/lastmile_qr_scan", "ios": "https://dc.lft.to/lastmile_qr_scan"}, "fusion_lat": 0.0, "lat": 38.86977366666667, "is_disabled": 0, "lon": -77.13230383333334, "is_reserved": 0}, {"bike_id": "3bba4a299de20cc4330bf1c50f7b6d9d", "fusion_lon": 0.0, "type": "electric_scooter", "name": "3bba4a299de20cc4330bf1c50f7b6d9d", "rental_uris": {"android": "https://dc.lft.to/lastmile_qr_scan", "ios": "https://dc.lft.to/lastmile_qr_scan"}, "fusion_lat": 0.0, "lat": 38.900960166666664, "is_disabled": 0, "lon": -76.9948865, "is_reserved": 0}, {"bike_id": "7bd7abcf733da8dd071d8d99b4864118", "fusion_lon": 0.0, "type": "electric_scooter", "name": "7bd7abcf733da8dd071d8d99b4864118", "rental_uris": {"android": "https://dc.lft.to/lastmile_qr_scan", "ios": "https://dc.lft.to/lastmile_qr_scan"}, "fusion_lat": 0.0, "lat": 38.919328, "is_disabled": 0, "lon": -77.02518566666667, "is_reserved": 0}, {"bike_id": "d1129da16df77e2d2aafd4e0898f59b9", "fusion_lon": 0.0, "type": "electric_scooter", "name": "d1129da16df77e2d2aafd4e0898f59b9", "rental_uris": {"android": "https://dc.lft.to/lastmile_qr_scan", "ios": "https://dc.lft.to/lastmile_qr_scan"}, "fusion_lat": 0.0, "lat": 38.88397333333333, "is_disabled": 0, "lon": -76.985233, "is_reserved": 0}, {"bike_id": "3f8cec60d1a56c8b3228582c5456f4e3", "fusion_lon": 0.0, "type": "electric_scooter", "name": "3f8cec60d1a56c8b3228582c5456f4e3", "rental_uris": {"android": "https://dc.lft.to/lastmile_qr_scan", "ios": "https://dc.lft.to/lastmile_qr_scan"}, "fusion_lat": 0.0, "lat": 38.903834833333335, "is_disabled": 0, "lon": -77.02963316666667, "is_reserved": 0}, {"bike_id": "347ad324c26eb82462fa3a51f81b6826", "fusion_lon": 0.0, "type": "electric_scooter", "name": "347ad324c26eb82462fa3a51f81b6826", "rental_uris": {"android": "https://dc.lft.to/lastmile_qr_scan", "ios": "https://dc.lft.to/lastmile_qr_scan"}, "fusion_lat": 0.0, "lat": 38.90960883333333, "is_disabled": 0, "lon": -77.01602983333333, "is_reserved": 0}, {"bike_id": "ac15d75d7f5a5abc855fce22e2fcba84", "fusion_lon": 0.0, "type": "electric_scooter", "name": "ac15d75d7f5a5abc855fce22e2fcba84", "rental_uris": {"android": "https://dc.lft.to/lastmile_qr_scan", "ios": "https://dc.lft.to/lastmile_qr_scan"}, "fusion_lat": 0.0, "lat": 38.895281, "is_disabled": 0, "lon": -76.94893583333334, "is_reserved": 0}, {"bike_id": "339258cd722d5ebc6f3f4fa5ac59f679", "fusion_lon": 0.0, "type": "electric_scooter", "name": "339258cd722d5ebc6f3f4fa5ac59f679", "rental_uris": {"android": "https://dc.lft.to/lastmile_qr_scan", "ios": "https://dc.lft.to/lastmile_qr_scan"}, "fusion_lat": 0.0, "lat": 38.9003005, "is_disabled": 0, "lon": -76.99870083333333, "is_reserved": 0}, {"bike_id": "f7a74ffefa7a0e8f6a24dff6ec163e37", "fusion_lon": 0.0, "type": "electric_scooter", "name": "f7a74ffefa7a0e8f6a24dff6ec163e37", "rental_uris": {"android": "https://dc.lft.to/lastmile_qr_scan", "ios": "https://dc.lft.to/lastmile_qr_scan"}, "fusion_lat": 0.0, "lat": 38.92413916666667, "is_disabled": 0, "lon": -77.03636583333333, "is_reserved": 0}, {"bike_id": "6503140952e5232affc052180d32dd12", "fusion_lon": 0.0, "type": "electric_scooter", "name": "6503140952e5232affc052180d32dd12", "rental_uris": {"android": "https://dc.lft.to/lastmile_qr_scan", "ios": "https://dc.lft.to/lastmile_qr_scan"}, "fusion_lat": 0.0, "lat": 38.9036445, "is_disabled": 0, "lon": -77.00051716666667, "is_reserved": 0}, {"bike_id": "ddfc8b11a547c7aacd5db6cce9eadc69", "fusion_lon": 0.0, "type": "electric_scooter", "name": "ddfc8b11a547c7aacd5db6cce9eadc69", "rental_uris": {"android": "https://dc.lft.to/lastmile_qr_scan", "ios": "https://dc.lft.to/lastmile_qr_scan"}, "fusion_lat": 0.0, "lat": 38.938743333333335, "is_disabled": 0, "lon": -77.02565133333333, "is_reserved": 0}, {"bike_id": "1e3ad89ef1ea0a566c81f9c688cac9d9", "fusion_lon": 0.0, "type": "electric_scooter", "name": "1e3ad89ef1ea0a566c81f9c688cac9d9", "rental_uris": {"android": "https://dc.lft.to/lastmile_qr_scan", "ios": "https://dc.lft.to/lastmile_qr_scan"}, "fusion_lat": 0.0, "lat": 38.84620683333333, "is_disabled": 0, "lon": -76.996315, "is_reserved": 0}, {"bike_id": "77433dc8a99fbeb4734f5a5197cbd424", "fusion_lon": 0.0, "type": "electric_scooter", "name": "77433dc8a99fbeb4734f5a5197cbd424", "rental_uris": {"android": "https://dc.lft.to/lastmile_qr_scan", "ios": "https://dc.lft.to/lastmile_qr_scan"}, "fusion_lat": 0.0, "lat": 38.938825333333334, "is_disabled": 0, "lon": -77.024794, "is_reserved": 0}, {"bike_id": "a60bacf090b8041c1df4e657e90b21e6", "fusion_lon": 0.0, "type": "electric_scooter", "name": "a60bacf090b8041c1df4e657e90b21e6", "rental_uris": {"android": "https://dc.lft.to/lastmile_qr_scan", "ios": "https://dc.lft.to/lastmile_qr_scan"}, "fusion_lat": 0.0, "lat": 38.861147333333335, "is_disabled": 0, "lon": -76.99016283333333, "is_reserved": 0}, {"bike_id": "e187d984f65db7bfa2807af8712aae39", "fusion_lon": 0.0, "type": "electric_scooter", "name": "e187d984f65db7bfa2807af8712aae39", "rental_uris": {"android": "https://dc.lft.to/lastmile_qr_scan", "ios": "https://dc.lft.to/lastmile_qr_scan"}, "fusion_lat": 0.0, "lat": 38.894055, "is_disabled": 0, "lon": -77.02151766666667, "is_reserved": 0}, {"bike_id": "7b411ce0a730a4844fbd7fd2377e696a", "fusion_lon": 0.0, "type": "electric_scooter", "name": "7b411ce0a730a4844fbd7fd2377e696a", "rental_uris": {"android": "https://dc.lft.to/lastmile_qr_scan", "ios": "https://dc.lft.to/lastmile_qr_scan"}, "fusion_lat": 0.0, "lat": 38.94311966666667, "is_disabled": 0, "lon": -77.01545433333334, "is_reserved": 0}, {"bike_id": "52537cab1a527b81b46d0f46cfb14362", "fusion_lon": 0.0, "type": "electric_scooter", "name": "52537cab1a527b81b46d0f46cfb14362", "rental_uris": {"android": "https://dc.lft.to/lastmile_qr_scan", "ios": "https://dc.lft.to/lastmile_qr_scan"}, "fusion_lat": 0.0, "lat": 38.886417, "is_disabled": 0, "lon": -77.0216895, "is_reserved": 0}, {"bike_id": "52af5c427232a6b7d5c37cc189c27de7", "fusion_lon": 0.0, "type": "electric_scooter", "name": "52af5c427232a6b7d5c37cc189c27de7", "rental_uris": {"android": "https://dc.lft.to/lastmile_qr_scan", "ios": "https://dc.lft.to/lastmile_qr_scan"}, "fusion_lat": 0.0, "lat": 38.92243916666666, "is_disabled": 0, "lon": -77.04256116666667, "is_reserved": 0}, {"bike_id": "827197810c45fcd236c007a2e1d21f44", "fusion_lon": 0.0, "type": "electric_scooter", "name": "827197810c45fcd236c007a2e1d21f44", "rental_uris": {"android": "https://dc.lft.to/lastmile_qr_scan", "ios": "https://dc.lft.to/lastmile_qr_scan"}, "fusion_lat": 0.0, "lat": 38.914579833333335, "is_disabled": 0, "lon": -77.07162583333333, "is_reserved": 0}, {"bike_id": "3bf34f6b489fdf71a10b44de0a43bc4d", "fusion_lon": 0.0, "type": "electric_bike", "name": "3bf34f6b489fdf71a10b44de0a43bc4d", "rental_uris": {"android": "https://dc.lft.to/lastmile_qr_scan", "ios": "https://dc.lft.to/lastmile_qr_scan"}, "fusion_lat": 0.0, "lat": 38.95411566666667, "is_disabled": 0, "lon": -76.942845, "is_reserved": 0}, {"bike_id": "a6adbf9080f93d0753d5ee2fbd70ba61", "fusion_lon": 0.0, "type": "electric_scooter", "name": "a6adbf9080f93d0753d5ee2fbd70ba61", "rental_uris": {"android": "https://dc.lft.to/lastmile_qr_scan", "ios": "https://dc.lft.to/lastmile_qr_scan"}, "fusion_lat": 0.0, "lat": 38.8462235, "is_disabled": 0, "lon": -76.99629366666667, "is_reserved": 0}, {"bike_id": "bef633aa0939bf18538b6e85ca5bf65c", "fusion_lon": 0.0, "type": "electric_scooter", "name": "bef633aa0939bf18538b6e85ca5bf65c", "rental_uris": {"android": "https://dc.lft.to/lastmile_qr_scan", "ios": "https://dc.lft.to/lastmile_qr_scan"}, "fusion_lat": 0.0, "lat": 38.897626333333335, "is_disabled": 0, "lon": -77.02877616666666, "is_reserved": 0}, {"bike_id": "8bde5d544501093a02ef3b666e6c1cb8", "fusion_lon": 0.0, "type": "electric_bike", "name": "8bde5d544501093a02ef3b666e6c1cb8", "rental_uris": {"android": "https://dc.lft.to/lastmile_qr_scan", "ios": "https://dc.lft.to/lastmile_qr_scan"}, "fusion_lat": 0.0, "lat": 38.965116333333334, "is_disabled": 0, "lon": -77.02817166666667, "is_reserved": 0}, {"bike_id": "48320d46379564b9cc18918e7804764e", "fusion_lon": 0.0, "type": "electric_scooter", "name": "48320d46379564b9cc18918e7804764e", "rental_uris": {"android": "https://dc.lft.to/lastmile_qr_scan", "ios": "https://dc.lft.to/lastmile_qr_scan"}, "fusion_lat": 0.0, "lat": 38.91468483333333, "is_disabled": 0, "lon": -77.0415205, "is_reserved": 0}, {"bike_id": "8217ef46ac0a266d7f1f3ec7ccadbb40", "fusion_lon": 0.0, "type": "electric_scooter", "name": "8217ef46ac0a266d7f1f3ec7ccadbb40", "rental_uris": {"android": "https://dc.lft.to/lastmile_qr_scan", "ios": "https://dc.lft.to/lastmile_qr_scan"}, "fusion_lat": 0.0, "lat": 38.84428333333334, "is_disabled": 0, "lon": -76.9977565, "is_reserved": 0}, {"bike_id": "ace331780d4dacc196e83287d1765a10", "fusion_lon": 0.0, "type": "electric_scooter", "name": "ace331780d4dacc196e83287d1765a10", "rental_uris": {"android": "https://dc.lft.to/lastmile_qr_scan", "ios": "https://dc.lft.to/lastmile_qr_scan"}, "fusion_lat": 0.0, "lat": 38.928978666666666, "is_disabled": 0, "lon": -77.03741933333333, "is_reserved": 0}, {"bike_id": "007e61da7fb7d17b2eb7f80a7ae81653", "fusion_lon": 0.0, "type": "electric_scooter", "name": "007e61da7fb7d17b2eb7f80a7ae81653", "rental_uris": {"android": "https://dc.lft.to/lastmile_qr_scan", "ios": "https://dc.lft.to/lastmile_qr_scan"}, "fusion_lat": 0.0, "lat": 38.89231633333333, "is_disabled": 0, "lon": -76.98795566666666, "is_reserved": 0}, {"bike_id": "48ebd4f0e88d334b29b2cf9bc489e8c4", "fusion_lon": 0.0, "type": "electric_scooter", "name": "48ebd4f0e88d334b29b2cf9bc489e8c4", "rental_uris": {"android": "https://dc.lft.to/lastmile_qr_scan", "ios": "https://dc.lft.to/lastmile_qr_scan"}, "fusion_lat": 0.0, "lat": 38.91714783333333, "is_disabled": 0, "lon": -77.0403025, "is_reserved": 0}, {"bike_id": "14050cd7feabf7891fa14c942e934976", "fusion_lon": 0.0, "type": "electric_scooter", "name": "14050cd7feabf7891fa14c942e934976", "rental_uris": {"android": "https://dc.lft.to/lastmile_qr_scan", "ios": "https://dc.lft.to/lastmile_qr_scan"}, "fusion_lat": 0.0, "lat": 38.89997966666667, "is_disabled": 0, "lon": -77.04588366666667, "is_reserved": 0}, {"bike_id": "1993d597b97cfbfc2e138659ef05508d", "fusion_lon": 0.0, "type": "electric_bike", "name": "1993d597b97cfbfc2e138659ef05508d", "rental_uris": {"android": "https://dc.lft.to/lastmile_qr_scan", "ios": "https://dc.lft.to/lastmile_qr_scan"}, "fusion_lat": 0.0, "lat": 38.953237666666666, "is_disabled": 0, "lon": -76.9543665, "is_reserved": 0}, {"bike_id": "21381d04064554a3c6c11e77dae49077", "fusion_lon": 0.0, "type": "electric_scooter", "name": "21381d04064554a3c6c11e77dae49077", "rental_uris": {"android": "https://dc.lft.to/lastmile_qr_scan", "ios": "https://dc.lft.to/lastmile_qr_scan"}, "fusion_lat": 0.0, "lat": 38.93164733333333, "is_disabled": 0, "lon": -77.078502, "is_reserved": 0}, {"bike_id": "d3c4842684288a75a132a8adbc816664", "fusion_lon": 0.0, "type": "electric_scooter", "name": "d3c4842684288a75a132a8adbc816664", "rental_uris": {"android": "https://dc.lft.to/lastmile_qr_scan", "ios": "https://dc.lft.to/lastmile_qr_scan"}, "fusion_lat": 0.0, "lat": 38.8998085, "is_disabled": 0, "lon": -76.99265166666666, "is_reserved": 0}, {"bike_id": "03f73df9fb32b59a03c162f41ed8402a", "fusion_lon": 0.0, "type": "electric_scooter", "name": "03f73df9fb32b59a03c162f41ed8402a", "rental_uris": {"android": "https://dc.lft.to/lastmile_qr_scan", "ios": "https://dc.lft.to/lastmile_qr_scan"}, "fusion_lat": 0.0, "lat": 38.9096485, "is_disabled": 0, "lon": -77.01388166666666, "is_reserved": 0}, {"bike_id": "58e9a2a7e3d2e18a1966d362d8ee1112", "fusion_lon": 0.0, "type": "electric_scooter", "name": "58e9a2a7e3d2e18a1966d362d8ee1112", "rental_uris": {"android": "https://dc.lft.to/lastmile_qr_scan", "ios": "https://dc.lft.to/lastmile_qr_scan"}, "fusion_lat": 0.0, "lat": 38.906928666666666, "is_disabled": 0, "lon": -77.06138016666667, "is_reserved": 0}, {"bike_id": "f71578f134116aa41fb246a1948622a4", "fusion_lon": 0.0, "type": "electric_scooter", "name": "f71578f134116aa41fb246a1948622a4", "rental_uris": {"android": "https://dc.lft.to/lastmile_qr_scan", "ios": "https://dc.lft.to/lastmile_qr_scan"}, "fusion_lat": 0.0, "lat": 38.9175305, "is_disabled": 0, "lon": -77.04171466666666, "is_reserved": 0}, {"bike_id": "ca51a016eba421c4f0c286fa8237ca99", "fusion_lon": 0.0, "type": "electric_scooter", "name": "ca51a016eba421c4f0c286fa8237ca99", "rental_uris": {"android": "https://dc.lft.to/lastmile_qr_scan", "ios": "https://dc.lft.to/lastmile_qr_scan"}, "fusion_lat": 0.0, "lat": 38.86225016666667, "is_disabled": 0, "lon": -76.99493833333334, "is_reserved": 0}, {"bike_id": "ecc8bbf268e7ca0d7300cfd620261358", "fusion_lon": 0.0, "type": "electric_scooter", "name": "ecc8bbf268e7ca0d7300cfd620261358", "rental_uris": {"android": "https://dc.lft.to/lastmile_qr_scan", "ios": "https://dc.lft.to/lastmile_qr_scan"}, "fusion_lat": 0.0, "lat": 38.876428, "is_disabled": 0, "lon": -77.00559083333333, "is_reserved": 0}, {"bike_id": "bafe6ee59bb9606133a31c45ed21d4c4", "fusion_lon": 0.0, "type": "electric_scooter", "name": "bafe6ee59bb9606133a31c45ed21d4c4", "rental_uris": {"android": "https://dc.lft.to/lastmile_qr_scan", "ios": "https://dc.lft.to/lastmile_qr_scan"}, "fusion_lat": 0.0, "lat": 38.90412516666667, "is_disabled": 0, "lon": -77.00137433333333, "is_reserved": 0}, {"bike_id": "ead7f903d26bac9dc3b7a1cfe9fe781e", "fusion_lon": 0.0, "type": "electric_scooter", "name": "ead7f903d26bac9dc3b7a1cfe9fe781e", "rental_uris": {"android": "https://dc.lft.to/lastmile_qr_scan", "ios": "https://dc.lft.to/lastmile_qr_scan"}, "fusion_lat": 0.0, "lat": 38.91414916666667, "is_disabled": 0, "lon": -77.03161883333334, "is_reserved": 0}, {"bike_id": "231b04380711e0b9536bb51de2e94aa8", "fusion_lon": 0.0, "type": "electric_scooter", "name": "231b04380711e0b9536bb51de2e94aa8", "rental_uris": {"android": "https://dc.lft.to/lastmile_qr_scan", "ios": "https://dc.lft.to/lastmile_qr_scan"}, "fusion_lat": 0.0, "lat": 38.886453, "is_disabled": 0, "lon": -77.0216155, "is_reserved": 0}, {"bike_id": "abec36490cf49a154efc60073f288424", "fusion_lon": 0.0, "type": "electric_bike", "name": "abec36490cf49a154efc60073f288424", "rental_uris": {"android": "https://dc.lft.to/lastmile_qr_scan", "ios": "https://dc.lft.to/lastmile_qr_scan"}, "fusion_lat": 0.0, "lat": 38.85211433333333, "is_disabled": 0, "lon": -77.10129066666667, "is_reserved": 0}, {"bike_id": "62f8150f57031b9a9f4c03a6d693b43d", "fusion_lon": 0.0, "type": "electric_scooter", "name": "62f8150f57031b9a9f4c03a6d693b43d", "rental_uris": {"android": "https://dc.lft.to/lastmile_qr_scan", "ios": "https://dc.lft.to/lastmile_qr_scan"}, "fusion_lat": 0.0, "lat": 38.962346833333335, "is_disabled": 0, "lon": -77.02974333333333, "is_reserved": 0}, {"bike_id": "f15259de98d507d20026e30a739f45a8", "fusion_lon": 0.0, "type": "electric_scooter", "name": "f15259de98d507d20026e30a739f45a8", "rental_uris": {"android": "https://dc.lft.to/lastmile_qr_scan", "ios": "https://dc.lft.to/lastmile_qr_scan"}, "fusion_lat": 0.0, "lat": 38.92462533333333, "is_disabled": 0, "lon": -77.0781615, "is_reserved": 0}, {"bike_id": "c7a057c01cbd47d508564fd4062825e4", "fusion_lon": 0.0, "type": "electric_bike", "name": "c7a057c01cbd47d508564fd4062825e4", "rental_uris": {"android": "https://dc.lft.to/lastmile_qr_scan", "ios": "https://dc.lft.to/lastmile_qr_scan"}, "fusion_lat": 0.0, "lat": 38.957435333333336, "is_disabled": 0, "lon": -76.97251116666666, "is_reserved": 0}, {"bike_id": "42108c67dff2fb7a3c17f3aefa3b4167", "fusion_lon": 0.0, "type": "electric_scooter", "name": "42108c67dff2fb7a3c17f3aefa3b4167", "rental_uris": {"android": "https://dc.lft.to/lastmile_qr_scan", "ios": "https://dc.lft.to/lastmile_qr_scan"}, "fusion_lat": 0.0, "lat": 38.90843666666667, "is_disabled": 0, "lon": -77.025893, "is_reserved": 0}, {"bike_id": "6cd1088b693f6e494a3f36ec606f6442", "fusion_lon": 0.0, "type": "electric_scooter", "name": "6cd1088b693f6e494a3f36ec606f6442", "rental_uris": {"android": "https://dc.lft.to/lastmile_qr_scan", "ios": "https://dc.lft.to/lastmile_qr_scan"}, "fusion_lat": 0.0, "lat": 38.857194166666666, "is_disabled": 0, "lon": -76.9710585, "is_reserved": 0}, {"bike_id": "4922509360079996e83a8f1071153c7e", "fusion_lon": 0.0, "type": "electric_scooter", "name": "4922509360079996e83a8f1071153c7e", "rental_uris": {"android": "https://dc.lft.to/lastmile_qr_scan", "ios": "https://dc.lft.to/lastmile_qr_scan"}, "fusion_lat": 0.0, "lat": 38.911831666666664, "is_disabled": 0, "lon": -77.002568, "is_reserved": 0}, {"bike_id": "6f4128d21fb8c9c3e7b5fea72bf43f46", "fusion_lon": 0.0, "type": "electric_scooter", "name": "6f4128d21fb8c9c3e7b5fea72bf43f46", "rental_uris": {"android": "https://dc.lft.to/lastmile_qr_scan", "ios": "https://dc.lft.to/lastmile_qr_scan"}, "fusion_lat": 0.0, "lat": 38.93120866666667, "is_disabled": 0, "lon": -77.038099, "is_reserved": 0}, {"bike_id": "387b4493835812a722353e63bccb0e77", "fusion_lon": 0.0, "type": "electric_scooter", "name": "387b4493835812a722353e63bccb0e77", "rental_uris": {"android": "https://dc.lft.to/lastmile_qr_scan", "ios": "https://dc.lft.to/lastmile_qr_scan"}, "fusion_lat": 0.0, "lat": 38.896152, "is_disabled": 0, "lon": -76.9565425, "is_reserved": 0}, {"bike_id": "62388c08c3eae71aa4fa8d41175f914c", "fusion_lon": 0.0, "type": "electric_scooter", "name": "62388c08c3eae71aa4fa8d41175f914c", "rental_uris": {"android": "https://dc.lft.to/lastmile_qr_scan", "ios": "https://dc.lft.to/lastmile_qr_scan"}, "fusion_lat": 0.0, "lat": 38.8982575, "is_disabled": 0, "lon": -76.946532, "is_reserved": 0}, {"bike_id": "2e1bac29cb4699aa5ecc60a13351f909", "fusion_lon": 0.0, "type": "electric_scooter", "name": "2e1bac29cb4699aa5ecc60a13351f909", "rental_uris": {"android": "https://dc.lft.to/lastmile_qr_scan", "ios": "https://dc.lft.to/lastmile_qr_scan"}, "fusion_lat": 0.0, "lat": 38.92193733333333, "is_disabled": 0, "lon": -77.04003216666666, "is_reserved": 0}, {"bike_id": "7557de18d97e77ce60fa3e12853f7b1a", "fusion_lon": 0.0, "type": "electric_scooter", "name": "7557de18d97e77ce60fa3e12853f7b1a", "rental_uris": {"android": "https://dc.lft.to/lastmile_qr_scan", "ios": "https://dc.lft.to/lastmile_qr_scan"}, "fusion_lat": 0.0, "lat": 38.9126445, "is_disabled": 0, "lon": -77.03868483333333, "is_reserved": 0}, {"bike_id": "21f441e961d70f52d05f4e0f8c286cde", "fusion_lon": 0.0, "type": "electric_scooter", "name": "21f441e961d70f52d05f4e0f8c286cde", "rental_uris": {"android": "https://dc.lft.to/lastmile_qr_scan", "ios": "https://dc.lft.to/lastmile_qr_scan"}, "fusion_lat": 0.0, "lat": 38.89744566666667, "is_disabled": 0, "lon": -77.03346733333333, "is_reserved": 0}, {"bike_id": "7ca03019c5125c266b5f6e240f19300c", "fusion_lon": 0.0, "type": "electric_scooter", "name": "7ca03019c5125c266b5f6e240f19300c", "rental_uris": {"android": "https://dc.lft.to/lastmile_qr_scan", "ios": "https://dc.lft.to/lastmile_qr_scan"}, "fusion_lat": 0.0, "lat": 38.9154515, "is_disabled": 0, "lon": -77.01218783333333, "is_reserved": 0}, {"bike_id": "5a3052a97d69065898531e2cbb89ccc9", "fusion_lon": 0.0, "type": "electric_scooter", "name": "5a3052a97d69065898531e2cbb89ccc9", "rental_uris": {"android": "https://dc.lft.to/lastmile_qr_scan", "ios": "https://dc.lft.to/lastmile_qr_scan"}, "fusion_lat": 0.0, "lat": 38.90030633333333, "is_disabled": 0, "lon": -76.987755, "is_reserved": 0}, {"bike_id": "8ae22984b5639f035dcf96431a4a1e54", "fusion_lon": 0.0, "type": "electric_scooter", "name": "8ae22984b5639f035dcf96431a4a1e54", "rental_uris": {"android": "https://dc.lft.to/lastmile_qr_scan", "ios": "https://dc.lft.to/lastmile_qr_scan"}, "fusion_lat": 0.0, "lat": 38.91258633333333, "is_disabled": 0, "lon": -77.04962433333333, "is_reserved": 0}, {"bike_id": "1832294a60f70467c0206e8942cbc833", "fusion_lon": 0.0, "type": "electric_bike", "name": "1832294a60f70467c0206e8942cbc833", "rental_uris": {"android": "https://dc.lft.to/lastmile_qr_scan", "ios": "https://dc.lft.to/lastmile_qr_scan"}, "fusion_lat": 0.0, "lat": 38.88799983333333, "is_disabled": 0, "lon": -76.92995783333333, "is_reserved": 0}, {"bike_id": "3417658ac784fd49cb57b9f7f10abf93", "fusion_lon": 0.0, "type": "electric_bike", "name": "3417658ac784fd49cb57b9f7f10abf93", "rental_uris": {"android": "https://dc.lft.to/lastmile_qr_scan", "ios": "https://dc.lft.to/lastmile_qr_scan"}, "fusion_lat": 0.0, "lat": 38.942912, "is_disabled": 0, "lon": -77.06921216666667, "is_reserved": 0}, {"bike_id": "d3afcb76802ed394217c2ce3ff029a56", "fusion_lon": 0.0, "type": "electric_scooter", "name": "d3afcb76802ed394217c2ce3ff029a56", "rental_uris": {"android": "https://dc.lft.to/lastmile_qr_scan", "ios": "https://dc.lft.to/lastmile_qr_scan"}, "fusion_lat": 0.0, "lat": 38.94873783333333, "is_disabled": 0, "lon": -77.07935066666667, "is_reserved": 0}, {"bike_id": "c4a23483018908522eb6e5614aadcb8d", "fusion_lon": 0.0, "type": "electric_scooter", "name": "c4a23483018908522eb6e5614aadcb8d", "rental_uris": {"android": "https://dc.lft.to/lastmile_qr_scan", "ios": "https://dc.lft.to/lastmile_qr_scan"}, "fusion_lat": 0.0, "lat": 38.86408633333333, "is_disabled": 0, "lon": -76.99026066666667, "is_reserved": 0}, {"bike_id": "78d5c9e786576f5acbab1cf4db2845e4", "fusion_lon": 0.0, "type": "electric_scooter", "name": "78d5c9e786576f5acbab1cf4db2845e4", "rental_uris": {"android": "https://dc.lft.to/lastmile_qr_scan", "ios": "https://dc.lft.to/lastmile_qr_scan"}, "fusion_lat": 0.0, "lat": 38.876084, "is_disabled": 0, "lon": -77.013591, "is_reserved": 0}, {"bike_id": "105f9c5a383e680eee26caeef81e90a4", "fusion_lon": 0.0, "type": "electric_bike", "name": "105f9c5a383e680eee26caeef81e90a4", "rental_uris": {"android": "https://dc.lft.to/lastmile_qr_scan", "ios": "https://dc.lft.to/lastmile_qr_scan"}, "fusion_lat": 0.0, "lat": 38.91177283333333, "is_disabled": 0, "lon": -77.00288566666667, "is_reserved": 0}, {"bike_id": "97f5fbf1b8860374a19a7b36570aa9e0", "fusion_lon": 0.0, "type": "electric_scooter", "name": "97f5fbf1b8860374a19a7b36570aa9e0", "rental_uris": {"android": "https://dc.lft.to/lastmile_qr_scan", "ios": "https://dc.lft.to/lastmile_qr_scan"}, "fusion_lat": 0.0, "lat": 38.9198955, "is_disabled": 0, "lon": -77.03960433333333, "is_reserved": 0}, {"bike_id": "6ef02a681d6d608b1135d40890ce46bd", "fusion_lon": 0.0, "type": "electric_bike", "name": "6ef02a681d6d608b1135d40890ce46bd", "rental_uris": {"android": "https://dc.lft.to/lastmile_qr_scan", "ios": "https://dc.lft.to/lastmile_qr_scan"}, "fusion_lat": 0.0, "lat": 38.96613, "is_disabled": 0, "lon": -76.98331216666666, "is_reserved": 0}, {"bike_id": "998a6ae7cfac9b6007b2e2875603ba85", "fusion_lon": 0.0, "type": "electric_bike", "name": "998a6ae7cfac9b6007b2e2875603ba85", "rental_uris": {"android": "https://dc.lft.to/lastmile_qr_scan", "ios": "https://dc.lft.to/lastmile_qr_scan"}, "fusion_lat": 0.0, "lat": 38.918126, "is_disabled": 0, "lon": -77.1018465, "is_reserved": 0}, {"bike_id": "90b8a4007c96651a02acd6c1b4fb87ba", "fusion_lon": 0.0, "type": "electric_scooter", "name": "90b8a4007c96651a02acd6c1b4fb87ba", "rental_uris": {"android": "https://dc.lft.to/lastmile_qr_scan", "ios": "https://dc.lft.to/lastmile_qr_scan"}, "fusion_lat": 0.0, "lat": 38.9138835, "is_disabled": 0, "lon": -77.01696583333333, "is_reserved": 0}, {"bike_id": "cb933fa2722616150968fc7e469b03fc", "fusion_lon": 0.0, "type": "electric_scooter", "name": "cb933fa2722616150968fc7e469b03fc", "rental_uris": {"android": "https://dc.lft.to/lastmile_qr_scan", "ios": "https://dc.lft.to/lastmile_qr_scan"}, "fusion_lat": 0.0, "lat": 38.92604983333333, "is_disabled": 0, "lon": -77.02159816666666, "is_reserved": 0}, {"bike_id": "25d9d14105536c8a8d3d025f82142ffc", "fusion_lon": 0.0, "type": "electric_bike", "name": "25d9d14105536c8a8d3d025f82142ffc", "rental_uris": {"android": "https://dc.lft.to/lastmile_qr_scan", "ios": "https://dc.lft.to/lastmile_qr_scan"}, "fusion_lat": 0.0, "lat": 38.896741, "is_disabled": 0, "lon": -76.98119216666667, "is_reserved": 0}, {"bike_id": "af5fc36b1ea51748dcc3e06c01c8ee6c", "fusion_lon": 0.0, "type": "electric_scooter", "name": "af5fc36b1ea51748dcc3e06c01c8ee6c", "rental_uris": {"android": "https://dc.lft.to/lastmile_qr_scan", "ios": "https://dc.lft.to/lastmile_qr_scan"}, "fusion_lat": 0.0, "lat": 38.88720333333333, "is_disabled": 0, "lon": -77.02203, "is_reserved": 0}, {"bike_id": "cc0d3d552463a97c4dbd83cb324b19fd", "fusion_lon": 0.0, "type": "electric_scooter", "name": "cc0d3d552463a97c4dbd83cb324b19fd", "rental_uris": {"android": "https://dc.lft.to/lastmile_qr_scan", "ios": "https://dc.lft.to/lastmile_qr_scan"}, "fusion_lat": 0.0, "lat": 38.87848016666667, "is_disabled": 0, "lon": -77.0056655, "is_reserved": 0}, {"bike_id": "5b6986b295ed9b3d92a1887c25102177", "fusion_lon": 0.0, "type": "electric_bike", "name": "5b6986b295ed9b3d92a1887c25102177", "rental_uris": {"android": "https://dc.lft.to/lastmile_qr_scan", "ios": "https://dc.lft.to/lastmile_qr_scan"}, "fusion_lat": 0.0, "lat": 38.9069565, "is_disabled": 0, "lon": -76.952548, "is_reserved": 0}, {"bike_id": "e81f6d552cdff4d78fc58e28913433db", "fusion_lon": 0.0, "type": "electric_scooter", "name": "e81f6d552cdff4d78fc58e28913433db", "rental_uris": {"android": "https://dc.lft.to/lastmile_qr_scan", "ios": "https://dc.lft.to/lastmile_qr_scan"}, "fusion_lat": 0.0, "lat": 38.936936333333335, "is_disabled": 0, "lon": -77.03285916666667, "is_reserved": 0}, {"bike_id": "d0b6d665d0c88edc0693be2b0a4f30a3", "fusion_lon": 0.0, "type": "electric_bike", "name": "d0b6d665d0c88edc0693be2b0a4f30a3", "rental_uris": {"android": "https://dc.lft.to/lastmile_qr_scan", "ios": "https://dc.lft.to/lastmile_qr_scan"}, "fusion_lat": 0.0, "lat": 38.812178833333334, "is_disabled": 0, "lon": -77.11235533333333, "is_reserved": 0}, {"bike_id": "c3620d2cc438a152a19fe0ed2949c1a7", "fusion_lon": 0.0, "type": "electric_scooter", "name": "c3620d2cc438a152a19fe0ed2949c1a7", "rental_uris": {"android": "https://dc.lft.to/lastmile_qr_scan", "ios": "https://dc.lft.to/lastmile_qr_scan"}, "fusion_lat": 0.0, "lat": 38.900070666666664, "is_disabled": 0, "lon": -77.0013975, "is_reserved": 0}, {"bike_id": "f1642a137f1e8cc8b9dd2428510a2cd9", "fusion_lon": 0.0, "type": "electric_scooter", "name": "f1642a137f1e8cc8b9dd2428510a2cd9", "rental_uris": {"android": "https://dc.lft.to/lastmile_qr_scan", "ios": "https://dc.lft.to/lastmile_qr_scan"}, "fusion_lat": 0.0, "lat": 38.876316333333335, "is_disabled": 0, "lon": -76.96527233333333, "is_reserved": 0}, {"bike_id": "52f8e05bb58a823a381d22fcb02a9e87", "fusion_lon": 0.0, "type": "electric_scooter", "name": "52f8e05bb58a823a381d22fcb02a9e87", "rental_uris": {"android": "https://dc.lft.to/lastmile_qr_scan", "ios": "https://dc.lft.to/lastmile_qr_scan"}, "fusion_lat": 0.0, "lat": 38.90476983333333, "is_disabled": 0, "lon": -76.99610966666667, "is_reserved": 0}, {"bike_id": "a45ab89681a038fac904e42a8cd93d85", "fusion_lon": 0.0, "type": "electric_scooter", "name": "a45ab89681a038fac904e42a8cd93d85", "rental_uris": {"android": "https://dc.lft.to/lastmile_qr_scan", "ios": "https://dc.lft.to/lastmile_qr_scan"}, "fusion_lat": 0.0, "lat": 38.898378666666666, "is_disabled": 0, "lon": -77.0333765, "is_reserved": 0}, {"bike_id": "0ad9fd50c95233f30a97d87acfb792c8", "fusion_lon": 0.0, "type": "electric_scooter", "name": "0ad9fd50c95233f30a97d87acfb792c8", "rental_uris": {"android": "https://dc.lft.to/lastmile_qr_scan", "ios": "https://dc.lft.to/lastmile_qr_scan"}, "fusion_lat": 0.0, "lat": 38.919439833333335, "is_disabled": 0, "lon": -77.0134465, "is_reserved": 0}, {"bike_id": "12b614cd12bd2ec19561a4c4b8563b2a", "fusion_lon": 0.0, "type": "electric_scooter", "name": "12b614cd12bd2ec19561a4c4b8563b2a", "rental_uris": {"android": "https://dc.lft.to/lastmile_qr_scan", "ios": "https://dc.lft.to/lastmile_qr_scan"}, "fusion_lat": 0.0, "lat": 38.908685, "is_disabled": 0, "lon": -77.01245683333333, "is_reserved": 0}, {"bike_id": "f408113a258819d7ad38a5a5be565e2c", "fusion_lon": 0.0, "type": "electric_scooter", "name": "f408113a258819d7ad38a5a5be565e2c", "rental_uris": {"android": "https://dc.lft.to/lastmile_qr_scan", "ios": "https://dc.lft.to/lastmile_qr_scan"}, "fusion_lat": 0.0, "lat": 38.922892833333336, "is_disabled": 0, "lon": -76.99420416666666, "is_reserved": 0}, {"bike_id": "c169ee69aea41c7127ffe1f64e395307", "fusion_lon": 0.0, "type": "electric_scooter", "name": "c169ee69aea41c7127ffe1f64e395307", "rental_uris": {"android": "https://dc.lft.to/lastmile_qr_scan", "ios": "https://dc.lft.to/lastmile_qr_scan"}, "fusion_lat": 0.0, "lat": 38.90021383333333, "is_disabled": 0, "lon": -76.988495, "is_reserved": 0}, {"bike_id": "6869dfea634532309983c49cbdfec2a5", "fusion_lon": 0.0, "type": "electric_scooter", "name": "6869dfea634532309983c49cbdfec2a5", "rental_uris": {"android": "https://dc.lft.to/lastmile_qr_scan", "ios": "https://dc.lft.to/lastmile_qr_scan"}, "fusion_lat": 0.0, "lat": 38.87481366666667, "is_disabled": 0, "lon": -76.9651945, "is_reserved": 0}, {"bike_id": "e0991f9ea40675f511f98accbe23fe54", "fusion_lon": 0.0, "type": "electric_scooter", "name": "e0991f9ea40675f511f98accbe23fe54", "rental_uris": {"android": "https://dc.lft.to/lastmile_qr_scan", "ios": "https://dc.lft.to/lastmile_qr_scan"}, "fusion_lat": 0.0, "lat": 38.933412833333335, "is_disabled": 0, "lon": -77.03261183333333, "is_reserved": 0}, {"bike_id": "b197726a7b2652e6883a41f8b4e440f5", "fusion_lon": 0.0, "type": "electric_scooter", "name": "b197726a7b2652e6883a41f8b4e440f5", "rental_uris": {"android": "https://dc.lft.to/lastmile_qr_scan", "ios": "https://dc.lft.to/lastmile_qr_scan"}, "fusion_lat": 0.0, "lat": 38.95003616666666, "is_disabled": 0, "lon": -77.02697716666667, "is_reserved": 0}, {"bike_id": "e79f8d1134d5dfa83e44f7712bb20a1d", "fusion_lon": 0.0, "type": "electric_scooter", "name": "e79f8d1134d5dfa83e44f7712bb20a1d", "rental_uris": {"android": "https://dc.lft.to/lastmile_qr_scan", "ios": "https://dc.lft.to/lastmile_qr_scan"}, "fusion_lat": 0.0, "lat": 38.912213333333334, "is_disabled": 0, "lon": -77.03844433333333, "is_reserved": 0}, {"bike_id": "c816bfca3bc499e94c9d6a4c5608544a", "fusion_lon": 0.0, "type": "electric_scooter", "name": "c816bfca3bc499e94c9d6a4c5608544a", "rental_uris": {"android": "https://dc.lft.to/lastmile_qr_scan", "ios": "https://dc.lft.to/lastmile_qr_scan"}, "fusion_lat": 0.0, "lat": 38.9171015, "is_disabled": 0, "lon": -77.03862483333333, "is_reserved": 0}, {"bike_id": "473a26faf7d4274d173519e574961f08", "fusion_lon": 0.0, "type": "electric_scooter", "name": "473a26faf7d4274d173519e574961f08", "rental_uris": {"android": "https://dc.lft.to/lastmile_qr_scan", "ios": "https://dc.lft.to/lastmile_qr_scan"}, "fusion_lat": 0.0, "lat": 38.91438766666667, "is_disabled": 0, "lon": -77.01806166666667, "is_reserved": 0}, {"bike_id": "9fc486062aba2d1865514a4435d7fc17", "fusion_lon": 0.0, "type": "electric_scooter", "name": "9fc486062aba2d1865514a4435d7fc17", "rental_uris": {"android": "https://dc.lft.to/lastmile_qr_scan", "ios": "https://dc.lft.to/lastmile_qr_scan"}, "fusion_lat": 0.0, "lat": 38.944637166666666, "is_disabled": 0, "lon": -77.02806283333334, "is_reserved": 0}, {"bike_id": "f04e39b4d2d4a31e9873f20cbd92839f", "fusion_lon": 0.0, "type": "electric_scooter", "name": "f04e39b4d2d4a31e9873f20cbd92839f", "rental_uris": {"android": "https://dc.lft.to/lastmile_qr_scan", "ios": "https://dc.lft.to/lastmile_qr_scan"}, "fusion_lat": 0.0, "lat": 38.91839183333333, "is_disabled": 0, "lon": -77.03919183333333, "is_reserved": 0}, {"bike_id": "13082f39717c34e7215afa64eeb4b784", "fusion_lon": 0.0, "type": "electric_scooter", "name": "13082f39717c34e7215afa64eeb4b784", "rental_uris": {"android": "https://dc.lft.to/lastmile_qr_scan", "ios": "https://dc.lft.to/lastmile_qr_scan"}, "fusion_lat": 0.0, "lat": 38.894401333333334, "is_disabled": 0, "lon": -77.00112883333334, "is_reserved": 0}, {"bike_id": "b3d00e4c134df8576487fbd14667c14d", "fusion_lon": 0.0, "type": "electric_scooter", "name": "b3d00e4c134df8576487fbd14667c14d", "rental_uris": {"android": "https://dc.lft.to/lastmile_qr_scan", "ios": "https://dc.lft.to/lastmile_qr_scan"}, "fusion_lat": 0.0, "lat": 38.89221116666667, "is_disabled": 0, "lon": -77.02714683333333, "is_reserved": 0}, {"bike_id": "2f81370d021e72c61a1af13ffcd4f896", "fusion_lon": 0.0, "type": "electric_scooter", "name": "2f81370d021e72c61a1af13ffcd4f896", "rental_uris": {"android": "https://dc.lft.to/lastmile_qr_scan", "ios": "https://dc.lft.to/lastmile_qr_scan"}, "fusion_lat": 0.0, "lat": 38.89237683333333, "is_disabled": 0, "lon": -77.04996733333333, "is_reserved": 0}, {"bike_id": "a181a694f05aa99ffd934e7ac24aea07", "fusion_lon": 0.0, "type": "electric_scooter", "name": "a181a694f05aa99ffd934e7ac24aea07", "rental_uris": {"android": "https://dc.lft.to/lastmile_qr_scan", "ios": "https://dc.lft.to/lastmile_qr_scan"}, "fusion_lat": 0.0, "lat": 38.902591666666666, "is_disabled": 0, "lon": -77.02589466666667, "is_reserved": 0}, {"bike_id": "ba35a2e02fc4051d2f8ff61094dcba51", "fusion_lon": 0.0, "type": "electric_scooter", "name": "ba35a2e02fc4051d2f8ff61094dcba51", "rental_uris": {"android": "https://dc.lft.to/lastmile_qr_scan", "ios": "https://dc.lft.to/lastmile_qr_scan"}, "fusion_lat": 0.0, "lat": 38.9355435, "is_disabled": 0, "lon": -77.08213916666666, "is_reserved": 0}, {"bike_id": "63d0e56cc507db54c17aed0f021d8a22", "fusion_lon": 0.0, "type": "electric_scooter", "name": "63d0e56cc507db54c17aed0f021d8a22", "rental_uris": {"android": "https://dc.lft.to/lastmile_qr_scan", "ios": "https://dc.lft.to/lastmile_qr_scan"}, "fusion_lat": 0.0, "lat": 38.92471966666667, "is_disabled": 0, "lon": -77.02831516666667, "is_reserved": 0}, {"bike_id": "670e4f10790fe1e19c9b0296ae92c02d", "fusion_lon": 0.0, "type": "electric_bike", "name": "670e4f10790fe1e19c9b0296ae92c02d", "rental_uris": {"android": "https://dc.lft.to/lastmile_qr_scan", "ios": "https://dc.lft.to/lastmile_qr_scan"}, "fusion_lat": 0.0, "lat": 38.8433855, "is_disabled": 0, "lon": -77.06425416666667, "is_reserved": 0}, {"bike_id": "7c2fda041da7bf597c219363b816f92e", "fusion_lon": 0.0, "type": "electric_scooter", "name": "7c2fda041da7bf597c219363b816f92e", "rental_uris": {"android": "https://dc.lft.to/lastmile_qr_scan", "ios": "https://dc.lft.to/lastmile_qr_scan"}, "fusion_lat": 0.0, "lat": 38.928724833333334, "is_disabled": 0, "lon": -77.034739, "is_reserved": 0}, {"bike_id": "67551608aead229c844d8b2590f35e8f", "fusion_lon": 0.0, "type": "electric_scooter", "name": "67551608aead229c844d8b2590f35e8f", "rental_uris": {"android": "https://dc.lft.to/lastmile_qr_scan", "ios": "https://dc.lft.to/lastmile_qr_scan"}, "fusion_lat": 0.0, "lat": 38.8778195, "is_disabled": 0, "lon": -77.01442416666667, "is_reserved": 0}, {"bike_id": "2702d52d361cf8eeb86c23397f2a7f34", "fusion_lon": 0.0, "type": "electric_scooter", "name": "2702d52d361cf8eeb86c23397f2a7f34", "rental_uris": {"android": "https://dc.lft.to/lastmile_qr_scan", "ios": "https://dc.lft.to/lastmile_qr_scan"}, "fusion_lat": 0.0, "lat": 38.90204966666667, "is_disabled": 0, "lon": -77.0237395, "is_reserved": 0}, {"bike_id": "9dd1f33eb6332d91b4ba51adac10e390", "fusion_lon": 0.0, "type": "electric_scooter", "name": "9dd1f33eb6332d91b4ba51adac10e390", "rental_uris": {"android": "https://dc.lft.to/lastmile_qr_scan", "ios": "https://dc.lft.to/lastmile_qr_scan"}, "fusion_lat": 0.0, "lat": 38.88307283333333, "is_disabled": 0, "lon": -76.94856466666667, "is_reserved": 0}, {"bike_id": "c8ddabe5178d6fb2f4b95c066ad08632", "fusion_lon": 0.0, "type": "electric_scooter", "name": "c8ddabe5178d6fb2f4b95c066ad08632", "rental_uris": {"android": "https://dc.lft.to/lastmile_qr_scan", "ios": "https://dc.lft.to/lastmile_qr_scan"}, "fusion_lat": 0.0, "lat": 38.84505, "is_disabled": 0, "lon": -76.98753033333334, "is_reserved": 0}, {"bike_id": "ebe2d2693249ef4ae78a7754c29c615d", "fusion_lon": 0.0, "type": "electric_scooter", "name": "ebe2d2693249ef4ae78a7754c29c615d", "rental_uris": {"android": "https://dc.lft.to/lastmile_qr_scan", "ios": "https://dc.lft.to/lastmile_qr_scan"}, "fusion_lat": 0.0, "lat": 38.9292115, "is_disabled": 0, "lon": -77.03623966666666, "is_reserved": 0}, {"bike_id": "e39685691867d81187399f00f2b83531", "fusion_lon": 0.0, "type": "electric_scooter", "name": "e39685691867d81187399f00f2b83531", "rental_uris": {"android": "https://dc.lft.to/lastmile_qr_scan", "ios": "https://dc.lft.to/lastmile_qr_scan"}, "fusion_lat": 0.0, "lat": 38.91180766666667, "is_disabled": 0, "lon": -77.03656133333334, "is_reserved": 0}, {"bike_id": "0be740e435268dd570c95c8935ef691b", "fusion_lon": 0.0, "type": "electric_bike", "name": "0be740e435268dd570c95c8935ef691b", "rental_uris": {"android": "https://dc.lft.to/lastmile_qr_scan", "ios": "https://dc.lft.to/lastmile_qr_scan"}, "fusion_lat": 0.0, "lat": 39.053481, "is_disabled": 0, "lon": -77.1359555, "is_reserved": 0}, {"bike_id": "b6117706f91522d37e33a22145b9be9d", "fusion_lon": 0.0, "type": "electric_scooter", "name": "b6117706f91522d37e33a22145b9be9d", "rental_uris": {"android": "https://dc.lft.to/lastmile_qr_scan", "ios": "https://dc.lft.to/lastmile_qr_scan"}, "fusion_lat": 0.0, "lat": 38.892221666666664, "is_disabled": 0, "lon": -77.02628333333334, "is_reserved": 0}, {"bike_id": "22adaab06751eee281e9d90dedacb4ea", "fusion_lon": 0.0, "type": "electric_scooter", "name": "22adaab06751eee281e9d90dedacb4ea", "rental_uris": {"android": "https://dc.lft.to/lastmile_qr_scan", "ios": "https://dc.lft.to/lastmile_qr_scan"}, "fusion_lat": 0.0, "lat": 38.90518983333333, "is_disabled": 0, "lon": -77.00159766666667, "is_reserved": 0}, {"bike_id": "12b547842e2d69153c425f4872ac693a", "fusion_lon": 0.0, "type": "electric_scooter", "name": "12b547842e2d69153c425f4872ac693a", "rental_uris": {"android": "https://dc.lft.to/lastmile_qr_scan", "ios": "https://dc.lft.to/lastmile_qr_scan"}, "fusion_lat": 0.0, "lat": 38.918435333333335, "is_disabled": 0, "lon": -76.96552199999999, "is_reserved": 0}, {"bike_id": "e3eebdb0b2e5e7f503e2e2a4af830ea9", "fusion_lon": 0.0, "type": "electric_scooter", "name": "e3eebdb0b2e5e7f503e2e2a4af830ea9", "rental_uris": {"android": "https://dc.lft.to/lastmile_qr_scan", "ios": "https://dc.lft.to/lastmile_qr_scan"}, "fusion_lat": 0.0, "lat": 38.92619666666667, "is_disabled": 0, "lon": -77.02158216666666, "is_reserved": 0}, {"bike_id": "e3d90df838330d0db5fb70cf6d07e2d0", "fusion_lon": 0.0, "type": "electric_scooter", "name": "e3d90df838330d0db5fb70cf6d07e2d0", "rental_uris": {"android": "https://dc.lft.to/lastmile_qr_scan", "ios": "https://dc.lft.to/lastmile_qr_scan"}, "fusion_lat": 0.0, "lat": 38.89737683333333, "is_disabled": 0, "lon": -77.0131165, "is_reserved": 0}, {"bike_id": "745cb8e12539ebf24d56b8b8413bd6fd", "fusion_lon": 0.0, "type": "electric_scooter", "name": "745cb8e12539ebf24d56b8b8413bd6fd", "rental_uris": {"android": "https://dc.lft.to/lastmile_qr_scan", "ios": "https://dc.lft.to/lastmile_qr_scan"}, "fusion_lat": 0.0, "lat": 38.90872433333333, "is_disabled": 0, "lon": -76.99962933333333, "is_reserved": 0}, {"bike_id": "aca9ae27aa1468d5c28e73f444e7cc88", "fusion_lon": 0.0, "type": "electric_scooter", "name": "aca9ae27aa1468d5c28e73f444e7cc88", "rental_uris": {"android": "https://dc.lft.to/lastmile_qr_scan", "ios": "https://dc.lft.to/lastmile_qr_scan"}, "fusion_lat": 0.0, "lat": 38.95839766666667, "is_disabled": 0, "lon": -77.07150933333334, "is_reserved": 0}, {"bike_id": "838684b7e69d92da37ca0d12b5cb2e8d", "fusion_lon": 0.0, "type": "electric_scooter", "name": "838684b7e69d92da37ca0d12b5cb2e8d", "rental_uris": {"android": "https://dc.lft.to/lastmile_qr_scan", "ios": "https://dc.lft.to/lastmile_qr_scan"}, "fusion_lat": 0.0, "lat": 38.86703333333333, "is_disabled": 0, "lon": -76.98708866666666, "is_reserved": 0}, {"bike_id": "0acf0b3baf6d3c6165e740316a8bcfc2", "fusion_lon": 0.0, "type": "electric_scooter", "name": "0acf0b3baf6d3c6165e740316a8bcfc2", "rental_uris": {"android": "https://dc.lft.to/lastmile_qr_scan", "ios": "https://dc.lft.to/lastmile_qr_scan"}, "fusion_lat": 0.0, "lat": 38.92766116666667, "is_disabled": 0, "lon": -77.02294716666667, "is_reserved": 0}, {"bike_id": "ed2b06d97ab721d27f15925066e666ec", "fusion_lon": 0.0, "type": "electric_scooter", "name": "ed2b06d97ab721d27f15925066e666ec", "rental_uris": {"android": "https://dc.lft.to/lastmile_qr_scan", "ios": "https://dc.lft.to/lastmile_qr_scan"}, "fusion_lat": 0.0, "lat": 38.880308166666666, "is_disabled": 0, "lon": -77.02172533333334, "is_reserved": 0}, {"bike_id": "50e547d82d492166d205123d4176251e", "fusion_lon": 0.0, "type": "electric_bike", "name": "50e547d82d492166d205123d4176251e", "rental_uris": {"android": "https://dc.lft.to/lastmile_qr_scan", "ios": "https://dc.lft.to/lastmile_qr_scan"}, "fusion_lat": 0.0, "lat": 39.02425216666666, "is_disabled": 0, "lon": -77.12506, "is_reserved": 0}, {"bike_id": "78e8ae06845c341d276180ec7f47c8af", "fusion_lon": 0.0, "type": "electric_scooter", "name": "78e8ae06845c341d276180ec7f47c8af", "rental_uris": {"android": "https://dc.lft.to/lastmile_qr_scan", "ios": "https://dc.lft.to/lastmile_qr_scan"}, "fusion_lat": 0.0, "lat": 38.90065933333333, "is_disabled": 0, "lon": -77.00204983333333, "is_reserved": 0}, {"bike_id": "8f6f5e92d48a98638332f22548deee70", "fusion_lon": 0.0, "type": "electric_scooter", "name": "8f6f5e92d48a98638332f22548deee70", "rental_uris": {"android": "https://dc.lft.to/lastmile_qr_scan", "ios": "https://dc.lft.to/lastmile_qr_scan"}, "fusion_lat": 0.0, "lat": 38.90578433333334, "is_disabled": 0, "lon": -77.00584766666667, "is_reserved": 0}, {"bike_id": "244122ade232dd612c13bc1aacfd6229", "fusion_lon": 0.0, "type": "electric_scooter", "name": "244122ade232dd612c13bc1aacfd6229", "rental_uris": {"android": "https://dc.lft.to/lastmile_qr_scan", "ios": "https://dc.lft.to/lastmile_qr_scan"}, "fusion_lat": 0.0, "lat": 38.9413385, "is_disabled": 0, "lon": -77.09202583333334, "is_reserved": 0}, {"bike_id": "b0598f3f0a2f4faa253dcededc759a8c", "fusion_lon": 0.0, "type": "electric_scooter", "name": "b0598f3f0a2f4faa253dcededc759a8c", "rental_uris": {"android": "https://dc.lft.to/lastmile_qr_scan", "ios": "https://dc.lft.to/lastmile_qr_scan"}, "fusion_lat": 0.0, "lat": 38.955643, "is_disabled": 0, "lon": -77.006329, "is_reserved": 0}, {"bike_id": "fc7208e70b735760816bcf1c3c04b57e", "fusion_lon": 0.0, "type": "electric_scooter", "name": "fc7208e70b735760816bcf1c3c04b57e", "rental_uris": {"android": "https://dc.lft.to/lastmile_qr_scan", "ios": "https://dc.lft.to/lastmile_qr_scan"}, "fusion_lat": 0.0, "lat": 38.92788266666667, "is_disabled": 0, "lon": -77.02313866666667, "is_reserved": 0}, {"bike_id": "0fd01051074ce35b7ccdaf3f2b898e80", "fusion_lon": 0.0, "type": "electric_scooter", "name": "0fd01051074ce35b7ccdaf3f2b898e80", "rental_uris": {"android": "https://dc.lft.to/lastmile_qr_scan", "ios": "https://dc.lft.to/lastmile_qr_scan"}, "fusion_lat": 0.0, "lat": 38.905072833333335, "is_disabled": 0, "lon": -77.04042533333333, "is_reserved": 0}, {"bike_id": "7bf0f595afdf8942976f0a99804abe94", "fusion_lon": 0.0, "type": "electric_scooter", "name": "7bf0f595afdf8942976f0a99804abe94", "rental_uris": {"android": "https://dc.lft.to/lastmile_qr_scan", "ios": "https://dc.lft.to/lastmile_qr_scan"}, "fusion_lat": 0.0, "lat": 38.917590833333335, "is_disabled": 0, "lon": -77.02487316666667, "is_reserved": 0}, {"bike_id": "4008f86b9d1bc2ed10bc25a7c7a4f642", "fusion_lon": 0.0, "type": "electric_bike", "name": "4008f86b9d1bc2ed10bc25a7c7a4f642", "rental_uris": {"android": "https://dc.lft.to/lastmile_qr_scan", "ios": "https://dc.lft.to/lastmile_qr_scan"}, "fusion_lat": 0.0, "lat": 38.852200333333336, "is_disabled": 0, "lon": -77.129577, "is_reserved": 0}, {"bike_id": "8ac464e2bddacc9abde83fa2b9df4c44", "fusion_lon": 0.0, "type": "electric_scooter", "name": "8ac464e2bddacc9abde83fa2b9df4c44", "rental_uris": {"android": "https://dc.lft.to/lastmile_qr_scan", "ios": "https://dc.lft.to/lastmile_qr_scan"}, "fusion_lat": 0.0, "lat": 38.91255683333333, "is_disabled": 0, "lon": -77.00929216666667, "is_reserved": 0}, {"bike_id": "82d01538c4d27bcc01645a1063466d24", "fusion_lon": 0.0, "type": "electric_scooter", "name": "82d01538c4d27bcc01645a1063466d24", "rental_uris": {"android": "https://dc.lft.to/lastmile_qr_scan", "ios": "https://dc.lft.to/lastmile_qr_scan"}, "fusion_lat": 0.0, "lat": 38.91323466666667, "is_disabled": 0, "lon": -77.0141425, "is_reserved": 0}, {"bike_id": "9dcdf7d4eeed97be7845017c7d858d31", "fusion_lon": 0.0, "type": "electric_scooter", "name": "9dcdf7d4eeed97be7845017c7d858d31", "rental_uris": {"android": "https://dc.lft.to/lastmile_qr_scan", "ios": "https://dc.lft.to/lastmile_qr_scan"}, "fusion_lat": 0.0, "lat": 38.896897333333335, "is_disabled": 0, "lon": -76.94215833333334, "is_reserved": 0}, {"bike_id": "408bdd5a43aed73c7d5bd34ec2798f75", "fusion_lon": 0.0, "type": "electric_bike", "name": "408bdd5a43aed73c7d5bd34ec2798f75", "rental_uris": {"android": "https://dc.lft.to/lastmile_qr_scan", "ios": "https://dc.lft.to/lastmile_qr_scan"}, "fusion_lat": 0.0, "lat": 38.865976, "is_disabled": 0, "lon": -76.9322795, "is_reserved": 0}, {"bike_id": "8b7faf2c4545d19b046fa3c8af0564f5", "fusion_lon": 0.0, "type": "electric_scooter", "name": "8b7faf2c4545d19b046fa3c8af0564f5", "rental_uris": {"android": "https://dc.lft.to/lastmile_qr_scan", "ios": "https://dc.lft.to/lastmile_qr_scan"}, "fusion_lat": 0.0, "lat": 38.9192435, "is_disabled": 0, "lon": -77.03379383333333, "is_reserved": 0}, {"bike_id": "dbdcc19567976488c77bcf0ed48e768f", "fusion_lon": 0.0, "type": "electric_scooter", "name": "dbdcc19567976488c77bcf0ed48e768f", "rental_uris": {"android": "https://dc.lft.to/lastmile_qr_scan", "ios": "https://dc.lft.to/lastmile_qr_scan"}, "fusion_lat": 0.0, "lat": 38.89483666666667, "is_disabled": 0, "lon": -76.995164, "is_reserved": 0}, {"bike_id": "cd79887d9419eb87b52f7687f63726ba", "fusion_lon": 0.0, "type": "electric_scooter", "name": "cd79887d9419eb87b52f7687f63726ba", "rental_uris": {"android": "https://dc.lft.to/lastmile_qr_scan", "ios": "https://dc.lft.to/lastmile_qr_scan"}, "fusion_lat": 0.0, "lat": 38.927993666666666, "is_disabled": 0, "lon": -77.02724683333334, "is_reserved": 0}, {"bike_id": "f25202979d8e71760f490c9083aef8f9", "fusion_lon": 0.0, "type": "electric_bike", "name": "f25202979d8e71760f490c9083aef8f9", "rental_uris": {"android": "https://dc.lft.to/lastmile_qr_scan", "ios": "https://dc.lft.to/lastmile_qr_scan"}, "fusion_lat": 0.0, "lat": 38.903697666666666, "is_disabled": 0, "lon": -77.017642, "is_reserved": 0}, {"bike_id": "661afa1b583b790f019db3769ee53700", "fusion_lon": 0.0, "type": "electric_scooter", "name": "661afa1b583b790f019db3769ee53700", "rental_uris": {"android": "https://dc.lft.to/lastmile_qr_scan", "ios": "https://dc.lft.to/lastmile_qr_scan"}, "fusion_lat": 0.0, "lat": 38.9160265, "is_disabled": 0, "lon": -77.01655733333334, "is_reserved": 0}, {"bike_id": "88b565154ff08ad914cdc088890cd647", "fusion_lon": 0.0, "type": "electric_scooter", "name": "88b565154ff08ad914cdc088890cd647", "rental_uris": {"android": "https://dc.lft.to/lastmile_qr_scan", "ios": "https://dc.lft.to/lastmile_qr_scan"}, "fusion_lat": 0.0, "lat": 38.90367716666667, "is_disabled": 0, "lon": -77.02149, "is_reserved": 0}, {"bike_id": "ca9b09cc50bb30cf64856c3f3eaaff6b", "fusion_lon": 0.0, "type": "electric_scooter", "name": "ca9b09cc50bb30cf64856c3f3eaaff6b", "rental_uris": {"android": "https://dc.lft.to/lastmile_qr_scan", "ios": "https://dc.lft.to/lastmile_qr_scan"}, "fusion_lat": 0.0, "lat": 38.8988675, "is_disabled": 0, "lon": -76.93174166666667, "is_reserved": 0}, {"bike_id": "8871ce810991637094cc0eaea3821f08", "fusion_lon": 0.0, "type": "electric_scooter", "name": "8871ce810991637094cc0eaea3821f08", "rental_uris": {"android": "https://dc.lft.to/lastmile_qr_scan", "ios": "https://dc.lft.to/lastmile_qr_scan"}, "fusion_lat": 0.0, "lat": 38.907333, "is_disabled": 0, "lon": -77.04276933333334, "is_reserved": 0}, {"bike_id": "4ef1265e5b03e7d37eeaa463aaa93b98", "fusion_lon": 0.0, "type": "electric_scooter", "name": "4ef1265e5b03e7d37eeaa463aaa93b98", "rental_uris": {"android": "https://dc.lft.to/lastmile_qr_scan", "ios": "https://dc.lft.to/lastmile_qr_scan"}, "fusion_lat": 0.0, "lat": 38.905187, "is_disabled": 0, "lon": -77.029786, "is_reserved": 0},