{"data": {"bikes": [{"lon": -77.028, "bike_id": "8c7e3a6146049d93d13c82c46ac9bc63", "lat": 38.929617, "fusion_lon": 0.0, "fusion_lat": 0.0, "type": "electric_scooter", "name": "8c7e3a6146049d93d13c82c46ac9bc63", "is_disabled": 0, "rental_uris": {"ios": "https://dc.lft.to/lastmile_qr_scan", "android": "https://dc.lft.to/lastmile_qr_scan"}, "is_reserved": 0}, {"lon": -77.001059, "bike_id": "e6e129623b2a4a86b6535afd54f5bd3f", "lat": 38.912365333333334, "fusion_lon": 0.0, "fusion_lat": 0.0, "type": "electric_scooter", "name": "e6e129623b2a4a86b6535afd54f5bd3f", "is_disabled": 0, "rental_uris": {"ios": "https://dc.lft.to/lastmile_qr_scan", "android": "https://dc.lft.to/lastmile_qr_scan"}, "is_reserved": 0}, {"lon": -77.03979433333333, "bike_id": "e6d8e5e96d6b4a45f1b9d343657c3d0f", "lat": 38.927958, "fusion_lon": 0.0, "fusion_lat": 0.0, "type": "electric_scooter", "name": "e6d8e5e96d6b4a45f1b9d343657c3d0f", "is_disabled": 0, "rental_uris": {"ios": "https://dc.lft.to/lastmile_qr_scan", "android": "https://dc.lft.to/lastmile_qr_scan"}, "is_reserved": 0}, {"lon": -77.03156016666667, "bike_id": "c2345ff12a1278e2c6ab8142a7e031fb", "lat": 38.916968, "fusion_lon": 0.0, "fusion_lat": 0.0, "type": "electric_scooter", "name": "c2345ff12a1278e2c6ab8142a7e031fb", "is_disabled": 0, "rental_uris": {"ios": "https://dc.lft.to/lastmile_qr_scan", "android": "https://dc.lft.to/lastmile_qr_scan"}, "is_reserved": 0}, {"lon": -77.00296816666666, "bike_id": "bd555cca753289082ed0de3b396994ec", "lat": 38.9011685, "fusion_lon": 0.0, "fusion_lat": 0.0, "type": "electric_scooter", "name": "bd555cca753289082ed0de3b396994ec", "is_disabled": 0, "rental_uris": {"ios": "https://dc.lft.to/lastmile_qr_scan", "android": "https://dc.lft.to/lastmile_qr_scan"}, "is_reserved": 0}, {"lon": -76.985231, "bike_id": "da44c7c2153690bf306575995e1bf536", "lat": 38.866788666666665, "fusion_lon": 0.0, "fusion_lat": 0.0, "type": "electric_scooter", "name": "da44c7c2153690bf306575995e1bf536", "is_disabled": 0, "rental_uris": {"ios": "https://dc.lft.to/lastmile_qr_scan", "android": "https://dc.lft.to/lastmile_qr_scan"}, "is_reserved": 0}, {"lon": -76.97304633333333, "bike_id": "6397ba0319f70c7360d1d56e8e6e6f1a", "lat": 38.916466, "fusion_lon": 0.0, "fusion_lat": 0.0, "type": "electric_bike", "name": "6397ba0319f70c7360d1d56e8e6e6f1a", "is_disabled": 0, "rental_uris": {"ios": "https://dc.lft.to/lastmile_qr_scan", "android": "https://dc.lft.to/lastmile_qr_scan"}, "is_reserved": 0}, {"lon": -77.04357383333334, "bike_id": "5718911ca8281de894e1eeb6b2548795", "lat": 38.911215, "fusion_lon": 0.0, "fusion_lat": 0.0, "type": "electric_scooter", "name": "5718911ca8281de894e1eeb6b2548795", "is_disabled": 0, "rental_uris": {"ios": "https://dc.lft.to/lastmile_qr_scan", "android": "https://dc.lft.to/lastmile_qr_scan"}, "is_reserved": 0}, {"lon": -77.026364, "bike_id": "c2cac415d918cb4cf7d03295ab935f35", "lat": 38.897467666666664, "fusion_lon": 0.0, "fusion_lat": 0.0, "type": "electric_scooter", "name": "c2cac415d918cb4cf7d03295ab935f35", "is_disabled": 0, "rental_uris": {"ios": "https://dc.lft.to/lastmile_qr_scan", "android": "https://dc.lft.to/lastmile_qr_scan"}, "is_reserved": 0}, {"lon": -77.23336216666667, "bike_id": "37a1ad771c43692b650b509e4f60be1c", "lat": 38.87273033333334, "fusion_lon": 0.0, "fusion_lat": 0.0, "type": "electric_bike", "name": "37a1ad771c43692b650b509e4f60be1c", "is_disabled": 0, "rental_uris": {"ios": "https://dc.lft.to/lastmile_qr_scan", "android": "https://dc.lft.to/lastmile_qr_scan"}, "is_reserved": 0}, {"lon": -76.96538366666667, "bike_id": "85f7e65d628363b3c808414ff09c97a9", "lat": 38.9183555, "fusion_lon": 0.0, "fusion_lat": 0.0, "type": "electric_scooter", "name": "85f7e65d628363b3c808414ff09c97a9", "is_disabled": 0, "rental_uris": {"ios": "https://dc.lft.to/lastmile_qr_scan", "android": "https://dc.lft.to/lastmile_qr_scan"}, "is_reserved": 0}, {"lon": -76.99453383333334, "bike_id": "6aef545f9ce373cbfc80e537abe6a1b1", "lat": 38.862789666666664, "fusion_lon": 0.0, "fusion_lat": 0.0, "type": "electric_scooter", "name": "6aef545f9ce373cbfc80e537abe6a1b1", "is_disabled": 0, "rental_uris": {"ios": "https://dc.lft.to/lastmile_qr_scan", "android": "https://dc.lft.to/lastmile_qr_scan"}, "is_reserved": 0}, {"lon": -77.02696316666666, "bike_id": "ab895ffed3f4b6ca9e328acfa01251c0", "lat": 38.90839833333333, "fusion_lon": 0.0, "fusion_lat": 0.0, "type": "electric_scooter", "name": "ab895ffed3f4b6ca9e328acfa01251c0", "is_disabled": 0, "rental_uris": {"ios": "https://dc.lft.to/lastmile_qr_scan", "android": "https://dc.lft.to/lastmile_qr_scan"}, "is_reserved": 0}, {"lon": -76.949956, "bike_id": "69d9dc52f309a9eb3ece30769a731246", "lat": 38.893836, "fusion_lon": 0.0, "fusion_lat": 0.0, "type": "electric_scooter", "name": "69d9dc52f309a9eb3ece30769a731246", "is_disabled": 0, "rental_uris": {"ios": "https://dc.lft.to/lastmile_qr_scan", "android": "https://dc.lft.to/lastmile_qr_scan"}, "is_reserved": 0}, {"lon": -76.9888295, "bike_id": "fd19e1e7a619417bc8dfe5f11a384d55", "lat": 38.86661016666667, "fusion_lon": 0.0, "fusion_lat": 0.0, "type": "electric_scooter", "name": "fd19e1e7a619417bc8dfe5f11a384d55", "is_disabled": 0, "rental_uris": {"ios": "https://dc.lft.to/lastmile_qr_scan", "android": "https://dc.lft.to/lastmile_qr_scan"}, "is_reserved": 0}, {"lon": -76.99573633333333, "bike_id": "6bf0ea5eb99ef73915735d0e3089ac43", "lat": 38.851791666666664, "fusion_lon": 0.0, "fusion_lat": 0.0, "type": "electric_bike", "name": "6bf0ea5eb99ef73915735d0e3089ac43", "is_disabled": 0, "rental_uris": {"ios": "https://dc.lft.to/lastmile_qr_scan", "android": "https://dc.lft.to/lastmile_qr_scan"}, "is_reserved": 0}, {"lon": -76.99605816666667, "bike_id": "ae2258e48404e43909bfa6c719506b7f", "lat": 38.88313216666667, "fusion_lon": 0.0, "fusion_lat": 0.0, "type": "electric_scooter", "name": "ae2258e48404e43909bfa6c719506b7f", "is_disabled": 0, "rental_uris": {"ios": "https://dc.lft.to/lastmile_qr_scan", "android": "https://dc.lft.to/lastmile_qr_scan"}, "is_reserved": 0}, {"lon": -77.03348533333333, "bike_id": "9e3c07abd12bcf71fc4c192176a57a32", "lat": 38.94711683333333, "fusion_lon": 0.0, "fusion_lat": 0.0, "type": "electric_scooter", "name": "9e3c07abd12bcf71fc4c192176a57a32", "is_disabled": 0, "rental_uris": {"ios": "https://dc.lft.to/lastmile_qr_scan", "android": "https://dc.lft.to/lastmile_qr_scan"}, "is_reserved": 0}, {"lon": -77.0157525, "bike_id": "282681fac20bba3e4bcf64cd8cb4c196", "lat": 38.8947045, "fusion_lon": 0.0, "fusion_lat": 0.0, "type": "electric_scooter", "name": "282681fac20bba3e4bcf64cd8cb4c196", "is_disabled": 0, "rental_uris": {"ios": "https://dc.lft.to/lastmile_qr_scan", "android": "https://dc.lft.to/lastmile_qr_scan"}, "is_reserved": 0}, {"lon": -77.03216033333334, "bike_id": "2678792064125dd8176b5a8a4d6bb68d", "lat": 38.89220383333333, "fusion_lon": 0.0, "fusion_lat": 0.0, "type": "electric_scooter", "name": "2678792064125dd8176b5a8a4d6bb68d", "is_disabled": 0, "rental_uris": {"ios": "https://dc.lft.to/lastmile_qr_scan", "android": "https://dc.lft.to/lastmile_qr_scan"}, "is_reserved": 0}, {"lon": -77.032063, "bike_id": "879b3a67bd51921b4f233b1d0ba2c709", "lat": 38.914182, "fusion_lon": 0.0, "fusion_lat": 0.0, "type": "electric_scooter", "name": "879b3a67bd51921b4f233b1d0ba2c709", "is_disabled": 0, "rental_uris": {"ios": "https://dc.lft.to/lastmile_qr_scan", "android": "https://dc.lft.to/lastmile_qr_scan"}, "is_reserved": 0}, {"lon": -77.04821216666667, "bike_id": "de2edbaa63e932cd22147c310559ffd4", "lat": 38.9050985, "fusion_lon": 0.0, "fusion_lat": 0.0, "type": "electric_scooter", "name": "de2edbaa63e932cd22147c310559ffd4", "is_disabled": 0, "rental_uris": {"ios": "https://dc.lft.to/lastmile_qr_scan", "android": "https://dc.lft.to/lastmile_qr_scan"}, "is_reserved": 0}, {"lon": -77.0388635, "bike_id": "430675e0aed0313a00ef56f0da7e4702", "lat": 38.91109433333333, "fusion_lon": 0.0, "fusion_lat": 0.0, "type": "electric_scooter", "name": "430675e0aed0313a00ef56f0da7e4702", "is_disabled": 0, "rental_uris": {"ios": "https://dc.lft.to/lastmile_qr_scan", "android": "https://dc.lft.to/lastmile_qr_scan"}, "is_reserved": 0}, {"lon": -76.933675, "bike_id": "32771b8b0e54af5047ad7282d620ac87", "lat": 38.89912116666667, "fusion_lon": 0.0, "fusion_lat": 0.0, "type": "electric_scooter", "name": "32771b8b0e54af5047ad7282d620ac87", "is_disabled": 0, "rental_uris": {"ios": "https://dc.lft.to/lastmile_qr_scan", "android": "https://dc.lft.to/lastmile_qr_scan"}, "is_reserved": 0}, {"lon": -77.02874866666667, "bike_id": "95f8d0cd89f53133d7c8da88f61664f8", "lat": 38.93267133333333, "fusion_lon": 0.0, "fusion_lat": 0.0, "type": "electric_scooter", "name": "95f8d0cd89f53133d7c8da88f61664f8", "is_disabled": 0, "rental_uris": {"ios": "https://dc.lft.to/lastmile_qr_scan", "android": "https://dc.lft.to/lastmile_qr_scan"}, "is_reserved": 0}, {"lon": -76.98362183333333, "bike_id": "c93f587efb85c2e79c6a2c607b2222d5", "lat": 38.861103166666666, "fusion_lon": 0.0, "fusion_lat": 0.0, "type": "electric_scooter", "name": "c93f587efb85c2e79c6a2c607b2222d5", "is_disabled": 0, "rental_uris": {"ios": "https://dc.lft.to/lastmile_qr_scan", "android": "https://dc.lft.to/lastmile_qr_scan"}, "is_reserved": 0}, {"lon": -77.03388, "bike_id": "2edef721dace9a56cbaf71be40d2af43", "lat": 38.9204885, "fusion_lon": 0.0, "fusion_lat": 0.0, "type": "electric_scooter", "name": "2edef721dace9a56cbaf71be40d2af43", "is_disabled": 0, "rental_uris": {"ios": "https://dc.lft.to/lastmile_qr_scan", "android": "https://dc.lft.to/lastmile_qr_scan"}, "is_reserved": 0}, {"lon": -77.03764533333333, "bike_id": "d2e2ef639df4776c30a8522e7f60fea6", "lat": 38.90777833333333, "fusion_lon": 0.0, "fusion_lat": 0.0, "type": "electric_scooter", "name": "d2e2ef639df4776c30a8522e7f60fea6", "is_disabled": 0, "rental_uris": {"ios": "https://dc.lft.to/lastmile_qr_scan", "android": "https://dc.lft.to/lastmile_qr_scan"}, "is_reserved": 0}, {"lon": -76.9317375, "bike_id": "3ff8a2d74aa5d89e6277575db589cbd8", "lat": 38.898826166666666, "fusion_lon": 0.0, "fusion_lat": 0.0, "type": "electric_scooter", "name": "3ff8a2d74aa5d89e6277575db589cbd8", "is_disabled": 0, "rental_uris": {"ios": "https://dc.lft.to/lastmile_qr_scan", "android": "https://dc.lft.to/lastmile_qr_scan"}, "is_reserved": 0}, {"lon": -77.02384516666666, "bike_id": "89649ab92f174bfdb989bec1991b0022", "lat": 38.900270666666664, "fusion_lon": 0.0, "fusion_lat": 0.0, "type": "electric_scooter", "name": "89649ab92f174bfdb989bec1991b0022", "is_disabled": 0, "rental_uris": {"ios": "https://dc.lft.to/lastmile_qr_scan", "android": "https://dc.lft.to/lastmile_qr_scan"}, "is_reserved": 0}, {"lon": -77.05307166666667, "bike_id": "aa27d462f3b32ea57ea7c585eead353d", "lat": 38.925492166666665, "fusion_lon": 0.0, "fusion_lat": 0.0, "type": "electric_scooter", "name": "aa27d462f3b32ea57ea7c585eead353d", "is_disabled": 0, "rental_uris": {"ios": "https://dc.lft.to/lastmile_qr_scan", "android": "https://dc.lft.to/lastmile_qr_scan"}, "is_reserved": 0}, {"lon": -77.04406433333334, "bike_id": "6b36181f6e38015eb40d6875a75b5025", "lat": 38.929505, "fusion_lon": 0.0, "fusion_lat": 0.0, "type": "electric_scooter", "name": "6b36181f6e38015eb40d6875a75b5025", "is_disabled": 0, "rental_uris": {"ios": "https://dc.lft.to/lastmile_qr_scan", "android": "https://dc.lft.to/lastmile_qr_scan"}, "is_reserved": 0}, {"lon": -77.04454533333333, "bike_id": "7f0ab376c79797f89942bcb75fec0f71", "lat": 38.919417333333335, "fusion_lon": 0.0, "fusion_lat": 0.0, "type": "electric_scooter", "name": "7f0ab376c79797f89942bcb75fec0f71", "is_disabled": 0, "rental_uris": {"ios": "https://dc.lft.to/lastmile_qr_scan", "android": "https://dc.lft.to/lastmile_qr_scan"}, "is_reserved": 0}, {"lon": -76.99771733333333, "bike_id": "956f9cdfa523927b940ee5d16542487a", "lat": 38.92274833333333, "fusion_lon": 0.0, "fusion_lat": 0.0, "type": "electric_scooter", "name": "956f9cdfa523927b940ee5d16542487a", "is_disabled": 0, "rental_uris": {"ios": "https://dc.lft.to/lastmile_qr_scan", "android": "https://dc.lft.to/lastmile_qr_scan"}, "is_reserved": 0}, {"lon": -76.96359066666666, "bike_id": "36ab1f5a3031ca9024e66ea745250143", "lat": 38.934985166666664, "fusion_lon": 0.0, "fusion_lat": 0.0, "type": "electric_scooter", "name": "36ab1f5a3031ca9024e66ea745250143", "is_disabled": 0, "rental_uris": {"ios": "https://dc.lft.to/lastmile_qr_scan", "android": "https://dc.lft.to/lastmile_qr_scan"}, "is_reserved": 0}, {"lon": -77.00069666666667, "bike_id": "4f1eee699f611b9b31c337a0522937cf", "lat": 38.924319, "fusion_lon": 0.0, "fusion_lat": 0.0, "type": "electric_scooter", "name": "4f1eee699f611b9b31c337a0522937cf", "is_disabled": 0, "rental_uris": {"ios": "https://dc.lft.to/lastmile_qr_scan", "android": "https://dc.lft.to/lastmile_qr_scan"}, "is_reserved": 0}, {"lon": -77.00923216666666, "bike_id": "9648ed53c43e239f9cbc6e4c66a79595", "lat": 38.82782566666667, "fusion_lon": 0.0, "fusion_lat": 0.0, "type": "electric_bike", "name": "9648ed53c43e239f9cbc6e4c66a79595", "is_disabled": 0, "rental_uris": {"ios": "https://dc.lft.to/lastmile_qr_scan", "android": "https://dc.lft.to/lastmile_qr_scan"}, "is_reserved": 0}, {"lon": -77.04235016666667, "bike_id": "01c6126236424d977e1e790676c9ef3f", "lat": 38.9001635, "fusion_lon": 0.0, "fusion_lat": 0.0, "type": "electric_scooter", "name": "01c6126236424d977e1e790676c9ef3f", "is_disabled": 0, "rental_uris": {"ios": "https://dc.lft.to/lastmile_qr_scan", "android": "https://dc.lft.to/lastmile_qr_scan"}, "is_reserved": 0}, {"lon": -77.02118166666666, "bike_id": "8351fe9923f70008b8d9bc4b31b63786", "lat": 38.9370155, "fusion_lon": 0.0, "fusion_lat": 0.0, "type": "electric_scooter", "name": "8351fe9923f70008b8d9bc4b31b63786", "is_disabled": 0, "rental_uris": {"ios": "https://dc.lft.to/lastmile_qr_scan", "android": "https://dc.lft.to/lastmile_qr_scan"}, "is_reserved": 0}, {"lon": -76.9829495, "bike_id": "0e55c7ac0a2eea3aeda80d7f96759434", "lat": 38.90099333333333, "fusion_lon": 0.0, "fusion_lat": 0.0, "type": "electric_scooter", "name": "0e55c7ac0a2eea3aeda80d7f96759434", "is_disabled": 0, "rental_uris": {"ios": "https://dc.lft.to/lastmile_qr_scan", "android": "https://dc.lft.to/lastmile_qr_scan"}, "is_reserved": 0}, {"lon": -77.03824216666666, "bike_id": "265076566754cf9accabbe27d1904f32", "lat": 38.930933833333334, "fusion_lon": 0.0, "fusion_lat": 0.0, "type": "electric_scooter", "name": "265076566754cf9accabbe27d1904f32", "is_disabled": 0, "rental_uris": {"ios": "https://dc.lft.to/lastmile_qr_scan", "android": "https://dc.lft.to/lastmile_qr_scan"}, "is_reserved": 0}, {"lon": -77.0295015, "bike_id": "c078a1dd12e0123a82a5b86f29741622", "lat": 38.90502133333333, "fusion_lon": 0.0, "fusion_lat": 0.0, "type": "electric_scooter", "name": "c078a1dd12e0123a82a5b86f29741622", "is_disabled": 0, "rental_uris": {"ios": "https://dc.lft.to/lastmile_qr_scan", "android": "https://dc.lft.to/lastmile_qr_scan"}, "is_reserved": 0}, {"lon": -77.03865266666666, "bike_id": "862c54b9c0097067d8c9612bcf4256de", "lat": 38.90967916666666, "fusion_lon": 0.0, "fusion_lat": 0.0, "type": "electric_scooter", "name": "862c54b9c0097067d8c9612bcf4256de", "is_disabled": 0, "rental_uris": {"ios": "https://dc.lft.to/lastmile_qr_scan", "android": "https://dc.lft.to/lastmile_qr_scan"}, "is_reserved": 0}, {"lon": -77.02395766666666, "bike_id": "1222f5c1c4c9403d5b2ab0ac990e2597", "lat": 38.91148066666667, "fusion_lon": 0.0, "fusion_lat": 0.0, "type": "electric_scooter", "name": "1222f5c1c4c9403d5b2ab0ac990e2597", "is_disabled": 0, "rental_uris": {"ios": "https://dc.lft.to/lastmile_qr_scan", "android": "https://dc.lft.to/lastmile_qr_scan"}, "is_reserved": 0}, {"lon": -77.06293333333333, "bike_id": "b5edccb277e4371a0f3d2235e5458f32", "lat": 38.913145166666666, "fusion_lon": 0.0, "fusion_lat": 0.0, "type": "electric_bike", "name": "b5edccb277e4371a0f3d2235e5458f32", "is_disabled": 0, "rental_uris": {"ios": "https://dc.lft.to/lastmile_qr_scan", "android": "https://dc.lft.to/lastmile_qr_scan"}, "is_reserved": 0}, {"lon": -77.02224433333333, "bike_id": "cf918b203e8edabd9b89453fe530ee02", "lat": 38.905550166666664, "fusion_lon": 0.0, "fusion_lat": 0.0, "type": "electric_scooter", "name": "cf918b203e8edabd9b89453fe530ee02", "is_disabled": 0, "rental_uris": {"ios": "https://dc.lft.to/lastmile_qr_scan", "android": "https://dc.lft.to/lastmile_qr_scan"}, "is_reserved": 0}, {"lon": -77.04264333333333, "bike_id": "e42bb5cd66f7d8d545a59f5fd2230db6", "lat": 38.90020116666667, "fusion_lon": 0.0, "fusion_lat": 0.0, "type": "electric_scooter", "name": "e42bb5cd66f7d8d545a59f5fd2230db6", "is_disabled": 0, "rental_uris": {"ios": "https://dc.lft.to/lastmile_qr_scan", "android": "https://dc.lft.to/lastmile_qr_scan"}, "is_reserved": 0}, {"lon": -77.00584283333333, "bike_id": "7a2066cf0fe6c60ff0672c107b19f0d4", "lat": 38.82996383333333, "fusion_lon": 0.0, "fusion_lat": 0.0, "type": "electric_scooter", "name": "7a2066cf0fe6c60ff0672c107b19f0d4", "is_disabled": 0, "rental_uris": {"ios": "https://dc.lft.to/lastmile_qr_scan", "android": "https://dc.lft.to/lastmile_qr_scan"}, "is_reserved": 0}, {"lon": -77.059624, "bike_id": "b53d07bd835bc4441855041c5467d3df", "lat": 38.905232166666664, "fusion_lon": 0.0, "fusion_lat": 0.0, "type": "electric_scooter", "name": "b53d07bd835bc4441855041c5467d3df", "is_disabled": 0, "rental_uris": {"ios": "https://dc.lft.to/lastmile_qr_scan", "android": "https://dc.lft.to/lastmile_qr_scan"}, "is_reserved": 0}, {"lon": -77.03664483333333, "bike_id": "31077d1f100377689005d7c3e5d832e6", "lat": 38.918154666666666, "fusion_lon": 0.0, "fusion_lat": 0.0, "type": "electric_scooter", "name": "31077d1f100377689005d7c3e5d832e6", "is_disabled": 0, "rental_uris": {"ios": "https://dc.lft.to/lastmile_qr_scan", "android": "https://dc.lft.to/lastmile_qr_scan"}, "is_reserved": 0}, {"lon": -76.987984, "bike_id": "0b40bdf0c433a56a0256898fb9bb1616", "lat": 38.892419, "fusion_lon": 0.0, "fusion_lat": 0.0, "type": "electric_scooter", "name": "0b40bdf0c433a56a0256898fb9bb1616", "is_disabled": 0, "rental_uris": {"ios": "https://dc.lft.to/lastmile_qr_scan", "android": "https://dc.lft.to/lastmile_qr_scan"}, "is_reserved": 0}, {"lon": -77.0556985, "bike_id": "f97448e654bd11980f440dd27c72bb16", "lat": 38.93036766666667, "fusion_lon": 0.0, "fusion_lat": 0.0, "type": "electric_scooter", "name": "f97448e654bd11980f440dd27c72bb16", "is_disabled": 0, "rental_uris": {"ios": "https://dc.lft.to/lastmile_qr_scan", "android": "https://dc.lft.to/lastmile_qr_scan"}, "is_reserved": 0}, {"lon": -77.09471266666667, "bike_id": "43ba205866d35d3567cae17259b5200f", "lat": 38.86939066666667, "fusion_lon": 0.0, "fusion_lat": 0.0, "type": "electric_bike", "name": "43ba205866d35d3567cae17259b5200f", "is_disabled": 0, "rental_uris": {"ios": "https://dc.lft.to/lastmile_qr_scan", "android": "https://dc.lft.to/lastmile_qr_scan"}, "is_reserved": 0}, {"lon": -77.04111833333333, "bike_id": "300a8e56c8ede0edbc00b7a90adafb91", "lat": 38.91558766666667, "fusion_lon": 0.0, "fusion_lat": 0.0, "type": "electric_scooter", "name": "300a8e56c8ede0edbc00b7a90adafb91", "is_disabled": 0, "rental_uris": {"ios": "https://dc.lft.to/lastmile_qr_scan", "android": "https://dc.lft.to/lastmile_qr_scan"}, "is_reserved": 0}, {"lon": -77.10525933333334, "bike_id": "0f28aae50fd449f87e1086764f16afc8", "lat": 38.873709833333336, "fusion_lon": 0.0, "fusion_lat": 0.0, "type": "electric_bike", "name": "0f28aae50fd449f87e1086764f16afc8", "is_disabled": 0, "rental_uris": {"ios": "https://dc.lft.to/lastmile_qr_scan", "android": "https://dc.lft.to/lastmile_qr_scan"}, "is_reserved": 0}, {"lon": -77.0236085, "bike_id": "1e935fb0f6e720441d1f600b7f83bada", "lat": 38.89619883333334, "fusion_lon": 0.0, "fusion_lat": 0.0, "type": "electric_scooter", "name": "1e935fb0f6e720441d1f600b7f83bada", "is_disabled": 0, "rental_uris": {"ios": "https://dc.lft.to/lastmile_qr_scan", "android": "https://dc.lft.to/lastmile_qr_scan"}, "is_reserved": 0}, {"lon": -76.9922505, "bike_id": "84a95e605b9dfde391f9a341a3b57415", "lat": 38.918679833333336, "fusion_lon": 0.0, "fusion_lat": 0.0, "type": "electric_scooter", "name": "84a95e605b9dfde391f9a341a3b57415", "is_disabled": 0, "rental_uris": {"ios": "https://dc.lft.to/lastmile_qr_scan", "android": "https://dc.lft.to/lastmile_qr_scan"}, "is_reserved": 0}, {"lon": -77.078266, "bike_id": "26c5e878e92b40f7bd2aba7d07fb8b5a", "lat": 38.92366583333333, "fusion_lon": 0.0, "fusion_lat": 0.0, "type": "electric_scooter", "name": "26c5e878e92b40f7bd2aba7d07fb8b5a", "is_disabled": 0, "rental_uris": {"ios": "https://dc.lft.to/lastmile_qr_scan", "android": "https://dc.lft.to/lastmile_qr_scan"}, "is_reserved": 0}, {"lon": -77.043578, "bike_id": "966c167b194ec6f2823c331b7996506b", "lat": 38.91218816666667, "fusion_lon": 0.0, "fusion_lat": 0.0, "type": "electric_scooter", "name": "966c167b194ec6f2823c331b7996506b", "is_disabled": 0, "rental_uris": {"ios": "https://dc.lft.to/lastmile_qr_scan", "android": "https://dc.lft.to/lastmile_qr_scan"}, "is_reserved": 0}, {"lon": -77.0324145, "bike_id": "191de7368a27c69ef4749cb9afb39fa2", "lat": 38.929947, "fusion_lon": 0.0, "fusion_lat": 0.0, "type": "electric_scooter", "name": "191de7368a27c69ef4749cb9afb39fa2", "is_disabled": 0, "rental_uris": {"ios": "https://dc.lft.to/lastmile_qr_scan", "android": "https://dc.lft.to/lastmile_qr_scan"}, "is_reserved": 0}, {"lon": -76.98145033333333, "bike_id": "67b9af7c6b24a59c411e3136692668db", "lat": 38.90559316666667, "fusion_lon": 0.0, "fusion_lat": 0.0, "type": "electric_scooter", "name": "67b9af7c6b24a59c411e3136692668db", "is_disabled": 0, "rental_uris": {"ios": "https://dc.lft.to/lastmile_qr_scan", "android": "https://dc.lft.to/lastmile_qr_scan"}, "is_reserved": 0}, {"lon": -77.07289266666666, "bike_id": "093ba096f9205ff2f43145aa7361a6a2", "lat": 38.92281666666667, "fusion_lon": 0.0, "fusion_lat": 0.0, "type": "electric_scooter", "name": "093ba096f9205ff2f43145aa7361a6a2", "is_disabled": 0, "rental_uris": {"ios": "https://dc.lft.to/lastmile_qr_scan", "android": "https://dc.lft.to/lastmile_qr_scan"}, "is_reserved": 0}, {"lon": -76.99088449999999, "bike_id": "7ec10382a5fc0ba9a6a99b649506f979", "lat": 38.9001415, "fusion_lon": 0.0, "fusion_lat": 0.0, "type": "electric_scooter", "name": "7ec10382a5fc0ba9a6a99b649506f979", "is_disabled": 0, "rental_uris": {"ios": "https://dc.lft.to/lastmile_qr_scan", "android": "https://dc.lft.to/lastmile_qr_scan"}, "is_reserved": 0}, {"lon": -77.02767533333333, "bike_id": "6b2074aa3148e29e18741d48f2293200", "lat": 38.934634, "fusion_lon": 0.0, "fusion_lat": 0.0, "type": "electric_scooter", "name": "6b2074aa3148e29e18741d48f2293200", "is_disabled": 0, "rental_uris": {"ios": "https://dc.lft.to/lastmile_qr_scan", "android": "https://dc.lft.to/lastmile_qr_scan"}, "is_reserved": 0}, {"lon": -77.031402, "bike_id": "654358ac8cdfd023135d355d1d9cf3ea", "lat": 38.91489416666667, "fusion_lon": 0.0, "fusion_lat": 0.0, "type": "electric_scooter", "name": "654358ac8cdfd023135d355d1d9cf3ea", "is_disabled": 0, "rental_uris": {"ios": "https://dc.lft.to/lastmile_qr_scan", "android": "https://dc.lft.to/lastmile_qr_scan"}, "is_reserved": 0}, {"lon": -77.10132566666667, "bike_id": "48da6c05f6a3086afd9b71de54eaff47", "lat": 38.85203633333333, "fusion_lon": 0.0, "fusion_lat": 0.0, "type": "electric_bike", "name": "48da6c05f6a3086afd9b71de54eaff47", "is_disabled": 0, "rental_uris": {"ios": "https://dc.lft.to/lastmile_qr_scan", "android": "https://dc.lft.to/lastmile_qr_scan"}, "is_reserved": 0}, {"lon": -77.04861583333333, "bike_id": "d9041b2c38991c7d30ba26ed3336e66f", "lat": 38.909585, "fusion_lon": 0.0, "fusion_lat": 0.0, "type": "electric_scooter", "name": "d9041b2c38991c7d30ba26ed3336e66f", "is_disabled": 0, "rental_uris": {"ios": "https://dc.lft.to/lastmile_qr_scan", "android": "https://dc.lft.to/lastmile_qr_scan"}, "is_reserved": 0}, {"lon": -77.08682583333334, "bike_id": "73ed194485ec9bb123c0be4103d72a9b", "lat": 38.87393183333333, "fusion_lon": 0.0, "fusion_lat": 0.0, "type": "electric_bike", "name": "73ed194485ec9bb123c0be4103d72a9b", "is_disabled": 0, "rental_uris": {"ios": "https://dc.lft.to/lastmile_qr_scan", "android": "https://dc.lft.to/lastmile_qr_scan"}, "is_reserved": 0}, {"lon": -77.05237266666667, "bike_id": "729e2997e5ab352370fd0e8965f2b5f7", "lat": 38.924609, "fusion_lon": 0.0, "fusion_lat": 0.0, "type": "electric_scooter", "name": "729e2997e5ab352370fd0e8965f2b5f7", "is_disabled": 0, "rental_uris": {"ios": "https://dc.lft.to/lastmile_qr_scan", "android": "https://dc.lft.to/lastmile_qr_scan"}, "is_reserved": 0}, {"lon": -77.03924116666667, "bike_id": "b9b7113fec3026de4d3a40b3ea956b51", "lat": 38.92578533333333, "fusion_lon": 0.0, "fusion_lat": 0.0, "type": "electric_scooter", "name": "b9b7113fec3026de4d3a40b3ea956b51", "is_disabled": 0, "rental_uris": {"ios": "https://dc.lft.to/lastmile_qr_scan", "android": "https://dc.lft.to/lastmile_qr_scan"}, "is_reserved": 0}, {"lon": -77.01512566666666, "bike_id": "7dde23e9cced498d849e1c502fc5890e", "lat": 38.926724666666665, "fusion_lon": 0.0, "fusion_lat": 0.0, "type": "electric_bike", "name": "7dde23e9cced498d849e1c502fc5890e", "is_disabled": 0, "rental_uris": {"ios": "https://dc.lft.to/lastmile_qr_scan", "android": "https://dc.lft.to/lastmile_qr_scan"}, "is_reserved": 0}, {"lon": -76.95761133333333, "bike_id": "c123c577c0e3159a4f0b87167007b7be", "lat": 38.88426833333333, "fusion_lon": 0.0, "fusion_lat": 0.0, "type": "electric_scooter", "name": "c123c577c0e3159a4f0b87167007b7be", "is_disabled": 0, "rental_uris": {"ios": "https://dc.lft.to/lastmile_qr_scan", "android": "https://dc.lft.to/lastmile_qr_scan"}, "is_reserved": 0}, {"lon": -77.025054, "bike_id": "b1aba336acb7d4222bb8a912aa335622", "lat": 38.9264155, "fusion_lon": 0.0, "fusion_lat": 0.0, "type": "electric_scooter", "name": "b1aba336acb7d4222bb8a912aa335622", "is_disabled": 0, "rental_uris": {"ios": "https://dc.lft.to/lastmile_qr_scan", "android": "https://dc.lft.to/lastmile_qr_scan"}, "is_reserved": 0}, {"lon": -77.028474, "bike_id": "2bb00eac3bec51e3eb30cf0ce3c9919c", "lat": 38.92572083333334, "fusion_lon": 0.0, "fusion_lat": 0.0, "type": "electric_scooter", "name": "2bb00eac3bec51e3eb30cf0ce3c9919c", "is_disabled": 0, "rental_uris": {"ios": "https://dc.lft.to/lastmile_qr_scan", "android": "https://dc.lft.to/lastmile_qr_scan"}, "is_reserved": 0}, {"lon": -77.0105565, "bike_id": "67f8bffaefd7aef8079023ecfed5006e", "lat": 38.963389166666666, "fusion_lon": 0.0, "fusion_lat": 0.0, "type": "electric_scooter", "name": "67f8bffaefd7aef8079023ecfed5006e", "is_disabled": 0, "rental_uris": {"ios": "https://dc.lft.to/lastmile_qr_scan", "android": "https://dc.lft.to/lastmile_qr_scan"}, "is_reserved": 0}, {"lon": -77.00993933333334, "bike_id": "81853d190e8869c17e822cb4507163fd", "lat": 38.90388316666667, "fusion_lon": 0.0, "fusion_lat": 0.0, "type": "electric_scooter", "name": "81853d190e8869c17e822cb4507163fd", "is_disabled": 0, "rental_uris": {"ios": "https://dc.lft.to/lastmile_qr_scan", "android": "https://dc.lft.to/lastmile_qr_scan"}, "is_reserved": 0}, {"lon": -77.0398985, "bike_id": "1b3bd4570183bb7f1bd53df46bfa3fd8", "lat": 38.91624683333333, "fusion_lon": 0.0, "fusion_lat": 0.0, "type": "electric_scooter", "name": "1b3bd4570183bb7f1bd53df46bfa3fd8", "is_disabled": 0, "rental_uris": {"ios": "https://dc.lft.to/lastmile_qr_scan", "android": "https://dc.lft.to/lastmile_qr_scan"}, "is_reserved": 0}, {"lon": -77.0701755, "bike_id": "edd9d5ff1a5104c658b2d25600abc887", "lat": 38.905886, "fusion_lon": 0.0, "fusion_lat": 0.0, "type": "electric_bike", "name": "edd9d5ff1a5104c658b2d25600abc887", "is_disabled": 0, "rental_uris": {"ios": "https://dc.lft.to/lastmile_qr_scan", "android": "https://dc.lft.to/lastmile_qr_scan"}, "is_reserved": 0}, {"lon": -77.028432, "bike_id": "62a8f7110ed70dc814283ab9be81d087", "lat": 38.92957766666667, "fusion_lon": 0.0, "fusion_lat": 0.0, "type": "electric_scooter", "name": "62a8f7110ed70dc814283ab9be81d087", "is_disabled": 0, "rental_uris": {"ios": "https://dc.lft.to/lastmile_qr_scan", "android": "https://dc.lft.to/lastmile_qr_scan"}, "is_reserved": 0}, {"lon": -77.10332416666667, "bike_id": "666e1c73c702c80ccdb70fc5aafdd50e", "lat": 38.885538, "fusion_lon": 0.0, "fusion_lat": 0.0, "type": "electric_bike", "name": "666e1c73c702c80ccdb70fc5aafdd50e", "is_disabled": 0, "rental_uris": {"ios": "https://dc.lft.to/lastmile_qr_scan", "android": "https://dc.lft.to/lastmile_qr_scan"}, "is_reserved": 0}, {"lon": -77.03191483333333, "bike_id": "55152ec7aad29254c9333e4509e946fb", "lat": 38.90510416666667, "fusion_lon": 0.0, "fusion_lat": 0.0, "type": "electric_scooter", "name": "55152ec7aad29254c9333e4509e946fb", "is_disabled": 0, "rental_uris": {"ios": "https://dc.lft.to/lastmile_qr_scan", "android": "https://dc.lft.to/lastmile_qr_scan"}, "is_reserved": 0}, {"lon": -77.0326885, "bike_id": "f2a25dcceb842a7e946892a371d1db65", "lat": 38.93660783333333, "fusion_lon": 0.0, "fusion_lat": 0.0, "type": "electric_scooter", "name": "f2a25dcceb842a7e946892a371d1db65", "is_disabled": 0, "rental_uris": {"ios": "https://dc.lft.to/lastmile_qr_scan", "android": "https://dc.lft.to/lastmile_qr_scan"}, "is_reserved": 0}, {"lon": -77.02785183333333, "bike_id": "ded5c9aa07ddaf93ccb1f358856b9263", "lat": 38.9013555, "fusion_lon": 0.0, "fusion_lat": 0.0, "type": "electric_scooter", "name": "ded5c9aa07ddaf93ccb1f358856b9263", "is_disabled": 0, "rental_uris": {"ios": "https://dc.lft.to/lastmile_qr_scan", "android": "https://dc.lft.to/lastmile_qr_scan"}, "is_reserved": 0}, {"lon": -77.002137, "bike_id": "b0ca3c89c1865750add58c84c8f9d96e", "lat": 38.900354166666666, "fusion_lon": 0.0, "fusion_lat": 0.0, "type": "electric_scooter", "name": "b0ca3c89c1865750add58c84c8f9d96e", "is_disabled": 0, "rental_uris": {"ios": "https://dc.lft.to/lastmile_qr_scan", "android": "https://dc.lft.to/lastmile_qr_scan"}, "is_reserved": 0}, {"lon": -77.0217325, "bike_id": "d7c34aa2f0e2492cce41f7cf7a68fe86", "lat": 38.897315, "fusion_lon": 0.0, "fusion_lat": 0.0, "type": "electric_scooter", "name": "d7c34aa2f0e2492cce41f7cf7a68fe86", "is_disabled": 0, "rental_uris": {"ios": "https://dc.lft.to/lastmile_qr_scan", "android": "https://dc.lft.to/lastmile_qr_scan"}, "is_reserved": 0}, {"lon": -77.04113716666667, "bike_id": "5c65eefb9f9a4c262e9b58785c865fe2", "lat": 38.90867133333333, "fusion_lon": 0.0, "fusion_lat": 0.0, "type": "electric_scooter", "name": "5c65eefb9f9a4c262e9b58785c865fe2", "is_disabled": 0, "rental_uris": {"ios": "https://dc.lft.to/lastmile_qr_scan", "android": "https://dc.lft.to/lastmile_qr_scan"}, "is_reserved": 0}, {"lon": -77.0352795, "bike_id": "3a7c171a32d4151b98a6553e0f55915f", "lat": 38.927262666666664, "fusion_lon": 0.0, "fusion_lat": 0.0, "type": "electric_scooter", "name": "3a7c171a32d4151b98a6553e0f55915f", "is_disabled": 0, "rental_uris": {"ios": "https://dc.lft.to/lastmile_qr_scan", "android": "https://dc.lft.to/lastmile_qr_scan"}, "is_reserved": 0}, {"lon": -77.02515166666667, "bike_id": "5af9030328a028a9e3113d16ed21019e", "lat": 38.90427966666667, "fusion_lon": 0.0, "fusion_lat": 0.0, "type": "electric_scooter", "name": "5af9030328a028a9e3113d16ed21019e", "is_disabled": 0, "rental_uris": {"ios": "https://dc.lft.to/lastmile_qr_scan", "android": "https://dc.lft.to/lastmile_qr_scan"}, "is_reserved": 0}, {"lon": -77.00937966666666, "bike_id": "7110d2294039e8913937606391b251b1", "lat": 38.89972266666667, "fusion_lon": 0.0, "fusion_lat": 0.0, "type": "electric_scooter", "name": "7110d2294039e8913937606391b251b1", "is_disabled": 0, "rental_uris": {"ios": "https://dc.lft.to/lastmile_qr_scan", "android": "https://dc.lft.to/lastmile_qr_scan"}, "is_reserved": 0}, {"lon": -77.03325283333334, "bike_id": "04a2d29cef77966cdc50854acf2081e3", "lat": 38.921475666666666, "fusion_lon": 0.0, "fusion_lat": 0.0, "type": "electric_scooter", "name": "04a2d29cef77966cdc50854acf2081e3", "is_disabled": 0, "rental_uris": {"ios": "https://dc.lft.to/lastmile_qr_scan", "android": "https://dc.lft.to/lastmile_qr_scan"}, "is_reserved": 0}, {"lon": -77.083353, "bike_id": "df819332766d9df78da0f6bd195c11d7", "lat": 38.85437133333333, "fusion_lon": 0.0, "fusion_lat": 0.0, "type": "electric_bike", "name": "df819332766d9df78da0f6bd195c11d7", "is_disabled": 0, "rental_uris": {"ios": "https://dc.lft.to/lastmile_qr_scan", "android": "https://dc.lft.to/lastmile_qr_scan"}, "is_reserved": 0}, {"lon": -77.0417615, "bike_id": "7e439e093536b7e4fb09900c51e31f14", "lat": 38.91392583333333, "fusion_lon": 0.0, "fusion_lat": 0.0, "type": "electric_scooter", "name": "7e439e093536b7e4fb09900c51e31f14", "is_disabled": 0, "rental_uris": {"ios": "https://dc.lft.to/lastmile_qr_scan", "android": "https://dc.lft.to/lastmile_qr_scan"}, "is_reserved": 0}, {"lon": -76.97824433333334, "bike_id": "017743f5861761547cd2287abb07b58e", "lat": 38.8436435, "fusion_lon": 0.0, "fusion_lat": 0.0, "type": "electric_bike", "name": "017743f5861761547cd2287abb07b58e", "is_disabled": 0, "rental_uris": {"ios": "https://dc.lft.to/lastmile_qr_scan", "android": "https://dc.lft.to/lastmile_qr_scan"}, "is_reserved": 0}, {"lon": -77.038659, "bike_id": "4ebe015bbc6e6f816b893ffd50d029bb", "lat": 38.912651333333336, "fusion_lon": 0.0, "fusion_lat": 0.0, "type": "electric_scooter", "name": "4ebe015bbc6e6f816b893ffd50d029bb", "is_disabled": 0, "rental_uris": {"ios": "https://dc.lft.to/lastmile_qr_scan", "android": "https://dc.lft.to/lastmile_qr_scan"}, "is_reserved": 0}, {"lon": -77.02311833333333, "bike_id": "5036e9a3506451d49d4947afac9e19e3", "lat": 38.9088465, "fusion_lon": 0.0, "fusion_lat": 0.0, "type": "electric_scooter", "name": "5036e9a3506451d49d4947afac9e19e3", "is_disabled": 0, "rental_uris": {"ios": "https://dc.lft.to/lastmile_qr_scan", "android": "https://dc.lft.to/lastmile_qr_scan"}, "is_reserved": 0}, {"lon": -77.01723383333334, "bike_id": "1f2750b0877f55d036cc0542af0f9fe3", "lat": 38.905614666666665, "fusion_lon": 0.0, "fusion_lat": 0.0, "type": "electric_scooter", "name": "1f2750b0877f55d036cc0542af0f9fe3", "is_disabled": 0, "rental_uris": {"ios": "https://dc.lft.to/lastmile_qr_scan", "android": "https://dc.lft.to/lastmile_qr_scan"}, "is_reserved": 0}, {"lon": -77.03587066666667, "bike_id": "2e4b36e112079465a235eaa9a3d7ddde", "lat": 38.99223416666667, "fusion_lon": 0.0, "fusion_lat": 0.0, "type": "electric_scooter", "name": "2e4b36e112079465a235eaa9a3d7ddde", "is_disabled": 0, "rental_uris": {"ios": "https://dc.lft.to/lastmile_qr_scan", "android": "https://dc.lft.to/lastmile_qr_scan"}, "is_reserved": 0}, {"lon": -77.0219285, "bike_id": "4231f4b9fae1fd71edae67e15537f1b6", "lat": 38.898360833333335, "fusion_lon": 0.0, "fusion_lat": 0.0, "type": "electric_scooter", "name": "4231f4b9fae1fd71edae67e15537f1b6", "is_disabled": 0, "rental_uris": {"ios": "https://dc.lft.to/lastmile_qr_scan", "android": "https://dc.lft.to/lastmile_qr_scan"}, "is_reserved": 0}, {"lon": -77.02951666666667, "bike_id": "aefbd1bd4e32694243654540392e09fd", "lat": 38.896455833333334, "fusion_lon": 0.0, "fusion_lat": 0.0, "type": "electric_scooter", "name": "aefbd1bd4e32694243654540392e09fd", "is_disabled": 0, "rental_uris": {"ios": "https://dc.lft.to/lastmile_qr_scan", "android": "https://dc.lft.to/lastmile_qr_scan"}, "is_reserved": 0}, {"lon": -77.040138, "bike_id": "da2db5e4d9e847850d8892b66eb1c762", "lat": 38.90996583333333, "fusion_lon": 0.0, "fusion_lat": 0.0, "type": "electric_scooter", "name": "da2db5e4d9e847850d8892b66eb1c762", "is_disabled": 0, "rental_uris": {"ios": "https://dc.lft.to/lastmile_qr_scan", "android": "https://dc.lft.to/lastmile_qr_scan"}, "is_reserved": 0}, {"lon": -77.0378995, "bike_id": "8e886dd1237f1c8ba0b3f794f920a1ab", "lat": 38.930178833333336, "fusion_lon": 0.0, "fusion_lat": 0.0, "type": "electric_scooter", "name": "8e886dd1237f1c8ba0b3f794f920a1ab", "is_disabled": 0, "rental_uris": {"ios": "https://dc.lft.to/lastmile_qr_scan", "android": "https://dc.lft.to/lastmile_qr_scan"}, "is_reserved": 0}, {"lon": -77.017855, "bike_id": "b678083f5703ed773073ace49122e362", "lat": 38.877088, "fusion_lon": 0.0, "fusion_lat": 0.0, "type": "electric_scooter", "name": "b678083f5703ed773073ace49122e362", "is_disabled": 0, "rental_uris": {"ios": "https://dc.lft.to/lastmile_qr_scan", "android": "https://dc.lft.to/lastmile_qr_scan"}, "is_reserved": 0}, {"lon": -76.89538083333333, "bike_id": "ba23dd96872af4da9aece3d09ea407cc", "lat": 38.945518166666666, "fusion_lon": 0.0, "fusion_lat": 0.0, "type": "electric_bike", "name": "ba23dd96872af4da9aece3d09ea407cc", "is_disabled": 0, "rental_uris": {"ios": "https://dc.lft.to/lastmile_qr_scan", "android": "https://dc.lft.to/lastmile_qr_scan"}, "is_reserved": 0}, {"lon": -77.129776, "bike_id": "9e7692df9f1f8bd582fec2bc32662ecb", "lat": 38.799863333333334, "fusion_lon": 0.0, "fusion_lat": 0.0, "type": "electric_bike", "name": "9e7692df9f1f8bd582fec2bc32662ecb", "is_disabled": 0, "rental_uris": {"ios": "https://dc.lft.to/lastmile_qr_scan", "android": "https://dc.lft.to/lastmile_qr_scan"}, "is_reserved": 0}, {"lon": -77.03575183333334, "bike_id": "f462c1f0f8716e2ff144a01d7ae0179c", "lat": 38.934775333333334, "fusion_lon": 0.0, "fusion_lat": 0.0, "type": "electric_scooter", "name": "f462c1f0f8716e2ff144a01d7ae0179c", "is_disabled": 0, "rental_uris": {"ios": "https://dc.lft.to/lastmile_qr_scan", "android": "https://dc.lft.to/lastmile_qr_scan"}, "is_reserved": 0}, {"lon": -77.07131466666667, "bike_id": "6cbe8b6213a51cb10580d59589c77c03", "lat": 38.919736666666665, "fusion_lon": 0.0, "fusion_lat": 0.0, "type": "electric_scooter", "name": "6cbe8b6213a51cb10580d59589c77c03", "is_disabled": 0, "rental_uris": {"ios": "https://dc.lft.to/lastmile_qr_scan", "android": "https://dc.lft.to/lastmile_qr_scan"}, "is_reserved": 0}, {"lon": -77.03442666666666, "bike_id": "a8cd7ced53b1ec17e6b6cb13a06baefd", "lat": 38.917999, "fusion_lon": 0.0, "fusion_lat": 0.0, "type": "electric_scooter", "name": "a8cd7ced53b1ec17e6b6cb13a06baefd", "is_disabled": 0, "rental_uris": {"ios": "https://dc.lft.to/lastmile_qr_scan", "android": "https://dc.lft.to/lastmile_qr_scan"}, "is_reserved": 0}, {"lon": -77.03514066666666, "bike_id": "fc125b7760108a1c0014c785efb4b417", "lat": 38.921973333333334, "fusion_lon": 0.0, "fusion_lat": 0.0, "type": "electric_scooter", "name": "fc125b7760108a1c0014c785efb4b417", "is_disabled": 0, "rental_uris": {"ios": "https://dc.lft.to/lastmile_qr_scan", "android": "https://dc.lft.to/lastmile_qr_scan"}, "is_reserved": 0}, {"lon": -77.02168733333333, "bike_id": "135b6b9223adf829222091bc4aea198c", "lat": 38.899528, "fusion_lon": 0.0, "fusion_lat": 0.0, "type": "electric_scooter", "name": "135b6b9223adf829222091bc4aea198c", "is_disabled": 0, "rental_uris": {"ios": "https://dc.lft.to/lastmile_qr_scan", "android": "https://dc.lft.to/lastmile_qr_scan"}, "is_reserved": 0}, {"lon": -76.97806016666667, "bike_id": "5ddc4b1acbd1569e459c6b7db485f92c", "lat": 38.906676, "fusion_lon": 0.0, "fusion_lat": 0.0, "type": "electric_scooter", "name": "5ddc4b1acbd1569e459c6b7db485f92c", "is_disabled": 0, "rental_uris": {"ios": "https://dc.lft.to/lastmile_qr_scan", "android": "https://dc.lft.to/lastmile_qr_scan"}, "is_reserved": 0}, {"lon": -77.006843, "bike_id": "644521152d7ed0c6b3e3a71b014324db", "lat": 38.94493033333333, "fusion_lon": 0.0, "fusion_lat": 0.0, "type": "electric_bike", "name": "644521152d7ed0c6b3e3a71b014324db", "is_disabled": 0, "rental_uris": {"ios": "https://dc.lft.to/lastmile_qr_scan", "android": "https://dc.lft.to/lastmile_qr_scan"}, "is_reserved": 0}, {"lon": -77.025732, "bike_id": "b705aa7ab8565689fcb1d377f9f41bca", "lat": 38.91483866666667, "fusion_lon": 0.0, "fusion_lat": 0.0, "type": "electric_scooter", "name": "b705aa7ab8565689fcb1d377f9f41bca", "is_disabled": 0, "rental_uris": {"ios": "https://dc.lft.to/lastmile_qr_scan", "android": "https://dc.lft.to/lastmile_qr_scan"}, "is_reserved": 0}, {"lon": -77.04394783333333, "bike_id": "d0f6c7023e882a396b06239e9cedfbd3", "lat": 38.92111516666667, "fusion_lon": 0.0, "fusion_lat": 0.0, "type": "electric_scooter", "name": "d0f6c7023e882a396b06239e9cedfbd3", "is_disabled": 0, "rental_uris": {"ios": "https://dc.lft.to/lastmile_qr_scan", "android": "https://dc.lft.to/lastmile_qr_scan"}, "is_reserved": 0}, {"lon": -77.03218916666667, "bike_id": "635295d80a80736a93151fcc5ee27234", "lat": 38.89215216666667, "fusion_lon": 0.0, "fusion_lat": 0.0, "type": "electric_scooter", "name": "635295d80a80736a93151fcc5ee27234", "is_disabled": 0, "rental_uris": {"ios": "https://dc.lft.to/lastmile_qr_scan", "android": "https://dc.lft.to/lastmile_qr_scan"}, "is_reserved": 0}, {"lon": -77.0312555, "bike_id": "6055f441c26d62afc08ecf4fa09ea68e", "lat": 38.988244333333334, "fusion_lon": 0.0, "fusion_lat": 0.0, "type": "electric_scooter", "name": "6055f441c26d62afc08ecf4fa09ea68e", "is_disabled": 0, "rental_uris": {"ios": "https://dc.lft.to/lastmile_qr_scan", "android": "https://dc.lft.to/lastmile_qr_scan"}, "is_reserved": 0}, {"lon": -77.0202895, "bike_id": "8a82bdd4b92d78627d78f18f96229a87", "lat": 38.91541266666667, "fusion_lon": 0.0, "fusion_lat": 0.0, "type": "electric_scooter", "name": "8a82bdd4b92d78627d78f18f96229a87", "is_disabled": 0, "rental_uris": {"ios": "https://dc.lft.to/lastmile_qr_scan", "android": "https://dc.lft.to/lastmile_qr_scan"}, "is_reserved": 0}, {"lon": -77.04113533333333, "bike_id": "843276652bd96b4bd9250905a4093623", "lat": 38.916932833333334, "fusion_lon": 0.0, "fusion_lat": 0.0, "type": "electric_scooter", "name": "843276652bd96b4bd9250905a4093623", "is_disabled": 0, "rental_uris": {"ios": "https://dc.lft.to/lastmile_qr_scan", "android": "https://dc.lft.to/lastmile_qr_scan"}, "is_reserved": 0}, {"lon": -77.04170916666666, "bike_id": "b89ae519c70960d1dcd3c03cbc9474df", "lat": 38.90664433333333, "fusion_lon": 0.0, "fusion_lat": 0.0, "type": "electric_scooter", "name": "b89ae519c70960d1dcd3c03cbc9474df", "is_disabled": 0, "rental_uris": {"ios": "https://dc.lft.to/lastmile_qr_scan", "android": "https://dc.lft.to/lastmile_qr_scan"}, "is_reserved": 0}, {"lon": -77.02170016666666, "bike_id": "f0286742060c9e37a8ae325eae02d31e", "lat": 38.897267166666666, "fusion_lon": 0.0, "fusion_lat": 0.0, "type": "electric_scooter", "name": "f0286742060c9e37a8ae325eae02d31e", "is_disabled": 0, "rental_uris": {"ios": "https://dc.lft.to/lastmile_qr_scan", "android": "https://dc.lft.to/lastmile_qr_scan"}, "is_reserved": 0}, {"lon": -77.0035225, "bike_id": "f37b4bbad122fd0dd41ca87b300a3ce3", "lat": 38.89928866666666, "fusion_lon": 0.0, "fusion_lat": 0.0, "type": "electric_scooter", "name": "f37b4bbad122fd0dd41ca87b300a3ce3", "is_disabled": 0, "rental_uris": {"ios": "https://dc.lft.to/lastmile_qr_scan", "android": "https://dc.lft.to/lastmile_qr_scan"}, "is_reserved": 0}, {"lon": -77.22800566666666, "bike_id": "0c1d217f393b714b8eff40ab4982e24a", "lat": 38.91014916666666, "fusion_lon": 0.0, "fusion_lat": 0.0, "type": "electric_bike", "name": "0c1d217f393b714b8eff40ab4982e24a", "is_disabled": 0, "rental_uris": {"ios": "https://dc.lft.to/lastmile_qr_scan", "android": "https://dc.lft.to/lastmile_qr_scan"}, "is_reserved": 0}, {"lon": -76.96386816666667, "bike_id": "5b023d350a68aac2190007b741d95748", "lat": 38.951672, "fusion_lon": 0.0, "fusion_lat": 0.0, "type": "electric_bike", "name": "5b023d350a68aac2190007b741d95748", "is_disabled": 0, "rental_uris": {"ios": "https://dc.lft.to/lastmile_qr_scan", "android": "https://dc.lft.to/lastmile_qr_scan"}, "is_reserved": 0}, {"lon": -77.04352833333333, "bike_id": "7a239ca1752e62030efabe2a1983138a", "lat": 38.910484, "fusion_lon": 0.0, "fusion_lat": 0.0, "type": "electric_scooter", "name": "7a239ca1752e62030efabe2a1983138a", "is_disabled": 0, "rental_uris": {"ios": "https://dc.lft.to/lastmile_qr_scan", "android": "https://dc.lft.to/lastmile_qr_scan"}, "is_reserved": 0}, {"lon": -77.02797333333334, "bike_id": "eca139099f7c9f29d1569451807b3d09", "lat": 38.953971, "fusion_lon": 0.0, "fusion_lat": 0.0, "type": "electric_scooter", "name": "eca139099f7c9f29d1569451807b3d09", "is_disabled": 0, "rental_uris": {"ios": "https://dc.lft.to/lastmile_qr_scan", "android": "https://dc.lft.to/lastmile_qr_scan"}, "is_reserved": 0}, {"lon": -77.020949, "bike_id": "e6d5c11d509721c3f66460addc544c31", "lat": 38.929112333333336, "fusion_lon": 0.0, "fusion_lat": 0.0, "type": "electric_scooter", "name": "e6d5c11d509721c3f66460addc544c31", "is_disabled": 0, "rental_uris": {"ios": "https://dc.lft.to/lastmile_qr_scan", "android": "https://dc.lft.to/lastmile_qr_scan"}, "is_reserved": 0}, {"lon": -77.007492, "bike_id": "a234070dd318bab86c5e2a6849354af1", "lat": 38.925242833333336, "fusion_lon": 0.0, "fusion_lat": 0.0, "type": "electric_scooter", "name": "a234070dd318bab86c5e2a6849354af1", "is_disabled": 0, "rental_uris": {"ios": "https://dc.lft.to/lastmile_qr_scan", "android": "https://dc.lft.to/lastmile_qr_scan"}, "is_reserved": 0}, {"lon": -77.02953283333333, "bike_id": "a9ae0eb2caf32712d73e43cd152520c1", "lat": 38.927666333333335, "fusion_lon": 0.0, "fusion_lat": 0.0, "type": "electric_scooter", "name": "a9ae0eb2caf32712d73e43cd152520c1", "is_disabled": 0, "rental_uris": {"ios": "https://dc.lft.to/lastmile_qr_scan", "android": "https://dc.lft.to/lastmile_qr_scan"}, "is_reserved": 0}, {"lon": -77.05313083333333, "bike_id": "f4d8084d9448af670b68fa25e470fb28", "lat": 38.9410355, "fusion_lon": 0.0, "fusion_lat": 0.0, "type": "electric_bike", "name": "f4d8084d9448af670b68fa25e470fb28", "is_disabled": 0, "rental_uris": {"ios": "https://dc.lft.to/lastmile_qr_scan", "android": "https://dc.lft.to/lastmile_qr_scan"}, "is_reserved": 0}, {"lon": -77.05881066666667, "bike_id": "d742f76e39d8474361bc819100eca9d9", "lat": 38.935529333333335, "fusion_lon": 0.0, "fusion_lat": 0.0, "type": "electric_scooter", "name": "d742f76e39d8474361bc819100eca9d9", "is_disabled": 0, "rental_uris": {"ios": "https://dc.lft.to/lastmile_qr_scan", "android": "https://dc.lft.to/lastmile_qr_scan"}, "is_reserved": 0}, {"lon": -77.0146695, "bike_id": "a4e977e4b2e9dc0d8ddd4a1570849016", "lat": 38.91472133333333, "fusion_lon": 0.0, "fusion_lat": 0.0, "type": "electric_scooter", "name": "a4e977e4b2e9dc0d8ddd4a1570849016", "is_disabled": 0, "rental_uris": {"ios": "https://dc.lft.to/lastmile_qr_scan", "android": "https://dc.lft.to/lastmile_qr_scan"}, "is_reserved": 0}, {"lon": -77.11783616666666, "bike_id": "c9b697d0a4e7b248853586a1c79d79c9", "lat": 39.0549255, "fusion_lon": 0.0, "fusion_lat": 0.0, "type": "electric_bike", "name": "c9b697d0a4e7b248853586a1c79d79c9", "is_disabled": 0, "rental_uris": {"ios": "https://dc.lft.to/lastmile_qr_scan", "android": "https://dc.lft.to/lastmile_qr_scan"}, "is_reserved": 0}, {"lon": -77.06342416666666, "bike_id": "8a58c55657ea133a39122adbf925b6b5", "lat": 38.9067955, "fusion_lon": 0.0, "fusion_lat": 0.0, "type": "electric_bike", "name": "8a58c55657ea133a39122adbf925b6b5", "is_disabled": 0, "rental_uris": {"ios": "https://dc.lft.to/lastmile_qr_scan", "android": "https://dc.lft.to/lastmile_qr_scan"}, "is_reserved": 0}, {"lon": -77.02285833333333, "bike_id": "76e1b261ea2f27166d936c791cb16ae2", "lat": 38.9168505, "fusion_lon": 0.0, "fusion_lat": 0.0, "type": "electric_scooter", "name": "76e1b261ea2f27166d936c791cb16ae2", "is_disabled": 0, "rental_uris": {"ios": "https://dc.lft.to/lastmile_qr_scan", "android": "https://dc.lft.to/lastmile_qr_scan"}, "is_reserved": 0}, {"lon": -77.04180766666667, "bike_id": "655a856b23d4f620a15104328208498f", "lat": 38.919749333333336, "fusion_lon": 0.0, "fusion_lat": 0.0, "type": "electric_scooter", "name": "655a856b23d4f620a15104328208498f", "is_disabled": 0, "rental_uris": {"ios": "https://dc.lft.to/lastmile_qr_scan", "android": "https://dc.lft.to/lastmile_qr_scan"}, "is_reserved": 0}, {"lon": -77.0327545, "bike_id": "c470ea17292c539778a0700e28ca9c4f", "lat": 38.929361666666665, "fusion_lon": 0.0, "fusion_lat": 0.0, "type": "electric_scooter", "name": "c470ea17292c539778a0700e28ca9c4f", "is_disabled": 0, "rental_uris": {"ios": "https://dc.lft.to/lastmile_qr_scan", "android": "https://dc.lft.to/lastmile_qr_scan"}, "is_reserved": 0}, {"lon": -77.03290216666667, "bike_id": "fa532c12c7b527cb4cb036b2b45bf60e", "lat": 38.95647683333333, "fusion_lon": 0.0, "fusion_lat": 0.0, "type": "electric_scooter", "name": "fa532c12c7b527cb4cb036b2b45bf60e", "is_disabled": 0, "rental_uris": {"ios": "https://dc.lft.to/lastmile_qr_scan", "android": "https://dc.lft.to/lastmile_qr_scan"}, "is_reserved": 0}, {"lon": -77.064929, "bike_id": "7b2bc5e54674d8a21de5a80f882b9435", "lat": 38.9290025, "fusion_lon": 0.0, "fusion_lat": 0.0, "type": "electric_scooter", "name": "7b2bc5e54674d8a21de5a80f882b9435", "is_disabled": 0, "rental_uris": {"ios": "https://dc.lft.to/lastmile_qr_scan", "android": "https://dc.lft.to/lastmile_qr_scan"}, "is_reserved": 0}, {"lon": -77.03259883333334, "bike_id": "1f55415f70c36ffecce1a180dac54997", "lat": 38.92875566666667, "fusion_lon": 0.0, "fusion_lat": 0.0, "type": "electric_scooter", "name": "1f55415f70c36ffecce1a180dac54997", "is_disabled": 0, "rental_uris": {"ios": "https://dc.lft.to/lastmile_qr_scan", "android": "https://dc.lft.to/lastmile_qr_scan"}, "is_reserved": 0}, {"lon": -77.04807516666666, "bike_id": "57658329aeb530c22bba3f9b5692d8c8", "lat": 38.9140435, "fusion_lon": 0.0, "fusion_lat": 0.0, "type": "electric_scooter", "name": "57658329aeb530c22bba3f9b5692d8c8", "is_disabled": 0, "rental_uris": {"ios": "https://dc.lft.to/lastmile_qr_scan", "android": "https://dc.lft.to/lastmile_qr_scan"}, "is_reserved": 0}, {"lon": -77.0243785, "bike_id": "f716b9107230bde88eb05b2bfefb7db9", "lat": 38.884295333333334, "fusion_lon": 0.0, "fusion_lat": 0.0, "type": "electric_scooter", "name": "f716b9107230bde88eb05b2bfefb7db9", "is_disabled": 0, "rental_uris": {"ios": "https://dc.lft.to/lastmile_qr_scan", "android": "https://dc.lft.to/lastmile_qr_scan"}, "is_reserved": 0}, {"lon": -77.00365283333333, "bike_id": "698a00a6874e3a361138507fcf7220de", "lat": 38.8987435, "fusion_lon": 0.0, "fusion_lat": 0.0, "type": "electric_scooter", "name": "698a00a6874e3a361138507fcf7220de", "is_disabled": 0, "rental_uris": {"ios": "https://dc.lft.to/lastmile_qr_scan", "android": "https://dc.lft.to/lastmile_qr_scan"}, "is_reserved": 0}, {"lon": -77.01838733333334, "bike_id": "56d4e11dbf0121e28edb94a20a2853c9", "lat": 38.901030166666665, "fusion_lon": 0.0, "fusion_lat": 0.0, "type": "electric_scooter", "name": "56d4e11dbf0121e28edb94a20a2853c9", "is_disabled": 0, "rental_uris": {"ios": "https://dc.lft.to/lastmile_qr_scan", "android": "https://dc.lft.to/lastmile_qr_scan"}, "is_reserved": 0}, {"lon": -77.00191283333334, "bike_id": "ebdd09a26537993c75cd098943f2e635", "lat": 38.900453166666665, "fusion_lon": 0.0, "fusion_lat": 0.0, "type": "electric_scooter", "name": "ebdd09a26537993c75cd098943f2e635", "is_disabled": 0, "rental_uris": {"ios": "https://dc.lft.to/lastmile_qr_scan", "android": "https://dc.lft.to/lastmile_qr_scan"}, "is_reserved": 0}, {"lon": -77.02271166666667, "bike_id": "573deecd9902304abd1e03e9b639bcde", "lat": 38.9072375, "fusion_lon": 0.0, "fusion_lat": 0.0, "type": "electric_scooter", "name": "573deecd9902304abd1e03e9b639bcde", "is_disabled": 0, "rental_uris": {"ios": "https://dc.lft.to/lastmile_qr_scan", "android": "https://dc.lft.to/lastmile_qr_scan"}, "is_reserved": 0}, {"lon": -77.040277, "bike_id": "0a17e42215b5e7f774aa5652bd4f7c7f", "lat": 38.903940166666665, "fusion_lon": 0.0, "fusion_lat": 0.0, "type": "electric_scooter", "name": "0a17e42215b5e7f774aa5652bd4f7c7f", "is_disabled": 0, "rental_uris": {"ios": "https://dc.lft.to/lastmile_qr_scan", "android": "https://dc.lft.to/lastmile_qr_scan"}, "is_reserved": 0}, {"lon": -77.03358866666666, "bike_id": "ea6d8a9163e15c43b8d65c6f98950416", "lat": 38.92343233333333, "fusion_lon": 0.0, "fusion_lat": 0.0, "type": "electric_scooter", "name": "ea6d8a9163e15c43b8d65c6f98950416", "is_disabled": 0, "rental_uris": {"ios": "https://dc.lft.to/lastmile_qr_scan", "android": "https://dc.lft.to/lastmile_qr_scan"}, "is_reserved": 0}, {"lon": -76.98241516666667, "bike_id": "77cd83ffa80d31d60d58739402f90cce", "lat": 38.88863333333333, "fusion_lon": 0.0, "fusion_lat": 0.0, "type": "electric_scooter", "name": "77cd83ffa80d31d60d58739402f90cce", "is_disabled": 0, "rental_uris": {"ios": "https://dc.lft.to/lastmile_qr_scan", "android": "https://dc.lft.to/lastmile_qr_scan"}, "is_reserved": 0}, {"lon": -77.04166183333334, "bike_id": "8617062494cf5297d07e7e7afa33ba22", "lat": 38.91246966666667, "fusion_lon": 0.0, "fusion_lat": 0.0, "type": "electric_scooter", "name": "8617062494cf5297d07e7e7afa33ba22", "is_disabled": 0, "rental_uris": {"ios": "https://dc.lft.to/lastmile_qr_scan", "android": "https://dc.lft.to/lastmile_qr_scan"}, "is_reserved": 0}, {"lon": -77.03219366666667, "bike_id": "6818143a80c34bccbf7c02b609e9ae9b", "lat": 38.892199833333336, "fusion_lon": 0.0, "fusion_lat": 0.0, "type": "electric_scooter", "name": "6818143a80c34bccbf7c02b609e9ae9b", "is_disabled": 0, "rental_uris": {"ios": "https://dc.lft.to/lastmile_qr_scan", "android": "https://dc.lft.to/lastmile_qr_scan"}, "is_reserved": 0}, {"lon": -77.00099566666667, "bike_id": "20e734841b1e45830cc9059295e46160", "lat": 38.88126833333333, "fusion_lon": 0.0, "fusion_lat": 0.0, "type": "electric_scooter", "name": "20e734841b1e45830cc9059295e46160", "is_disabled": 0, "rental_uris": {"ios": "https://dc.lft.to/lastmile_qr_scan", "android": "https://dc.lft.to/lastmile_qr_scan"}, "is_reserved": 0}, {"lon": -76.99076966666667, "bike_id": "2dc8390f3d14eb65d48d1c278d229477", "lat": 38.8981795, "fusion_lon": 0.0, "fusion_lat": 0.0, "type": "electric_bike", "name": "2dc8390f3d14eb65d48d1c278d229477", "is_disabled": 0, "rental_uris": {"ios": "https://dc.lft.to/lastmile_qr_scan", "android": "https://dc.lft.to/lastmile_qr_scan"}, "is_reserved": 0}, {"lon": -76.991764, "bike_id": "13777c46a43db651a64edb07f5104c07", "lat": 38.88983866666667, "fusion_lon": 0.0, "fusion_lat": 0.0, "type": "electric_scooter", "name": "13777c46a43db651a64edb07f5104c07", "is_disabled": 0, "rental_uris": {"ios": "https://dc.lft.to/lastmile_qr_scan", "android": "https://dc.lft.to/lastmile_qr_scan"}, "is_reserved": 0}, {"lon": -77.027197, "bike_id": "5e57a5d64bd2b314f2039927116d123b", "lat": 38.972142833333336, "fusion_lon": 0.0, "fusion_lat": 0.0, "type": "electric_bike", "name": "5e57a5d64bd2b314f2039927116d123b", "is_disabled": 0, "rental_uris": {"ios": "https://dc.lft.to/lastmile_qr_scan", "android": "https://dc.lft.to/lastmile_qr_scan"}, "is_reserved": 0}, {"lon": -76.97249966666666, "bike_id": "24b606f42f5309d94aafd53f5e2bc2ed", "lat": 38.90344183333333, "fusion_lon": 0.0, "fusion_lat": 0.0, "type": "electric_scooter", "name": "24b606f42f5309d94aafd53f5e2bc2ed", "is_disabled": 0, "rental_uris": {"ios": "https://dc.lft.to/lastmile_qr_scan", "android": "https://dc.lft.to/lastmile_qr_scan"}, "is_reserved": 0}, {"lon": -77.01839366666667, "bike_id": "1b46bb5a63ba6c0cec93d11520aad3bf", "lat": 38.90957516666667, "fusion_lon": 0.0, "fusion_lat": 0.0, "type": "electric_scooter", "name": "1b46bb5a63ba6c0cec93d11520aad3bf", "is_disabled": 0, "rental_uris": {"ios": "https://dc.lft.to/lastmile_qr_scan", "android": "https://dc.lft.to/lastmile_qr_scan"}, "is_reserved": 0}, {"lon": -77.017024, "bike_id": "5c2c7d3012cda91e1ea224e5ee61043b", "lat": 38.90442683333333, "fusion_lon": 0.0, "fusion_lat": 0.0, "type": "electric_scooter", "name": "5c2c7d3012cda91e1ea224e5ee61043b", "is_disabled": 0, "rental_uris": {"ios": "https://dc.lft.to/lastmile_qr_scan", "android": "https://dc.lft.to/lastmile_qr_scan"}, "is_reserved": 0}, {"lon": -77.01985033333334, "bike_id": "298230e5eeec6bcdf6aba856bc4f0baa", "lat": 38.8859875, "fusion_lon": 0.0, "fusion_lat": 0.0, "type": "electric_scooter", "name": "298230e5eeec6bcdf6aba856bc4f0baa", "is_disabled": 0, "rental_uris": {"ios": "https://dc.lft.to/lastmile_qr_scan", "android": "https://dc.lft.to/lastmile_qr_scan"}, "is_reserved": 0}, {"lon": -77.01840566666667, "bike_id": "5e25a6bdf2dd4d2a760c54b333e9fdc3", "lat": 38.90929333333333, "fusion_lon": 0.0, "fusion_lat": 0.0, "type": "electric_scooter", "name": "5e25a6bdf2dd4d2a760c54b333e9fdc3", "is_disabled": 0, "rental_uris": {"ios": "https://dc.lft.to/lastmile_qr_scan", "android": "https://dc.lft.to/lastmile_qr_scan"}, "is_reserved": 0}, {"lon": -77.01518766666666, "bike_id": "d1aeb0c112470655515609c3e4ed6ed7", "lat": 38.918670166666665, "fusion_lon": 0.0, "fusion_lat": 0.0, "type": "electric_scooter", "name": "d1aeb0c112470655515609c3e4ed6ed7", "is_disabled": 0, "rental_uris": {"ios": "https://dc.lft.to/lastmile_qr_scan", "android": "https://dc.lft.to/lastmile_qr_scan"}, "is_reserved": 0}, {"lon": -77.03223633333333, "bike_id": "1e6bf47d6424a82448f7d27e0ce92b7e", "lat": 38.914026666666665, "fusion_lon": 0.0, "fusion_lat": 0.0, "type": "electric_scooter", "name": "1e6bf47d6424a82448f7d27e0ce92b7e", "is_disabled": 0, "rental_uris": {"ios": "https://dc.lft.to/lastmile_qr_scan", "android": "https://dc.lft.to/lastmile_qr_scan"}, "is_reserved": 0}, {"lon": -76.94918983333334, "bike_id": "93a7e353078d38ad3831a6edb180f842", "lat": 38.89353366666667, "fusion_lon": 0.0, "fusion_lat": 0.0, "type": "electric_scooter", "name": "93a7e353078d38ad3831a6edb180f842", "is_disabled": 0, "rental_uris": {"ios": "https://dc.lft.to/lastmile_qr_scan", "android": "https://dc.lft.to/lastmile_qr_scan"}, "is_reserved": 0}, {"lon": -77.02008016666667, "bike_id": "71ccf47bc6b6e6c1d539d471a5f7ede5", "lat": 38.924148, "fusion_lon": 0.0, "fusion_lat": 0.0, "type": "electric_scooter", "name": "71ccf47bc6b6e6c1d539d471a5f7ede5", "is_disabled": 0, "rental_uris": {"ios": "https://dc.lft.to/lastmile_qr_scan", "android": "https://dc.lft.to/lastmile_qr_scan"}, "is_reserved": 0}, {"lon": -77.074369, "bike_id": "29a83c60c90766a616268b9924ecfbd9", "lat": 38.99940933333333, "fusion_lon": 0.0, "fusion_lat": 0.0, "type": "electric_bike", "name": "29a83c60c90766a616268b9924ecfbd9", "is_disabled": 0, "rental_uris": {"ios": "https://dc.lft.to/lastmile_qr_scan", "android": "https://dc.lft.to/lastmile_qr_scan"}, "is_reserved": 0}, {"lon": -77.00976983333334, "bike_id": "5954d9185cfba9b950be80c1c0f04b3d", "lat": 38.89484816666667, "fusion_lon": 0.0, "fusion_lat": 0.0, "type": "electric_scooter", "name": "5954d9185cfba9b950be80c1c0f04b3d", "is_disabled": 0, "rental_uris": {"ios": "https://dc.lft.to/lastmile_qr_scan", "android": "https://dc.lft.to/lastmile_qr_scan"}, "is_reserved": 0}, {"lon": -77.058649, "bike_id": "fab7cf7da7c41abae2329413dc741a4d", "lat": 38.93607766666667, "fusion_lon": 0.0, "fusion_lat": 0.0, "type": "electric_scooter", "name": "fab7cf7da7c41abae2329413dc741a4d", "is_disabled": 0, "rental_uris": {"ios": "https://dc.lft.to/lastmile_qr_scan", "android": "https://dc.lft.to/lastmile_qr_scan"}, "is_reserved": 0}, {"lon": -77.06409033333334, "bike_id": "52f801d7be9de0faeb90817bb96dea16", "lat": 38.90777116666667, "fusion_lon": 0.0, "fusion_lat": 0.0, "type": "electric_scooter", "name": "52f801d7be9de0faeb90817bb96dea16", "is_disabled": 0, "rental_uris": {"ios": "https://dc.lft.to/lastmile_qr_scan", "android": "https://dc.lft.to/lastmile_qr_scan"}, "is_reserved": 0}, {"lon": -77.03327483333334, "bike_id": "e93e39498c8ad93812887cde354aeae0", "lat": 38.91968983333334, "fusion_lon": 0.0, "fusion_lat": 0.0, "type": "electric_scooter", "name": "e93e39498c8ad93812887cde354aeae0", "is_disabled": 0, "rental_uris": {"ios": "https://dc.lft.to/lastmile_qr_scan", "android": "https://dc.lft.to/lastmile_qr_scan"}, "is_reserved": 0}, {"lon": -77.00056483333333, "bike_id": "9ad79b92f31d8ed2722ce08be45ecd8c", "lat": 38.907395, "fusion_lon": 0.0, "fusion_lat": 0.0, "type": "electric_scooter", "name": "9ad79b92f31d8ed2722ce08be45ecd8c", "is_disabled": 0, "rental_uris": {"ios": "https://dc.lft.to/lastmile_qr_scan", "android": "https://dc.lft.to/lastmile_qr_scan"}, "is_reserved": 0}, {"lon": -76.987234, "bike_id": "8393d9d1d2a75eb5a6f7eb943766b231", "lat": 38.86622033333333, "fusion_lon": 0.0, "fusion_lat": 0.0, "type": "electric_scooter", "name": "8393d9d1d2a75eb5a6f7eb943766b231", "is_disabled": 0, "rental_uris": {"ios": "https://dc.lft.to/lastmile_qr_scan", "android": "https://dc.lft.to/lastmile_qr_scan"}, "is_reserved": 0}, {"lon": -77.058115, "bike_id": "1ae664662cb1f144196be04888a99faf", "lat": 38.82389, "fusion_lon": 0.0, "fusion_lat": 0.0, "type": "electric_bike", "name": "1ae664662cb1f144196be04888a99faf", "is_disabled": 0, "rental_uris": {"ios": "https://dc.lft.to/lastmile_qr_scan", "android": "https://dc.lft.to/lastmile_qr_scan"}, "is_reserved": 0}, {"lon": -77.02860433333333, "bike_id": "e44997e4f4032507a886b83a66d0bdc3", "lat": 38.93321683333333, "fusion_lon": 0.0, "fusion_lat": 0.0, "type": "electric_scooter", "name": "e44997e4f4032507a886b83a66d0bdc3", "is_disabled": 0, "rental_uris": {"ios": "https://dc.lft.to/lastmile_qr_scan", "android": "https://dc.lft.to/lastmile_qr_scan"}, "is_reserved": 0}, {"lon": -76.9373595, "bike_id": "425dab5878989e037846e7480e5fc5b3", "lat": 38.890112, "fusion_lon": 0.0, "fusion_lat": 0.0, "type": "electric_scooter", "name": "425dab5878989e037846e7480e5fc5b3", "is_disabled": 0, "rental_uris": {"ios": "https://dc.lft.to/lastmile_qr_scan", "android": "https://dc.lft.to/lastmile_qr_scan"}, "is_reserved": 0}, {"lon": -77.05817616666667, "bike_id": "0d2c0ee8e7e7814a261c2527fa265ec9", "lat": 38.93507733333333, "fusion_lon": 0.0, "fusion_lat": 0.0, "type": "electric_scooter", "name": "0d2c0ee8e7e7814a261c2527fa265ec9", "is_disabled": 0, "rental_uris": {"ios": "https://dc.lft.to/lastmile_qr_scan", "android": "https://dc.lft.to/lastmile_qr_scan"}, "is_reserved": 0}, {"lon": -77.02354816666667, "bike_id": "e2cdb78732a26989b7bd7d716ec5de8a", "lat": 38.90284883333333, "fusion_lon": 0.0, "fusion_lat": 0.0, "type": "electric_scooter", "name": "e2cdb78732a26989b7bd7d716ec5de8a", "is_disabled": 0, "rental_uris": {"ios": "https://dc.lft.to/lastmile_qr_scan", "android": "https://dc.lft.to/lastmile_qr_scan"}, "is_reserved": 0}, {"lon": -77.04384383333333, "bike_id": "02b6c27272cbee44f0606eee2877f744", "lat": 38.92064033333333, "fusion_lon": 0.0, "fusion_lat": 0.0, "type": "electric_scooter", "name": "02b6c27272cbee44f0606eee2877f744", "is_disabled": 0, "rental_uris": {"ios": "https://dc.lft.to/lastmile_qr_scan", "android": "https://dc.lft.to/lastmile_qr_scan"}, "is_reserved": 0}, {"lon": -77.044291, "bike_id": "4bded0f6fdd43c5dc14eef9ab80ad72e", "lat": 38.921217666666664, "fusion_lon": 0.0, "fusion_lat": 0.0, "type": "electric_scooter", "name": "4bded0f6fdd43c5dc14eef9ab80ad72e", "is_disabled": 0, "rental_uris": {"ios": "https://dc.lft.to/lastmile_qr_scan", "android": "https://dc.lft.to/lastmile_qr_scan"}, "is_reserved": 0}, {"lon": -77.02592233333333, "bike_id": "5150eff982367f6964b21536375c2f62", "lat": 38.943050666666664, "fusion_lon": 0.0, "fusion_lat": 0.0, "type": "electric_scooter", "name": "5150eff982367f6964b21536375c2f62", "is_disabled": 0, "rental_uris": {"ios": "https://dc.lft.to/lastmile_qr_scan", "android": "https://dc.lft.to/lastmile_qr_scan"}, "is_reserved": 0}, {"lon": -77.07771233333334, "bike_id": "2e524f6f6169aed89604d49e144cf53c", "lat": 38.925542, "fusion_lon": 0.0, "fusion_lat": 0.0, "type": "electric_scooter", "name": "2e524f6f6169aed89604d49e144cf53c", "is_disabled": 0, "rental_uris": {"ios": "https://dc.lft.to/lastmile_qr_scan", "android": "https://dc.lft.to/lastmile_qr_scan"}, "is_reserved": 0}, {"lon": -77.01656583333333, "bike_id": "15213ef24513163bddd1f74632bb96d9", "lat": 38.928923166666664, "fusion_lon": 0.0, "fusion_lat": 0.0, "type": "electric_scooter", "name": "15213ef24513163bddd1f74632bb96d9", "is_disabled": 0, "rental_uris": {"ios": "https://dc.lft.to/lastmile_qr_scan", "android": "https://dc.lft.to/lastmile_qr_scan"}, "is_reserved": 0}, {"lon": -77.06281866666667, "bike_id": "9452facacad8dc30317ea4402f33de36", "lat": 38.905401499999996, "fusion_lon": 0.0, "fusion_lat": 0.0, "type": "electric_scooter", "name": "9452facacad8dc30317ea4402f33de36", "is_disabled": 0, "rental_uris": {"ios": "https://dc.lft.to/lastmile_qr_scan", "android": "https://dc.lft.to/lastmile_qr_scan"}, "is_reserved": 0}, {"lon": -77.02190333333333, "bike_id": "2839cc85d464f1220c3d8b2a1cbab2c5", "lat": 38.901934833333335, "fusion_lon": 0.0, "fusion_lat": 0.0, "type": "electric_scooter", "name": "2839cc85d464f1220c3d8b2a1cbab2c5", "is_disabled": 0, "rental_uris": {"ios": "https://dc.lft.to/lastmile_qr_scan", "android": "https://dc.lft.to/lastmile_qr_scan"}, "is_reserved": 0}, {"lon": -77.0249395, "bike_id": "77a17674f8a47036eb0dc45752686f18", "lat": 38.91932933333333, "fusion_lon": 0.0, "fusion_lat": 0.0, "type": "electric_scooter", "name": "77a17674f8a47036eb0dc45752686f18", "is_disabled": 0, "rental_uris": {"ios": "https://dc.lft.to/lastmile_qr_scan", "android": "https://dc.lft.to/lastmile_qr_scan"}, "is_reserved": 0}, {"lon": -77.041633, "bike_id": "0c1526dbf9f501a4c7fe7e6a82743d27", "lat": 38.912473, "fusion_lon": 0.0, "fusion_lat": 0.0, "type": "electric_scooter", "name": "0c1526dbf9f501a4c7fe7e6a82743d27", "is_disabled": 0, "rental_uris": {"ios": "https://dc.lft.to/lastmile_qr_scan", "android": "https://dc.lft.to/lastmile_qr_scan"}, "is_reserved": 0}, {"lon": -77.03342216666667, "bike_id": "2bdf07125e175300efb5497c3e5f0fcf", "lat": 38.89900266666667, "fusion_lon": 0.0, "fusion_lat": 0.0, "type": "electric_scooter", "name": "2bdf07125e175300efb5497c3e5f0fcf", "is_disabled": 0, "rental_uris": {"ios": "https://dc.lft.to/lastmile_qr_scan", "android": "https://dc.lft.to/lastmile_qr_scan"}, "is_reserved": 0}, {"lon": -77.0431435, "bike_id": "ab2e222c4280b30b20e7fe01b0742dd1", "lat": 38.9036665, "fusion_lon": 0.0, "fusion_lat": 0.0, "type": "electric_scooter", "name": "ab2e222c4280b30b20e7fe01b0742dd1", "is_disabled": 0, "rental_uris": {"ios": "https://dc.lft.to/lastmile_qr_scan", "android": "https://dc.lft.to/lastmile_qr_scan"}, "is_reserved": 0}, {"lon": -77.02631983333333, "bike_id": "5d0771c73d68a9f9bb7a91ce6adf4ab1", "lat": 38.96212666666667, "fusion_lon": 0.0, "fusion_lat": 0.0, "type": "electric_bike", "name": "5d0771c73d68a9f9bb7a91ce6adf4ab1", "is_disabled": 0, "rental_uris": {"ios": "https://dc.lft.to/lastmile_qr_scan", "android": "https://dc.lft.to/lastmile_qr_scan"}, "is_reserved": 0}, {"lon": -77.03859183333333, "bike_id": "f6d9ab88597a6ca5d444409f3a803280", "lat": 38.91170616666667, "fusion_lon": 0.0, "fusion_lat": 0.0, "type": "electric_scooter", "name": "f6d9ab88597a6ca5d444409f3a803280", "is_disabled": 0, "rental_uris": {"ios": "https://dc.lft.to/lastmile_qr_scan", "android": "https://dc.lft.to/lastmile_qr_scan"}, "is_reserved": 0}, {"lon": -77.02537033333333, "bike_id": "bfa8daff213f157cf59c7174aa97b5fe", "lat": 38.92747716666667, "fusion_lon": 0.0, "fusion_lat": 0.0, "type": "electric_scooter", "name": "bfa8daff213f157cf59c7174aa97b5fe", "is_disabled": 0, "rental_uris": {"ios": "https://dc.lft.to/lastmile_qr_scan", "android": "https://dc.lft.to/lastmile_qr_scan"}, "is_reserved": 0}, {"lon": -76.9953675, "bike_id": "6eba4bb740eaea88829fff6fa01f00b1", "lat": 38.883633, "fusion_lon": 0.0, "fusion_lat": 0.0, "type": "electric_scooter", "name": "6eba4bb740eaea88829fff6fa01f00b1", "is_disabled": 0, "rental_uris": {"ios": "https://dc.lft.to/lastmile_qr_scan", "android": "https://dc.lft.to/lastmile_qr_scan"}, "is_reserved": 0}, {"lon": -77.01917333333333, "bike_id": "f13e7fb5876e1843c18a324a8f448e71", "lat": 38.885906166666665, "fusion_lon": 0.0, "fusion_lat": 0.0, "type": "electric_scooter", "name": "f13e7fb5876e1843c18a324a8f448e71", "is_disabled": 0, "rental_uris": {"ios": "https://dc.lft.to/lastmile_qr_scan", "android": "https://dc.lft.to/lastmile_qr_scan"}, "is_reserved": 0}, {"lon": -76.98587516666667, "bike_id": "9d3a8903207c470401f46a8a740315a4", "lat": 38.8668415, "fusion_lon": 0.0, "fusion_lat": 0.0, "type": "electric_scooter", "name": "9d3a8903207c470401f46a8a740315a4", "is_disabled": 0, "rental_uris": {"ios": "https://dc.lft.to/lastmile_qr_scan", "android": "https://dc.lft.to/lastmile_qr_scan"}, "is_reserved": 0}, {"lon": -77.041039, "bike_id": "5bbf077823be72f36c406c83ca597fc2", "lat": 38.92304216666667, "fusion_lon": 0.0, "fusion_lat": 0.0, "type": "electric_scooter", "name": "5bbf077823be72f36c406c83ca597fc2", "is_disabled": 0, "rental_uris": {"ios": "https://dc.lft.to/lastmile_qr_scan", "android": "https://dc.lft.to/lastmile_qr_scan"}, "is_reserved": 0}, {"lon": -76.98930716666666, "bike_id": "d7853b5da6b719404c361d3433b6d125", "lat": 38.90184933333333, "fusion_lon": 0.0, "fusion_lat": 0.0, "type": "electric_scooter", "name": "d7853b5da6b719404c361d3433b6d125", "is_disabled": 0, "rental_uris": {"ios": "https://dc.lft.to/lastmile_qr_scan", "android": "https://dc.lft.to/lastmile_qr_scan"}, "is_reserved": 0}, {"lon": -77.03206333333333, "bike_id": "4670d619dd65e41bd71bad074402d032", "lat": 38.89223833333333, "fusion_lon": 0.0, "fusion_lat": 0.0, "type": "electric_scooter", "name": "4670d619dd65e41bd71bad074402d032", "is_disabled": 0, "rental_uris": {"ios": "https://dc.lft.to/lastmile_qr_scan", "android": "https://dc.lft.to/lastmile_qr_scan"}, "is_reserved": 0}, {"lon": -76.95745866666667, "bike_id": "0e2deeafcc5ba9c8c496f3060cf37e6d", "lat": 38.88425733333333, "fusion_lon": 0.0, "fusion_lat": 0.0, "type": "electric_scooter", "name": "0e2deeafcc5ba9c8c496f3060cf37e6d", "is_disabled": 0, "rental_uris": {"ios": "https://dc.lft.to/lastmile_qr_scan", "android": "https://dc.lft.to/lastmile_qr_scan"}, "is_reserved": 0}, {"lon": -77.05021266666667, "bike_id": "04e44e9f8ecb10412fc63874df272a4b", "lat": 38.901528166666665, "fusion_lon": 0.0, "fusion_lat": 0.0, "type": "electric_scooter", "name": "04e44e9f8ecb10412fc63874df272a4b", "is_disabled": 0, "rental_uris": {"ios": "https://dc.lft.to/lastmile_qr_scan", "android": "https://dc.lft.to/lastmile_qr_scan"}, "is_reserved": 0}, {"lon": -77.030527, "bike_id": "7e5bb04f9b02ebb527f8941bd5efd2b8", "lat": 38.88420683333333, "fusion_lon": 0.0, "fusion_lat": 0.0, "type": "electric_scooter", "name": "7e5bb04f9b02ebb527f8941bd5efd2b8", "is_disabled": 0, "rental_uris": {"ios": "https://dc.lft.to/lastmile_qr_scan", "android": "https://dc.lft.to/lastmile_qr_scan"}, "is_reserved": 0}, {"lon": -77.03041333333333, "bike_id": "24089b8cb0c266978f6d29b961016bec", "lat": 38.87835, "fusion_lon": 0.0, "fusion_lat": 0.0, "type": "electric_scooter", "name": "24089b8cb0c266978f6d29b961016bec", "is_disabled": 0, "rental_uris": {"ios": "https://dc.lft.to/lastmile_qr_scan", "android": "https://dc.lft.to/lastmile_qr_scan"}, "is_reserved": 0}, {"lon": -77.04163233333334, "bike_id": "839dd80b5feb2042349bc4d11a382295", "lat": 38.91250216666667, "fusion_lon": 0.0, "fusion_lat": 0.0, "type": "electric_scooter", "name": "839dd80b5feb2042349bc4d11a382295", "is_disabled": 0, "rental_uris": {"ios": "https://dc.lft.to/lastmile_qr_scan", "android": "https://dc.lft.to/lastmile_qr_scan"}, "is_reserved": 0}, {"lon": -76.93737483333334, "bike_id": "8c9edd90c241391016372ca29e76cefe", "lat": 38.8901065, "fusion_lon": 0.0, "fusion_lat": 0.0, "type": "electric_scooter", "name": "8c9edd90c241391016372ca29e76cefe", "is_disabled": 0, "rental_uris": {"ios": "https://dc.lft.to/lastmile_qr_scan", "android": "https://dc.lft.to/lastmile_qr_scan"}, "is_reserved": 0}, {"lon": -77.0417535, "bike_id": "4c0fd253f7c9da23409f0f925388d464", "lat": 38.923123333333336, "fusion_lon": 0.0, "fusion_lat": 0.0, "type": "electric_scooter", "name": "4c0fd253f7c9da23409f0f925388d464", "is_disabled": 0, "rental_uris": {"ios": "https://dc.lft.to/lastmile_qr_scan", "android": "https://dc.lft.to/lastmile_qr_scan"}, "is_reserved": 0}, {"lon": -77.041604, "bike_id": "6b5115556978653b8d005ec48ec88037", "lat": 38.92330116666667, "fusion_lon": 0.0, "fusion_lat": 0.0, "type": "electric_scooter", "name": "6b5115556978653b8d005ec48ec88037", "is_disabled": 0, "rental_uris": {"ios": "https://dc.lft.to/lastmile_qr_scan", "android": "https://dc.lft.to/lastmile_qr_scan"}, "is_reserved": 0}, {"lon": -77.0537785, "bike_id": "6c2bc93fc1cdad2147e8ada7b5da96f4", "lat": 38.903963166666664, "fusion_lon": 0.0, "fusion_lat": 0.0, "type": "electric_scooter", "name": "6c2bc93fc1cdad2147e8ada7b5da96f4", "is_disabled": 0, "rental_uris": {"ios": "https://dc.lft.to/lastmile_qr_scan", "android": "https://dc.lft.to/lastmile_qr_scan"}, "is_reserved": 0}, {"lon": -77.02172283333333, "bike_id": "24e4d9ddde6bc7d8b45580401eb3db57", "lat": 38.897392833333335, "fusion_lon": 0.0, "fusion_lat": 0.0, "type": "electric_scooter", "name": "24e4d9ddde6bc7d8b45580401eb3db57", "is_disabled": 0, "rental_uris": {"ios": "https://dc.lft.to/lastmile_qr_scan", "android": "https://dc.lft.to/lastmile_qr_scan"}, "is_reserved": 0}, {"lon": -77.03443533333333, "bike_id": "c605718a8a5345080d87c24d2e90c415", "lat": 38.909757, "fusion_lon": 0.0, "fusion_lat": 0.0, "type": "electric_scooter", "name": "c605718a8a5345080d87c24d2e90c415", "is_disabled": 0, "rental_uris": {"ios": "https://dc.lft.to/lastmile_qr_scan", "android": "https://dc.lft.to/lastmile_qr_scan"}, "is_reserved": 0}, {"lon": -76.9900335, "bike_id": "afd610bfdf43cc88519ed23fcc701a44", "lat": 38.86503116666667, "fusion_lon": 0.0, "fusion_lat": 0.0, "type": "electric_scooter", "name": "afd610bfdf43cc88519ed23fcc701a44", "is_disabled": 0, "rental_uris": {"ios": "https://dc.lft.to/lastmile_qr_scan", "android": "https://dc.lft.to/lastmile_qr_scan"}, "is_reserved": 0}, {"lon": -77.056909, "bike_id": "8b1b8b2d5f2ff81068c42af004f0ff8d", "lat": 38.9051115, "fusion_lon": 0.0, "fusion_lat": 0.0, "type": "electric_bike", "name": "8b1b8b2d5f2ff81068c42af004f0ff8d", "is_disabled": 0, "rental_uris": {"ios": "https://dc.lft.to/lastmile_qr_scan", "android": "https://dc.lft.to/lastmile_qr_scan"}, "is_reserved": 0}, {"lon": -76.98103283333333, "bike_id": "ab3ae0ebaaaba57cd57294b4bf14652e", "lat": 38.904031833333335, "fusion_lon": 0.0, "fusion_lat": 0.0, "type": "electric_scooter", "name": "ab3ae0ebaaaba57cd57294b4bf14652e", "is_disabled": 0, "rental_uris": {"ios": "https://dc.lft.to/lastmile_qr_scan", "android": "https://dc.lft.to/lastmile_qr_scan"}, "is_reserved": 0}, {"lon": -77.067588, "bike_id": "7823fbc8f965014a2cbf740fbe5d34da", "lat": 38.90338916666666, "fusion_lon": 0.0, "fusion_lat": 0.0, "type": "electric_scooter", "name": "7823fbc8f965014a2cbf740fbe5d34da", "is_disabled": 0, "rental_uris": {"ios": "https://dc.lft.to/lastmile_qr_scan", "android": "https://dc.lft.to/lastmile_qr_scan"}, "is_reserved": 0}, {"lon": -77.04262116666666, "bike_id": "c512613056a44fc9f2ce0a49cf81321f", "lat": 38.91033633333333, "fusion_lon": 0.0, "fusion_lat": 0.0, "type": "electric_scooter", "name": "c512613056a44fc9f2ce0a49cf81321f", "is_disabled": 0, "rental_uris": {"ios": "https://dc.lft.to/lastmile_qr_scan", "android": "https://dc.lft.to/lastmile_qr_scan"}, "is_reserved": 0}, {"lon": -77.0394205, "bike_id": "23b969f2be88ceb2b757af28800d6619", "lat": 38.930547, "fusion_lon": 0.0, "fusion_lat": 0.0, "type": "electric_scooter", "name": "23b969f2be88ceb2b757af28800d6619", "is_disabled": 0, "rental_uris": {"ios": "https://dc.lft.to/lastmile_qr_scan", "android": "https://dc.lft.to/lastmile_qr_scan"}, "is_reserved": 0}, {"lon": -76.93365466666667, "bike_id": "c6c6c5c4f0607eb584c7ca3150559839", "lat": 38.89915833333333, "fusion_lon": 0.0, "fusion_lat": 0.0, "type": "electric_scooter", "name": "c6c6c5c4f0607eb584c7ca3150559839", "is_disabled": 0, "rental_uris": {"ios": "https://dc.lft.to/lastmile_qr_scan", "android": "https://dc.lft.to/lastmile_qr_scan"}, "is_reserved": 0}, {"lon": -77.01821033333333, "bike_id": "952aec8e6e9e8901b88339a5268339c1", "lat": 38.90967, "fusion_lon": 0.0, "fusion_lat": 0.0, "type": "electric_scooter", "name": "952aec8e6e9e8901b88339a5268339c1", "is_disabled": 0, "rental_uris": {"ios": "https://dc.lft.to/lastmile_qr_scan", "android": "https://dc.lft.to/lastmile_qr_scan"}, "is_reserved": 0}, {"lon": -77.033826, "bike_id": "d701d5aec4c045542ddb8144a966ebc3", "lat": 38.89228716666667, "fusion_lon": 0.0, "fusion_lat": 0.0, "type": "electric_scooter", "name": "d701d5aec4c045542ddb8144a966ebc3", "is_disabled": 0, "rental_uris": {"ios": "https://dc.lft.to/lastmile_qr_scan", "android": "https://dc.lft.to/lastmile_qr_scan"}, "is_reserved": 0}, {"lon": -77.02623733333333, "bike_id": "9dfcced9bfe569a8d4483c5dbe5b5fff", "lat": 38.9004715, "fusion_lon": 0.0, "fusion_lat": 0.0, "type": "electric_scooter", "name": "9dfcced9bfe569a8d4483c5dbe5b5fff", "is_disabled": 0, "rental_uris": {"ios": "https://dc.lft.to/lastmile_qr_scan", "android": "https://dc.lft.to/lastmile_qr_scan"}, "is_reserved": 0}, {"lon": -76.99784116666666, "bike_id": "f59a5892eae92b81c2db95e9c1b17b50", "lat": 38.84425533333334, "fusion_lon": 0.0, "fusion_lat": 0.0, "type": "electric_scooter", "name": "f59a5892eae92b81c2db95e9c1b17b50", "is_disabled": 0, "rental_uris": {"ios": "https://dc.lft.to/lastmile_qr_scan", "android": "https://dc.lft.to/lastmile_qr_scan"}, "is_reserved": 0}, {"lon": -77.03186466666666, "bike_id": "7f93bdbda6f047e7e184c299d750467a", "lat": 38.9191895, "fusion_lon": 0.0, "fusion_lat": 0.0, "type": "electric_scooter", "name": "7f93bdbda6f047e7e184c299d750467a", "is_disabled": 0, "rental_uris": {"ios": "https://dc.lft.to/lastmile_qr_scan", "android": "https://dc.lft.to/lastmile_qr_scan"}, "is_reserved": 0}, {"lon": -77.045062, "bike_id": "b72cab9111e4afc64c7213204d549196", "lat": 38.900643333333335, "fusion_lon": 0.0, "fusion_lat": 0.0, "type": "electric_scooter", "name": "b72cab9111e4afc64c7213204d549196", "is_disabled": 0, "rental_uris": {"ios": "https://dc.lft.to/lastmile_qr_scan", "android": "https://dc.lft.to/lastmile_qr_scan"}, "is_reserved": 0}, {"lon": -77.05092316666666, "bike_id": "b23f765aa594930b686fec7bc79f6068", "lat": 38.90052133333333, "fusion_lon": 0.0, "fusion_lat": 0.0, "type": "electric_scooter", "name": "b23f765aa594930b686fec7bc79f6068", "is_disabled": 0, "rental_uris": {"ios": "https://dc.lft.to/lastmile_qr_scan", "android": "https://dc.lft.to/lastmile_qr_scan"}, "is_reserved": 0}, {"lon": -76.9837995, "bike_id": "3dbd33feba9ad89c2a8581d4389bff3a", "lat": 38.899690166666666, "fusion_lon": 0.0, "fusion_lat": 0.0, "type": "electric_scooter", "name": "3dbd33feba9ad89c2a8581d4389bff3a", "is_disabled": 0, "rental_uris": {"ios": "https://dc.lft.to/lastmile_qr_scan", "android": "https://dc.lft.to/lastmile_qr_scan"}, "is_reserved": 0}, {"lon": -77.00371466666667, "bike_id": "8aa64310e9a21dea2b5310523457828d", "lat": 38.897288333333336, "fusion_lon": 0.0, "fusion_lat": 0.0, "type": "electric_scooter", "name": "8aa64310e9a21dea2b5310523457828d", "is_disabled": 0, "rental_uris": {"ios": "https://dc.lft.to/lastmile_qr_scan", "android": "https://dc.lft.to/lastmile_qr_scan"}, "is_reserved": 0}, {"lon": -77.0242585, "bike_id": "dee3008da900dca790974094f473d2c7", "lat": 38.92652283333334, "fusion_lon": 0.0, "fusion_lat": 0.0, "type": "electric_scooter", "name": "dee3008da900dca790974094f473d2c7", "is_disabled": 0, "rental_uris": {"ios": "https://dc.lft.to/lastmile_qr_scan", "android": "https://dc.lft.to/lastmile_qr_scan"}, "is_reserved": 0}, {"lon": -77.02730983333333, "bike_id": "0bd690e9172cd6d691f7040a7b68ef25", "lat": 38.89801033333333, "fusion_lon": 0.0, "fusion_lat": 0.0, "type": "electric_scooter", "name": "0bd690e9172cd6d691f7040a7b68ef25", "is_disabled": 0, "rental_uris": {"ios": "https://dc.lft.to/lastmile_qr_scan", "android": "https://dc.lft.to/lastmile_qr_scan"}, "is_reserved": 0}, {"lon": -77.02159583333334, "bike_id": "51271c91c6a3cca0daf21de20b0e14e0", "lat": 38.899475, "fusion_lon": 0.0, "fusion_lat": 0.0, "type": "electric_scooter", "name": "51271c91c6a3cca0daf21de20b0e14e0", "is_disabled": 0, "rental_uris": {"ios": "https://dc.lft.to/lastmile_qr_scan", "android": "https://dc.lft.to/lastmile_qr_scan"}, "is_reserved": 0}, {"lon": -77.13103866666667, "bike_id": "bd099736b256cc8a8c413dcaa44a3731", "lat": 39.024318, "fusion_lon": 0.0, "fusion_lat": 0.0, "type": "electric_bike", "name": "bd099736b256cc8a8c413dcaa44a3731", "is_disabled": 0, "rental_uris": {"ios": "https://dc.lft.to/lastmile_qr_scan", "android": "https://dc.lft.to/lastmile_qr_scan"}, "is_reserved": 0}, {"lon": -77.03265066666667, "bike_id": "39dd0a6b830b5e54f9987e561a93f812", "lat": 38.925425833333335, "fusion_lon": 0.0, "fusion_lat": 0.0, "type": "electric_scooter", "name": "39dd0a6b830b5e54f9987e561a93f812", "is_disabled": 0, "rental_uris": {"ios": "https://dc.lft.to/lastmile_qr_scan", "android": "https://dc.lft.to/lastmile_qr_scan"}, "is_reserved": 0}, {"lon": -77.02710933333333, "bike_id": "ae8948ab071461b76996230a1be7d0db", "lat": 38.916767666666665, "fusion_lon": 0.0, "fusion_lat": 0.0, "type": "electric_scooter", "name": "ae8948ab071461b76996230a1be7d0db", "is_disabled": 0, "rental_uris": {"ios": "https://dc.lft.to/lastmile_qr_scan", "android": "https://dc.lft.to/lastmile_qr_scan"}, "is_reserved": 0}, {"lon": -77.063804, "bike_id": "a3fe974ea31e8a9f81e0ebc331db3357", "lat": 38.908362333333336, "fusion_lon": 0.0, "fusion_lat": 0.0, "type": "electric_scooter", "name": "a3fe974ea31e8a9f81e0ebc331db3357", "is_disabled": 0, "rental_uris": {"ios": "https://dc.lft.to/lastmile_qr_scan", "android": "https://dc.lft.to/lastmile_qr_scan"}, "is_reserved": 0}, {"lon": -77.01923366666666, "bike_id": "d14816ebe33b0444a84e1d4cce818724", "lat": 38.92215383333333, "fusion_lon": 0.0, "fusion_lat": 0.0, "type": "electric_scooter", "name": "d14816ebe33b0444a84e1d4cce818724", "is_disabled": 0, "rental_uris": {"ios": "https://dc.lft.to/lastmile_qr_scan", "android": "https://dc.lft.to/lastmile_qr_scan"}, "is_reserved": 0}, {"lon": -77.10809266666666, "bike_id": "7a06f12461a2766d928a2af989a3bf4f", "lat": 38.812019166666666, "fusion_lon": 0.0, "fusion_lat": 0.0, "type": "electric_bike", "name": "7a06f12461a2766d928a2af989a3bf4f", "is_disabled": 0, "rental_uris": {"ios": "https://dc.lft.to/lastmile_qr_scan", "android": "https://dc.lft.to/lastmile_qr_scan"}, "is_reserved": 0}, {"lon": -77.00208433333333, "bike_id": "d3377c948ea4cd35dd7162db43f5b3e2", "lat": 38.900240333333336, "fusion_lon": 0.0, "fusion_lat": 0.0, "type": "electric_scooter", "name": "d3377c948ea4cd35dd7162db43f5b3e2", "is_disabled": 0, "rental_uris": {"ios": "https://dc.lft.to/lastmile_qr_scan", "android": "https://dc.lft.to/lastmile_qr_scan"}, "is_reserved": 0}, {"lon": -77.04269533333333, "bike_id": "56f21041efc95667def9ba0ac7a22e8d", "lat": 38.910134166666666, "fusion_lon": 0.0, "fusion_lat": 0.0, "type": "electric_scooter", "name": "56f21041efc95667def9ba0ac7a22e8d", "is_disabled": 0, "rental_uris": {"ios": "https://dc.lft.to/lastmile_qr_scan", "android": "https://dc.lft.to/lastmile_qr_scan"}, "is_reserved": 0}, {"lon": -77.01530533333333, "bike_id": "7534b58634fbc23ed4c822169e45d472", "lat": 38.8848925, "fusion_lon": 0.0, "fusion_lat": 0.0, "type": "electric_scooter", "name": "7534b58634fbc23ed4c822169e45d472", "is_disabled": 0, "rental_uris": {"ios": "https://dc.lft.to/lastmile_qr_scan", "android": "https://dc.lft.to/lastmile_qr_scan"}, "is_reserved": 0}, {"lon": -77.03168183333334, "bike_id": "da6536796f0d7e007e5e97ab5f69dfcf", "lat": 38.902867666666666, "fusion_lon": 0.0, "fusion_lat": 0.0, "type": "electric_scooter", "name": "da6536796f0d7e007e5e97ab5f69dfcf", "is_disabled": 0, "rental_uris": {"ios": "https://dc.lft.to/lastmile_qr_scan", "android": "https://dc.lft.to/lastmile_qr_scan"}, "is_reserved": 0}, {"lon": -77.02180783333333, "bike_id": "ab63d2d55e6772cec3f9de89ddb1bfe3", "lat": 38.893550166666664, "fusion_lon": 0.0, "fusion_lat": 0.0, "type": "electric_scooter", "name": "ab63d2d55e6772cec3f9de89ddb1bfe3", "is_disabled": 0, "rental_uris": {"ios": "https://dc.lft.to/lastmile_qr_scan", "android": "https://dc.lft.to/lastmile_qr_scan"}, "is_reserved": 0}, {"lon": -77.03266283333333, "bike_id": "bf0543a34c625b982270ee761fa253c0", "lat": 38.95676733333333, "fusion_lon": 0.0, "fusion_lat": 0.0, "type": "electric_bike", "name": "bf0543a34c625b982270ee761fa253c0", "is_disabled": 0, "rental_uris": {"ios": "https://dc.lft.to/lastmile_qr_scan", "android": "https://dc.lft.to/lastmile_qr_scan"}, "is_reserved": 0}, {"lon": -76.99944066666667, "bike_id": "be8d9ea6943da28b41d6f7d26cbdbeb3", "lat": 38.9192875, "fusion_lon": 0.0, "fusion_lat": 0.0, "type": "electric_scooter", "name": "be8d9ea6943da28b41d6f7d26cbdbeb3", "is_disabled": 0, "rental_uris": {"ios": "https://dc.lft.to/lastmile_qr_scan", "android": "https://dc.lft.to/lastmile_qr_scan"}, "is_reserved": 0}, {"lon": -77.02724183333333, "bike_id": "d1903ae9b0d7ad4a36e205441b469fa3", "lat": 38.91410833333333, "fusion_lon": 0.0, "fusion_lat": 0.0, "type": "electric_scooter", "name": "d1903ae9b0d7ad4a36e205441b469fa3", "is_disabled": 0, "rental_uris": {"ios": "https://dc.lft.to/lastmile_qr_scan", "android": "https://dc.lft.to/lastmile_qr_scan"}, "is_reserved": 0}, {"lon": -76.95582416666667, "bike_id": "bdee3ca9fc575c3c7e849f1ca2c2a192", "lat": 38.88766316666667, "fusion_lon": 0.0, "fusion_lat": 0.0, "type": "electric_scooter", "name": "bdee3ca9fc575c3c7e849f1ca2c2a192", "is_disabled": 0, "rental_uris": {"ios": "https://dc.lft.to/lastmile_qr_scan", "android": "https://dc.lft.to/lastmile_qr_scan"}, "is_reserved": 0}, {"lon": -77.06344033333333, "bike_id": "26d335e39e8d271eb8c8b53a46713d2b", "lat": 38.90592683333333, "fusion_lon": 0.0, "fusion_lat": 0.0, "type": "electric_scooter", "name": "26d335e39e8d271eb8c8b53a46713d2b", "is_disabled": 0, "rental_uris": {"ios": "https://dc.lft.to/lastmile_qr_scan", "android": "https://dc.lft.to/lastmile_qr_scan"}, "is_reserved": 0}, {"lon": -76.989199, "bike_id": "9bd5d793c68f7e3e2871ac319f0f7c17", "lat": 38.85808566666667, "fusion_lon": 0.0, "fusion_lat": 0.0, "type": "electric_scooter", "name": "9bd5d793c68f7e3e2871ac319f0f7c17", "is_disabled": 0, "rental_uris": {"ios": "https://dc.lft.to/lastmile_qr_scan", "android": "https://dc.lft.to/lastmile_qr_scan"}, "is_reserved": 0}, {"lon": -77.02229066666666, "bike_id": "0b8eaf7d8a7b9e3301b2e5f4458b0e65", "lat": 38.926024166666664, "fusion_lon": 0.0, "fusion_lat": 0.0, "type": "electric_scooter", "name": "0b8eaf7d8a7b9e3301b2e5f4458b0e65", "is_disabled": 0, "rental_uris": {"ios": "https://dc.lft.to/lastmile_qr_scan", "android": "https://dc.lft.to/lastmile_qr_scan"}, "is_reserved": 0}, {"lon": -77.02854183333334, "bike_id": "e454853bc5763999c1280f0124634590", "lat": 38.925672666666664, "fusion_lon": 0.0, "fusion_lat": 0.0, "type": "electric_scooter", "name": "e454853bc5763999c1280f0124634590", "is_disabled": 0, "rental_uris": {"ios": "https://dc.lft.to/lastmile_qr_scan", "android": "https://dc.lft.to/lastmile_qr_scan"}, "is_reserved": 0}, {"lon": -77.0439175, "bike_id": "7c3f0c82523d64b7eb465efec6c9c732", "lat": 39.0471255, "fusion_lon": 0.0, "fusion_lat": 0.0, "type": "electric_bike", "name": "7c3f0c82523d64b7eb465efec6c9c732", "is_disabled": 0, "rental_uris": {"ios": "https://dc.lft.to/lastmile_qr_scan", "android": "https://dc.lft.to/lastmile_qr_scan"}, "is_reserved": 0}, {"lon": -77.03230466666666, "bike_id": "0d7d972ec4633378cb722ef40f7a890b", "lat": 38.93017116666667, "fusion_lon": 0.0, "fusion_lat": 0.0, "type": "electric_scooter", "name": "0d7d972ec4633378cb722ef40f7a890b", "is_disabled": 0, "rental_uris": {"ios": "https://dc.lft.to/lastmile_qr_scan", "android": "https://dc.lft.to/lastmile_qr_scan"}, "is_reserved": 0}, {"lon": -77.022393, "bike_id": "45bb19bd6cd24ba2321319108fa9ee71", "lat": 38.96210333333333, "fusion_lon": 0.0, "fusion_lat": 0.0, "type": "electric_bike", "name": "45bb19bd6cd24ba2321319108fa9ee71", "is_disabled": 0, "rental_uris": {"ios": "https://dc.lft.to/lastmile_qr_scan", "android": "https://dc.lft.to/lastmile_qr_scan"}, "is_reserved": 0}, {"lon": -77.02029633333333, "bike_id": "ff4524fa13fffa438ea425d71eec66cf", "lat": 38.92415316666667, "fusion_lon": 0.0, "fusion_lat": 0.0, "type": "electric_scooter", "name": "ff4524fa13fffa438ea425d71eec66cf", "is_disabled": 0, "rental_uris": {"ios": "https://dc.lft.to/lastmile_qr_scan", "android": "https://dc.lft.to/lastmile_qr_scan"}, "is_reserved": 0}, {"lon": -77.04662233333333, "bike_id": "4aa5246d290965051e5e37ecd7bbdd4f", "lat": 38.8981855, "fusion_lon": 0.0, "fusion_lat": 0.0, "type": "electric_scooter", "name": "4aa5246d290965051e5e37ecd7bbdd4f", "is_disabled": 0, "rental_uris": {"ios": "https://dc.lft.to/lastmile_qr_scan", "android": "https://dc.lft.to/lastmile_qr_scan"}, "is_reserved": 0}, {"lon": -77.05258433333333, "bike_id": "2f34f33c43fe4412c81a5eaac70c507f", "lat": 38.899969666666664, "fusion_lon": 0.0, "fusion_lat": 0.0, "type": "electric_scooter", "name": "2f34f33c43fe4412c81a5eaac70c507f", "is_disabled": 0, "rental_uris": {"ios": "https://dc.lft.to/lastmile_qr_scan", "android": "https://dc.lft.to/lastmile_qr_scan"}, "is_reserved": 0}, {"lon": -77.03387533333333, "bike_id": "ae76b3f2f3da07970dd4bb9918f4aa45", "lat": 38.9097195, "fusion_lon": 0.0, "fusion_lat": 0.0, "type": "electric_scooter", "name": "ae76b3f2f3da07970dd4bb9918f4aa45", "is_disabled": 0, "rental_uris": {"ios": "https://dc.lft.to/lastmile_qr_scan", "android": "https://dc.lft.to/lastmile_qr_scan"}, "is_reserved": 0}, {"lon": -77.032119, "bike_id": "40f2aa377664bb35c1e8a398b9b47458", "lat": 38.93611633333333, "fusion_lon": 0.0, "fusion_lat": 0.0, "type": "electric_scooter", "name": "40f2aa377664bb35c1e8a398b9b47458", "is_disabled": 0, "rental_uris": {"ios": "https://dc.lft.to/lastmile_qr_scan", "android": "https://dc.lft.to/lastmile_qr_scan"}, "is_reserved": 0}, {"lon": -77.03189216666667, "bike_id": "05766a8d78237dbbaa7e92b7d885b447", "lat": 38.91568866666667, "fusion_lon": 0.0, "fusion_lat": 0.0, "type": "electric_scooter", "name": "05766a8d78237dbbaa7e92b7d885b447", "is_disabled": 0, "rental_uris": {"ios": "https://dc.lft.to/lastmile_qr_scan", "android": "https://dc.lft.to/lastmile_qr_scan"}, "is_reserved": 0}, {"lon": -77.02090316666667, "bike_id": "d96641ddbc91dde315618dfa171839da", "lat": 38.929107333333334, "fusion_lon": 0.0, "fusion_lat": 0.0, "type": "electric_scooter", "name": "d96641ddbc91dde315618dfa171839da", "is_disabled": 0, "rental_uris": {"ios": "https://dc.lft.to/lastmile_qr_scan", "android": "https://dc.lft.to/lastmile_qr_scan"}, "is_reserved": 0}, {"lon": -77.0237265, "bike_id": "52abef12c11a130416d88822a995038a", "lat": 38.91848866666667, "fusion_lon": 0.0, "fusion_lat": 0.0, "type": "electric_scooter", "name": "52abef12c11a130416d88822a995038a", "is_disabled": 0, "rental_uris": {"ios": "https://dc.lft.to/lastmile_qr_scan", "android": "https://dc.lft.to/lastmile_qr_scan"}, "is_reserved": 0}, {"lon": -77.05605583333333, "bike_id": "9f00b46c8fba72244f5851a864dd2ea7", "lat": 38.936975833333335, "fusion_lon": 0.0, "fusion_lat": 0.0, "type": "electric_scooter", "name": "9f00b46c8fba72244f5851a864dd2ea7", "is_disabled": 0, "rental_uris": {"ios": "https://dc.lft.to/lastmile_qr_scan", "android": "https://dc.lft.to/lastmile_qr_scan"}, "is_reserved": 0}, {"lon": -77.06129866666667, "bike_id": "2ab99b2d08587b9a5dc895e84285453f", "lat": 38.905253333333334, "fusion_lon": 0.0, "fusion_lat": 0.0, "type": "electric_scooter", "name": "2ab99b2d08587b9a5dc895e84285453f", "is_disabled": 0, "rental_uris": {"ios": "https://dc.lft.to/lastmile_qr_scan", "android": "https://dc.lft.to/lastmile_qr_scan"}, "is_reserved": 0}, {"lon": -77.036333, "bike_id": "66df61d2648a471869a4f255f1f9f582", "lat": 38.915503, "fusion_lon": 0.0, "fusion_lat": 0.0, "type": "electric_scooter", "name": "66df61d2648a471869a4f255f1f9f582", "is_disabled": 0, "rental_uris": {"ios": "https://dc.lft.to/lastmile_qr_scan", "android": "https://dc.lft.to/lastmile_qr_scan"}, "is_reserved": 0}, {"lon": -77.02952183333333, "bike_id": "52ea277d7d4522ec1a7bf4c1d6e1ff44", "lat": 38.89645333333333, "fusion_lon": 0.0, "fusion_lat": 0.0, "type": "electric_scooter", "name": "52ea277d7d4522ec1a7bf4c1d6e1ff44", "is_disabled": 0, "rental_uris": {"ios": "https://dc.lft.to/lastmile_qr_scan", "android": "https://dc.lft.to/lastmile_qr_scan"}, "is_reserved": 0}, {"lon": -77.03501016666667, "bike_id": "c2cb5de678be4b41629de50cef1b2361", "lat": 38.911807333333336, "fusion_lon": 0.0, "fusion_lat": 0.0, "type": "electric_scooter", "name": "c2cb5de678be4b41629de50cef1b2361", "is_disabled": 0, "rental_uris": {"ios": "https://dc.lft.to/lastmile_qr_scan", "android": "https://dc.lft.to/lastmile_qr_scan"}, "is_reserved": 0}, {"lon": -77.001419, "bike_id": "72febac25e70930d11439aac51a1ddb5", "lat": 38.87814316666667, "fusion_lon": 0.0, "fusion_lat": 0.0, "type": "electric_scooter", "name": "72febac25e70930d11439aac51a1ddb5", "is_disabled": 0, "rental_uris": {"ios": "https://dc.lft.to/lastmile_qr_scan", "android": "https://dc.lft.to/lastmile_qr_scan"}, "is_reserved": 0}, {"lon": -77.02377916666667, "bike_id": "42b2eb463c7d70207a6b1889beb5a1af", "lat": 38.9062755, "fusion_lon": 0.0, "fusion_lat": 0.0, "type": "electric_scooter", "name": "42b2eb463c7d70207a6b1889beb5a1af", "is_disabled": 0, "rental_uris": {"ios": "https://dc.lft.to/lastmile_qr_scan", "android": "https://dc.lft.to/lastmile_qr_scan"}, "is_reserved": 0}, {"lon": -77.0054365, "bike_id": "334e7cf180acdf271669a8b7fbcd3c05", "lat": 38.8754225, "fusion_lon": 0.0, "fusion_lat": 0.0, "type": "electric_scooter", "name": "334e7cf180acdf271669a8b7fbcd3c05", "is_disabled": 0, "rental_uris": {"ios": "https://dc.lft.to/lastmile_qr_scan", "android": "https://dc.lft.to/lastmile_qr_scan"}, "is_reserved": 0}, {"lon": -76.93280933333334, "bike_id": "8f5208ecfba50daa140332a213e90e09", "lat": 38.95418733333333, "fusion_lon": 0.0, "fusion_lat": 0.0, "type": "electric_bike", "name": "8f5208ecfba50daa140332a213e90e09", "is_disabled": 0, "rental_uris": {"ios": "https://dc.lft.to/lastmile_qr_scan", "android": "https://dc.lft.to/lastmile_qr_scan"}, "is_reserved": 0}, {"lon": -77.02722633333333, "bike_id": "5aa7e09a19053d829c4fbdb968f0cf04", "lat": 38.914093666666666, "fusion_lon": 0.0, "fusion_lat": 0.0, "type": "electric_scooter", "name": "5aa7e09a19053d829c4fbdb968f0cf04", "is_disabled": 0, "rental_uris": {"ios": "https://dc.lft.to/lastmile_qr_scan", "android": "https://dc.lft.to/lastmile_qr_scan"}, "is_reserved": 0}, {"lon": -77.02346666666666, "bike_id": "c22b3e118e49731fda856b5f526d81b1", "lat": 38.92247166666667, "fusion_lon": 0.0, "fusion_lat": 0.0, "type": "electric_scooter", "name": "c22b3e118e49731fda856b5f526d81b1", "is_disabled": 0, "rental_uris": {"ios": "https://dc.lft.to/lastmile_qr_scan", "android": "https://dc.lft.to/lastmile_qr_scan"}, "is_reserved": 0}, {"lon": -77.03666083333333, "bike_id": "8a1c538ff5d6329589f9c34fd003ef5b", "lat": 38.932034, "fusion_lon": 0.0, "fusion_lat": 0.0, "type": "electric_scooter", "name": "8a1c538ff5d6329589f9c34fd003ef5b", "is_disabled": 0, "rental_uris": {"ios": "https://dc.lft.to/lastmile_qr_scan", "android": "https://dc.lft.to/lastmile_qr_scan"}, "is_reserved": 0}, {"lon": -77.03707166666666, "bike_id": "e85a01c983ffbcd4f9e250c7df34848c", "lat": 38.92639233333333, "fusion_lon": 0.0, "fusion_lat": 0.0, "type": "electric_scooter", "name": "e85a01c983ffbcd4f9e250c7df34848c", "is_disabled": 0, "rental_uris": {"ios": "https://dc.lft.to/lastmile_qr_scan", "android": "https://dc.lft.to/lastmile_qr_scan"}, "is_reserved": 0}, {"lon": -76.986976, "bike_id": "5c343bde9b9f4bbea7de3510968de154", "lat": 38.9121365, "fusion_lon": 0.0, "fusion_lat": 0.0, "type": "electric_scooter", "name": "5c343bde9b9f4bbea7de3510968de154", "is_disabled": 0, "rental_uris": {"ios": "https://dc.lft.to/lastmile_qr_scan", "android": "https://dc.lft.to/lastmile_qr_scan"}, "is_reserved": 0}, {"lon": -76.95537533333334, "bike_id": "69212378ce792cd6ba7276e0ee4e8425", "lat": 38.888684, "fusion_lon": 0.0, "fusion_lat": 0.0, "type": "electric_scooter", "name": "69212378ce792cd6ba7276e0ee4e8425", "is_disabled": 0, "rental_uris": {"ios": "https://dc.lft.to/lastmile_qr_scan", "android": "https://dc.lft.to/lastmile_qr_scan"}, "is_reserved": 0}, {"lon": -77.015071, "bike_id": "92a98056cb526721ab8409ee6a6b0649", "lat": 38.9002045, "fusion_lon": 0.0, "fusion_lat": 0.0, "type": "electric_scooter", "name": "92a98056cb526721ab8409ee6a6b0649", "is_disabled": 0, "rental_uris": {"ios": "https://dc.lft.to/lastmile_qr_scan", "android": "https://dc.lft.to/lastmile_qr_scan"}, "is_reserved": 0}, {"lon": -77.002103, "bike_id": "01c667896336dce793b91cf2a8152f06", "lat": 38.90023683333333, "fusion_lon": 0.0, "fusion_lat": 0.0, "type": "electric_scooter", "name": "01c667896336dce793b91cf2a8152f06", "is_disabled": 0, "rental_uris": {"ios": "https://dc.lft.to/lastmile_qr_scan", "android": "https://dc.lft.to/lastmile_qr_scan"}, "is_reserved": 0}, {"lon": -77.04091583333333, "bike_id": "3de7155c02de2229e9e37c97a2884f48", "lat": 38.90870483333333, "fusion_lon": 0.0, "fusion_lat": 0.0, "type": "electric_scooter", "name": "3de7155c02de2229e9e37c97a2884f48", "is_disabled": 0, "rental_uris": {"ios": "https://dc.lft.to/lastmile_qr_scan", "android": "https://dc.lft.to/lastmile_qr_scan"}, "is_reserved": 0}, {"lon": -76.994886, "bike_id": "801d237bb2a0cd2b84ca74c4bb574aa3", "lat": 38.89737266666667, "fusion_lon": 0.0, "fusion_lat": 0.0, "type": "electric_scooter", "name": "801d237bb2a0cd2b84ca74c4bb574aa3", "is_disabled": 0, "rental_uris": {"ios": "https://dc.lft.to/lastmile_qr_scan", "android": "https://dc.lft.to/lastmile_qr_scan"}, "is_reserved": 0}, {"lon": -77.021704, "bike_id": "63f4f06da504cc16223ad29ce5818b5f", "lat": 38.8972985, "fusion_lon": 0.0, "fusion_lat": 0.0, "type": "electric_scooter", "name": "63f4f06da504cc16223ad29ce5818b5f", "is_disabled": 0, "rental_uris": {"ios": "https://dc.lft.to/lastmile_qr_scan", "android": "https://dc.lft.to/lastmile_qr_scan"}, "is_reserved": 0}, {"lon": -77.052306, "bike_id": "9d60101ab849c301b37ac8cbd313cea1", "lat": 38.92464116666667, "fusion_lon": 0.0, "fusion_lat": 0.0, "type": "electric_scooter", "name": "9d60101ab849c301b37ac8cbd313cea1", "is_disabled": 0, "rental_uris": {"ios": "https://dc.lft.to/lastmile_qr_scan", "android": "https://dc.lft.to/lastmile_qr_scan"}, "is_reserved": 0}, {"lon": -77.02916233333333, "bike_id": "5c14fb9610243113d6a594c887cdcbe5", "lat": 38.94038116666667, "fusion_lon": 0.0, "fusion_lat": 0.0, "type": "electric_scooter", "name": "5c14fb9610243113d6a594c887cdcbe5", "is_disabled": 0, "rental_uris": {"ios": "https://dc.lft.to/lastmile_qr_scan", "android": "https://dc.lft.to/lastmile_qr_scan"}, "is_reserved": 0}, {"lon": -77.01785533333333, "bike_id": "ffd21fcd8b993672bb3ab486f41c8b5b", "lat": 38.88736216666667, "fusion_lon": 0.0, "fusion_lat": 0.0, "type": "electric_scooter", "name": "ffd21fcd8b993672bb3ab486f41c8b5b", "is_disabled": 0, "rental_uris": {"ios": "https://dc.lft.to/lastmile_qr_scan", "android": "https://dc.lft.to/lastmile_qr_scan"}, "is_reserved": 0}, {"lon": -77.04529083333334, "bike_id": "9ff171174c4aca214215f7b84a61546e", "lat": 38.91331133333333, "fusion_lon": 0.0, "fusion_lat": 0.0, "type": "electric_scooter", "name": "9ff171174c4aca214215f7b84a61546e", "is_disabled": 0, "rental_uris": {"ios": "https://dc.lft.to/lastmile_qr_scan", "android": "https://dc.lft.to/lastmile_qr_scan"}, "is_reserved": 0}, {"lon": -77.03178066666666, "bike_id": "8018da3226b86efcd651c3996a8cfe35", "lat": 38.88694533333334, "fusion_lon": 0.0, "fusion_lat": 0.0, "type": "electric_scooter", "name": "8018da3226b86efcd651c3996a8cfe35", "is_disabled": 0, "rental_uris": {"ios": "https://dc.lft.to/lastmile_qr_scan", "android": "https://dc.lft.to/lastmile_qr_scan"}, "is_reserved": 0}, {"lon": -77.02901016666667, "bike_id": "74d33dcb0eea857376ec0812eda13b80", "lat": 38.92816666666667, "fusion_lon": 0.0, "fusion_lat": 0.0, "type": "electric_scooter", "name": "74d33dcb0eea857376ec0812eda13b80", "is_disabled": 0, "rental_uris": {"ios": "https://dc.lft.to/lastmile_qr_scan", "android": "https://dc.lft.to/lastmile_qr_scan"}, "is_reserved": 0}, {"lon": -76.99603816666666, "bike_id": "eeb043a30da5d53a87c7eee2cc1a98e9", "lat": 38.95068466666667, "fusion_lon": 0.0, "fusion_lat": 0.0, "type": "electric_bike", "name": "eeb043a30da5d53a87c7eee2cc1a98e9", "is_disabled": 0, "rental_uris": {"ios": "https://dc.lft.to/lastmile_qr_scan", "android": "https://dc.lft.to/lastmile_qr_scan"}, "is_reserved": 0}, {"lon": -77.0156165, "bike_id": "94d236c0d25eefad09c6678779b375ba", "lat": 38.883022, "fusion_lon": 0.0, "fusion_lat": 0.0, "type": "electric_scooter", "name": "94d236c0d25eefad09c6678779b375ba", "is_disabled": 0, "rental_uris": {"ios": "https://dc.lft.to/lastmile_qr_scan", "android": "https://dc.lft.to/lastmile_qr_scan"}, "is_reserved": 0},