{"data": {"bikes": [{"bike_id": "2f6d807a23ff1771468e2ff6f1443c19", "name": "2f6d807a23ff1771468e2ff6f1443c19", "rental_uris": {"ios": "https://dc.lft.to/lastmile_qr_scan", "android": "https://dc.lft.to/lastmile_qr_scan"}, "lon": -77.04110233333333, "is_disabled": 0, "type": "electric_scooter", "fusion_lon": 0.0, "fusion_lat": 0.0, "lat": 38.919050666666664, "is_reserved": 0}, {"bike_id": "fa0df3b846a8dd200ec27afe031d79bf", "name": "fa0df3b846a8dd200ec27afe031d79bf", "rental_uris": {"ios": "https://dc.lft.to/lastmile_qr_scan", "android": "https://dc.lft.to/lastmile_qr_scan"}, "lon": -76.98367983333333, "is_disabled": 0, "type": "electric_scooter", "fusion_lon": 0.0, "fusion_lat": 0.0, "lat": 38.8777735, "is_reserved": 0}, {"bike_id": "1a0664e5daa3c9c1a784fb6e799f3acf", "name": "1a0664e5daa3c9c1a784fb6e799f3acf", "rental_uris": {"ios": "https://dc.lft.to/lastmile_qr_scan", "android": "https://dc.lft.to/lastmile_qr_scan"}, "lon": -77.02053766666667, "is_disabled": 0, "type": "electric_scooter", "fusion_lon": 0.0, "fusion_lat": 0.0, "lat": 38.91908383333333, "is_reserved": 0}, {"bike_id": "c6bc2737e545fcc2db31be3d0f0b2dd2", "name": "c6bc2737e545fcc2db31be3d0f0b2dd2", "rental_uris": {"ios": "https://dc.lft.to/lastmile_qr_scan", "android": "https://dc.lft.to/lastmile_qr_scan"}, "lon": -77.01662333333333, "is_disabled": 0, "type": "electric_scooter", "fusion_lon": 0.0, "fusion_lat": 0.0, "lat": 38.897802666666664, "is_reserved": 0}, {"bike_id": "7fcad8ffa7e5ee1b8e06b56c5c319000", "name": "7fcad8ffa7e5ee1b8e06b56c5c319000", "rental_uris": {"ios": "https://dc.lft.to/lastmile_qr_scan", "android": "https://dc.lft.to/lastmile_qr_scan"}, "lon": -77.03226333333333, "is_disabled": 0, "type": "electric_scooter", "fusion_lon": 0.0, "fusion_lat": 0.0, "lat": 38.9167795, "is_reserved": 0}, {"bike_id": "c32b21f2805c99cf98f63a72b44a05a2", "name": "c32b21f2805c99cf98f63a72b44a05a2", "rental_uris": {"ios": "https://dc.lft.to/lastmile_qr_scan", "android": "https://dc.lft.to/lastmile_qr_scan"}, "lon": -77.0271155, "is_disabled": 0, "type": "electric_scooter", "fusion_lon": 0.0, "fusion_lat": 0.0, "lat": 38.92781, "is_reserved": 0}, {"bike_id": "4e954110fa3dc56845c4506e7b15c910", "name": "4e954110fa3dc56845c4506e7b15c910", "rental_uris": {"ios": "https://dc.lft.to/lastmile_qr_scan", "android": "https://dc.lft.to/lastmile_qr_scan"}, "lon": -77.0227085, "is_disabled": 0, "type": "electric_scooter", "fusion_lon": 0.0, "fusion_lat": 0.0, "lat": 38.92646333333333, "is_reserved": 0}, {"bike_id": "31a947471f2e27086cc0027cb9c3685f", "name": "31a947471f2e27086cc0027cb9c3685f", "rental_uris": {"ios": "https://dc.lft.to/lastmile_qr_scan", "android": "https://dc.lft.to/lastmile_qr_scan"}, "lon": -76.97103616666666, "is_disabled": 0, "type": "electric_bike", "fusion_lon": 0.0, "fusion_lat": 0.0, "lat": 38.95029516666666, "is_reserved": 0}, {"bike_id": "290ba066c2e455745d51d33d3af27f3b", "name": "290ba066c2e455745d51d33d3af27f3b", "rental_uris": {"ios": "https://dc.lft.to/lastmile_qr_scan", "android": "https://dc.lft.to/lastmile_qr_scan"}, "lon": -77.02191783333333, "is_disabled": 0, "type": "electric_scooter", "fusion_lon": 0.0, "fusion_lat": 0.0, "lat": 38.91090166666667, "is_reserved": 0}, {"bike_id": "aaf131673ebdb2da83de05c3ef3696df", "name": "aaf131673ebdb2da83de05c3ef3696df", "rental_uris": {"ios": "https://dc.lft.to/lastmile_qr_scan", "android": "https://dc.lft.to/lastmile_qr_scan"}, "lon": -77.04666783333333, "is_disabled": 0, "type": "electric_scooter", "fusion_lon": 0.0, "fusion_lat": 0.0, "lat": 38.900083, "is_reserved": 0}, {"bike_id": "711fbd82ec1d26bbe764b4b973b7bad9", "name": "711fbd82ec1d26bbe764b4b973b7bad9", "rental_uris": {"ios": "https://dc.lft.to/lastmile_qr_scan", "android": "https://dc.lft.to/lastmile_qr_scan"}, "lon": -77.05048566666666, "is_disabled": 0, "type": "electric_scooter", "fusion_lon": 0.0, "fusion_lat": 0.0, "lat": 38.92365, "is_reserved": 0}, {"bike_id": "7f6868d12dab56d8117d9803f298e2b6", "name": "7f6868d12dab56d8117d9803f298e2b6", "rental_uris": {"ios": "https://dc.lft.to/lastmile_qr_scan", "android": "https://dc.lft.to/lastmile_qr_scan"}, "lon": -77.02954916666667, "is_disabled": 0, "type": "electric_scooter", "fusion_lon": 0.0, "fusion_lat": 0.0, "lat": 38.91717966666667, "is_reserved": 0}, {"bike_id": "240ff555e66d341373b9fee1a2672ead", "name": "240ff555e66d341373b9fee1a2672ead", "rental_uris": {"ios": "https://dc.lft.to/lastmile_qr_scan", "android": "https://dc.lft.to/lastmile_qr_scan"}, "lon": -77.01907283333334, "is_disabled": 0, "type": "electric_scooter", "fusion_lon": 0.0, "fusion_lat": 0.0, "lat": 38.923482666666665, "is_reserved": 0}, {"bike_id": "ad4b03a94a92a60a8b934f1000d6686d", "name": "ad4b03a94a92a60a8b934f1000d6686d", "rental_uris": {"ios": "https://dc.lft.to/lastmile_qr_scan", "android": "https://dc.lft.to/lastmile_qr_scan"}, "lon": -77.030271, "is_disabled": 0, "type": "electric_scooter", "fusion_lon": 0.0, "fusion_lat": 0.0, "lat": 38.91702216666667, "is_reserved": 0}, {"bike_id": "e33bf0b630f365586cf70944af76bc5e", "name": "e33bf0b630f365586cf70944af76bc5e", "rental_uris": {"ios": "https://dc.lft.to/lastmile_qr_scan", "android": "https://dc.lft.to/lastmile_qr_scan"}, "lon": -77.06498866666666, "is_disabled": 0, "type": "electric_scooter", "fusion_lon": 0.0, "fusion_lat": 0.0, "lat": 38.905260166666665, "is_reserved": 0}, {"bike_id": "59175cd64c1d22859b89e43cf6cf45f5", "name": "59175cd64c1d22859b89e43cf6cf45f5", "rental_uris": {"ios": "https://dc.lft.to/lastmile_qr_scan", "android": "https://dc.lft.to/lastmile_qr_scan"}, "lon": -77.03212833333333, "is_disabled": 0, "type": "electric_scooter", "fusion_lon": 0.0, "fusion_lat": 0.0, "lat": 38.916408, "is_reserved": 0}, {"bike_id": "be2c3c85c4bfec261ea26541a4eb99bb", "name": "be2c3c85c4bfec261ea26541a4eb99bb", "rental_uris": {"ios": "https://dc.lft.to/lastmile_qr_scan", "android": "https://dc.lft.to/lastmile_qr_scan"}, "lon": -77.02184766666667, "is_disabled": 0, "type": "electric_scooter", "fusion_lon": 0.0, "fusion_lat": 0.0, "lat": 38.91482216666667, "is_reserved": 0}, {"bike_id": "1d490fa76ac8f9145798f003509c1146", "name": "1d490fa76ac8f9145798f003509c1146", "rental_uris": {"ios": "https://dc.lft.to/lastmile_qr_scan", "android": "https://dc.lft.to/lastmile_qr_scan"}, "lon": -77.03220383333333, "is_disabled": 0, "type": "electric_scooter", "fusion_lon": 0.0, "fusion_lat": 0.0, "lat": 38.915979666666665, "is_reserved": 0}, {"bike_id": "3242b11eba3bfd140cd1753253e8f6d2", "name": "3242b11eba3bfd140cd1753253e8f6d2", "rental_uris": {"ios": "https://dc.lft.to/lastmile_qr_scan", "android": "https://dc.lft.to/lastmile_qr_scan"}, "lon": -76.93852966666667, "is_disabled": 0, "type": "electric_scooter", "fusion_lon": 0.0, "fusion_lat": 0.0, "lat": 38.89967583333333, "is_reserved": 0}, {"bike_id": "8a530c73510077f14d0b66d354d8030b", "name": "8a530c73510077f14d0b66d354d8030b", "rental_uris": {"ios": "https://dc.lft.to/lastmile_qr_scan", "android": "https://dc.lft.to/lastmile_qr_scan"}, "lon": -76.92419583333333, "is_disabled": 0, "type": "electric_scooter", "fusion_lon": 0.0, "fusion_lat": 0.0, "lat": 38.88372666666667, "is_reserved": 0}, {"bike_id": "0cd84cc8bc96841967a82e1a0e866f27", "name": "0cd84cc8bc96841967a82e1a0e866f27", "rental_uris": {"ios": "https://dc.lft.to/lastmile_qr_scan", "android": "https://dc.lft.to/lastmile_qr_scan"}, "lon": -77.036651, "is_disabled": 0, "type": "electric_scooter", "fusion_lon": 0.0, "fusion_lat": 0.0, "lat": 38.92606033333333, "is_reserved": 0}, {"bike_id": "e992bfbf209779d830aaeac17c5bbbff", "name": "e992bfbf209779d830aaeac17c5bbbff", "rental_uris": {"ios": "https://dc.lft.to/lastmile_qr_scan", "android": "https://dc.lft.to/lastmile_qr_scan"}, "lon": -77.02057783333333, "is_disabled": 0, "type": "electric_scooter", "fusion_lon": 0.0, "fusion_lat": 0.0, "lat": 38.91906066666667, "is_reserved": 0}, {"bike_id": "ef437eabb04098babe1682e5ae88400c", "name": "ef437eabb04098babe1682e5ae88400c", "rental_uris": {"ios": "https://dc.lft.to/lastmile_qr_scan", "android": "https://dc.lft.to/lastmile_qr_scan"}, "lon": -77.04007016666667, "is_disabled": 0, "type": "electric_scooter", "fusion_lon": 0.0, "fusion_lat": 0.0, "lat": 38.888662, "is_reserved": 0}, {"bike_id": "abfd6e8924bd1fd635724530eb8926e9", "name": "abfd6e8924bd1fd635724530eb8926e9", "rental_uris": {"ios": "https://dc.lft.to/lastmile_qr_scan", "android": "https://dc.lft.to/lastmile_qr_scan"}, "lon": -77.03406016666666, "is_disabled": 0, "type": "electric_scooter", "fusion_lon": 0.0, "fusion_lat": 0.0, "lat": 38.924488833333335, "is_reserved": 0}, {"bike_id": "48b9e40c7b62b0657e7fb6b74250414b", "name": "48b9e40c7b62b0657e7fb6b74250414b", "rental_uris": {"ios": "https://dc.lft.to/lastmile_qr_scan", "android": "https://dc.lft.to/lastmile_qr_scan"}, "lon": -77.0126215, "is_disabled": 0, "type": "electric_scooter", "fusion_lon": 0.0, "fusion_lat": 0.0, "lat": 38.91570883333333, "is_reserved": 0}, {"bike_id": "4c8b9138fa665b9e30c7ca56a0e99ab9", "name": "4c8b9138fa665b9e30c7ca56a0e99ab9", "rental_uris": {"ios": "https://dc.lft.to/lastmile_qr_scan", "android": "https://dc.lft.to/lastmile_qr_scan"}, "lon": -76.99031266666667, "is_disabled": 0, "type": "electric_scooter", "fusion_lon": 0.0, "fusion_lat": 0.0, "lat": 38.888822166666664, "is_reserved": 0}, {"bike_id": "6bd3d51036d830c82ecdcfa9174f9d3f", "name": "6bd3d51036d830c82ecdcfa9174f9d3f", "rental_uris": {"ios": "https://dc.lft.to/lastmile_qr_scan", "android": "https://dc.lft.to/lastmile_qr_scan"}, "lon": -77.00346716666667, "is_disabled": 0, "type": "electric_scooter", "fusion_lon": 0.0, "fusion_lat": 0.0, "lat": 38.88441916666667, "is_reserved": 0}, {"bike_id": "ea228e65c10f0481377acea7d4291d10", "name": "ea228e65c10f0481377acea7d4291d10", "rental_uris": {"ios": "https://dc.lft.to/lastmile_qr_scan", "android": "https://dc.lft.to/lastmile_qr_scan"}, "lon": -77.0319065, "is_disabled": 0, "type": "electric_scooter", "fusion_lon": 0.0, "fusion_lat": 0.0, "lat": 38.91070416666667, "is_reserved": 0}, {"bike_id": "f3b7cc15c3189247559606f239036519", "name": "f3b7cc15c3189247559606f239036519", "rental_uris": {"ios": "https://dc.lft.to/lastmile_qr_scan", "android": "https://dc.lft.to/lastmile_qr_scan"}, "lon": -77.03735133333333, "is_disabled": 0, "type": "electric_scooter", "fusion_lon": 0.0, "fusion_lat": 0.0, "lat": 38.92659033333333, "is_reserved": 0}, {"bike_id": "dd996cb1eb64c1c1d610a9b4da1c7bb6", "name": "dd996cb1eb64c1c1d610a9b4da1c7bb6", "rental_uris": {"ios": "https://dc.lft.to/lastmile_qr_scan", "android": "https://dc.lft.to/lastmile_qr_scan"}, "lon": -77.04965666666666, "is_disabled": 0, "type": "electric_scooter", "fusion_lon": 0.0, "fusion_lat": 0.0, "lat": 38.900716833333334, "is_reserved": 0}, {"bike_id": "5a4828fe1bdc4e23ef98d21c263fbb93", "name": "5a4828fe1bdc4e23ef98d21c263fbb93", "rental_uris": {"ios": "https://dc.lft.to/lastmile_qr_scan", "android": "https://dc.lft.to/lastmile_qr_scan"}, "lon": -77.0837475, "is_disabled": 0, "type": "electric_bike", "fusion_lon": 0.0, "fusion_lat": 0.0, "lat": 38.849229, "is_reserved": 0}, {"bike_id": "ccccdd93f0f388ba61070f5667f39827", "name": "ccccdd93f0f388ba61070f5667f39827", "rental_uris": {"ios": "https://dc.lft.to/lastmile_qr_scan", "android": "https://dc.lft.to/lastmile_qr_scan"}, "lon": -77.02370483333333, "is_disabled": 0, "type": "electric_scooter", "fusion_lon": 0.0, "fusion_lat": 0.0, "lat": 38.915551, "is_reserved": 0}, {"bike_id": "b999a0672dc0fcbabdc183fa6a1de93e", "name": "b999a0672dc0fcbabdc183fa6a1de93e", "rental_uris": {"ios": "https://dc.lft.to/lastmile_qr_scan", "android": "https://dc.lft.to/lastmile_qr_scan"}, "lon": -77.03367933333334, "is_disabled": 0, "type": "electric_scooter", "fusion_lon": 0.0, "fusion_lat": 0.0, "lat": 38.91920666666667, "is_reserved": 0}, {"bike_id": "bb28bad09526f34a28cfe3818198767a", "name": "bb28bad09526f34a28cfe3818198767a", "rental_uris": {"ios": "https://dc.lft.to/lastmile_qr_scan", "android": "https://dc.lft.to/lastmile_qr_scan"}, "lon": -77.02126983333333, "is_disabled": 0, "type": "electric_scooter", "fusion_lon": 0.0, "fusion_lat": 0.0, "lat": 38.924024, "is_reserved": 0}, {"bike_id": "437fa4d95f38c3e255f554212cddbdcc", "name": "437fa4d95f38c3e255f554212cddbdcc", "rental_uris": {"ios": "https://dc.lft.to/lastmile_qr_scan", "android": "https://dc.lft.to/lastmile_qr_scan"}, "lon": -76.99768833333333, "is_disabled": 0, "type": "electric_scooter", "fusion_lon": 0.0, "fusion_lat": 0.0, "lat": 38.906997833333335, "is_reserved": 0}, {"bike_id": "d4251dc2cd799b5461d42215b9bd6c22", "name": "d4251dc2cd799b5461d42215b9bd6c22", "rental_uris": {"ios": "https://dc.lft.to/lastmile_qr_scan", "android": "https://dc.lft.to/lastmile_qr_scan"}, "lon": -77.02187033333334, "is_disabled": 0, "type": "electric_scooter", "fusion_lon": 0.0, "fusion_lat": 0.0, "lat": 38.914580666666666, "is_reserved": 0}, {"bike_id": "3c5020c77513e8a860a5180a8ae82413", "name": "3c5020c77513e8a860a5180a8ae82413", "rental_uris": {"ios": "https://dc.lft.to/lastmile_qr_scan", "android": "https://dc.lft.to/lastmile_qr_scan"}, "lon": -77.04543883333334, "is_disabled": 0, "type": "electric_scooter", "fusion_lon": 0.0, "fusion_lat": 0.0, "lat": 38.894525333333334, "is_reserved": 0}, {"bike_id": "50597cd7c4af59c1055a7a8e08c305db", "name": "50597cd7c4af59c1055a7a8e08c305db", "rental_uris": {"ios": "https://dc.lft.to/lastmile_qr_scan", "android": "https://dc.lft.to/lastmile_qr_scan"}, "lon": -77.0200945, "is_disabled": 0, "type": "electric_scooter", "fusion_lon": 0.0, "fusion_lat": 0.0, "lat": 38.9026865, "is_reserved": 0}, {"bike_id": "6414edde17bde2b1538eff220e8d927a", "name": "6414edde17bde2b1538eff220e8d927a", "rental_uris": {"ios": "https://dc.lft.to/lastmile_qr_scan", "android": "https://dc.lft.to/lastmile_qr_scan"}, "lon": -76.9899625, "is_disabled": 0, "type": "electric_scooter", "fusion_lon": 0.0, "fusion_lat": 0.0, "lat": 38.90275483333333, "is_reserved": 0}, {"bike_id": "7af21a8f4c1f92f7c6a56262fa405c95", "name": "7af21a8f4c1f92f7c6a56262fa405c95", "rental_uris": {"ios": "https://dc.lft.to/lastmile_qr_scan", "android": "https://dc.lft.to/lastmile_qr_scan"}, "lon": -77.04061333333334, "is_disabled": 0, "type": "electric_scooter", "fusion_lon": 0.0, "fusion_lat": 0.0, "lat": 38.91769133333333, "is_reserved": 0}, {"bike_id": "78ce2aacbb631ddd4729fcbe42e90324", "name": "78ce2aacbb631ddd4729fcbe42e90324", "rental_uris": {"ios": "https://dc.lft.to/lastmile_qr_scan", "android": "https://dc.lft.to/lastmile_qr_scan"}, "lon": -77.0580675, "is_disabled": 0, "type": "electric_scooter", "fusion_lon": 0.0, "fusion_lat": 0.0, "lat": 38.902658833333334, "is_reserved": 0}, {"bike_id": "265bb09deeec740a48306198ce53f1a3", "name": "265bb09deeec740a48306198ce53f1a3", "rental_uris": {"ios": "https://dc.lft.to/lastmile_qr_scan", "android": "https://dc.lft.to/lastmile_qr_scan"}, "lon": -76.9929635, "is_disabled": 0, "type": "electric_scooter", "fusion_lon": 0.0, "fusion_lat": 0.0, "lat": 38.900138, "is_reserved": 0}, {"bike_id": "0aab9a306084eff65cb71ac0372360eb", "name": "0aab9a306084eff65cb71ac0372360eb", "rental_uris": {"ios": "https://dc.lft.to/lastmile_qr_scan", "android": "https://dc.lft.to/lastmile_qr_scan"}, "lon": -76.991407, "is_disabled": 0, "type": "electric_scooter", "fusion_lon": 0.0, "fusion_lat": 0.0, "lat": 38.910752333333335, "is_reserved": 0}, {"bike_id": "d314479b1bb9fe04539f6af0fe5855c4", "name": "d314479b1bb9fe04539f6af0fe5855c4", "rental_uris": {"ios": "https://dc.lft.to/lastmile_qr_scan", "android": "https://dc.lft.to/lastmile_qr_scan"}, "lon": -77.03102316666667, "is_disabled": 0, "type": "electric_scooter", "fusion_lon": 0.0, "fusion_lat": 0.0, "lat": 38.896187166666664, "is_reserved": 0}, {"bike_id": "685ef7a4442582e0af3d1b0b0f1a5bdd", "name": "685ef7a4442582e0af3d1b0b0f1a5bdd", "rental_uris": {"ios": "https://dc.lft.to/lastmile_qr_scan", "android": "https://dc.lft.to/lastmile_qr_scan"}, "lon": -77.03217333333333, "is_disabled": 0, "type": "electric_scooter", "fusion_lon": 0.0, "fusion_lat": 0.0, "lat": 38.9088475, "is_reserved": 0}, {"bike_id": "28a23f816febe18c2edffd7a4b3eb83f", "name": "28a23f816febe18c2edffd7a4b3eb83f", "rental_uris": {"ios": "https://dc.lft.to/lastmile_qr_scan", "android": "https://dc.lft.to/lastmile_qr_scan"}, "lon": -77.03213516666666, "is_disabled": 0, "type": "electric_scooter", "fusion_lon": 0.0, "fusion_lat": 0.0, "lat": 38.91787, "is_reserved": 0}, {"bike_id": "a0b981ac34a1a606b206954381d1db7c", "name": "a0b981ac34a1a606b206954381d1db7c", "rental_uris": {"ios": "https://dc.lft.to/lastmile_qr_scan", "android": "https://dc.lft.to/lastmile_qr_scan"}, "lon": -77.05875166666667, "is_disabled": 0, "type": "electric_scooter", "fusion_lon": 0.0, "fusion_lat": 0.0, "lat": 38.93599283333333, "is_reserved": 0}, {"bike_id": "599cf694b1dafb99460d6c8e5b783fd9", "name": "599cf694b1dafb99460d6c8e5b783fd9", "rental_uris": {"ios": "https://dc.lft.to/lastmile_qr_scan", "android": "https://dc.lft.to/lastmile_qr_scan"}, "lon": -77.02715716666667, "is_disabled": 0, "type": "electric_scooter", "fusion_lon": 0.0, "fusion_lat": 0.0, "lat": 38.91884733333333, "is_reserved": 0}, {"bike_id": "c775f7c913502a481de2f507729885a4", "name": "c775f7c913502a481de2f507729885a4", "rental_uris": {"ios": "https://dc.lft.to/lastmile_qr_scan", "android": "https://dc.lft.to/lastmile_qr_scan"}, "lon": -77.029733, "is_disabled": 0, "type": "electric_scooter", "fusion_lon": 0.0, "fusion_lat": 0.0, "lat": 38.92688, "is_reserved": 0}, {"bike_id": "41bac66a6aadc8b27cdc1e5c635aeea9", "name": "41bac66a6aadc8b27cdc1e5c635aeea9", "rental_uris": {"ios": "https://dc.lft.to/lastmile_qr_scan", "android": "https://dc.lft.to/lastmile_qr_scan"}, "lon": -77.01376133333333, "is_disabled": 0, "type": "electric_scooter", "fusion_lon": 0.0, "fusion_lat": 0.0, "lat": 38.88689166666666, "is_reserved": 0}, {"bike_id": "961c751a8f24cc00f17da4f4d74268d1", "name": "961c751a8f24cc00f17da4f4d74268d1", "rental_uris": {"ios": "https://dc.lft.to/lastmile_qr_scan", "android": "https://dc.lft.to/lastmile_qr_scan"}, "lon": -77.02173066666667, "is_disabled": 0, "type": "electric_scooter", "fusion_lon": 0.0, "fusion_lat": 0.0, "lat": 38.9002045, "is_reserved": 0}, {"bike_id": "b406111eff21219432191146e7389d97", "name": "b406111eff21219432191146e7389d97", "rental_uris": {"ios": "https://dc.lft.to/lastmile_qr_scan", "android": "https://dc.lft.to/lastmile_qr_scan"}, "lon": -77.03569333333333, "is_disabled": 0, "type": "electric_scooter", "fusion_lon": 0.0, "fusion_lat": 0.0, "lat": 38.905738166666666, "is_reserved": 0}, {"bike_id": "d9db7b860aa019cb82a1652c4c0fc83a", "name": "d9db7b860aa019cb82a1652c4c0fc83a", "rental_uris": {"ios": "https://dc.lft.to/lastmile_qr_scan", "android": "https://dc.lft.to/lastmile_qr_scan"}, "lon": -77.03638083333334, "is_disabled": 0, "type": "electric_scooter", "fusion_lon": 0.0, "fusion_lat": 0.0, "lat": 38.916812666666665, "is_reserved": 0}, {"bike_id": "04ba169a0cb8b01a04f291b645104b98", "name": "04ba169a0cb8b01a04f291b645104b98", "rental_uris": {"ios": "https://dc.lft.to/lastmile_qr_scan", "android": "https://dc.lft.to/lastmile_qr_scan"}, "lon": -77.0319505, "is_disabled": 0, "type": "electric_scooter", "fusion_lon": 0.0, "fusion_lat": 0.0, "lat": 38.916448333333335, "is_reserved": 0}, {"bike_id": "6d93351cc03cd1c7467586e3d14a4cf9", "name": "6d93351cc03cd1c7467586e3d14a4cf9", "rental_uris": {"ios": "https://dc.lft.to/lastmile_qr_scan", "android": "https://dc.lft.to/lastmile_qr_scan"}, "lon": -76.93027566666666, "is_disabled": 0, "type": "electric_scooter", "fusion_lon": 0.0, "fusion_lat": 0.0, "lat": 38.901709333333336, "is_reserved": 0}, {"bike_id": "b5fd13fa6fe3fc7d3134862b1c96a818", "name": "b5fd13fa6fe3fc7d3134862b1c96a818", "rental_uris": {"ios": "https://dc.lft.to/lastmile_qr_scan", "android": "https://dc.lft.to/lastmile_qr_scan"}, "lon": -77.01206516666667, "is_disabled": 0, "type": "electric_scooter", "fusion_lon": 0.0, "fusion_lat": 0.0, "lat": 38.8980745, "is_reserved": 0}, {"bike_id": "36f4d8b5e332bfb76403a8d93c4dc8da", "name": "36f4d8b5e332bfb76403a8d93c4dc8da", "rental_uris": {"ios": "https://dc.lft.to/lastmile_qr_scan", "android": "https://dc.lft.to/lastmile_qr_scan"}, "lon": -77.02502366666667, "is_disabled": 0, "type": "electric_scooter", "fusion_lon": 0.0, "fusion_lat": 0.0, "lat": 38.90561983333333, "is_reserved": 0}, {"bike_id": "13876b3e03768f5dbf905739279bafad", "name": "13876b3e03768f5dbf905739279bafad", "rental_uris": {"ios": "https://dc.lft.to/lastmile_qr_scan", "android": "https://dc.lft.to/lastmile_qr_scan"}, "lon": -77.037429, "is_disabled": 0, "type": "electric_scooter", "fusion_lon": 0.0, "fusion_lat": 0.0, "lat": 38.87996016666666, "is_reserved": 0}, {"bike_id": "1e7ae6fb38f5b8bb149449979b631651", "name": "1e7ae6fb38f5b8bb149449979b631651", "rental_uris": {"ios": "https://dc.lft.to/lastmile_qr_scan", "android": "https://dc.lft.to/lastmile_qr_scan"}, "lon": -76.98002233333334, "is_disabled": 0, "type": "electric_scooter", "fusion_lon": 0.0, "fusion_lat": 0.0, "lat": 38.89900383333333, "is_reserved": 0}, {"bike_id": "29a4c816933be298da74228cfab362ca", "name": "29a4c816933be298da74228cfab362ca", "rental_uris": {"ios": "https://dc.lft.to/lastmile_qr_scan", "android": "https://dc.lft.to/lastmile_qr_scan"}, "lon": -77.02091, "is_disabled": 0, "type": "electric_scooter", "fusion_lon": 0.0, "fusion_lat": 0.0, "lat": 38.92151916666667, "is_reserved": 0}, {"bike_id": "da0a3e64fb10b22b53c4fa9eaf293e55", "name": "da0a3e64fb10b22b53c4fa9eaf293e55", "rental_uris": {"ios": "https://dc.lft.to/lastmile_qr_scan", "android": "https://dc.lft.to/lastmile_qr_scan"}, "lon": -77.02306416666667, "is_disabled": 0, "type": "electric_scooter", "fusion_lon": 0.0, "fusion_lat": 0.0, "lat": 38.920620666666665, "is_reserved": 0}, {"bike_id": "b7e79b986cf37ff87e306a2b8e1fde85", "name": "b7e79b986cf37ff87e306a2b8e1fde85", "rental_uris": {"ios": "https://dc.lft.to/lastmile_qr_scan", "android": "https://dc.lft.to/lastmile_qr_scan"}, "lon": -77.01497483333333, "is_disabled": 0, "type": "electric_scooter", "fusion_lon": 0.0, "fusion_lat": 0.0, "lat": 38.9132475, "is_reserved": 0}, {"bike_id": "477ed28badf96eeeead6b35e8c9b5131", "name": "477ed28badf96eeeead6b35e8c9b5131", "rental_uris": {"ios": "https://dc.lft.to/lastmile_qr_scan", "android": "https://dc.lft.to/lastmile_qr_scan"}, "lon": -76.99784616666666, "is_disabled": 0, "type": "electric_scooter", "fusion_lon": 0.0, "fusion_lat": 0.0, "lat": 38.923113, "is_reserved": 0}, {"bike_id": "4c0897f18515b626ba3e8181fe9135b3", "name": "4c0897f18515b626ba3e8181fe9135b3", "rental_uris": {"ios": "https://dc.lft.to/lastmile_qr_scan", "android": "https://dc.lft.to/lastmile_qr_scan"}, "lon": -77.02356266666666, "is_disabled": 0, "type": "electric_bike", "fusion_lon": 0.0, "fusion_lat": 0.0, "lat": 38.943852, "is_reserved": 0}, {"bike_id": "715ffd2d0fe353ab78ee14038603b2c6", "name": "715ffd2d0fe353ab78ee14038603b2c6", "rental_uris": {"ios": "https://dc.lft.to/lastmile_qr_scan", "android": "https://dc.lft.to/lastmile_qr_scan"}, "lon": -77.022959, "is_disabled": 0, "type": "electric_scooter", "fusion_lon": 0.0, "fusion_lat": 0.0, "lat": 38.90213266666667, "is_reserved": 0}, {"bike_id": "93d0a3601a1f846726a9da55cffc452f", "name": "93d0a3601a1f846726a9da55cffc452f", "rental_uris": {"ios": "https://dc.lft.to/lastmile_qr_scan", "android": "https://dc.lft.to/lastmile_qr_scan"}, "lon": -77.03210066666666, "is_disabled": 0, "type": "electric_scooter", "fusion_lon": 0.0, "fusion_lat": 0.0, "lat": 38.91429933333333, "is_reserved": 0}, {"bike_id": "4a1c9c73e80faef2180a4583d539a085", "name": "4a1c9c73e80faef2180a4583d539a085", "rental_uris": {"ios": "https://dc.lft.to/lastmile_qr_scan", "android": "https://dc.lft.to/lastmile_qr_scan"}, "lon": -77.061489, "is_disabled": 0, "type": "electric_scooter", "fusion_lon": 0.0, "fusion_lat": 0.0, "lat": 38.94315866666667, "is_reserved": 0}, {"bike_id": "1ffb9edcf8455b3fc15c1622db114af3", "name": "1ffb9edcf8455b3fc15c1622db114af3", "rental_uris": {"ios": "https://dc.lft.to/lastmile_qr_scan", "android": "https://dc.lft.to/lastmile_qr_scan"}, "lon": -77.0875855, "is_disabled": 0, "type": "electric_scooter", "fusion_lon": 0.0, "fusion_lat": 0.0, "lat": 38.9356425, "is_reserved": 0}, {"bike_id": "dceddf386bf0096b55fb6de575cb649e", "name": "dceddf386bf0096b55fb6de575cb649e", "rental_uris": {"ios": "https://dc.lft.to/lastmile_qr_scan", "android": "https://dc.lft.to/lastmile_qr_scan"}, "lon": -77.07276766666666, "is_disabled": 0, "type": "electric_scooter", "fusion_lon": 0.0, "fusion_lat": 0.0, "lat": 38.919231833333335, "is_reserved": 0}, {"bike_id": "cd7cdfae24837d7b0cb9e4830c4885ad", "name": "cd7cdfae24837d7b0cb9e4830c4885ad", "rental_uris": {"ios": "https://dc.lft.to/lastmile_qr_scan", "android": "https://dc.lft.to/lastmile_qr_scan"}, "lon": -77.0215765, "is_disabled": 0, "type": "electric_scooter", "fusion_lon": 0.0, "fusion_lat": 0.0, "lat": 38.87931416666667, "is_reserved": 0}, {"bike_id": "a2adbf0838bdaccfb33264385c527e5e", "name": "a2adbf0838bdaccfb33264385c527e5e", "rental_uris": {"ios": "https://dc.lft.to/lastmile_qr_scan", "android": "https://dc.lft.to/lastmile_qr_scan"}, "lon": -77.04506783333333, "is_disabled": 0, "type": "electric_scooter", "fusion_lon": 0.0, "fusion_lat": 0.0, "lat": 38.892273, "is_reserved": 0}, {"bike_id": "629025710e6b7c93e76b8da473014f1b", "name": "629025710e6b7c93e76b8da473014f1b", "rental_uris": {"ios": "https://dc.lft.to/lastmile_qr_scan", "android": "https://dc.lft.to/lastmile_qr_scan"}, "lon": -76.98341233333333, "is_disabled": 0, "type": "electric_scooter", "fusion_lon": 0.0, "fusion_lat": 0.0, "lat": 38.895474666666665, "is_reserved": 0}, {"bike_id": "8a0829f1bbc34520437f1409b5e00792", "name": "8a0829f1bbc34520437f1409b5e00792", "rental_uris": {"ios": "https://dc.lft.to/lastmile_qr_scan", "android": "https://dc.lft.to/lastmile_qr_scan"}, "lon": -77.00644683333333, "is_disabled": 0, "type": "electric_scooter", "fusion_lon": 0.0, "fusion_lat": 0.0, "lat": 38.95391583333333, "is_reserved": 0}, {"bike_id": "38b07a7ee85355111661782769521bc4", "name": "38b07a7ee85355111661782769521bc4", "rental_uris": {"ios": "https://dc.lft.to/lastmile_qr_scan", "android": "https://dc.lft.to/lastmile_qr_scan"}, "lon": -77.01172833333334, "is_disabled": 0, "type": "electric_scooter", "fusion_lon": 0.0, "fusion_lat": 0.0, "lat": 38.958877333333334, "is_reserved": 0}, {"bike_id": "5d481fb9d0e4dfa0016bac6a9dec2383", "name": "5d481fb9d0e4dfa0016bac6a9dec2383", "rental_uris": {"ios": "https://dc.lft.to/lastmile_qr_scan", "android": "https://dc.lft.to/lastmile_qr_scan"}, "lon": -77.0297135, "is_disabled": 0, "type": "electric_scooter", "fusion_lon": 0.0, "fusion_lat": 0.0, "lat": 38.91060066666667, "is_reserved": 0}, {"bike_id": "b4b48bd5e7657e03fa219a4e457696b6", "name": "b4b48bd5e7657e03fa219a4e457696b6", "rental_uris": {"ios": "https://dc.lft.to/lastmile_qr_scan", "android": "https://dc.lft.to/lastmile_qr_scan"}, "lon": -76.9700325, "is_disabled": 0, "type": "electric_scooter", "fusion_lon": 0.0, "fusion_lat": 0.0, "lat": 38.8601965, "is_reserved": 0}, {"bike_id": "7f7045dc52c6ce6cf6b8f47174c96038", "name": "7f7045dc52c6ce6cf6b8f47174c96038", "rental_uris": {"ios": "https://dc.lft.to/lastmile_qr_scan", "android": "https://dc.lft.to/lastmile_qr_scan"}, "lon": -77.017851, "is_disabled": 0, "type": "electric_scooter", "fusion_lon": 0.0, "fusion_lat": 0.0, "lat": 38.90459583333333, "is_reserved": 0}, {"bike_id": "a3514ff1d5a624352ec8d0969cf4b608", "name": "a3514ff1d5a624352ec8d0969cf4b608", "rental_uris": {"ios": "https://dc.lft.to/lastmile_qr_scan", "android": "https://dc.lft.to/lastmile_qr_scan"}, "lon": -77.030978, "is_disabled": 0, "type": "electric_scooter", "fusion_lon": 0.0, "fusion_lat": 0.0, "lat": 38.91415, "is_reserved": 0}, {"bike_id": "223ec0b92fae9ca690e90c2b97755e23", "name": "223ec0b92fae9ca690e90c2b97755e23", "rental_uris": {"ios": "https://dc.lft.to/lastmile_qr_scan", "android": "https://dc.lft.to/lastmile_qr_scan"}, "lon": -76.97354, "is_disabled": 0, "type": "electric_scooter", "fusion_lon": 0.0, "fusion_lat": 0.0, "lat": 38.90406633333333, "is_reserved": 0}, {"bike_id": "1545312d36709b1196fc5af2119ebc33", "name": "1545312d36709b1196fc5af2119ebc33", "rental_uris": {"ios": "https://dc.lft.to/lastmile_qr_scan", "android": "https://dc.lft.to/lastmile_qr_scan"}, "lon": -76.9277505, "is_disabled": 0, "type": "electric_scooter", "fusion_lon": 0.0, "fusion_lat": 0.0, "lat": 38.89537133333333, "is_reserved": 0}, {"bike_id": "49aae9f013b784de31f599500da108c1", "name": "49aae9f013b784de31f599500da108c1", "rental_uris": {"ios": "https://dc.lft.to/lastmile_qr_scan", "android": "https://dc.lft.to/lastmile_qr_scan"}, "lon": -77.03726183333333, "is_disabled": 0, "type": "electric_scooter", "fusion_lon": 0.0, "fusion_lat": 0.0, "lat": 38.924729166666665, "is_reserved": 0}, {"bike_id": "2a343b1be5ed977cfcbb72a67ecac5ae", "name": "2a343b1be5ed977cfcbb72a67ecac5ae", "rental_uris": {"ios": "https://dc.lft.to/lastmile_qr_scan", "android": "https://dc.lft.to/lastmile_qr_scan"}, "lon": -77.095239, "is_disabled": 0, "type": "electric_bike", "fusion_lon": 0.0, "fusion_lat": 0.0, "lat": 38.838124, "is_reserved": 0}, {"bike_id": "9700ca9c40a61da6426b2363f974f996", "name": "9700ca9c40a61da6426b2363f974f996", "rental_uris": {"ios": "https://dc.lft.to/lastmile_qr_scan", "android": "https://dc.lft.to/lastmile_qr_scan"}, "lon": -77.03171166666667, "is_disabled": 0, "type": "electric_scooter", "fusion_lon": 0.0, "fusion_lat": 0.0, "lat": 38.91788783333333, "is_reserved": 0}, {"bike_id": "3db1a38a6b1560382269e880e5a23e87", "name": "3db1a38a6b1560382269e880e5a23e87", "rental_uris": {"ios": "https://dc.lft.to/lastmile_qr_scan", "android": "https://dc.lft.to/lastmile_qr_scan"}, "lon": -77.03301933333333, "is_disabled": 0, "type": "electric_scooter", "fusion_lon": 0.0, "fusion_lat": 0.0, "lat": 38.9472705, "is_reserved": 0}, {"bike_id": "eadd071eabab47b94abe732da0cb02ee", "name": "eadd071eabab47b94abe732da0cb02ee", "rental_uris": {"ios": "https://dc.lft.to/lastmile_qr_scan", "android": "https://dc.lft.to/lastmile_qr_scan"}, "lon": -77.0361385, "is_disabled": 0, "type": "electric_scooter", "fusion_lon": 0.0, "fusion_lat": 0.0, "lat": 38.96676, "is_reserved": 0}, {"bike_id": "e325f0150511ac4918cff567af89cedc", "name": "e325f0150511ac4918cff567af89cedc", "rental_uris": {"ios": "https://dc.lft.to/lastmile_qr_scan", "android": "https://dc.lft.to/lastmile_qr_scan"}, "lon": -77.03172216666667, "is_disabled": 0, "type": "electric_scooter", "fusion_lon": 0.0, "fusion_lat": 0.0, "lat": 38.886753166666665, "is_reserved": 0}, {"bike_id": "4daf165048c56bf02b171cb5849fa860", "name": "4daf165048c56bf02b171cb5849fa860", "rental_uris": {"ios": "https://dc.lft.to/lastmile_qr_scan", "android": "https://dc.lft.to/lastmile_qr_scan"}, "lon": -77.02172933333334, "is_disabled": 0, "type": "electric_scooter", "fusion_lon": 0.0, "fusion_lat": 0.0, "lat": 38.899334333333336, "is_reserved": 0}, {"bike_id": "0667070a03ec0aeb0f56445d5ab16517", "name": "0667070a03ec0aeb0f56445d5ab16517", "rental_uris": {"ios": "https://dc.lft.to/lastmile_qr_scan", "android": "https://dc.lft.to/lastmile_qr_scan"}, "lon": -77.00245733333334, "is_disabled": 0, "type": "electric_scooter", "fusion_lon": 0.0, "fusion_lat": 0.0, "lat": 38.95234583333333, "is_reserved": 0}, {"bike_id": "9fd758586469acd19a5603b1361baacc", "name": "9fd758586469acd19a5603b1361baacc", "rental_uris": {"ios": "https://dc.lft.to/lastmile_qr_scan", "android": "https://dc.lft.to/lastmile_qr_scan"}, "lon": -77.02498716666666, "is_disabled": 0, "type": "electric_scooter", "fusion_lon": 0.0, "fusion_lat": 0.0, "lat": 38.9258605, "is_reserved": 0}, {"bike_id": "f268cdb121649371eaa8719fa6e52db2", "name": "f268cdb121649371eaa8719fa6e52db2", "rental_uris": {"ios": "https://dc.lft.to/lastmile_qr_scan", "android": "https://dc.lft.to/lastmile_qr_scan"}, "lon": -77.0247825, "is_disabled": 0, "type": "electric_scooter", "fusion_lon": 0.0, "fusion_lat": 0.0, "lat": 38.941959833333335, "is_reserved": 0}, {"bike_id": "8a072b2821d5f2415d3e56e11cf62c91", "name": "8a072b2821d5f2415d3e56e11cf62c91", "rental_uris": {"ios": "https://dc.lft.to/lastmile_qr_scan", "android": "https://dc.lft.to/lastmile_qr_scan"}, "lon": -76.99167483333333, "is_disabled": 0, "type": "electric_scooter", "fusion_lon": 0.0, "fusion_lat": 0.0, "lat": 38.880770166666665, "is_reserved": 0}, {"bike_id": "352e413a4b4fee36e0e54917ecfc2bca", "name": "352e413a4b4fee36e0e54917ecfc2bca", "rental_uris": {"ios": "https://dc.lft.to/lastmile_qr_scan", "android": "https://dc.lft.to/lastmile_qr_scan"}, "lon": -76.9821375, "is_disabled": 0, "type": "electric_scooter", "fusion_lon": 0.0, "fusion_lat": 0.0, "lat": 38.85710783333333, "is_reserved": 0}, {"bike_id": "970723ff4594e819ca53fc1265f64e8a", "name": "970723ff4594e819ca53fc1265f64e8a", "rental_uris": {"ios": "https://dc.lft.to/lastmile_qr_scan", "android": "https://dc.lft.to/lastmile_qr_scan"}, "lon": -77.00605066666667, "is_disabled": 0, "type": "electric_scooter", "fusion_lon": 0.0, "fusion_lat": 0.0, "lat": 38.87568983333333, "is_reserved": 0}, {"bike_id": "8d755585da3497ec31e977d593ccd29b", "name": "8d755585da3497ec31e977d593ccd29b", "rental_uris": {"ios": "https://dc.lft.to/lastmile_qr_scan", "android": "https://dc.lft.to/lastmile_qr_scan"}, "lon": -77.0235775, "is_disabled": 0, "type": "electric_scooter", "fusion_lon": 0.0, "fusion_lat": 0.0, "lat": 38.93533883333333, "is_reserved": 0}, {"bike_id": "9ad4f544a11f95c09474022e21b3040c", "name": "9ad4f544a11f95c09474022e21b3040c", "rental_uris": {"ios": "https://dc.lft.to/lastmile_qr_scan", "android": "https://dc.lft.to/lastmile_qr_scan"}, "lon": -77.0227855, "is_disabled": 0, "type": "electric_scooter", "fusion_lon": 0.0, "fusion_lat": 0.0, "lat": 38.91494566666667, "is_reserved": 0}, {"bike_id": "22821f631f122e42dda30adc82216a30", "name": "22821f631f122e42dda30adc82216a30", "rental_uris": {"ios": "https://dc.lft.to/lastmile_qr_scan", "android": "https://dc.lft.to/lastmile_qr_scan"}, "lon": -77.05819633333333, "is_disabled": 0, "type": "electric_scooter", "fusion_lon": 0.0, "fusion_lat": 0.0, "lat": 38.934521, "is_reserved": 0}, {"bike_id": "00d5029eb6dcb6ecfbca752e5f271b93", "name": "00d5029eb6dcb6ecfbca752e5f271b93", "rental_uris": {"ios": "https://dc.lft.to/lastmile_qr_scan", "android": "https://dc.lft.to/lastmile_qr_scan"}, "lon": -77.0282685, "is_disabled": 0, "type": "electric_scooter", "fusion_lon": 0.0, "fusion_lat": 0.0, "lat": 38.89839466666667, "is_reserved": 0}, {"bike_id": "5265ba35786d6bc7f42b7270e5f3bc54", "name": "5265ba35786d6bc7f42b7270e5f3bc54", "rental_uris": {"ios": "https://dc.lft.to/lastmile_qr_scan", "android": "https://dc.lft.to/lastmile_qr_scan"}, "lon": -77.03296766666666, "is_disabled": 0, "type": "electric_scooter", "fusion_lon": 0.0, "fusion_lat": 0.0, "lat": 38.92454933333333, "is_reserved": 0}, {"bike_id": "e8e0979fbe287952aa73db21bf6d83f8", "name": "e8e0979fbe287952aa73db21bf6d83f8", "rental_uris": {"ios": "https://dc.lft.to/lastmile_qr_scan", "android": "https://dc.lft.to/lastmile_qr_scan"}, "lon": -77.0264845, "is_disabled": 0, "type": "electric_scooter", "fusion_lon": 0.0, "fusion_lat": 0.0, "lat": 38.8947815, "is_reserved": 0}, {"bike_id": "346c09535ae9d001deb16095dea28dab", "name": "346c09535ae9d001deb16095dea28dab", "rental_uris": {"ios": "https://dc.lft.to/lastmile_qr_scan", "android": "https://dc.lft.to/lastmile_qr_scan"}, "lon": -77.00186366666667, "is_disabled": 0, "type": "electric_scooter", "fusion_lon": 0.0, "fusion_lat": 0.0, "lat": 38.90242383333333, "is_reserved": 0}, {"bike_id": "345c7d85284288c9bc320d5fadc8e42a", "name": "345c7d85284288c9bc320d5fadc8e42a", "rental_uris": {"ios": "https://dc.lft.to/lastmile_qr_scan", "android": "https://dc.lft.to/lastmile_qr_scan"}, "lon": -77.03205233333334, "is_disabled": 0, "type": "electric_scooter", "fusion_lon": 0.0, "fusion_lat": 0.0, "lat": 38.91478816666667, "is_reserved": 0}, {"bike_id": "a6f19fec4db32c28871c352925b6a56e", "name": "a6f19fec4db32c28871c352925b6a56e", "rental_uris": {"ios": "https://dc.lft.to/lastmile_qr_scan", "android": "https://dc.lft.to/lastmile_qr_scan"}, "lon": -76.995718, "is_disabled": 0, "type": "electric_scooter", "fusion_lon": 0.0, "fusion_lat": 0.0, "lat": 38.8921335, "is_reserved": 0}, {"bike_id": "43f681b39fd4a133f50665365afad672", "name": "43f681b39fd4a133f50665365afad672", "rental_uris": {"ios": "https://dc.lft.to/lastmile_qr_scan", "android": "https://dc.lft.to/lastmile_qr_scan"}, "lon": -76.97612366666667, "is_disabled": 0, "type": "electric_bike", "fusion_lon": 0.0, "fusion_lat": 0.0, "lat": 38.840311666666665, "is_reserved": 0}, {"bike_id": "57e865299904274904592cf452de1a3c", "name": "57e865299904274904592cf452de1a3c", "rental_uris": {"ios": "https://dc.lft.to/lastmile_qr_scan", "android": "https://dc.lft.to/lastmile_qr_scan"}, "lon": -77.02607266666666, "is_disabled": 0, "type": "electric_scooter", "fusion_lon": 0.0, "fusion_lat": 0.0, "lat": 38.90723083333334, "is_reserved": 0}, {"bike_id": "bced7006095a853af640aa65c232eb4f", "name": "bced7006095a853af640aa65c232eb4f", "rental_uris": {"ios": "https://dc.lft.to/lastmile_qr_scan", "android": "https://dc.lft.to/lastmile_qr_scan"}, "lon": -77.0319045, "is_disabled": 0, "type": "electric_scooter", "fusion_lon": 0.0, "fusion_lat": 0.0, "lat": 38.91827266666667, "is_reserved": 0}, {"bike_id": "50989ce94d3d053c67b9d65123a1d110", "name": "50989ce94d3d053c67b9d65123a1d110", "rental_uris": {"ios": "https://dc.lft.to/lastmile_qr_scan", "android": "https://dc.lft.to/lastmile_qr_scan"}, "lon": -77.023414, "is_disabled": 0, "type": "electric_scooter", "fusion_lon": 0.0, "fusion_lat": 0.0, "lat": 38.92967866666667, "is_reserved": 0}, {"bike_id": "b8f2eb0f791d9d0ad13e2c58352af687", "name": "b8f2eb0f791d9d0ad13e2c58352af687", "rental_uris": {"ios": "https://dc.lft.to/lastmile_qr_scan", "android": "https://dc.lft.to/lastmile_qr_scan"}, "lon": -77.02607333333333, "is_disabled": 0, "type": "electric_scooter", "fusion_lon": 0.0, "fusion_lat": 0.0, "lat": 38.905625666666666, "is_reserved": 0}, {"bike_id": "474a55613520c24d67aa2831d2c20422", "name": "474a55613520c24d67aa2831d2c20422", "rental_uris": {"ios": "https://dc.lft.to/lastmile_qr_scan", "android": "https://dc.lft.to/lastmile_qr_scan"}, "lon": -77.05704533333333, "is_disabled": 0, "type": "electric_scooter", "fusion_lon": 0.0, "fusion_lat": 0.0, "lat": 38.9335925, "is_reserved": 0}, {"bike_id": "72790dc259e09ea9b283deb01f121a80", "name": "72790dc259e09ea9b283deb01f121a80", "rental_uris": {"ios": "https://dc.lft.to/lastmile_qr_scan", "android": "https://dc.lft.to/lastmile_qr_scan"}, "lon": -77.0151965, "is_disabled": 0, "type": "electric_scooter", "fusion_lon": 0.0, "fusion_lat": 0.0, "lat": 38.884915166666666, "is_reserved": 0}, {"bike_id": "42e3c87c19989984bf6cfb4e4a003456", "name": "42e3c87c19989984bf6cfb4e4a003456", "rental_uris": {"ios": "https://dc.lft.to/lastmile_qr_scan", "android": "https://dc.lft.to/lastmile_qr_scan"}, "lon": -77.02381366666667, "is_disabled": 0, "type": "electric_scooter", "fusion_lon": 0.0, "fusion_lat": 0.0, "lat": 38.89640766666667, "is_reserved": 0}, {"bike_id": "bed48f881843dbe0824bac6c78238859", "name": "bed48f881843dbe0824bac6c78238859", "rental_uris": {"ios": "https://dc.lft.to/lastmile_qr_scan", "android": "https://dc.lft.to/lastmile_qr_scan"}, "lon": -77.0318725, "is_disabled": 0, "type": "electric_scooter", "fusion_lon": 0.0, "fusion_lat": 0.0, "lat": 38.9139755, "is_reserved": 0}, {"bike_id": "7f1153e3a53cde305d289438194ac4fd", "name": "7f1153e3a53cde305d289438194ac4fd", "rental_uris": {"ios": "https://dc.lft.to/lastmile_qr_scan", "android": "https://dc.lft.to/lastmile_qr_scan"}, "lon": -77.02781133333333, "is_disabled": 0, "type": "electric_scooter", "fusion_lon": 0.0, "fusion_lat": 0.0, "lat": 38.896127166666666, "is_reserved": 0}, {"bike_id": "5821cfd3583b906bd1fb12473a621ff7", "name": "5821cfd3583b906bd1fb12473a621ff7", "rental_uris": {"ios": "https://dc.lft.to/lastmile_qr_scan", "android": "https://dc.lft.to/lastmile_qr_scan"}, "lon": -77.02007833333333, "is_disabled": 0, "type": "electric_scooter", "fusion_lon": 0.0, "fusion_lat": 0.0, "lat": 38.935037, "is_reserved": 0}, {"bike_id": "a4fb1eb0dd657d2e886925bf95bf87f0", "name": "a4fb1eb0dd657d2e886925bf95bf87f0", "rental_uris": {"ios": "https://dc.lft.to/lastmile_qr_scan", "android": "https://dc.lft.to/lastmile_qr_scan"}, "lon": -77.0220475, "is_disabled": 0, "type": "electric_scooter", "fusion_lon": 0.0, "fusion_lat": 0.0, "lat": 38.924716833333335, "is_reserved": 0}, {"bike_id": "a41a4bc79c37a9e34edda5939df7964f", "name": "a41a4bc79c37a9e34edda5939df7964f", "rental_uris": {"ios": "https://dc.lft.to/lastmile_qr_scan", "android": "https://dc.lft.to/lastmile_qr_scan"}, "lon": -77.06592316666666, "is_disabled": 0, "type": "electric_scooter", "fusion_lon": 0.0, "fusion_lat": 0.0, "lat": 38.90458233333333, "is_reserved": 0}, {"bike_id": "a9175d1ab07311532d3a79c0fc9a0d54", "name": "a9175d1ab07311532d3a79c0fc9a0d54", "rental_uris": {"ios": "https://dc.lft.to/lastmile_qr_scan", "android": "https://dc.lft.to/lastmile_qr_scan"}, "lon": -77.0433465, "is_disabled": 0, "type": "electric_scooter", "fusion_lon": 0.0, "fusion_lat": 0.0, "lat": 38.905045333333334, "is_reserved": 0}, {"bike_id": "349b2c7c702443d6db0941953cf242b1", "name": "349b2c7c702443d6db0941953cf242b1", "rental_uris": {"ios": "https://dc.lft.to/lastmile_qr_scan", "android": "https://dc.lft.to/lastmile_qr_scan"}, "lon": -76.9265935, "is_disabled": 0, "type": "electric_scooter", "fusion_lon": 0.0, "fusion_lat": 0.0, "lat": 38.89546583333333, "is_reserved": 0}, {"bike_id": "15a68b7a80220fbe31b02e80b7b3aae8", "name": "15a68b7a80220fbe31b02e80b7b3aae8", "rental_uris": {"ios": "https://dc.lft.to/lastmile_qr_scan", "android": "https://dc.lft.to/lastmile_qr_scan"}, "lon": -77.03222633333333, "is_disabled": 0, "type": "electric_scooter", "fusion_lon": 0.0, "fusion_lat": 0.0, "lat": 38.908668166666665, "is_reserved": 0}, {"bike_id": "e024adcd8128b623f9fa3bcf06018619", "name": "e024adcd8128b623f9fa3bcf06018619", "rental_uris": {"ios": "https://dc.lft.to/lastmile_qr_scan", "android": "https://dc.lft.to/lastmile_qr_scan"}, "lon": -77.031915, "is_disabled": 0, "type": "electric_scooter", "fusion_lon": 0.0, "fusion_lat": 0.0, "lat": 38.892301333333336, "is_reserved": 0}, {"bike_id": "d912ca1d2b5cfd65eb84afc8af30f9d2", "name": "d912ca1d2b5cfd65eb84afc8af30f9d2", "rental_uris": {"ios": "https://dc.lft.to/lastmile_qr_scan", "android": "https://dc.lft.to/lastmile_qr_scan"}, "lon": -77.03378366666666, "is_disabled": 0, "type": "electric_scooter", "fusion_lon": 0.0, "fusion_lat": 0.0, "lat": 38.8983, "is_reserved": 0}, {"bike_id": "74496a4d2e54fa92d39c82ae86eb665e", "name": "74496a4d2e54fa92d39c82ae86eb665e", "rental_uris": {"ios": "https://dc.lft.to/lastmile_qr_scan", "android": "https://dc.lft.to/lastmile_qr_scan"}, "lon": -77.03191016666666, "is_disabled": 0, "type": "electric_scooter", "fusion_lon": 0.0, "fusion_lat": 0.0, "lat": 38.90997316666667, "is_reserved": 0}, {"bike_id": "1fc2e5c1b01daf4d05290baf55f9a409", "name": "1fc2e5c1b01daf4d05290baf55f9a409", "rental_uris": {"ios": "https://dc.lft.to/lastmile_qr_scan", "android": "https://dc.lft.to/lastmile_qr_scan"}, "lon": -77.04175766666667, "is_disabled": 0, "type": "electric_scooter", "fusion_lon": 0.0, "fusion_lat": 0.0, "lat": 38.9169165, "is_reserved": 0}, {"bike_id": "0b5462d97e28b316dcb372e7046af758", "name": "0b5462d97e28b316dcb372e7046af758", "rental_uris": {"ios": "https://dc.lft.to/lastmile_qr_scan", "android": "https://dc.lft.to/lastmile_qr_scan"}, "lon": -77.06478233333333, "is_disabled": 0, "type": "electric_scooter", "fusion_lon": 0.0, "fusion_lat": 0.0, "lat": 38.946538, "is_reserved": 0}, {"bike_id": "69423088a8289d05364059bab0cda734", "name": "69423088a8289d05364059bab0cda734", "rental_uris": {"ios": "https://dc.lft.to/lastmile_qr_scan", "android": "https://dc.lft.to/lastmile_qr_scan"}, "lon": -77.04130233333333, "is_disabled": 0, "type": "electric_scooter", "fusion_lon": 0.0, "fusion_lat": 0.0, "lat": 38.900215, "is_reserved": 0}, {"bike_id": "c0e863337c307954a05ff14de2517a2a", "name": "c0e863337c307954a05ff14de2517a2a", "rental_uris": {"ios": "https://dc.lft.to/lastmile_qr_scan", "android": "https://dc.lft.to/lastmile_qr_scan"}, "lon": -77.02565183333333, "is_disabled": 0, "type": "electric_scooter", "fusion_lon": 0.0, "fusion_lat": 0.0, "lat": 38.920701333333334, "is_reserved": 0}, {"bike_id": "3124e42d28dc8ded13abe8141f38766d", "name": "3124e42d28dc8ded13abe8141f38766d", "rental_uris": {"ios": "https://dc.lft.to/lastmile_qr_scan", "android": "https://dc.lft.to/lastmile_qr_scan"}, "lon": -77.03657733333333, "is_disabled": 0, "type": "electric_scooter", "fusion_lon": 0.0, "fusion_lat": 0.0, "lat": 38.90480616666667, "is_reserved": 0}, {"bike_id": "93f67476f2c08e177c8d01fdb2833de9", "name": "93f67476f2c08e177c8d01fdb2833de9", "rental_uris": {"ios": "https://dc.lft.to/lastmile_qr_scan", "android": "https://dc.lft.to/lastmile_qr_scan"}, "lon": -77.00743283333334, "is_disabled": 0, "type": "electric_scooter", "fusion_lon": 0.0, "fusion_lat": 0.0, "lat": 38.89827866666667, "is_reserved": 0}, {"bike_id": "ef753eae0b1ef743c9408cee5e55156b", "name": "ef753eae0b1ef743c9408cee5e55156b", "rental_uris": {"ios": "https://dc.lft.to/lastmile_qr_scan", "android": "https://dc.lft.to/lastmile_qr_scan"}, "lon": -77.03852883333333, "is_disabled": 0, "type": "electric_scooter", "fusion_lon": 0.0, "fusion_lat": 0.0, "lat": 38.908369666666665, "is_reserved": 0}, {"bike_id": "8d61587edf1f4092d7ab33354792c636", "name": "8d61587edf1f4092d7ab33354792c636", "rental_uris": {"ios": "https://dc.lft.to/lastmile_qr_scan", "android": "https://dc.lft.to/lastmile_qr_scan"}, "lon": -77.03925016666666, "is_disabled": 0, "type": "electric_scooter", "fusion_lon": 0.0, "fusion_lat": 0.0, "lat": 38.9027935, "is_reserved": 0}, {"bike_id": "bdaa14291894b468d19ff861f60c4018", "name": "bdaa14291894b468d19ff861f60c4018", "rental_uris": {"ios": "https://dc.lft.to/lastmile_qr_scan", "android": "https://dc.lft.to/lastmile_qr_scan"}, "lon": -77.03689316666667, "is_disabled": 0, "type": "electric_scooter", "fusion_lon": 0.0, "fusion_lat": 0.0, "lat": 38.901402166666664, "is_reserved": 0}, {"bike_id": "98ae52241960be0978d2af7fbd148bcc", "name": "98ae52241960be0978d2af7fbd148bcc", "rental_uris": {"ios": "https://dc.lft.to/lastmile_qr_scan", "android": "https://dc.lft.to/lastmile_qr_scan"}, "lon": -77.01912466666667, "is_disabled": 0, "type": "electric_scooter", "fusion_lon": 0.0, "fusion_lat": 0.0, "lat": 38.92368416666667, "is_reserved": 0}, {"bike_id": "5a694d72406c8b90a98708af0e55373b", "name": "5a694d72406c8b90a98708af0e55373b", "rental_uris": {"ios": "https://dc.lft.to/lastmile_qr_scan", "android": "https://dc.lft.to/lastmile_qr_scan"}, "lon": -76.96743283333333, "is_disabled": 0, "type": "electric_bike", "fusion_lon": 0.0, "fusion_lat": 0.0, "lat": 38.95753166666667, "is_reserved": 0}, {"bike_id": "8ea3f5d8064765083dbe291505f71f54", "name": "8ea3f5d8064765083dbe291505f71f54", "rental_uris": {"ios": "https://dc.lft.to/lastmile_qr_scan", "android": "https://dc.lft.to/lastmile_qr_scan"}, "lon": -77.11256983333334, "is_disabled": 0, "type": "electric_bike", "fusion_lon": 0.0, "fusion_lat": 0.0, "lat": 38.808653666666665, "is_reserved": 0}, {"bike_id": "420f5e0bc4e586ca194a3a60809e260c", "name": "420f5e0bc4e586ca194a3a60809e260c", "rental_uris": {"ios": "https://dc.lft.to/lastmile_qr_scan", "android": "https://dc.lft.to/lastmile_qr_scan"}, "lon": -77.04058883333333, "is_disabled": 0, "type": "electric_scooter", "fusion_lon": 0.0, "fusion_lat": 0.0, "lat": 38.917699, "is_reserved": 0}, {"bike_id": "c13bfba5924631d815446eee1c21d2e3", "name": "c13bfba5924631d815446eee1c21d2e3", "rental_uris": {"ios": "https://dc.lft.to/lastmile_qr_scan", "android": "https://dc.lft.to/lastmile_qr_scan"}, "lon": -77.019526, "is_disabled": 0, "type": "electric_scooter", "fusion_lon": 0.0, "fusion_lat": 0.0, "lat": 38.92366216666667, "is_reserved": 0}, {"bike_id": "b163ef72d05fc92129d5196816bfd087", "name": "b163ef72d05fc92129d5196816bfd087", "rental_uris": {"ios": "https://dc.lft.to/lastmile_qr_scan", "android": "https://dc.lft.to/lastmile_qr_scan"}, "lon": -77.03840583333333, "is_disabled": 0, "type": "electric_scooter", "fusion_lon": 0.0, "fusion_lat": 0.0, "lat": 38.914956333333336, "is_reserved": 0}, {"bike_id": "f4c5fa7b46d0b43dbfa99d83bce330dc", "name": "f4c5fa7b46d0b43dbfa99d83bce330dc", "rental_uris": {"ios": "https://dc.lft.to/lastmile_qr_scan", "android": "https://dc.lft.to/lastmile_qr_scan"}, "lon": -77.02313683333334, "is_disabled": 0, "type": "electric_scooter", "fusion_lon": 0.0, "fusion_lat": 0.0, "lat": 38.917006, "is_reserved": 0}, {"bike_id": "c228a64131c506feb151d83304f61d6a", "name": "c228a64131c506feb151d83304f61d6a", "rental_uris": {"ios": "https://dc.lft.to/lastmile_qr_scan", "android": "https://dc.lft.to/lastmile_qr_scan"}, "lon": -77.02396666666667, "is_disabled": 0, "type": "electric_scooter", "fusion_lon": 0.0, "fusion_lat": 0.0, "lat": 38.93204716666666, "is_reserved": 0}, {"bike_id": "42a6bf9e7b04a129348bd7de467de354", "name": "42a6bf9e7b04a129348bd7de467de354", "rental_uris": {"ios": "https://dc.lft.to/lastmile_qr_scan", "android": "https://dc.lft.to/lastmile_qr_scan"}, "lon": -77.058836, "is_disabled": 0, "type": "electric_scooter", "fusion_lon": 0.0, "fusion_lat": 0.0, "lat": 38.935954, "is_reserved": 0}, {"bike_id": "87cb8d44f45f68a0bfa9e2f1a4d3debe", "name": "87cb8d44f45f68a0bfa9e2f1a4d3debe", "rental_uris": {"ios": "https://dc.lft.to/lastmile_qr_scan", "android": "https://dc.lft.to/lastmile_qr_scan"}, "lon": -77.03190666666667, "is_disabled": 0, "type": "electric_scooter", "fusion_lon": 0.0, "fusion_lat": 0.0, "lat": 38.899879, "is_reserved": 0}, {"bike_id": "14bee700d78461e47190f94148e3aaac", "name": "14bee700d78461e47190f94148e3aaac", "rental_uris": {"ios": "https://dc.lft.to/lastmile_qr_scan", "android": "https://dc.lft.to/lastmile_qr_scan"}, "lon": -77.022467, "is_disabled": 0, "type": "electric_scooter", "fusion_lon": 0.0, "fusion_lat": 0.0, "lat": 38.924469, "is_reserved": 0}, {"bike_id": "d23e2252d3a1403b3a217c98611d06ff", "name": "d23e2252d3a1403b3a217c98611d06ff", "rental_uris": {"ios": "https://dc.lft.to/lastmile_qr_scan", "android": "https://dc.lft.to/lastmile_qr_scan"}, "lon": -77.00073833333333, "is_disabled": 0, "type": "electric_scooter", "fusion_lon": 0.0, "fusion_lat": 0.0, "lat": 38.90138733333333, "is_reserved": 0}, {"bike_id": "467b423f4eb2a69dee5b0bc484d4c51a", "name": "467b423f4eb2a69dee5b0bc484d4c51a", "rental_uris": {"ios": "https://dc.lft.to/lastmile_qr_scan", "android": "https://dc.lft.to/lastmile_qr_scan"}, "lon": -77.016993, "is_disabled": 0, "type": "electric_scooter", "fusion_lon": 0.0, "fusion_lat": 0.0, "lat": 38.872644666666666, "is_reserved": 0}, {"bike_id": "9cf3e9cae255c994ba0b4fefb1ea72a2", "name": "9cf3e9cae255c994ba0b4fefb1ea72a2", "rental_uris": {"ios": "https://dc.lft.to/lastmile_qr_scan", "android": "https://dc.lft.to/lastmile_qr_scan"}, "lon": -76.9292485, "is_disabled": 0, "type": "electric_scooter", "fusion_lon": 0.0, "fusion_lat": 0.0, "lat": 38.89207433333333, "is_reserved": 0}, {"bike_id": "2172d6429032370258eaa330a48f423b", "name": "2172d6429032370258eaa330a48f423b", "rental_uris": {"ios": "https://dc.lft.to/lastmile_qr_scan", "android": "https://dc.lft.to/lastmile_qr_scan"}, "lon": -77.039835, "is_disabled": 0, "type": "electric_scooter", "fusion_lon": 0.0, "fusion_lat": 0.0, "lat": 38.89223333333333, "is_reserved": 0}, {"bike_id": "80ec0b371e30ad748acce1a20ea6e275", "name": "80ec0b371e30ad748acce1a20ea6e275", "rental_uris": {"ios": "https://dc.lft.to/lastmile_qr_scan", "android": "https://dc.lft.to/lastmile_qr_scan"}, "lon": -77.01337216666667, "is_disabled": 0, "type": "electric_scooter", "fusion_lon": 0.0, "fusion_lat": 0.0, "lat": 38.8716345, "is_reserved": 0}, {"bike_id": "c5ff0add2073e2038a63ff66d560ff73", "name": "c5ff0add2073e2038a63ff66d560ff73", "rental_uris": {"ios": "https://dc.lft.to/lastmile_qr_scan", "android": "https://dc.lft.to/lastmile_qr_scan"}, "lon": -77.02559483333333, "is_disabled": 0, "type": "electric_scooter", "fusion_lon": 0.0, "fusion_lat": 0.0, "lat": 38.94166383333334, "is_reserved": 0}, {"bike_id": "c4be3b3eec852554b2572f19c3a7a18f", "name": "c4be3b3eec852554b2572f19c3a7a18f", "rental_uris": {"ios": "https://dc.lft.to/lastmile_qr_scan", "android": "https://dc.lft.to/lastmile_qr_scan"}, "lon": -77.02388183333333, "is_disabled": 0, "type": "electric_scooter", "fusion_lon": 0.0, "fusion_lat": 0.0, "lat": 38.909537, "is_reserved": 0}, {"bike_id": "4460bfce90e20f589e4591f290fb8442", "name": "4460bfce90e20f589e4591f290fb8442", "rental_uris": {"ios": "https://dc.lft.to/lastmile_qr_scan", "android": "https://dc.lft.to/lastmile_qr_scan"}, "lon": -77.0287525, "is_disabled": 0, "type": "electric_scooter", "fusion_lon": 0.0, "fusion_lat": 0.0, "lat": 38.914054666666665, "is_reserved": 0}, {"bike_id": "74a0da107365b4961bc359770666417b", "name": "74a0da107365b4961bc359770666417b", "rental_uris": {"ios": "https://dc.lft.to/lastmile_qr_scan", "android": "https://dc.lft.to/lastmile_qr_scan"}, "lon": -77.02093233333333, "is_disabled": 0, "type": "electric_scooter", "fusion_lon": 0.0, "fusion_lat": 0.0, "lat": 38.93265433333333, "is_reserved": 0}, {"bike_id": "9974063374bbd3bfff2b00c1ed7854f4", "name": "9974063374bbd3bfff2b00c1ed7854f4", "rental_uris": {"ios": "https://dc.lft.to/lastmile_qr_scan", "android": "https://dc.lft.to/lastmile_qr_scan"}, "lon": -77.0307505, "is_disabled": 0, "type": "electric_scooter", "fusion_lon": 0.0, "fusion_lat": 0.0, "lat": 38.89818866666667, "is_reserved": 0}, {"bike_id": "774674bb664734dd66b19e2efc68c9f9", "name": "774674bb664734dd66b19e2efc68c9f9", "rental_uris": {"ios": "https://dc.lft.to/lastmile_qr_scan", "android": "https://dc.lft.to/lastmile_qr_scan"}, "lon": -77.03572433333333, "is_disabled": 0, "type": "electric_scooter", "fusion_lon": 0.0, "fusion_lat": 0.0, "lat": 38.904658833333336, "is_reserved": 0}, {"bike_id": "044207e131ed4dfb2f8a6f65b39668e6", "name": "044207e131ed4dfb2f8a6f65b39668e6", "rental_uris": {"ios": "https://dc.lft.to/lastmile_qr_scan", "android": "https://dc.lft.to/lastmile_qr_scan"}, "lon": -77.0116, "is_disabled": 0, "type": "electric_scooter", "fusion_lon": 0.0, "fusion_lat": 0.0, "lat": 38.91328433333334, "is_reserved": 0}, {"bike_id": "5ecb806c1ce43fb872db04bfb2221c2c", "name": "5ecb806c1ce43fb872db04bfb2221c2c", "rental_uris": {"ios": "https://dc.lft.to/lastmile_qr_scan", "android": "https://dc.lft.to/lastmile_qr_scan"}, "lon": -77.0552665, "is_disabled": 0, "type": "electric_scooter", "fusion_lon": 0.0, "fusion_lat": 0.0, "lat": 38.89730566666667, "is_reserved": 0}, {"bike_id": "390c8c517210162687ff86198979f447", "name": "390c8c517210162687ff86198979f447", "rental_uris": {"ios": "https://dc.lft.to/lastmile_qr_scan", "android": "https://dc.lft.to/lastmile_qr_scan"}, "lon": -77.04866383333334, "is_disabled": 0, "type": "electric_scooter", "fusion_lon": 0.0, "fusion_lat": 0.0, "lat": 38.916226333333334, "is_reserved": 0}, {"bike_id": "ba14b2e9d7e3f67af9fa3c8e9d40bba3", "name": "ba14b2e9d7e3f67af9fa3c8e9d40bba3", "rental_uris": {"ios": "https://dc.lft.to/lastmile_qr_scan", "android": "https://dc.lft.to/lastmile_qr_scan"}, "lon": -77.036708, "is_disabled": 0, "type": "electric_scooter", "fusion_lon": 0.0, "fusion_lat": 0.0, "lat": 38.921251166666664, "is_reserved": 0}, {"bike_id": "a81d463b8adef131a0d55d8e3b52a3ed", "name": "a81d463b8adef131a0d55d8e3b52a3ed", "rental_uris": {"ios": "https://dc.lft.to/lastmile_qr_scan", "android": "https://dc.lft.to/lastmile_qr_scan"}, "lon": -77.01829333333333, "is_disabled": 0, "type": "electric_scooter", "fusion_lon": 0.0, "fusion_lat": 0.0, "lat": 38.90255166666667, "is_reserved": 0}, {"bike_id": "e8990124de2a2de760c1d1488b08e881", "name": "e8990124de2a2de760c1d1488b08e881", "rental_uris": {"ios": "https://dc.lft.to/lastmile_qr_scan", "android": "https://dc.lft.to/lastmile_qr_scan"}, "lon": -77.033592, "is_disabled": 0, "type": "electric_scooter", "fusion_lon": 0.0, "fusion_lat": 0.0, "lat": 38.91356916666667, "is_reserved": 0}, {"bike_id": "43f448a8639b46637bcd40b5180b926a", "name": "43f448a8639b46637bcd40b5180b926a", "rental_uris": {"ios": "https://dc.lft.to/lastmile_qr_scan", "android": "https://dc.lft.to/lastmile_qr_scan"}, "lon": -77.03832566666667, "is_disabled": 0, "type": "electric_scooter", "fusion_lon": 0.0, "fusion_lat": 0.0, "lat": 38.92470433333333, "is_reserved": 0}, {"bike_id": "0ece42fc56ecc0f70f6f8e346afa0204", "name": "0ece42fc56ecc0f70f6f8e346afa0204", "rental_uris": {"ios": "https://dc.lft.to/lastmile_qr_scan", "android": "https://dc.lft.to/lastmile_qr_scan"}, "lon": -77.04288083333333, "is_disabled": 0, "type": "electric_scooter", "fusion_lon": 0.0, "fusion_lat": 0.0, "lat": 38.90664433333333, "is_reserved": 0}, {"bike_id": "ac3dd7baa8129b707dea8ce29b628780", "name": "ac3dd7baa8129b707dea8ce29b628780", "rental_uris": {"ios": "https://dc.lft.to/lastmile_qr_scan", "android": "https://dc.lft.to/lastmile_qr_scan"}, "lon": -77.02377116666666, "is_disabled": 0, "type": "electric_scooter", "fusion_lon": 0.0, "fusion_lat": 0.0, "lat": 38.942021833333335, "is_reserved": 0}, {"bike_id": "04db4d0f32088e1b843888e0d1a78f58", "name": "04db4d0f32088e1b843888e0d1a78f58", "rental_uris": {"ios": "https://dc.lft.to/lastmile_qr_scan", "android": "https://dc.lft.to/lastmile_qr_scan"}, "lon": -77.030344, "is_disabled": 0, "type": "electric_scooter", "fusion_lon": 0.0, "fusion_lat": 0.0, "lat": 38.939720666666666, "is_reserved": 0}, {"bike_id": "af041cb84428c995f5120d3c8009097a", "name": "af041cb84428c995f5120d3c8009097a", "rental_uris": {"ios": "https://dc.lft.to/lastmile_qr_scan", "android": "https://dc.lft.to/lastmile_qr_scan"}, "lon": -77.02190116666667, "is_disabled": 0, "type": "electric_scooter", "fusion_lon": 0.0, "fusion_lat": 0.0, "lat": 38.928548, "is_reserved": 0}, {"bike_id": "1d846b32f4f51a282057c1390f557822", "name": "1d846b32f4f51a282057c1390f557822", "rental_uris": {"ios": "https://dc.lft.to/lastmile_qr_scan", "android": "https://dc.lft.to/lastmile_qr_scan"}, "lon": -76.989676, "is_disabled": 0, "type": "electric_scooter", "fusion_lon": 0.0, "fusion_lat": 0.0, "lat": 38.901360833333335, "is_reserved": 0}, {"bike_id": "ccf3f94991ca0fc494c0351aef04b28f", "name": "ccf3f94991ca0fc494c0351aef04b28f", "rental_uris": {"ios": "https://dc.lft.to/lastmile_qr_scan", "android": "https://dc.lft.to/lastmile_qr_scan"}, "lon": -77.0218755, "is_disabled": 0, "type": "electric_scooter", "fusion_lon": 0.0, "fusion_lat": 0.0, "lat": 38.924785666666665, "is_reserved": 0}, {"bike_id": "b621a01adf8a19a55879dced0d7d463d", "name": "b621a01adf8a19a55879dced0d7d463d", "rental_uris": {"ios": "https://dc.lft.to/lastmile_qr_scan", "android": "https://dc.lft.to/lastmile_qr_scan"}, "lon": -77.03419033333333, "is_disabled": 0, "type": "electric_scooter", "fusion_lon": 0.0, "fusion_lat": 0.0, "lat": 38.92871733333333, "is_reserved": 0}, {"bike_id": "1ee9e79adbd6ff8796f8e917546af16d", "name": "1ee9e79adbd6ff8796f8e917546af16d", "rental_uris": {"ios": "https://dc.lft.to/lastmile_qr_scan", "android": "https://dc.lft.to/lastmile_qr_scan"}, "lon": -77.0658665, "is_disabled": 0, "type": "electric_bike", "fusion_lon": 0.0, "fusion_lat": 0.0, "lat": 38.911322166666665, "is_reserved": 0}, {"bike_id": "3f71e596f83ca483b59c3f8a93cde2d5", "name": "3f71e596f83ca483b59c3f8a93cde2d5", "rental_uris": {"ios": "https://dc.lft.to/lastmile_qr_scan", "android": "https://dc.lft.to/lastmile_qr_scan"}, "lon": -77.0322545, "is_disabled": 0, "type": "electric_scooter", "fusion_lon": 0.0, "fusion_lat": 0.0, "lat": 38.93882716666667, "is_reserved": 0}, {"bike_id": "2522fdb4c2c4b7f49b94edb5e509750b", "name": "2522fdb4c2c4b7f49b94edb5e509750b", "rental_uris": {"ios": "https://dc.lft.to/lastmile_qr_scan", "android": "https://dc.lft.to/lastmile_qr_scan"}, "lon": -76.988324, "is_disabled": 0, "type": "electric_scooter", "fusion_lon": 0.0, "fusion_lat": 0.0, "lat": 38.900331, "is_reserved": 0}, {"bike_id": "985b85037a0e511776afea630dd29866", "name": "985b85037a0e511776afea630dd29866", "rental_uris": {"ios": "https://dc.lft.to/lastmile_qr_scan", "android": "https://dc.lft.to/lastmile_qr_scan"}, "lon": -77.06400533333333, "is_disabled": 0, "type": "electric_scooter", "fusion_lon": 0.0, "fusion_lat": 0.0, "lat": 38.91221316666667, "is_reserved": 0}, {"bike_id": "868e5d034212a19aca378c8e15f3639e", "name": "868e5d034212a19aca378c8e15f3639e", "rental_uris": {"ios": "https://dc.lft.to/lastmile_qr_scan", "android": "https://dc.lft.to/lastmile_qr_scan"}, "lon": -77.0089425, "is_disabled": 0, "type": "electric_scooter", "fusion_lon": 0.0, "fusion_lat": 0.0, "lat": 38.88499233333334, "is_reserved": 0}, {"bike_id": "c1cf25f817b869beba3255a745cb9491", "name": "c1cf25f817b869beba3255a745cb9491", "rental_uris": {"ios": "https://dc.lft.to/lastmile_qr_scan", "android": "https://dc.lft.to/lastmile_qr_scan"}, "lon": -77.04130116666667, "is_disabled": 0, "type": "electric_scooter", "fusion_lon": 0.0, "fusion_lat": 0.0, "lat": 38.905871, "is_reserved": 0}, {"bike_id": "031820eb96752a0088f70ea79b994832", "name": "031820eb96752a0088f70ea79b994832", "rental_uris": {"ios": "https://dc.lft.to/lastmile_qr_scan", "android": "https://dc.lft.to/lastmile_qr_scan"}, "lon": -77.01961683333333, "is_disabled": 0, "type": "electric_scooter", "fusion_lon": 0.0, "fusion_lat": 0.0, "lat": 38.922828833333334, "is_reserved": 0}, {"bike_id": "e1c2effa517df3310899615d2b88a357", "name": "e1c2effa517df3310899615d2b88a357", "rental_uris": {"ios": "https://dc.lft.to/lastmile_qr_scan", "android": "https://dc.lft.to/lastmile_qr_scan"}, "lon": -76.9849475, "is_disabled": 0, "type": "electric_scooter", "fusion_lon": 0.0, "fusion_lat": 0.0, "lat": 38.903716333333335, "is_reserved": 0}, {"bike_id": "dd2e5e9528d076d4dc81cae98c3b5119", "name": "dd2e5e9528d076d4dc81cae98c3b5119", "rental_uris": {"ios": "https://dc.lft.to/lastmile_qr_scan", "android": "https://dc.lft.to/lastmile_qr_scan"}, "lon": -77.023872, "is_disabled": 0, "type": "electric_scooter", "fusion_lon": 0.0, "fusion_lat": 0.0, "lat": 38.93370433333333, "is_reserved": 0}, {"bike_id": "b22038dfce7b156027b928b907eee179", "name": "b22038dfce7b156027b928b907eee179", "rental_uris": {"ios": "https://dc.lft.to/lastmile_qr_scan", "android": "https://dc.lft.to/lastmile_qr_scan"}, "lon": -77.00025433333333, "is_disabled": 0, "type": "electric_scooter", "fusion_lon": 0.0, "fusion_lat": 0.0, "lat": 38.959078, "is_reserved": 0}, {"bike_id": "8bf2753d7563e4340395916912a00704", "name": "8bf2753d7563e4340395916912a00704", "rental_uris": {"ios": "https://dc.lft.to/lastmile_qr_scan", "android": "https://dc.lft.to/lastmile_qr_scan"}, "lon": -77.02177116666667, "is_disabled": 0, "type": "electric_scooter", "fusion_lon": 0.0, "fusion_lat": 0.0, "lat": 38.897397833333336, "is_reserved": 0}, {"bike_id": "48e22854acf522f863a9dbc03ee8f463", "name": "48e22854acf522f863a9dbc03ee8f463", "rental_uris": {"ios": "https://dc.lft.to/lastmile_qr_scan", "android": "https://dc.lft.to/lastmile_qr_scan"}, "lon": -77.03732633333334, "is_disabled": 0, "type": "electric_scooter", "fusion_lon": 0.0, "fusion_lat": 0.0, "lat": 38.930752, "is_reserved": 0}, {"bike_id": "abfac71f2a4e1c30308f0abb5f2e2179", "name": "abfac71f2a4e1c30308f0abb5f2e2179", "rental_uris": {"ios": "https://dc.lft.to/lastmile_qr_scan", "android": "https://dc.lft.to/lastmile_qr_scan"}, "lon": -76.98232733333333, "is_disabled": 0, "type": "electric_scooter", "fusion_lon": 0.0, "fusion_lat": 0.0, "lat": 38.903363666666664, "is_reserved": 0}, {"bike_id": "5ec9e58d4cbd066b65e27df6134b07b0", "name": "5ec9e58d4cbd066b65e27df6134b07b0", "rental_uris": {"ios": "https://dc.lft.to/lastmile_qr_scan", "android": "https://dc.lft.to/lastmile_qr_scan"}, "lon": -76.9971115, "is_disabled": 0, "type": "electric_scooter", "fusion_lon": 0.0, "fusion_lat": 0.0, "lat": 38.8947005, "is_reserved": 0}, {"bike_id": "f25b51ef15077c7bd801c7f144e3f445", "name": "f25b51ef15077c7bd801c7f144e3f445", "rental_uris": {"ios": "https://dc.lft.to/lastmile_qr_scan", "android": "https://dc.lft.to/lastmile_qr_scan"}, "lon": -77.01828766666667, "is_disabled": 0, "type": "electric_scooter", "fusion_lon": 0.0, "fusion_lat": 0.0, "lat": 38.903977, "is_reserved": 0}, {"bike_id": "e10e55c6857bab49fa169ca3b13d9e6d", "name": "e10e55c6857bab49fa169ca3b13d9e6d", "rental_uris": {"ios": "https://dc.lft.to/lastmile_qr_scan", "android": "https://dc.lft.to/lastmile_qr_scan"}, "lon": -77.01902933333334, "is_disabled": 0, "type": "electric_bike", "fusion_lon": 0.0, "fusion_lat": 0.0, "lat": 38.8982345, "is_reserved": 0}, {"bike_id": "3cf6b3dd79532e6ffdfa97a2df065267", "name": "3cf6b3dd79532e6ffdfa97a2df065267", "rental_uris": {"ios": "https://dc.lft.to/lastmile_qr_scan", "android": "https://dc.lft.to/lastmile_qr_scan"}, "lon": -77.0073915, "is_disabled": 0, "type": "electric_scooter", "fusion_lon": 0.0, "fusion_lat": 0.0, "lat": 38.87648633333333, "is_reserved": 0}, {"bike_id": "1b872fa18fdd4eb97e932e4d10bffb3d", "name": "1b872fa18fdd4eb97e932e4d10bffb3d", "rental_uris": {"ios": "https://dc.lft.to/lastmile_qr_scan", "android": "https://dc.lft.to/lastmile_qr_scan"}, "lon": -77.00337766666667, "is_disabled": 0, "type": "electric_scooter", "fusion_lon": 0.0, "fusion_lat": 0.0, "lat": 38.893576833333334, "is_reserved": 0}, {"bike_id": "a348b84d114fd38d9ad6c663c3607030", "name": "a348b84d114fd38d9ad6c663c3607030", "rental_uris": {"ios": "https://dc.lft.to/lastmile_qr_scan", "android": "https://dc.lft.to/lastmile_qr_scan"}, "lon": -76.94570533333334, "is_disabled": 0, "type": "electric_bike", "fusion_lon": 0.0, "fusion_lat": 0.0, "lat": 38.86622283333333, "is_reserved": 0}, {"bike_id": "84fb8b8035d363a02d748cbc6e5517c1", "name": "84fb8b8035d363a02d748cbc6e5517c1", "rental_uris": {"ios": "https://dc.lft.to/lastmile_qr_scan", "android": "https://dc.lft.to/lastmile_qr_scan"}, "lon": -76.97738833333334, "is_disabled": 0, "type": "electric_scooter", "fusion_lon": 0.0, "fusion_lat": 0.0, "lat": 38.904983333333334, "is_reserved": 0}, {"bike_id": "dde5933d2d71d83f89c0d2b017d73bb1", "name": "dde5933d2d71d83f89c0d2b017d73bb1", "rental_uris": {"ios": "https://dc.lft.to/lastmile_qr_scan", "android": "https://dc.lft.to/lastmile_qr_scan"}, "lon": -77.018302, "is_disabled": 0, "type": "electric_scooter", "fusion_lon": 0.0, "fusion_lat": 0.0, "lat": 38.92231133333333, "is_reserved": 0}, {"bike_id": "77380d5c8f00c696c11e92c8577a8467", "name": "77380d5c8f00c696c11e92c8577a8467", "rental_uris": {"ios": "https://dc.lft.to/lastmile_qr_scan", "android": "https://dc.lft.to/lastmile_qr_scan"}, "lon": -76.93719833333333, "is_disabled": 0, "type": "electric_scooter", "fusion_lon": 0.0, "fusion_lat": 0.0, "lat": 38.89019716666667, "is_reserved": 0}, {"bike_id": "05446481a0a831ce5e54302c2c589a5d", "name": "05446481a0a831ce5e54302c2c589a5d", "rental_uris": {"ios": "https://dc.lft.to/lastmile_qr_scan", "android": "https://dc.lft.to/lastmile_qr_scan"}, "lon": -77.04668566666666, "is_disabled": 0, "type": "electric_scooter", "fusion_lon": 0.0, "fusion_lat": 0.0, "lat": 38.892523, "is_reserved": 0}, {"bike_id": "2838380f8b0d2a5a9a22a43ff2863f49", "name": "2838380f8b0d2a5a9a22a43ff2863f49", "rental_uris": {"ios": "https://dc.lft.to/lastmile_qr_scan", "android": "https://dc.lft.to/lastmile_qr_scan"}, "lon": -77.024624, "is_disabled": 0, "type": "electric_scooter", "fusion_lon": 0.0, "fusion_lat": 0.0, "lat": 38.897408, "is_reserved": 0}, {"bike_id": "32ab229caffcebec661bd2196481b654", "name": "32ab229caffcebec661bd2196481b654", "rental_uris": {"ios": "https://dc.lft.to/lastmile_qr_scan", "android": "https://dc.lft.to/lastmile_qr_scan"}, "lon": -77.0514895, "is_disabled": 0, "type": "electric_scooter", "fusion_lon": 0.0, "fusion_lat": 0.0, "lat": 38.89807866666666, "is_reserved": 0}, {"bike_id": "a6986d0daefe73a2a14546f44434ced9", "name": "a6986d0daefe73a2a14546f44434ced9", "rental_uris": {"ios": "https://dc.lft.to/lastmile_qr_scan", "android": "https://dc.lft.to/lastmile_qr_scan"}, "lon": -77.035049, "is_disabled": 0, "type": "electric_scooter", "fusion_lon": 0.0, "fusion_lat": 0.0, "lat": 38.91628083333333, "is_reserved": 0}, {"bike_id": "2a044b3af2640cddd90d409f9d7b915f", "name": "2a044b3af2640cddd90d409f9d7b915f", "rental_uris": {"ios": "https://dc.lft.to/lastmile_qr_scan", "android": "https://dc.lft.to/lastmile_qr_scan"}, "lon": -77.09578466666666, "is_disabled": 0, "type": "electric_bike", "fusion_lon": 0.0, "fusion_lat": 0.0, "lat": 38.91703433333333, "is_reserved": 0}, {"bike_id": "882af7115cc89cfc182581e546f5ada2", "name": "882af7115cc89cfc182581e546f5ada2", "rental_uris": {"ios": "https://dc.lft.to/lastmile_qr_scan", "android": "https://dc.lft.to/lastmile_qr_scan"}, "lon": -77.1913415, "is_disabled": 0, "type": "electric_bike", "fusion_lon": 0.0, "fusion_lat": 0.0, "lat": 38.894592, "is_reserved": 0}, {"bike_id": "64b240113e0a2d97af8a76f1bbd6b7f1", "name": "64b240113e0a2d97af8a76f1bbd6b7f1", "rental_uris": {"ios": "https://dc.lft.to/lastmile_qr_scan", "android": "https://dc.lft.to/lastmile_qr_scan"}, "lon": -77.11697066666666, "is_disabled": 0, "type": "electric_bike", "fusion_lon": 0.0, "fusion_lat": 0.0, "lat": 38.8857715, "is_reserved": 0}, {"bike_id": "5c1012a11c2884cfbc8bb39f9a93818c", "name": "5c1012a11c2884cfbc8bb39f9a93818c", "rental_uris": {"ios": "https://dc.lft.to/lastmile_qr_scan", "android": "https://dc.lft.to/lastmile_qr_scan"}, "lon": -76.93190066666666, "is_disabled": 0, "type": "electric_scooter", "fusion_lon": 0.0, "fusion_lat": 0.0, "lat": 38.8987345, "is_reserved": 0}, {"bike_id": "d632f242a4b605e3a7cbcc46610c3d37", "name": "d632f242a4b605e3a7cbcc46610c3d37", "rental_uris": {"ios": "https://dc.lft.to/lastmile_qr_scan", "android": "https://dc.lft.to/lastmile_qr_scan"}, "lon": -77.00687633333334, "is_disabled": 0, "type": "electric_scooter", "fusion_lon": 0.0, "fusion_lat": 0.0, "lat": 38.900117333333334, "is_reserved": 0}, {"bike_id": "e1571f1c86b3496e6919b03a1124a933", "name": "e1571f1c86b3496e6919b03a1124a933", "rental_uris": {"ios": "https://dc.lft.to/lastmile_qr_scan", "android": "https://dc.lft.to/lastmile_qr_scan"}, "lon": -76.989928, "is_disabled": 0, "type": "electric_bike", "fusion_lon": 0.0, "fusion_lat": 0.0, "lat": 38.93671666666667, "is_reserved": 0}, {"bike_id": "a047fc5e9d3f3ad8b89cec84354d5050", "name": "a047fc5e9d3f3ad8b89cec84354d5050", "rental_uris": {"ios": "https://dc.lft.to/lastmile_qr_scan", "android": "https://dc.lft.to/lastmile_qr_scan"}, "lon": -77.03198983333333, "is_disabled": 0, "type": "electric_scooter", "fusion_lon": 0.0, "fusion_lat": 0.0, "lat": 38.897674, "is_reserved": 0}, {"bike_id": "2581c43a1f5c35e7063e97744228c74d", "name": "2581c43a1f5c35e7063e97744228c74d", "rental_uris": {"ios": "https://dc.lft.to/lastmile_qr_scan", "android": "https://dc.lft.to/lastmile_qr_scan"}, "lon": -77.05098466666666, "is_disabled": 0, "type": "electric_scooter", "fusion_lon": 0.0, "fusion_lat": 0.0, "lat": 38.900578833333334, "is_reserved": 0}, {"bike_id": "7fb3a6d1dc9c91eb42510dac9f3d2b76", "name": "7fb3a6d1dc9c91eb42510dac9f3d2b76", "rental_uris": {"ios": "https://dc.lft.to/lastmile_qr_scan", "android": "https://dc.lft.to/lastmile_qr_scan"}, "lon": -77.07100033333333, "is_disabled": 0, "type": "electric_scooter", "fusion_lon": 0.0, "fusion_lat": 0.0, "lat": 38.919773166666666, "is_reserved": 0}, {"bike_id": "47cda40b7683da38984e4d77d1686cea", "name": "47cda40b7683da38984e4d77d1686cea", "rental_uris": {"ios": "https://dc.lft.to/lastmile_qr_scan", "android": "https://dc.lft.to/lastmile_qr_scan"}, "lon": -76.99785433333334, "is_disabled": 0, "type": "electric_scooter", "fusion_lon": 0.0, "fusion_lat": 0.0, "lat": 38.93554783333333, "is_reserved": 0}, {"bike_id": "011dfa996b95d110c93b47210d70195a", "name": "011dfa996b95d110c93b47210d70195a", "rental_uris": {"ios": "https://dc.lft.to/lastmile_qr_scan", "android": "https://dc.lft.to/lastmile_qr_scan"}, "lon": -77.0058325, "is_disabled": 0, "type": "electric_scooter", "fusion_lon": 0.0, "fusion_lat": 0.0, "lat": 38.87573666666667, "is_reserved": 0}, {"bike_id": "7ddf5abc06e69d390283974b290cf60c", "name": "7ddf5abc06e69d390283974b290cf60c", "rental_uris": {"ios": "https://dc.lft.to/lastmile_qr_scan", "android": "https://dc.lft.to/lastmile_qr_scan"}, "lon": -77.00127016666667, "is_disabled": 0, "type": "electric_scooter", "fusion_lon": 0.0, "fusion_lat": 0.0, "lat": 38.8736955, "is_reserved": 0}, {"bike_id": "89e7fdace0b28a331593560ca0a71dd9", "name": "89e7fdace0b28a331593560ca0a71dd9", "rental_uris": {"ios": "https://dc.lft.to/lastmile_qr_scan", "android": "https://dc.lft.to/lastmile_qr_scan"}, "lon": -77.03186383333333, "is_disabled": 0, "type": "electric_scooter", "fusion_lon": 0.0, "fusion_lat": 0.0, "lat": 38.8932945, "is_reserved": 0}, {"bike_id": "a635ab6943ffd4dcdd614ddfc0ca38cd", "name": "a635ab6943ffd4dcdd614ddfc0ca38cd", "rental_uris": {"ios": "https://dc.lft.to/lastmile_qr_scan", "android": "https://dc.lft.to/lastmile_qr_scan"}, "lon": -77.02845933333333, "is_disabled": 0, "type": "electric_scooter", "fusion_lon": 0.0, "fusion_lat": 0.0, "lat": 38.93532416666667, "is_reserved": 0}, {"bike_id": "1eff2a3e663c27bcc204d2d83d62fe50", "name": "1eff2a3e663c27bcc204d2d83d62fe50", "rental_uris": {"ios": "https://dc.lft.to/lastmile_qr_scan", "android": "https://dc.lft.to/lastmile_qr_scan"}, "lon": -77.01503166666667, "is_disabled": 0, "type": "electric_scooter", "fusion_lon": 0.0, "fusion_lat": 0.0, "lat": 38.926695, "is_reserved": 0}, {"bike_id": "f4ff180c037854cda81c79d0151429a5", "name": "f4ff180c037854cda81c79d0151429a5", "rental_uris": {"ios": "https://dc.lft.to/lastmile_qr_scan", "android": "https://dc.lft.to/lastmile_qr_scan"}, "lon": -77.03644433333334, "is_disabled": 0, "type": "electric_scooter", "fusion_lon": 0.0, "fusion_lat": 0.0, "lat": 38.90393016666667, "is_reserved": 0}, {"bike_id": "3e5c09ba987d967fc7a5f37535d3dbde", "name": "3e5c09ba987d967fc7a5f37535d3dbde", "rental_uris": {"ios": "https://dc.lft.to/lastmile_qr_scan", "android": "https://dc.lft.to/lastmile_qr_scan"}, "lon": -77.03259283333334, "is_disabled": 0, "type": "electric_scooter", "fusion_lon": 0.0, "fusion_lat": 0.0, "lat": 38.919170333333334, "is_reserved": 0}, {"bike_id": "4fa111531ed8104ce3a5edf0db500b68", "name": "4fa111531ed8104ce3a5edf0db500b68", "rental_uris": {"ios": "https://dc.lft.to/lastmile_qr_scan", "android": "https://dc.lft.to/lastmile_qr_scan"}, "lon": -77.03178583333333, "is_disabled": 0, "type": "electric_scooter", "fusion_lon": 0.0, "fusion_lat": 0.0, "lat": 38.914199833333335, "is_reserved": 0}, {"bike_id": "ea253c8adcaf5033226d5b2f3704d423", "name": "ea253c8adcaf5033226d5b2f3704d423", "rental_uris": {"ios": "https://dc.lft.to/lastmile_qr_scan", "android": "https://dc.lft.to/lastmile_qr_scan"}, "lon": -76.98540333333334, "is_disabled": 0, "type": "electric_scooter", "fusion_lon": 0.0, "fusion_lat": 0.0, "lat": 38.885299333333336, "is_reserved": 0}, {"bike_id": "8c0e3e94cd15d6a3833cabc947448cc3", "name": "8c0e3e94cd15d6a3833cabc947448cc3", "rental_uris": {"ios": "https://dc.lft.to/lastmile_qr_scan", "android": "https://dc.lft.to/lastmile_qr_scan"}, "lon": -77.01104133333334, "is_disabled": 0, "type": "electric_scooter", "fusion_lon": 0.0, "fusion_lat": 0.0, "lat": 38.89515883333333, "is_reserved": 0}, {"bike_id": "c5aef7c85f6a0b78a467785e99841d99", "name": "c5aef7c85f6a0b78a467785e99841d99", "rental_uris": {"ios": "https://dc.lft.to/lastmile_qr_scan", "android": "https://dc.lft.to/lastmile_qr_scan"}, "lon": -77.0322125, "is_disabled": 0, "type": "electric_scooter", "fusion_lon": 0.0, "fusion_lat": 0.0, "lat": 38.911837, "is_reserved": 0}, {"bike_id": "725d4e013d7f090cf808826a0a0b9c66", "name": "725d4e013d7f090cf808826a0a0b9c66", "rental_uris": {"ios": "https://dc.lft.to/lastmile_qr_scan", "android": "https://dc.lft.to/lastmile_qr_scan"}, "lon": -77.01548933333333, "is_disabled": 0, "type": "electric_scooter", "fusion_lon": 0.0, "fusion_lat": 0.0, "lat": 38.90777833333333, "is_reserved": 0}, {"bike_id": "2305893e6015a78e4e42d1f4fe7bb402", "name": "2305893e6015a78e4e42d1f4fe7bb402", "rental_uris": {"ios": "https://dc.lft.to/lastmile_qr_scan", "android": "https://dc.lft.to/lastmile_qr_scan"}, "lon": -77.0272185, "is_disabled": 0, "type": "electric_scooter", "fusion_lon": 0.0, "fusion_lat": 0.0, "lat": 38.896533833333336, "is_reserved": 0}, {"bike_id": "1fcd4bb214d12acd921cf29265516b34", "name": "1fcd4bb214d12acd921cf29265516b34", "rental_uris": {"ios": "https://dc.lft.to/lastmile_qr_scan", "android": "https://dc.lft.to/lastmile_qr_scan"}, "lon": -77.039155, "is_disabled": 0, "type": "electric_bike", "fusion_lon": 0.0, "fusion_lat": 0.0, "lat": 39.0356525, "is_reserved": 0}, {"bike_id": "269fef64d0c32f93d178b8d18792d93a", "name": "269fef64d0c32f93d178b8d18792d93a", "rental_uris": {"ios": "https://dc.lft.to/lastmile_qr_scan", "android": "https://dc.lft.to/lastmile_qr_scan"}, "lon": -77.02482816666667, "is_disabled": 0, "type": "electric_scooter", "fusion_lon": 0.0, "fusion_lat": 0.0, "lat": 38.941934833333335, "is_reserved": 0}, {"bike_id": "8805485ec0db7727f18718925b5aba80", "name": "8805485ec0db7727f18718925b5aba80", "rental_uris": {"ios": "https://dc.lft.to/lastmile_qr_scan", "android": "https://dc.lft.to/lastmile_qr_scan"}, "lon": -76.992116, "is_disabled": 0, "type": "electric_scooter", "fusion_lon": 0.0, "fusion_lat": 0.0, "lat": 38.8951905, "is_reserved": 0}, {"bike_id": "87740bb907b2300849a25443062f93d6", "name": "87740bb907b2300849a25443062f93d6", "rental_uris": {"ios": "https://dc.lft.to/lastmile_qr_scan", "android": "https://dc.lft.to/lastmile_qr_scan"}, "lon": -77.01754333333334, "is_disabled": 0, "type": "electric_bike", "fusion_lon": 0.0, "fusion_lat": 0.0, "lat": 38.95212566666667, "is_reserved": 0}, {"bike_id": "a9cc1f50f6f0d324f5645e4a50f11768", "name": "a9cc1f50f6f0d324f5645e4a50f11768", "rental_uris": {"ios": "https://dc.lft.to/lastmile_qr_scan", "android": "https://dc.lft.to/lastmile_qr_scan"}, "lon": -77.00354683333333, "is_disabled": 0, "type": "electric_scooter", "fusion_lon": 0.0, "fusion_lat": 0.0, "lat": 38.907238166666666, "is_reserved": 0}, {"bike_id": "b3f01b37a286b1ebd7d98ec4983846ff", "name": "b3f01b37a286b1ebd7d98ec4983846ff", "rental_uris": {"ios": "https://dc.lft.to/lastmile_qr_scan", "android": "https://dc.lft.to/lastmile_qr_scan"}, "lon": -77.04456866666666, "is_disabled": 0, "type": "electric_scooter", "fusion_lon": 0.0, "fusion_lat": 0.0, "lat": 38.9154605, "is_reserved": 0}, {"bike_id": "27ad60667b6f41ca75589f7f15289b1f", "name": "27ad60667b6f41ca75589f7f15289b1f", "rental_uris": {"ios": "https://dc.lft.to/lastmile_qr_scan", "android": "https://dc.lft.to/lastmile_qr_scan"}, "lon": -77.02259833333333, "is_disabled": 0, "type": "electric_scooter", "fusion_lon": 0.0, "fusion_lat": 0.0, "lat": 38.91333566666667, "is_reserved": 0}, {"bike_id": "1e34afe48ddcc8eac56cba45e2542f40", "name": "1e34afe48ddcc8eac56cba45e2542f40", "rental_uris": {"ios": "https://dc.lft.to/lastmile_qr_scan", "android": "https://dc.lft.to/lastmile_qr_scan"}, "lon": -77.02829966666667, "is_disabled": 0, "type": "electric_scooter", "fusion_lon": 0.0, "fusion_lat": 0.0, "lat": 38.899333666666664, "is_reserved": 0}, {"bike_id": "0a2db7786adfec52337a38a7ec74d3ed", "name": "0a2db7786adfec52337a38a7ec74d3ed", "rental_uris": {"ios": "https://dc.lft.to/lastmile_qr_scan", "android": "https://dc.lft.to/lastmile_qr_scan"}, "lon": -77.070112, "is_disabled": 0, "type": "electric_scooter", "fusion_lon": 0.0, "fusion_lat": 0.0, "lat": 38.955776, "is_reserved": 0}, {"bike_id": "30fc9157290ae98e9f2000782c9f7f98", "name": "30fc9157290ae98e9f2000782c9f7f98", "rental_uris": {"ios": "https://dc.lft.to/lastmile_qr_scan", "android": "https://dc.lft.to/lastmile_qr_scan"}, "lon": -77.03089766666666, "is_disabled": 0, "type": "electric_scooter", "fusion_lon": 0.0, "fusion_lat": 0.0, "lat": 38.922496833333334, "is_reserved": 0}, {"bike_id": "ca8c5897a296b784ef50f8eebe507e49", "name": "ca8c5897a296b784ef50f8eebe507e49", "rental_uris": {"ios": "https://dc.lft.to/lastmile_qr_scan", "android": "https://dc.lft.to/lastmile_qr_scan"}, "lon": -77.03655366666666, "is_disabled": 0, "type": "electric_scooter", "fusion_lon": 0.0, "fusion_lat": 0.0, "lat": 38.90385533333333, "is_reserved": 0}, {"bike_id": "6d43d9127dbae5a4a2d922613fa788f7", "name": "6d43d9127dbae5a4a2d922613fa788f7", "rental_uris": {"ios": "https://dc.lft.to/lastmile_qr_scan", "android": "https://dc.lft.to/lastmile_qr_scan"}, "lon": -77.031884, "is_disabled": 0, "type": "electric_scooter", "fusion_lon": 0.0, "fusion_lat": 0.0, "lat": 38.90289416666667, "is_reserved": 0}, {"bike_id": "12660659b0830fbc8d21ad0729b4a11c", "name": "12660659b0830fbc8d21ad0729b4a11c", "rental_uris": {"ios": "https://dc.lft.to/lastmile_qr_scan", "android": "https://dc.lft.to/lastmile_qr_scan"}, "lon": -77.05333166666667, "is_disabled": 0, "type": "electric_scooter", "fusion_lon": 0.0, "fusion_lat": 0.0, "lat": 38.9279295, "is_reserved": 0}, {"bike_id": "d086acabb25ce50212d8fe8413cd898b", "name": "d086acabb25ce50212d8fe8413cd898b", "rental_uris": {"ios": "https://dc.lft.to/lastmile_qr_scan", "android": "https://dc.lft.to/lastmile_qr_scan"}, "lon": -76.97638416666666, "is_disabled": 0, "type": "electric_scooter", "fusion_lon": 0.0, "fusion_lat": 0.0, "lat": 38.88694183333333, "is_reserved": 0}, {"bike_id": "452159b2b195ba138af159fd90cfe141", "name": "452159b2b195ba138af159fd90cfe141", "rental_uris": {"ios": "https://dc.lft.to/lastmile_qr_scan", "android": "https://dc.lft.to/lastmile_qr_scan"}, "lon": -77.0417645, "is_disabled": 0, "type": "electric_scooter", "fusion_lon": 0.0, "fusion_lat": 0.0, "lat": 38.91705916666667, "is_reserved": 0}, {"bike_id": "b21a23b1868a33e590d1c914bec94db9", "name": "b21a23b1868a33e590d1c914bec94db9", "rental_uris": {"ios": "https://dc.lft.to/lastmile_qr_scan", "android": "https://dc.lft.to/lastmile_qr_scan"}, "lon": -77.04867966666667, "is_disabled": 0, "type": "electric_scooter", "fusion_lon": 0.0, "fusion_lat": 0.0, "lat": 38.909477333333335, "is_reserved": 0}, {"bike_id": "a8d84bc1aedf18f5bb22ff333f8a4782", "name": "a8d84bc1aedf18f5bb22ff333f8a4782", "rental_uris": {"ios": "https://dc.lft.to/lastmile_qr_scan", "android": "https://dc.lft.to/lastmile_qr_scan"}, "lon": -77.01906966666667, "is_disabled": 0, "type": "electric_scooter", "fusion_lon": 0.0, "fusion_lat": 0.0, "lat": 38.92340183333334, "is_reserved": 0}, {"bike_id": "60c83a352d79fbaa658290b218eae301", "name": "60c83a352d79fbaa658290b218eae301", "rental_uris": {"ios": "https://dc.lft.to/lastmile_qr_scan", "android": "https://dc.lft.to/lastmile_qr_scan"}, "lon": -77.03222683333334, "is_disabled": 0, "type": "electric_scooter", "fusion_lon": 0.0, "fusion_lat": 0.0, "lat": 38.90893333333333, "is_reserved": 0}, {"bike_id": "dca530d65bd64604a2e72a6a9bfd6524", "name": "dca530d65bd64604a2e72a6a9bfd6524", "rental_uris": {"ios": "https://dc.lft.to/lastmile_qr_scan", "android": "https://dc.lft.to/lastmile_qr_scan"}, "lon": -77.05152016666666, "is_disabled": 0, "type": "electric_scooter", "fusion_lon": 0.0, "fusion_lat": 0.0, "lat": 38.903827, "is_reserved": 0}, {"bike_id": "2f1d04c3de59407d9f11d16873f09221", "name": "2f1d04c3de59407d9f11d16873f09221", "rental_uris": {"ios": "https://dc.lft.to/lastmile_qr_scan", "android": "https://dc.lft.to/lastmile_qr_scan"}, "lon": -77.01359516666666, "is_disabled": 0, "type": "electric_bike", "fusion_lon": 0.0, "fusion_lat": 0.0, "lat": 39.029264166666664, "is_reserved": 0}, {"bike_id": "b3fa4a993712518b11d5747ab65976a9", "name": "b3fa4a993712518b11d5747ab65976a9", "rental_uris": {"ios": "https://dc.lft.to/lastmile_qr_scan", "android": "https://dc.lft.to/lastmile_qr_scan"}, "lon": -77.02727083333333, "is_disabled": 0, "type": "electric_scooter", "fusion_lon": 0.0, "fusion_lat": 0.0, "lat": 38.90045516666667, "is_reserved": 0}, {"bike_id": "8cb52b56468e0b97962818441eede713", "name": "8cb52b56468e0b97962818441eede713", "rental_uris": {"ios": "https://dc.lft.to/lastmile_qr_scan", "android": "https://dc.lft.to/lastmile_qr_scan"}, "lon": -76.98384, "is_disabled": 0, "type": "electric_scooter", "fusion_lon": 0.0, "fusion_lat": 0.0, "lat": 38.8899015, "is_reserved": 0}, {"bike_id": "18008a7861dcd1e259fca9b700727d64", "name": "18008a7861dcd1e259fca9b700727d64", "rental_uris": {"ios": "https://dc.lft.to/lastmile_qr_scan", "android": "https://dc.lft.to/lastmile_qr_scan"}, "lon": -77.03915683333334, "is_disabled": 0, "type": "electric_scooter", "fusion_lon": 0.0, "fusion_lat": 0.0, "lat": 38.90647716666667, "is_reserved": 0}, {"bike_id": "f0d900de67b36c04789def2cc159db0f", "name": "f0d900de67b36c04789def2cc159db0f", "rental_uris": {"ios": "https://dc.lft.to/lastmile_qr_scan", "android": "https://dc.lft.to/lastmile_qr_scan"}, "lon": -77.02693433333333, "is_disabled": 0, "type": "electric_scooter", "fusion_lon": 0.0, "fusion_lat": 0.0, "lat": 38.906806, "is_reserved": 0}, {"bike_id": "c92448b162b7b75a835371dde849b1e9", "name": "c92448b162b7b75a835371dde849b1e9", "rental_uris": {"ios": "https://dc.lft.to/lastmile_qr_scan", "android": "https://dc.lft.to/lastmile_qr_scan"}, "lon": -77.0320565, "is_disabled": 0, "type": "electric_scooter", "fusion_lon": 0.0, "fusion_lat": 0.0, "lat": 38.90939483333333, "is_reserved": 0}, {"bike_id": "6829f22bd564350077b0057126a75cc9", "name": "6829f22bd564350077b0057126a75cc9", "rental_uris": {"ios": "https://dc.lft.to/lastmile_qr_scan", "android": "https://dc.lft.to/lastmile_qr_scan"}, "lon": -77.03285633333333, "is_disabled": 0, "type": "electric_scooter", "fusion_lon": 0.0, "fusion_lat": 0.0, "lat": 38.948794, "is_reserved": 0}, {"bike_id": "a70755104a8ea49090b6e29e4fe53f2f", "name": "a70755104a8ea49090b6e29e4fe53f2f", "rental_uris": {"ios": "https://dc.lft.to/lastmile_qr_scan", "android": "https://dc.lft.to/lastmile_qr_scan"}, "lon": -77.03236783333334, "is_disabled": 0, "type": "electric_scooter", "fusion_lon": 0.0, "fusion_lat": 0.0, "lat": 38.914764, "is_reserved": 0}, {"bike_id": "d8bf4e60f59fd997436fa60f123d89ce", "name": "d8bf4e60f59fd997436fa60f123d89ce", "rental_uris": {"ios": "https://dc.lft.to/lastmile_qr_scan", "android": "https://dc.lft.to/lastmile_qr_scan"}, "lon": -77.02510866666667, "is_disabled": 0, "type": "electric_scooter", "fusion_lon": 0.0, "fusion_lat": 0.0, "lat": 38.89224433333333, "is_reserved": 0}, {"bike_id": "a8829bd43ed84306d7527e32a1603817", "name": "a8829bd43ed84306d7527e32a1603817", "rental_uris": {"ios": "https://dc.lft.to/lastmile_qr_scan", "android": "https://dc.lft.to/lastmile_qr_scan"}, "lon": -77.0028995, "is_disabled": 0, "type": "electric_scooter", "fusion_lon": 0.0, "fusion_lat": 0.0, "lat": 38.88614033333333, "is_reserved": 0}, {"bike_id": "9c596237dea4e09a3d10d33ac4aedf29", "name": "9c596237dea4e09a3d10d33ac4aedf29", "rental_uris": {"ios": "https://dc.lft.to/lastmile_qr_scan", "android": "https://dc.lft.to/lastmile_qr_scan"}, "lon": -77.0249385, "is_disabled": 0, "type": "electric_scooter", "fusion_lon": 0.0, "fusion_lat": 0.0, "lat": 38.91807566666667, "is_reserved": 0}, {"bike_id": "70dd90b28c1be309e0f66026d58ddd29", "name": "70dd90b28c1be309e0f66026d58ddd29", "rental_uris": {"ios": "https://dc.lft.to/lastmile_qr_scan", "android": "https://dc.lft.to/lastmile_qr_scan"}, "lon": -77.00376316666667, "is_disabled": 0, "type": "electric_scooter", "fusion_lon": 0.0, "fusion_lat": 0.0, "lat": 38.90751133333333, "is_reserved": 0}, {"bike_id": "ff4ed2a0eaec6060a2ce33b49772c4ce", "name": "ff4ed2a0eaec6060a2ce33b49772c4ce", "rental_uris": {"ios": "https://dc.lft.to/lastmile_qr_scan", "android": "https://dc.lft.to/lastmile_qr_scan"}, "lon": -77.03189316666666, "is_disabled": 0, "type": "electric_scooter", "fusion_lon": 0.0, "fusion_lat": 0.0, "lat": 38.910686166666665, "is_reserved": 0}, {"bike_id": "b3b696071a6c89064424353f747fd935", "name": "b3b696071a6c89064424353f747fd935", "rental_uris": {"ios": "https://dc.lft.to/lastmile_qr_scan", "android": "https://dc.lft.to/lastmile_qr_scan"}, "lon": -77.0589835, "is_disabled": 0, "type": "electric_scooter", "fusion_lon": 0.0, "fusion_lat": 0.0, "lat": 38.90195633333333, "is_reserved": 0}, {"bike_id": "093e56c514b429a15ea9cb280c523911", "name": "093e56c514b429a15ea9cb280c523911", "rental_uris": {"ios": "https://dc.lft.to/lastmile_qr_scan", "android": "https://dc.lft.to/lastmile_qr_scan"}, "lon": -77.02685116666666, "is_disabled": 0, "type": "electric_scooter", "fusion_lon": 0.0, "fusion_lat": 0.0, "lat": 38.89465, "is_reserved": 0}, {"bike_id": "417b18d5eb0620a1fe6d118bcd72f17c", "name": "417b18d5eb0620a1fe6d118bcd72f17c", "rental_uris": {"ios": "https://dc.lft.to/lastmile_qr_scan", "android": "https://dc.lft.to/lastmile_qr_scan"}, "lon": -77.04473466666667, "is_disabled": 0, "type": "electric_scooter", "fusion_lon": 0.0, "fusion_lat": 0.0, "lat": 38.89529433333333, "is_reserved": 0}, {"bike_id": "c73b60bd0f8f3f7c68886b2720abf724", "name": "c73b60bd0f8f3f7c68886b2720abf724", "rental_uris": {"ios": "https://dc.lft.to/lastmile_qr_scan", "android": "https://dc.lft.to/lastmile_qr_scan"}, "lon": -77.04961316666666, "is_disabled": 0, "type": "electric_scooter", "fusion_lon": 0.0, "fusion_lat": 0.0, "lat": 38.9055285, "is_reserved": 0}, {"bike_id": "c9927be2569c2da17c4e82b8be7d5974", "name": "c9927be2569c2da17c4e82b8be7d5974", "rental_uris": {"ios": "https://dc.lft.to/lastmile_qr_scan", "android": "https://dc.lft.to/lastmile_qr_scan"}, "lon": -77.05523566666666, "is_disabled": 0, "type": "electric_scooter", "fusion_lon": 0.0, "fusion_lat": 0.0, "lat": 38.944253833333335, "is_reserved": 0}, {"bike_id": "8e25db3b0054c56be33022555fcb21dd", "name": "8e25db3b0054c56be33022555fcb21dd", "rental_uris": {"ios": "https://dc.lft.to/lastmile_qr_scan", "android": "https://dc.lft.to/lastmile_qr_scan"}, "lon": -76.95060966666667, "is_disabled": 0, "type": "electric_bike", "fusion_lon": 0.0, "fusion_lat": 0.0, "lat": 39.08492066666667, "is_reserved": 0}, {"bike_id": "4804b2181f3900802335dd6d008cad28", "name": "4804b2181f3900802335dd6d008cad28", "rental_uris": {"ios": "https://dc.lft.to/lastmile_qr_scan", "android": "https://dc.lft.to/lastmile_qr_scan"}, "lon": -77.03183416666667, "is_disabled": 0, "type": "electric_scooter", "fusion_lon": 0.0, "fusion_lat": 0.0, "lat": 38.89224566666667, "is_reserved": 0}, {"bike_id": "70deb716524cc78a2c56333112538a7e", "name": "70deb716524cc78a2c56333112538a7e", "rental_uris": {"ios": "https://dc.lft.to/lastmile_qr_scan", "android": "https://dc.lft.to/lastmile_qr_scan"}, "lon": -77.0195215, "is_disabled": 0, "type": "electric_scooter", "fusion_lon": 0.0, "fusion_lat": 0.0, "lat": 38.92418816666667, "is_reserved": 0}, {"bike_id": "dc4b6bbfcdd78fe015efacfa5af472ba", "name": "dc4b6bbfcdd78fe015efacfa5af472ba", "rental_uris": {"ios": "https://dc.lft.to/lastmile_qr_scan", "android": "https://dc.lft.to/lastmile_qr_scan"}, "lon": -77.05133033333334, "is_disabled": 0, "type": "electric_scooter", "fusion_lon": 0.0, "fusion_lat": 0.0, "lat": 38.89956016666667, "is_reserved": 0}, {"bike_id": "f55cdadeefecb56fa7fbf7ddfbdd871e", "name": "f55cdadeefecb56fa7fbf7ddfbdd871e", "rental_uris": {"ios": "https://dc.lft.to/lastmile_qr_scan", "android": "https://dc.lft.to/lastmile_qr_scan"}, "lon": -77.04488, "is_disabled": 0, "type": "electric_scooter", "fusion_lon": 0.0, "fusion_lat": 0.0, "lat": 38.9007145, "is_reserved": 0}, {"bike_id": "27509498c1e83251445330b310e9ee09", "name": "27509498c1e83251445330b310e9ee09", "rental_uris": {"ios": "https://dc.lft.to/lastmile_qr_scan", "android": "https://dc.lft.to/lastmile_qr_scan"}, "lon": -77.08859416666667, "is_disabled": 0, "type": "electric_bike", "fusion_lon": 0.0, "fusion_lat": 0.0, "lat": 38.93530883333333, "is_reserved": 0}, {"bike_id": "f40a7baf61acafbd0fd237c424f27115", "name": "f40a7baf61acafbd0fd237c424f27115", "rental_uris": {"ios": "https://dc.lft.to/lastmile_qr_scan", "android": "https://dc.lft.to/lastmile_qr_scan"}, "lon": -77.00335266666667, "is_disabled": 0, "type": "electric_scooter", "fusion_lon": 0.0, "fusion_lat": 0.0, "lat": 38.89357283333333, "is_reserved": 0}, {"bike_id": "75477de06aaf59f22f2b7b7ec1a0267b", "name": "75477de06aaf59f22f2b7b7ec1a0267b", "rental_uris": {"ios": "https://dc.lft.to/lastmile_qr_scan", "android": "https://dc.lft.to/lastmile_qr_scan"}, "lon": -77.03220783333333, "is_disabled": 0, "type": "electric_scooter", "fusion_lon": 0.0, "fusion_lat": 0.0, "lat": 38.90870533333333, "is_reserved": 0}, {"bike_id": "85985aecf188fd00f68855b7c57544d9", "name": "85985aecf188fd00f68855b7c57544d9", "rental_uris": {"ios": "https://dc.lft.to/lastmile_qr_scan", "android": "https://dc.lft.to/lastmile_qr_scan"}, "lon": -77.03214316666667, "is_disabled": 0, "type": "electric_scooter", "fusion_lon": 0.0, "fusion_lat": 0.0, "lat": 38.9147285, "is_reserved": 0}, {"bike_id": "1a9b54058ab41321bc8d9cfea2c15026", "name": "1a9b54058ab41321bc8d9cfea2c15026", "rental_uris": {"ios": "https://dc.lft.to/lastmile_qr_scan", "android": "https://dc.lft.to/lastmile_qr_scan"}, "lon": -77.03472166666667, "is_disabled": 0, "type": "electric_scooter", "fusion_lon": 0.0, "fusion_lat": 0.0, "lat": 38.9096295, "is_reserved": 0}, {"bike_id": "4f8db490c1ed43d091acb4d947603e38", "name": "4f8db490c1ed43d091acb4d947603e38", "rental_uris": {"ios": "https://dc.lft.to/lastmile_qr_scan", "android": "https://dc.lft.to/lastmile_qr_scan"}, "lon": -76.981529, "is_disabled": 0, "type": "electric_scooter", "fusion_lon": 0.0, "fusion_lat": 0.0, "lat": 38.903226833333335, "is_reserved": 0}, {"bike_id": "063a0604ffc48708c782b0af476c95c2", "name": "063a0604ffc48708c782b0af476c95c2", "rental_uris": {"ios": "https://dc.lft.to/lastmile_qr_scan", "android": "https://dc.lft.to/lastmile_qr_scan"}, "lon": -77.00341316666666, "is_disabled": 0, "type": "electric_scooter", "fusion_lon": 0.0, "fusion_lat": 0.0, "lat": 38.89355416666667, "is_reserved": 0}, {"bike_id": "98268d5e7f827d0e66cbcd9993d60800", "name": "98268d5e7f827d0e66cbcd9993d60800", "rental_uris": {"ios": "https://dc.lft.to/lastmile_qr_scan", "android": "https://dc.lft.to/lastmile_qr_scan"}, "lon": -77.12838133333334, "is_disabled": 0, "type": "electric_bike", "fusion_lon": 0.0, "fusion_lat": 0.0, "lat": 38.80054883333333, "is_reserved": 0}, {"bike_id": "c369e36aae740dd46a6ea89aee11e5e3", "name": "c369e36aae740dd46a6ea89aee11e5e3", "rental_uris": {"ios": "https://dc.lft.to/lastmile_qr_scan", "android": "https://dc.lft.to/lastmile_qr_scan"}, "lon": -76.99774016666667, "is_disabled": 0, "type": "electric_scooter", "fusion_lon": 0.0, "fusion_lat": 0.0, "lat": 38.89423083333333, "is_reserved": 0}, {"bike_id": "5125cff6cce1784f63e97dc17656fb45", "name": "5125cff6cce1784f63e97dc17656fb45", "rental_uris": {"ios": "https://dc.lft.to/lastmile_qr_scan", "android": "https://dc.lft.to/lastmile_qr_scan"}, "lon": -77.01904433333333, "is_disabled": 0, "type": "electric_scooter", "fusion_lon": 0.0, "fusion_lat": 0.0, "lat": 38.8982, "is_reserved": 0}, {"bike_id": "25e0a0def4158d6215810980176e2a52", "name": "25e0a0def4158d6215810980176e2a52", "rental_uris": {"ios": "https://dc.lft.to/lastmile_qr_scan", "android": "https://dc.lft.to/lastmile_qr_scan"}, "lon": -77.00217016666667, "is_disabled": 0, "type": "electric_scooter", "fusion_lon": 0.0, "fusion_lat": 0.0, "lat": 38.914858333333335, "is_reserved": 0}, {"bike_id": "9f6996cf8709c74729831210d56fb3d7", "name": "9f6996cf8709c74729831210d56fb3d7", "rental_uris": {"ios": "https://dc.lft.to/lastmile_qr_scan", "android": "https://dc.lft.to/lastmile_qr_scan"}, "lon": -77.016185, "is_disabled": 0, "type": "electric_scooter", "fusion_lon": 0.0, "fusion_lat": 0.0, "lat": 38.89955166666667, "is_reserved": 0}, {"bike_id": "aba3565b4242d7bf54c29d568465ccd7", "name": "aba3565b4242d7bf54c29d568465ccd7", "rental_uris": {"ios": "https://dc.lft.to/lastmile_qr_scan", "android": "https://dc.lft.to/lastmile_qr_scan"}, "lon": -77.04774433333333, "is_disabled": 0, "type": "electric_scooter", "fusion_lon": 0.0, "fusion_lat": 0.0, "lat": 38.90088, "is_reserved": 0}, {"bike_id": "4f12011783c499eb6f8729bc23bad2f6", "name": "4f12011783c499eb6f8729bc23bad2f6", "rental_uris": {"ios": "https://dc.lft.to/lastmile_qr_scan", "android": "https://dc.lft.to/lastmile_qr_scan"}, "lon": -77.04620933333334, "is_disabled": 0, "type": "electric_scooter", "fusion_lon": 0.0, "fusion_lat": 0.0, "lat": 38.91572583333333, "is_reserved": 0}, {"bike_id": "caa962d0c13e64aeeaf82164d2baed24", "name": "caa962d0c13e64aeeaf82164d2baed24", "rental_uris": {"ios": "https://dc.lft.to/lastmile_qr_scan", "android": "https://dc.lft.to/lastmile_qr_scan"}, "lon": -77.03513083333333, "is_disabled": 0, "type": "electric_scooter", "fusion_lon": 0.0, "fusion_lat": 0.0, "lat": 38.93110516666667, "is_reserved": 0}, {"bike_id": "27b3d816aa5328467c1e19b92c79a2f7", "name": "27b3d816aa5328467c1e19b92c79a2f7", "rental_uris": {"ios": "https://dc.lft.to/lastmile_qr_scan", "android": "https://dc.lft.to/lastmile_qr_scan"}, "lon": -76.98462083333334, "is_disabled": 0, "type": "electric_scooter", "fusion_lon": 0.0, "fusion_lat": 0.0, "lat": 38.893652833333334, "is_reserved": 0}, {"bike_id": "145a2e002774fb5bcbb9947b48392a23", "name": "145a2e002774fb5bcbb9947b48392a23", "rental_uris": {"ios": "https://dc.lft.to/lastmile_qr_scan", "android": "https://dc.lft.to/lastmile_qr_scan"}, "lon": -77.03445783333333, "is_disabled": 0, "type": "electric_scooter", "fusion_lon": 0.0, "fusion_lat": 0.0, "lat": 38.918011666666665, "is_reserved": 0}, {"bike_id": "5dec2d6d322f7d63aad3a8038bf62f0f", "name": "5dec2d6d322f7d63aad3a8038bf62f0f", "rental_uris": {"ios": "https://dc.lft.to/lastmile_qr_scan", "android": "https://dc.lft.to/lastmile_qr_scan"}, "lon": -77.020646, "is_disabled": 0, "type": "electric_scooter", "fusion_lon": 0.0, "fusion_lat": 0.0, "lat": 38.95746283333333, "is_reserved": 0}, {"bike_id": "e2f5b30843fc2d54eceda1f6e90554cf", "name": "e2f5b30843fc2d54eceda1f6e90554cf", "rental_uris": {"ios": "https://dc.lft.to/lastmile_qr_scan", "android": "https://dc.lft.to/lastmile_qr_scan"}, "lon": -77.03722383333333, "is_disabled": 0, "type": "electric_scooter", "fusion_lon": 0.0, "fusion_lat": 0.0, "lat": 38.88075033333333, "is_reserved": 0}, {"bike_id": "7d15493ad86c63421a0b360c626c06cf", "name": "7d15493ad86c63421a0b360c626c06cf", "rental_uris": {"ios": "https://dc.lft.to/lastmile_qr_scan", "android": "https://dc.lft.to/lastmile_qr_scan"}, "lon": -77.04329516666667, "is_disabled": 0, "type": "electric_scooter", "fusion_lon": 0.0, "fusion_lat": 0.0, "lat": 38.90054883333333, "is_reserved": 0}, {"bike_id": "d6265dd8d9a638f3fa725563a0c0ca9b", "name": "d6265dd8d9a638f3fa725563a0c0ca9b", "rental_uris": {"ios": "https://dc.lft.to/lastmile_qr_scan", "android": "https://dc.lft.to/lastmile_qr_scan"}, "lon": -77.031777, "is_disabled": 0, "type": "electric_scooter", "fusion_lon": 0.0, "fusion_lat": 0.0, "lat": 38.915583166666664, "is_reserved": 0}, {"bike_id": "ed80885eb86cb0ba403a88759870014b", "name": "ed80885eb86cb0ba403a88759870014b", "rental_uris": {"ios": "https://dc.lft.to/lastmile_qr_scan", "android": "https://dc.lft.to/lastmile_qr_scan"}, "lon": -77.022929, "is_disabled": 0, "type": "electric_bike", "fusion_lon": 0.0, "fusion_lat": 0.0, "lat": 38.929924666666665, "is_reserved": 0}, {"bike_id": "a3659812e4370af9a7746381aa8ba686", "name": "a3659812e4370af9a7746381aa8ba686", "rental_uris": {"ios": "https://dc.lft.to/lastmile_qr_scan", "android": "https://dc.lft.to/lastmile_qr_scan"}, "lon": -77.01668666666667, "is_disabled": 0, "type": "electric_scooter", "fusion_lon": 0.0, "fusion_lat": 0.0, "lat": 38.900418333333334, "is_reserved": 0}, {"bike_id": "046094e1d9ff2b0a8f64b426fcc1d5b0", "name": "046094e1d9ff2b0a8f64b426fcc1d5b0", "rental_uris": {"ios": "https://dc.lft.to/lastmile_qr_scan", "android": "https://dc.lft.to/lastmile_qr_scan"}, "lon": -77.03380833333334, "is_disabled": 0, "type": "electric_scooter", "fusion_lon": 0.0, "fusion_lat": 0.0, "lat": 38.92151583333333, "is_reserved": 0}, {"bike_id": "58f6e2279b507626f398dbb7d1f3233a", "name": "58f6e2279b507626f398dbb7d1f3233a", "rental_uris": {"ios": "https://dc.lft.to/lastmile_qr_scan", "android": "https://dc.lft.to/lastmile_qr_scan"}, "lon": -77.0015865, "is_disabled": 0, "type": "electric_bike", "fusion_lon": 0.0, "fusion_lat": 0.0, "lat": 38.899318, "is_reserved": 0},