{"data": {"bikes": [{"bike_id": "cf9584f728ae3758fbbe97305e0a5e4b", "type": "electric_scooter", "is_disabled": 0, "lat": 38.895473833333334, "rental_uris": {"ios": "https://dc.lft.to/lastmile_qr_scan", "android": "https://dc.lft.to/lastmile_qr_scan"}, "is_reserved": 0, "fusion_lon": 0.0, "fusion_lat": 0.0, "lon": -76.929541, "name": "cf9584f728ae3758fbbe97305e0a5e4b"}, {"bike_id": "e57ae7125f01a43a6c0adbfcf28ed2a2", "type": "electric_scooter", "is_disabled": 0, "lat": 38.894914166666666, "rental_uris": {"ios": "https://dc.lft.to/lastmile_qr_scan", "android": "https://dc.lft.to/lastmile_qr_scan"}, "is_reserved": 0, "fusion_lon": 0.0, "fusion_lat": 0.0, "lon": -77.00054933333334, "name": "e57ae7125f01a43a6c0adbfcf28ed2a2"}, {"bike_id": "70f43d669c6b34053b067e38a7e69852", "type": "electric_scooter", "is_disabled": 0, "lat": 38.918591, "rental_uris": {"ios": "https://dc.lft.to/lastmile_qr_scan", "android": "https://dc.lft.to/lastmile_qr_scan"}, "is_reserved": 0, "fusion_lon": 0.0, "fusion_lat": 0.0, "lon": -76.96115533333334, "name": "70f43d669c6b34053b067e38a7e69852"}, {"bike_id": "3cc9f5fd9b014fd2e97338872b3dfd66", "type": "electric_scooter", "is_disabled": 0, "lat": 38.8996505, "rental_uris": {"ios": "https://dc.lft.to/lastmile_qr_scan", "android": "https://dc.lft.to/lastmile_qr_scan"}, "is_reserved": 0, "fusion_lon": 0.0, "fusion_lat": 0.0, "lon": -77.02385516666666, "name": "3cc9f5fd9b014fd2e97338872b3dfd66"}, {"bike_id": "c2aeb062bd7ebe15855774f3616fff6d", "type": "electric_scooter", "is_disabled": 0, "lat": 38.90271083333333, "rental_uris": {"ios": "https://dc.lft.to/lastmile_qr_scan", "android": "https://dc.lft.to/lastmile_qr_scan"}, "is_reserved": 0, "fusion_lon": 0.0, "fusion_lat": 0.0, "lon": -77.06121633333333, "name": "c2aeb062bd7ebe15855774f3616fff6d"}, {"bike_id": "4e94521e441487fea293520e71dc44af", "type": "electric_scooter", "is_disabled": 0, "lat": 38.920342, "rental_uris": {"ios": "https://dc.lft.to/lastmile_qr_scan", "android": "https://dc.lft.to/lastmile_qr_scan"}, "is_reserved": 0, "fusion_lon": 0.0, "fusion_lat": 0.0, "lon": -77.03393733333333, "name": "4e94521e441487fea293520e71dc44af"}, {"bike_id": "961f51233368896249b39279685905bd", "type": "electric_scooter", "is_disabled": 0, "lat": 38.9222935, "rental_uris": {"ios": "https://dc.lft.to/lastmile_qr_scan", "android": "https://dc.lft.to/lastmile_qr_scan"}, "is_reserved": 0, "fusion_lon": 0.0, "fusion_lat": 0.0, "lon": -77.0437565, "name": "961f51233368896249b39279685905bd"}, {"bike_id": "9dd8a0a9bb68b3483cb3d1cc606ac573", "type": "electric_scooter", "is_disabled": 0, "lat": 38.940014166666664, "rental_uris": {"ios": "https://dc.lft.to/lastmile_qr_scan", "android": "https://dc.lft.to/lastmile_qr_scan"}, "is_reserved": 0, "fusion_lon": 0.0, "fusion_lat": 0.0, "lon": -77.0380675, "name": "9dd8a0a9bb68b3483cb3d1cc606ac573"}, {"bike_id": "36d13d13c199f934dc4b24b3cb40b955", "type": "electric_scooter", "is_disabled": 0, "lat": 38.902311, "rental_uris": {"ios": "https://dc.lft.to/lastmile_qr_scan", "android": "https://dc.lft.to/lastmile_qr_scan"}, "is_reserved": 0, "fusion_lon": 0.0, "fusion_lat": 0.0, "lon": -77.0433055, "name": "36d13d13c199f934dc4b24b3cb40b955"}, {"bike_id": "b381a971cfdf03146db9ade248db141c", "type": "electric_scooter", "is_disabled": 0, "lat": 38.8971865, "rental_uris": {"ios": "https://dc.lft.to/lastmile_qr_scan", "android": "https://dc.lft.to/lastmile_qr_scan"}, "is_reserved": 0, "fusion_lon": 0.0, "fusion_lat": 0.0, "lon": -77.02500133333334, "name": "b381a971cfdf03146db9ade248db141c"}, {"bike_id": "5922289aafb243567608c214a72750a9", "type": "electric_scooter", "is_disabled": 0, "lat": 38.88847283333333, "rental_uris": {"ios": "https://dc.lft.to/lastmile_qr_scan", "android": "https://dc.lft.to/lastmile_qr_scan"}, "is_reserved": 0, "fusion_lon": 0.0, "fusion_lat": 0.0, "lon": -76.92683666666667, "name": "5922289aafb243567608c214a72750a9"}, {"bike_id": "9a7be2e3c8db2a73f897cd3bdd4165c2", "type": "electric_scooter", "is_disabled": 0, "lat": 38.8786835, "rental_uris": {"ios": "https://dc.lft.to/lastmile_qr_scan", "android": "https://dc.lft.to/lastmile_qr_scan"}, "is_reserved": 0, "fusion_lon": 0.0, "fusion_lat": 0.0, "lon": -76.96989866666667, "name": "9a7be2e3c8db2a73f897cd3bdd4165c2"}, {"bike_id": "91665d3bdb97889cca1992ce67e78a81", "type": "electric_scooter", "is_disabled": 0, "lat": 38.874187666666664, "rental_uris": {"ios": "https://dc.lft.to/lastmile_qr_scan", "android": "https://dc.lft.to/lastmile_qr_scan"}, "is_reserved": 0, "fusion_lon": 0.0, "fusion_lat": 0.0, "lon": -76.969085, "name": "91665d3bdb97889cca1992ce67e78a81"}, {"bike_id": "c46b371042c2b3844adafa969c5bc6c8", "type": "electric_scooter", "is_disabled": 0, "lat": 38.9247105, "rental_uris": {"ios": "https://dc.lft.to/lastmile_qr_scan", "android": "https://dc.lft.to/lastmile_qr_scan"}, "is_reserved": 0, "fusion_lon": 0.0, "fusion_lat": 0.0, "lon": -77.02833916666667, "name": "c46b371042c2b3844adafa969c5bc6c8"}, {"bike_id": "4ecccfc35a505a2c38747b4f37bb77ff", "type": "electric_scooter", "is_disabled": 0, "lat": 38.9290455, "rental_uris": {"ios": "https://dc.lft.to/lastmile_qr_scan", "android": "https://dc.lft.to/lastmile_qr_scan"}, "is_reserved": 0, "fusion_lon": 0.0, "fusion_lat": 0.0, "lon": -77.020842, "name": "4ecccfc35a505a2c38747b4f37bb77ff"}, {"bike_id": "63ddf50246f19074b58802b85229ded4", "type": "electric_scooter", "is_disabled": 0, "lat": 38.853104, "rental_uris": {"ios": "https://dc.lft.to/lastmile_qr_scan", "android": "https://dc.lft.to/lastmile_qr_scan"}, "is_reserved": 0, "fusion_lon": 0.0, "fusion_lat": 0.0, "lon": -76.9803525, "name": "63ddf50246f19074b58802b85229ded4"}, {"bike_id": "729f0d83ebb21bc9052708b3c6eb2250", "type": "electric_scooter", "is_disabled": 0, "lat": 38.9064285, "rental_uris": {"ios": "https://dc.lft.to/lastmile_qr_scan", "android": "https://dc.lft.to/lastmile_qr_scan"}, "is_reserved": 0, "fusion_lon": 0.0, "fusion_lat": 0.0, "lon": -77.01462716666667, "name": "729f0d83ebb21bc9052708b3c6eb2250"}, {"bike_id": "ccc2df7bd55c406e69edc99df313f62d", "type": "electric_scooter", "is_disabled": 0, "lat": 38.907518, "rental_uris": {"ios": "https://dc.lft.to/lastmile_qr_scan", "android": "https://dc.lft.to/lastmile_qr_scan"}, "is_reserved": 0, "fusion_lon": 0.0, "fusion_lat": 0.0, "lon": -77.02386016666667, "name": "ccc2df7bd55c406e69edc99df313f62d"}, {"bike_id": "1f8114fe64b9158d8bc141b7527a3800", "type": "electric_scooter", "is_disabled": 0, "lat": 38.898846166666665, "rental_uris": {"ios": "https://dc.lft.to/lastmile_qr_scan", "android": "https://dc.lft.to/lastmile_qr_scan"}, "is_reserved": 0, "fusion_lon": 0.0, "fusion_lat": 0.0, "lon": -77.02701133333333, "name": "1f8114fe64b9158d8bc141b7527a3800"}, {"bike_id": "d03628dd47840809a1558dc6c2922e9e", "type": "electric_scooter", "is_disabled": 0, "lat": 38.86681016666667, "rental_uris": {"ios": "https://dc.lft.to/lastmile_qr_scan", "android": "https://dc.lft.to/lastmile_qr_scan"}, "is_reserved": 0, "fusion_lon": 0.0, "fusion_lat": 0.0, "lon": -76.98576816666667, "name": "d03628dd47840809a1558dc6c2922e9e"}, {"bike_id": "5a56ba798d6a6248da54dfbd0bfbfafe", "type": "electric_scooter", "is_disabled": 0, "lat": 38.91857983333333, "rental_uris": {"ios": "https://dc.lft.to/lastmile_qr_scan", "android": "https://dc.lft.to/lastmile_qr_scan"}, "is_reserved": 0, "fusion_lon": 0.0, "fusion_lat": 0.0, "lon": -77.04178033333334, "name": "5a56ba798d6a6248da54dfbd0bfbfafe"}, {"bike_id": "6194940cc7797f70f3e239a422ac9f5d", "type": "electric_scooter", "is_disabled": 0, "lat": 38.914127, "rental_uris": {"ios": "https://dc.lft.to/lastmile_qr_scan", "android": "https://dc.lft.to/lastmile_qr_scan"}, "is_reserved": 0, "fusion_lon": 0.0, "fusion_lat": 0.0, "lon": -77.03227216666667, "name": "6194940cc7797f70f3e239a422ac9f5d"}, {"bike_id": "5022f7e0ca97ec309280d4392fc11a2a", "type": "electric_scooter", "is_disabled": 0, "lat": 38.880261, "rental_uris": {"ios": "https://dc.lft.to/lastmile_qr_scan", "android": "https://dc.lft.to/lastmile_qr_scan"}, "is_reserved": 0, "fusion_lon": 0.0, "fusion_lat": 0.0, "lon": -77.01007633333333, "name": "5022f7e0ca97ec309280d4392fc11a2a"}, {"bike_id": "ea872f0e84f1f9e4ce8137b051dd33d4", "type": "electric_scooter", "is_disabled": 0, "lat": 38.9168595, "rental_uris": {"ios": "https://dc.lft.to/lastmile_qr_scan", "android": "https://dc.lft.to/lastmile_qr_scan"}, "is_reserved": 0, "fusion_lon": 0.0, "fusion_lat": 0.0, "lon": -77.02878966666667, "name": "ea872f0e84f1f9e4ce8137b051dd33d4"}, {"bike_id": "4d631230833e539d609d6013ca857620", "type": "electric_scooter", "is_disabled": 0, "lat": 38.9284625, "rental_uris": {"ios": "https://dc.lft.to/lastmile_qr_scan", "android": "https://dc.lft.to/lastmile_qr_scan"}, "is_reserved": 0, "fusion_lon": 0.0, "fusion_lat": 0.0, "lon": -77.03304466666667, "name": "4d631230833e539d609d6013ca857620"}, {"bike_id": "d7253cf6a698514468eaa77001e4c9e6", "type": "electric_scooter", "is_disabled": 0, "lat": 38.89968233333333, "rental_uris": {"ios": "https://dc.lft.to/lastmile_qr_scan", "android": "https://dc.lft.to/lastmile_qr_scan"}, "is_reserved": 0, "fusion_lon": 0.0, "fusion_lat": 0.0, "lon": -77.0216055, "name": "d7253cf6a698514468eaa77001e4c9e6"}, {"bike_id": "8290cce8e19646fc1e73cc9ea5ca454d", "type": "electric_scooter", "is_disabled": 0, "lat": 38.8764675, "rental_uris": {"ios": "https://dc.lft.to/lastmile_qr_scan", "android": "https://dc.lft.to/lastmile_qr_scan"}, "is_reserved": 0, "fusion_lon": 0.0, "fusion_lat": 0.0, "lon": -76.96510433333333, "name": "8290cce8e19646fc1e73cc9ea5ca454d"}, {"bike_id": "4d99195346ae857b2dc97b45215c6418", "type": "electric_scooter", "is_disabled": 0, "lat": 38.92251666666667, "rental_uris": {"ios": "https://dc.lft.to/lastmile_qr_scan", "android": "https://dc.lft.to/lastmile_qr_scan"}, "is_reserved": 0, "fusion_lon": 0.0, "fusion_lat": 0.0, "lon": -77.04263166666667, "name": "4d99195346ae857b2dc97b45215c6418"}, {"bike_id": "ff8ee6b1d4f17c63e92f9570674a5705", "type": "electric_scooter", "is_disabled": 0, "lat": 38.92832816666667, "rental_uris": {"ios": "https://dc.lft.to/lastmile_qr_scan", "android": "https://dc.lft.to/lastmile_qr_scan"}, "is_reserved": 0, "fusion_lon": 0.0, "fusion_lat": 0.0, "lon": -77.01379966666667, "name": "ff8ee6b1d4f17c63e92f9570674a5705"}, {"bike_id": "f6dc47bc37c6e1f393d24366704214ed", "type": "electric_scooter", "is_disabled": 0, "lat": 38.913791333333336, "rental_uris": {"ios": "https://dc.lft.to/lastmile_qr_scan", "android": "https://dc.lft.to/lastmile_qr_scan"}, "is_reserved": 0, "fusion_lon": 0.0, "fusion_lat": 0.0, "lon": -77.01714183333333, "name": "f6dc47bc37c6e1f393d24366704214ed"}, {"bike_id": "581892064379d9c905ccdff9aca0d91e", "type": "electric_bike", "is_disabled": 0, "lat": 38.908601833333336, "rental_uris": {"ios": "https://dc.lft.to/lastmile_qr_scan", "android": "https://dc.lft.to/lastmile_qr_scan"}, "is_reserved": 0, "fusion_lon": 0.0, "fusion_lat": 0.0, "lon": -76.99132383333334, "name": "581892064379d9c905ccdff9aca0d91e"}, {"bike_id": "11b2ef3a6962d88a911632bc9ed8a33a", "type": "electric_scooter", "is_disabled": 0, "lat": 38.92729816666667, "rental_uris": {"ios": "https://dc.lft.to/lastmile_qr_scan", "android": "https://dc.lft.to/lastmile_qr_scan"}, "is_reserved": 0, "fusion_lon": 0.0, "fusion_lat": 0.0, "lon": -77.0342465, "name": "11b2ef3a6962d88a911632bc9ed8a33a"}, {"bike_id": "059d380d81b11383d2b403d9f95b4e55", "type": "electric_scooter", "is_disabled": 0, "lat": 38.918351666666666, "rental_uris": {"ios": "https://dc.lft.to/lastmile_qr_scan", "android": "https://dc.lft.to/lastmile_qr_scan"}, "is_reserved": 0, "fusion_lon": 0.0, "fusion_lat": 0.0, "lon": -76.96554716666667, "name": "059d380d81b11383d2b403d9f95b4e55"}, {"bike_id": "1b4b661be45f9d0a5244e8edf6d3160b", "type": "electric_scooter", "is_disabled": 0, "lat": 38.878977, "rental_uris": {"ios": "https://dc.lft.to/lastmile_qr_scan", "android": "https://dc.lft.to/lastmile_qr_scan"}, "is_reserved": 0, "fusion_lon": 0.0, "fusion_lat": 0.0, "lon": -77.02199033333333, "name": "1b4b661be45f9d0a5244e8edf6d3160b"}, {"bike_id": "f5d52ba36ebb22bebe27a183fefbedf3", "type": "electric_scooter", "is_disabled": 0, "lat": 38.910878333333336, "rental_uris": {"ios": "https://dc.lft.to/lastmile_qr_scan", "android": "https://dc.lft.to/lastmile_qr_scan"}, "is_reserved": 0, "fusion_lon": 0.0, "fusion_lat": 0.0, "lon": -77.04216566666666, "name": "f5d52ba36ebb22bebe27a183fefbedf3"}, {"bike_id": "325b6bff0b23fcc8c0d6f221fecb4aa8", "type": "electric_scooter", "is_disabled": 0, "lat": 38.9128475, "rental_uris": {"ios": "https://dc.lft.to/lastmile_qr_scan", "android": "https://dc.lft.to/lastmile_qr_scan"}, "is_reserved": 0, "fusion_lon": 0.0, "fusion_lat": 0.0, "lon": -77.03217683333334, "name": "325b6bff0b23fcc8c0d6f221fecb4aa8"}, {"bike_id": "465af7315dfd790fecbbbac6f88a1746", "type": "electric_scooter", "is_disabled": 0, "lat": 38.915043, "rental_uris": {"ios": "https://dc.lft.to/lastmile_qr_scan", "android": "https://dc.lft.to/lastmile_qr_scan"}, "is_reserved": 0, "fusion_lon": 0.0, "fusion_lat": 0.0, "lon": -77.01779783333333, "name": "465af7315dfd790fecbbbac6f88a1746"}, {"bike_id": "6d5d9f4138c78a447a799e4ebfc88cde", "type": "electric_scooter", "is_disabled": 0, "lat": 38.9012415, "rental_uris": {"ios": "https://dc.lft.to/lastmile_qr_scan", "android": "https://dc.lft.to/lastmile_qr_scan"}, "is_reserved": 0, "fusion_lon": 0.0, "fusion_lat": 0.0, "lon": -77.018206, "name": "6d5d9f4138c78a447a799e4ebfc88cde"}, {"bike_id": "3e4c9e62df7d4e698d88b4fdb76483f7", "type": "electric_scooter", "is_disabled": 0, "lat": 38.892309166666664, "rental_uris": {"ios": "https://dc.lft.to/lastmile_qr_scan", "android": "https://dc.lft.to/lastmile_qr_scan"}, "is_reserved": 0, "fusion_lon": 0.0, "fusion_lat": 0.0, "lon": -77.05004916666667, "name": "3e4c9e62df7d4e698d88b4fdb76483f7"}, {"bike_id": "0441c3ab2b402e385de1fb059b5e986f", "type": "electric_scooter", "is_disabled": 0, "lat": 38.906087666666664, "rental_uris": {"ios": "https://dc.lft.to/lastmile_qr_scan", "android": "https://dc.lft.to/lastmile_qr_scan"}, "is_reserved": 0, "fusion_lon": 0.0, "fusion_lat": 0.0, "lon": -77.0612175, "name": "0441c3ab2b402e385de1fb059b5e986f"}, {"bike_id": "845dd24d481f56e46963b0e991c8d17d", "type": "electric_scooter", "is_disabled": 0, "lat": 38.88269483333333, "rental_uris": {"ios": "https://dc.lft.to/lastmile_qr_scan", "android": "https://dc.lft.to/lastmile_qr_scan"}, "is_reserved": 0, "fusion_lon": 0.0, "fusion_lat": 0.0, "lon": -76.99361133333333, "name": "845dd24d481f56e46963b0e991c8d17d"}, {"bike_id": "1637aadd595be307d13ab8abc04ff21c", "type": "electric_scooter", "is_disabled": 0, "lat": 38.9306435, "rental_uris": {"ios": "https://dc.lft.to/lastmile_qr_scan", "android": "https://dc.lft.to/lastmile_qr_scan"}, "is_reserved": 0, "fusion_lon": 0.0, "fusion_lat": 0.0, "lon": -77.02006666666666, "name": "1637aadd595be307d13ab8abc04ff21c"}, {"bike_id": "dc32a1b55f889d765bd59f3446039806", "type": "electric_scooter", "is_disabled": 0, "lat": 38.901443666666665, "rental_uris": {"ios": "https://dc.lft.to/lastmile_qr_scan", "android": "https://dc.lft.to/lastmile_qr_scan"}, "is_reserved": 0, "fusion_lon": 0.0, "fusion_lat": 0.0, "lon": -77.0203235, "name": "dc32a1b55f889d765bd59f3446039806"}, {"bike_id": "64ff206b6d386969b3998ab4c1739c1a", "type": "electric_scooter", "is_disabled": 0, "lat": 38.9095115, "rental_uris": {"ios": "https://dc.lft.to/lastmile_qr_scan", "android": "https://dc.lft.to/lastmile_qr_scan"}, "is_reserved": 0, "fusion_lon": 0.0, "fusion_lat": 0.0, "lon": -77.03057133333333, "name": "64ff206b6d386969b3998ab4c1739c1a"}, {"bike_id": "c3c93aedbb0453ecbe7c19ccc73837f0", "type": "electric_scooter", "is_disabled": 0, "lat": 38.92250633333333, "rental_uris": {"ios": "https://dc.lft.to/lastmile_qr_scan", "android": "https://dc.lft.to/lastmile_qr_scan"}, "is_reserved": 0, "fusion_lon": 0.0, "fusion_lat": 0.0, "lon": -77.03673083333334, "name": "c3c93aedbb0453ecbe7c19ccc73837f0"}, {"bike_id": "ad6956cb34563d32ae2a887ea18c1048", "type": "electric_scooter", "is_disabled": 0, "lat": 38.93993183333333, "rental_uris": {"ios": "https://dc.lft.to/lastmile_qr_scan", "android": "https://dc.lft.to/lastmile_qr_scan"}, "is_reserved": 0, "fusion_lon": 0.0, "fusion_lat": 0.0, "lon": -77.01694783333333, "name": "ad6956cb34563d32ae2a887ea18c1048"}, {"bike_id": "010e30303debde3b0ab5213e795989a5", "type": "electric_scooter", "is_disabled": 0, "lat": 38.900702, "rental_uris": {"ios": "https://dc.lft.to/lastmile_qr_scan", "android": "https://dc.lft.to/lastmile_qr_scan"}, "is_reserved": 0, "fusion_lon": 0.0, "fusion_lat": 0.0, "lon": -77.01829366666666, "name": "010e30303debde3b0ab5213e795989a5"}, {"bike_id": "b5ea2ac62d18bead65c1de060a3f9cd9", "type": "electric_scooter", "is_disabled": 0, "lat": 38.91840716666667, "rental_uris": {"ios": "https://dc.lft.to/lastmile_qr_scan", "android": "https://dc.lft.to/lastmile_qr_scan"}, "is_reserved": 0, "fusion_lon": 0.0, "fusion_lat": 0.0, "lon": -76.96549183333333, "name": "b5ea2ac62d18bead65c1de060a3f9cd9"}, {"bike_id": "307b9f129d9f3ddae216d810eca3c67d", "type": "electric_bike", "is_disabled": 0, "lat": 38.832421833333335, "rental_uris": {"ios": "https://dc.lft.to/lastmile_qr_scan", "android": "https://dc.lft.to/lastmile_qr_scan"}, "is_reserved": 0, "fusion_lon": 0.0, "fusion_lat": 0.0, "lon": -76.9462425, "name": "307b9f129d9f3ddae216d810eca3c67d"}, {"bike_id": "ed2a35d7fdb6a2cdc776e0da8827a2e9", "type": "electric_scooter", "is_disabled": 0, "lat": 38.91716433333333, "rental_uris": {"ios": "https://dc.lft.to/lastmile_qr_scan", "android": "https://dc.lft.to/lastmile_qr_scan"}, "is_reserved": 0, "fusion_lon": 0.0, "fusion_lat": 0.0, "lon": -77.02808, "name": "ed2a35d7fdb6a2cdc776e0da8827a2e9"}, {"bike_id": "a1cf7521cfc84aa2c4c6ce38108afa4b", "type": "electric_scooter", "is_disabled": 0, "lat": 38.9056865, "rental_uris": {"ios": "https://dc.lft.to/lastmile_qr_scan", "android": "https://dc.lft.to/lastmile_qr_scan"}, "is_reserved": 0, "fusion_lon": 0.0, "fusion_lat": 0.0, "lon": -76.97784516666667, "name": "a1cf7521cfc84aa2c4c6ce38108afa4b"}, {"bike_id": "bb37b1bbab9142d70498ece7095807d0", "type": "electric_scooter", "is_disabled": 0, "lat": 38.877538666666666, "rental_uris": {"ios": "https://dc.lft.to/lastmile_qr_scan", "android": "https://dc.lft.to/lastmile_qr_scan"}, "is_reserved": 0, "fusion_lon": 0.0, "fusion_lat": 0.0, "lon": -76.9868425, "name": "bb37b1bbab9142d70498ece7095807d0"}, {"bike_id": "952773222676506ab74fa36fa28e9504", "type": "electric_scooter", "is_disabled": 0, "lat": 38.90390566666667, "rental_uris": {"ios": "https://dc.lft.to/lastmile_qr_scan", "android": "https://dc.lft.to/lastmile_qr_scan"}, "is_reserved": 0, "fusion_lon": 0.0, "fusion_lat": 0.0, "lon": -77.03213666666667, "name": "952773222676506ab74fa36fa28e9504"}, {"bike_id": "e81b014728b4e1aa939c5da8b1d3a971", "type": "electric_scooter", "is_disabled": 0, "lat": 38.918526, "rental_uris": {"ios": "https://dc.lft.to/lastmile_qr_scan", "android": "https://dc.lft.to/lastmile_qr_scan"}, "is_reserved": 0, "fusion_lon": 0.0, "fusion_lat": 0.0, "lon": -77.02540233333333, "name": "e81b014728b4e1aa939c5da8b1d3a971"}, {"bike_id": "70b4f6268a68cf6eb2fdc30283fa2c98", "type": "electric_scooter", "is_disabled": 0, "lat": 38.902705, "rental_uris": {"ios": "https://dc.lft.to/lastmile_qr_scan", "android": "https://dc.lft.to/lastmile_qr_scan"}, "is_reserved": 0, "fusion_lon": 0.0, "fusion_lat": 0.0, "lon": -76.97037183333333, "name": "70b4f6268a68cf6eb2fdc30283fa2c98"}, {"bike_id": "56a6e82c7e07b64afd94a3dce692536d", "type": "electric_scooter", "is_disabled": 0, "lat": 38.910268, "rental_uris": {"ios": "https://dc.lft.to/lastmile_qr_scan", "android": "https://dc.lft.to/lastmile_qr_scan"}, "is_reserved": 0, "fusion_lon": 0.0, "fusion_lat": 0.0, "lon": -77.038428, "name": "56a6e82c7e07b64afd94a3dce692536d"}, {"bike_id": "a129b684e9b30c04d8a575768f34da6f", "type": "electric_scooter", "is_disabled": 0, "lat": 38.895703833333336, "rental_uris": {"ios": "https://dc.lft.to/lastmile_qr_scan", "android": "https://dc.lft.to/lastmile_qr_scan"}, "is_reserved": 0, "fusion_lon": 0.0, "fusion_lat": 0.0, "lon": -76.93026366666666, "name": "a129b684e9b30c04d8a575768f34da6f"}, {"bike_id": "1425fc1eefa33c8e5ed8b1c0e2c45e2d", "type": "electric_scooter", "is_disabled": 0, "lat": 38.9078325, "rental_uris": {"ios": "https://dc.lft.to/lastmile_qr_scan", "android": "https://dc.lft.to/lastmile_qr_scan"}, "is_reserved": 0, "fusion_lon": 0.0, "fusion_lat": 0.0, "lon": -77.002339, "name": "1425fc1eefa33c8e5ed8b1c0e2c45e2d"}, {"bike_id": "f5200adfae50e8bd397940923486e709", "type": "electric_scooter", "is_disabled": 0, "lat": 38.909493833333336, "rental_uris": {"ios": "https://dc.lft.to/lastmile_qr_scan", "android": "https://dc.lft.to/lastmile_qr_scan"}, "is_reserved": 0, "fusion_lon": 0.0, "fusion_lat": 0.0, "lon": -77.014316, "name": "f5200adfae50e8bd397940923486e709"}, {"bike_id": "dc0e070e466039d7dd2cca87a3229fb4", "type": "electric_scooter", "is_disabled": 0, "lat": 38.9288705, "rental_uris": {"ios": "https://dc.lft.to/lastmile_qr_scan", "android": "https://dc.lft.to/lastmile_qr_scan"}, "is_reserved": 0, "fusion_lon": 0.0, "fusion_lat": 0.0, "lon": -77.03278166666666, "name": "dc0e070e466039d7dd2cca87a3229fb4"}, {"bike_id": "27d837ec587338022e262a3df94783a8", "type": "electric_scooter", "is_disabled": 0, "lat": 38.909415333333335, "rental_uris": {"ios": "https://dc.lft.to/lastmile_qr_scan", "android": "https://dc.lft.to/lastmile_qr_scan"}, "is_reserved": 0, "fusion_lon": 0.0, "fusion_lat": 0.0, "lon": -77.0337245, "name": "27d837ec587338022e262a3df94783a8"}, {"bike_id": "a3e87212d706a1133bbe0bd825eef55b", "type": "electric_scooter", "is_disabled": 0, "lat": 38.91552883333333, "rental_uris": {"ios": "https://dc.lft.to/lastmile_qr_scan", "android": "https://dc.lft.to/lastmile_qr_scan"}, "is_reserved": 0, "fusion_lon": 0.0, "fusion_lat": 0.0, "lon": -77.02647, "name": "a3e87212d706a1133bbe0bd825eef55b"}, {"bike_id": "c7864f8ea9869356626f7c1f2747b7e2", "type": "electric_scooter", "is_disabled": 0, "lat": 38.919084166666664, "rental_uris": {"ios": "https://dc.lft.to/lastmile_qr_scan", "android": "https://dc.lft.to/lastmile_qr_scan"}, "is_reserved": 0, "fusion_lon": 0.0, "fusion_lat": 0.0, "lon": -77.0344655, "name": "c7864f8ea9869356626f7c1f2747b7e2"}, {"bike_id": "d7f681c340b9f084e4aadd692b33a617", "type": "electric_scooter", "is_disabled": 0, "lat": 38.844335, "rental_uris": {"ios": "https://dc.lft.to/lastmile_qr_scan", "android": "https://dc.lft.to/lastmile_qr_scan"}, "is_reserved": 0, "fusion_lon": 0.0, "fusion_lat": 0.0, "lon": -76.998757, "name": "d7f681c340b9f084e4aadd692b33a617"}, {"bike_id": "c9c421206ce681fadd3729d03bdfa187", "type": "electric_scooter", "is_disabled": 0, "lat": 38.95616, "rental_uris": {"ios": "https://dc.lft.to/lastmile_qr_scan", "android": "https://dc.lft.to/lastmile_qr_scan"}, "is_reserved": 0, "fusion_lon": 0.0, "fusion_lat": 0.0, "lon": -77.02237116666667, "name": "c9c421206ce681fadd3729d03bdfa187"}, {"bike_id": "adcf5ce28dfec926b1466fa706cffa41", "type": "electric_scooter", "is_disabled": 0, "lat": 38.918254, "rental_uris": {"ios": "https://dc.lft.to/lastmile_qr_scan", "android": "https://dc.lft.to/lastmile_qr_scan"}, "is_reserved": 0, "fusion_lon": 0.0, "fusion_lat": 0.0, "lon": -77.03219, "name": "adcf5ce28dfec926b1466fa706cffa41"}, {"bike_id": "c297b9609dc6c2fdc5d1d493397a7d5c", "type": "electric_scooter", "is_disabled": 0, "lat": 38.929260666666664, "rental_uris": {"ios": "https://dc.lft.to/lastmile_qr_scan", "android": "https://dc.lft.to/lastmile_qr_scan"}, "is_reserved": 0, "fusion_lon": 0.0, "fusion_lat": 0.0, "lon": -77.03280566666666, "name": "c297b9609dc6c2fdc5d1d493397a7d5c"}, {"bike_id": "de1712eb8ada2383efe200f7d9019659", "type": "electric_scooter", "is_disabled": 0, "lat": 38.9236345, "rental_uris": {"ios": "https://dc.lft.to/lastmile_qr_scan", "android": "https://dc.lft.to/lastmile_qr_scan"}, "is_reserved": 0, "fusion_lon": 0.0, "fusion_lat": 0.0, "lon": -77.031385, "name": "de1712eb8ada2383efe200f7d9019659"}, {"bike_id": "69ed8dad66d209fb567855554b19f2e2", "type": "electric_scooter", "is_disabled": 0, "lat": 38.9056305, "rental_uris": {"ios": "https://dc.lft.to/lastmile_qr_scan", "android": "https://dc.lft.to/lastmile_qr_scan"}, "is_reserved": 0, "fusion_lon": 0.0, "fusion_lat": 0.0, "lon": -77.0309775, "name": "69ed8dad66d209fb567855554b19f2e2"}, {"bike_id": "d3087d58e148dc0dc15bfd931b2b218e", "type": "electric_scooter", "is_disabled": 0, "lat": 38.903939666666666, "rental_uris": {"ios": "https://dc.lft.to/lastmile_qr_scan", "android": "https://dc.lft.to/lastmile_qr_scan"}, "is_reserved": 0, "fusion_lon": 0.0, "fusion_lat": 0.0, "lon": -77.062903, "name": "d3087d58e148dc0dc15bfd931b2b218e"}, {"bike_id": "4c7b339d6c7461bd0d12420f73e895c9", "type": "electric_scooter", "is_disabled": 0, "lat": 38.89220666666667, "rental_uris": {"ios": "https://dc.lft.to/lastmile_qr_scan", "android": "https://dc.lft.to/lastmile_qr_scan"}, "is_reserved": 0, "fusion_lon": 0.0, "fusion_lat": 0.0, "lon": -77.03978, "name": "4c7b339d6c7461bd0d12420f73e895c9"}, {"bike_id": "ae4027713d95fca98605475ac7f1e947", "type": "electric_scooter", "is_disabled": 0, "lat": 38.89660966666667, "rental_uris": {"ios": "https://dc.lft.to/lastmile_qr_scan", "android": "https://dc.lft.to/lastmile_qr_scan"}, "is_reserved": 0, "fusion_lon": 0.0, "fusion_lat": 0.0, "lon": -76.93214566666667, "name": "ae4027713d95fca98605475ac7f1e947"}, {"bike_id": "d18f5fb75676fe076fdf502b1daa94f1", "type": "electric_scooter", "is_disabled": 0, "lat": 38.91595016666667, "rental_uris": {"ios": "https://dc.lft.to/lastmile_qr_scan", "android": "https://dc.lft.to/lastmile_qr_scan"}, "is_reserved": 0, "fusion_lon": 0.0, "fusion_lat": 0.0, "lon": -77.00197266666666, "name": "d18f5fb75676fe076fdf502b1daa94f1"}, {"bike_id": "34a9d96953015647df3080d9b276c822", "type": "electric_scooter", "is_disabled": 0, "lat": 38.91844616666667, "rental_uris": {"ios": "https://dc.lft.to/lastmile_qr_scan", "android": "https://dc.lft.to/lastmile_qr_scan"}, "is_reserved": 0, "fusion_lon": 0.0, "fusion_lat": 0.0, "lon": -76.96558683333333, "name": "34a9d96953015647df3080d9b276c822"}, {"bike_id": "5913b5aa810a884cfd5444225a3e405b", "type": "electric_scooter", "is_disabled": 0, "lat": 38.92011466666666, "rental_uris": {"ios": "https://dc.lft.to/lastmile_qr_scan", "android": "https://dc.lft.to/lastmile_qr_scan"}, "is_reserved": 0, "fusion_lon": 0.0, "fusion_lat": 0.0, "lon": -77.03125616666667, "name": "5913b5aa810a884cfd5444225a3e405b"}, {"bike_id": "9ecba12930e77a55a1e93d591d00e6a2", "type": "electric_scooter", "is_disabled": 0, "lat": 38.91842116666667, "rental_uris": {"ios": "https://dc.lft.to/lastmile_qr_scan", "android": "https://dc.lft.to/lastmile_qr_scan"}, "is_reserved": 0, "fusion_lon": 0.0, "fusion_lat": 0.0, "lon": -76.9656065, "name": "9ecba12930e77a55a1e93d591d00e6a2"}, {"bike_id": "cb214aa87d6f539281903c5d9441bfa0", "type": "electric_scooter", "is_disabled": 0, "lat": 38.9266075, "rental_uris": {"ios": "https://dc.lft.to/lastmile_qr_scan", "android": "https://dc.lft.to/lastmile_qr_scan"}, "is_reserved": 0, "fusion_lon": 0.0, "fusion_lat": 0.0, "lon": -76.99547333333334, "name": "cb214aa87d6f539281903c5d9441bfa0"}, {"bike_id": "a6e1befcb84a6996d8bb036d9936048c", "type": "electric_scooter", "is_disabled": 0, "lat": 38.923635, "rental_uris": {"ios": "https://dc.lft.to/lastmile_qr_scan", "android": "https://dc.lft.to/lastmile_qr_scan"}, "is_reserved": 0, "fusion_lon": 0.0, "fusion_lat": 0.0, "lon": -77.03133916666667, "name": "a6e1befcb84a6996d8bb036d9936048c"}, {"bike_id": "8312d8fb7c8d2025be2465052dd4d5a7", "type": "electric_scooter", "is_disabled": 0, "lat": 38.93301016666667, "rental_uris": {"ios": "https://dc.lft.to/lastmile_qr_scan", "android": "https://dc.lft.to/lastmile_qr_scan"}, "is_reserved": 0, "fusion_lon": 0.0, "fusion_lat": 0.0, "lon": -77.03264683333333, "name": "8312d8fb7c8d2025be2465052dd4d5a7"}, {"bike_id": "e30f8e97a06157d61aedd93748f0f996", "type": "electric_scooter", "is_disabled": 0, "lat": 38.904629666666665, "rental_uris": {"ios": "https://dc.lft.to/lastmile_qr_scan", "android": "https://dc.lft.to/lastmile_qr_scan"}, "is_reserved": 0, "fusion_lon": 0.0, "fusion_lat": 0.0, "lon": -77.00738133333333, "name": "e30f8e97a06157d61aedd93748f0f996"}, {"bike_id": "04696731a2423b321735e24032b9eb1f", "type": "electric_scooter", "is_disabled": 0, "lat": 38.8968935, "rental_uris": {"ios": "https://dc.lft.to/lastmile_qr_scan", "android": "https://dc.lft.to/lastmile_qr_scan"}, "is_reserved": 0, "fusion_lon": 0.0, "fusion_lat": 0.0, "lon": -77.02390266666667, "name": "04696731a2423b321735e24032b9eb1f"}, {"bike_id": "cad45462746220650ab0708bab1ec335", "type": "electric_scooter", "is_disabled": 0, "lat": 38.921488, "rental_uris": {"ios": "https://dc.lft.to/lastmile_qr_scan", "android": "https://dc.lft.to/lastmile_qr_scan"}, "is_reserved": 0, "fusion_lon": 0.0, "fusion_lat": 0.0, "lon": -77.03324433333333, "name": "cad45462746220650ab0708bab1ec335"}, {"bike_id": "9166c25f291765483f8051d55f93a629", "type": "electric_scooter", "is_disabled": 0, "lat": 38.88727316666667, "rental_uris": {"ios": "https://dc.lft.to/lastmile_qr_scan", "android": "https://dc.lft.to/lastmile_qr_scan"}, "is_reserved": 0, "fusion_lon": 0.0, "fusion_lat": 0.0, "lon": -77.02837533333333, "name": "9166c25f291765483f8051d55f93a629"}, {"bike_id": "84ac945ed1af5750af97b8b79b79b4bd", "type": "electric_scooter", "is_disabled": 0, "lat": 38.9157, "rental_uris": {"ios": "https://dc.lft.to/lastmile_qr_scan", "android": "https://dc.lft.to/lastmile_qr_scan"}, "is_reserved": 0, "fusion_lon": 0.0, "fusion_lat": 0.0, "lon": -77.020264, "name": "84ac945ed1af5750af97b8b79b79b4bd"}, {"bike_id": "56e9f8082ffbe543322deee64036ca7d", "type": "electric_scooter", "is_disabled": 0, "lat": 38.914136, "rental_uris": {"ios": "https://dc.lft.to/lastmile_qr_scan", "android": "https://dc.lft.to/lastmile_qr_scan"}, "is_reserved": 0, "fusion_lon": 0.0, "fusion_lat": 0.0, "lon": -77.012326, "name": "56e9f8082ffbe543322deee64036ca7d"}, {"bike_id": "4a4d6811817fc31155240f4d601a305b", "type": "electric_scooter", "is_disabled": 0, "lat": 38.838244833333334, "rental_uris": {"ios": "https://dc.lft.to/lastmile_qr_scan", "android": "https://dc.lft.to/lastmile_qr_scan"}, "is_reserved": 0, "fusion_lon": 0.0, "fusion_lat": 0.0, "lon": -77.00269266666666, "name": "4a4d6811817fc31155240f4d601a305b"}, {"bike_id": "97ed98570d113f75d1f912839ebede4b", "type": "electric_scooter", "is_disabled": 0, "lat": 38.9249495, "rental_uris": {"ios": "https://dc.lft.to/lastmile_qr_scan", "android": "https://dc.lft.to/lastmile_qr_scan"}, "is_reserved": 0, "fusion_lon": 0.0, "fusion_lat": 0.0, "lon": -77.02153333333334, "name": "97ed98570d113f75d1f912839ebede4b"}, {"bike_id": "00edfc9f760938c338d6792ea04708f9", "type": "electric_scooter", "is_disabled": 0, "lat": 38.91755333333333, "rental_uris": {"ios": "https://dc.lft.to/lastmile_qr_scan", "android": "https://dc.lft.to/lastmile_qr_scan"}, "is_reserved": 0, "fusion_lon": 0.0, "fusion_lat": 0.0, "lon": -77.02487866666667, "name": "00edfc9f760938c338d6792ea04708f9"}, {"bike_id": "8737e995099ef1f09af5085b8da10fad", "type": "electric_scooter", "is_disabled": 0, "lat": 38.910343166666664, "rental_uris": {"ios": "https://dc.lft.to/lastmile_qr_scan", "android": "https://dc.lft.to/lastmile_qr_scan"}, "is_reserved": 0, "fusion_lon": 0.0, "fusion_lat": 0.0, "lon": -77.03801283333334, "name": "8737e995099ef1f09af5085b8da10fad"}, {"bike_id": "930b4d9e92db567d8d83d316ad3360fe", "type": "electric_scooter", "is_disabled": 0, "lat": 38.91674033333334, "rental_uris": {"ios": "https://dc.lft.to/lastmile_qr_scan", "android": "https://dc.lft.to/lastmile_qr_scan"}, "is_reserved": 0, "fusion_lon": 0.0, "fusion_lat": 0.0, "lon": -77.02394016666666, "name": "930b4d9e92db567d8d83d316ad3360fe"}, {"bike_id": "0eac2fbfe8f33f7a666fafdf04a3e3f2", "type": "electric_scooter", "is_disabled": 0, "lat": 38.91245633333333, "rental_uris": {"ios": "https://dc.lft.to/lastmile_qr_scan", "android": "https://dc.lft.to/lastmile_qr_scan"}, "is_reserved": 0, "fusion_lon": 0.0, "fusion_lat": 0.0, "lon": -77.02224883333334, "name": "0eac2fbfe8f33f7a666fafdf04a3e3f2"}, {"bike_id": "a77a106302d93d649f343f05a393bd7f", "type": "electric_scooter", "is_disabled": 0, "lat": 38.90974666666666, "rental_uris": {"ios": "https://dc.lft.to/lastmile_qr_scan", "android": "https://dc.lft.to/lastmile_qr_scan"}, "is_reserved": 0, "fusion_lon": 0.0, "fusion_lat": 0.0, "lon": -77.04876416666667, "name": "a77a106302d93d649f343f05a393bd7f"}, {"bike_id": "126af467439361fa62a76b26c14da1fd", "type": "electric_scooter", "is_disabled": 0, "lat": 38.90789316666667, "rental_uris": {"ios": "https://dc.lft.to/lastmile_qr_scan", "android": "https://dc.lft.to/lastmile_qr_scan"}, "is_reserved": 0, "fusion_lon": 0.0, "fusion_lat": 0.0, "lon": -77.04174716666667, "name": "126af467439361fa62a76b26c14da1fd"}, {"bike_id": "dc7159fb8bd9023f8807e99216dcfbfd", "type": "electric_scooter", "is_disabled": 0, "lat": 38.94285466666667, "rental_uris": {"ios": "https://dc.lft.to/lastmile_qr_scan", "android": "https://dc.lft.to/lastmile_qr_scan"}, "is_reserved": 0, "fusion_lon": 0.0, "fusion_lat": 0.0, "lon": -77.0217575, "name": "dc7159fb8bd9023f8807e99216dcfbfd"}, {"bike_id": "d24e834c61c3de009061b40423489246", "type": "electric_scooter", "is_disabled": 0, "lat": 38.89233, "rental_uris": {"ios": "https://dc.lft.to/lastmile_qr_scan", "android": "https://dc.lft.to/lastmile_qr_scan"}, "is_reserved": 0, "fusion_lon": 0.0, "fusion_lat": 0.0, "lon": -77.05002966666666, "name": "d24e834c61c3de009061b40423489246"}, {"bike_id": "81a3c8b1e17c6dbd58929650742b0618", "type": "electric_scooter", "is_disabled": 0, "lat": 38.90219833333333, "rental_uris": {"ios": "https://dc.lft.to/lastmile_qr_scan", "android": "https://dc.lft.to/lastmile_qr_scan"}, "is_reserved": 0, "fusion_lon": 0.0, "fusion_lat": 0.0, "lon": -77.029422, "name": "81a3c8b1e17c6dbd58929650742b0618"}, {"bike_id": "a6ddc894dc2ee50400a4ef33c1a7de58", "type": "electric_scooter", "is_disabled": 0, "lat": 38.894957166666664, "rental_uris": {"ios": "https://dc.lft.to/lastmile_qr_scan", "android": "https://dc.lft.to/lastmile_qr_scan"}, "is_reserved": 0, "fusion_lon": 0.0, "fusion_lat": 0.0, "lon": -77.01134066666667, "name": "a6ddc894dc2ee50400a4ef33c1a7de58"}, {"bike_id": "84853f1570151e6f08d8322c1b20266f", "type": "electric_scooter", "is_disabled": 0, "lat": 38.9187935, "rental_uris": {"ios": "https://dc.lft.to/lastmile_qr_scan", "android": "https://dc.lft.to/lastmile_qr_scan"}, "is_reserved": 0, "fusion_lon": 0.0, "fusion_lat": 0.0, "lon": -77.03693883333334, "name": "84853f1570151e6f08d8322c1b20266f"}, {"bike_id": "ae3d57e73efd9e109db2da9a6c24498b", "type": "electric_scooter", "is_disabled": 0, "lat": 38.90712966666667, "rental_uris": {"ios": "https://dc.lft.to/lastmile_qr_scan", "android": "https://dc.lft.to/lastmile_qr_scan"}, "is_reserved": 0, "fusion_lon": 0.0, "fusion_lat": 0.0, "lon": -77.02629583333334, "name": "ae3d57e73efd9e109db2da9a6c24498b"}, {"bike_id": "d3639a97209eedaa4b10bb771df2c896", "type": "electric_scooter", "is_disabled": 0, "lat": 38.940661166666665, "rental_uris": {"ios": "https://dc.lft.to/lastmile_qr_scan", "android": "https://dc.lft.to/lastmile_qr_scan"}, "is_reserved": 0, "fusion_lon": 0.0, "fusion_lat": 0.0, "lon": -77.06110133333334, "name": "d3639a97209eedaa4b10bb771df2c896"}, {"bike_id": "50c0a716b93e71d8adf288fc273dc1b8", "type": "electric_scooter", "is_disabled": 0, "lat": 38.919084166666664, "rental_uris": {"ios": "https://dc.lft.to/lastmile_qr_scan", "android": "https://dc.lft.to/lastmile_qr_scan"}, "is_reserved": 0, "fusion_lon": 0.0, "fusion_lat": 0.0, "lon": -77.03025466666666, "name": "50c0a716b93e71d8adf288fc273dc1b8"}, {"bike_id": "b7c79970f7ce0d2c4c71f8b9e5401fdc", "type": "electric_scooter", "is_disabled": 0, "lat": 38.914045, "rental_uris": {"ios": "https://dc.lft.to/lastmile_qr_scan", "android": "https://dc.lft.to/lastmile_qr_scan"}, "is_reserved": 0, "fusion_lon": 0.0, "fusion_lat": 0.0, "lon": -77.03997016666666, "name": "b7c79970f7ce0d2c4c71f8b9e5401fdc"}, {"bike_id": "19e58faa52f4de01a0cb4c33c4413bdb", "type": "electric_scooter", "is_disabled": 0, "lat": 38.928650833333336, "rental_uris": {"ios": "https://dc.lft.to/lastmile_qr_scan", "android": "https://dc.lft.to/lastmile_qr_scan"}, "is_reserved": 0, "fusion_lon": 0.0, "fusion_lat": 0.0, "lon": -77.03305183333333, "name": "19e58faa52f4de01a0cb4c33c4413bdb"}, {"bike_id": "f11428e98829a967447d573eede14fea", "type": "electric_scooter", "is_disabled": 0, "lat": 38.92701116666667, "rental_uris": {"ios": "https://dc.lft.to/lastmile_qr_scan", "android": "https://dc.lft.to/lastmile_qr_scan"}, "is_reserved": 0, "fusion_lon": 0.0, "fusion_lat": 0.0, "lon": -77.02070533333334, "name": "f11428e98829a967447d573eede14fea"}, {"bike_id": "d43af305989bd09d2c4679887a367c75", "type": "electric_scooter", "is_disabled": 0, "lat": 38.923548333333336, "rental_uris": {"ios": "https://dc.lft.to/lastmile_qr_scan", "android": "https://dc.lft.to/lastmile_qr_scan"}, "is_reserved": 0, "fusion_lon": 0.0, "fusion_lat": 0.0, "lon": -77.07643916666666, "name": "d43af305989bd09d2c4679887a367c75"}, {"bike_id": "14692201e69b28cfe35cd0f3ee9044f3", "type": "electric_bike", "is_disabled": 0, "lat": 38.96955616666666, "rental_uris": {"ios": "https://dc.lft.to/lastmile_qr_scan", "android": "https://dc.lft.to/lastmile_qr_scan"}, "is_reserved": 0, "fusion_lon": 0.0, "fusion_lat": 0.0, "lon": -76.957521, "name": "14692201e69b28cfe35cd0f3ee9044f3"}, {"bike_id": "dbb2103b25e1fba68ecbf47146694490", "type": "electric_scooter", "is_disabled": 0, "lat": 38.919791333333336, "rental_uris": {"ios": "https://dc.lft.to/lastmile_qr_scan", "android": "https://dc.lft.to/lastmile_qr_scan"}, "is_reserved": 0, "fusion_lon": 0.0, "fusion_lat": 0.0, "lon": -77.03969033333334, "name": "dbb2103b25e1fba68ecbf47146694490"}, {"bike_id": "02196d9b707fb9a0980f389a6c49f9fc", "type": "electric_scooter", "is_disabled": 0, "lat": 38.9246535, "rental_uris": {"ios": "https://dc.lft.to/lastmile_qr_scan", "android": "https://dc.lft.to/lastmile_qr_scan"}, "is_reserved": 0, "fusion_lon": 0.0, "fusion_lat": 0.0, "lon": -77.028319, "name": "02196d9b707fb9a0980f389a6c49f9fc"}, {"bike_id": "4e4c64228ae6b8cdbcec79176cc6335e", "type": "electric_scooter", "is_disabled": 0, "lat": 38.85454166666667, "rental_uris": {"ios": "https://dc.lft.to/lastmile_qr_scan", "android": "https://dc.lft.to/lastmile_qr_scan"}, "is_reserved": 0, "fusion_lon": 0.0, "fusion_lat": 0.0, "lon": -76.97230966666666, "name": "4e4c64228ae6b8cdbcec79176cc6335e"}, {"bike_id": "b349ab463e677f3aee475a84ffee7bb9", "type": "electric_scooter", "is_disabled": 0, "lat": 38.915966, "rental_uris": {"ios": "https://dc.lft.to/lastmile_qr_scan", "android": "https://dc.lft.to/lastmile_qr_scan"}, "is_reserved": 0, "fusion_lon": 0.0, "fusion_lat": 0.0, "lon": -77.00195116666667, "name": "b349ab463e677f3aee475a84ffee7bb9"}, {"bike_id": "a6d5eed4c8b3646c4a401e1f29f92b40", "type": "electric_scooter", "is_disabled": 0, "lat": 38.92321666666667, "rental_uris": {"ios": "https://dc.lft.to/lastmile_qr_scan", "android": "https://dc.lft.to/lastmile_qr_scan"}, "is_reserved": 0, "fusion_lon": 0.0, "fusion_lat": 0.0, "lon": -77.02974683333333, "name": "a6d5eed4c8b3646c4a401e1f29f92b40"}, {"bike_id": "bd66cd6ca044430818886ddaae3eee68", "type": "electric_scooter", "is_disabled": 0, "lat": 38.92139233333333, "rental_uris": {"ios": "https://dc.lft.to/lastmile_qr_scan", "android": "https://dc.lft.to/lastmile_qr_scan"}, "is_reserved": 0, "fusion_lon": 0.0, "fusion_lat": 0.0, "lon": -77.034428, "name": "bd66cd6ca044430818886ddaae3eee68"}, {"bike_id": "dc18b0d6cd0cad3bc9e4715795e1b1da", "type": "electric_scooter", "is_disabled": 0, "lat": 38.91552216666667, "rental_uris": {"ios": "https://dc.lft.to/lastmile_qr_scan", "android": "https://dc.lft.to/lastmile_qr_scan"}, "is_reserved": 0, "fusion_lon": 0.0, "fusion_lat": 0.0, "lon": -77.03324066666667, "name": "dc18b0d6cd0cad3bc9e4715795e1b1da"}, {"bike_id": "bf6e49d7482091c1bf8c3303cb5842d0", "type": "electric_scooter", "is_disabled": 0, "lat": 38.883023, "rental_uris": {"ios": "https://dc.lft.to/lastmile_qr_scan", "android": "https://dc.lft.to/lastmile_qr_scan"}, "is_reserved": 0, "fusion_lon": 0.0, "fusion_lat": 0.0, "lon": -76.9421175, "name": "bf6e49d7482091c1bf8c3303cb5842d0"}, {"bike_id": "963fa693a305a52b6f0ea599894da8c0", "type": "electric_scooter", "is_disabled": 0, "lat": 38.91216333333333, "rental_uris": {"ios": "https://dc.lft.to/lastmile_qr_scan", "android": "https://dc.lft.to/lastmile_qr_scan"}, "is_reserved": 0, "fusion_lon": 0.0, "fusion_lat": 0.0, "lon": -77.02700583333333, "name": "963fa693a305a52b6f0ea599894da8c0"}, {"bike_id": "49b2e9dee993830752cd28a0faa60323", "type": "electric_scooter", "is_disabled": 0, "lat": 38.90551266666667, "rental_uris": {"ios": "https://dc.lft.to/lastmile_qr_scan", "android": "https://dc.lft.to/lastmile_qr_scan"}, "is_reserved": 0, "fusion_lon": 0.0, "fusion_lat": 0.0, "lon": -77.05695366666667, "name": "49b2e9dee993830752cd28a0faa60323"}, {"bike_id": "bcb25af2cc577c208b138a58a08ce324", "type": "electric_scooter", "is_disabled": 0, "lat": 38.91599816666667, "rental_uris": {"ios": "https://dc.lft.to/lastmile_qr_scan", "android": "https://dc.lft.to/lastmile_qr_scan"}, "is_reserved": 0, "fusion_lon": 0.0, "fusion_lat": 0.0, "lon": -77.03177533333333, "name": "bcb25af2cc577c208b138a58a08ce324"}, {"bike_id": "53c29cc6ed7c8521ce9042d4bec2af44", "type": "electric_scooter", "is_disabled": 0, "lat": 38.9140195, "rental_uris": {"ios": "https://dc.lft.to/lastmile_qr_scan", "android": "https://dc.lft.to/lastmile_qr_scan"}, "is_reserved": 0, "fusion_lon": 0.0, "fusion_lat": 0.0, "lon": -77.0322505, "name": "53c29cc6ed7c8521ce9042d4bec2af44"}, {"bike_id": "9dfa251771f0e083387edc2f6b178552", "type": "electric_scooter", "is_disabled": 0, "lat": 38.87394116666667, "rental_uris": {"ios": "https://dc.lft.to/lastmile_qr_scan", "android": "https://dc.lft.to/lastmile_qr_scan"}, "is_reserved": 0, "fusion_lon": 0.0, "fusion_lat": 0.0, "lon": -77.04337666666666, "name": "9dfa251771f0e083387edc2f6b178552"}, {"bike_id": "e3e693cef8ee35b588c4ad61928e2d5b", "type": "electric_bike", "is_disabled": 0, "lat": 38.83425183333333, "rental_uris": {"ios": "https://dc.lft.to/lastmile_qr_scan", "android": "https://dc.lft.to/lastmile_qr_scan"}, "is_reserved": 0, "fusion_lon": 0.0, "fusion_lat": 0.0, "lon": -77.05882883333334, "name": "e3e693cef8ee35b588c4ad61928e2d5b"}, {"bike_id": "c4876773a5a67f9e76dcbc784e806c99", "type": "electric_scooter", "is_disabled": 0, "lat": 38.93666566666667, "rental_uris": {"ios": "https://dc.lft.to/lastmile_qr_scan", "android": "https://dc.lft.to/lastmile_qr_scan"}, "is_reserved": 0, "fusion_lon": 0.0, "fusion_lat": 0.0, "lon": -77.02451283333333, "name": "c4876773a5a67f9e76dcbc784e806c99"}, {"bike_id": "7c90d3998c0c46fff4a8b34500627c8f", "type": "electric_scooter", "is_disabled": 0, "lat": 38.900815333333334, "rental_uris": {"ios": "https://dc.lft.to/lastmile_qr_scan", "android": "https://dc.lft.to/lastmile_qr_scan"}, "is_reserved": 0, "fusion_lon": 0.0, "fusion_lat": 0.0, "lon": -76.9833705, "name": "7c90d3998c0c46fff4a8b34500627c8f"}, {"bike_id": "12db21568e3c6ad417017e4673df04e9", "type": "electric_scooter", "is_disabled": 0, "lat": 38.8781405, "rental_uris": {"ios": "https://dc.lft.to/lastmile_qr_scan", "android": "https://dc.lft.to/lastmile_qr_scan"}, "is_reserved": 0, "fusion_lon": 0.0, "fusion_lat": 0.0, "lon": -77.022375, "name": "12db21568e3c6ad417017e4673df04e9"}, {"bike_id": "232447cb8888fc6f3744770d5022787f", "type": "electric_scooter", "is_disabled": 0, "lat": 38.916089666666664, "rental_uris": {"ios": "https://dc.lft.to/lastmile_qr_scan", "android": "https://dc.lft.to/lastmile_qr_scan"}, "is_reserved": 0, "fusion_lon": 0.0, "fusion_lat": 0.0, "lon": -77.0218095, "name": "232447cb8888fc6f3744770d5022787f"}, {"bike_id": "e3fadfb360fb2bd66ac138ab413911cd", "type": "electric_scooter", "is_disabled": 0, "lat": 38.892199833333336, "rental_uris": {"ios": "https://dc.lft.to/lastmile_qr_scan", "android": "https://dc.lft.to/lastmile_qr_scan"}, "is_reserved": 0, "fusion_lon": 0.0, "fusion_lat": 0.0, "lon": -77.04518016666667, "name": "e3fadfb360fb2bd66ac138ab413911cd"}, {"bike_id": "64c9472685e7b1d01f8787a303555016", "type": "electric_scooter", "is_disabled": 0, "lat": 38.922455666666664, "rental_uris": {"ios": "https://dc.lft.to/lastmile_qr_scan", "android": "https://dc.lft.to/lastmile_qr_scan"}, "is_reserved": 0, "fusion_lon": 0.0, "fusion_lat": 0.0, "lon": -77.04253733333333, "name": "64c9472685e7b1d01f8787a303555016"}, {"bike_id": "1904b0abe240c32b01bbefd8e2fa6936", "type": "electric_scooter", "is_disabled": 0, "lat": 38.90141166666667, "rental_uris": {"ios": "https://dc.lft.to/lastmile_qr_scan", "android": "https://dc.lft.to/lastmile_qr_scan"}, "is_reserved": 0, "fusion_lon": 0.0, "fusion_lat": 0.0, "lon": -77.06075033333333, "name": "1904b0abe240c32b01bbefd8e2fa6936"}, {"bike_id": "e8bc216a2332549a22abc1f3316cbce4", "type": "electric_scooter", "is_disabled": 0, "lat": 38.893372, "rental_uris": {"ios": "https://dc.lft.to/lastmile_qr_scan", "android": "https://dc.lft.to/lastmile_qr_scan"}, "is_reserved": 0, "fusion_lon": 0.0, "fusion_lat": 0.0, "lon": -76.95055583333334, "name": "e8bc216a2332549a22abc1f3316cbce4"}, {"bike_id": "293631976d181497721101bc244bfac1", "type": "electric_scooter", "is_disabled": 0, "lat": 38.88723933333333, "rental_uris": {"ios": "https://dc.lft.to/lastmile_qr_scan", "android": "https://dc.lft.to/lastmile_qr_scan"}, "is_reserved": 0, "fusion_lon": 0.0, "fusion_lat": 0.0, "lon": -76.98360133333334, "name": "293631976d181497721101bc244bfac1"}, {"bike_id": "6166efdda17b3fcba4cfc9beab03d91e", "type": "electric_scooter", "is_disabled": 0, "lat": 38.90593, "rental_uris": {"ios": "https://dc.lft.to/lastmile_qr_scan", "android": "https://dc.lft.to/lastmile_qr_scan"}, "is_reserved": 0, "fusion_lon": 0.0, "fusion_lat": 0.0, "lon": -77.0630265, "name": "6166efdda17b3fcba4cfc9beab03d91e"}, {"bike_id": "a25e3cf457954eb9cb0fedcdf42b6015", "type": "electric_scooter", "is_disabled": 0, "lat": 38.921695166666666, "rental_uris": {"ios": "https://dc.lft.to/lastmile_qr_scan", "android": "https://dc.lft.to/lastmile_qr_scan"}, "is_reserved": 0, "fusion_lon": 0.0, "fusion_lat": 0.0, "lon": -77.038507, "name": "a25e3cf457954eb9cb0fedcdf42b6015"}, {"bike_id": "3c2669f865d9f668ede48f7d6adf9d6c", "type": "electric_scooter", "is_disabled": 0, "lat": 38.89689033333333, "rental_uris": {"ios": "https://dc.lft.to/lastmile_qr_scan", "android": "https://dc.lft.to/lastmile_qr_scan"}, "is_reserved": 0, "fusion_lon": 0.0, "fusion_lat": 0.0, "lon": -76.99966233333333, "name": "3c2669f865d9f668ede48f7d6adf9d6c"}, {"bike_id": "684e391b79de2ef9e64234eac71056fe", "type": "electric_scooter", "is_disabled": 0, "lat": 38.8864895, "rental_uris": {"ios": "https://dc.lft.to/lastmile_qr_scan", "android": "https://dc.lft.to/lastmile_qr_scan"}, "is_reserved": 0, "fusion_lon": 0.0, "fusion_lat": 0.0, "lon": -77.03393916666667, "name": "684e391b79de2ef9e64234eac71056fe"}, {"bike_id": "330a4419d2ddb4a8a7fc75cc672ba01a", "type": "electric_scooter", "is_disabled": 0, "lat": 38.91817616666667, "rental_uris": {"ios": "https://dc.lft.to/lastmile_qr_scan", "android": "https://dc.lft.to/lastmile_qr_scan"}, "is_reserved": 0, "fusion_lon": 0.0, "fusion_lat": 0.0, "lon": -77.0271, "name": "330a4419d2ddb4a8a7fc75cc672ba01a"}, {"bike_id": "43743620170bb62b851874c6a812e0ff", "type": "electric_scooter", "is_disabled": 0, "lat": 38.887229, "rental_uris": {"ios": "https://dc.lft.to/lastmile_qr_scan", "android": "https://dc.lft.to/lastmile_qr_scan"}, "is_reserved": 0, "fusion_lon": 0.0, "fusion_lat": 0.0, "lon": -77.02180316666667, "name": "43743620170bb62b851874c6a812e0ff"}, {"bike_id": "330accbef08690abe08ebec8f76bd24a", "type": "electric_scooter", "is_disabled": 0, "lat": 38.926708, "rental_uris": {"ios": "https://dc.lft.to/lastmile_qr_scan", "android": "https://dc.lft.to/lastmile_qr_scan"}, "is_reserved": 0, "fusion_lon": 0.0, "fusion_lat": 0.0, "lon": -77.0147525, "name": "330accbef08690abe08ebec8f76bd24a"}, {"bike_id": "99d1902cb7eec2a207590733e63b84b1", "type": "electric_scooter", "is_disabled": 0, "lat": 38.945592166666664, "rental_uris": {"ios": "https://dc.lft.to/lastmile_qr_scan", "android": "https://dc.lft.to/lastmile_qr_scan"}, "is_reserved": 0, "fusion_lon": 0.0, "fusion_lat": 0.0, "lon": -77.07122816666667, "name": "99d1902cb7eec2a207590733e63b84b1"}, {"bike_id": "353c36e846b0e280a960e4c52b296ef6", "type": "electric_scooter", "is_disabled": 0, "lat": 38.904743333333336, "rental_uris": {"ios": "https://dc.lft.to/lastmile_qr_scan", "android": "https://dc.lft.to/lastmile_qr_scan"}, "is_reserved": 0, "fusion_lon": 0.0, "fusion_lat": 0.0, "lon": -77.00894133333334, "name": "353c36e846b0e280a960e4c52b296ef6"}, {"bike_id": "172c740b8e4c43a461f0616a80086450", "type": "electric_bike", "is_disabled": 0, "lat": 38.85893516666667, "rental_uris": {"ios": "https://dc.lft.to/lastmile_qr_scan", "android": "https://dc.lft.to/lastmile_qr_scan"}, "is_reserved": 0, "fusion_lon": 0.0, "fusion_lat": 0.0, "lon": -77.1186635, "name": "172c740b8e4c43a461f0616a80086450"}, {"bike_id": "517b8c515975414847e0b317bc7a2ea1", "type": "electric_scooter", "is_disabled": 0, "lat": 38.90837616666666, "rental_uris": {"ios": "https://dc.lft.to/lastmile_qr_scan", "android": "https://dc.lft.to/lastmile_qr_scan"}, "is_reserved": 0, "fusion_lon": 0.0, "fusion_lat": 0.0, "lon": -77.02343183333333, "name": "517b8c515975414847e0b317bc7a2ea1"}, {"bike_id": "f47ee8ef51a57d7d6de6cf841de29e95", "type": "electric_scooter", "is_disabled": 0, "lat": 38.8972285, "rental_uris": {"ios": "https://dc.lft.to/lastmile_qr_scan", "android": "https://dc.lft.to/lastmile_qr_scan"}, "is_reserved": 0, "fusion_lon": 0.0, "fusion_lat": 0.0, "lon": -77.02704316666667, "name": "f47ee8ef51a57d7d6de6cf841de29e95"}, {"bike_id": "1c03f3a06a59aaa7f07fd390c2c4cf8d", "type": "electric_scooter", "is_disabled": 0, "lat": 38.91979583333333, "rental_uris": {"ios": "https://dc.lft.to/lastmile_qr_scan", "android": "https://dc.lft.to/lastmile_qr_scan"}, "is_reserved": 0, "fusion_lon": 0.0, "fusion_lat": 0.0, "lon": -77.04189650000001, "name": "1c03f3a06a59aaa7f07fd390c2c4cf8d"}, {"bike_id": "cd8521ae70f568f3af89b03b79346f99", "type": "electric_scooter", "is_disabled": 0, "lat": 38.880653, "rental_uris": {"ios": "https://dc.lft.to/lastmile_qr_scan", "android": "https://dc.lft.to/lastmile_qr_scan"}, "is_reserved": 0, "fusion_lon": 0.0, "fusion_lat": 0.0, "lon": -77.02554216666667, "name": "cd8521ae70f568f3af89b03b79346f99"}, {"bike_id": "b2f16cdd821cace3f45796186e200962", "type": "electric_scooter", "is_disabled": 0, "lat": 38.915897, "rental_uris": {"ios": "https://dc.lft.to/lastmile_qr_scan", "android": "https://dc.lft.to/lastmile_qr_scan"}, "is_reserved": 0, "fusion_lon": 0.0, "fusion_lat": 0.0, "lon": -77.0019785, "name": "b2f16cdd821cace3f45796186e200962"}, {"bike_id": "372d2587019f1b2fc7a09d9647cdfc32", "type": "electric_bike", "is_disabled": 0, "lat": 38.916886, "rental_uris": {"ios": "https://dc.lft.to/lastmile_qr_scan", "android": "https://dc.lft.to/lastmile_qr_scan"}, "is_reserved": 0, "fusion_lon": 0.0, "fusion_lat": 0.0, "lon": -77.035019, "name": "372d2587019f1b2fc7a09d9647cdfc32"}, {"bike_id": "e8e0c33260547a803550a2d8bd0b5e6b", "type": "electric_scooter", "is_disabled": 0, "lat": 38.899762333333335, "rental_uris": {"ios": "https://dc.lft.to/lastmile_qr_scan", "android": "https://dc.lft.to/lastmile_qr_scan"}, "is_reserved": 0, "fusion_lon": 0.0, "fusion_lat": 0.0, "lon": -76.98309533333334, "name": "e8e0c33260547a803550a2d8bd0b5e6b"}, {"bike_id": "1a1c54869c347beea4df5a66ae240faa", "type": "electric_scooter", "is_disabled": 0, "lat": 38.897365666666666, "rental_uris": {"ios": "https://dc.lft.to/lastmile_qr_scan", "android": "https://dc.lft.to/lastmile_qr_scan"}, "is_reserved": 0, "fusion_lon": 0.0, "fusion_lat": 0.0, "lon": -76.94728116666667, "name": "1a1c54869c347beea4df5a66ae240faa"}, {"bike_id": "5838cfaa948c1e5ee747532990e8328f", "type": "electric_scooter", "is_disabled": 0, "lat": 38.90966683333333, "rental_uris": {"ios": "https://dc.lft.to/lastmile_qr_scan", "android": "https://dc.lft.to/lastmile_qr_scan"}, "is_reserved": 0, "fusion_lon": 0.0, "fusion_lat": 0.0, "lon": -77.046691, "name": "5838cfaa948c1e5ee747532990e8328f"}, {"bike_id": "0e9cd4a917716c45ddf4db93bf9d1540", "type": "electric_scooter", "is_disabled": 0, "lat": 38.866958, "rental_uris": {"ios": "https://dc.lft.to/lastmile_qr_scan", "android": "https://dc.lft.to/lastmile_qr_scan"}, "is_reserved": 0, "fusion_lon": 0.0, "fusion_lat": 0.0, "lon": -76.98719866666667, "name": "0e9cd4a917716c45ddf4db93bf9d1540"}, {"bike_id": "3072f11fae0aa0df3d473d3e2edf06c5", "type": "electric_scooter", "is_disabled": 0, "lat": 38.91699033333333, "rental_uris": {"ios": "https://dc.lft.to/lastmile_qr_scan", "android": "https://dc.lft.to/lastmile_qr_scan"}, "is_reserved": 0, "fusion_lon": 0.0, "fusion_lat": 0.0, "lon": -77.00651683333334, "name": "3072f11fae0aa0df3d473d3e2edf06c5"}, {"bike_id": "67df9fb4a63635450b441215c310afcf", "type": "electric_scooter", "is_disabled": 0, "lat": 38.918182, "rental_uris": {"ios": "https://dc.lft.to/lastmile_qr_scan", "android": "https://dc.lft.to/lastmile_qr_scan"}, "is_reserved": 0, "fusion_lon": 0.0, "fusion_lat": 0.0, "lon": -77.04945483333333, "name": "67df9fb4a63635450b441215c310afcf"}, {"bike_id": "25856f4cfbdf33b10de78b452394aac1", "type": "electric_bike", "is_disabled": 0, "lat": 39.0527955, "rental_uris": {"ios": "https://dc.lft.to/lastmile_qr_scan", "android": "https://dc.lft.to/lastmile_qr_scan"}, "is_reserved": 0, "fusion_lon": 0.0, "fusion_lat": 0.0, "lon": -77.08068883333334, "name": "25856f4cfbdf33b10de78b452394aac1"}, {"bike_id": "85f28c28c207b2210a2876c192a45416", "type": "electric_scooter", "is_disabled": 0, "lat": 38.93132383333333, "rental_uris": {"ios": "https://dc.lft.to/lastmile_qr_scan", "android": "https://dc.lft.to/lastmile_qr_scan"}, "is_reserved": 0, "fusion_lon": 0.0, "fusion_lat": 0.0, "lon": -76.99578366666667, "name": "85f28c28c207b2210a2876c192a45416"}, {"bike_id": "fa863c5d662807c8e929588b8d9298d5", "type": "electric_scooter", "is_disabled": 0, "lat": 38.9333465, "rental_uris": {"ios": "https://dc.lft.to/lastmile_qr_scan", "android": "https://dc.lft.to/lastmile_qr_scan"}, "is_reserved": 0, "fusion_lon": 0.0, "fusion_lat": 0.0, "lon": -77.02063933333334, "name": "fa863c5d662807c8e929588b8d9298d5"}, {"bike_id": "1000424b718b3cfa888f6d04fc02e3aa", "type": "electric_scooter", "is_disabled": 0, "lat": 38.91684633333333, "rental_uris": {"ios": "https://dc.lft.to/lastmile_qr_scan", "android": "https://dc.lft.to/lastmile_qr_scan"}, "is_reserved": 0, "fusion_lon": 0.0, "fusion_lat": 0.0, "lon": -77.02956166666667, "name": "1000424b718b3cfa888f6d04fc02e3aa"}, {"bike_id": "ab8246a98ef8a6da56d207215631d5d5", "type": "electric_scooter", "is_disabled": 0, "lat": 38.90708733333334, "rental_uris": {"ios": "https://dc.lft.to/lastmile_qr_scan", "android": "https://dc.lft.to/lastmile_qr_scan"}, "is_reserved": 0, "fusion_lon": 0.0, "fusion_lat": 0.0, "lon": -77.02408366666667, "name": "ab8246a98ef8a6da56d207215631d5d5"}, {"bike_id": "6e7f6ff0ac670d46099db2d0018eb0e9", "type": "electric_scooter", "is_disabled": 0, "lat": 38.89958216666667, "rental_uris": {"ios": "https://dc.lft.to/lastmile_qr_scan", "android": "https://dc.lft.to/lastmile_qr_scan"}, "is_reserved": 0, "fusion_lon": 0.0, "fusion_lat": 0.0, "lon": -77.0034115, "name": "6e7f6ff0ac670d46099db2d0018eb0e9"}, {"bike_id": "63d9c8603e9c2193f1c2eeb6b29a3401", "type": "electric_scooter", "is_disabled": 0, "lat": 38.908357, "rental_uris": {"ios": "https://dc.lft.to/lastmile_qr_scan", "android": "https://dc.lft.to/lastmile_qr_scan"}, "is_reserved": 0, "fusion_lon": 0.0, "fusion_lat": 0.0, "lon": -77.023342, "name": "63d9c8603e9c2193f1c2eeb6b29a3401"}, {"bike_id": "47431549cd846e2532f02089d7ec3b81", "type": "electric_scooter", "is_disabled": 0, "lat": 38.9474185, "rental_uris": {"ios": "https://dc.lft.to/lastmile_qr_scan", "android": "https://dc.lft.to/lastmile_qr_scan"}, "is_reserved": 0, "fusion_lon": 0.0, "fusion_lat": 0.0, "lon": -77.075952, "name": "47431549cd846e2532f02089d7ec3b81"}, {"bike_id": "732c3412b102b30c8c50434dbad856d1", "type": "electric_scooter", "is_disabled": 0, "lat": 38.90487916666667, "rental_uris": {"ios": "https://dc.lft.to/lastmile_qr_scan", "android": "https://dc.lft.to/lastmile_qr_scan"}, "is_reserved": 0, "fusion_lon": 0.0, "fusion_lat": 0.0, "lon": -77.04347633333333, "name": "732c3412b102b30c8c50434dbad856d1"}, {"bike_id": "e5d17ec02e70c359d71e1e64afafeb44", "type": "electric_scooter", "is_disabled": 0, "lat": 38.90788333333333, "rental_uris": {"ios": "https://dc.lft.to/lastmile_qr_scan", "android": "https://dc.lft.to/lastmile_qr_scan"}, "is_reserved": 0, "fusion_lon": 0.0, "fusion_lat": 0.0, "lon": -77.031925, "name": "e5d17ec02e70c359d71e1e64afafeb44"}, {"bike_id": "f79d44ceb20c694d430eaf3d50a2184e", "type": "electric_scooter", "is_disabled": 0, "lat": 38.844379333333336, "rental_uris": {"ios": "https://dc.lft.to/lastmile_qr_scan", "android": "https://dc.lft.to/lastmile_qr_scan"}, "is_reserved": 0, "fusion_lon": 0.0, "fusion_lat": 0.0, "lon": -76.99870233333333, "name": "f79d44ceb20c694d430eaf3d50a2184e"}, {"bike_id": "d72bb54fd245d99e325243fa6d7e3bb1", "type": "electric_scooter", "is_disabled": 0, "lat": 38.93398416666667, "rental_uris": {"ios": "https://dc.lft.to/lastmile_qr_scan", "android": "https://dc.lft.to/lastmile_qr_scan"}, "is_reserved": 0, "fusion_lon": 0.0, "fusion_lat": 0.0, "lon": -77.03523166666666, "name": "d72bb54fd245d99e325243fa6d7e3bb1"}, {"bike_id": "1ce13fcb342de9482222d02370842479", "type": "electric_bike", "is_disabled": 0, "lat": 38.938916666666664, "rental_uris": {"ios": "https://dc.lft.to/lastmile_qr_scan", "android": "https://dc.lft.to/lastmile_qr_scan"}, "is_reserved": 0, "fusion_lon": 0.0, "fusion_lat": 0.0, "lon": -77.063545, "name": "1ce13fcb342de9482222d02370842479"}, {"bike_id": "aeef6d09f18b52e8d2c0b0b3db07a102", "type": "electric_scooter", "is_disabled": 0, "lat": 38.93847183333333, "rental_uris": {"ios": "https://dc.lft.to/lastmile_qr_scan", "android": "https://dc.lft.to/lastmile_qr_scan"}, "is_reserved": 0, "fusion_lon": 0.0, "fusion_lat": 0.0, "lon": -77.07231083333333, "name": "aeef6d09f18b52e8d2c0b0b3db07a102"}, {"bike_id": "7ee52de0e5d432f203c764f9211e1461", "type": "electric_scooter", "is_disabled": 0, "lat": 38.909471833333335, "rental_uris": {"ios": "https://dc.lft.to/lastmile_qr_scan", "android": "https://dc.lft.to/lastmile_qr_scan"}, "is_reserved": 0, "fusion_lon": 0.0, "fusion_lat": 0.0, "lon": -77.05567416666666, "name": "7ee52de0e5d432f203c764f9211e1461"}, {"bike_id": "d194f1eea4ce848d7c0d3bfcddff6124", "type": "electric_scooter", "is_disabled": 0, "lat": 38.964998333333334, "rental_uris": {"ios": "https://dc.lft.to/lastmile_qr_scan", "android": "https://dc.lft.to/lastmile_qr_scan"}, "is_reserved": 0, "fusion_lon": 0.0, "fusion_lat": 0.0, "lon": -77.00201433333334, "name": "d194f1eea4ce848d7c0d3bfcddff6124"}, {"bike_id": "2884f21ac83944bebda22e4ab47d4343", "type": "electric_scooter", "is_disabled": 0, "lat": 38.9071535, "rental_uris": {"ios": "https://dc.lft.to/lastmile_qr_scan", "android": "https://dc.lft.to/lastmile_qr_scan"}, "is_reserved": 0, "fusion_lon": 0.0, "fusion_lat": 0.0, "lon": -77.04162333333333, "name": "2884f21ac83944bebda22e4ab47d4343"}, {"bike_id": "6e4de62437b458196fa7efab3c2b8937", "type": "electric_scooter", "is_disabled": 0, "lat": 38.91319, "rental_uris": {"ios": "https://dc.lft.to/lastmile_qr_scan", "android": "https://dc.lft.to/lastmile_qr_scan"}, "is_reserved": 0, "fusion_lon": 0.0, "fusion_lat": 0.0, "lon": -77.03186333333333, "name": "6e4de62437b458196fa7efab3c2b8937"}, {"bike_id": "1cfdec27bc8ae8a8f3255f93307f7fb7", "type": "electric_scooter", "is_disabled": 0, "lat": 38.909766166666664, "rental_uris": {"ios": "https://dc.lft.to/lastmile_qr_scan", "android": "https://dc.lft.to/lastmile_qr_scan"}, "is_reserved": 0, "fusion_lon": 0.0, "fusion_lat": 0.0, "lon": -77.015172, "name": "1cfdec27bc8ae8a8f3255f93307f7fb7"}, {"bike_id": "d63e04246dc3fd0e6aaf2f94494fe81c", "type": "electric_scooter", "is_disabled": 0, "lat": 38.91148883333334, "rental_uris": {"ios": "https://dc.lft.to/lastmile_qr_scan", "android": "https://dc.lft.to/lastmile_qr_scan"}, "is_reserved": 0, "fusion_lon": 0.0, "fusion_lat": 0.0, "lon": -77.04444933333333, "name": "d63e04246dc3fd0e6aaf2f94494fe81c"}, {"bike_id": "1a55b311c677b226ab8971825fd5b270", "type": "electric_scooter", "is_disabled": 0, "lat": 38.899579, "rental_uris": {"ios": "https://dc.lft.to/lastmile_qr_scan", "android": "https://dc.lft.to/lastmile_qr_scan"}, "is_reserved": 0, "fusion_lon": 0.0, "fusion_lat": 0.0, "lon": -77.01607783333333, "name": "1a55b311c677b226ab8971825fd5b270"}, {"bike_id": "61ecea2e9bac962026130ddcfcc49f4f", "type": "electric_scooter", "is_disabled": 0, "lat": 38.91684583333333, "rental_uris": {"ios": "https://dc.lft.to/lastmile_qr_scan", "android": "https://dc.lft.to/lastmile_qr_scan"}, "is_reserved": 0, "fusion_lon": 0.0, "fusion_lat": 0.0, "lon": -77.0316545, "name": "61ecea2e9bac962026130ddcfcc49f4f"}, {"bike_id": "14c92e699ad0aba72a18a5a4b9197e81", "type": "electric_scooter", "is_disabled": 0, "lat": 38.8922045, "rental_uris": {"ios": "https://dc.lft.to/lastmile_qr_scan", "android": "https://dc.lft.to/lastmile_qr_scan"}, "is_reserved": 0, "fusion_lon": 0.0, "fusion_lat": 0.0, "lon": -77.03979883333334, "name": "14c92e699ad0aba72a18a5a4b9197e81"}, {"bike_id": "42c812f200b98465870dd85084d0f147", "type": "electric_scooter", "is_disabled": 0, "lat": 38.9026415, "rental_uris": {"ios": "https://dc.lft.to/lastmile_qr_scan", "android": "https://dc.lft.to/lastmile_qr_scan"}, "is_reserved": 0, "fusion_lon": 0.0, "fusion_lat": 0.0, "lon": -77.0035515, "name": "42c812f200b98465870dd85084d0f147"}, {"bike_id": "e2213cc92a58f44133734fc51eed6737", "type": "electric_scooter", "is_disabled": 0, "lat": 38.918338166666665, "rental_uris": {"ios": "https://dc.lft.to/lastmile_qr_scan", "android": "https://dc.lft.to/lastmile_qr_scan"}, "is_reserved": 0, "fusion_lon": 0.0, "fusion_lat": 0.0, "lon": -76.9655655, "name": "e2213cc92a58f44133734fc51eed6737"}, {"bike_id": "c300fda594663df9766237b8898d7c7e", "type": "electric_scooter", "is_disabled": 0, "lat": 38.91722566666667, "rental_uris": {"ios": "https://dc.lft.to/lastmile_qr_scan", "android": "https://dc.lft.to/lastmile_qr_scan"}, "is_reserved": 0, "fusion_lon": 0.0, "fusion_lat": 0.0, "lon": -77.02707883333333, "name": "c300fda594663df9766237b8898d7c7e"}, {"bike_id": "6ef08cc6fb5c475952792297f8e7fe67", "type": "electric_scooter", "is_disabled": 0, "lat": 38.986947666666666, "rental_uris": {"ios": "https://dc.lft.to/lastmile_qr_scan", "android": "https://dc.lft.to/lastmile_qr_scan"}, "is_reserved": 0, "fusion_lon": 0.0, "fusion_lat": 0.0, "lon": -77.02976866666667, "name": "6ef08cc6fb5c475952792297f8e7fe67"}, {"bike_id": "03f91c100a521f5732f39943d7d707c3", "type": "electric_scooter", "is_disabled": 0, "lat": 38.904588, "rental_uris": {"ios": "https://dc.lft.to/lastmile_qr_scan", "android": "https://dc.lft.to/lastmile_qr_scan"}, "is_reserved": 0, "fusion_lon": 0.0, "fusion_lat": 0.0, "lon": -77.0294395, "name": "03f91c100a521f5732f39943d7d707c3"}, {"bike_id": "89032ab135f0bab66db30259978a37ee", "type": "electric_scooter", "is_disabled": 0, "lat": 38.9179045, "rental_uris": {"ios": "https://dc.lft.to/lastmile_qr_scan", "android": "https://dc.lft.to/lastmile_qr_scan"}, "is_reserved": 0, "fusion_lon": 0.0, "fusion_lat": 0.0, "lon": -77.023732, "name": "89032ab135f0bab66db30259978a37ee"}, {"bike_id": "d3945caece77edad4afb6bcf1e91e42f", "type": "electric_scooter", "is_disabled": 0, "lat": 38.92839933333333, "rental_uris": {"ios": "https://dc.lft.to/lastmile_qr_scan", "android": "https://dc.lft.to/lastmile_qr_scan"}, "is_reserved": 0, "fusion_lon": 0.0, "fusion_lat": 0.0, "lon": -77.0329145, "name": "d3945caece77edad4afb6bcf1e91e42f"}, {"bike_id": "02191e82fcf506fb012ec3d4fef2f32f", "type": "electric_scooter", "is_disabled": 0, "lat": 38.9067995, "rental_uris": {"ios": "https://dc.lft.to/lastmile_qr_scan", "android": "https://dc.lft.to/lastmile_qr_scan"}, "is_reserved": 0, "fusion_lon": 0.0, "fusion_lat": 0.0, "lon": -77.05333666666667, "name": "02191e82fcf506fb012ec3d4fef2f32f"}, {"bike_id": "6410e150f73a0e38ab2dc1285dfc12d9", "type": "electric_scooter", "is_disabled": 0, "lat": 38.887194666666666, "rental_uris": {"ios": "https://dc.lft.to/lastmile_qr_scan", "android": "https://dc.lft.to/lastmile_qr_scan"}, "is_reserved": 0, "fusion_lon": 0.0, "fusion_lat": 0.0, "lon": -77.02196466666666, "name": "6410e150f73a0e38ab2dc1285dfc12d9"}, {"bike_id": "bec57fdc76d13dca8076dfe425db772d", "type": "electric_scooter", "is_disabled": 0, "lat": 38.910199666666664, "rental_uris": {"ios": "https://dc.lft.to/lastmile_qr_scan", "android": "https://dc.lft.to/lastmile_qr_scan"}, "is_reserved": 0, "fusion_lon": 0.0, "fusion_lat": 0.0, "lon": -77.02825483333334, "name": "bec57fdc76d13dca8076dfe425db772d"}, {"bike_id": "6d30d5b0f0532526d985f2ba46a64771", "type": "electric_scooter", "is_disabled": 0, "lat": 38.88651683333333, "rental_uris": {"ios": "https://dc.lft.to/lastmile_qr_scan", "android": "https://dc.lft.to/lastmile_qr_scan"}, "is_reserved": 0, "fusion_lon": 0.0, "fusion_lat": 0.0, "lon": -77.02818483333333, "name": "6d30d5b0f0532526d985f2ba46a64771"}, {"bike_id": "c0fcc788afece90e16026d9e1fd5f520", "type": "electric_scooter", "is_disabled": 0, "lat": 38.9090005, "rental_uris": {"ios": "https://dc.lft.to/lastmile_qr_scan", "android": "https://dc.lft.to/lastmile_qr_scan"}, "is_reserved": 0, "fusion_lon": 0.0, "fusion_lat": 0.0, "lon": -77.04210583333334, "name": "c0fcc788afece90e16026d9e1fd5f520"}, {"bike_id": "c0c204c1422cdde85266e0d188c59bf3", "type": "electric_scooter", "is_disabled": 0, "lat": 38.92225166666667, "rental_uris": {"ios": "https://dc.lft.to/lastmile_qr_scan", "android": "https://dc.lft.to/lastmile_qr_scan"}, "is_reserved": 0, "fusion_lon": 0.0, "fusion_lat": 0.0, "lon": -77.04272383333333, "name": "c0c204c1422cdde85266e0d188c59bf3"}, {"bike_id": "2b0654023807e9da43b3a4c0b9a0db14", "type": "electric_scooter", "is_disabled": 0, "lat": 38.8928305, "rental_uris": {"ios": "https://dc.lft.to/lastmile_qr_scan", "android": "https://dc.lft.to/lastmile_qr_scan"}, "is_reserved": 0, "fusion_lon": 0.0, "fusion_lat": 0.0, "lon": -77.044892, "name": "2b0654023807e9da43b3a4c0b9a0db14"}, {"bike_id": "255dd069cd28742fd7ef7ac1c2c712b3", "type": "electric_scooter", "is_disabled": 0, "lat": 38.89727966666667, "rental_uris": {"ios": "https://dc.lft.to/lastmile_qr_scan", "android": "https://dc.lft.to/lastmile_qr_scan"}, "is_reserved": 0, "fusion_lon": 0.0, "fusion_lat": 0.0, "lon": -77.02458233333333, "name": "255dd069cd28742fd7ef7ac1c2c712b3"}, {"bike_id": "6a42215fc8d6195f71f3029d752a44e1", "type": "electric_scooter", "is_disabled": 0, "lat": 38.93332133333333, "rental_uris": {"ios": "https://dc.lft.to/lastmile_qr_scan", "android": "https://dc.lft.to/lastmile_qr_scan"}, "is_reserved": 0, "fusion_lon": 0.0, "fusion_lat": 0.0, "lon": -77.03991033333334, "name": "6a42215fc8d6195f71f3029d752a44e1"}, {"bike_id": "13d9f60611f91c4ad140bd073727e4a8", "type": "electric_scooter", "is_disabled": 0, "lat": 38.942886666666666, "rental_uris": {"ios": "https://dc.lft.to/lastmile_qr_scan", "android": "https://dc.lft.to/lastmile_qr_scan"}, "is_reserved": 0, "fusion_lon": 0.0, "fusion_lat": 0.0, "lon": -77.02173983333333, "name": "13d9f60611f91c4ad140bd073727e4a8"}, {"bike_id": "fd8ddc201d7402d82e94e90aecd74dc6", "type": "electric_scooter", "is_disabled": 0, "lat": 38.9118005, "rental_uris": {"ios": "https://dc.lft.to/lastmile_qr_scan", "android": "https://dc.lft.to/lastmile_qr_scan"}, "is_reserved": 0, "fusion_lon": 0.0, "fusion_lat": 0.0, "lon": -77.03204816666667, "name": "fd8ddc201d7402d82e94e90aecd74dc6"}, {"bike_id": "f1ccee42f091f06848a7afcfad56bad3", "type": "electric_scooter", "is_disabled": 0, "lat": 38.89712733333333, "rental_uris": {"ios": "https://dc.lft.to/lastmile_qr_scan", "android": "https://dc.lft.to/lastmile_qr_scan"}, "is_reserved": 0, "fusion_lon": 0.0, "fusion_lat": 0.0, "lon": -77.00752583333333, "name": "f1ccee42f091f06848a7afcfad56bad3"}, {"bike_id": "fdd6ac29b35d28107a15cb41303e5183", "type": "electric_scooter", "is_disabled": 0, "lat": 38.918387833333334, "rental_uris": {"ios": "https://dc.lft.to/lastmile_qr_scan", "android": "https://dc.lft.to/lastmile_qr_scan"}, "is_reserved": 0, "fusion_lon": 0.0, "fusion_lat": 0.0, "lon": -76.96559266666667, "name": "fdd6ac29b35d28107a15cb41303e5183"}, {"bike_id": "f44539633deed2988bab8237485e93d0", "type": "electric_scooter", "is_disabled": 0, "lat": 38.92892416666667, "rental_uris": {"ios": "https://dc.lft.to/lastmile_qr_scan", "android": "https://dc.lft.to/lastmile_qr_scan"}, "is_reserved": 0, "fusion_lon": 0.0, "fusion_lat": 0.0, "lon": -77.03283833333333, "name": "f44539633deed2988bab8237485e93d0"}, {"bike_id": "d464f9281157314b242371f289c322a1", "type": "electric_scooter", "is_disabled": 0, "lat": 38.9147815, "rental_uris": {"ios": "https://dc.lft.to/lastmile_qr_scan", "android": "https://dc.lft.to/lastmile_qr_scan"}, "is_reserved": 0, "fusion_lon": 0.0, "fusion_lat": 0.0, "lon": -77.00286433333333, "name": "d464f9281157314b242371f289c322a1"}, {"bike_id": "34d52b8d9ac7993c1314606ba0ef7579", "type": "electric_scooter", "is_disabled": 0, "lat": 38.8650215, "rental_uris": {"ios": "https://dc.lft.to/lastmile_qr_scan", "android": "https://dc.lft.to/lastmile_qr_scan"}, "is_reserved": 0, "fusion_lon": 0.0, "fusion_lat": 0.0, "lon": -76.9900295, "name": "34d52b8d9ac7993c1314606ba0ef7579"}, {"bike_id": "a4038867677ec0a530e4f5c26fa70209", "type": "electric_scooter", "is_disabled": 0, "lat": 38.92119566666667, "rental_uris": {"ios": "https://dc.lft.to/lastmile_qr_scan", "android": "https://dc.lft.to/lastmile_qr_scan"}, "is_reserved": 0, "fusion_lon": 0.0, "fusion_lat": 0.0, "lon": -77.01214516666667, "name": "a4038867677ec0a530e4f5c26fa70209"}, {"bike_id": "422a3edca793ddc9d0f1c7e3f6eb9a36", "type": "electric_scooter", "is_disabled": 0, "lat": 38.95730266666666, "rental_uris": {"ios": "https://dc.lft.to/lastmile_qr_scan", "android": "https://dc.lft.to/lastmile_qr_scan"}, "is_reserved": 0, "fusion_lon": 0.0, "fusion_lat": 0.0, "lon": -77.02802966666667, "name": "422a3edca793ddc9d0f1c7e3f6eb9a36"}, {"bike_id": "d3bdefbd4442db8644f9105455db9c93", "type": "electric_scooter", "is_disabled": 0, "lat": 38.89223666666667, "rental_uris": {"ios": "https://dc.lft.to/lastmile_qr_scan", "android": "https://dc.lft.to/lastmile_qr_scan"}, "is_reserved": 0, "fusion_lon": 0.0, "fusion_lat": 0.0, "lon": -77.01372383333333, "name": "d3bdefbd4442db8644f9105455db9c93"}, {"bike_id": "52311df7dd6ad429be822ea2113a3418", "type": "electric_scooter", "is_disabled": 0, "lat": 38.874957333333334, "rental_uris": {"ios": "https://dc.lft.to/lastmile_qr_scan", "android": "https://dc.lft.to/lastmile_qr_scan"}, "is_reserved": 0, "fusion_lon": 0.0, "fusion_lat": 0.0, "lon": -77.00096983333333, "name": "52311df7dd6ad429be822ea2113a3418"}, {"bike_id": "f8f9f450e98a8f1ffd674577784660c6", "type": "electric_scooter", "is_disabled": 0, "lat": 38.91549466666667, "rental_uris": {"ios": "https://dc.lft.to/lastmile_qr_scan", "android": "https://dc.lft.to/lastmile_qr_scan"}, "is_reserved": 0, "fusion_lon": 0.0, "fusion_lat": 0.0, "lon": -77.02570533333333, "name": "f8f9f450e98a8f1ffd674577784660c6"}, {"bike_id": "bbdd93715de54ec40ab27d822cc55161", "type": "electric_bike", "is_disabled": 0, "lat": 38.8535035, "rental_uris": {"ios": "https://dc.lft.to/lastmile_qr_scan", "android": "https://dc.lft.to/lastmile_qr_scan"}, "is_reserved": 0, "fusion_lon": 0.0, "fusion_lat": 0.0, "lon": -77.08689216666667, "name": "bbdd93715de54ec40ab27d822cc55161"}, {"bike_id": "3c5ccb615db43c6a5fd3c7067533affa", "type": "electric_scooter", "is_disabled": 0, "lat": 38.921502833333335, "rental_uris": {"ios": "https://dc.lft.to/lastmile_qr_scan", "android": "https://dc.lft.to/lastmile_qr_scan"}, "is_reserved": 0, "fusion_lon": 0.0, "fusion_lat": 0.0, "lon": -77.03519633333333, "name": "3c5ccb615db43c6a5fd3c7067533affa"}, {"bike_id": "fc89ac266e0565bb25c8d84f1dde18cf", "type": "electric_scooter", "is_disabled": 0, "lat": 38.917466833333336, "rental_uris": {"ios": "https://dc.lft.to/lastmile_qr_scan", "android": "https://dc.lft.to/lastmile_qr_scan"}, "is_reserved": 0, "fusion_lon": 0.0, "fusion_lat": 0.0, "lon": -77.03861633333334, "name": "fc89ac266e0565bb25c8d84f1dde18cf"}, {"bike_id": "998d4d29d9623efdd26ebcdb976c33e4", "type": "electric_bike", "is_disabled": 0, "lat": 38.89739066666667, "rental_uris": {"ios": "https://dc.lft.to/lastmile_qr_scan", "android": "https://dc.lft.to/lastmile_qr_scan"}, "is_reserved": 0, "fusion_lon": 0.0, "fusion_lat": 0.0, "lon": -76.92048816666667, "name": "998d4d29d9623efdd26ebcdb976c33e4"}, {"bike_id": "5a0682fc341c1767277419268a3c1ce9", "type": "electric_scooter", "is_disabled": 0, "lat": 38.92785133333334, "rental_uris": {"ios": "https://dc.lft.to/lastmile_qr_scan", "android": "https://dc.lft.to/lastmile_qr_scan"}, "is_reserved": 0, "fusion_lon": 0.0, "fusion_lat": 0.0, "lon": -77.04328066666666, "name": "5a0682fc341c1767277419268a3c1ce9"}, {"bike_id": "fc38d94edf55ea7e7faacbe294186d36", "type": "electric_scooter", "is_disabled": 0, "lat": 38.91818333333333, "rental_uris": {"ios": "https://dc.lft.to/lastmile_qr_scan", "android": "https://dc.lft.to/lastmile_qr_scan"}, "is_reserved": 0, "fusion_lon": 0.0, "fusion_lat": 0.0, "lon": -77.04947816666666, "name": "fc38d94edf55ea7e7faacbe294186d36"}, {"bike_id": "87771a0e417c275507927a8f5b711951", "type": "electric_scooter", "is_disabled": 0, "lat": 38.908746, "rental_uris": {"ios": "https://dc.lft.to/lastmile_qr_scan", "android": "https://dc.lft.to/lastmile_qr_scan"}, "is_reserved": 0, "fusion_lon": 0.0, "fusion_lat": 0.0, "lon": -76.9982605, "name": "87771a0e417c275507927a8f5b711951"}, {"bike_id": "a7b5de3a34eb61ca315b6f58f188f92a", "type": "electric_scooter", "is_disabled": 0, "lat": 38.90957516666667, "rental_uris": {"ios": "https://dc.lft.to/lastmile_qr_scan", "android": "https://dc.lft.to/lastmile_qr_scan"}, "is_reserved": 0, "fusion_lon": 0.0, "fusion_lat": 0.0, "lon": -77.0346575, "name": "a7b5de3a34eb61ca315b6f58f188f92a"}, {"bike_id": "155f719332c482319c3037ba6a1ce635", "type": "electric_scooter", "is_disabled": 0, "lat": 38.94308016666667, "rental_uris": {"ios": "https://dc.lft.to/lastmile_qr_scan", "android": "https://dc.lft.to/lastmile_qr_scan"}, "is_reserved": 0, "fusion_lon": 0.0, "fusion_lat": 0.0, "lon": -77.06206483333334, "name": "155f719332c482319c3037ba6a1ce635"}, {"bike_id": "f3bd7e8dd46ecc05ce8dc1a4fa802d38", "type": "electric_scooter", "is_disabled": 0, "lat": 38.90954983333334, "rental_uris": {"ios": "https://dc.lft.to/lastmile_qr_scan", "android": "https://dc.lft.to/lastmile_qr_scan"}, "is_reserved": 0, "fusion_lon": 0.0, "fusion_lat": 0.0, "lon": -77.03634516666666, "name": "f3bd7e8dd46ecc05ce8dc1a4fa802d38"}, {"bike_id": "96e0ff7c6c52ed0a0bed4d0091818f76", "type": "electric_scooter", "is_disabled": 0, "lat": 38.92189366666667, "rental_uris": {"ios": "https://dc.lft.to/lastmile_qr_scan", "android": "https://dc.lft.to/lastmile_qr_scan"}, "is_reserved": 0, "fusion_lon": 0.0, "fusion_lat": 0.0, "lon": -77.01973166666667, "name": "96e0ff7c6c52ed0a0bed4d0091818f76"}, {"bike_id": "ba0ccf307ef2e7b67cc56653af751c31", "type": "electric_scooter", "is_disabled": 0, "lat": 38.918516333333336, "rental_uris": {"ios": "https://dc.lft.to/lastmile_qr_scan", "android": "https://dc.lft.to/lastmile_qr_scan"}, "is_reserved": 0, "fusion_lon": 0.0, "fusion_lat": 0.0, "lon": -76.965582, "name": "ba0ccf307ef2e7b67cc56653af751c31"}, {"bike_id": "91a48ed8b341bdb833903ea1bd8dfd5c", "type": "electric_scooter", "is_disabled": 0, "lat": 38.922108333333334, "rental_uris": {"ios": "https://dc.lft.to/lastmile_qr_scan", "android": "https://dc.lft.to/lastmile_qr_scan"}, "is_reserved": 0, "fusion_lon": 0.0, "fusion_lat": 0.0, "lon": -77.03292133333333, "name": "91a48ed8b341bdb833903ea1bd8dfd5c"}, {"bike_id": "2a881f75b293b7e9c405667b05254910", "type": "electric_scooter", "is_disabled": 0, "lat": 38.9282905, "rental_uris": {"ios": "https://dc.lft.to/lastmile_qr_scan", "android": "https://dc.lft.to/lastmile_qr_scan"}, "is_reserved": 0, "fusion_lon": 0.0, "fusion_lat": 0.0, "lon": -77.05512716666667, "name": "2a881f75b293b7e9c405667b05254910"}, {"bike_id": "8b9f1e30d97c267de6978b8933bf2b19", "type": "electric_scooter", "is_disabled": 0, "lat": 38.903096166666664, "rental_uris": {"ios": "https://dc.lft.to/lastmile_qr_scan", "android": "https://dc.lft.to/lastmile_qr_scan"}, "is_reserved": 0, "fusion_lon": 0.0, "fusion_lat": 0.0, "lon": -77.0518705, "name": "8b9f1e30d97c267de6978b8933bf2b19"}, {"bike_id": "4c38bec4a63fd364cd138be83b1920df", "type": "electric_scooter", "is_disabled": 0, "lat": 38.910995, "rental_uris": {"ios": "https://dc.lft.to/lastmile_qr_scan", "android": "https://dc.lft.to/lastmile_qr_scan"}, "is_reserved": 0, "fusion_lon": 0.0, "fusion_lat": 0.0, "lon": -77.03791666666666, "name": "4c38bec4a63fd364cd138be83b1920df"}, {"bike_id": "10e82c00eca59f8b04f615a0f687cf6c", "type": "electric_scooter", "is_disabled": 0, "lat": 38.89616083333333, "rental_uris": {"ios": "https://dc.lft.to/lastmile_qr_scan", "android": "https://dc.lft.to/lastmile_qr_scan"}, "is_reserved": 0, "fusion_lon": 0.0, "fusion_lat": 0.0, "lon": -77.0312995, "name": "10e82c00eca59f8b04f615a0f687cf6c"}, {"bike_id": "bc62260bf338a7c067a2c8fac45c9479", "type": "electric_scooter", "is_disabled": 0, "lat": 38.9148545, "rental_uris": {"ios": "https://dc.lft.to/lastmile_qr_scan", "android": "https://dc.lft.to/lastmile_qr_scan"}, "is_reserved": 0, "fusion_lon": 0.0, "fusion_lat": 0.0, "lon": -77.04163566666666, "name": "bc62260bf338a7c067a2c8fac45c9479"}, {"bike_id": "e87bf153066f00a3c86385ba40246029", "type": "electric_bike", "is_disabled": 0, "lat": 38.84837783333333, "rental_uris": {"ios": "https://dc.lft.to/lastmile_qr_scan", "android": "https://dc.lft.to/lastmile_qr_scan"}, "is_reserved": 0, "fusion_lon": 0.0, "fusion_lat": 0.0, "lon": -77.07929583333333, "name": "e87bf153066f00a3c86385ba40246029"}, {"bike_id": "7a3ec71a0b1fbfeecb47ad17d2c1af1e", "type": "electric_scooter", "is_disabled": 0, "lat": 38.95113166666667, "rental_uris": {"ios": "https://dc.lft.to/lastmile_qr_scan", "android": "https://dc.lft.to/lastmile_qr_scan"}, "is_reserved": 0, "fusion_lon": 0.0, "fusion_lat": 0.0, "lon": -77.01432033333333, "name": "7a3ec71a0b1fbfeecb47ad17d2c1af1e"}, {"bike_id": "eec70564d0afe449b326fa348cd42e30", "type": "electric_scooter", "is_disabled": 0, "lat": 38.88187666666666, "rental_uris": {"ios": "https://dc.lft.to/lastmile_qr_scan", "android": "https://dc.lft.to/lastmile_qr_scan"}, "is_reserved": 0, "fusion_lon": 0.0, "fusion_lat": 0.0, "lon": -77.02086266666667, "name": "eec70564d0afe449b326fa348cd42e30"}, {"bike_id": "7d33fe8a81ab730b1870286c9bab3a5e", "type": "electric_scooter", "is_disabled": 0, "lat": 38.866708, "rental_uris": {"ios": "https://dc.lft.to/lastmile_qr_scan", "android": "https://dc.lft.to/lastmile_qr_scan"}, "is_reserved": 0, "fusion_lon": 0.0, "fusion_lat": 0.0, "lon": -76.98537166666667, "name": "7d33fe8a81ab730b1870286c9bab3a5e"}, {"bike_id": "e904819638feb7669b537001bf327fde", "type": "electric_scooter", "is_disabled": 0, "lat": 38.9319905, "rental_uris": {"ios": "https://dc.lft.to/lastmile_qr_scan", "android": "https://dc.lft.to/lastmile_qr_scan"}, "is_reserved": 0, "fusion_lon": 0.0, "fusion_lat": 0.0, "lon": -77.03857966666666, "name": "e904819638feb7669b537001bf327fde"}, {"bike_id": "01bee1eb18e59f2fe55dd02e62311f67", "type": "electric_bike", "is_disabled": 0, "lat": 38.942639, "rental_uris": {"ios": "https://dc.lft.to/lastmile_qr_scan", "android": "https://dc.lft.to/lastmile_qr_scan"}, "is_reserved": 0, "fusion_lon": 0.0, "fusion_lat": 0.0, "lon": -76.9906985, "name": "01bee1eb18e59f2fe55dd02e62311f67"}, {"bike_id": "ebe16c084c95b229063299d92f998c1b", "type": "electric_scooter", "is_disabled": 0, "lat": 38.898807166666664, "rental_uris": {"ios": "https://dc.lft.to/lastmile_qr_scan", "android": "https://dc.lft.to/lastmile_qr_scan"}, "is_reserved": 0, "fusion_lon": 0.0, "fusion_lat": 0.0, "lon": -76.9317525, "name": "ebe16c084c95b229063299d92f998c1b"}, {"bike_id": "c7be97eb265f8dbf6405a2c4f3b47b82", "type": "electric_scooter", "is_disabled": 0, "lat": 38.90497283333333, "rental_uris": {"ios": "https://dc.lft.to/lastmile_qr_scan", "android": "https://dc.lft.to/lastmile_qr_scan"}, "is_reserved": 0, "fusion_lon": 0.0, "fusion_lat": 0.0, "lon": -77.06884633333334, "name": "c7be97eb265f8dbf6405a2c4f3b47b82"}, {"bike_id": "a9bc50a9940ff9cfac76d1bf54e7d8db", "type": "electric_bike", "is_disabled": 0, "lat": 38.88635416666666, "rental_uris": {"ios": "https://dc.lft.to/lastmile_qr_scan", "android": "https://dc.lft.to/lastmile_qr_scan"}, "is_reserved": 0, "fusion_lon": 0.0, "fusion_lat": 0.0, "lon": -77.1298515, "name": "a9bc50a9940ff9cfac76d1bf54e7d8db"}, {"bike_id": "fa7694f250c29d4670a15534430e26b3", "type": "electric_scooter", "is_disabled": 0, "lat": 38.89830033333333, "rental_uris": {"ios": "https://dc.lft.to/lastmile_qr_scan", "android": "https://dc.lft.to/lastmile_qr_scan"}, "is_reserved": 0, "fusion_lon": 0.0, "fusion_lat": 0.0, "lon": -77.03335733333333, "name": "fa7694f250c29d4670a15534430e26b3"}, {"bike_id": "7727d7681f91feea36577f6bd2b6a41a", "type": "electric_scooter", "is_disabled": 0, "lat": 38.900530833333335, "rental_uris": {"ios": "https://dc.lft.to/lastmile_qr_scan", "android": "https://dc.lft.to/lastmile_qr_scan"}, "is_reserved": 0, "fusion_lon": 0.0, "fusion_lat": 0.0, "lon": -77.01296183333334, "name": "7727d7681f91feea36577f6bd2b6a41a"}, {"bike_id": "db481d25934b7c15af54c219d79b9593", "type": "electric_scooter", "is_disabled": 0, "lat": 38.87628216666667, "rental_uris": {"ios": "https://dc.lft.to/lastmile_qr_scan", "android": "https://dc.lft.to/lastmile_qr_scan"}, "is_reserved": 0, "fusion_lon": 0.0, "fusion_lat": 0.0, "lon": -76.96526333333334, "name": "db481d25934b7c15af54c219d79b9593"}, {"bike_id": "6d0f6be5c3d81fb3dd6b8d9a3e6dd04e", "type": "electric_scooter", "is_disabled": 0, "lat": 38.90065083333333, "rental_uris": {"ios": "https://dc.lft.to/lastmile_qr_scan", "android": "https://dc.lft.to/lastmile_qr_scan"}, "is_reserved": 0, "fusion_lon": 0.0, "fusion_lat": 0.0, "lon": -76.9274235, "name": "6d0f6be5c3d81fb3dd6b8d9a3e6dd04e"}, {"bike_id": "b63f62c5960ad1ba5c52726beeb3f371", "type": "electric_scooter", "is_disabled": 0, "lat": 38.939149666666665, "rental_uris": {"ios": "https://dc.lft.to/lastmile_qr_scan", "android": "https://dc.lft.to/lastmile_qr_scan"}, "is_reserved": 0, "fusion_lon": 0.0, "fusion_lat": 0.0, "lon": -77.036836, "name": "b63f62c5960ad1ba5c52726beeb3f371"}, {"bike_id": "89966c8e64b1147dcd8b636d89d32ba7", "type": "electric_scooter", "is_disabled": 0, "lat": 38.949930333333334, "rental_uris": {"ios": "https://dc.lft.to/lastmile_qr_scan", "android": "https://dc.lft.to/lastmile_qr_scan"}, "is_reserved": 0, "fusion_lon": 0.0, "fusion_lat": 0.0, "lon": -77.01832366666666, "name": "89966c8e64b1147dcd8b636d89d32ba7"}, {"bike_id": "cb31b9c4a8e88d606676f84b4050e833", "type": "electric_scooter", "is_disabled": 0, "lat": 38.905923666666666, "rental_uris": {"ios": "https://dc.lft.to/lastmile_qr_scan", "android": "https://dc.lft.to/lastmile_qr_scan"}, "is_reserved": 0, "fusion_lon": 0.0, "fusion_lat": 0.0, "lon": -77.05156983333333, "name": "cb31b9c4a8e88d606676f84b4050e833"}, {"bike_id": "b9b957527c2439133d431551b0d52c5a", "type": "electric_scooter", "is_disabled": 0, "lat": 38.916997333333335, "rental_uris": {"ios": "https://dc.lft.to/lastmile_qr_scan", "android": "https://dc.lft.to/lastmile_qr_scan"}, "is_reserved": 0, "fusion_lon": 0.0, "fusion_lat": 0.0, "lon": -77.02409533333334, "name": "b9b957527c2439133d431551b0d52c5a"}, {"bike_id": "8b36f2166eab2b768abebf75a8c2eebb", "type": "electric_scooter", "is_disabled": 0, "lat": 38.917096666666666, "rental_uris": {"ios": "https://dc.lft.to/lastmile_qr_scan", "android": "https://dc.lft.to/lastmile_qr_scan"}, "is_reserved": 0, "fusion_lon": 0.0, "fusion_lat": 0.0, "lon": -77.034908, "name": "8b36f2166eab2b768abebf75a8c2eebb"}, {"bike_id": "65b5e1d2597ab97ecb3d5dee5875c515", "type": "electric_scooter", "is_disabled": 0, "lat": 38.916294, "rental_uris": {"ios": "https://dc.lft.to/lastmile_qr_scan", "android": "https://dc.lft.to/lastmile_qr_scan"}, "is_reserved": 0, "fusion_lon": 0.0, "fusion_lat": 0.0, "lon": -77.02229916666667, "name": "65b5e1d2597ab97ecb3d5dee5875c515"}, {"bike_id": "a703b68dad882d1c3bc82d7faef8c2c7", "type": "electric_bike", "is_disabled": 0, "lat": 38.90990516666667, "rental_uris": {"ios": "https://dc.lft.to/lastmile_qr_scan", "android": "https://dc.lft.to/lastmile_qr_scan"}, "is_reserved": 0, "fusion_lon": 0.0, "fusion_lat": 0.0, "lon": -77.04634116666666, "name": "a703b68dad882d1c3bc82d7faef8c2c7"}, {"bike_id": "7ddde60a961260a0838b58a3b69a5d51", "type": "electric_scooter", "is_disabled": 0, "lat": 38.922346833333336, "rental_uris": {"ios": "https://dc.lft.to/lastmile_qr_scan", "android": "https://dc.lft.to/lastmile_qr_scan"}, "is_reserved": 0, "fusion_lon": 0.0, "fusion_lat": 0.0, "lon": -77.03705283333333, "name": "7ddde60a961260a0838b58a3b69a5d51"}, {"bike_id": "b30e00fea0df020ff6a2b3ed0ac5995c", "type": "electric_scooter", "is_disabled": 0, "lat": 38.9040495, "rental_uris": {"ios": "https://dc.lft.to/lastmile_qr_scan", "android": "https://dc.lft.to/lastmile_qr_scan"}, "is_reserved": 0, "fusion_lon": 0.0, "fusion_lat": 0.0, "lon": -76.97330083333334, "name": "b30e00fea0df020ff6a2b3ed0ac5995c"}, {"bike_id": "9f644df8ccf3d9aa1e689a5a12d2e26b", "type": "electric_bike", "is_disabled": 0, "lat": 38.94465233333333, "rental_uris": {"ios": "https://dc.lft.to/lastmile_qr_scan", "android": "https://dc.lft.to/lastmile_qr_scan"}, "is_reserved": 0, "fusion_lon": 0.0, "fusion_lat": 0.0, "lon": -76.98692983333333, "name": "9f644df8ccf3d9aa1e689a5a12d2e26b"}, {"bike_id": "59cd8836aadc3de9a55e60f3f4f1cef9", "type": "electric_scooter", "is_disabled": 0, "lat": 38.86659266666667, "rental_uris": {"ios": "https://dc.lft.to/lastmile_qr_scan", "android": "https://dc.lft.to/lastmile_qr_scan"}, "is_reserved": 0, "fusion_lon": 0.0, "fusion_lat": 0.0, "lon": -76.98884616666666, "name": "59cd8836aadc3de9a55e60f3f4f1cef9"}, {"bike_id": "d5a8b8a69e7a61c88880d2585d721d78", "type": "electric_scooter", "is_disabled": 0, "lat": 38.9215725, "rental_uris": {"ios": "https://dc.lft.to/lastmile_qr_scan", "android": "https://dc.lft.to/lastmile_qr_scan"}, "is_reserved": 0, "fusion_lon": 0.0, "fusion_lat": 0.0, "lon": -77.03346066666667, "name": "d5a8b8a69e7a61c88880d2585d721d78"}, {"bike_id": "d9a44a8f1aeec609210263a0b50d2ff2", "type": "electric_scooter", "is_disabled": 0, "lat": 38.903698166666665, "rental_uris": {"ios": "https://dc.lft.to/lastmile_qr_scan", "android": "https://dc.lft.to/lastmile_qr_scan"}, "is_reserved": 0, "fusion_lon": 0.0, "fusion_lat": 0.0, "lon": -77.02201766666667, "name": "d9a44a8f1aeec609210263a0b50d2ff2"}, {"bike_id": "44257cfb1d15d1d718f0d4398032f79b", "type": "electric_scooter", "is_disabled": 0, "lat": 38.91712733333333, "rental_uris": {"ios": "https://dc.lft.to/lastmile_qr_scan", "android": "https://dc.lft.to/lastmile_qr_scan"}, "is_reserved": 0, "fusion_lon": 0.0, "fusion_lat": 0.0, "lon": -77.012159, "name": "44257cfb1d15d1d718f0d4398032f79b"}, {"bike_id": "658ad1205ca33496b126c829ae3f9654", "type": "electric_bike", "is_disabled": 0, "lat": 38.84960483333333, "rental_uris": {"ios": "https://dc.lft.to/lastmile_qr_scan", "android": "https://dc.lft.to/lastmile_qr_scan"}, "is_reserved": 0, "fusion_lon": 0.0, "fusion_lat": 0.0, "lon": -77.077614, "name": "658ad1205ca33496b126c829ae3f9654"}, {"bike_id": "b960fea856d81f027be4078e6847b7dd", "type": "electric_scooter", "is_disabled": 0, "lat": 38.905842666666665, "rental_uris": {"ios": "https://dc.lft.to/lastmile_qr_scan", "android": "https://dc.lft.to/lastmile_qr_scan"}, "is_reserved": 0, "fusion_lon": 0.0, "fusion_lat": 0.0, "lon": -77.05698216666667, "name": "b960fea856d81f027be4078e6847b7dd"}, {"bike_id": "2521fc82bc7b487a2316dd9ecad4eee2", "type": "electric_scooter", "is_disabled": 0, "lat": 38.905947, "rental_uris": {"ios": "https://dc.lft.to/lastmile_qr_scan", "android": "https://dc.lft.to/lastmile_qr_scan"}, "is_reserved": 0, "fusion_lon": 0.0, "fusion_lat": 0.0, "lon": -77.02706733333333, "name": "2521fc82bc7b487a2316dd9ecad4eee2"}, {"bike_id": "cf87a8361f011a8e08ccf17bc853cf3d", "type": "electric_scooter", "is_disabled": 0, "lat": 38.897341833333336, "rental_uris": {"ios": "https://dc.lft.to/lastmile_qr_scan", "android": "https://dc.lft.to/lastmile_qr_scan"}, "is_reserved": 0, "fusion_lon": 0.0, "fusion_lat": 0.0, "lon": -77.05477216666667, "name": "cf87a8361f011a8e08ccf17bc853cf3d"}, {"bike_id": "b859b79053ae130da4066e2b08b54054", "type": "electric_scooter", "is_disabled": 0, "lat": 38.91502633333333, "rental_uris": {"ios": "https://dc.lft.to/lastmile_qr_scan", "android": "https://dc.lft.to/lastmile_qr_scan"}, "is_reserved": 0, "fusion_lon": 0.0, "fusion_lat": 0.0, "lon": -77.01778633333333, "name": "b859b79053ae130da4066e2b08b54054"}, {"bike_id": "e470433bc9d8274ce4b58ea6df94442d", "type": "electric_scooter", "is_disabled": 0, "lat": 38.872417666666664, "rental_uris": {"ios": "https://dc.lft.to/lastmile_qr_scan", "android": "https://dc.lft.to/lastmile_qr_scan"}, "is_reserved": 0, "fusion_lon": 0.0, "fusion_lat": 0.0, "lon": -76.97724666666667, "name": "e470433bc9d8274ce4b58ea6df94442d"}, {"bike_id": "b05f5d73c07fc7255b62255321579dac", "type": "electric_scooter", "is_disabled": 0, "lat": 38.9234025, "rental_uris": {"ios": "https://dc.lft.to/lastmile_qr_scan", "android": "https://dc.lft.to/lastmile_qr_scan"}, "is_reserved": 0, "fusion_lon": 0.0, "fusion_lat": 0.0, "lon": -77.0511725, "name": "b05f5d73c07fc7255b62255321579dac"}, {"bike_id": "eb516f43274ca55f9e98018d0515df0a", "type": "electric_scooter", "is_disabled": 0, "lat": 38.903040833333336, "rental_uris": {"ios": "https://dc.lft.to/lastmile_qr_scan", "android": "https://dc.lft.to/lastmile_qr_scan"}, "is_reserved": 0, "fusion_lon": 0.0, "fusion_lat": 0.0, "lon": -77.065522, "name": "eb516f43274ca55f9e98018d0515df0a"}, {"bike_id": "0369f31f2651642fec647989114fc60c", "type": "electric_scooter", "is_disabled": 0, "lat": 38.91032283333333, "rental_uris": {"ios": "https://dc.lft.to/lastmile_qr_scan", "android": "https://dc.lft.to/lastmile_qr_scan"}, "is_reserved": 0, "fusion_lon": 0.0, "fusion_lat": 0.0, "lon": -77.03805283333334, "name": "0369f31f2651642fec647989114fc60c"}, {"bike_id": "4ab928bc59d621b553714b140df4dcc6", "type": "electric_scooter", "is_disabled": 0, "lat": 38.9092695, "rental_uris": {"ios": "https://dc.lft.to/lastmile_qr_scan", "android": "https://dc.lft.to/lastmile_qr_scan"}, "is_reserved": 0, "fusion_lon": 0.0, "fusion_lat": 0.0, "lon": -77.0554115, "name": "4ab928bc59d621b553714b140df4dcc6"}, {"bike_id": "bc9c5ab3f90e989995a4af7bcabdcb6f", "type": "electric_scooter", "is_disabled": 0, "lat": 38.91909733333333, "rental_uris": {"ios": "https://dc.lft.to/lastmile_qr_scan", "android": "https://dc.lft.to/lastmile_qr_scan"}, "is_reserved": 0, "fusion_lon": 0.0, "fusion_lat": 0.0, "lon": -77.03109016666667, "name": "bc9c5ab3f90e989995a4af7bcabdcb6f"}, {"bike_id": "28d7a51300d8b06cd7c32e9e3bd2e114", "type": "electric_scooter", "is_disabled": 0, "lat": 38.90956083333333, "rental_uris": {"ios": "https://dc.lft.to/lastmile_qr_scan", "android": "https://dc.lft.to/lastmile_qr_scan"}, "is_reserved": 0, "fusion_lon": 0.0, "fusion_lat": 0.0, "lon": -77.03263333333334, "name": "28d7a51300d8b06cd7c32e9e3bd2e114"}, {"bike_id": "8a189585b7686c7ad52fd468a5e05845", "type": "electric_scooter", "is_disabled": 0, "lat": 38.956278, "rental_uris": {"ios": "https://dc.lft.to/lastmile_qr_scan", "android": "https://dc.lft.to/lastmile_qr_scan"}, "is_reserved": 0, "fusion_lon": 0.0, "fusion_lat": 0.0, "lon": -77.03627333333333, "name": "8a189585b7686c7ad52fd468a5e05845"}, {"bike_id": "e6f5c0c2cd9e5a4f6e08fcb501d83e88", "type": "electric_scooter", "is_disabled": 0, "lat": 38.90730666666666, "rental_uris": {"ios": "https://dc.lft.to/lastmile_qr_scan", "android": "https://dc.lft.to/lastmile_qr_scan"}, "is_reserved": 0, "fusion_lon": 0.0, "fusion_lat": 0.0, "lon": -77.04517766666666, "name": "e6f5c0c2cd9e5a4f6e08fcb501d83e88"}, {"bike_id": "fb8ce69ed3cb32bdb759a9c5e19fdd7d", "type": "electric_scooter", "is_disabled": 0, "lat": 38.923257666666665, "rental_uris": {"ios": "https://dc.lft.to/lastmile_qr_scan", "android": "https://dc.lft.to/lastmile_qr_scan"}, "is_reserved": 0, "fusion_lon": 0.0, "fusion_lat": 0.0, "lon": -77.03779216666666, "name": "fb8ce69ed3cb32bdb759a9c5e19fdd7d"}, {"bike_id": "6be4ac23c6853ddd1ede4d4f6dc563a8", "type": "electric_scooter", "is_disabled": 0, "lat": 38.901150333333334, "rental_uris": {"ios": "https://dc.lft.to/lastmile_qr_scan", "android": "https://dc.lft.to/lastmile_qr_scan"}, "is_reserved": 0, "fusion_lon": 0.0, "fusion_lat": 0.0, "lon": -76.92955483333333, "name": "6be4ac23c6853ddd1ede4d4f6dc563a8"}, {"bike_id": "e3428176c2e30fb1544b3f1d1dc1e118", "type": "electric_scooter", "is_disabled": 0, "lat": 38.8853205, "rental_uris": {"ios": "https://dc.lft.to/lastmile_qr_scan", "android": "https://dc.lft.to/lastmile_qr_scan"}, "is_reserved": 0, "fusion_lon": 0.0, "fusion_lat": 0.0, "lon": -76.99820983333333, "name": "e3428176c2e30fb1544b3f1d1dc1e118"}, {"bike_id": "7c5e475cb5aca80c595942df6fc48091", "type": "electric_bike", "is_disabled": 0, "lat": 38.973912166666665, "rental_uris": {"ios": "https://dc.lft.to/lastmile_qr_scan", "android": "https://dc.lft.to/lastmile_qr_scan"}, "is_reserved": 0, "fusion_lon": 0.0, "fusion_lat": 0.0, "lon": -77.06455983333333, "name": "7c5e475cb5aca80c595942df6fc48091"}, {"bike_id": "39ea3dbf336e70c0d935a2749b96263b", "type": "electric_scooter", "is_disabled": 0, "lat": 38.90464633333333, "rental_uris": {"ios": "https://dc.lft.to/lastmile_qr_scan", "android": "https://dc.lft.to/lastmile_qr_scan"}, "is_reserved": 0, "fusion_lon": 0.0, "fusion_lat": 0.0, "lon": -76.97611566666667, "name": "39ea3dbf336e70c0d935a2749b96263b"}, {"bike_id": "033a597a70cffda5591fc7a38ca9bf38", "type": "electric_scooter", "is_disabled": 0, "lat": 38.906772, "rental_uris": {"ios": "https://dc.lft.to/lastmile_qr_scan", "android": "https://dc.lft.to/lastmile_qr_scan"}, "is_reserved": 0, "fusion_lon": 0.0, "fusion_lat": 0.0, "lon": -76.98012116666666, "name": "033a597a70cffda5591fc7a38ca9bf38"}, {"bike_id": "23e5d21763a6154e63c6e9fa22c3248f", "type": "electric_scooter", "is_disabled": 0, "lat": 38.904678833333335, "rental_uris": {"ios": "https://dc.lft.to/lastmile_qr_scan", "android": "https://dc.lft.to/lastmile_qr_scan"}, "is_reserved": 0, "fusion_lon": 0.0, "fusion_lat": 0.0, "lon": -77.02812483333334, "name": "23e5d21763a6154e63c6e9fa22c3248f"}, {"bike_id": "59661c77fe43e6fd63f178947deae0e8", "type": "electric_scooter", "is_disabled": 0, "lat": 38.92155066666667, "rental_uris": {"ios": "https://dc.lft.to/lastmile_qr_scan", "android": "https://dc.lft.to/lastmile_qr_scan"}, "is_reserved": 0, "fusion_lon": 0.0, "fusion_lat": 0.0, "lon": -77.03525316666666, "name": "59661c77fe43e6fd63f178947deae0e8"}, {"bike_id": "d99e03c48a0a34a4ab6bcb6edd06e3dc", "type": "electric_scooter", "is_disabled": 0, "lat": 38.94849966666666, "rental_uris": {"ios": "https://dc.lft.to/lastmile_qr_scan", "android": "https://dc.lft.to/lastmile_qr_scan"}, "is_reserved": 0, "fusion_lon": 0.0, "fusion_lat": 0.0, "lon": -77.0802545, "name": "d99e03c48a0a34a4ab6bcb6edd06e3dc"}, {"bike_id": "2b781afb4563810b5ecb01759a732292", "type": "electric_scooter", "is_disabled": 0, "lat": 38.916581, "rental_uris": {"ios": "https://dc.lft.to/lastmile_qr_scan", "android": "https://dc.lft.to/lastmile_qr_scan"}, "is_reserved": 0, "fusion_lon": 0.0, "fusion_lat": 0.0, "lon": -77.043867, "name": "2b781afb4563810b5ecb01759a732292"}, {"bike_id": "2404b43fffab97fe77f06645c3183210", "type": "electric_scooter", "is_disabled": 0, "lat": 38.892149833333335, "rental_uris": {"ios": "https://dc.lft.to/lastmile_qr_scan", "android": "https://dc.lft.to/lastmile_qr_scan"}, "is_reserved": 0, "fusion_lon": 0.0, "fusion_lat": 0.0, "lon": -77.03027283333333, "name": "2404b43fffab97fe77f06645c3183210"}, {"bike_id": "58618da48f582a9536e839969c6e1995", "type": "electric_scooter", "is_disabled": 0, "lat": 38.902369666666665, "rental_uris": {"ios": "https://dc.lft.to/lastmile_qr_scan", "android": "https://dc.lft.to/lastmile_qr_scan"}, "is_reserved": 0, "fusion_lon": 0.0, "fusion_lat": 0.0, "lon": -77.0019765, "name": "58618da48f582a9536e839969c6e1995"}, {"bike_id": "93f0057c92f67ffb7338c3941db7134c", "type": "electric_scooter", "is_disabled": 0, "lat": 38.93143533333333, "rental_uris": {"ios": "https://dc.lft.to/lastmile_qr_scan", "android": "https://dc.lft.to/lastmile_qr_scan"}, "is_reserved": 0, "fusion_lon": 0.0, "fusion_lat": 0.0, "lon": -77.03362566666667, "name": "93f0057c92f67ffb7338c3941db7134c"}, {"bike_id": "bbe6f8105dd164bae085c4795936d208", "type": "electric_scooter", "is_disabled": 0, "lat": 38.92967516666667, "rental_uris": {"ios": "https://dc.lft.to/lastmile_qr_scan", "android": "https://dc.lft.to/lastmile_qr_scan"}, "is_reserved": 0, "fusion_lon": 0.0, "fusion_lat": 0.0, "lon": -77.04374383333334, "name": "bbe6f8105dd164bae085c4795936d208"}, {"bike_id": "3b3cf7cc4af3ea331eebac4bea9c8279", "type": "electric_bike", "is_disabled": 0, "lat": 38.882419, "rental_uris": {"ios": "https://dc.lft.to/lastmile_qr_scan", "android": "https://dc.lft.to/lastmile_qr_scan"}, "is_reserved": 0, "fusion_lon": 0.0, "fusion_lat": 0.0, "lon": -76.962591, "name": "3b3cf7cc4af3ea331eebac4bea9c8279"}, {"bike_id": "04a4e0a7535c3fa50f66b3d7b18ede8a", "type": "electric_bike", "is_disabled": 0, "lat": 38.932251666666666, "rental_uris": {"ios": "https://dc.lft.to/lastmile_qr_scan", "android": "https://dc.lft.to/lastmile_qr_scan"}, "is_reserved": 0, "fusion_lon": 0.0, "fusion_lat": 0.0, "lon": -77.18125116666667, "name": "04a4e0a7535c3fa50f66b3d7b18ede8a"}, {"bike_id": "9b969191197ea0904d557ef464bacde1", "type": "electric_scooter", "is_disabled": 0, "lat": 38.916073, "rental_uris": {"ios": "https://dc.lft.to/lastmile_qr_scan", "android": "https://dc.lft.to/lastmile_qr_scan"}, "is_reserved": 0, "fusion_lon": 0.0, "fusion_lat": 0.0, "lon": -77.048779, "name": "9b969191197ea0904d557ef464bacde1"}, {"bike_id": "90431c65d0da37acfb7583da5477013b", "type": "electric_scooter", "is_disabled": 0, "lat": 38.925444666666664, "rental_uris": {"ios": "https://dc.lft.to/lastmile_qr_scan", "android": "https://dc.lft.to/lastmile_qr_scan"}, "is_reserved": 0, "fusion_lon": 0.0, "fusion_lat": 0.0, "lon": -77.03231366666667, "name": "90431c65d0da37acfb7583da5477013b"}, {"bike_id": "d44a42240f0d6d1bd049b334646cf096", "type": "electric_scooter", "is_disabled": 0, "lat": 38.910729833333335, "rental_uris": {"ios": "https://dc.lft.to/lastmile_qr_scan", "android": "https://dc.lft.to/lastmile_qr_scan"}, "is_reserved": 0, "fusion_lon": 0.0, "fusion_lat": 0.0, "lon": -77.03728416666667, "name": "d44a42240f0d6d1bd049b334646cf096"}, {"bike_id": "0f3379bf857649ce4e2c234195ddd304", "type": "electric_scooter", "is_disabled": 0, "lat": 38.91693266666667, "rental_uris": {"ios": "https://dc.lft.to/lastmile_qr_scan", "android": "https://dc.lft.to/lastmile_qr_scan"}, "is_reserved": 0, "fusion_lon": 0.0, "fusion_lat": 0.0, "lon": -77.0374795, "name": "0f3379bf857649ce4e2c234195ddd304"}, {"bike_id": "ab9e7476a069742d1d15c325ccacf688", "type": "electric_scooter", "is_disabled": 0, "lat": 38.934536, "rental_uris": {"ios": "https://dc.lft.to/lastmile_qr_scan", "android": "https://dc.lft.to/lastmile_qr_scan"}, "is_reserved": 0, "fusion_lon": 0.0, "fusion_lat": 0.0, "lon": -77.02797283333334, "name": "ab9e7476a069742d1d15c325ccacf688"},