{"data": {"bikes": [{"type": "electric_scooter", "fusion_lon": 0.0, "bike_id": "7592de87a2489c4c402bd4433caf314e", "is_disabled": 0, "lat": 38.84056066666667, "rental_uris": {"ios": "https://dc.lft.to/lastmile_qr_scan", "android": "https://dc.lft.to/lastmile_qr_scan"}, "is_reserved": 0, "lon": -76.97666583333333, "fusion_lat": 0.0, "name": "7592de87a2489c4c402bd4433caf314e"}, {"type": "electric_scooter", "fusion_lon": 0.0, "bike_id": "b456afd07f148d71729892e6f24f0dd5", "is_disabled": 0, "lat": 38.93200083333333, "rental_uris": {"ios": "https://dc.lft.to/lastmile_qr_scan", "android": "https://dc.lft.to/lastmile_qr_scan"}, "is_reserved": 0, "lon": -77.029633, "fusion_lat": 0.0, "name": "b456afd07f148d71729892e6f24f0dd5"}, {"type": "electric_scooter", "fusion_lon": 0.0, "bike_id": "a4c91880d651924c2a705d598fa9b191", "is_disabled": 0, "lat": 38.90231033333333, "rental_uris": {"ios": "https://dc.lft.to/lastmile_qr_scan", "android": "https://dc.lft.to/lastmile_qr_scan"}, "is_reserved": 0, "lon": -77.001985, "fusion_lat": 0.0, "name": "a4c91880d651924c2a705d598fa9b191"}, {"type": "electric_scooter", "fusion_lon": 0.0, "bike_id": "57d98f6c540ef5477c482d9e137b31dc", "is_disabled": 0, "lat": 38.92334666666667, "rental_uris": {"ios": "https://dc.lft.to/lastmile_qr_scan", "android": "https://dc.lft.to/lastmile_qr_scan"}, "is_reserved": 0, "lon": -77.04385583333334, "fusion_lat": 0.0, "name": "57d98f6c540ef5477c482d9e137b31dc"}, {"type": "electric_scooter", "fusion_lon": 0.0, "bike_id": "0847aa057f6892d2410f6f15286636a8", "is_disabled": 0, "lat": 38.91812216666667, "rental_uris": {"ios": "https://dc.lft.to/lastmile_qr_scan", "android": "https://dc.lft.to/lastmile_qr_scan"}, "is_reserved": 0, "lon": -77.034356, "fusion_lat": 0.0, "name": "0847aa057f6892d2410f6f15286636a8"}, {"type": "electric_scooter", "fusion_lon": 0.0, "bike_id": "5dccfd4d0ccea49936e05f1030afb777", "is_disabled": 0, "lat": 38.9077945, "rental_uris": {"ios": "https://dc.lft.to/lastmile_qr_scan", "android": "https://dc.lft.to/lastmile_qr_scan"}, "is_reserved": 0, "lon": -77.0723945, "fusion_lat": 0.0, "name": "5dccfd4d0ccea49936e05f1030afb777"}, {"type": "electric_scooter", "fusion_lon": 0.0, "bike_id": "03e39e9a77ed6112833926cba0eb1540", "is_disabled": 0, "lat": 38.90684666666667, "rental_uris": {"ios": "https://dc.lft.to/lastmile_qr_scan", "android": "https://dc.lft.to/lastmile_qr_scan"}, "is_reserved": 0, "lon": -77.0090875, "fusion_lat": 0.0, "name": "03e39e9a77ed6112833926cba0eb1540"}, {"type": "electric_scooter", "fusion_lon": 0.0, "bike_id": "ca43c6a68154f05ddcdec6cbef9f557d", "is_disabled": 0, "lat": 38.921010833333334, "rental_uris": {"ios": "https://dc.lft.to/lastmile_qr_scan", "android": "https://dc.lft.to/lastmile_qr_scan"}, "is_reserved": 0, "lon": -77.02528583333333, "fusion_lat": 0.0, "name": "ca43c6a68154f05ddcdec6cbef9f557d"}, {"type": "electric_scooter", "fusion_lon": 0.0, "bike_id": "1ccf352eca26be8abcfe0a25fdd5453c", "is_disabled": 0, "lat": 38.91004866666667, "rental_uris": {"ios": "https://dc.lft.to/lastmile_qr_scan", "android": "https://dc.lft.to/lastmile_qr_scan"}, "is_reserved": 0, "lon": -77.03830366666666, "fusion_lat": 0.0, "name": "1ccf352eca26be8abcfe0a25fdd5453c"}, {"type": "electric_scooter", "fusion_lon": 0.0, "bike_id": "988af05d9e548ad908d90e795e9593a2", "is_disabled": 0, "lat": 38.926682666666665, "rental_uris": {"ios": "https://dc.lft.to/lastmile_qr_scan", "android": "https://dc.lft.to/lastmile_qr_scan"}, "is_reserved": 0, "lon": -77.02116466666666, "fusion_lat": 0.0, "name": "988af05d9e548ad908d90e795e9593a2"}, {"type": "electric_scooter", "fusion_lon": 0.0, "bike_id": "e6b013c9db263d013b9dc2dc07ed07c6", "is_disabled": 0, "lat": 38.9124205, "rental_uris": {"ios": "https://dc.lft.to/lastmile_qr_scan", "android": "https://dc.lft.to/lastmile_qr_scan"}, "is_reserved": 0, "lon": -77.0628325, "fusion_lat": 0.0, "name": "e6b013c9db263d013b9dc2dc07ed07c6"}, {"type": "electric_scooter", "fusion_lon": 0.0, "bike_id": "30c12361a56e6d0625fd1c8915cf7e01", "is_disabled": 0, "lat": 38.9246475, "rental_uris": {"ios": "https://dc.lft.to/lastmile_qr_scan", "android": "https://dc.lft.to/lastmile_qr_scan"}, "is_reserved": 0, "lon": -77.02713133333333, "fusion_lat": 0.0, "name": "30c12361a56e6d0625fd1c8915cf7e01"}, {"type": "electric_scooter", "fusion_lon": 0.0, "bike_id": "9a58ad1d933d96b94800c83b96a7c47c", "is_disabled": 0, "lat": 38.92986416666667, "rental_uris": {"ios": "https://dc.lft.to/lastmile_qr_scan", "android": "https://dc.lft.to/lastmile_qr_scan"}, "is_reserved": 0, "lon": -77.027704, "fusion_lat": 0.0, "name": "9a58ad1d933d96b94800c83b96a7c47c"}, {"type": "electric_scooter", "fusion_lon": 0.0, "bike_id": "fcc867521fbe75f960f436438d31f09c", "is_disabled": 0, "lat": 38.904238166666666, "rental_uris": {"ios": "https://dc.lft.to/lastmile_qr_scan", "android": "https://dc.lft.to/lastmile_qr_scan"}, "is_reserved": 0, "lon": -77.04838833333334, "fusion_lat": 0.0, "name": "fcc867521fbe75f960f436438d31f09c"}, {"type": "electric_scooter", "fusion_lon": 0.0, "bike_id": "128b8873c20c0f1ddaf07d31b14b84b2", "is_disabled": 0, "lat": 38.94330016666667, "rental_uris": {"ios": "https://dc.lft.to/lastmile_qr_scan", "android": "https://dc.lft.to/lastmile_qr_scan"}, "is_reserved": 0, "lon": -77.0613445, "fusion_lat": 0.0, "name": "128b8873c20c0f1ddaf07d31b14b84b2"}, {"type": "electric_scooter", "fusion_lon": 0.0, "bike_id": "45d50008a6ca38ba0b72a3d86b81c93d", "is_disabled": 0, "lat": 38.88960733333333, "rental_uris": {"ios": "https://dc.lft.to/lastmile_qr_scan", "android": "https://dc.lft.to/lastmile_qr_scan"}, "is_reserved": 0, "lon": -76.98083616666666, "fusion_lat": 0.0, "name": "45d50008a6ca38ba0b72a3d86b81c93d"}, {"type": "electric_scooter", "fusion_lon": 0.0, "bike_id": "f2b7a909437fdaf4d35805ec918bf596", "is_disabled": 0, "lat": 38.922073, "rental_uris": {"ios": "https://dc.lft.to/lastmile_qr_scan", "android": "https://dc.lft.to/lastmile_qr_scan"}, "is_reserved": 0, "lon": -77.04189716666667, "fusion_lat": 0.0, "name": "f2b7a909437fdaf4d35805ec918bf596"}, {"type": "electric_scooter", "fusion_lon": 0.0, "bike_id": "c2432b8d180285a104f0917a6bd78afb", "is_disabled": 0, "lat": 38.88533, "rental_uris": {"ios": "https://dc.lft.to/lastmile_qr_scan", "android": "https://dc.lft.to/lastmile_qr_scan"}, "is_reserved": 0, "lon": -77.00583616666667, "fusion_lat": 0.0, "name": "c2432b8d180285a104f0917a6bd78afb"}, {"type": "electric_scooter", "fusion_lon": 0.0, "bike_id": "ce59c61e746bf35afe91432c06039198", "is_disabled": 0, "lat": 38.91918833333333, "rental_uris": {"ios": "https://dc.lft.to/lastmile_qr_scan", "android": "https://dc.lft.to/lastmile_qr_scan"}, "is_reserved": 0, "lon": -77.01902583333333, "fusion_lat": 0.0, "name": "ce59c61e746bf35afe91432c06039198"}, {"type": "electric_scooter", "fusion_lon": 0.0, "bike_id": "6ade9e093ffa65ad1ee70bee836c07f5", "is_disabled": 0, "lat": 38.88533783333333, "rental_uris": {"ios": "https://dc.lft.to/lastmile_qr_scan", "android": "https://dc.lft.to/lastmile_qr_scan"}, "is_reserved": 0, "lon": -77.00577033333333, "fusion_lat": 0.0, "name": "6ade9e093ffa65ad1ee70bee836c07f5"}, {"type": "electric_scooter", "fusion_lon": 0.0, "bike_id": "43546512b153620bded66572bc920140", "is_disabled": 0, "lat": 38.93763716666667, "rental_uris": {"ios": "https://dc.lft.to/lastmile_qr_scan", "android": "https://dc.lft.to/lastmile_qr_scan"}, "is_reserved": 0, "lon": -77.032814, "fusion_lat": 0.0, "name": "43546512b153620bded66572bc920140"}, {"type": "electric_scooter", "fusion_lon": 0.0, "bike_id": "0b13114e378f0eb5e1cb5fa07f64e2f6", "is_disabled": 0, "lat": 38.9152925, "rental_uris": {"ios": "https://dc.lft.to/lastmile_qr_scan", "android": "https://dc.lft.to/lastmile_qr_scan"}, "is_reserved": 0, "lon": -77.04439066666667, "fusion_lat": 0.0, "name": "0b13114e378f0eb5e1cb5fa07f64e2f6"}, {"type": "electric_scooter", "fusion_lon": 0.0, "bike_id": "61fce4d420aecd023998c2c823fc8adf", "is_disabled": 0, "lat": 38.905098833333334, "rental_uris": {"ios": "https://dc.lft.to/lastmile_qr_scan", "android": "https://dc.lft.to/lastmile_qr_scan"}, "is_reserved": 0, "lon": -77.0647475, "fusion_lat": 0.0, "name": "61fce4d420aecd023998c2c823fc8adf"}, {"type": "electric_scooter", "fusion_lon": 0.0, "bike_id": "8f13f389f9818e610aa9eff688dc6fc1", "is_disabled": 0, "lat": 38.938507, "rental_uris": {"ios": "https://dc.lft.to/lastmile_qr_scan", "android": "https://dc.lft.to/lastmile_qr_scan"}, "is_reserved": 0, "lon": -77.02482983333333, "fusion_lat": 0.0, "name": "8f13f389f9818e610aa9eff688dc6fc1"}, {"type": "electric_scooter", "fusion_lon": 0.0, "bike_id": "120849e88b24dae8e6b86e708236aee9", "is_disabled": 0, "lat": 38.9056645, "rental_uris": {"ios": "https://dc.lft.to/lastmile_qr_scan", "android": "https://dc.lft.to/lastmile_qr_scan"}, "is_reserved": 0, "lon": -77.0444335, "fusion_lat": 0.0, "name": "120849e88b24dae8e6b86e708236aee9"}, {"type": "electric_scooter", "fusion_lon": 0.0, "bike_id": "0af6ef7fce96baeef151507829be5839", "is_disabled": 0, "lat": 38.9234055, "rental_uris": {"ios": "https://dc.lft.to/lastmile_qr_scan", "android": "https://dc.lft.to/lastmile_qr_scan"}, "is_reserved": 0, "lon": -77.03640016666667, "fusion_lat": 0.0, "name": "0af6ef7fce96baeef151507829be5839"}, {"type": "electric_scooter", "fusion_lon": 0.0, "bike_id": "a29c7e082d0553fa59c90b995c4c2b13", "is_disabled": 0, "lat": 38.901303666666664, "rental_uris": {"ios": "https://dc.lft.to/lastmile_qr_scan", "android": "https://dc.lft.to/lastmile_qr_scan"}, "is_reserved": 0, "lon": -77.04041416666666, "fusion_lat": 0.0, "name": "a29c7e082d0553fa59c90b995c4c2b13"}, {"type": "electric_scooter", "fusion_lon": 0.0, "bike_id": "66040e0c10640368582006dfc4ea5cd1", "is_disabled": 0, "lat": 38.87775583333333, "rental_uris": {"ios": "https://dc.lft.to/lastmile_qr_scan", "android": "https://dc.lft.to/lastmile_qr_scan"}, "is_reserved": 0, "lon": -76.995019, "fusion_lat": 0.0, "name": "66040e0c10640368582006dfc4ea5cd1"}, {"type": "electric_scooter", "fusion_lon": 0.0, "bike_id": "98e69a24fcbe65b611ceac4113f8b279", "is_disabled": 0, "lat": 38.922578, "rental_uris": {"ios": "https://dc.lft.to/lastmile_qr_scan", "android": "https://dc.lft.to/lastmile_qr_scan"}, "is_reserved": 0, "lon": -77.01882766666667, "fusion_lat": 0.0, "name": "98e69a24fcbe65b611ceac4113f8b279"}, {"type": "electric_scooter", "fusion_lon": 0.0, "bike_id": "986342a1239c3d5e9a24681dbe3e0597", "is_disabled": 0, "lat": 38.913894666666664, "rental_uris": {"ios": "https://dc.lft.to/lastmile_qr_scan", "android": "https://dc.lft.to/lastmile_qr_scan"}, "is_reserved": 0, "lon": -77.06422416666666, "fusion_lat": 0.0, "name": "986342a1239c3d5e9a24681dbe3e0597"}, {"type": "electric_scooter", "fusion_lon": 0.0, "bike_id": "efbb085958add3faf11e8de9d0288bd4", "is_disabled": 0, "lat": 38.916535833333334, "rental_uris": {"ios": "https://dc.lft.to/lastmile_qr_scan", "android": "https://dc.lft.to/lastmile_qr_scan"}, "is_reserved": 0, "lon": -77.04379733333333, "fusion_lat": 0.0, "name": "efbb085958add3faf11e8de9d0288bd4"}, {"type": "electric_scooter", "fusion_lon": 0.0, "bike_id": "6d8257b1a9e5162a797d9b406046064d", "is_disabled": 0, "lat": 38.922607, "rental_uris": {"ios": "https://dc.lft.to/lastmile_qr_scan", "android": "https://dc.lft.to/lastmile_qr_scan"}, "is_reserved": 0, "lon": -77.02963283333334, "fusion_lat": 0.0, "name": "6d8257b1a9e5162a797d9b406046064d"}, {"type": "electric_bike", "fusion_lon": 0.0, "bike_id": "43c0aa0178760be6c0726b0690d03fe4", "is_disabled": 0, "lat": 38.946789333333335, "rental_uris": {"ios": "https://dc.lft.to/lastmile_qr_scan", "android": "https://dc.lft.to/lastmile_qr_scan"}, "is_reserved": 0, "lon": -76.94216216666666, "fusion_lat": 0.0, "name": "43c0aa0178760be6c0726b0690d03fe4"}, {"type": "electric_scooter", "fusion_lon": 0.0, "bike_id": "ec7f8ab817653cf89a5aaa89c24273dd", "is_disabled": 0, "lat": 38.910658, "rental_uris": {"ios": "https://dc.lft.to/lastmile_qr_scan", "android": "https://dc.lft.to/lastmile_qr_scan"}, "is_reserved": 0, "lon": -77.02704433333334, "fusion_lat": 0.0, "name": "ec7f8ab817653cf89a5aaa89c24273dd"}, {"type": "electric_scooter", "fusion_lon": 0.0, "bike_id": "28c3a5ac5f0f6ce4714e8539ebc6db90", "is_disabled": 0, "lat": 38.92737183333333, "rental_uris": {"ios": "https://dc.lft.to/lastmile_qr_scan", "android": "https://dc.lft.to/lastmile_qr_scan"}, "is_reserved": 0, "lon": -77.03352383333333, "fusion_lat": 0.0, "name": "28c3a5ac5f0f6ce4714e8539ebc6db90"}, {"type": "electric_scooter", "fusion_lon": 0.0, "bike_id": "15330995a4bbf52458715bc31fb250cd", "is_disabled": 0, "lat": 38.875460333333336, "rental_uris": {"ios": "https://dc.lft.to/lastmile_qr_scan", "android": "https://dc.lft.to/lastmile_qr_scan"}, "is_reserved": 0, "lon": -77.00536516666666, "fusion_lat": 0.0, "name": "15330995a4bbf52458715bc31fb250cd"}, {"type": "electric_scooter", "fusion_lon": 0.0, "bike_id": "c7ed9df3cf216397e8b9752ff1d0d030", "is_disabled": 0, "lat": 38.876375333333336, "rental_uris": {"ios": "https://dc.lft.to/lastmile_qr_scan", "android": "https://dc.lft.to/lastmile_qr_scan"}, "is_reserved": 0, "lon": -77.0091385, "fusion_lat": 0.0, "name": "c7ed9df3cf216397e8b9752ff1d0d030"}, {"type": "electric_scooter", "fusion_lon": 0.0, "bike_id": "e0a3de4590cb601b1a287441792fd382", "is_disabled": 0, "lat": 38.8939905, "rental_uris": {"ios": "https://dc.lft.to/lastmile_qr_scan", "android": "https://dc.lft.to/lastmile_qr_scan"}, "is_reserved": 0, "lon": -77.02129066666667, "fusion_lat": 0.0, "name": "e0a3de4590cb601b1a287441792fd382"}, {"type": "electric_scooter", "fusion_lon": 0.0, "bike_id": "8f76915d0e4502c1241ea79a4e498652", "is_disabled": 0, "lat": 38.942119166666664, "rental_uris": {"ios": "https://dc.lft.to/lastmile_qr_scan", "android": "https://dc.lft.to/lastmile_qr_scan"}, "is_reserved": 0, "lon": -77.0135665, "fusion_lat": 0.0, "name": "8f76915d0e4502c1241ea79a4e498652"}, {"type": "electric_scooter", "fusion_lon": 0.0, "bike_id": "84aa9298d3b121e39f6bab2d27810841", "is_disabled": 0, "lat": 38.93862516666667, "rental_uris": {"ios": "https://dc.lft.to/lastmile_qr_scan", "android": "https://dc.lft.to/lastmile_qr_scan"}, "is_reserved": 0, "lon": -77.0265855, "fusion_lat": 0.0, "name": "84aa9298d3b121e39f6bab2d27810841"}, {"type": "electric_scooter", "fusion_lon": 0.0, "bike_id": "6a73ca7ac3df60b8e70dada9fd60f99d", "is_disabled": 0, "lat": 38.923520833333335, "rental_uris": {"ios": "https://dc.lft.to/lastmile_qr_scan", "android": "https://dc.lft.to/lastmile_qr_scan"}, "is_reserved": 0, "lon": -76.99947566666667, "fusion_lat": 0.0, "name": "6a73ca7ac3df60b8e70dada9fd60f99d"}, {"type": "electric_scooter", "fusion_lon": 0.0, "bike_id": "c61250c41a371187b4be578e5ccb46be", "is_disabled": 0, "lat": 38.894389333333336, "rental_uris": {"ios": "https://dc.lft.to/lastmile_qr_scan", "android": "https://dc.lft.to/lastmile_qr_scan"}, "is_reserved": 0, "lon": -77.010962, "fusion_lat": 0.0, "name": "c61250c41a371187b4be578e5ccb46be"}, {"type": "electric_bike", "fusion_lon": 0.0, "bike_id": "7585036bdede42a4cbc0423e06d4313e", "is_disabled": 0, "lat": 38.92099916666667, "rental_uris": {"ios": "https://dc.lft.to/lastmile_qr_scan", "android": "https://dc.lft.to/lastmile_qr_scan"}, "is_reserved": 0, "lon": -77.00390516666667, "fusion_lat": 0.0, "name": "7585036bdede42a4cbc0423e06d4313e"}, {"type": "electric_scooter", "fusion_lon": 0.0, "bike_id": "42c4a181427497eaa4b11ee45e6f8ef0", "is_disabled": 0, "lat": 38.923427333333336, "rental_uris": {"ios": "https://dc.lft.to/lastmile_qr_scan", "android": "https://dc.lft.to/lastmile_qr_scan"}, "is_reserved": 0, "lon": -77.05175016666666, "fusion_lat": 0.0, "name": "42c4a181427497eaa4b11ee45e6f8ef0"}, {"type": "electric_scooter", "fusion_lon": 0.0, "bike_id": "36200aaff42fe93cc9d43df64b50a08e", "is_disabled": 0, "lat": 38.9166705, "rental_uris": {"ios": "https://dc.lft.to/lastmile_qr_scan", "android": "https://dc.lft.to/lastmile_qr_scan"}, "is_reserved": 0, "lon": -77.02280116666667, "fusion_lat": 0.0, "name": "36200aaff42fe93cc9d43df64b50a08e"}, {"type": "electric_scooter", "fusion_lon": 0.0, "bike_id": "4ea8ce292b89473a15b3f59b9af5a5b8", "is_disabled": 0, "lat": 38.88756566666667, "rental_uris": {"ios": "https://dc.lft.to/lastmile_qr_scan", "android": "https://dc.lft.to/lastmile_qr_scan"}, "is_reserved": 0, "lon": -77.03322933333334, "fusion_lat": 0.0, "name": "4ea8ce292b89473a15b3f59b9af5a5b8"}, {"type": "electric_scooter", "fusion_lon": 0.0, "bike_id": "ee29f9b454540f888a9dcad1e42b3415", "is_disabled": 0, "lat": 38.89250783333333, "rental_uris": {"ios": "https://dc.lft.to/lastmile_qr_scan", "android": "https://dc.lft.to/lastmile_qr_scan"}, "is_reserved": 0, "lon": -77.04499433333334, "fusion_lat": 0.0, "name": "ee29f9b454540f888a9dcad1e42b3415"}, {"type": "electric_scooter", "fusion_lon": 0.0, "bike_id": "516e3d6cd2ee4603f1b6883b926d56a2", "is_disabled": 0, "lat": 38.916585, "rental_uris": {"ios": "https://dc.lft.to/lastmile_qr_scan", "android": "https://dc.lft.to/lastmile_qr_scan"}, "is_reserved": 0, "lon": -77.022913, "fusion_lat": 0.0, "name": "516e3d6cd2ee4603f1b6883b926d56a2"}, {"type": "electric_scooter", "fusion_lon": 0.0, "bike_id": "6fcc89221eb2480620326f4a1afa93d0", "is_disabled": 0, "lat": 38.907000333333336, "rental_uris": {"ios": "https://dc.lft.to/lastmile_qr_scan", "android": "https://dc.lft.to/lastmile_qr_scan"}, "is_reserved": 0, "lon": -77.04208733333333, "fusion_lat": 0.0, "name": "6fcc89221eb2480620326f4a1afa93d0"}, {"type": "electric_scooter", "fusion_lon": 0.0, "bike_id": "c884c46f8bec805443e50557553066e0", "is_disabled": 0, "lat": 38.95757783333333, "rental_uris": {"ios": "https://dc.lft.to/lastmile_qr_scan", "android": "https://dc.lft.to/lastmile_qr_scan"}, "is_reserved": 0, "lon": -77.01495533333333, "fusion_lat": 0.0, "name": "c884c46f8bec805443e50557553066e0"}, {"type": "electric_bike", "fusion_lon": 0.0, "bike_id": "fba0e93d2bcfa6157e4f1e06fce5c987", "is_disabled": 0, "lat": 38.914958, "rental_uris": {"ios": "https://dc.lft.to/lastmile_qr_scan", "android": "https://dc.lft.to/lastmile_qr_scan"}, "is_reserved": 0, "lon": -76.98575466666667, "fusion_lat": 0.0, "name": "fba0e93d2bcfa6157e4f1e06fce5c987"}, {"type": "electric_bike", "fusion_lon": 0.0, "bike_id": "ebe1416e21e5cb6d8d367a742cbfa522", "is_disabled": 0, "lat": 38.8811855, "rental_uris": {"ios": "https://dc.lft.to/lastmile_qr_scan", "android": "https://dc.lft.to/lastmile_qr_scan"}, "is_reserved": 0, "lon": -76.99798933333334, "fusion_lat": 0.0, "name": "ebe1416e21e5cb6d8d367a742cbfa522"}, {"type": "electric_scooter", "fusion_lon": 0.0, "bike_id": "69a862761319ef5de52cc53ec92505c8", "is_disabled": 0, "lat": 38.917081833333334, "rental_uris": {"ios": "https://dc.lft.to/lastmile_qr_scan", "android": "https://dc.lft.to/lastmile_qr_scan"}, "is_reserved": 0, "lon": -77.04071916666666, "fusion_lat": 0.0, "name": "69a862761319ef5de52cc53ec92505c8"}, {"type": "electric_scooter", "fusion_lon": 0.0, "bike_id": "f81eff7a48f31488611075ac08368985", "is_disabled": 0, "lat": 38.9110185, "rental_uris": {"ios": "https://dc.lft.to/lastmile_qr_scan", "android": "https://dc.lft.to/lastmile_qr_scan"}, "is_reserved": 0, "lon": -77.00460933333333, "fusion_lat": 0.0, "name": "f81eff7a48f31488611075ac08368985"}, {"type": "electric_scooter", "fusion_lon": 0.0, "bike_id": "b3bd9edfe450cc19aaa82499a54ab075", "is_disabled": 0, "lat": 38.91333133333333, "rental_uris": {"ios": "https://dc.lft.to/lastmile_qr_scan", "android": "https://dc.lft.to/lastmile_qr_scan"}, "is_reserved": 0, "lon": -77.0304915, "fusion_lat": 0.0, "name": "b3bd9edfe450cc19aaa82499a54ab075"}, {"type": "electric_scooter", "fusion_lon": 0.0, "bike_id": "ab63e7c89a0d722e18c2852f68bce56d", "is_disabled": 0, "lat": 38.937064166666666, "rental_uris": {"ios": "https://dc.lft.to/lastmile_qr_scan", "android": "https://dc.lft.to/lastmile_qr_scan"}, "is_reserved": 0, "lon": -77.0559695, "fusion_lat": 0.0, "name": "ab63e7c89a0d722e18c2852f68bce56d"}, {"type": "electric_bike", "fusion_lon": 0.0, "bike_id": "53a9d2ccded409fa3177c3701e55a167", "is_disabled": 0, "lat": 38.9565245, "rental_uris": {"ios": "https://dc.lft.to/lastmile_qr_scan", "android": "https://dc.lft.to/lastmile_qr_scan"}, "is_reserved": 0, "lon": -76.9974665, "fusion_lat": 0.0, "name": "53a9d2ccded409fa3177c3701e55a167"}, {"type": "electric_scooter", "fusion_lon": 0.0, "bike_id": "ad7ccb19d2639cfd03cecb80ef7c076a", "is_disabled": 0, "lat": 38.9126805, "rental_uris": {"ios": "https://dc.lft.to/lastmile_qr_scan", "android": "https://dc.lft.to/lastmile_qr_scan"}, "is_reserved": 0, "lon": -77.03872866666667, "fusion_lat": 0.0, "name": "ad7ccb19d2639cfd03cecb80ef7c076a"}, {"type": "electric_scooter", "fusion_lon": 0.0, "bike_id": "1afdb0f71860c99f5b8722b48e67fbec", "is_disabled": 0, "lat": 38.8383835, "rental_uris": {"ios": "https://dc.lft.to/lastmile_qr_scan", "android": "https://dc.lft.to/lastmile_qr_scan"}, "is_reserved": 0, "lon": -76.9983495, "fusion_lat": 0.0, "name": "1afdb0f71860c99f5b8722b48e67fbec"}, {"type": "electric_scooter", "fusion_lon": 0.0, "bike_id": "b0ca039cb58a2125a75ac9e987f89119", "is_disabled": 0, "lat": 38.904051833333334, "rental_uris": {"ios": "https://dc.lft.to/lastmile_qr_scan", "android": "https://dc.lft.to/lastmile_qr_scan"}, "is_reserved": 0, "lon": -76.97331283333334, "fusion_lat": 0.0, "name": "b0ca039cb58a2125a75ac9e987f89119"}, {"type": "electric_scooter", "fusion_lon": 0.0, "bike_id": "e5854fd6a1af97aa9f87e9185663c263", "is_disabled": 0, "lat": 38.911103, "rental_uris": {"ios": "https://dc.lft.to/lastmile_qr_scan", "android": "https://dc.lft.to/lastmile_qr_scan"}, "is_reserved": 0, "lon": -77.04540183333333, "fusion_lat": 0.0, "name": "e5854fd6a1af97aa9f87e9185663c263"}, {"type": "electric_scooter", "fusion_lon": 0.0, "bike_id": "b1f4de29e11019903f684a61ff3e3117", "is_disabled": 0, "lat": 38.894096833333336, "rental_uris": {"ios": "https://dc.lft.to/lastmile_qr_scan", "android": "https://dc.lft.to/lastmile_qr_scan"}, "is_reserved": 0, "lon": -77.02197033333333, "fusion_lat": 0.0, "name": "b1f4de29e11019903f684a61ff3e3117"}, {"type": "electric_scooter", "fusion_lon": 0.0, "bike_id": "1cc5dd0bd10d581002c216bf3052c482", "is_disabled": 0, "lat": 38.90015866666667, "rental_uris": {"ios": "https://dc.lft.to/lastmile_qr_scan", "android": "https://dc.lft.to/lastmile_qr_scan"}, "is_reserved": 0, "lon": -77.0450525, "fusion_lat": 0.0, "name": "1cc5dd0bd10d581002c216bf3052c482"}, {"type": "electric_scooter", "fusion_lon": 0.0, "bike_id": "46ef333fe5ba58372423e5ca3c512793", "is_disabled": 0, "lat": 38.910009333333335, "rental_uris": {"ios": "https://dc.lft.to/lastmile_qr_scan", "android": "https://dc.lft.to/lastmile_qr_scan"}, "is_reserved": 0, "lon": -77.02096616666667, "fusion_lat": 0.0, "name": "46ef333fe5ba58372423e5ca3c512793"}, {"type": "electric_scooter", "fusion_lon": 0.0, "bike_id": "1419bc569882c48c176c911fb185f96b", "is_disabled": 0, "lat": 38.913314166666666, "rental_uris": {"ios": "https://dc.lft.to/lastmile_qr_scan", "android": "https://dc.lft.to/lastmile_qr_scan"}, "is_reserved": 0, "lon": -77.02543683333333, "fusion_lat": 0.0, "name": "1419bc569882c48c176c911fb185f96b"}, {"type": "electric_scooter", "fusion_lon": 0.0, "bike_id": "68d4b636d6c320dcb2c3d3e30fccb2d0", "is_disabled": 0, "lat": 38.896055, "rental_uris": {"ios": "https://dc.lft.to/lastmile_qr_scan", "android": "https://dc.lft.to/lastmile_qr_scan"}, "is_reserved": 0, "lon": -77.0092375, "fusion_lat": 0.0, "name": "68d4b636d6c320dcb2c3d3e30fccb2d0"}, {"type": "electric_scooter", "fusion_lon": 0.0, "bike_id": "52fc8a2b1cc08b3525219e9e34c88790", "is_disabled": 0, "lat": 38.87564, "rental_uris": {"ios": "https://dc.lft.to/lastmile_qr_scan", "android": "https://dc.lft.to/lastmile_qr_scan"}, "is_reserved": 0, "lon": -77.005595, "fusion_lat": 0.0, "name": "52fc8a2b1cc08b3525219e9e34c88790"}, {"type": "electric_scooter", "fusion_lon": 0.0, "bike_id": "c7d60c0cf6be8c1f7ed05c64d00b5233", "is_disabled": 0, "lat": 38.9084255, "rental_uris": {"ios": "https://dc.lft.to/lastmile_qr_scan", "android": "https://dc.lft.to/lastmile_qr_scan"}, "is_reserved": 0, "lon": -77.03996966666666, "fusion_lat": 0.0, "name": "c7d60c0cf6be8c1f7ed05c64d00b5233"}, {"type": "electric_scooter", "fusion_lon": 0.0, "bike_id": "0470b4b30ec6a49f7f2f91630515dbd0", "is_disabled": 0, "lat": 38.9085145, "rental_uris": {"ios": "https://dc.lft.to/lastmile_qr_scan", "android": "https://dc.lft.to/lastmile_qr_scan"}, "is_reserved": 0, "lon": -76.99678716666666, "fusion_lat": 0.0, "name": "0470b4b30ec6a49f7f2f91630515dbd0"}, {"type": "electric_scooter", "fusion_lon": 0.0, "bike_id": "5d3271f96ac13b299342ec0477d0a9bf", "is_disabled": 0, "lat": 38.89838666666667, "rental_uris": {"ios": "https://dc.lft.to/lastmile_qr_scan", "android": "https://dc.lft.to/lastmile_qr_scan"}, "is_reserved": 0, "lon": -77.04889033333333, "fusion_lat": 0.0, "name": "5d3271f96ac13b299342ec0477d0a9bf"}, {"type": "electric_bike", "fusion_lon": 0.0, "bike_id": "ca5e180454e55091c3ca1c9bee7a561c", "is_disabled": 0, "lat": 39.038891166666666, "rental_uris": {"ios": "https://dc.lft.to/lastmile_qr_scan", "android": "https://dc.lft.to/lastmile_qr_scan"}, "is_reserved": 0, "lon": -77.050287, "fusion_lat": 0.0, "name": "ca5e180454e55091c3ca1c9bee7a561c"}, {"type": "electric_scooter", "fusion_lon": 0.0, "bike_id": "7fbe4504c42a3b23db069182d039ca6c", "is_disabled": 0, "lat": 38.86062, "rental_uris": {"ios": "https://dc.lft.to/lastmile_qr_scan", "android": "https://dc.lft.to/lastmile_qr_scan"}, "is_reserved": 0, "lon": -76.96712733333334, "fusion_lat": 0.0, "name": "7fbe4504c42a3b23db069182d039ca6c"}, {"type": "electric_scooter", "fusion_lon": 0.0, "bike_id": "0a6af0418acd24c091ff9d97279cb5ff", "is_disabled": 0, "lat": 38.906467666666664, "rental_uris": {"ios": "https://dc.lft.to/lastmile_qr_scan", "android": "https://dc.lft.to/lastmile_qr_scan"}, "is_reserved": 0, "lon": -77.017924, "fusion_lat": 0.0, "name": "0a6af0418acd24c091ff9d97279cb5ff"}, {"type": "electric_scooter", "fusion_lon": 0.0, "bike_id": "9ca36af4c5d03e1ada1d76cc4a9dfc97", "is_disabled": 0, "lat": 38.941835166666664, "rental_uris": {"ios": "https://dc.lft.to/lastmile_qr_scan", "android": "https://dc.lft.to/lastmile_qr_scan"}, "is_reserved": 0, "lon": -77.0237265, "fusion_lat": 0.0, "name": "9ca36af4c5d03e1ada1d76cc4a9dfc97"}, {"type": "electric_scooter", "fusion_lon": 0.0, "bike_id": "10770aa898367d74f0f6f31b3183409d", "is_disabled": 0, "lat": 38.9161205, "rental_uris": {"ios": "https://dc.lft.to/lastmile_qr_scan", "android": "https://dc.lft.to/lastmile_qr_scan"}, "is_reserved": 0, "lon": -77.04887783333334, "fusion_lat": 0.0, "name": "10770aa898367d74f0f6f31b3183409d"}, {"type": "electric_bike", "fusion_lon": 0.0, "bike_id": "db21c7b350e636cd35704cede29368b5", "is_disabled": 0, "lat": 38.84191783333333, "rental_uris": {"ios": "https://dc.lft.to/lastmile_qr_scan", "android": "https://dc.lft.to/lastmile_qr_scan"}, "is_reserved": 0, "lon": -77.11350783333333, "fusion_lat": 0.0, "name": "db21c7b350e636cd35704cede29368b5"}, {"type": "electric_scooter", "fusion_lon": 0.0, "bike_id": "1d874e346eb232557efb5a0a2ba94bb1", "is_disabled": 0, "lat": 38.923368833333335, "rental_uris": {"ios": "https://dc.lft.to/lastmile_qr_scan", "android": "https://dc.lft.to/lastmile_qr_scan"}, "is_reserved": 0, "lon": -77.04152583333334, "fusion_lat": 0.0, "name": "1d874e346eb232557efb5a0a2ba94bb1"}, {"type": "electric_bike", "fusion_lon": 0.0, "bike_id": "1ffd381446ffac6fd0c584dd1969cca1", "is_disabled": 0, "lat": 38.884867666666665, "rental_uris": {"ios": "https://dc.lft.to/lastmile_qr_scan", "android": "https://dc.lft.to/lastmile_qr_scan"}, "is_reserved": 0, "lon": -76.9576245, "fusion_lat": 0.0, "name": "1ffd381446ffac6fd0c584dd1969cca1"}, {"type": "electric_scooter", "fusion_lon": 0.0, "bike_id": "cc7bf809f07187dd5f8f08ed0557155a", "is_disabled": 0, "lat": 38.92071216666667, "rental_uris": {"ios": "https://dc.lft.to/lastmile_qr_scan", "android": "https://dc.lft.to/lastmile_qr_scan"}, "is_reserved": 0, "lon": -77.02497483333333, "fusion_lat": 0.0, "name": "cc7bf809f07187dd5f8f08ed0557155a"}, {"type": "electric_scooter", "fusion_lon": 0.0, "bike_id": "966091eda5e19682c5fa3652b4e6a1c6", "is_disabled": 0, "lat": 38.887176, "rental_uris": {"ios": "https://dc.lft.to/lastmile_qr_scan", "android": "https://dc.lft.to/lastmile_qr_scan"}, "is_reserved": 0, "lon": -77.02204433333333, "fusion_lat": 0.0, "name": "966091eda5e19682c5fa3652b4e6a1c6"}, {"type": "electric_scooter", "fusion_lon": 0.0, "bike_id": "fc560bc5a332b24c84d1a47665ab5557", "is_disabled": 0, "lat": 38.9013525, "rental_uris": {"ios": "https://dc.lft.to/lastmile_qr_scan", "android": "https://dc.lft.to/lastmile_qr_scan"}, "is_reserved": 0, "lon": -77.0442895, "fusion_lat": 0.0, "name": "fc560bc5a332b24c84d1a47665ab5557"}, {"type": "electric_scooter", "fusion_lon": 0.0, "bike_id": "9e1d87093adad344e30ef247880118c7", "is_disabled": 0, "lat": 38.9216295, "rental_uris": {"ios": "https://dc.lft.to/lastmile_qr_scan", "android": "https://dc.lft.to/lastmile_qr_scan"}, "is_reserved": 0, "lon": -77.04689016666667, "fusion_lat": 0.0, "name": "9e1d87093adad344e30ef247880118c7"}, {"type": "electric_scooter", "fusion_lon": 0.0, "bike_id": "996a419165b3bb7c47055569060e30bd", "is_disabled": 0, "lat": 38.879580833333335, "rental_uris": {"ios": "https://dc.lft.to/lastmile_qr_scan", "android": "https://dc.lft.to/lastmile_qr_scan"}, "is_reserved": 0, "lon": -76.987387, "fusion_lat": 0.0, "name": "996a419165b3bb7c47055569060e30bd"}, {"type": "electric_bike", "fusion_lon": 0.0, "bike_id": "b8d78774a998f221f744813f21a2872e", "is_disabled": 0, "lat": 39.000003166666666, "rental_uris": {"ios": "https://dc.lft.to/lastmile_qr_scan", "android": "https://dc.lft.to/lastmile_qr_scan"}, "is_reserved": 0, "lon": -76.9180035, "fusion_lat": 0.0, "name": "b8d78774a998f221f744813f21a2872e"}, {"type": "electric_scooter", "fusion_lon": 0.0, "bike_id": "77bd222e079cfc51d702913c3f82be30", "is_disabled": 0, "lat": 38.9422865, "rental_uris": {"ios": "https://dc.lft.to/lastmile_qr_scan", "android": "https://dc.lft.to/lastmile_qr_scan"}, "is_reserved": 0, "lon": -77.03866466666666, "fusion_lat": 0.0, "name": "77bd222e079cfc51d702913c3f82be30"}, {"type": "electric_scooter", "fusion_lon": 0.0, "bike_id": "c47d33f29d3c04422fe15e4f3b3c9dd2", "is_disabled": 0, "lat": 38.922533, "rental_uris": {"ios": "https://dc.lft.to/lastmile_qr_scan", "android": "https://dc.lft.to/lastmile_qr_scan"}, "is_reserved": 0, "lon": -77.04252033333333, "fusion_lat": 0.0, "name": "c47d33f29d3c04422fe15e4f3b3c9dd2"}, {"type": "electric_scooter", "fusion_lon": 0.0, "bike_id": "17ff0bdd94ff02a459ee7a05d4636391", "is_disabled": 0, "lat": 38.919042, "rental_uris": {"ios": "https://dc.lft.to/lastmile_qr_scan", "android": "https://dc.lft.to/lastmile_qr_scan"}, "is_reserved": 0, "lon": -77.02262883333333, "fusion_lat": 0.0, "name": "17ff0bdd94ff02a459ee7a05d4636391"}, {"type": "electric_scooter", "fusion_lon": 0.0, "bike_id": "191726d3da9b5ed86859ad848dce4222", "is_disabled": 0, "lat": 38.90818816666667, "rental_uris": {"ios": "https://dc.lft.to/lastmile_qr_scan", "android": "https://dc.lft.to/lastmile_qr_scan"}, "is_reserved": 0, "lon": -77.03913366666667, "fusion_lat": 0.0, "name": "191726d3da9b5ed86859ad848dce4222"}, {"type": "electric_scooter", "fusion_lon": 0.0, "bike_id": "a189d05e856131dba8d39f395fef5a9e", "is_disabled": 0, "lat": 38.92749116666667, "rental_uris": {"ios": "https://dc.lft.to/lastmile_qr_scan", "android": "https://dc.lft.to/lastmile_qr_scan"}, "is_reserved": 0, "lon": -77.025339, "fusion_lat": 0.0, "name": "a189d05e856131dba8d39f395fef5a9e"}, {"type": "electric_scooter", "fusion_lon": 0.0, "bike_id": "544ef37dcd32625aaa1a84d069e0def3", "is_disabled": 0, "lat": 38.91439233333333, "rental_uris": {"ios": "https://dc.lft.to/lastmile_qr_scan", "android": "https://dc.lft.to/lastmile_qr_scan"}, "is_reserved": 0, "lon": -77.04160683333333, "fusion_lat": 0.0, "name": "544ef37dcd32625aaa1a84d069e0def3"}, {"type": "electric_scooter", "fusion_lon": 0.0, "bike_id": "ade2f68a796b2c1787562df890f14ae8", "is_disabled": 0, "lat": 38.93452833333333, "rental_uris": {"ios": "https://dc.lft.to/lastmile_qr_scan", "android": "https://dc.lft.to/lastmile_qr_scan"}, "is_reserved": 0, "lon": -77.032405, "fusion_lat": 0.0, "name": "ade2f68a796b2c1787562df890f14ae8"}, {"type": "electric_scooter", "fusion_lon": 0.0, "bike_id": "f06842ba5a174ffa60435b25ee34bce0", "is_disabled": 0, "lat": 38.89938933333333, "rental_uris": {"ios": "https://dc.lft.to/lastmile_qr_scan", "android": "https://dc.lft.to/lastmile_qr_scan"}, "is_reserved": 0, "lon": -77.04119283333333, "fusion_lat": 0.0, "name": "f06842ba5a174ffa60435b25ee34bce0"}, {"type": "electric_bike", "fusion_lon": 0.0, "bike_id": "935115204febacb7451581289f342111", "is_disabled": 0, "lat": 38.857845166666664, "rental_uris": {"ios": "https://dc.lft.to/lastmile_qr_scan", "android": "https://dc.lft.to/lastmile_qr_scan"}, "is_reserved": 0, "lon": -76.97318833333334, "fusion_lat": 0.0, "name": "935115204febacb7451581289f342111"}, {"type": "electric_scooter", "fusion_lon": 0.0, "bike_id": "b772a8a0df8e8564deda7a348f00d7e5", "is_disabled": 0, "lat": 38.89852066666667, "rental_uris": {"ios": "https://dc.lft.to/lastmile_qr_scan", "android": "https://dc.lft.to/lastmile_qr_scan"}, "is_reserved": 0, "lon": -76.99031416666666, "fusion_lat": 0.0, "name": "b772a8a0df8e8564deda7a348f00d7e5"}, {"type": "electric_scooter", "fusion_lon": 0.0, "bike_id": "a014dbd0f58a5d3778d8d9ee61c8550b", "is_disabled": 0, "lat": 38.910801166666666, "rental_uris": {"ios": "https://dc.lft.to/lastmile_qr_scan", "android": "https://dc.lft.to/lastmile_qr_scan"}, "is_reserved": 0, "lon": -77.00152333333334, "fusion_lat": 0.0, "name": "a014dbd0f58a5d3778d8d9ee61c8550b"}, {"type": "electric_scooter", "fusion_lon": 0.0, "bike_id": "7efaedb19550e907b3015bf2f14724b2", "is_disabled": 0, "lat": 38.93428183333333, "rental_uris": {"ios": "https://dc.lft.to/lastmile_qr_scan", "android": "https://dc.lft.to/lastmile_qr_scan"}, "is_reserved": 0, "lon": -77.044281, "fusion_lat": 0.0, "name": "7efaedb19550e907b3015bf2f14724b2"}, {"type": "electric_scooter", "fusion_lon": 0.0, "bike_id": "012fd3b940a2d14741304cb4c1ac61bf", "is_disabled": 0, "lat": 38.897404333333334, "rental_uris": {"ios": "https://dc.lft.to/lastmile_qr_scan", "android": "https://dc.lft.to/lastmile_qr_scan"}, "is_reserved": 0, "lon": -77.0433145, "fusion_lat": 0.0, "name": "012fd3b940a2d14741304cb4c1ac61bf"}, {"type": "electric_bike", "fusion_lon": 0.0, "bike_id": "e41ec480b3c0968ee2b91d682795813d", "is_disabled": 0, "lat": 38.90596, "rental_uris": {"ios": "https://dc.lft.to/lastmile_qr_scan", "android": "https://dc.lft.to/lastmile_qr_scan"}, "is_reserved": 0, "lon": -77.070584, "fusion_lat": 0.0, "name": "e41ec480b3c0968ee2b91d682795813d"}, {"type": "electric_scooter", "fusion_lon": 0.0, "bike_id": "e099c912a2c3dfdbd3581344dde2c724", "is_disabled": 0, "lat": 38.9002605, "rental_uris": {"ios": "https://dc.lft.to/lastmile_qr_scan", "android": "https://dc.lft.to/lastmile_qr_scan"}, "is_reserved": 0, "lon": -77.030259, "fusion_lat": 0.0, "name": "e099c912a2c3dfdbd3581344dde2c724"}, {"type": "electric_scooter", "fusion_lon": 0.0, "bike_id": "e06d0bc6ed934a9c7d8724799debf4a4", "is_disabled": 0, "lat": 38.93888616666667, "rental_uris": {"ios": "https://dc.lft.to/lastmile_qr_scan", "android": "https://dc.lft.to/lastmile_qr_scan"}, "is_reserved": 0, "lon": -77.0249055, "fusion_lat": 0.0, "name": "e06d0bc6ed934a9c7d8724799debf4a4"}, {"type": "electric_scooter", "fusion_lon": 0.0, "bike_id": "cb256cef14aa5e2e05c6228ac1e86860", "is_disabled": 0, "lat": 38.870690833333335, "rental_uris": {"ios": "https://dc.lft.to/lastmile_qr_scan", "android": "https://dc.lft.to/lastmile_qr_scan"}, "is_reserved": 0, "lon": -77.00662566666666, "fusion_lat": 0.0, "name": "cb256cef14aa5e2e05c6228ac1e86860"}, {"type": "electric_scooter", "fusion_lon": 0.0, "bike_id": "7b4429770f0a3eb85507c2f1610e0b10", "is_disabled": 0, "lat": 38.892202166666664, "rental_uris": {"ios": "https://dc.lft.to/lastmile_qr_scan", "android": "https://dc.lft.to/lastmile_qr_scan"}, "is_reserved": 0, "lon": -77.04339666666667, "fusion_lat": 0.0, "name": "7b4429770f0a3eb85507c2f1610e0b10"}, {"type": "electric_scooter", "fusion_lon": 0.0, "bike_id": "5149682c522369d5664f2dd27dc4afa8", "is_disabled": 0, "lat": 38.923403666666665, "rental_uris": {"ios": "https://dc.lft.to/lastmile_qr_scan", "android": "https://dc.lft.to/lastmile_qr_scan"}, "is_reserved": 0, "lon": -77.03641016666667, "fusion_lat": 0.0, "name": "5149682c522369d5664f2dd27dc4afa8"}, {"type": "electric_scooter", "fusion_lon": 0.0, "bike_id": "6ec852a1990927ade8b5167d196bcc1a", "is_disabled": 0, "lat": 38.921464, "rental_uris": {"ios": "https://dc.lft.to/lastmile_qr_scan", "android": "https://dc.lft.to/lastmile_qr_scan"}, "is_reserved": 0, "lon": -77.0350835, "fusion_lat": 0.0, "name": "6ec852a1990927ade8b5167d196bcc1a"}, {"type": "electric_bike", "fusion_lon": 0.0, "bike_id": "dff8e3f586ec7e6d48aee3f4a99e6ea1", "is_disabled": 0, "lat": 38.896197666666666, "rental_uris": {"ios": "https://dc.lft.to/lastmile_qr_scan", "android": "https://dc.lft.to/lastmile_qr_scan"}, "is_reserved": 0, "lon": -76.9074105, "fusion_lat": 0.0, "name": "dff8e3f586ec7e6d48aee3f4a99e6ea1"}, {"type": "electric_scooter", "fusion_lon": 0.0, "bike_id": "0f7dc86658c2be18a58fc4cfc62f90f3", "is_disabled": 0, "lat": 38.9608335, "rental_uris": {"ios": "https://dc.lft.to/lastmile_qr_scan", "android": "https://dc.lft.to/lastmile_qr_scan"}, "is_reserved": 0, "lon": -77.028876, "fusion_lat": 0.0, "name": "0f7dc86658c2be18a58fc4cfc62f90f3"}, {"type": "electric_scooter", "fusion_lon": 0.0, "bike_id": "5e5f1de34937909ee90cf5906158f65d", "is_disabled": 0, "lat": 38.90043416666666, "rental_uris": {"ios": "https://dc.lft.to/lastmile_qr_scan", "android": "https://dc.lft.to/lastmile_qr_scan"}, "is_reserved": 0, "lon": -76.99846, "fusion_lat": 0.0, "name": "5e5f1de34937909ee90cf5906158f65d"}, {"type": "electric_bike", "fusion_lon": 0.0, "bike_id": "fdd6dce974d5f3348c60b18d3074e5b9", "is_disabled": 0, "lat": 38.941552, "rental_uris": {"ios": "https://dc.lft.to/lastmile_qr_scan", "android": "https://dc.lft.to/lastmile_qr_scan"}, "is_reserved": 0, "lon": -77.00194416666666, "fusion_lat": 0.0, "name": "fdd6dce974d5f3348c60b18d3074e5b9"}, {"type": "electric_scooter", "fusion_lon": 0.0, "bike_id": "9138f93e45b6b65ae41e905e8081f047", "is_disabled": 0, "lat": 38.9246375, "rental_uris": {"ios": "https://dc.lft.to/lastmile_qr_scan", "android": "https://dc.lft.to/lastmile_qr_scan"}, "is_reserved": 0, "lon": -77.02206166666667, "fusion_lat": 0.0, "name": "9138f93e45b6b65ae41e905e8081f047"}, {"type": "electric_scooter", "fusion_lon": 0.0, "bike_id": "75c829b25fb29e8053cf46134c7afb5c", "is_disabled": 0, "lat": 38.90244116666667, "rental_uris": {"ios": "https://dc.lft.to/lastmile_qr_scan", "android": "https://dc.lft.to/lastmile_qr_scan"}, "is_reserved": 0, "lon": -77.06170783333333, "fusion_lat": 0.0, "name": "75c829b25fb29e8053cf46134c7afb5c"}, {"type": "electric_bike", "fusion_lon": 0.0, "bike_id": "ac2b1e5fbf4e148fe8efb9eb73e228da", "is_disabled": 0, "lat": 38.95752316666667, "rental_uris": {"ios": "https://dc.lft.to/lastmile_qr_scan", "android": "https://dc.lft.to/lastmile_qr_scan"}, "is_reserved": 0, "lon": -76.98025483333333, "fusion_lat": 0.0, "name": "ac2b1e5fbf4e148fe8efb9eb73e228da"}, {"type": "electric_scooter", "fusion_lon": 0.0, "bike_id": "84f1e0864f22bce3ec94a15425592c67", "is_disabled": 0, "lat": 38.86933033333333, "rental_uris": {"ios": "https://dc.lft.to/lastmile_qr_scan", "android": "https://dc.lft.to/lastmile_qr_scan"}, "is_reserved": 0, "lon": -77.01376333333333, "fusion_lat": 0.0, "name": "84f1e0864f22bce3ec94a15425592c67"}, {"type": "electric_scooter", "fusion_lon": 0.0, "bike_id": "25a3d386c8e323a35ae4c791abf1120a", "is_disabled": 0, "lat": 38.9155495, "rental_uris": {"ios": "https://dc.lft.to/lastmile_qr_scan", "android": "https://dc.lft.to/lastmile_qr_scan"}, "is_reserved": 0, "lon": -77.03248216666667, "fusion_lat": 0.0, "name": "25a3d386c8e323a35ae4c791abf1120a"}, {"type": "electric_scooter", "fusion_lon": 0.0, "bike_id": "f879982589de80f4411ae3c3d191188d", "is_disabled": 0, "lat": 38.901208833333335, "rental_uris": {"ios": "https://dc.lft.to/lastmile_qr_scan", "android": "https://dc.lft.to/lastmile_qr_scan"}, "is_reserved": 0, "lon": -77.02714666666667, "fusion_lat": 0.0, "name": "f879982589de80f4411ae3c3d191188d"}, {"type": "electric_scooter", "fusion_lon": 0.0, "bike_id": "bd67a3c6c71f65291f7c78b3ba58a92a", "is_disabled": 0, "lat": 38.864635166666666, "rental_uris": {"ios": "https://dc.lft.to/lastmile_qr_scan", "android": "https://dc.lft.to/lastmile_qr_scan"}, "is_reserved": 0, "lon": -76.98234933333333, "fusion_lat": 0.0, "name": "bd67a3c6c71f65291f7c78b3ba58a92a"}, {"type": "electric_scooter", "fusion_lon": 0.0, "bike_id": "db885fbadcee329bb28b136ac3e2127b", "is_disabled": 0, "lat": 38.8960885, "rental_uris": {"ios": "https://dc.lft.to/lastmile_qr_scan", "android": "https://dc.lft.to/lastmile_qr_scan"}, "is_reserved": 0, "lon": -76.98095316666667, "fusion_lat": 0.0, "name": "db885fbadcee329bb28b136ac3e2127b"}, {"type": "electric_scooter", "fusion_lon": 0.0, "bike_id": "0df109715c0a975d6ae136ff757d9423", "is_disabled": 0, "lat": 38.89643083333333, "rental_uris": {"ios": "https://dc.lft.to/lastmile_qr_scan", "android": "https://dc.lft.to/lastmile_qr_scan"}, "is_reserved": 0, "lon": -77.01158533333333, "fusion_lat": 0.0, "name": "0df109715c0a975d6ae136ff757d9423"}, {"type": "electric_scooter", "fusion_lon": 0.0, "bike_id": "272a6c1d8c0bc6fb2f3ebe265554b768", "is_disabled": 0, "lat": 38.921038333333335, "rental_uris": {"ios": "https://dc.lft.to/lastmile_qr_scan", "android": "https://dc.lft.to/lastmile_qr_scan"}, "is_reserved": 0, "lon": -77.04675716666667, "fusion_lat": 0.0, "name": "272a6c1d8c0bc6fb2f3ebe265554b768"}, {"type": "electric_scooter", "fusion_lon": 0.0, "bike_id": "4e5c2e1222eb5ed57dfc781b6afd6b68", "is_disabled": 0, "lat": 38.91708583333333, "rental_uris": {"ios": "https://dc.lft.to/lastmile_qr_scan", "android": "https://dc.lft.to/lastmile_qr_scan"}, "is_reserved": 0, "lon": -77.03730316666666, "fusion_lat": 0.0, "name": "4e5c2e1222eb5ed57dfc781b6afd6b68"}, {"type": "electric_scooter", "fusion_lon": 0.0, "bike_id": "a9b4c1725c79a245780efaf9f0f4be06", "is_disabled": 0, "lat": 38.897507166666664, "rental_uris": {"ios": "https://dc.lft.to/lastmile_qr_scan", "android": "https://dc.lft.to/lastmile_qr_scan"}, "is_reserved": 0, "lon": -77.05471233333333, "fusion_lat": 0.0, "name": "a9b4c1725c79a245780efaf9f0f4be06"}, {"type": "electric_scooter", "fusion_lon": 0.0, "bike_id": "56bfd1e81b1fabf6e99bead95bbd66fb", "is_disabled": 0, "lat": 38.9034185, "rental_uris": {"ios": "https://dc.lft.to/lastmile_qr_scan", "android": "https://dc.lft.to/lastmile_qr_scan"}, "is_reserved": 0, "lon": -76.98508916666667, "fusion_lat": 0.0, "name": "56bfd1e81b1fabf6e99bead95bbd66fb"}, {"type": "electric_scooter", "fusion_lon": 0.0, "bike_id": "f6ac50ba65511b8164bb0a447d5c8220", "is_disabled": 0, "lat": 38.90825616666667, "rental_uris": {"ios": "https://dc.lft.to/lastmile_qr_scan", "android": "https://dc.lft.to/lastmile_qr_scan"}, "is_reserved": 0, "lon": -77.02700083333333, "fusion_lat": 0.0, "name": "f6ac50ba65511b8164bb0a447d5c8220"}, {"type": "electric_bike", "fusion_lon": 0.0, "bike_id": "edf447b4a13fb54faa883fa4c9b3f329", "is_disabled": 0, "lat": 38.92272233333333, "rental_uris": {"ios": "https://dc.lft.to/lastmile_qr_scan", "android": "https://dc.lft.to/lastmile_qr_scan"}, "is_reserved": 0, "lon": -76.99743266666667, "fusion_lat": 0.0, "name": "edf447b4a13fb54faa883fa4c9b3f329"}, {"type": "electric_scooter", "fusion_lon": 0.0, "bike_id": "94d0ba219fd29e34b6f1cbcf6a9b4b4e", "is_disabled": 0, "lat": 38.918382333333334, "rental_uris": {"ios": "https://dc.lft.to/lastmile_qr_scan", "android": "https://dc.lft.to/lastmile_qr_scan"}, "is_reserved": 0, "lon": -77.01784216666667, "fusion_lat": 0.0, "name": "94d0ba219fd29e34b6f1cbcf6a9b4b4e"}, {"type": "electric_scooter", "fusion_lon": 0.0, "bike_id": "eaa7c42343ef3dd3c775d577ca5f7e7e", "is_disabled": 0, "lat": 38.89604666666666, "rental_uris": {"ios": "https://dc.lft.to/lastmile_qr_scan", "android": "https://dc.lft.to/lastmile_qr_scan"}, "is_reserved": 0, "lon": -77.0427615, "fusion_lat": 0.0, "name": "eaa7c42343ef3dd3c775d577ca5f7e7e"}, {"type": "electric_scooter", "fusion_lon": 0.0, "bike_id": "cff478535f55d73dbf190081d601d218", "is_disabled": 0, "lat": 38.88717283333333, "rental_uris": {"ios": "https://dc.lft.to/lastmile_qr_scan", "android": "https://dc.lft.to/lastmile_qr_scan"}, "is_reserved": 0, "lon": -77.0220695, "fusion_lat": 0.0, "name": "cff478535f55d73dbf190081d601d218"}, {"type": "electric_scooter", "fusion_lon": 0.0, "bike_id": "ed1eef6829c357beada9a56422a71dc8", "is_disabled": 0, "lat": 38.87631416666667, "rental_uris": {"ios": "https://dc.lft.to/lastmile_qr_scan", "android": "https://dc.lft.to/lastmile_qr_scan"}, "is_reserved": 0, "lon": -77.0059895, "fusion_lat": 0.0, "name": "ed1eef6829c357beada9a56422a71dc8"}, {"type": "electric_scooter", "fusion_lon": 0.0, "bike_id": "d813a6229c5f232da6f4303157b7783f", "is_disabled": 0, "lat": 38.901893666666666, "rental_uris": {"ios": "https://dc.lft.to/lastmile_qr_scan", "android": "https://dc.lft.to/lastmile_qr_scan"}, "is_reserved": 0, "lon": -76.92632, "fusion_lat": 0.0, "name": "d813a6229c5f232da6f4303157b7783f"}, {"type": "electric_scooter", "fusion_lon": 0.0, "bike_id": "707a4b7e279e93c909653a93695f132e", "is_disabled": 0, "lat": 38.93985466666667, "rental_uris": {"ios": "https://dc.lft.to/lastmile_qr_scan", "android": "https://dc.lft.to/lastmile_qr_scan"}, "is_reserved": 0, "lon": -77.02539216666666, "fusion_lat": 0.0, "name": "707a4b7e279e93c909653a93695f132e"}, {"type": "electric_scooter", "fusion_lon": 0.0, "bike_id": "533dfb0061a77f7cd59ae3419a425002", "is_disabled": 0, "lat": 38.8922415, "rental_uris": {"ios": "https://dc.lft.to/lastmile_qr_scan", "android": "https://dc.lft.to/lastmile_qr_scan"}, "is_reserved": 0, "lon": -77.04864583333334, "fusion_lat": 0.0, "name": "533dfb0061a77f7cd59ae3419a425002"}, {"type": "electric_bike", "fusion_lon": 0.0, "bike_id": "7e11cea4c8e260c3e49b4a27558e22ca", "is_disabled": 0, "lat": 38.899631666666664, "rental_uris": {"ios": "https://dc.lft.to/lastmile_qr_scan", "android": "https://dc.lft.to/lastmile_qr_scan"}, "is_reserved": 0, "lon": -76.986788, "fusion_lat": 0.0, "name": "7e11cea4c8e260c3e49b4a27558e22ca"}, {"type": "electric_scooter", "fusion_lon": 0.0, "bike_id": "60c395976025aab8fe330f9d1a569712", "is_disabled": 0, "lat": 38.9251555, "rental_uris": {"ios": "https://dc.lft.to/lastmile_qr_scan", "android": "https://dc.lft.to/lastmile_qr_scan"}, "is_reserved": 0, "lon": -77.0225365, "fusion_lat": 0.0, "name": "60c395976025aab8fe330f9d1a569712"}, {"type": "electric_scooter", "fusion_lon": 0.0, "bike_id": "8f3bdbf75e9c411162abe796873e380b", "is_disabled": 0, "lat": 38.905081, "rental_uris": {"ios": "https://dc.lft.to/lastmile_qr_scan", "android": "https://dc.lft.to/lastmile_qr_scan"}, "is_reserved": 0, "lon": -77.06376683333333, "fusion_lat": 0.0, "name": "8f3bdbf75e9c411162abe796873e380b"}, {"type": "electric_scooter", "fusion_lon": 0.0, "bike_id": "ae79a065f10d6199aa4ac66454743f64", "is_disabled": 0, "lat": 38.9226515, "rental_uris": {"ios": "https://dc.lft.to/lastmile_qr_scan", "android": "https://dc.lft.to/lastmile_qr_scan"}, "is_reserved": 0, "lon": -77.0340325, "fusion_lat": 0.0, "name": "ae79a065f10d6199aa4ac66454743f64"}, {"type": "electric_scooter", "fusion_lon": 0.0, "bike_id": "7d3a0b99155f018b2da2b40891b33157", "is_disabled": 0, "lat": 38.91818983333334, "rental_uris": {"ios": "https://dc.lft.to/lastmile_qr_scan", "android": "https://dc.lft.to/lastmile_qr_scan"}, "is_reserved": 0, "lon": -77.0344095, "fusion_lat": 0.0, "name": "7d3a0b99155f018b2da2b40891b33157"}, {"type": "electric_scooter", "fusion_lon": 0.0, "bike_id": "494bf2cec68bbd1243483a49ec427e12", "is_disabled": 0, "lat": 38.91414983333333, "rental_uris": {"ios": "https://dc.lft.to/lastmile_qr_scan", "android": "https://dc.lft.to/lastmile_qr_scan"}, "is_reserved": 0, "lon": -77.03816783333333, "fusion_lat": 0.0, "name": "494bf2cec68bbd1243483a49ec427e12"}, {"type": "electric_scooter", "fusion_lon": 0.0, "bike_id": "50021ae7f66cfc04a45680b7ec144652", "is_disabled": 0, "lat": 38.913658833333336, "rental_uris": {"ios": "https://dc.lft.to/lastmile_qr_scan", "android": "https://dc.lft.to/lastmile_qr_scan"}, "is_reserved": 0, "lon": -77.046581, "fusion_lat": 0.0, "name": "50021ae7f66cfc04a45680b7ec144652"}, {"type": "electric_scooter", "fusion_lon": 0.0, "bike_id": "9c01e5d5f625a50f8533237f3cba473b", "is_disabled": 0, "lat": 38.91919083333333, "rental_uris": {"ios": "https://dc.lft.to/lastmile_qr_scan", "android": "https://dc.lft.to/lastmile_qr_scan"}, "is_reserved": 0, "lon": -77.03210816666666, "fusion_lat": 0.0, "name": "9c01e5d5f625a50f8533237f3cba473b"}, {"type": "electric_scooter", "fusion_lon": 0.0, "bike_id": "5866c3dc66c7fb137d364791b9205e57", "is_disabled": 0, "lat": 38.914118333333334, "rental_uris": {"ios": "https://dc.lft.to/lastmile_qr_scan", "android": "https://dc.lft.to/lastmile_qr_scan"}, "is_reserved": 0, "lon": -77.041545, "fusion_lat": 0.0, "name": "5866c3dc66c7fb137d364791b9205e57"}, {"type": "electric_scooter", "fusion_lon": 0.0, "bike_id": "c683f0f981d35f12a05380b525862a43", "is_disabled": 0, "lat": 38.88135333333334, "rental_uris": {"ios": "https://dc.lft.to/lastmile_qr_scan", "android": "https://dc.lft.to/lastmile_qr_scan"}, "is_reserved": 0, "lon": -76.987189, "fusion_lat": 0.0, "name": "c683f0f981d35f12a05380b525862a43"}, {"type": "electric_scooter", "fusion_lon": 0.0, "bike_id": "8a34e4374b1abfb22ae3a6efcf2bcbb7", "is_disabled": 0, "lat": 38.9180105, "rental_uris": {"ios": "https://dc.lft.to/lastmile_qr_scan", "android": "https://dc.lft.to/lastmile_qr_scan"}, "is_reserved": 0, "lon": -77.02485033333333, "fusion_lat": 0.0, "name": "8a34e4374b1abfb22ae3a6efcf2bcbb7"}, {"type": "electric_scooter", "fusion_lon": 0.0, "bike_id": "d1b9d0b8026c076e1f70927cf429f36f", "is_disabled": 0, "lat": 38.93363183333334, "rental_uris": {"ios": "https://dc.lft.to/lastmile_qr_scan", "android": "https://dc.lft.to/lastmile_qr_scan"}, "is_reserved": 0, "lon": -77.02643016666667, "fusion_lat": 0.0, "name": "d1b9d0b8026c076e1f70927cf429f36f"}, {"type": "electric_scooter", "fusion_lon": 0.0, "bike_id": "086ffe12cbcc9c8f94df1ba252208f94", "is_disabled": 0, "lat": 38.93495933333333, "rental_uris": {"ios": "https://dc.lft.to/lastmile_qr_scan", "android": "https://dc.lft.to/lastmile_qr_scan"}, "is_reserved": 0, "lon": -77.073409, "fusion_lat": 0.0, "name": "086ffe12cbcc9c8f94df1ba252208f94"}, {"type": "electric_scooter", "fusion_lon": 0.0, "bike_id": "8095987dd84b18dfcd993b55df98ea88", "is_disabled": 0, "lat": 38.917000333333334, "rental_uris": {"ios": "https://dc.lft.to/lastmile_qr_scan", "android": "https://dc.lft.to/lastmile_qr_scan"}, "is_reserved": 0, "lon": -77.0347285, "fusion_lat": 0.0, "name": "8095987dd84b18dfcd993b55df98ea88"}, {"type": "electric_scooter", "fusion_lon": 0.0, "bike_id": "31b9b7951dc66b326ea8a540d6a4f107", "is_disabled": 0, "lat": 38.870833, "rental_uris": {"ios": "https://dc.lft.to/lastmile_qr_scan", "android": "https://dc.lft.to/lastmile_qr_scan"}, "is_reserved": 0, "lon": -76.9656605, "fusion_lat": 0.0, "name": "31b9b7951dc66b326ea8a540d6a4f107"}, {"type": "electric_scooter", "fusion_lon": 0.0, "bike_id": "3ae259220765b03466df073489b078c7", "is_disabled": 0, "lat": 38.917467, "rental_uris": {"ios": "https://dc.lft.to/lastmile_qr_scan", "android": "https://dc.lft.to/lastmile_qr_scan"}, "is_reserved": 0, "lon": -77.02390633333333, "fusion_lat": 0.0, "name": "3ae259220765b03466df073489b078c7"}, {"type": "electric_bike", "fusion_lon": 0.0, "bike_id": "7daabadf89971206890bc96f03bf9342", "is_disabled": 0, "lat": 38.900047666666666, "rental_uris": {"ios": "https://dc.lft.to/lastmile_qr_scan", "android": "https://dc.lft.to/lastmile_qr_scan"}, "is_reserved": 0, "lon": -77.00544416666666, "fusion_lat": 0.0, "name": "7daabadf89971206890bc96f03bf9342"}, {"type": "electric_scooter", "fusion_lon": 0.0, "bike_id": "fbc4abb46ed2208025e4ccf01d588f97", "is_disabled": 0, "lat": 38.90090683333333, "rental_uris": {"ios": "https://dc.lft.to/lastmile_qr_scan", "android": "https://dc.lft.to/lastmile_qr_scan"}, "is_reserved": 0, "lon": -77.0209205, "fusion_lat": 0.0, "name": "fbc4abb46ed2208025e4ccf01d588f97"}, {"type": "electric_scooter", "fusion_lon": 0.0, "bike_id": "812facc8ac712f843c9581d62a1636c3", "is_disabled": 0, "lat": 38.91343533333333, "rental_uris": {"ios": "https://dc.lft.to/lastmile_qr_scan", "android": "https://dc.lft.to/lastmile_qr_scan"}, "is_reserved": 0, "lon": -77.02947483333334, "fusion_lat": 0.0, "name": "812facc8ac712f843c9581d62a1636c3"}, {"type": "electric_bike", "fusion_lon": 0.0, "bike_id": "262c7ba8ea1fe48058229e10ae006c2f", "is_disabled": 0, "lat": 38.935774333333335, "rental_uris": {"ios": "https://dc.lft.to/lastmile_qr_scan", "android": "https://dc.lft.to/lastmile_qr_scan"}, "is_reserved": 0, "lon": -77.0373705, "fusion_lat": 0.0, "name": "262c7ba8ea1fe48058229e10ae006c2f"}, {"type": "electric_scooter", "fusion_lon": 0.0, "bike_id": "307843709f70248c66c09ccfa877e6a9", "is_disabled": 0, "lat": 38.90851333333333, "rental_uris": {"ios": "https://dc.lft.to/lastmile_qr_scan", "android": "https://dc.lft.to/lastmile_qr_scan"}, "is_reserved": 0, "lon": -77.0348805, "fusion_lat": 0.0, "name": "307843709f70248c66c09ccfa877e6a9"}, {"type": "electric_scooter", "fusion_lon": 0.0, "bike_id": "308e88759a21b059c920d5ed68ddde25", "is_disabled": 0, "lat": 38.87467766666666, "rental_uris": {"ios": "https://dc.lft.to/lastmile_qr_scan", "android": "https://dc.lft.to/lastmile_qr_scan"}, "is_reserved": 0, "lon": -77.00533566666667, "fusion_lat": 0.0, "name": "308e88759a21b059c920d5ed68ddde25"}, {"type": "electric_scooter", "fusion_lon": 0.0, "bike_id": "55c13d45fb63ff0446503bdd8b8eae17", "is_disabled": 0, "lat": 38.90185133333333, "rental_uris": {"ios": "https://dc.lft.to/lastmile_qr_scan", "android": "https://dc.lft.to/lastmile_qr_scan"}, "is_reserved": 0, "lon": -77.03247783333333, "fusion_lat": 0.0, "name": "55c13d45fb63ff0446503bdd8b8eae17"}, {"type": "electric_scooter", "fusion_lon": 0.0, "bike_id": "f18091a00b71769ccd0dfdde59642442", "is_disabled": 0, "lat": 38.897463333333334, "rental_uris": {"ios": "https://dc.lft.to/lastmile_qr_scan", "android": "https://dc.lft.to/lastmile_qr_scan"}, "is_reserved": 0, "lon": -77.01934666666666, "fusion_lat": 0.0, "name": "f18091a00b71769ccd0dfdde59642442"}, {"type": "electric_scooter", "fusion_lon": 0.0, "bike_id": "710b25d38795a03e763220befed198b4", "is_disabled": 0, "lat": 38.9168885, "rental_uris": {"ios": "https://dc.lft.to/lastmile_qr_scan", "android": "https://dc.lft.to/lastmile_qr_scan"}, "is_reserved": 0, "lon": -77.03623933333333, "fusion_lat": 0.0, "name": "710b25d38795a03e763220befed198b4"}, {"type": "electric_scooter", "fusion_lon": 0.0, "bike_id": "a292bbd8364fea7f2a66678c67065b7d", "is_disabled": 0, "lat": 38.913384, "rental_uris": {"ios": "https://dc.lft.to/lastmile_qr_scan", "android": "https://dc.lft.to/lastmile_qr_scan"}, "is_reserved": 0, "lon": -77.06323466666667, "fusion_lat": 0.0, "name": "a292bbd8364fea7f2a66678c67065b7d"}, {"type": "electric_scooter", "fusion_lon": 0.0, "bike_id": "7a8de15ab9c78f32b48932911d020c50", "is_disabled": 0, "lat": 38.90225266666667, "rental_uris": {"ios": "https://dc.lft.to/lastmile_qr_scan", "android": "https://dc.lft.to/lastmile_qr_scan"}, "is_reserved": 0, "lon": -77.03458733333333, "fusion_lat": 0.0, "name": "7a8de15ab9c78f32b48932911d020c50"}, {"type": "electric_scooter", "fusion_lon": 0.0, "bike_id": "eb202bbafdaf184a4e654f782ca0cc53", "is_disabled": 0, "lat": 38.925125, "rental_uris": {"ios": "https://dc.lft.to/lastmile_qr_scan", "android": "https://dc.lft.to/lastmile_qr_scan"}, "is_reserved": 0, "lon": -77.03790166666667, "fusion_lat": 0.0, "name": "eb202bbafdaf184a4e654f782ca0cc53"}, {"type": "electric_scooter", "fusion_lon": 0.0, "bike_id": "28243c8640273d029b4370df2cd76a28", "is_disabled": 0, "lat": 38.92896866666667, "rental_uris": {"ios": "https://dc.lft.to/lastmile_qr_scan", "android": "https://dc.lft.to/lastmile_qr_scan"}, "is_reserved": 0, "lon": -77.05804883333333, "fusion_lat": 0.0, "name": "28243c8640273d029b4370df2cd76a28"}, {"type": "electric_bike", "fusion_lon": 0.0, "bike_id": "d0c34ac930e5da98ff3c62373ad76f9d", "is_disabled": 0, "lat": 38.83102683333333, "rental_uris": {"ios": "https://dc.lft.to/lastmile_qr_scan", "android": "https://dc.lft.to/lastmile_qr_scan"}, "is_reserved": 0, "lon": -77.11286166666666, "fusion_lat": 0.0, "name": "d0c34ac930e5da98ff3c62373ad76f9d"}, {"type": "electric_bike", "fusion_lon": 0.0, "bike_id": "4ff1358b756b5565c858ef8d73c48cf2", "is_disabled": 0, "lat": 38.95077633333333, "rental_uris": {"ios": "https://dc.lft.to/lastmile_qr_scan", "android": "https://dc.lft.to/lastmile_qr_scan"}, "is_reserved": 0, "lon": -77.01222766666666, "fusion_lat": 0.0, "name": "4ff1358b756b5565c858ef8d73c48cf2"}, {"type": "electric_scooter", "fusion_lon": 0.0, "bike_id": "a7609587db0d96c8d165af338dcd28e0", "is_disabled": 0, "lat": 38.905909333333334, "rental_uris": {"ios": "https://dc.lft.to/lastmile_qr_scan", "android": "https://dc.lft.to/lastmile_qr_scan"}, "is_reserved": 0, "lon": -77.06555466666667, "fusion_lat": 0.0, "name": "a7609587db0d96c8d165af338dcd28e0"}, {"type": "electric_scooter", "fusion_lon": 0.0, "bike_id": "7db75cc5953941c5d7fc77c4c838ab7c", "is_disabled": 0, "lat": 38.93042716666667, "rental_uris": {"ios": "https://dc.lft.to/lastmile_qr_scan", "android": "https://dc.lft.to/lastmile_qr_scan"}, "is_reserved": 0, "lon": -77.02485383333334, "fusion_lat": 0.0, "name": "7db75cc5953941c5d7fc77c4c838ab7c"}, {"type": "electric_bike", "fusion_lon": 0.0, "bike_id": "d0bbd9ee6cc78d5cafe997c7528b685b", "is_disabled": 0, "lat": 38.953281, "rental_uris": {"ios": "https://dc.lft.to/lastmile_qr_scan", "android": "https://dc.lft.to/lastmile_qr_scan"}, "is_reserved": 0, "lon": -76.9824725, "fusion_lat": 0.0, "name": "d0bbd9ee6cc78d5cafe997c7528b685b"}, {"type": "electric_bike", "fusion_lon": 0.0, "bike_id": "4c2776551078f432190665862d8bc37c", "is_disabled": 0, "lat": 38.8383845, "rental_uris": {"ios": "https://dc.lft.to/lastmile_qr_scan", "android": "https://dc.lft.to/lastmile_qr_scan"}, "is_reserved": 0, "lon": -76.99656016666667, "fusion_lat": 0.0, "name": "4c2776551078f432190665862d8bc37c"}, {"type": "electric_scooter", "fusion_lon": 0.0, "bike_id": "e11b3a1bf9456a9cf4e2cf9533e28f56", "is_disabled": 0, "lat": 38.9019955, "rental_uris": {"ios": "https://dc.lft.to/lastmile_qr_scan", "android": "https://dc.lft.to/lastmile_qr_scan"}, "is_reserved": 0, "lon": -77.02521366666667, "fusion_lat": 0.0, "name": "e11b3a1bf9456a9cf4e2cf9533e28f56"}, {"type": "electric_scooter", "fusion_lon": 0.0, "bike_id": "9ca994eac67a87099d217aff4fcb6ec2", "is_disabled": 0, "lat": 38.972156, "rental_uris": {"ios": "https://dc.lft.to/lastmile_qr_scan", "android": "https://dc.lft.to/lastmile_qr_scan"}, "is_reserved": 0, "lon": -77.0271915, "fusion_lat": 0.0, "name": "9ca994eac67a87099d217aff4fcb6ec2"}, {"type": "electric_scooter", "fusion_lon": 0.0, "bike_id": "c2a2b8b111901f357bf67b8fbda99a6a", "is_disabled": 0, "lat": 38.892223, "rental_uris": {"ios": "https://dc.lft.to/lastmile_qr_scan", "android": "https://dc.lft.to/lastmile_qr_scan"}, "is_reserved": 0, "lon": -77.03334866666667, "fusion_lat": 0.0, "name": "c2a2b8b111901f357bf67b8fbda99a6a"}, {"type": "electric_scooter", "fusion_lon": 0.0, "bike_id": "9f717b87655e74172288969150a635a5", "is_disabled": 0, "lat": 38.89745716666667, "rental_uris": {"ios": "https://dc.lft.to/lastmile_qr_scan", "android": "https://dc.lft.to/lastmile_qr_scan"}, "is_reserved": 0, "lon": -77.05001733333333, "fusion_lat": 0.0, "name": "9f717b87655e74172288969150a635a5"}, {"type": "electric_scooter", "fusion_lon": 0.0, "bike_id": "def6fdcc9efb871fd04899436cdcd8e5", "is_disabled": 0, "lat": 38.891911666666665, "rental_uris": {"ios": "https://dc.lft.to/lastmile_qr_scan", "android": "https://dc.lft.to/lastmile_qr_scan"}, "is_reserved": 0, "lon": -76.95271883333334, "fusion_lat": 0.0, "name": "def6fdcc9efb871fd04899436cdcd8e5"}, {"type": "electric_scooter", "fusion_lon": 0.0, "bike_id": "130864f8ec9663242bbe017ea0ff92b1", "is_disabled": 0, "lat": 38.89341683333333, "rental_uris": {"ios": "https://dc.lft.to/lastmile_qr_scan", "android": "https://dc.lft.to/lastmile_qr_scan"}, "is_reserved": 0, "lon": -76.934248, "fusion_lat": 0.0, "name": "130864f8ec9663242bbe017ea0ff92b1"}, {"type": "electric_scooter", "fusion_lon": 0.0, "bike_id": "8083a3f7e05e78dbad686f394a4bfcdd", "is_disabled": 0, "lat": 38.89540783333333, "rental_uris": {"ios": "https://dc.lft.to/lastmile_qr_scan", "android": "https://dc.lft.to/lastmile_qr_scan"}, "is_reserved": 0, "lon": -76.98336383333333, "fusion_lat": 0.0, "name": "8083a3f7e05e78dbad686f394a4bfcdd"}, {"type": "electric_scooter", "fusion_lon": 0.0, "bike_id": "2b97214599862a2956f1a6dbe032bae6", "is_disabled": 0, "lat": 38.93305133333333, "rental_uris": {"ios": "https://dc.lft.to/lastmile_qr_scan", "android": "https://dc.lft.to/lastmile_qr_scan"}, "is_reserved": 0, "lon": -77.0215555, "fusion_lat": 0.0, "name": "2b97214599862a2956f1a6dbe032bae6"}, {"type": "electric_scooter", "fusion_lon": 0.0, "bike_id": "d8a4832035f8f792eb47ec01361f556c", "is_disabled": 0, "lat": 38.902163333333334, "rental_uris": {"ios": "https://dc.lft.to/lastmile_qr_scan", "android": "https://dc.lft.to/lastmile_qr_scan"}, "is_reserved": 0, "lon": -77.06087533333333, "fusion_lat": 0.0, "name": "d8a4832035f8f792eb47ec01361f556c"}, {"type": "electric_bike", "fusion_lon": 0.0, "bike_id": "2b7438e8a90730d6b7119ef10d4e1e61", "is_disabled": 0, "lat": 38.94634083333333, "rental_uris": {"ios": "https://dc.lft.to/lastmile_qr_scan", "android": "https://dc.lft.to/lastmile_qr_scan"}, "is_reserved": 0, "lon": -76.99312483333334, "fusion_lat": 0.0, "name": "2b7438e8a90730d6b7119ef10d4e1e61"}, {"type": "electric_scooter", "fusion_lon": 0.0, "bike_id": "fff1b9ff6cbb6a5ed69bc994baaec561", "is_disabled": 0, "lat": 38.92497316666667, "rental_uris": {"ios": "https://dc.lft.to/lastmile_qr_scan", "android": "https://dc.lft.to/lastmile_qr_scan"}, "is_reserved": 0, "lon": -77.02404416666667, "fusion_lat": 0.0, "name": "fff1b9ff6cbb6a5ed69bc994baaec561"}, {"type": "electric_scooter", "fusion_lon": 0.0, "bike_id": "ca6f24b2fd4b0db53f1dbd5b77ce1c73", "is_disabled": 0, "lat": 38.9214655, "rental_uris": {"ios": "https://dc.lft.to/lastmile_qr_scan", "android": "https://dc.lft.to/lastmile_qr_scan"}, "is_reserved": 0, "lon": -77.0387045, "fusion_lat": 0.0, "name": "ca6f24b2fd4b0db53f1dbd5b77ce1c73"}, {"type": "electric_bike", "fusion_lon": 0.0, "bike_id": "5ac67e46166fab723343ed492fa6ecb5", "is_disabled": 0, "lat": 38.920022, "rental_uris": {"ios": "https://dc.lft.to/lastmile_qr_scan", "android": "https://dc.lft.to/lastmile_qr_scan"}, "is_reserved": 0, "lon": -76.95821933333333, "fusion_lat": 0.0, "name": "5ac67e46166fab723343ed492fa6ecb5"}, {"type": "electric_scooter", "fusion_lon": 0.0, "bike_id": "7acabba5522e7defd6efcf135085c86e", "is_disabled": 0, "lat": 38.907373666666665, "rental_uris": {"ios": "https://dc.lft.to/lastmile_qr_scan", "android": "https://dc.lft.to/lastmile_qr_scan"}, "is_reserved": 0, "lon": -76.97985966666667, "fusion_lat": 0.0, "name": "7acabba5522e7defd6efcf135085c86e"}, {"type": "electric_scooter", "fusion_lon": 0.0, "bike_id": "4397077eb0cdb0bdc914d5aa518f2ade", "is_disabled": 0, "lat": 38.8985415, "rental_uris": {"ios": "https://dc.lft.to/lastmile_qr_scan", "android": "https://dc.lft.to/lastmile_qr_scan"}, "is_reserved": 0, "lon": -77.02578533333333, "fusion_lat": 0.0, "name": "4397077eb0cdb0bdc914d5aa518f2ade"}, {"type": "electric_scooter", "fusion_lon": 0.0, "bike_id": "39fc1f4716b3f11b830963da26abc169", "is_disabled": 0, "lat": 38.92994933333333, "rental_uris": {"ios": "https://dc.lft.to/lastmile_qr_scan", "android": "https://dc.lft.to/lastmile_qr_scan"}, "is_reserved": 0, "lon": -77.02360683333333, "fusion_lat": 0.0, "name": "39fc1f4716b3f11b830963da26abc169"}, {"type": "electric_scooter", "fusion_lon": 0.0, "bike_id": "99ea2b1ce0ef5b74b2ebce622bb3e9c5", "is_disabled": 0, "lat": 38.90418533333333, "rental_uris": {"ios": "https://dc.lft.to/lastmile_qr_scan", "android": "https://dc.lft.to/lastmile_qr_scan"}, "is_reserved": 0, "lon": -77.0488945, "fusion_lat": 0.0, "name": "99ea2b1ce0ef5b74b2ebce622bb3e9c5"}, {"type": "electric_scooter", "fusion_lon": 0.0, "bike_id": "aeedf82f2c2deec09f3650a51bf1f41b", "is_disabled": 0, "lat": 38.8995425, "rental_uris": {"ios": "https://dc.lft.to/lastmile_qr_scan", "android": "https://dc.lft.to/lastmile_qr_scan"}, "is_reserved": 0, "lon": -77.03174766666666, "fusion_lat": 0.0, "name": "aeedf82f2c2deec09f3650a51bf1f41b"}, {"type": "electric_scooter", "fusion_lon": 0.0, "bike_id": "6bc44e2e04f9b5e1248857c505de4aa3", "is_disabled": 0, "lat": 38.9270855, "rental_uris": {"ios": "https://dc.lft.to/lastmile_qr_scan", "android": "https://dc.lft.to/lastmile_qr_scan"}, "is_reserved": 0, "lon": -77.02097083333334, "fusion_lat": 0.0, "name": "6bc44e2e04f9b5e1248857c505de4aa3"}, {"type": "electric_scooter", "fusion_lon": 0.0, "bike_id": "86126e80e092ff433ce9c5d397cf451b", "is_disabled": 0, "lat": 38.916646, "rental_uris": {"ios": "https://dc.lft.to/lastmile_qr_scan", "android": "https://dc.lft.to/lastmile_qr_scan"}, "is_reserved": 0, "lon": -77.03844816666667, "fusion_lat": 0.0, "name": "86126e80e092ff433ce9c5d397cf451b"}, {"type": "electric_scooter", "fusion_lon": 0.0, "bike_id": "838d9b87529f96dd2567af3ac50d43b6", "is_disabled": 0, "lat": 38.904900833333336, "rental_uris": {"ios": "https://dc.lft.to/lastmile_qr_scan", "android": "https://dc.lft.to/lastmile_qr_scan"}, "is_reserved": 0, "lon": -77.021082, "fusion_lat": 0.0, "name": "838d9b87529f96dd2567af3ac50d43b6"}, {"type": "electric_scooter", "fusion_lon": 0.0, "bike_id": "a5aaf3e9d4236c137d6bf8c1d76adc6a", "is_disabled": 0, "lat": 38.917084833333334, "rental_uris": {"ios": "https://dc.lft.to/lastmile_qr_scan", "android": "https://dc.lft.to/lastmile_qr_scan"}, "is_reserved": 0, "lon": -77.02978916666666, "fusion_lat": 0.0, "name": "a5aaf3e9d4236c137d6bf8c1d76adc6a"}, {"type": "electric_scooter", "fusion_lon": 0.0, "bike_id": "04490b8a3b973785bf16df976da0f5cc", "is_disabled": 0, "lat": 38.900366, "rental_uris": {"ios": "https://dc.lft.to/lastmile_qr_scan", "android": "https://dc.lft.to/lastmile_qr_scan"}, "is_reserved": 0, "lon": -76.9914755, "fusion_lat": 0.0, "name": "04490b8a3b973785bf16df976da0f5cc"}, {"type": "electric_scooter", "fusion_lon": 0.0, "bike_id": "c7ce9b7f4e1670a1ca188d2e71fbe2c5", "is_disabled": 0, "lat": 38.90516383333333, "rental_uris": {"ios": "https://dc.lft.to/lastmile_qr_scan", "android": "https://dc.lft.to/lastmile_qr_scan"}, "is_reserved": 0, "lon": -77.063458, "fusion_lat": 0.0, "name": "c7ce9b7f4e1670a1ca188d2e71fbe2c5"}, {"type": "electric_scooter", "fusion_lon": 0.0, "bike_id": "88a12c8264ab592dfd9575b709ec2eb1", "is_disabled": 0, "lat": 38.91812783333334, "rental_uris": {"ios": "https://dc.lft.to/lastmile_qr_scan", "android": "https://dc.lft.to/lastmile_qr_scan"}, "is_reserved": 0, "lon": -77.0271475, "fusion_lat": 0.0, "name": "88a12c8264ab592dfd9575b709ec2eb1"}, {"type": "electric_scooter", "fusion_lon": 0.0, "bike_id": "3b55a6e7d241258ac21a42fc16070cb0", "is_disabled": 0, "lat": 38.90620466666667, "rental_uris": {"ios": "https://dc.lft.to/lastmile_qr_scan", "android": "https://dc.lft.to/lastmile_qr_scan"}, "is_reserved": 0, "lon": -77.00594266666667, "fusion_lat": 0.0, "name": "3b55a6e7d241258ac21a42fc16070cb0"}, {"type": "electric_scooter", "fusion_lon": 0.0, "bike_id": "35eb65b935854c24b7b03352d0018902", "is_disabled": 0, "lat": 38.89813733333333, "rental_uris": {"ios": "https://dc.lft.to/lastmile_qr_scan", "android": "https://dc.lft.to/lastmile_qr_scan"}, "is_reserved": 0, "lon": -77.04879733333334, "fusion_lat": 0.0, "name": "35eb65b935854c24b7b03352d0018902"}, {"type": "electric_scooter", "fusion_lon": 0.0, "bike_id": "5195b42756dd872a61e534219b8a578f", "is_disabled": 0, "lat": 38.900958333333335, "rental_uris": {"ios": "https://dc.lft.to/lastmile_qr_scan", "android": "https://dc.lft.to/lastmile_qr_scan"}, "is_reserved": 0, "lon": -77.03165516666667, "fusion_lat": 0.0, "name": "5195b42756dd872a61e534219b8a578f"}, {"type": "electric_scooter", "fusion_lon": 0.0, "bike_id": "9a76a727d8e23c801114e2a2fd138b01", "is_disabled": 0, "lat": 38.90040783333333, "rental_uris": {"ios": "https://dc.lft.to/lastmile_qr_scan", "android": "https://dc.lft.to/lastmile_qr_scan"}, "is_reserved": 0, "lon": -76.98553466666667, "fusion_lat": 0.0, "name": "9a76a727d8e23c801114e2a2fd138b01"}, {"type": "electric_scooter", "fusion_lon": 0.0, "bike_id": "0fbbee671f300e59e3f376ca7149cf5b", "is_disabled": 0, "lat": 38.922940833333335, "rental_uris": {"ios": "https://dc.lft.to/lastmile_qr_scan", "android": "https://dc.lft.to/lastmile_qr_scan"}, "is_reserved": 0, "lon": -76.99454516666667, "fusion_lat": 0.0, "name": "0fbbee671f300e59e3f376ca7149cf5b"}, {"type": "electric_scooter", "fusion_lon": 0.0, "bike_id": "33d7441a0b64991443131c3562aa5d48", "is_disabled": 0, "lat": 38.918121, "rental_uris": {"ios": "https://dc.lft.to/lastmile_qr_scan", "android": "https://dc.lft.to/lastmile_qr_scan"}, "is_reserved": 0, "lon": -77.03995566666667, "fusion_lat": 0.0, "name": "33d7441a0b64991443131c3562aa5d48"}, {"type": "electric_scooter", "fusion_lon": 0.0, "bike_id": "3b66211493a8e17ba55de57cd08c3494", "is_disabled": 0, "lat": 38.89232833333333, "rental_uris": {"ios": "https://dc.lft.to/lastmile_qr_scan", "android": "https://dc.lft.to/lastmile_qr_scan"}, "is_reserved": 0, "lon": -77.04159683333333, "fusion_lat": 0.0, "name": "3b66211493a8e17ba55de57cd08c3494"}, {"type": "electric_scooter", "fusion_lon": 0.0, "bike_id": "37f03379bb1cba7e6059684b3478c505", "is_disabled": 0, "lat": 38.907212, "rental_uris": {"ios": "https://dc.lft.to/lastmile_qr_scan", "android": "https://dc.lft.to/lastmile_qr_scan"}, "is_reserved": 0, "lon": -77.025446, "fusion_lat": 0.0, "name": "37f03379bb1cba7e6059684b3478c505"}, {"type": "electric_scooter", "fusion_lon": 0.0, "bike_id": "1e9b6feffea150708ab69d59985a8f0f", "is_disabled": 0, "lat": 38.92447716666667, "rental_uris": {"ios": "https://dc.lft.to/lastmile_qr_scan", "android": "https://dc.lft.to/lastmile_qr_scan"}, "is_reserved": 0, "lon": -77.040396, "fusion_lat": 0.0, "name": "1e9b6feffea150708ab69d59985a8f0f"}, {"type": "electric_scooter", "fusion_lon": 0.0, "bike_id": "690c74b2eae10be71feffb74e00e4d1e", "is_disabled": 0, "lat": 38.9181105, "rental_uris": {"ios": "https://dc.lft.to/lastmile_qr_scan", "android": "https://dc.lft.to/lastmile_qr_scan"}, "is_reserved": 0, "lon": -77.03656166666667, "fusion_lat": 0.0, "name": "690c74b2eae10be71feffb74e00e4d1e"}, {"type": "electric_scooter", "fusion_lon": 0.0, "bike_id": "44fd0a863764b1d2781d0fa99e48e153", "is_disabled": 0, "lat": 38.91056866666667, "rental_uris": {"ios": "https://dc.lft.to/lastmile_qr_scan", "android": "https://dc.lft.to/lastmile_qr_scan"}, "is_reserved": 0, "lon": -77.03177966666667, "fusion_lat": 0.0, "name": "44fd0a863764b1d2781d0fa99e48e153"}, {"type": "electric_bike", "fusion_lon": 0.0, "bike_id": "691cd26509fe62009f2b4b94ac1f9073", "is_disabled": 0, "lat": 38.886425333333335, "rental_uris": {"ios": "https://dc.lft.to/lastmile_qr_scan", "android": "https://dc.lft.to/lastmile_qr_scan"}, "is_reserved": 0, "lon": -77.09666, "fusion_lat": 0.0, "name": "691cd26509fe62009f2b4b94ac1f9073"}, {"type": "electric_scooter", "fusion_lon": 0.0, "bike_id": "b1d503eb08b9d7770849d60efedc6c39", "is_disabled": 0, "lat": 38.902159166666664, "rental_uris": {"ios": "https://dc.lft.to/lastmile_qr_scan", "android": "https://dc.lft.to/lastmile_qr_scan"}, "is_reserved": 0, "lon": -77.03609766666666, "fusion_lat": 0.0, "name": "b1d503eb08b9d7770849d60efedc6c39"}, {"type": "electric_scooter", "fusion_lon": 0.0, "bike_id": "0521c6922b7390f50fa855db5a3d48ba", "is_disabled": 0, "lat": 38.919851666666666, "rental_uris": {"ios": "https://dc.lft.to/lastmile_qr_scan", "android": "https://dc.lft.to/lastmile_qr_scan"}, "is_reserved": 0, "lon": -77.02464, "fusion_lat": 0.0, "name": "0521c6922b7390f50fa855db5a3d48ba"}, {"type": "electric_scooter", "fusion_lon": 0.0, "bike_id": "7771978305ea6a03b79ddb4a87541462", "is_disabled": 0, "lat": 38.915316, "rental_uris": {"ios": "https://dc.lft.to/lastmile_qr_scan", "android": "https://dc.lft.to/lastmile_qr_scan"}, "is_reserved": 0, "lon": -77.04442, "fusion_lat": 0.0, "name": "7771978305ea6a03b79ddb4a87541462"}, {"type": "electric_scooter", "fusion_lon": 0.0, "bike_id": "78cd16494a7786223edd9e7f328c05bc", "is_disabled": 0, "lat": 38.92742, "rental_uris": {"ios": "https://dc.lft.to/lastmile_qr_scan", "android": "https://dc.lft.to/lastmile_qr_scan"}, "is_reserved": 0, "lon": -76.95549033333333, "fusion_lat": 0.0, "name": "78cd16494a7786223edd9e7f328c05bc"}, {"type": "electric_scooter", "fusion_lon": 0.0, "bike_id": "ea8b8e655374e18d7d4161c4bfcb1e85", "is_disabled": 0, "lat": 38.8628175, "rental_uris": {"ios": "https://dc.lft.to/lastmile_qr_scan", "android": "https://dc.lft.to/lastmile_qr_scan"}, "is_reserved": 0, "lon": -76.99226366666667, "fusion_lat": 0.0, "name": "ea8b8e655374e18d7d4161c4bfcb1e85"}, {"type": "electric_scooter", "fusion_lon": 0.0, "bike_id": "5bf3c1590559f2a1e2150a067eb315c8", "is_disabled": 0, "lat": 38.867003, "rental_uris": {"ios": "https://dc.lft.to/lastmile_qr_scan", "android": "https://dc.lft.to/lastmile_qr_scan"}, "is_reserved": 0, "lon": -76.98087233333334, "fusion_lat": 0.0, "name": "5bf3c1590559f2a1e2150a067eb315c8"}, {"type": "electric_scooter", "fusion_lon": 0.0, "bike_id": "a9a2e59a5154d150a11df2b55c99b984", "is_disabled": 0, "lat": 38.922996166666664, "rental_uris": {"ios": "https://dc.lft.to/lastmile_qr_scan", "android": "https://dc.lft.to/lastmile_qr_scan"}, "is_reserved": 0, "lon": -77.04207466666666, "fusion_lat": 0.0, "name": "a9a2e59a5154d150a11df2b55c99b984"}, {"type": "electric_scooter", "fusion_lon": 0.0, "bike_id": "cfd649d4a395e388df5cf2c6705c590f", "is_disabled": 0, "lat": 38.9024885, "rental_uris": {"ios": "https://dc.lft.to/lastmile_qr_scan", "android": "https://dc.lft.to/lastmile_qr_scan"}, "is_reserved": 0, "lon": -77.03843033333334, "fusion_lat": 0.0, "name": "cfd649d4a395e388df5cf2c6705c590f"}, {"type": "electric_scooter", "fusion_lon": 0.0, "bike_id": "4c73d08b2155b2fc354c64a60c9a2d84", "is_disabled": 0, "lat": 38.87632883333333, "rental_uris": {"ios": "https://dc.lft.to/lastmile_qr_scan", "android": "https://dc.lft.to/lastmile_qr_scan"}, "is_reserved": 0, "lon": -77.00965016666666, "fusion_lat": 0.0, "name": "4c73d08b2155b2fc354c64a60c9a2d84"}, {"type": "electric_scooter", "fusion_lon": 0.0, "bike_id": "6c3536344b19625e1bc8d2e047ecbca4", "is_disabled": 0, "lat": 38.948924166666664, "rental_uris": {"ios": "https://dc.lft.to/lastmile_qr_scan", "android": "https://dc.lft.to/lastmile_qr_scan"}, "is_reserved": 0, "lon": -77.01852566666666, "fusion_lat": 0.0, "name": "6c3536344b19625e1bc8d2e047ecbca4"}, {"type": "electric_bike", "fusion_lon": 0.0, "bike_id": "770656128e3f542de9b647f3771a2a95", "is_disabled": 0, "lat": 38.8489335, "rental_uris": {"ios": "https://dc.lft.to/lastmile_qr_scan", "android": "https://dc.lft.to/lastmile_qr_scan"}, "is_reserved": 0, "lon": -77.07956366666667, "fusion_lat": 0.0, "name": "770656128e3f542de9b647f3771a2a95"}, {"type": "electric_scooter", "fusion_lon": 0.0, "bike_id": "d7037c7d4681497b3f53852da6f90f34", "is_disabled": 0, "lat": 38.89231266666667, "rental_uris": {"ios": "https://dc.lft.to/lastmile_qr_scan", "android": "https://dc.lft.to/lastmile_qr_scan"}, "is_reserved": 0, "lon": -77.02825133333333, "fusion_lat": 0.0, "name": "d7037c7d4681497b3f53852da6f90f34"}, {"type": "electric_scooter", "fusion_lon": 0.0, "bike_id": "a3afa53664f685afbfc5ebdeb0cc10f3", "is_disabled": 0, "lat": 38.92726, "rental_uris": {"ios": "https://dc.lft.to/lastmile_qr_scan", "android": "https://dc.lft.to/lastmile_qr_scan"}, "is_reserved": 0, "lon": -77.05265866666667, "fusion_lat": 0.0, "name": "a3afa53664f685afbfc5ebdeb0cc10f3"}, {"type": "electric_scooter", "fusion_lon": 0.0, "bike_id": "b0ce34cc7865e8e719e100552d0bbc15", "is_disabled": 0, "lat": 38.9294335, "rental_uris": {"ios": "https://dc.lft.to/lastmile_qr_scan", "android": "https://dc.lft.to/lastmile_qr_scan"}, "is_reserved": 0, "lon": -77.0377085, "fusion_lat": 0.0, "name": "b0ce34cc7865e8e719e100552d0bbc15"}, {"type": "electric_scooter", "fusion_lon": 0.0, "bike_id": "604c0368ff2333c099f870b7bf78a712", "is_disabled": 0, "lat": 38.87108516666667, "rental_uris": {"ios": "https://dc.lft.to/lastmile_qr_scan", "android": "https://dc.lft.to/lastmile_qr_scan"}, "is_reserved": 0, "lon": -77.00760116666666, "fusion_lat": 0.0, "name": "604c0368ff2333c099f870b7bf78a712"}, {"type": "electric_scooter", "fusion_lon": 0.0, "bike_id": "d5b2d1e703400d15effa7190d2cb8f99", "is_disabled": 0, "lat": 38.913441666666664, "rental_uris": {"ios": "https://dc.lft.to/lastmile_qr_scan", "android": "https://dc.lft.to/lastmile_qr_scan"}, "is_reserved": 0, "lon": -77.06414316666667, "fusion_lat": 0.0, "name": "d5b2d1e703400d15effa7190d2cb8f99"}, {"type": "electric_scooter", "fusion_lon": 0.0, "bike_id": "e779fc0020b2b18e592be74f479cba29", "is_disabled": 0, "lat": 38.9242825, "rental_uris": {"ios": "https://dc.lft.to/lastmile_qr_scan", "android": "https://dc.lft.to/lastmile_qr_scan"}, "is_reserved": 0, "lon": -77.04252033333333, "fusion_lat": 0.0, "name": "e779fc0020b2b18e592be74f479cba29"}, {"type": "electric_bike", "fusion_lon": 0.0, "bike_id": "0f369fcda2f396ae0e81c40876476b12", "is_disabled": 0, "lat": 38.799845166666664, "rental_uris": {"ios": "https://dc.lft.to/lastmile_qr_scan", "android": "https://dc.lft.to/lastmile_qr_scan"}, "is_reserved": 0, "lon": -77.129795, "fusion_lat": 0.0, "name": "0f369fcda2f396ae0e81c40876476b12"}, {"type": "electric_bike", "fusion_lon": 0.0, "bike_id": "935df126f84cdaa71402a6af50b9543d", "is_disabled": 0, "lat": 38.855466666666665, "rental_uris": {"ios": "https://dc.lft.to/lastmile_qr_scan", "android": "https://dc.lft.to/lastmile_qr_scan"}, "is_reserved": 0, "lon": -76.97334083333334, "fusion_lat": 0.0, "name": "935df126f84cdaa71402a6af50b9543d"}, {"type": "electric_bike", "fusion_lon": 0.0, "bike_id": "d5ef0ed806ca357f22660f6bb481c0cd", "is_disabled": 0, "lat": 38.812456833333336, "rental_uris": {"ios": "https://dc.lft.to/lastmile_qr_scan", "android": "https://dc.lft.to/lastmile_qr_scan"}, "is_reserved": 0, "lon": -77.11765883333334, "fusion_lat": 0.0, "name": "d5ef0ed806ca357f22660f6bb481c0cd"}, {"type": "electric_scooter", "fusion_lon": 0.0, "bike_id": "3e90d555546e2d07132fec6a0bb96597", "is_disabled": 0, "lat": 38.91412366666667, "rental_uris": {"ios": "https://dc.lft.to/lastmile_qr_scan", "android": "https://dc.lft.to/lastmile_qr_scan"}, "is_reserved": 0, "lon": -77.03176933333333, "fusion_lat": 0.0, "name": "3e90d555546e2d07132fec6a0bb96597"}, {"type": "electric_scooter", "fusion_lon": 0.0, "bike_id": "3e50f458b668164722875afa9e95266a", "is_disabled": 0, "lat": 38.94274683333333, "rental_uris": {"ios": "https://dc.lft.to/lastmile_qr_scan", "android": "https://dc.lft.to/lastmile_qr_scan"}, "is_reserved": 0, "lon": -77.03253566666666, "fusion_lat": 0.0, "name": "3e50f458b668164722875afa9e95266a"}, {"type": "electric_scooter", "fusion_lon": 0.0, "bike_id": "f8561a90d128ffa7d4c171d7b37786a0", "is_disabled": 0, "lat": 38.8922195, "rental_uris": {"ios": "https://dc.lft.to/lastmile_qr_scan", "android": "https://dc.lft.to/lastmile_qr_scan"}, "is_reserved": 0, "lon": -77.04470083333334, "fusion_lat": 0.0, "name": "f8561a90d128ffa7d4c171d7b37786a0"}, {"type": "electric_scooter", "fusion_lon": 0.0, "bike_id": "cb00131148545bc23a5a6cb81f516f12", "is_disabled": 0, "lat": 38.898274666666666, "rental_uris": {"ios": "https://dc.lft.to/lastmile_qr_scan", "android": "https://dc.lft.to/lastmile_qr_scan"}, "is_reserved": 0, "lon": -77.049093, "fusion_lat": 0.0, "name": "cb00131148545bc23a5a6cb81f516f12"}, {"type": "electric_scooter", "fusion_lon": 0.0, "bike_id": "06d7d0cb601d890e07255e1dbb74596a", "is_disabled": 0, "lat": 38.922970666666664, "rental_uris": {"ios": "https://dc.lft.to/lastmile_qr_scan", "android": "https://dc.lft.to/lastmile_qr_scan"}, "is_reserved": 0, "lon": -77.04206183333334, "fusion_lat": 0.0, "name": "06d7d0cb601d890e07255e1dbb74596a"}, {"type": "electric_scooter", "fusion_lon": 0.0, "bike_id": "f68b1c1469078b453b9548ef81147df7", "is_disabled": 0, "lat": 38.92643266666666, "rental_uris": {"ios": "https://dc.lft.to/lastmile_qr_scan", "android": "https://dc.lft.to/lastmile_qr_scan"}, "is_reserved": 0, "lon": -77.05330133333334, "fusion_lat": 0.0, "name": "f68b1c1469078b453b9548ef81147df7"}, {"type": "electric_scooter", "fusion_lon": 0.0, "bike_id": "fab929a5b08cbdae73fd3e73284bb4ba", "is_disabled": 0, "lat": 38.903105333333336, "rental_uris": {"ios": "https://dc.lft.to/lastmile_qr_scan", "android": "https://dc.lft.to/lastmile_qr_scan"}, "is_reserved": 0, "lon": -76.978035, "fusion_lat": 0.0, "name": "fab929a5b08cbdae73fd3e73284bb4ba"}, {"type": "electric_scooter", "fusion_lon": 0.0, "bike_id": "f89dbaddcebea642f68fcf49526069b1", "is_disabled": 0, "lat": 38.873821666666664, "rental_uris": {"ios": "https://dc.lft.to/lastmile_qr_scan", "android": "https://dc.lft.to/lastmile_qr_scan"}, "is_reserved": 0, "lon": -77.0006525, "fusion_lat": 0.0, "name": "f89dbaddcebea642f68fcf49526069b1"}, {"type": "electric_scooter", "fusion_lon": 0.0, "bike_id": "b3e57d0595ada77a8783efc83dba08f9", "is_disabled": 0, "lat": 38.9195045, "rental_uris": {"ios": "https://dc.lft.to/lastmile_qr_scan", "android": "https://dc.lft.to/lastmile_qr_scan"}, "is_reserved": 0, "lon": -77.01782466666667, "fusion_lat": 0.0, "name": "b3e57d0595ada77a8783efc83dba08f9"}, {"type": "electric_scooter", "fusion_lon": 0.0, "bike_id": "e09bc95780618047b3fd984b8a3c27f5", "is_disabled": 0, "lat": 38.9177785, "rental_uris": {"ios": "https://dc.lft.to/lastmile_qr_scan", "android": "https://dc.lft.to/lastmile_qr_scan"}, "is_reserved": 0, "lon": -77.02416166666667, "fusion_lat": 0.0, "name": "e09bc95780618047b3fd984b8a3c27f5"}, {"type": "electric_scooter", "fusion_lon": 0.0, "bike_id": "409b47165beeedaa16c5219a58444117", "is_disabled": 0, "lat": 38.92000916666667, "rental_uris": {"ios": "https://dc.lft.to/lastmile_qr_scan", "android": "https://dc.lft.to/lastmile_qr_scan"}, "is_reserved": 0, "lon": -77.01826366666667, "fusion_lat": 0.0, "name": "409b47165beeedaa16c5219a58444117"}, {"type": "electric_scooter", "fusion_lon": 0.0, "bike_id": "1bec4e619543927efb2502d38c367daf", "is_disabled": 0, "lat": 38.891947333333334, "rental_uris": {"ios": "https://dc.lft.to/lastmile_qr_scan", "android": "https://dc.lft.to/lastmile_qr_scan"}, "is_reserved": 0, "lon": -77.00289033333334, "fusion_lat": 0.0, "name": "1bec4e619543927efb2502d38c367daf"}, {"type": "electric_scooter", "fusion_lon": 0.0, "bike_id": "ff1c09cc9a101368a9a27ce946c9b3b4", "is_disabled": 0, "lat": 38.915446833333334, "rental_uris": {"ios": "https://dc.lft.to/lastmile_qr_scan", "android": "https://dc.lft.to/lastmile_qr_scan"}, "is_reserved": 0, "lon": -77.0211335, "fusion_lat": 0.0, "name": "ff1c09cc9a101368a9a27ce946c9b3b4"}, {"type": "electric_scooter", "fusion_lon": 0.0, "bike_id": "1b5350ffec67801da9fcd5887950ca78", "is_disabled": 0, "lat": 38.905313666666665, "rental_uris": {"ios": "https://dc.lft.to/lastmile_qr_scan", "android": "https://dc.lft.to/lastmile_qr_scan"}, "is_reserved": 0, "lon": -77.02205733333334, "fusion_lat": 0.0, "name": "1b5350ffec67801da9fcd5887950ca78"}, {"type": "electric_scooter", "fusion_lon": 0.0, "bike_id": "f5acfbb5efc576442e01f9c7e2383229", "is_disabled": 0, "lat": 38.886623, "rental_uris": {"ios": "https://dc.lft.to/lastmile_qr_scan", "android": "https://dc.lft.to/lastmile_qr_scan"}, "is_reserved": 0, "lon": -77.02815116666666, "fusion_lat": 0.0, "name": "f5acfbb5efc576442e01f9c7e2383229"}, {"type": "electric_scooter", "fusion_lon": 0.0, "bike_id": "dc7a64dbf127a2092b396f2030dafcec", "is_disabled": 0, "lat": 38.91415683333334, "rental_uris": {"ios": "https://dc.lft.to/lastmile_qr_scan", "android": "https://dc.lft.to/lastmile_qr_scan"}, "is_reserved": 0, "lon": -77.01075216666666, "fusion_lat": 0.0, "name": "dc7a64dbf127a2092b396f2030dafcec"}, {"type": "electric_scooter", "fusion_lon": 0.0, "bike_id": "8184d586a1534fca031264fa512026e4", "is_disabled": 0, "lat": 38.904885, "rental_uris": {"ios": "https://dc.lft.to/lastmile_qr_scan", "android": "https://dc.lft.to/lastmile_qr_scan"}, "is_reserved": 0, "lon": -77.027184, "fusion_lat": 0.0, "name": "8184d586a1534fca031264fa512026e4"}, {"type": "electric_scooter", "fusion_lon": 0.0, "bike_id": "e119929872180ac4d1e5b5f8024d57b9", "is_disabled": 0, "lat": 38.9194955, "rental_uris": {"ios": "https://dc.lft.to/lastmile_qr_scan", "android": "https://dc.lft.to/lastmile_qr_scan"}, "is_reserved": 0, "lon": -77.02598933333333, "fusion_lat": 0.0, "name": "e119929872180ac4d1e5b5f8024d57b9"}, {"type": "electric_bike", "fusion_lon": 0.0, "bike_id": "bf1b147654481456f31703c8eecf95f1", "is_disabled": 0, "lat": 38.835894, "rental_uris": {"ios": "https://dc.lft.to/lastmile_qr_scan", "android": "https://dc.lft.to/lastmile_qr_scan"}, "is_reserved": 0, "lon": -77.00138233333334, "fusion_lat": 0.0, "name": "bf1b147654481456f31703c8eecf95f1"}, {"type": "electric_scooter", "fusion_lon": 0.0, "bike_id": "2f6dc05035c4f1182d84fb0312190a06", "is_disabled": 0, "lat": 38.892285, "rental_uris": {"ios": "https://dc.lft.to/lastmile_qr_scan", "android": "https://dc.lft.to/lastmile_qr_scan"}, "is_reserved": 0, "lon": -77.04653983333333, "fusion_lat": 0.0, "name": "2f6dc05035c4f1182d84fb0312190a06"}, {"type": "electric_scooter", "fusion_lon": 0.0, "bike_id": "f5d8311503a3b93d805807f559eb6b30", "is_disabled": 0, "lat": 38.90759516666667, "rental_uris": {"ios": "https://dc.lft.to/lastmile_qr_scan", "android": "https://dc.lft.to/lastmile_qr_scan"}, "is_reserved": 0, "lon": -77.01691183333334, "fusion_lat": 0.0, "name": "f5d8311503a3b93d805807f559eb6b30"}, {"type": "electric_scooter", "fusion_lon": 0.0, "bike_id": "79b0d83f0e302eaffa93fe9e746b9909", "is_disabled": 0, "lat": 38.88295383333333, "rental_uris": {"ios": "https://dc.lft.to/lastmile_qr_scan", "android": "https://dc.lft.to/lastmile_qr_scan"}, "is_reserved": 0, "lon": -77.0220295, "fusion_lat": 0.0, "name": "79b0d83f0e302eaffa93fe9e746b9909"}, {"type": "electric_scooter", "fusion_lon": 0.0, "bike_id": "bbb77e30085be0fb8520ce1d51cd2783", "is_disabled": 0, "lat": 38.9440455, "rental_uris": {"ios": "https://dc.lft.to/lastmile_qr_scan", "android": "https://dc.lft.to/lastmile_qr_scan"}, "is_reserved": 0, "lon": -77.03907433333333, "fusion_lat": 0.0, "name": "bbb77e30085be0fb8520ce1d51cd2783"}, {"type": "electric_scooter", "fusion_lon": 0.0, "bike_id": "70364937192fa90af5a2632b35d6d008", "is_disabled": 0, "lat": 38.90910016666667, "rental_uris": {"ios": "https://dc.lft.to/lastmile_qr_scan", "android": "https://dc.lft.to/lastmile_qr_scan"}, "is_reserved": 0, "lon": -77.04487283333333, "fusion_lat": 0.0, "name": "70364937192fa90af5a2632b35d6d008"}, {"type": "electric_scooter", "fusion_lon": 0.0, "bike_id": "c1c1def2324f85006c8942a697b83ceb", "is_disabled": 0, "lat": 38.9264515, "rental_uris": {"ios": "https://dc.lft.to/lastmile_qr_scan", "android": "https://dc.lft.to/lastmile_qr_scan"}, "is_reserved": 0, "lon": -77.0242825, "fusion_lat": 0.0, "name": "c1c1def2324f85006c8942a697b83ceb"}, {"type": "electric_scooter", "fusion_lon": 0.0, "bike_id": "b08dd87d39852125fcfd7c7171213400", "is_disabled": 0, "lat": 38.89235516666667, "rental_uris": {"ios": "https://dc.lft.to/lastmile_qr_scan", "android": "https://dc.lft.to/lastmile_qr_scan"}, "is_reserved": 0, "lon": -77.03212183333333, "fusion_lat": 0.0, "name": "b08dd87d39852125fcfd7c7171213400"}, {"type": "electric_scooter", "fusion_lon": 0.0, "bike_id": "99861d316620c7e815f52b6025738a4c", "is_disabled": 0, "lat": 38.9342505, "rental_uris": {"ios": "https://dc.lft.to/lastmile_qr_scan", "android": "https://dc.lft.to/lastmile_qr_scan"}, "is_reserved": 0, "lon": -77.04001766666667, "fusion_lat": 0.0, "name": "99861d316620c7e815f52b6025738a4c"}, {"type": "electric_scooter", "fusion_lon": 0.0, "bike_id": "2099ad633351abd9df49298f835eb39d", "is_disabled": 0, "lat": 38.903362666666666, "rental_uris": {"ios": "https://dc.lft.to/lastmile_qr_scan", "android": "https://dc.lft.to/lastmile_qr_scan"}, "is_reserved": 0, "lon": -77.03206266666666, "fusion_lat": 0.0, "name": "2099ad633351abd9df49298f835eb39d"}, {"type": "electric_scooter", "fusion_lon": 0.0, "bike_id": "1d51986654eb616ada10940bab582626", "is_disabled": 0, "lat": 38.894478666666664, "rental_uris": {"ios": "https://dc.lft.to/lastmile_qr_scan", "android": "https://dc.lft.to/lastmile_qr_scan"}, "is_reserved": 0, "lon": -76.99718683333333, "fusion_lat": 0.0, "name": "1d51986654eb616ada10940bab582626"}, {"type": "electric_scooter", "fusion_lon": 0.0, "bike_id": "8332a62c950d655fe99cc9df754986fb", "is_disabled": 0, "lat": 38.905470666666666, "rental_uris": {"ios": "https://dc.lft.to/lastmile_qr_scan", "android": "https://dc.lft.to/lastmile_qr_scan"}, "is_reserved": 0, "lon": -77.00605266666666, "fusion_lat": 0.0, "name": "8332a62c950d655fe99cc9df754986fb"}, {"type": "electric_bike", "fusion_lon": 0.0, "bike_id": "5137fa0ef8692c40dcdd08dd0f962960", "is_disabled": 0, "lat": 38.835119666666664, "rental_uris": {"ios": "https://dc.lft.to/lastmile_qr_scan", "android": "https://dc.lft.to/lastmile_qr_scan"}, "is_reserved": 0, "lon": -76.986686, "fusion_lat": 0.0, "name": "5137fa0ef8692c40dcdd08dd0f962960"}, {"type": "electric_scooter", "fusion_lon": 0.0, "bike_id": "673e856399f4ef640d1515a0819a282e", "is_disabled": 0, "lat": 38.91124033333333, "rental_uris": {"ios": "https://dc.lft.to/lastmile_qr_scan", "android": "https://dc.lft.to/lastmile_qr_scan"}, "is_reserved": 0, "lon": -77.02200183333333, "fusion_lat": 0.0, "name": "673e856399f4ef640d1515a0819a282e"}, {"type": "electric_scooter", "fusion_lon": 0.0, "bike_id": "152e7680367a55bb027cb628f80bcd75", "is_disabled": 0, "lat": 38.91474816666667, "rental_uris": {"ios": "https://dc.lft.to/lastmile_qr_scan", "android": "https://dc.lft.to/lastmile_qr_scan"}, "is_reserved": 0, "lon": -77.032016, "fusion_lat": 0.0, "name": "152e7680367a55bb027cb628f80bcd75"}, {"type": "electric_scooter", "fusion_lon": 0.0, "bike_id": "3f67212f13194f570cfb6b3002599f42", "is_disabled": 0, "lat": 38.90664816666666, "rental_uris": {"ios": "https://dc.lft.to/lastmile_qr_scan", "android": "https://dc.lft.to/lastmile_qr_scan"}, "is_reserved": 0, "lon": -76.9794275, "fusion_lat": 0.0, "name": "3f67212f13194f570cfb6b3002599f42"}, {"type": "electric_scooter", "fusion_lon": 0.0, "bike_id": "f4c2445431d480ffeb65030ea87be4af", "is_disabled": 0, "lat": 38.935081833333335, "rental_uris": {"ios": "https://dc.lft.to/lastmile_qr_scan", "android": "https://dc.lft.to/lastmile_qr_scan"}, "is_reserved": 0, "lon": -77.02419133333333, "fusion_lat": 0.0, "name": "f4c2445431d480ffeb65030ea87be4af"}, {"type": "electric_scooter", "fusion_lon": 0.0, "bike_id": "71a3b043cdd02301bb083039b2e4f549", "is_disabled": 0, "lat": 38.916351, "rental_uris": {"ios": "https://dc.lft.to/lastmile_qr_scan", "android": "https://dc.lft.to/lastmile_qr_scan"}, "is_reserved": 0, "lon": -77.03991266666667, "fusion_lat": 0.0, "name": "71a3b043cdd02301bb083039b2e4f549"}, {"type": "electric_scooter", "fusion_lon": 0.0, "bike_id": "b076b3015ad5b85474003d8ad1781a99", "is_disabled": 0, "lat": 38.889951833333335, "rental_uris": {"ios": "https://dc.lft.to/lastmile_qr_scan", "android": "https://dc.lft.to/lastmile_qr_scan"}, "is_reserved": 0, "lon": -76.9543435, "fusion_lat": 0.0, "name": "b076b3015ad5b85474003d8ad1781a99"}, {"type": "electric_scooter", "fusion_lon": 0.0, "bike_id": "2f0a44d18408469d08af6807bb3b52ff", "is_disabled": 0, "lat": 38.90849633333333, "rental_uris": {"ios": "https://dc.lft.to/lastmile_qr_scan", "android": "https://dc.lft.to/lastmile_qr_scan"}, "is_reserved": 0, "lon": -76.9968045, "fusion_lat": 0.0, "name": "2f0a44d18408469d08af6807bb3b52ff"}, {"type": "electric_scooter", "fusion_lon": 0.0, "bike_id": "8173ce49eff3e76992cbad4014a486ff", "is_disabled": 0, "lat": 38.91959083333333, "rental_uris": {"ios": "https://dc.lft.to/lastmile_qr_scan", "android": "https://dc.lft.to/lastmile_qr_scan"}, "is_reserved": 0, "lon": -77.04119983333334, "fusion_lat": 0.0, "name": "8173ce49eff3e76992cbad4014a486ff"}, {"type": "electric_scooter", "fusion_lon": 0.0, "bike_id": "7775d4c20b5408c68991ccb8ae22c22d", "is_disabled": 0, "lat": 38.900364833333335, "rental_uris": {"ios": "https://dc.lft.to/lastmile_qr_scan", "android": "https://dc.lft.to/lastmile_qr_scan"}, "is_reserved": 0, "lon": -77.02404783333333, "fusion_lat": 0.0, "name": "7775d4c20b5408c68991ccb8ae22c22d"}, {"type": "electric_bike", "fusion_lon": 0.0, "bike_id": "a019d4e5317ca6cee5355606121ba3a6", "is_disabled": 0, "lat": 38.92205466666667, "rental_uris": {"ios": "https://dc.lft.to/lastmile_qr_scan", "android": "https://dc.lft.to/lastmile_qr_scan"}, "is_reserved": 0, "lon": -77.08197216666667, "fusion_lat": 0.0, "name": "a019d4e5317ca6cee5355606121ba3a6"}, {"type": "electric_scooter", "fusion_lon": 0.0, "bike_id": "eb40381f1f3fd0c7ec1966f001383800", "is_disabled": 0, "lat": 38.917808666666666, "rental_uris": {"ios": "https://dc.lft.to/lastmile_qr_scan", "android": "https://dc.lft.to/lastmile_qr_scan"}, "is_reserved": 0, "lon": -77.02414333333333, "fusion_lat": 0.0, "name": "eb40381f1f3fd0c7ec1966f001383800"}, {"type": "electric_scooter", "fusion_lon": 0.0, "bike_id": "45469fef51bc5b5e5e79e752cd0f63a7", "is_disabled": 0, "lat": 38.91719883333333, "rental_uris": {"ios": "https://dc.lft.to/lastmile_qr_scan", "android": "https://dc.lft.to/lastmile_qr_scan"}, "is_reserved": 0, "lon": -77.03226183333334, "fusion_lat": 0.0, "name": "45469fef51bc5b5e5e79e752cd0f63a7"}, {"type": "electric_scooter", "fusion_lon": 0.0, "bike_id": "4adc7a55128b38ab501f621ea079e879", "is_disabled": 0, "lat": 38.922445833333335, "rental_uris": {"ios": "https://dc.lft.to/lastmile_qr_scan", "android": "https://dc.lft.to/lastmile_qr_scan"}, "is_reserved": 0, "lon": -77.07347283333333, "fusion_lat": 0.0, "name": "4adc7a55128b38ab501f621ea079e879"}, {"type": "electric_bike", "fusion_lon": 0.0, "bike_id": "ab5376e73da22774fef94fa0d9e44f3d", "is_disabled": 0, "lat": 38.862289833333335, "rental_uris": {"ios": "https://dc.lft.to/lastmile_qr_scan", "android": "https://dc.lft.to/lastmile_qr_scan"}, "is_reserved": 0, "lon": -76.995827, "fusion_lat": 0.0, "name": "ab5376e73da22774fef94fa0d9e44f3d"}, {"type": "electric_scooter", "fusion_lon": 0.0, "bike_id": "0bdeda080804160f17684229dd610e6f", "is_disabled": 0, "lat": 38.917024, "rental_uris": {"ios": "https://dc.lft.to/lastmile_qr_scan", "android": "https://dc.lft.to/lastmile_qr_scan"}, "is_reserved": 0, "lon": -77.03470783333333, "fusion_lat": 0.0, "name": "0bdeda080804160f17684229dd610e6f"}, {"type": "electric_scooter", "fusion_lon": 0.0, "bike_id": "d0a1a5403be3b5f854b3c0fc0508bd02", "is_disabled": 0, "lat": 38.876682, "rental_uris": {"ios": "https://dc.lft.to/lastmile_qr_scan", "android": "https://dc.lft.to/lastmile_qr_scan"}, "is_reserved": 0, "lon": -77.009381, "fusion_lat": 0.0, "name": "d0a1a5403be3b5f854b3c0fc0508bd02"}, {"type": "electric_scooter", "fusion_lon": 0.0, "bike_id": "5cc9a294a1748b1c98ff4830af80ffe8", "is_disabled": 0, "lat": 38.877856333333334, "rental_uris": {"ios": "https://dc.lft.to/lastmile_qr_scan", "android": "https://dc.lft.to/lastmile_qr_scan"}, "is_reserved": 0, "lon": -76.994096, "fusion_lat": 0.0, "name": "5cc9a294a1748b1c98ff4830af80ffe8"}, {"type": "electric_scooter", "fusion_lon": 0.0, "bike_id": "63eee2d36761df1807c14b803b9cdce8", "is_disabled": 0, "lat": 38.916352, "rental_uris": {"ios": "https://dc.lft.to/lastmile_qr_scan", "android": "https://dc.lft.to/lastmile_qr_scan"}, "is_reserved": 0, "lon": -77.0320355, "fusion_lat": 0.0, "name": "63eee2d36761df1807c14b803b9cdce8"}, {"type": "electric_scooter", "fusion_lon": 0.0, "bike_id": "a1c4cfde978bc3232abd74642c6d1da4", "is_disabled": 0, "lat": 38.915685333333336, "rental_uris": {"ios": "https://dc.lft.to/lastmile_qr_scan", "android": "https://dc.lft.to/lastmile_qr_scan"}, "is_reserved": 0, "lon": -77.019975, "fusion_lat": 0.0, "name": "a1c4cfde978bc3232abd74642c6d1da4"}, {"type": "electric_scooter", "fusion_lon": 0.0, "bike_id": "8f925a865addd38eea2ddf84d506720d", "is_disabled": 0, "lat": 38.923118, "rental_uris": {"ios": "https://dc.lft.to/lastmile_qr_scan", "android": "https://dc.lft.to/lastmile_qr_scan"}, "is_reserved": 0, "lon": -77.0304875, "fusion_lat": 0.0, "name": "8f925a865addd38eea2ddf84d506720d"}, {"type": "electric_scooter", "fusion_lon": 0.0, "bike_id": "81ae2635de596ef284b8d75392daddd9", "is_disabled": 0, "lat": 38.9349465, "rental_uris": {"ios": "https://dc.lft.to/lastmile_qr_scan", "android": "https://dc.lft.to/lastmile_qr_scan"}, "is_reserved": 0, "lon": -77.02724766666667, "fusion_lat": 0.0, "name": "81ae2635de596ef284b8d75392daddd9"}, {"type": "electric_scooter", "fusion_lon": 0.0, "bike_id": "0ac13cc522939eb811a897456fac46b8", "is_disabled": 0, "lat": 38.8747265, "rental_uris": {"ios": "https://dc.lft.to/lastmile_qr_scan", "android": "https://dc.lft.to/lastmile_qr_scan"}, "is_reserved": 0, "lon": -77.00414133333334, "fusion_lat": 0.0, "name": "0ac13cc522939eb811a897456fac46b8"}, {"type": "electric_scooter", "fusion_lon": 0.0, "bike_id": "68bfb46bce9b87cf14e9bfbaca06a128", "is_disabled": 0, "lat": 38.895936166666665, "rental_uris": {"ios": "https://dc.lft.to/lastmile_qr_scan", "android": "https://dc.lft.to/lastmile_qr_scan"}, "is_reserved": 0, "lon": -76.95761016666667, "fusion_lat": 0.0, "name": "68bfb46bce9b87cf14e9bfbaca06a128"}, {"type": "electric_scooter", "fusion_lon": 0.0, "bike_id": "baf553de3e005aab414069d6f68b980b", "is_disabled": 0, "lat": 38.919768833333336, "rental_uris": {"ios": "https://dc.lft.to/lastmile_qr_scan", "android": "https://dc.lft.to/lastmile_qr_scan"}, "is_reserved": 0, "lon": -77.0236885, "fusion_lat": 0.0, "name": "baf553de3e005aab414069d6f68b980b"}, {"type": "electric_scooter", "fusion_lon": 0.0, "bike_id": "4f9d77965d9d090061f8d9693a023146", "is_disabled": 0, "lat": 38.8922795, "rental_uris": {"ios": "https://dc.lft.to/lastmile_qr_scan", "android": "https://dc.lft.to/lastmile_qr_scan"}, "is_reserved": 0, "lon": -77.0241775, "fusion_lat": 0.0, "name": "4f9d77965d9d090061f8d9693a023146"}, {"type": "electric_scooter", "fusion_lon": 0.0, "bike_id": "918bd52fa5021602529ebac034441288", "is_disabled": 0, "lat": 38.91652766666667, "rental_uris": {"ios": "https://dc.lft.to/lastmile_qr_scan", "android": "https://dc.lft.to/lastmile_qr_scan"}, "is_reserved": 0, "lon": -77.03678933333333, "fusion_lat": 0.0, "name": "918bd52fa5021602529ebac034441288"}, {"type": "electric_scooter", "fusion_lon": 0.0, "bike_id": "62ef813e2f3308345926e018121393fb", "is_disabled": 0, "lat": 38.90025883333333, "rental_uris": {"ios": "https://dc.lft.to/lastmile_qr_scan", "android": "https://dc.lft.to/lastmile_qr_scan"}, "is_reserved": 0, "lon": -76.9974455, "fusion_lat": 0.0, "name": "62ef813e2f3308345926e018121393fb"}, {"type": "electric_scooter", "fusion_lon": 0.0, "bike_id": "263da30040d69293a73aab57f455aa66", "is_disabled": 0, "lat": 38.895383333333335, "rental_uris": {"ios": "https://dc.lft.to/lastmile_qr_scan", "android": "https://dc.lft.to/lastmile_qr_scan"}, "is_reserved": 0, "lon": -77.0160305, "fusion_lat": 0.0, "name": "263da30040d69293a73aab57f455aa66"}, {"type": "electric_scooter", "fusion_lon": 0.0, "bike_id": "a398567c08f96ff74178a7995e1857b8", "is_disabled": 0, "lat": 38.891679, "rental_uris": {"ios": "https://dc.lft.to/lastmile_qr_scan", "android": "https://dc.lft.to/lastmile_qr_scan"}, "is_reserved": 0, "lon": -77.01550333333333, "fusion_lat": 0.0, "name": "a398567c08f96ff74178a7995e1857b8"},