{"data": {"bikes": [{"fusion_lat": 0.0, "bike_id": "38a4621624dae1f4d5f190140a745043", "fusion_lon": 0.0, "lon": -77.0238705, "lat": 38.892358333333334, "is_reserved": 0, "is_disabled": 0, "rental_uris": {"android": "https://dc.lft.to/lastmile_qr_scan", "ios": "https://dc.lft.to/lastmile_qr_scan"}, "name": "38a4621624dae1f4d5f190140a745043", "type": "electric_scooter"}, {"fusion_lat": 0.0, "bike_id": "ffb6ff6269769753234f27d69c84edef", "fusion_lon": 0.0, "lon": -77.01887766666667, "lat": 38.930848166666664, "is_reserved": 0, "is_disabled": 0, "rental_uris": {"android": "https://dc.lft.to/lastmile_qr_scan", "ios": "https://dc.lft.to/lastmile_qr_scan"}, "name": "ffb6ff6269769753234f27d69c84edef", "type": "electric_scooter"}, {"fusion_lat": 0.0, "bike_id": "1f0f0edadf6f5d683c7e166484940884", "fusion_lon": 0.0, "lon": -77.02371783333334, "lat": 38.89815683333333, "is_reserved": 0, "is_disabled": 0, "rental_uris": {"android": "https://dc.lft.to/lastmile_qr_scan", "ios": "https://dc.lft.to/lastmile_qr_scan"}, "name": "1f0f0edadf6f5d683c7e166484940884", "type": "electric_scooter"}, {"fusion_lat": 0.0, "bike_id": "33758a26bab01827bf1266512f07a6bd", "fusion_lon": 0.0, "lon": -77.02206533333333, "lat": 38.90537033333333, "is_reserved": 0, "is_disabled": 0, "rental_uris": {"android": "https://dc.lft.to/lastmile_qr_scan", "ios": "https://dc.lft.to/lastmile_qr_scan"}, "name": "33758a26bab01827bf1266512f07a6bd", "type": "electric_scooter"}, {"fusion_lat": 0.0, "bike_id": "6b6bbe723ee80de88cf98cb169125167", "fusion_lon": 0.0, "lon": -77.04501533333334, "lat": 38.89225833333333, "is_reserved": 0, "is_disabled": 0, "rental_uris": {"android": "https://dc.lft.to/lastmile_qr_scan", "ios": "https://dc.lft.to/lastmile_qr_scan"}, "name": "6b6bbe723ee80de88cf98cb169125167", "type": "electric_scooter"}, {"fusion_lat": 0.0, "bike_id": "2d2f17556890617fd6b26a3459a7f5cc", "fusion_lon": 0.0, "lon": -77.031807, "lat": 38.90112233333333, "is_reserved": 0, "is_disabled": 0, "rental_uris": {"android": "https://dc.lft.to/lastmile_qr_scan", "ios": "https://dc.lft.to/lastmile_qr_scan"}, "name": "2d2f17556890617fd6b26a3459a7f5cc", "type": "electric_scooter"}, {"fusion_lat": 0.0, "bike_id": "48a94ed55a9b0d52a816cb849d8707fd", "fusion_lon": 0.0, "lon": -76.92938683333334, "lat": 38.884528, "is_reserved": 0, "is_disabled": 0, "rental_uris": {"android": "https://dc.lft.to/lastmile_qr_scan", "ios": "https://dc.lft.to/lastmile_qr_scan"}, "name": "48a94ed55a9b0d52a816cb849d8707fd", "type": "electric_scooter"}, {"fusion_lat": 0.0, "bike_id": "fd2c7f1f5d2eaf225f00e76906bcaf8a", "fusion_lon": 0.0, "lon": -77.004635, "lat": 38.87660483333333, "is_reserved": 0, "is_disabled": 0, "rental_uris": {"android": "https://dc.lft.to/lastmile_qr_scan", "ios": "https://dc.lft.to/lastmile_qr_scan"}, "name": "fd2c7f1f5d2eaf225f00e76906bcaf8a", "type": "electric_scooter"}, {"fusion_lat": 0.0, "bike_id": "32503d07628472522046ee0ed7ff88cb", "fusion_lon": 0.0, "lon": -77.044192, "lat": 38.89731483333333, "is_reserved": 0, "is_disabled": 0, "rental_uris": {"android": "https://dc.lft.to/lastmile_qr_scan", "ios": "https://dc.lft.to/lastmile_qr_scan"}, "name": "32503d07628472522046ee0ed7ff88cb", "type": "electric_scooter"}, {"fusion_lat": 0.0, "bike_id": "1abcb3d22bbb0b820ce05791d93da97f", "fusion_lon": 0.0, "lon": -76.99061183333333, "lat": 38.863750833333334, "is_reserved": 0, "is_disabled": 0, "rental_uris": {"android": "https://dc.lft.to/lastmile_qr_scan", "ios": "https://dc.lft.to/lastmile_qr_scan"}, "name": "1abcb3d22bbb0b820ce05791d93da97f", "type": "electric_scooter"}, {"fusion_lat": 0.0, "bike_id": "2a3f41fd25910b088e8a5754a1872bf7", "fusion_lon": 0.0, "lon": -77.02453616666666, "lat": 38.91412616666667, "is_reserved": 0, "is_disabled": 0, "rental_uris": {"android": "https://dc.lft.to/lastmile_qr_scan", "ios": "https://dc.lft.to/lastmile_qr_scan"}, "name": "2a3f41fd25910b088e8a5754a1872bf7", "type": "electric_scooter"}, {"fusion_lat": 0.0, "bike_id": "bd911355061c883dd20d9bd09c4d3f5b", "fusion_lon": 0.0, "lon": -77.043344, "lat": 38.892239000000004, "is_reserved": 0, "is_disabled": 0, "rental_uris": {"android": "https://dc.lft.to/lastmile_qr_scan", "ios": "https://dc.lft.to/lastmile_qr_scan"}, "name": "bd911355061c883dd20d9bd09c4d3f5b", "type": "electric_scooter"}, {"fusion_lat": 0.0, "bike_id": "008c9994ea28006ad202d1cef5bced35", "fusion_lon": 0.0, "lon": -77.0271715, "lat": 38.9007295, "is_reserved": 0, "is_disabled": 0, "rental_uris": {"android": "https://dc.lft.to/lastmile_qr_scan", "ios": "https://dc.lft.to/lastmile_qr_scan"}, "name": "008c9994ea28006ad202d1cef5bced35", "type": "electric_scooter"}, {"fusion_lat": 0.0, "bike_id": "00223cc2a3f73ef4fedcb8ddf0c256f3", "fusion_lon": 0.0, "lon": -77.02486783333333, "lat": 38.91697416666667, "is_reserved": 0, "is_disabled": 0, "rental_uris": {"android": "https://dc.lft.to/lastmile_qr_scan", "ios": "https://dc.lft.to/lastmile_qr_scan"}, "name": "00223cc2a3f73ef4fedcb8ddf0c256f3", "type": "electric_scooter"}, {"fusion_lat": 0.0, "bike_id": "45c39c5da003f6b9ced50714dab7752d", "fusion_lon": 0.0, "lon": -77.03519466666667, "lat": 38.92730516666666, "is_reserved": 0, "is_disabled": 0, "rental_uris": {"android": "https://dc.lft.to/lastmile_qr_scan", "ios": "https://dc.lft.to/lastmile_qr_scan"}, "name": "45c39c5da003f6b9ced50714dab7752d", "type": "electric_scooter"}, {"fusion_lat": 0.0, "bike_id": "1aa449817ddbe007439b24fbc9a8a056", "fusion_lon": 0.0, "lon": -76.98708666666667, "lat": 38.8670015, "is_reserved": 0, "is_disabled": 0, "rental_uris": {"android": "https://dc.lft.to/lastmile_qr_scan", "ios": "https://dc.lft.to/lastmile_qr_scan"}, "name": "1aa449817ddbe007439b24fbc9a8a056", "type": "electric_scooter"}, {"fusion_lat": 0.0, "bike_id": "dd0fb59d4e485a39ea6e8238acc077a0", "fusion_lon": 0.0, "lon": -77.0254965, "lat": 38.91636333333334, "is_reserved": 0, "is_disabled": 0, "rental_uris": {"android": "https://dc.lft.to/lastmile_qr_scan", "ios": "https://dc.lft.to/lastmile_qr_scan"}, "name": "dd0fb59d4e485a39ea6e8238acc077a0", "type": "electric_scooter"}, {"fusion_lat": 0.0, "bike_id": "09a623e50851bce067bb047856083a04", "fusion_lon": 0.0, "lon": -77.030457, "lat": 38.8874045, "is_reserved": 0, "is_disabled": 0, "rental_uris": {"android": "https://dc.lft.to/lastmile_qr_scan", "ios": "https://dc.lft.to/lastmile_qr_scan"}, "name": "09a623e50851bce067bb047856083a04", "type": "electric_scooter"}, {"fusion_lat": 0.0, "bike_id": "1aad690a8343712f75c73d8a906e7b43", "fusion_lon": 0.0, "lon": -76.98882516666667, "lat": 38.866598833333335, "is_reserved": 0, "is_disabled": 0, "rental_uris": {"android": "https://dc.lft.to/lastmile_qr_scan", "ios": "https://dc.lft.to/lastmile_qr_scan"}, "name": "1aad690a8343712f75c73d8a906e7b43", "type": "electric_scooter"}, {"fusion_lat": 0.0, "bike_id": "a290b2ebbe3b8e52ce0d6edebdbb8e5e", "fusion_lon": 0.0, "lon": -77.04500833333333, "lat": 38.900066333333335, "is_reserved": 0, "is_disabled": 0, "rental_uris": {"android": "https://dc.lft.to/lastmile_qr_scan", "ios": "https://dc.lft.to/lastmile_qr_scan"}, "name": "a290b2ebbe3b8e52ce0d6edebdbb8e5e", "type": "electric_scooter"}, {"fusion_lat": 0.0, "bike_id": "a191c337dc7c543fb2b379816f1cacf3", "fusion_lon": 0.0, "lon": -77.00735766666666, "lat": 38.903455666666666, "is_reserved": 0, "is_disabled": 0, "rental_uris": {"android": "https://dc.lft.to/lastmile_qr_scan", "ios": "https://dc.lft.to/lastmile_qr_scan"}, "name": "a191c337dc7c543fb2b379816f1cacf3", "type": "electric_scooter"}, {"fusion_lat": 0.0, "bike_id": "eb6fcaa99e734504b8a142cca57f1eda", "fusion_lon": 0.0, "lon": -76.97907333333333, "lat": 38.86360783333333, "is_reserved": 0, "is_disabled": 0, "rental_uris": {"android": "https://dc.lft.to/lastmile_qr_scan", "ios": "https://dc.lft.to/lastmile_qr_scan"}, "name": "eb6fcaa99e734504b8a142cca57f1eda", "type": "electric_scooter"}, {"fusion_lat": 0.0, "bike_id": "2b98e03368d6acd7463cba6b1ed72e42", "fusion_lon": 0.0, "lon": -76.9372675, "lat": 38.89021666666667, "is_reserved": 0, "is_disabled": 0, "rental_uris": {"android": "https://dc.lft.to/lastmile_qr_scan", "ios": "https://dc.lft.to/lastmile_qr_scan"}, "name": "2b98e03368d6acd7463cba6b1ed72e42", "type": "electric_scooter"}, {"fusion_lat": 0.0, "bike_id": "c0f69eefde092a16b1e4793ebdb9043b", "fusion_lon": 0.0, "lon": -77.00214766666667, "lat": 38.90045516666667, "is_reserved": 0, "is_disabled": 0, "rental_uris": {"android": "https://dc.lft.to/lastmile_qr_scan", "ios": "https://dc.lft.to/lastmile_qr_scan"}, "name": "c0f69eefde092a16b1e4793ebdb9043b", "type": "electric_scooter"}, {"fusion_lat": 0.0, "bike_id": "657101bed897ef9f5978db9a1fa5b205", "fusion_lon": 0.0, "lon": -77.04084066666667, "lat": 38.92399233333333, "is_reserved": 0, "is_disabled": 0, "rental_uris": {"android": "https://dc.lft.to/lastmile_qr_scan", "ios": "https://dc.lft.to/lastmile_qr_scan"}, "name": "657101bed897ef9f5978db9a1fa5b205", "type": "electric_bike"}, {"fusion_lat": 0.0, "bike_id": "fc666e094752e04598be194bfddff1fb", "fusion_lon": 0.0, "lon": -77.02474566666666, "lat": 38.918158, "is_reserved": 0, "is_disabled": 0, "rental_uris": {"android": "https://dc.lft.to/lastmile_qr_scan", "ios": "https://dc.lft.to/lastmile_qr_scan"}, "name": "fc666e094752e04598be194bfddff1fb", "type": "electric_scooter"}, {"fusion_lat": 0.0, "bike_id": "5a3aa280ebaf66e352778351136f7fba", "fusion_lon": 0.0, "lon": -76.992706, "lat": 38.860336, "is_reserved": 0, "is_disabled": 0, "rental_uris": {"android": "https://dc.lft.to/lastmile_qr_scan", "ios": "https://dc.lft.to/lastmile_qr_scan"}, "name": "5a3aa280ebaf66e352778351136f7fba", "type": "electric_scooter"}, {"fusion_lat": 0.0, "bike_id": "14af1e4bf0ec8b4f1ca64356c45c0a11", "fusion_lon": 0.0, "lon": -77.036463, "lat": 38.92120166666667, "is_reserved": 0, "is_disabled": 0, "rental_uris": {"android": "https://dc.lft.to/lastmile_qr_scan", "ios": "https://dc.lft.to/lastmile_qr_scan"}, "name": "14af1e4bf0ec8b4f1ca64356c45c0a11", "type": "electric_scooter"}, {"fusion_lat": 0.0, "bike_id": "3a994b48f4212f580748587d95a07dab", "fusion_lon": 0.0, "lon": -77.05006, "lat": 38.90527516666667, "is_reserved": 0, "is_disabled": 0, "rental_uris": {"android": "https://dc.lft.to/lastmile_qr_scan", "ios": "https://dc.lft.to/lastmile_qr_scan"}, "name": "3a994b48f4212f580748587d95a07dab", "type": "electric_scooter"}, {"fusion_lat": 0.0, "bike_id": "b05eb93de6c1a64bfaae492ab20df370", "fusion_lon": 0.0, "lon": -77.02369716666666, "lat": 38.9178815, "is_reserved": 0, "is_disabled": 0, "rental_uris": {"android": "https://dc.lft.to/lastmile_qr_scan", "ios": "https://dc.lft.to/lastmile_qr_scan"}, "name": "b05eb93de6c1a64bfaae492ab20df370", "type": "electric_scooter"}, {"fusion_lat": 0.0, "bike_id": "a7d8c86c95d79e50c4c5c9f196dcfb6d", "fusion_lon": 0.0, "lon": -77.05567633333334, "lat": 38.930560166666666, "is_reserved": 0, "is_disabled": 0, "rental_uris": {"android": "https://dc.lft.to/lastmile_qr_scan", "ios": "https://dc.lft.to/lastmile_qr_scan"}, "name": "a7d8c86c95d79e50c4c5c9f196dcfb6d", "type": "electric_scooter"}, {"fusion_lat": 0.0, "bike_id": "1cf18669efb979cdefe6821e0bc205db", "fusion_lon": 0.0, "lon": -77.00495216666667, "lat": 38.89568416666667, "is_reserved": 0, "is_disabled": 0, "rental_uris": {"android": "https://dc.lft.to/lastmile_qr_scan", "ios": "https://dc.lft.to/lastmile_qr_scan"}, "name": "1cf18669efb979cdefe6821e0bc205db", "type": "electric_scooter"}, {"fusion_lat": 0.0, "bike_id": "dec4087b980acba3066c194a8ff4b46a", "fusion_lon": 0.0, "lon": -76.97203933333333, "lat": 38.89286583333333, "is_reserved": 0, "is_disabled": 0, "rental_uris": {"android": "https://dc.lft.to/lastmile_qr_scan", "ios": "https://dc.lft.to/lastmile_qr_scan"}, "name": "dec4087b980acba3066c194a8ff4b46a", "type": "electric_bike"}, {"fusion_lat": 0.0, "bike_id": "639addfff5a40e5843f260bf2f495cee", "fusion_lon": 0.0, "lon": -77.022133, "lat": 38.899723, "is_reserved": 0, "is_disabled": 0, "rental_uris": {"android": "https://dc.lft.to/lastmile_qr_scan", "ios": "https://dc.lft.to/lastmile_qr_scan"}, "name": "639addfff5a40e5843f260bf2f495cee", "type": "electric_bike"}, {"fusion_lat": 0.0, "bike_id": "119f12eda91930c8b14b8e6c1fb29143", "fusion_lon": 0.0, "lon": -77.02699666666666, "lat": 38.949926166666664, "is_reserved": 0, "is_disabled": 0, "rental_uris": {"android": "https://dc.lft.to/lastmile_qr_scan", "ios": "https://dc.lft.to/lastmile_qr_scan"}, "name": "119f12eda91930c8b14b8e6c1fb29143", "type": "electric_scooter"}, {"fusion_lat": 0.0, "bike_id": "12d60ede2181ae5d9a9d750573084970", "fusion_lon": 0.0, "lon": -77.13929566666667, "lat": 38.8729715, "is_reserved": 0, "is_disabled": 0, "rental_uris": {"android": "https://dc.lft.to/lastmile_qr_scan", "ios": "https://dc.lft.to/lastmile_qr_scan"}, "name": "12d60ede2181ae5d9a9d750573084970", "type": "electric_bike"}, {"fusion_lat": 0.0, "bike_id": "72446a82b24546ec6000e7ddaf645211", "fusion_lon": 0.0, "lon": -77.03805116666666, "lat": 38.93115016666667, "is_reserved": 0, "is_disabled": 0, "rental_uris": {"android": "https://dc.lft.to/lastmile_qr_scan", "ios": "https://dc.lft.to/lastmile_qr_scan"}, "name": "72446a82b24546ec6000e7ddaf645211", "type": "electric_scooter"}, {"fusion_lat": 0.0, "bike_id": "8c8b55b2c50c85f8ff81c06a092747b5", "fusion_lon": 0.0, "lon": -77.04487416666667, "lat": 38.913338, "is_reserved": 0, "is_disabled": 0, "rental_uris": {"android": "https://dc.lft.to/lastmile_qr_scan", "ios": "https://dc.lft.to/lastmile_qr_scan"}, "name": "8c8b55b2c50c85f8ff81c06a092747b5", "type": "electric_scooter"}, {"fusion_lat": 0.0, "bike_id": "ff6925644841f80966e94b203b440e37", "fusion_lon": 0.0, "lon": -77.12462016666667, "lat": 38.8537525, "is_reserved": 0, "is_disabled": 0, "rental_uris": {"android": "https://dc.lft.to/lastmile_qr_scan", "ios": "https://dc.lft.to/lastmile_qr_scan"}, "name": "ff6925644841f80966e94b203b440e37", "type": "electric_bike"}, {"fusion_lat": 0.0, "bike_id": "bd426ced3b3c8612df811f989a29e874", "fusion_lon": 0.0, "lon": -77.0319925, "lat": 38.8977595, "is_reserved": 0, "is_disabled": 0, "rental_uris": {"android": "https://dc.lft.to/lastmile_qr_scan", "ios": "https://dc.lft.to/lastmile_qr_scan"}, "name": "bd426ced3b3c8612df811f989a29e874", "type": "electric_scooter"}, {"fusion_lat": 0.0, "bike_id": "99b06a67e74515e9a1d32e3e85b94f41", "fusion_lon": 0.0, "lon": -77.04690316666667, "lat": 38.902115, "is_reserved": 0, "is_disabled": 0, "rental_uris": {"android": "https://dc.lft.to/lastmile_qr_scan", "ios": "https://dc.lft.to/lastmile_qr_scan"}, "name": "99b06a67e74515e9a1d32e3e85b94f41", "type": "electric_scooter"}, {"fusion_lat": 0.0, "bike_id": "5b81f7be8595b0323d2b25eff692f42b", "fusion_lon": 0.0, "lon": -77.02075933333333, "lat": 38.884922833333334, "is_reserved": 0, "is_disabled": 0, "rental_uris": {"android": "https://dc.lft.to/lastmile_qr_scan", "ios": "https://dc.lft.to/lastmile_qr_scan"}, "name": "5b81f7be8595b0323d2b25eff692f42b", "type": "electric_bike"}, {"fusion_lat": 0.0, "bike_id": "beba5ece9e7a816e721d7c7424cacd08", "fusion_lon": 0.0, "lon": -77.03252066666667, "lat": 38.92894666666667, "is_reserved": 0, "is_disabled": 0, "rental_uris": {"android": "https://dc.lft.to/lastmile_qr_scan", "ios": "https://dc.lft.to/lastmile_qr_scan"}, "name": "beba5ece9e7a816e721d7c7424cacd08", "type": "electric_scooter"}, {"fusion_lat": 0.0, "bike_id": "19a6da8eaad46a6d023f0d7f6fcc0538", "fusion_lon": 0.0, "lon": -77.04459466666667, "lat": 38.89615416666667, "is_reserved": 0, "is_disabled": 0, "rental_uris": {"android": "https://dc.lft.to/lastmile_qr_scan", "ios": "https://dc.lft.to/lastmile_qr_scan"}, "name": "19a6da8eaad46a6d023f0d7f6fcc0538", "type": "electric_scooter"}, {"fusion_lat": 0.0, "bike_id": "771c3fd8ec48595712b0ae3922d123c5", "fusion_lon": 0.0, "lon": -77.00207066666667, "lat": 38.90232566666667, "is_reserved": 0, "is_disabled": 0, "rental_uris": {"android": "https://dc.lft.to/lastmile_qr_scan", "ios": "https://dc.lft.to/lastmile_qr_scan"}, "name": "771c3fd8ec48595712b0ae3922d123c5", "type": "electric_scooter"}, {"fusion_lat": 0.0, "bike_id": "d8cc901c7f39e87524d56043b618ced8", "fusion_lon": 0.0, "lon": -77.02762483333333, "lat": 38.881575, "is_reserved": 0, "is_disabled": 0, "rental_uris": {"android": "https://dc.lft.to/lastmile_qr_scan", "ios": "https://dc.lft.to/lastmile_qr_scan"}, "name": "d8cc901c7f39e87524d56043b618ced8", "type": "electric_scooter"}, {"fusion_lat": 0.0, "bike_id": "e77c62dafdf7c591aaf53526ffc51ed5", "fusion_lon": 0.0, "lon": -77.0417305, "lat": 38.9155175, "is_reserved": 0, "is_disabled": 0, "rental_uris": {"android": "https://dc.lft.to/lastmile_qr_scan", "ios": "https://dc.lft.to/lastmile_qr_scan"}, "name": "e77c62dafdf7c591aaf53526ffc51ed5", "type": "electric_scooter"}, {"fusion_lat": 0.0, "bike_id": "893abbb31037f5e22b1289fb29d01fd0", "fusion_lon": 0.0, "lon": -77.10344533333334, "lat": 38.88550516666667, "is_reserved": 0, "is_disabled": 0, "rental_uris": {"android": "https://dc.lft.to/lastmile_qr_scan", "ios": "https://dc.lft.to/lastmile_qr_scan"}, "name": "893abbb31037f5e22b1289fb29d01fd0", "type": "electric_bike"}, {"fusion_lat": 0.0, "bike_id": "b4f447a22db1736b4393635a8019dda7", "fusion_lon": 0.0, "lon": -77.07851633333334, "lat": 38.9196675, "is_reserved": 0, "is_disabled": 0, "rental_uris": {"android": "https://dc.lft.to/lastmile_qr_scan", "ios": "https://dc.lft.to/lastmile_qr_scan"}, "name": "b4f447a22db1736b4393635a8019dda7", "type": "electric_bike"}, {"fusion_lat": 0.0, "bike_id": "4b6070b2318369b10314590ccb0ec35c", "fusion_lon": 0.0, "lon": -77.05003183333334, "lat": 38.89779333333333, "is_reserved": 0, "is_disabled": 0, "rental_uris": {"android": "https://dc.lft.to/lastmile_qr_scan", "ios": "https://dc.lft.to/lastmile_qr_scan"}, "name": "4b6070b2318369b10314590ccb0ec35c", "type": "electric_scooter"}, {"fusion_lat": 0.0, "bike_id": "dc1e5321299b1bc26e6e45fb7db8f85d", "fusion_lon": 0.0, "lon": -77.03918016666667, "lat": 38.91846983333333, "is_reserved": 0, "is_disabled": 0, "rental_uris": {"android": "https://dc.lft.to/lastmile_qr_scan", "ios": "https://dc.lft.to/lastmile_qr_scan"}, "name": "dc1e5321299b1bc26e6e45fb7db8f85d", "type": "electric_scooter"}, {"fusion_lat": 0.0, "bike_id": "80d044138ce907728a070ca7443bfc8a", "fusion_lon": 0.0, "lon": -76.92718833333333, "lat": 38.880583333333334, "is_reserved": 0, "is_disabled": 0, "rental_uris": {"android": "https://dc.lft.to/lastmile_qr_scan", "ios": "https://dc.lft.to/lastmile_qr_scan"}, "name": "80d044138ce907728a070ca7443bfc8a", "type": "electric_scooter"}, {"fusion_lat": 0.0, "bike_id": "4d235d5527aa12c4278bed66d316b0f0", "fusion_lon": 0.0, "lon": -76.93741533333333, "lat": 38.8900935, "is_reserved": 0, "is_disabled": 0, "rental_uris": {"android": "https://dc.lft.to/lastmile_qr_scan", "ios": "https://dc.lft.to/lastmile_qr_scan"}, "name": "4d235d5527aa12c4278bed66d316b0f0", "type": "electric_scooter"}, {"fusion_lat": 0.0, "bike_id": "b36cfb02005698414cb4eaf8dbdae9ec", "fusion_lon": 0.0, "lon": -77.04203433333333, "lat": 38.92057166666667, "is_reserved": 0, "is_disabled": 0, "rental_uris": {"android": "https://dc.lft.to/lastmile_qr_scan", "ios": "https://dc.lft.to/lastmile_qr_scan"}, "name": "b36cfb02005698414cb4eaf8dbdae9ec", "type": "electric_scooter"}, {"fusion_lat": 0.0, "bike_id": "6539ea71ce5f8aea16bb8213c83df41a", "fusion_lon": 0.0, "lon": -77.02625666666667, "lat": 38.88133083333334, "is_reserved": 0, "is_disabled": 0, "rental_uris": {"android": "https://dc.lft.to/lastmile_qr_scan", "ios": "https://dc.lft.to/lastmile_qr_scan"}, "name": "6539ea71ce5f8aea16bb8213c83df41a", "type": "electric_scooter"}, {"fusion_lat": 0.0, "bike_id": "2635d19441be5b4849e8c5eef85507b1", "fusion_lon": 0.0, "lon": -77.0396905, "lat": 38.909622666666664, "is_reserved": 0, "is_disabled": 0, "rental_uris": {"android": "https://dc.lft.to/lastmile_qr_scan", "ios": "https://dc.lft.to/lastmile_qr_scan"}, "name": "2635d19441be5b4849e8c5eef85507b1", "type": "electric_scooter"}, {"fusion_lat": 0.0, "bike_id": "97bfaeeb678fac254e9b2237b44211e3", "fusion_lon": 0.0, "lon": -77.04897116666666, "lat": 38.91614033333333, "is_reserved": 0, "is_disabled": 0, "rental_uris": {"android": "https://dc.lft.to/lastmile_qr_scan", "ios": "https://dc.lft.to/lastmile_qr_scan"}, "name": "97bfaeeb678fac254e9b2237b44211e3", "type": "electric_scooter"}, {"fusion_lat": 0.0, "bike_id": "19065148726692c4a1c1c84ad913896c", "fusion_lon": 0.0, "lon": -77.043191, "lat": 38.9087975, "is_reserved": 0, "is_disabled": 0, "rental_uris": {"android": "https://dc.lft.to/lastmile_qr_scan", "ios": "https://dc.lft.to/lastmile_qr_scan"}, "name": "19065148726692c4a1c1c84ad913896c", "type": "electric_scooter"}, {"fusion_lat": 0.0, "bike_id": "4d586af9c27d27c2851ae3c4bb534ab8", "fusion_lon": 0.0, "lon": -77.0013285, "lat": 38.894698, "is_reserved": 0, "is_disabled": 0, "rental_uris": {"android": "https://dc.lft.to/lastmile_qr_scan", "ios": "https://dc.lft.to/lastmile_qr_scan"}, "name": "4d586af9c27d27c2851ae3c4bb534ab8", "type": "electric_scooter"}, {"fusion_lat": 0.0, "bike_id": "dc60757e206b10e03ac94b9a9ee7b37f", "fusion_lon": 0.0, "lon": -77.04171266666667, "lat": 38.91705016666667, "is_reserved": 0, "is_disabled": 0, "rental_uris": {"android": "https://dc.lft.to/lastmile_qr_scan", "ios": "https://dc.lft.to/lastmile_qr_scan"}, "name": "dc60757e206b10e03ac94b9a9ee7b37f", "type": "electric_scooter"}, {"fusion_lat": 0.0, "bike_id": "e0b96750abbdfa9fcf9d96fdcff86525", "fusion_lon": 0.0, "lon": -77.036403, "lat": 38.91856666666666, "is_reserved": 0, "is_disabled": 0, "rental_uris": {"android": "https://dc.lft.to/lastmile_qr_scan", "ios": "https://dc.lft.to/lastmile_qr_scan"}, "name": "e0b96750abbdfa9fcf9d96fdcff86525", "type": "electric_scooter"}, {"fusion_lat": 0.0, "bike_id": "b7de2f1b260535676a80db55f54c6ddd", "fusion_lon": 0.0, "lon": -77.03458366666666, "lat": 38.92057233333333, "is_reserved": 0, "is_disabled": 0, "rental_uris": {"android": "https://dc.lft.to/lastmile_qr_scan", "ios": "https://dc.lft.to/lastmile_qr_scan"}, "name": "b7de2f1b260535676a80db55f54c6ddd", "type": "electric_scooter"}, {"fusion_lat": 0.0, "bike_id": "ec3b2c2bd989f4252604ed13813f3491", "fusion_lon": 0.0, "lon": -77.02623166666666, "lat": 38.962141333333335, "is_reserved": 0, "is_disabled": 0, "rental_uris": {"android": "https://dc.lft.to/lastmile_qr_scan", "ios": "https://dc.lft.to/lastmile_qr_scan"}, "name": "ec3b2c2bd989f4252604ed13813f3491", "type": "electric_bike"}, {"fusion_lat": 0.0, "bike_id": "46cb2b5d8681ef52f451a0862fc84ffb", "fusion_lon": 0.0, "lon": -76.990295, "lat": 38.891751166666666, "is_reserved": 0, "is_disabled": 0, "rental_uris": {"android": "https://dc.lft.to/lastmile_qr_scan", "ios": "https://dc.lft.to/lastmile_qr_scan"}, "name": "46cb2b5d8681ef52f451a0862fc84ffb", "type": "electric_scooter"}, {"fusion_lat": 0.0, "bike_id": "a28c8c4a04f8bde13e767f3895c99533", "fusion_lon": 0.0, "lon": -77.03658433333334, "lat": 38.923416333333336, "is_reserved": 0, "is_disabled": 0, "rental_uris": {"android": "https://dc.lft.to/lastmile_qr_scan", "ios": "https://dc.lft.to/lastmile_qr_scan"}, "name": "a28c8c4a04f8bde13e767f3895c99533", "type": "electric_scooter"}, {"fusion_lat": 0.0, "bike_id": "4b40cbee67e8e299858cebabcfb7ca02", "fusion_lon": 0.0, "lon": -77.0625145, "lat": 38.94413816666667, "is_reserved": 0, "is_disabled": 0, "rental_uris": {"android": "https://dc.lft.to/lastmile_qr_scan", "ios": "https://dc.lft.to/lastmile_qr_scan"}, "name": "4b40cbee67e8e299858cebabcfb7ca02", "type": "electric_scooter"}, {"fusion_lat": 0.0, "bike_id": "df1a541e19e6ecd930a43dc9b78299da", "fusion_lon": 0.0, "lon": -77.01350483333333, "lat": 38.95618133333333, "is_reserved": 0, "is_disabled": 0, "rental_uris": {"android": "https://dc.lft.to/lastmile_qr_scan", "ios": "https://dc.lft.to/lastmile_qr_scan"}, "name": "df1a541e19e6ecd930a43dc9b78299da", "type": "electric_scooter"}, {"fusion_lat": 0.0, "bike_id": "e3965f8a62b7673dbd590ad30c62bff6", "fusion_lon": 0.0, "lon": -77.03443416666667, "lat": 38.9062615, "is_reserved": 0, "is_disabled": 0, "rental_uris": {"android": "https://dc.lft.to/lastmile_qr_scan", "ios": "https://dc.lft.to/lastmile_qr_scan"}, "name": "e3965f8a62b7673dbd590ad30c62bff6", "type": "electric_scooter"}, {"fusion_lat": 0.0, "bike_id": "12294d54db010e8e625c97b52d7980cf", "fusion_lon": 0.0, "lon": -77.1083025, "lat": 38.812022, "is_reserved": 0, "is_disabled": 0, "rental_uris": {"android": "https://dc.lft.to/lastmile_qr_scan", "ios": "https://dc.lft.to/lastmile_qr_scan"}, "name": "12294d54db010e8e625c97b52d7980cf", "type": "electric_bike"}, {"fusion_lat": 0.0, "bike_id": "917781198bba32090fe9941299e86700", "fusion_lon": 0.0, "lon": -77.1008765, "lat": 38.959574333333336, "is_reserved": 0, "is_disabled": 0, "rental_uris": {"android": "https://dc.lft.to/lastmile_qr_scan", "ios": "https://dc.lft.to/lastmile_qr_scan"}, "name": "917781198bba32090fe9941299e86700", "type": "electric_bike"}, {"fusion_lat": 0.0, "bike_id": "9d7b4ce9aa520740b956a1403d40a1a0", "fusion_lon": 0.0, "lon": -76.98930566666667, "lat": 38.86569733333333, "is_reserved": 0, "is_disabled": 0, "rental_uris": {"android": "https://dc.lft.to/lastmile_qr_scan", "ios": "https://dc.lft.to/lastmile_qr_scan"}, "name": "9d7b4ce9aa520740b956a1403d40a1a0", "type": "electric_scooter"}, {"fusion_lat": 0.0, "bike_id": "b4dbec91f012c9e9915a0bafbc0c3008", "fusion_lon": 0.0, "lon": -77.03292933333333, "lat": 38.92859716666667, "is_reserved": 0, "is_disabled": 0, "rental_uris": {"android": "https://dc.lft.to/lastmile_qr_scan", "ios": "https://dc.lft.to/lastmile_qr_scan"}, "name": "b4dbec91f012c9e9915a0bafbc0c3008", "type": "electric_scooter"}, {"fusion_lat": 0.0, "bike_id": "924dbb81816132b2bf52d504613de863", "fusion_lon": 0.0, "lon": -77.02170483333333, "lat": 38.88725133333333, "is_reserved": 0, "is_disabled": 0, "rental_uris": {"android": "https://dc.lft.to/lastmile_qr_scan", "ios": "https://dc.lft.to/lastmile_qr_scan"}, "name": "924dbb81816132b2bf52d504613de863", "type": "electric_scooter"}, {"fusion_lat": 0.0, "bike_id": "d552404f6d38b7c5ba7cc8ea085ba748", "fusion_lon": 0.0, "lon": -77.02782683333334, "lat": 38.926878333333335, "is_reserved": 0, "is_disabled": 0, "rental_uris": {"android": "https://dc.lft.to/lastmile_qr_scan", "ios": "https://dc.lft.to/lastmile_qr_scan"}, "name": "d552404f6d38b7c5ba7cc8ea085ba748", "type": "electric_scooter"}, {"fusion_lat": 0.0, "bike_id": "7ab287656f9ecb1e8c72775dbf70d5b0", "fusion_lon": 0.0, "lon": -76.999094, "lat": 38.90731916666667, "is_reserved": 0, "is_disabled": 0, "rental_uris": {"android": "https://dc.lft.to/lastmile_qr_scan", "ios": "https://dc.lft.to/lastmile_qr_scan"}, "name": "7ab287656f9ecb1e8c72775dbf70d5b0", "type": "electric_scooter"}, {"fusion_lat": 0.0, "bike_id": "bc1a3654c6b85a3c1c05b07d6c7b59ad", "fusion_lon": 0.0, "lon": -77.04581733333333, "lat": 38.909554166666666, "is_reserved": 0, "is_disabled": 0, "rental_uris": {"android": "https://dc.lft.to/lastmile_qr_scan", "ios": "https://dc.lft.to/lastmile_qr_scan"}, "name": "bc1a3654c6b85a3c1c05b07d6c7b59ad", "type": "electric_scooter"}, {"fusion_lat": 0.0, "bike_id": "d010b122f0439632be002b7063f2d7b7", "fusion_lon": 0.0, "lon": -77.03529916666666, "lat": 38.9262615, "is_reserved": 0, "is_disabled": 0, "rental_uris": {"android": "https://dc.lft.to/lastmile_qr_scan", "ios": "https://dc.lft.to/lastmile_qr_scan"}, "name": "d010b122f0439632be002b7063f2d7b7", "type": "electric_scooter"}, {"fusion_lat": 0.0, "bike_id": "d23efaeaf047dcea8b279ebd5688fd00", "fusion_lon": 0.0, "lon": -76.94289383333333, "lat": 38.9387085, "is_reserved": 0, "is_disabled": 0, "rental_uris": {"android": "https://dc.lft.to/lastmile_qr_scan", "ios": "https://dc.lft.to/lastmile_qr_scan"}, "name": "d23efaeaf047dcea8b279ebd5688fd00", "type": "electric_bike"}, {"fusion_lat": 0.0, "bike_id": "45bcf736df0f2485848b19357004967d", "fusion_lon": 0.0, "lon": -76.93620483333333, "lat": 38.8968525, "is_reserved": 0, "is_disabled": 0, "rental_uris": {"android": "https://dc.lft.to/lastmile_qr_scan", "ios": "https://dc.lft.to/lastmile_qr_scan"}, "name": "45bcf736df0f2485848b19357004967d", "type": "electric_scooter"}, {"fusion_lat": 0.0, "bike_id": "24350b592720d9300968daaab5842e46", "fusion_lon": 0.0, "lon": -76.95519733333333, "lat": 38.884689333333334, "is_reserved": 0, "is_disabled": 0, "rental_uris": {"android": "https://dc.lft.to/lastmile_qr_scan", "ios": "https://dc.lft.to/lastmile_qr_scan"}, "name": "24350b592720d9300968daaab5842e46", "type": "electric_scooter"}, {"fusion_lat": 0.0, "bike_id": "dd1bc0ad9546adb4a7c4afb6c2d481b9", "fusion_lon": 0.0, "lon": -77.0265205, "lat": 38.92779433333333, "is_reserved": 0, "is_disabled": 0, "rental_uris": {"android": "https://dc.lft.to/lastmile_qr_scan", "ios": "https://dc.lft.to/lastmile_qr_scan"}, "name": "dd1bc0ad9546adb4a7c4afb6c2d481b9", "type": "electric_scooter"}, {"fusion_lat": 0.0, "bike_id": "8feab44349a486919c480118969617d2", "fusion_lon": 0.0, "lon": -77.0279485, "lat": 38.911410333333336, "is_reserved": 0, "is_disabled": 0, "rental_uris": {"android": "https://dc.lft.to/lastmile_qr_scan", "ios": "https://dc.lft.to/lastmile_qr_scan"}, "name": "8feab44349a486919c480118969617d2", "type": "electric_scooter"}, {"fusion_lat": 0.0, "bike_id": "7004c3d0043044f0fa7cd5e6406a2892", "fusion_lon": 0.0, "lon": -77.00196333333334, "lat": 38.90243616666667, "is_reserved": 0, "is_disabled": 0, "rental_uris": {"android": "https://dc.lft.to/lastmile_qr_scan", "ios": "https://dc.lft.to/lastmile_qr_scan"}, "name": "7004c3d0043044f0fa7cd5e6406a2892", "type": "electric_scooter"}, {"fusion_lat": 0.0, "bike_id": "7705bb734d85ada361d1f3033e5b671d", "fusion_lon": 0.0, "lon": -77.05038666666667, "lat": 38.923618833333336, "is_reserved": 0, "is_disabled": 0, "rental_uris": {"android": "https://dc.lft.to/lastmile_qr_scan", "ios": "https://dc.lft.to/lastmile_qr_scan"}, "name": "7705bb734d85ada361d1f3033e5b671d", "type": "electric_scooter"}, {"fusion_lat": 0.0, "bike_id": "11a0ad02a3e60d400e007e1c46fa9734", "fusion_lon": 0.0, "lon": -77.02999333333334, "lat": 38.896004166666664, "is_reserved": 0, "is_disabled": 0, "rental_uris": {"android": "https://dc.lft.to/lastmile_qr_scan", "ios": "https://dc.lft.to/lastmile_qr_scan"}, "name": "11a0ad02a3e60d400e007e1c46fa9734", "type": "electric_scooter"}, {"fusion_lat": 0.0, "bike_id": "3cc6fbb4e5b7010672f85651ae832f76", "fusion_lon": 0.0, "lon": -77.05684466666666, "lat": 38.8648675, "is_reserved": 0, "is_disabled": 0, "rental_uris": {"android": "https://dc.lft.to/lastmile_qr_scan", "ios": "https://dc.lft.to/lastmile_qr_scan"}, "name": "3cc6fbb4e5b7010672f85651ae832f76", "type": "electric_bike"}, {"fusion_lat": 0.0, "bike_id": "3fec2be9b1505b74f6e7356b3ec5df90", "fusion_lon": 0.0, "lon": -77.02383616666667, "lat": 38.89236666666667, "is_reserved": 0, "is_disabled": 0, "rental_uris": {"android": "https://dc.lft.to/lastmile_qr_scan", "ios": "https://dc.lft.to/lastmile_qr_scan"}, "name": "3fec2be9b1505b74f6e7356b3ec5df90", "type": "electric_scooter"}, {"fusion_lat": 0.0, "bike_id": "a8fb7016f00a6e6373c088a3b33eda0c", "fusion_lon": 0.0, "lon": -77.000389, "lat": 38.96777616666667, "is_reserved": 0, "is_disabled": 0, "rental_uris": {"android": "https://dc.lft.to/lastmile_qr_scan", "ios": "https://dc.lft.to/lastmile_qr_scan"}, "name": "a8fb7016f00a6e6373c088a3b33eda0c", "type": "electric_bike"}, {"fusion_lat": 0.0, "bike_id": "3f7a9247a69bd25458172daa6fc3c0b0", "fusion_lon": 0.0, "lon": -77.03669766666667, "lat": 38.922736666666665, "is_reserved": 0, "is_disabled": 0, "rental_uris": {"android": "https://dc.lft.to/lastmile_qr_scan", "ios": "https://dc.lft.to/lastmile_qr_scan"}, "name": "3f7a9247a69bd25458172daa6fc3c0b0", "type": "electric_scooter"}, {"fusion_lat": 0.0, "bike_id": "47be305c99d123a6846f08977531c9ba", "fusion_lon": 0.0, "lon": -77.03879366666666, "lat": 38.92968233333333, "is_reserved": 0, "is_disabled": 0, "rental_uris": {"android": "https://dc.lft.to/lastmile_qr_scan", "ios": "https://dc.lft.to/lastmile_qr_scan"}, "name": "47be305c99d123a6846f08977531c9ba", "type": "electric_scooter"}, {"fusion_lat": 0.0, "bike_id": "d878500cf052f9f5a62cb148e57794d3", "fusion_lon": 0.0, "lon": -77.03660033333334, "lat": 38.92146266666666, "is_reserved": 0, "is_disabled": 0, "rental_uris": {"android": "https://dc.lft.to/lastmile_qr_scan", "ios": "https://dc.lft.to/lastmile_qr_scan"}, "name": "d878500cf052f9f5a62cb148e57794d3", "type": "electric_scooter"}, {"fusion_lat": 0.0, "bike_id": "2f313a80a17ad2cc405eb9d3472fa784", "fusion_lon": 0.0, "lon": -77.03194383333333, "lat": 38.9174225, "is_reserved": 0, "is_disabled": 0, "rental_uris": {"android": "https://dc.lft.to/lastmile_qr_scan", "ios": "https://dc.lft.to/lastmile_qr_scan"}, "name": "2f313a80a17ad2cc405eb9d3472fa784", "type": "electric_scooter"}, {"fusion_lat": 0.0, "bike_id": "c4ce28a0086546759a1dcc55b1d0a783", "fusion_lon": 0.0, "lon": -77.03339333333334, "lat": 38.9002975, "is_reserved": 0, "is_disabled": 0, "rental_uris": {"android": "https://dc.lft.to/lastmile_qr_scan", "ios": "https://dc.lft.to/lastmile_qr_scan"}, "name": "c4ce28a0086546759a1dcc55b1d0a783", "type": "electric_scooter"}, {"fusion_lat": 0.0, "bike_id": "921a70fa03f7fb70f5ebdd7bdd67d5fc", "fusion_lon": 0.0, "lon": -77.02114816666666, "lat": 38.9369615, "is_reserved": 0, "is_disabled": 0, "rental_uris": {"android": "https://dc.lft.to/lastmile_qr_scan", "ios": "https://dc.lft.to/lastmile_qr_scan"}, "name": "921a70fa03f7fb70f5ebdd7bdd67d5fc", "type": "electric_scooter"}, {"fusion_lat": 0.0, "bike_id": "ec8be182405a6f1ff62134ae66f86cbc", "fusion_lon": 0.0, "lon": -77.04822083333333, "lat": 38.9095495, "is_reserved": 0, "is_disabled": 0, "rental_uris": {"android": "https://dc.lft.to/lastmile_qr_scan", "ios": "https://dc.lft.to/lastmile_qr_scan"}, "name": "ec8be182405a6f1ff62134ae66f86cbc", "type": "electric_scooter"}, {"fusion_lat": 0.0, "bike_id": "c8d8ea68d2519c41869b8517e4239749", "fusion_lon": 0.0, "lon": -77.04873633333334, "lat": 38.892328666666664, "is_reserved": 0, "is_disabled": 0, "rental_uris": {"android": "https://dc.lft.to/lastmile_qr_scan", "ios": "https://dc.lft.to/lastmile_qr_scan"}, "name": "c8d8ea68d2519c41869b8517e4239749", "type": "electric_scooter"}, {"fusion_lat": 0.0, "bike_id": "1aa0a351213a793fa04f30859776124c", "fusion_lon": 0.0, "lon": -77.03022483333334, "lat": 38.899692333333334, "is_reserved": 0, "is_disabled": 0, "rental_uris": {"android": "https://dc.lft.to/lastmile_qr_scan", "ios": "https://dc.lft.to/lastmile_qr_scan"}, "name": "1aa0a351213a793fa04f30859776124c", "type": "electric_scooter"}, {"fusion_lat": 0.0, "bike_id": "fc75de3f64f03cbcba3320ce77f572fb", "fusion_lon": 0.0, "lon": -77.04523716666667, "lat": 38.902086833333335, "is_reserved": 0, "is_disabled": 0, "rental_uris": {"android": "https://dc.lft.to/lastmile_qr_scan", "ios": "https://dc.lft.to/lastmile_qr_scan"}, "name": "fc75de3f64f03cbcba3320ce77f572fb", "type": "electric_scooter"}, {"fusion_lat": 0.0, "bike_id": "fb8e2450da71845efea3695abf930ac1", "fusion_lon": 0.0, "lon": -77.04362283333333, "lat": 38.89229483333333, "is_reserved": 0, "is_disabled": 0, "rental_uris": {"android": "https://dc.lft.to/lastmile_qr_scan", "ios": "https://dc.lft.to/lastmile_qr_scan"}, "name": "fb8e2450da71845efea3695abf930ac1", "type": "electric_scooter"}, {"fusion_lat": 0.0, "bike_id": "c59f39d85cb129e19c3fb82327740796", "fusion_lon": 0.0, "lon": -77.0381645, "lat": 38.93096166666667, "is_reserved": 0, "is_disabled": 0, "rental_uris": {"android": "https://dc.lft.to/lastmile_qr_scan", "ios": "https://dc.lft.to/lastmile_qr_scan"}, "name": "c59f39d85cb129e19c3fb82327740796", "type": "electric_scooter"}, {"fusion_lat": 0.0, "bike_id": "c077b00e2dacd18553abc7e40da50ea9", "fusion_lon": 0.0, "lon": -77.03974983333333, "lat": 38.900332666666664, "is_reserved": 0, "is_disabled": 0, "rental_uris": {"android": "https://dc.lft.to/lastmile_qr_scan", "ios": "https://dc.lft.to/lastmile_qr_scan"}, "name": "c077b00e2dacd18553abc7e40da50ea9", "type": "electric_scooter"}, {"fusion_lat": 0.0, "bike_id": "b3eb332816a2681e6418c6624496efdc", "fusion_lon": 0.0, "lon": -77.0074055, "lat": 38.903457, "is_reserved": 0, "is_disabled": 0, "rental_uris": {"android": "https://dc.lft.to/lastmile_qr_scan", "ios": "https://dc.lft.to/lastmile_qr_scan"}, "name": "b3eb332816a2681e6418c6624496efdc", "type": "electric_scooter"}, {"fusion_lat": 0.0, "bike_id": "543c899742bd3ab67ecd7e25686dab40", "fusion_lon": 0.0, "lon": -76.9635545, "lat": 38.934973166666666, "is_reserved": 0, "is_disabled": 0, "rental_uris": {"android": "https://dc.lft.to/lastmile_qr_scan", "ios": "https://dc.lft.to/lastmile_qr_scan"}, "name": "543c899742bd3ab67ecd7e25686dab40", "type": "electric_scooter"}, {"fusion_lat": 0.0, "bike_id": "3d14e004dfbe13b8e960401533c3c2de", "fusion_lon": 0.0, "lon": -77.009148, "lat": 38.827848333333336, "is_reserved": 0, "is_disabled": 0, "rental_uris": {"android": "https://dc.lft.to/lastmile_qr_scan", "ios": "https://dc.lft.to/lastmile_qr_scan"}, "name": "3d14e004dfbe13b8e960401533c3c2de", "type": "electric_bike"}, {"fusion_lat": 0.0, "bike_id": "382cb6bec67f1d75a990961a661d869e", "fusion_lon": 0.0, "lon": -77.03876866666667, "lat": 38.906182333333334, "is_reserved": 0, "is_disabled": 0, "rental_uris": {"android": "https://dc.lft.to/lastmile_qr_scan", "ios": "https://dc.lft.to/lastmile_qr_scan"}, "name": "382cb6bec67f1d75a990961a661d869e", "type": "electric_scooter"}, {"fusion_lat": 0.0, "bike_id": "bb34424527e9bd4e65d773ae71db9241", "fusion_lon": 0.0, "lon": -76.95890816666666, "lat": 38.89005983333333, "is_reserved": 0, "is_disabled": 0, "rental_uris": {"android": "https://dc.lft.to/lastmile_qr_scan", "ios": "https://dc.lft.to/lastmile_qr_scan"}, "name": "bb34424527e9bd4e65d773ae71db9241", "type": "electric_scooter"}, {"fusion_lat": 0.0, "bike_id": "0a7e9f76a85dfcfc392b23384133f97f", "fusion_lon": 0.0, "lon": -76.98506766666667, "lat": 38.86008133333333, "is_reserved": 0, "is_disabled": 0, "rental_uris": {"android": "https://dc.lft.to/lastmile_qr_scan", "ios": "https://dc.lft.to/lastmile_qr_scan"}, "name": "0a7e9f76a85dfcfc392b23384133f97f", "type": "electric_scooter"}, {"fusion_lat": 0.0, "bike_id": "ced1dc42365f8e15708b436fa90b67b7", "fusion_lon": 0.0, "lon": -77.018946, "lat": 38.932981166666664, "is_reserved": 0, "is_disabled": 0, "rental_uris": {"android": "https://dc.lft.to/lastmile_qr_scan", "ios": "https://dc.lft.to/lastmile_qr_scan"}, "name": "ced1dc42365f8e15708b436fa90b67b7", "type": "electric_scooter"}, {"fusion_lat": 0.0, "bike_id": "9d341fef3562ece6a231339237667a36", "fusion_lon": 0.0, "lon": -76.972223, "lat": 38.9003175, "is_reserved": 0, "is_disabled": 0, "rental_uris": {"android": "https://dc.lft.to/lastmile_qr_scan", "ios": "https://dc.lft.to/lastmile_qr_scan"}, "name": "9d341fef3562ece6a231339237667a36", "type": "electric_bike"}, {"fusion_lat": 0.0, "bike_id": "cd89812d2d7576a2b5ba9f6895516bdb", "fusion_lon": 0.0, "lon": -77.0219685, "lat": 38.920828, "is_reserved": 0, "is_disabled": 0, "rental_uris": {"android": "https://dc.lft.to/lastmile_qr_scan", "ios": "https://dc.lft.to/lastmile_qr_scan"}, "name": "cd89812d2d7576a2b5ba9f6895516bdb", "type": "electric_scooter"}, {"fusion_lat": 0.0, "bike_id": "b1620af7893219c6f69f25b156f10d4a", "fusion_lon": 0.0, "lon": -77.0218945, "lat": 38.910999333333336, "is_reserved": 0, "is_disabled": 0, "rental_uris": {"android": "https://dc.lft.to/lastmile_qr_scan", "ios": "https://dc.lft.to/lastmile_qr_scan"}, "name": "b1620af7893219c6f69f25b156f10d4a", "type": "electric_scooter"}, {"fusion_lat": 0.0, "bike_id": "302cd40e878576e120363462fbd376c4", "fusion_lon": 0.0, "lon": -76.9305915, "lat": 38.90155433333334, "is_reserved": 0, "is_disabled": 0, "rental_uris": {"android": "https://dc.lft.to/lastmile_qr_scan", "ios": "https://dc.lft.to/lastmile_qr_scan"}, "name": "302cd40e878576e120363462fbd376c4", "type": "electric_scooter"}, {"fusion_lat": 0.0, "bike_id": "9d8192f9737ed87b16b09282d21d8693", "fusion_lon": 0.0, "lon": -76.99650883333334, "lat": 38.896816666666666, "is_reserved": 0, "is_disabled": 0, "rental_uris": {"android": "https://dc.lft.to/lastmile_qr_scan", "ios": "https://dc.lft.to/lastmile_qr_scan"}, "name": "9d8192f9737ed87b16b09282d21d8693", "type": "electric_scooter"}, {"fusion_lat": 0.0, "bike_id": "beef7f446f36293bc928e30770e23e5a", "fusion_lon": 0.0, "lon": -77.047663, "lat": 38.92141683333333, "is_reserved": 0, "is_disabled": 0, "rental_uris": {"android": "https://dc.lft.to/lastmile_qr_scan", "ios": "https://dc.lft.to/lastmile_qr_scan"}, "name": "beef7f446f36293bc928e30770e23e5a", "type": "electric_scooter"}, {"fusion_lat": 0.0, "bike_id": "e18e0dafa350fa476c571378130f1e75", "fusion_lon": 0.0, "lon": -76.9625775, "lat": 38.88243216666667, "is_reserved": 0, "is_disabled": 0, "rental_uris": {"android": "https://dc.lft.to/lastmile_qr_scan", "ios": "https://dc.lft.to/lastmile_qr_scan"}, "name": "e18e0dafa350fa476c571378130f1e75", "type": "electric_bike"}, {"fusion_lat": 0.0, "bike_id": "45b5ebf11b145a9f68feea0be5598cef", "fusion_lon": 0.0, "lon": -77.04171033333333, "lat": 38.90121083333333, "is_reserved": 0, "is_disabled": 0, "rental_uris": {"android": "https://dc.lft.to/lastmile_qr_scan", "ios": "https://dc.lft.to/lastmile_qr_scan"}, "name": "45b5ebf11b145a9f68feea0be5598cef", "type": "electric_scooter"}, {"fusion_lat": 0.0, "bike_id": "4885eec8a22d599d6197f92e345c570d", "fusion_lon": 0.0, "lon": -77.00666183333334, "lat": 38.900001833333334, "is_reserved": 0, "is_disabled": 0, "rental_uris": {"android": "https://dc.lft.to/lastmile_qr_scan", "ios": "https://dc.lft.to/lastmile_qr_scan"}, "name": "4885eec8a22d599d6197f92e345c570d", "type": "electric_scooter"}, {"fusion_lat": 0.0, "bike_id": "57a144ca052087e30166354c24f27124", "fusion_lon": 0.0, "lon": -77.0131465, "lat": 38.896189666666665, "is_reserved": 0, "is_disabled": 0, "rental_uris": {"android": "https://dc.lft.to/lastmile_qr_scan", "ios": "https://dc.lft.to/lastmile_qr_scan"}, "name": "57a144ca052087e30166354c24f27124", "type": "electric_bike"}, {"fusion_lat": 0.0, "bike_id": "4c13bfaac5d200b5186ad059585e11de", "fusion_lon": 0.0, "lon": -77.02463633333333, "lat": 38.942011666666666, "is_reserved": 0, "is_disabled": 0, "rental_uris": {"android": "https://dc.lft.to/lastmile_qr_scan", "ios": "https://dc.lft.to/lastmile_qr_scan"}, "name": "4c13bfaac5d200b5186ad059585e11de", "type": "electric_scooter"}, {"fusion_lat": 0.0, "bike_id": "81ba582e4f2fd856ad662c4f5f5f9472", "fusion_lon": 0.0, "lon": -77.0245305, "lat": 38.93858016666667, "is_reserved": 0, "is_disabled": 0, "rental_uris": {"android": "https://dc.lft.to/lastmile_qr_scan", "ios": "https://dc.lft.to/lastmile_qr_scan"}, "name": "81ba582e4f2fd856ad662c4f5f5f9472", "type": "electric_scooter"}, {"fusion_lat": 0.0, "bike_id": "328ec5c41fe3f48c758edea57303181f", "fusion_lon": 0.0, "lon": -77.039208, "lat": 38.918452333333335, "is_reserved": 0, "is_disabled": 0, "rental_uris": {"android": "https://dc.lft.to/lastmile_qr_scan", "ios": "https://dc.lft.to/lastmile_qr_scan"}, "name": "328ec5c41fe3f48c758edea57303181f", "type": "electric_scooter"}, {"fusion_lat": 0.0, "bike_id": "385986bc5562c0bd10b9a968af9589ec", "fusion_lon": 0.0, "lon": -77.00131516666667, "lat": 38.8947655, "is_reserved": 0, "is_disabled": 0, "rental_uris": {"android": "https://dc.lft.to/lastmile_qr_scan", "ios": "https://dc.lft.to/lastmile_qr_scan"}, "name": "385986bc5562c0bd10b9a968af9589ec", "type": "electric_scooter"}, {"fusion_lat": 0.0, "bike_id": "987c0791dd4997e413573bce2d165efe", "fusion_lon": 0.0, "lon": -77.02556216666666, "lat": 38.9417275, "is_reserved": 0, "is_disabled": 0, "rental_uris": {"android": "https://dc.lft.to/lastmile_qr_scan", "ios": "https://dc.lft.to/lastmile_qr_scan"}, "name": "987c0791dd4997e413573bce2d165efe", "type": "electric_scooter"}, {"fusion_lat": 0.0, "bike_id": "962d0b2626d38e624541299f5b8482c0", "fusion_lon": 0.0, "lon": -77.00215383333334, "lat": 38.91465183333333, "is_reserved": 0, "is_disabled": 0, "rental_uris": {"android": "https://dc.lft.to/lastmile_qr_scan", "ios": "https://dc.lft.to/lastmile_qr_scan"}, "name": "962d0b2626d38e624541299f5b8482c0", "type": "electric_scooter"}, {"fusion_lat": 0.0, "bike_id": "26c1225125b505b2efefc71abf0b7a95", "fusion_lon": 0.0, "lon": -77.0176415, "lat": 38.88729683333333, "is_reserved": 0, "is_disabled": 0, "rental_uris": {"android": "https://dc.lft.to/lastmile_qr_scan", "ios": "https://dc.lft.to/lastmile_qr_scan"}, "name": "26c1225125b505b2efefc71abf0b7a95", "type": "electric_scooter"}, {"fusion_lat": 0.0, "bike_id": "03a865ab211de6793471ba49ec79603c", "fusion_lon": 0.0, "lon": -76.9786475, "lat": 38.883055666666664, "is_reserved": 0, "is_disabled": 0, "rental_uris": {"android": "https://dc.lft.to/lastmile_qr_scan", "ios": "https://dc.lft.to/lastmile_qr_scan"}, "name": "03a865ab211de6793471ba49ec79603c", "type": "electric_scooter"}, {"fusion_lat": 0.0, "bike_id": "b94f551f51c4f4411978e1841fb01756", "fusion_lon": 0.0, "lon": -77.036596, "lat": 38.91648933333333, "is_reserved": 0, "is_disabled": 0, "rental_uris": {"android": "https://dc.lft.to/lastmile_qr_scan", "ios": "https://dc.lft.to/lastmile_qr_scan"}, "name": "b94f551f51c4f4411978e1841fb01756", "type": "electric_scooter"}, {"fusion_lat": 0.0, "bike_id": "effcd2781b15e04ca9a9acc476be6579", "fusion_lon": 0.0, "lon": -77.03440833333333, "lat": 38.918015833333335, "is_reserved": 0, "is_disabled": 0, "rental_uris": {"android": "https://dc.lft.to/lastmile_qr_scan", "ios": "https://dc.lft.to/lastmile_qr_scan"}, "name": "effcd2781b15e04ca9a9acc476be6579", "type": "electric_scooter"}, {"fusion_lat": 0.0, "bike_id": "5294aade42b723b358d7924c15c21b75", "fusion_lon": 0.0, "lon": -77.06448483333334, "lat": 38.9052515, "is_reserved": 0, "is_disabled": 0, "rental_uris": {"android": "https://dc.lft.to/lastmile_qr_scan", "ios": "https://dc.lft.to/lastmile_qr_scan"}, "name": "5294aade42b723b358d7924c15c21b75", "type": "electric_scooter"}, {"fusion_lat": 0.0, "bike_id": "092d75dfbf7d1b6b2a2a00907824db88", "fusion_lon": 0.0, "lon": -77.049798, "lat": 39.062960833333335, "is_reserved": 0, "is_disabled": 0, "rental_uris": {"android": "https://dc.lft.to/lastmile_qr_scan", "ios": "https://dc.lft.to/lastmile_qr_scan"}, "name": "092d75dfbf7d1b6b2a2a00907824db88", "type": "electric_bike"}, {"fusion_lat": 0.0, "bike_id": "38413caaf0eb789afa2e3080f2c68eb7", "fusion_lon": 0.0, "lon": -77.03867666666666, "lat": 38.920090333333334, "is_reserved": 0, "is_disabled": 0, "rental_uris": {"android": "https://dc.lft.to/lastmile_qr_scan", "ios": "https://dc.lft.to/lastmile_qr_scan"}, "name": "38413caaf0eb789afa2e3080f2c68eb7", "type": "electric_scooter"}, {"fusion_lat": 0.0, "bike_id": "0e6d50dc764b9fc04c918fbd37a5a252", "fusion_lon": 0.0, "lon": -76.9337655, "lat": 38.910307833333334, "is_reserved": 0, "is_disabled": 0, "rental_uris": {"android": "https://dc.lft.to/lastmile_qr_scan", "ios": "https://dc.lft.to/lastmile_qr_scan"}, "name": "0e6d50dc764b9fc04c918fbd37a5a252", "type": "electric_scooter"}, {"fusion_lat": 0.0, "bike_id": "126eb55a6981c697139851dd86e35f19", "fusion_lon": 0.0, "lon": -77.02681333333334, "lat": 38.9432835, "is_reserved": 0, "is_disabled": 0, "rental_uris": {"android": "https://dc.lft.to/lastmile_qr_scan", "ios": "https://dc.lft.to/lastmile_qr_scan"}, "name": "126eb55a6981c697139851dd86e35f19", "type": "electric_scooter"}, {"fusion_lat": 0.0, "bike_id": "42f687dac18b6e3e69af78c30fb04044", "fusion_lon": 0.0, "lon": -76.985003, "lat": 38.866718666666664, "is_reserved": 0, "is_disabled": 0, "rental_uris": {"android": "https://dc.lft.to/lastmile_qr_scan", "ios": "https://dc.lft.to/lastmile_qr_scan"}, "name": "42f687dac18b6e3e69af78c30fb04044", "type": "electric_scooter"}, {"fusion_lat": 0.0, "bike_id": "e00a8a6e68febc73f97e63c07f8c7f5e", "fusion_lon": 0.0, "lon": -77.0329495, "lat": 38.909819, "is_reserved": 0, "is_disabled": 0, "rental_uris": {"android": "https://dc.lft.to/lastmile_qr_scan", "ios": "https://dc.lft.to/lastmile_qr_scan"}, "name": "e00a8a6e68febc73f97e63c07f8c7f5e", "type": "electric_scooter"}, {"fusion_lat": 0.0, "bike_id": "fb60575c4e12fe94f0d9a3c8d46c29d9", "fusion_lon": 0.0, "lon": -77.04653016666667, "lat": 38.910419166666664, "is_reserved": 0, "is_disabled": 0, "rental_uris": {"android": "https://dc.lft.to/lastmile_qr_scan", "ios": "https://dc.lft.to/lastmile_qr_scan"}, "name": "fb60575c4e12fe94f0d9a3c8d46c29d9", "type": "electric_scooter"}, {"fusion_lat": 0.0, "bike_id": "c9ab26ea072b75fb3d85d580bfcbecc4", "fusion_lon": 0.0, "lon": -77.02711783333334, "lat": 38.91673216666667, "is_reserved": 0, "is_disabled": 0, "rental_uris": {"android": "https://dc.lft.to/lastmile_qr_scan", "ios": "https://dc.lft.to/lastmile_qr_scan"}, "name": "c9ab26ea072b75fb3d85d580bfcbecc4", "type": "electric_scooter"}, {"fusion_lat": 0.0, "bike_id": "1d996394985c0c5a983f05c5239407df", "fusion_lon": 0.0, "lon": -76.99103816666667, "lat": 38.9032125, "is_reserved": 0, "is_disabled": 0, "rental_uris": {"android": "https://dc.lft.to/lastmile_qr_scan", "ios": "https://dc.lft.to/lastmile_qr_scan"}, "name": "1d996394985c0c5a983f05c5239407df", "type": "electric_scooter"}, {"fusion_lat": 0.0, "bike_id": "ca775bdab6de577e2267bf6e4a36ac13", "fusion_lon": 0.0, "lon": -77.01850733333333, "lat": 38.87459366666667, "is_reserved": 0, "is_disabled": 0, "rental_uris": {"android": "https://dc.lft.to/lastmile_qr_scan", "ios": "https://dc.lft.to/lastmile_qr_scan"}, "name": "ca775bdab6de577e2267bf6e4a36ac13", "type": "electric_scooter"}, {"fusion_lat": 0.0, "bike_id": "3b1eb487b362cf34466f0b7fc58384a7", "fusion_lon": 0.0, "lon": -77.00452033333333, "lat": 38.87668, "is_reserved": 0, "is_disabled": 0, "rental_uris": {"android": "https://dc.lft.to/lastmile_qr_scan", "ios": "https://dc.lft.to/lastmile_qr_scan"}, "name": "3b1eb487b362cf34466f0b7fc58384a7", "type": "electric_scooter"}, {"fusion_lat": 0.0, "bike_id": "c2a204f3ce09c05fbafa6e975e692ef6", "fusion_lon": 0.0, "lon": -77.02319883333334, "lat": 38.92788483333333, "is_reserved": 0, "is_disabled": 0, "rental_uris": {"android": "https://dc.lft.to/lastmile_qr_scan", "ios": "https://dc.lft.to/lastmile_qr_scan"}, "name": "c2a204f3ce09c05fbafa6e975e692ef6", "type": "electric_scooter"}, {"fusion_lat": 0.0, "bike_id": "1902410d61e4140ff12cb259f28dac99", "fusion_lon": 0.0, "lon": -77.036057, "lat": 38.93684616666667, "is_reserved": 0, "is_disabled": 0, "rental_uris": {"android": "https://dc.lft.to/lastmile_qr_scan", "ios": "https://dc.lft.to/lastmile_qr_scan"}, "name": "1902410d61e4140ff12cb259f28dac99", "type": "electric_scooter"}, {"fusion_lat": 0.0, "bike_id": "978b137e87d856a8666cfa7efe1ce65b", "fusion_lon": 0.0, "lon": -77.0722735, "lat": 38.9681505, "is_reserved": 0, "is_disabled": 0, "rental_uris": {"android": "https://dc.lft.to/lastmile_qr_scan", "ios": "https://dc.lft.to/lastmile_qr_scan"}, "name": "978b137e87d856a8666cfa7efe1ce65b", "type": "electric_bike"}, {"fusion_lat": 0.0, "bike_id": "365da94509a5966b3539b7e0457030ac", "fusion_lon": 0.0, "lon": -77.04164116666666, "lat": 38.90545216666666, "is_reserved": 0, "is_disabled": 0, "rental_uris": {"android": "https://dc.lft.to/lastmile_qr_scan", "ios": "https://dc.lft.to/lastmile_qr_scan"}, "name": "365da94509a5966b3539b7e0457030ac", "type": "electric_scooter"}, {"fusion_lat": 0.0, "bike_id": "eea24a34098416d6781fc9d329dd0709", "fusion_lon": 0.0, "lon": -77.03438066666666, "lat": 38.90949916666667, "is_reserved": 0, "is_disabled": 0, "rental_uris": {"android": "https://dc.lft.to/lastmile_qr_scan", "ios": "https://dc.lft.to/lastmile_qr_scan"}, "name": "eea24a34098416d6781fc9d329dd0709", "type": "electric_scooter"}, {"fusion_lat": 0.0, "bike_id": "1eb75f9612df564ccd65fd9d7b3f3834", "fusion_lon": 0.0, "lon": -77.02382233333333, "lat": 38.8923515, "is_reserved": 0, "is_disabled": 0, "rental_uris": {"android": "https://dc.lft.to/lastmile_qr_scan", "ios": "https://dc.lft.to/lastmile_qr_scan"}, "name": "1eb75f9612df564ccd65fd9d7b3f3834", "type": "electric_scooter"}, {"fusion_lat": 0.0, "bike_id": "d98f93ac95efec9553b305a71f705465", "fusion_lon": 0.0, "lon": -77.01761333333333, "lat": 38.8873075, "is_reserved": 0, "is_disabled": 0, "rental_uris": {"android": "https://dc.lft.to/lastmile_qr_scan", "ios": "https://dc.lft.to/lastmile_qr_scan"}, "name": "d98f93ac95efec9553b305a71f705465", "type": "electric_scooter"}, {"fusion_lat": 0.0, "bike_id": "b6895a9d58fdd9b79013c4b45df8cd48", "fusion_lon": 0.0, "lon": -77.03374266666667, "lat": 38.921600833333336, "is_reserved": 0, "is_disabled": 0, "rental_uris": {"android": "https://dc.lft.to/lastmile_qr_scan", "ios": "https://dc.lft.to/lastmile_qr_scan"}, "name": "b6895a9d58fdd9b79013c4b45df8cd48", "type": "electric_scooter"}, {"fusion_lat": 0.0, "bike_id": "c40fd38ad7e83e49accc7a78b4d3d2dc", "fusion_lon": 0.0, "lon": -77.01079033333333, "lat": 38.898090333333336, "is_reserved": 0, "is_disabled": 0, "rental_uris": {"android": "https://dc.lft.to/lastmile_qr_scan", "ios": "https://dc.lft.to/lastmile_qr_scan"}, "name": "c40fd38ad7e83e49accc7a78b4d3d2dc", "type": "electric_scooter"}, {"fusion_lat": 0.0, "bike_id": "dd6db587cff9ec1c699dd3c9e4c80f8c", "fusion_lon": 0.0, "lon": -77.0487065, "lat": 38.89230383333334, "is_reserved": 0, "is_disabled": 0, "rental_uris": {"android": "https://dc.lft.to/lastmile_qr_scan", "ios": "https://dc.lft.to/lastmile_qr_scan"}, "name": "dd6db587cff9ec1c699dd3c9e4c80f8c", "type": "electric_scooter"}, {"fusion_lat": 0.0, "bike_id": "af408beb879d73f328b46aae8cd2c53a", "fusion_lon": 0.0, "lon": -76.96087233333333, "lat": 38.918588666666665, "is_reserved": 0, "is_disabled": 0, "rental_uris": {"android": "https://dc.lft.to/lastmile_qr_scan", "ios": "https://dc.lft.to/lastmile_qr_scan"}, "name": "af408beb879d73f328b46aae8cd2c53a", "type": "electric_bike"}, {"fusion_lat": 0.0, "bike_id": "77846cd80dc27d9851de4635fd0e887c", "fusion_lon": 0.0, "lon": -77.01819466666667, "lat": 38.91913066666667, "is_reserved": 0, "is_disabled": 0, "rental_uris": {"android": "https://dc.lft.to/lastmile_qr_scan", "ios": "https://dc.lft.to/lastmile_qr_scan"}, "name": "77846cd80dc27d9851de4635fd0e887c", "type": "electric_scooter"}, {"fusion_lat": 0.0, "bike_id": "4eb98e00c64d7787b699780eddba8012", "fusion_lon": 0.0, "lon": -77.0396035, "lat": 38.924548, "is_reserved": 0, "is_disabled": 0, "rental_uris": {"android": "https://dc.lft.to/lastmile_qr_scan", "ios": "https://dc.lft.to/lastmile_qr_scan"}, "name": "4eb98e00c64d7787b699780eddba8012", "type": "electric_scooter"}, {"fusion_lat": 0.0, "bike_id": "fd7a9ee90fa6e9601ecd3f67a31ce75e", "fusion_lon": 0.0, "lon": -76.93320216666666, "lat": 38.90052466666667, "is_reserved": 0, "is_disabled": 0, "rental_uris": {"android": "https://dc.lft.to/lastmile_qr_scan", "ios": "https://dc.lft.to/lastmile_qr_scan"}, "name": "fd7a9ee90fa6e9601ecd3f67a31ce75e", "type": "electric_scooter"}, {"fusion_lat": 0.0, "bike_id": "f39e57452f41ee2e68ef8f3743252ae1", "fusion_lon": 0.0, "lon": -77.04648566666667, "lat": 38.914237, "is_reserved": 0, "is_disabled": 0, "rental_uris": {"android": "https://dc.lft.to/lastmile_qr_scan", "ios": "https://dc.lft.to/lastmile_qr_scan"}, "name": "f39e57452f41ee2e68ef8f3743252ae1", "type": "electric_scooter"}, {"fusion_lat": 0.0, "bike_id": "32d52aae97b6a2cdce52792106e12d6d", "fusion_lon": 0.0, "lon": -76.99386516666667, "lat": 38.892103166666665, "is_reserved": 0, "is_disabled": 0, "rental_uris": {"android": "https://dc.lft.to/lastmile_qr_scan", "ios": "https://dc.lft.to/lastmile_qr_scan"}, "name": "32d52aae97b6a2cdce52792106e12d6d", "type": "electric_scooter"}, {"fusion_lat": 0.0, "bike_id": "287541ba9330328edd15f1993c8e6fb0", "fusion_lon": 0.0, "lon": -77.02570966666667, "lat": 38.890426, "is_reserved": 0, "is_disabled": 0, "rental_uris": {"android": "https://dc.lft.to/lastmile_qr_scan", "ios": "https://dc.lft.to/lastmile_qr_scan"}, "name": "287541ba9330328edd15f1993c8e6fb0", "type": "electric_scooter"}, {"fusion_lat": 0.0, "bike_id": "3526cdd142d10e61fc218b6b3d0c8bed", "fusion_lon": 0.0, "lon": -77.0207055, "lat": 38.92407016666667, "is_reserved": 0, "is_disabled": 0, "rental_uris": {"android": "https://dc.lft.to/lastmile_qr_scan", "ios": "https://dc.lft.to/lastmile_qr_scan"}, "name": "3526cdd142d10e61fc218b6b3d0c8bed", "type": "electric_scooter"}, {"fusion_lat": 0.0, "bike_id": "ba84778f8b525bf89086557853a2b243", "fusion_lon": 0.0, "lon": -77.02777566666667, "lat": 38.887446, "is_reserved": 0, "is_disabled": 0, "rental_uris": {"android": "https://dc.lft.to/lastmile_qr_scan", "ios": "https://dc.lft.to/lastmile_qr_scan"}, "name": "ba84778f8b525bf89086557853a2b243", "type": "electric_scooter"}, {"fusion_lat": 0.0, "bike_id": "860eb0fd84263fdd8bc9b71ae9265d46", "fusion_lon": 0.0, "lon": -77.03275033333334, "lat": 38.89847733333333, "is_reserved": 0, "is_disabled": 0, "rental_uris": {"android": "https://dc.lft.to/lastmile_qr_scan", "ios": "https://dc.lft.to/lastmile_qr_scan"}, "name": "860eb0fd84263fdd8bc9b71ae9265d46", "type": "electric_scooter"}, {"fusion_lat": 0.0, "bike_id": "5705d7d086ace261354168f01a1385cc", "fusion_lon": 0.0, "lon": -77.0471445, "lat": 38.903132, "is_reserved": 0, "is_disabled": 0, "rental_uris": {"android": "https://dc.lft.to/lastmile_qr_scan", "ios": "https://dc.lft.to/lastmile_qr_scan"}, "name": "5705d7d086ace261354168f01a1385cc", "type": "electric_scooter"}, {"fusion_lat": 0.0, "bike_id": "f7714b3c16038036b7228727daa2405b", "fusion_lon": 0.0, "lon": -77.03330916666667, "lat": 38.90121883333333, "is_reserved": 0, "is_disabled": 0, "rental_uris": {"android": "https://dc.lft.to/lastmile_qr_scan", "ios": "https://dc.lft.to/lastmile_qr_scan"}, "name": "f7714b3c16038036b7228727daa2405b", "type": "electric_scooter"}, {"fusion_lat": 0.0, "bike_id": "b73cefb393efdadf1f3d82c863d91872", "fusion_lon": 0.0, "lon": -77.02585316666666, "lat": 38.942034166666666, "is_reserved": 0, "is_disabled": 0, "rental_uris": {"android": "https://dc.lft.to/lastmile_qr_scan", "ios": "https://dc.lft.to/lastmile_qr_scan"}, "name": "b73cefb393efdadf1f3d82c863d91872", "type": "electric_scooter"}, {"fusion_lat": 0.0, "bike_id": "6baf1141d6e192aa6b584e5bfb7fa146", "fusion_lon": 0.0, "lon": -77.032793, "lat": 38.93082916666667, "is_reserved": 0, "is_disabled": 0, "rental_uris": {"android": "https://dc.lft.to/lastmile_qr_scan", "ios": "https://dc.lft.to/lastmile_qr_scan"}, "name": "6baf1141d6e192aa6b584e5bfb7fa146", "type": "electric_scooter"}, {"fusion_lat": 0.0, "bike_id": "bc3766246c7a5740d8d6d19bbfec31b4", "fusion_lon": 0.0, "lon": -77.00883233333333, "lat": 38.9612265, "is_reserved": 0, "is_disabled": 0, "rental_uris": {"android": "https://dc.lft.to/lastmile_qr_scan", "ios": "https://dc.lft.to/lastmile_qr_scan"}, "name": "bc3766246c7a5740d8d6d19bbfec31b4", "type": "electric_scooter"}, {"fusion_lat": 0.0, "bike_id": "f39a52046066a050ab124dd98291c740", "fusion_lon": 0.0, "lon": -77.02826933333333, "lat": 38.8873075, "is_reserved": 0, "is_disabled": 0, "rental_uris": {"android": "https://dc.lft.to/lastmile_qr_scan", "ios": "https://dc.lft.to/lastmile_qr_scan"}, "name": "f39a52046066a050ab124dd98291c740", "type": "electric_scooter"}, {"fusion_lat": 0.0, "bike_id": "e088868bd08a447f9db4ef3c270a68e4", "fusion_lon": 0.0, "lon": -77.0217475, "lat": 38.8947735, "is_reserved": 0, "is_disabled": 0, "rental_uris": {"android": "https://dc.lft.to/lastmile_qr_scan", "ios": "https://dc.lft.to/lastmile_qr_scan"}, "name": "e088868bd08a447f9db4ef3c270a68e4", "type": "electric_scooter"}, {"fusion_lat": 0.0, "bike_id": "1cb946dd0108c09c11b83d447940c7a2", "fusion_lon": 0.0, "lon": -77.032243, "lat": 38.91404283333333, "is_reserved": 0, "is_disabled": 0, "rental_uris": {"android": "https://dc.lft.to/lastmile_qr_scan", "ios": "https://dc.lft.to/lastmile_qr_scan"}, "name": "1cb946dd0108c09c11b83d447940c7a2", "type": "electric_scooter"}, {"fusion_lat": 0.0, "bike_id": "445ca5dd8ee3fab7c45372eb64df6418", "fusion_lon": 0.0, "lon": -77.032032, "lat": 38.9134655, "is_reserved": 0, "is_disabled": 0, "rental_uris": {"android": "https://dc.lft.to/lastmile_qr_scan", "ios": "https://dc.lft.to/lastmile_qr_scan"}, "name": "445ca5dd8ee3fab7c45372eb64df6418", "type": "electric_scooter"}, {"fusion_lat": 0.0, "bike_id": "5f07eb4aad321161041fe1ad0e5320b6", "fusion_lon": 0.0, "lon": -77.0265915, "lat": 38.916983, "is_reserved": 0, "is_disabled": 0, "rental_uris": {"android": "https://dc.lft.to/lastmile_qr_scan", "ios": "https://dc.lft.to/lastmile_qr_scan"}, "name": "5f07eb4aad321161041fe1ad0e5320b6", "type": "electric_scooter"}, {"fusion_lat": 0.0, "bike_id": "a2c93451f60a7f210d217d3362d2e4ea", "fusion_lon": 0.0, "lon": -77.03277666666666, "lat": 38.91210733333333, "is_reserved": 0, "is_disabled": 0, "rental_uris": {"android": "https://dc.lft.to/lastmile_qr_scan", "ios": "https://dc.lft.to/lastmile_qr_scan"}, "name": "a2c93451f60a7f210d217d3362d2e4ea", "type": "electric_scooter"}, {"fusion_lat": 0.0, "bike_id": "c5574114d36b5b138abad512b27eadb7", "fusion_lon": 0.0, "lon": -77.03201183333333, "lat": 38.899553833333336, "is_reserved": 0, "is_disabled": 0, "rental_uris": {"android": "https://dc.lft.to/lastmile_qr_scan", "ios": "https://dc.lft.to/lastmile_qr_scan"}, "name": "c5574114d36b5b138abad512b27eadb7", "type": "electric_scooter"}, {"fusion_lat": 0.0, "bike_id": "27e6865e63a1da4d0e620c66002f5832", "fusion_lon": 0.0, "lon": -76.941037, "lat": 38.88462066666666, "is_reserved": 0, "is_disabled": 0, "rental_uris": {"android": "https://dc.lft.to/lastmile_qr_scan", "ios": "https://dc.lft.to/lastmile_qr_scan"}, "name": "27e6865e63a1da4d0e620c66002f5832", "type": "electric_scooter"}, {"fusion_lat": 0.0, "bike_id": "fe4ecaea5ef68b2b0f5ce1d9619ae922", "fusion_lon": 0.0, "lon": -77.04998433333333, "lat": 38.8922995, "is_reserved": 0, "is_disabled": 0, "rental_uris": {"android": "https://dc.lft.to/lastmile_qr_scan", "ios": "https://dc.lft.to/lastmile_qr_scan"}, "name": "fe4ecaea5ef68b2b0f5ce1d9619ae922", "type": "electric_scooter"}, {"fusion_lat": 0.0, "bike_id": "518a1c6fb8babc858ce5c206ac1bddd0", "fusion_lon": 0.0, "lon": -76.98876633333333, "lat": 38.86660216666667, "is_reserved": 0, "is_disabled": 0, "rental_uris": {"android": "https://dc.lft.to/lastmile_qr_scan", "ios": "https://dc.lft.to/lastmile_qr_scan"}, "name": "518a1c6fb8babc858ce5c206ac1bddd0", "type": "electric_scooter"}, {"fusion_lat": 0.0, "bike_id": "256a7712f726e263ec45a81929650d08", "fusion_lon": 0.0, "lon": -77.00505383333333, "lat": 38.875353, "is_reserved": 0, "is_disabled": 0, "rental_uris": {"android": "https://dc.lft.to/lastmile_qr_scan", "ios": "https://dc.lft.to/lastmile_qr_scan"}, "name": "256a7712f726e263ec45a81929650d08", "type": "electric_scooter"}, {"fusion_lat": 0.0, "bike_id": "040628d80dd4dbc26fe20071cbc97b10", "fusion_lon": 0.0, "lon": -77.03977333333333, "lat": 38.92805333333333, "is_reserved": 0, "is_disabled": 0, "rental_uris": {"android": "https://dc.lft.to/lastmile_qr_scan", "ios": "https://dc.lft.to/lastmile_qr_scan"}, "name": "040628d80dd4dbc26fe20071cbc97b10", "type": "electric_scooter"}, {"fusion_lat": 0.0, "bike_id": "03e873e611955d8255f286dc9a002bdf", "fusion_lon": 0.0, "lon": -77.050421, "lat": 38.905232833333336, "is_reserved": 0, "is_disabled": 0, "rental_uris": {"android": "https://dc.lft.to/lastmile_qr_scan", "ios": "https://dc.lft.to/lastmile_qr_scan"}, "name": "03e873e611955d8255f286dc9a002bdf", "type": "electric_scooter"}, {"fusion_lat": 0.0, "bike_id": "7d24f4ddca51e8133a59ebbafeb61427", "fusion_lon": 0.0, "lon": -77.04473433333334, "lat": 38.892222833333335, "is_reserved": 0, "is_disabled": 0, "rental_uris": {"android": "https://dc.lft.to/lastmile_qr_scan", "ios": "https://dc.lft.to/lastmile_qr_scan"}, "name": "7d24f4ddca51e8133a59ebbafeb61427", "type": "electric_scooter"}, {"fusion_lat": 0.0, "bike_id": "54d98ee757e7250271aa7fe844dd8368", "fusion_lon": 0.0, "lon": -77.02361633333334, "lat": 38.87925933333333, "is_reserved": 0, "is_disabled": 0, "rental_uris": {"android": "https://dc.lft.to/lastmile_qr_scan", "ios": "https://dc.lft.to/lastmile_qr_scan"}, "name": "54d98ee757e7250271aa7fe844dd8368", "type": "electric_scooter"}, {"fusion_lat": 0.0, "bike_id": "6f9ddfad79793af682fe09e4ca075891", "fusion_lon": 0.0, "lon": -77.04336233333333, "lat": 38.913982833333336, "is_reserved": 0, "is_disabled": 0, "rental_uris": {"android": "https://dc.lft.to/lastmile_qr_scan", "ios": "https://dc.lft.to/lastmile_qr_scan"}, "name": "6f9ddfad79793af682fe09e4ca075891", "type": "electric_scooter"}, {"fusion_lat": 0.0, "bike_id": "e326cd290d27db6e311275f7a7d4b57d", "fusion_lon": 0.0, "lon": -77.04515316666667, "lat": 38.899517333333336, "is_reserved": 0, "is_disabled": 0, "rental_uris": {"android": "https://dc.lft.to/lastmile_qr_scan", "ios": "https://dc.lft.to/lastmile_qr_scan"}, "name": "e326cd290d27db6e311275f7a7d4b57d", "type": "electric_scooter"}, {"fusion_lat": 0.0, "bike_id": "280a10dd4b1e73364294d3cc5d0c3401", "fusion_lon": 0.0, "lon": -77.01867316666667, "lat": 38.91497833333333, "is_reserved": 0, "is_disabled": 0, "rental_uris": {"android": "https://dc.lft.to/lastmile_qr_scan", "ios": "https://dc.lft.to/lastmile_qr_scan"}, "name": "280a10dd4b1e73364294d3cc5d0c3401", "type": "electric_scooter"}, {"fusion_lat": 0.0, "bike_id": "d0ae6b49854bfd5ee1d9af0e862d3454", "fusion_lon": 0.0, "lon": -77.2332655, "lat": 38.87277683333333, "is_reserved": 0, "is_disabled": 0, "rental_uris": {"android": "https://dc.lft.to/lastmile_qr_scan", "ios": "https://dc.lft.to/lastmile_qr_scan"}, "name": "d0ae6b49854bfd5ee1d9af0e862d3454", "type": "electric_bike"}, {"fusion_lat": 0.0, "bike_id": "f864e5337207759aba813ef25394e20d", "fusion_lon": 0.0, "lon": -77.028132, "lat": 38.914322, "is_reserved": 0, "is_disabled": 0, "rental_uris": {"android": "https://dc.lft.to/lastmile_qr_scan", "ios": "https://dc.lft.to/lastmile_qr_scan"}, "name": "f864e5337207759aba813ef25394e20d", "type": "electric_scooter"}, {"fusion_lat": 0.0, "bike_id": "73db6fb3ae1f8ffe866bf20a37e46ef4", "fusion_lon": 0.0, "lon": -77.03642716666667, "lat": 38.92304633333333, "is_reserved": 0, "is_disabled": 0, "rental_uris": {"android": "https://dc.lft.to/lastmile_qr_scan", "ios": "https://dc.lft.to/lastmile_qr_scan"}, "name": "73db6fb3ae1f8ffe866bf20a37e46ef4", "type": "electric_scooter"}, {"fusion_lat": 0.0, "bike_id": "63599fe616e6cf9b26a88ea58e846b60", "fusion_lon": 0.0, "lon": -76.9953345, "lat": 38.88370716666667, "is_reserved": 0, "is_disabled": 0, "rental_uris": {"android": "https://dc.lft.to/lastmile_qr_scan", "ios": "https://dc.lft.to/lastmile_qr_scan"}, "name": "63599fe616e6cf9b26a88ea58e846b60", "type": "electric_scooter"}, {"fusion_lat": 0.0, "bike_id": "6dc757d88d21c2e5b771648b2fc3a6b9", "fusion_lon": 0.0, "lon": -77.02230266666666, "lat": 38.8922015, "is_reserved": 0, "is_disabled": 0, "rental_uris": {"android": "https://dc.lft.to/lastmile_qr_scan", "ios": "https://dc.lft.to/lastmile_qr_scan"}, "name": "6dc757d88d21c2e5b771648b2fc3a6b9", "type": "electric_scooter"}, {"fusion_lat": 0.0, "bike_id": "637de0af126aaaafb4e39ec04ba36d50", "fusion_lon": 0.0, "lon": -77.0674725, "lat": 38.90338583333333, "is_reserved": 0, "is_disabled": 0, "rental_uris": {"android": "https://dc.lft.to/lastmile_qr_scan", "ios": "https://dc.lft.to/lastmile_qr_scan"}, "name": "637de0af126aaaafb4e39ec04ba36d50", "type": "electric_scooter"}, {"fusion_lat": 0.0, "bike_id": "ec6587bd65d73939e9f191dcbe785b00", "fusion_lon": 0.0, "lon": -77.02963483333333, "lat": 38.93062166666667, "is_reserved": 0, "is_disabled": 0, "rental_uris": {"android": "https://dc.lft.to/lastmile_qr_scan", "ios": "https://dc.lft.to/lastmile_qr_scan"}, "name": "ec6587bd65d73939e9f191dcbe785b00", "type": "electric_scooter"}, {"fusion_lat": 0.0, "bike_id": "e75938c2e2eaea8ee8cc3f380c0a479c", "fusion_lon": 0.0, "lon": -77.041366, "lat": 38.926466833333336, "is_reserved": 0, "is_disabled": 0, "rental_uris": {"android": "https://dc.lft.to/lastmile_qr_scan", "ios": "https://dc.lft.to/lastmile_qr_scan"}, "name": "e75938c2e2eaea8ee8cc3f380c0a479c", "type": "electric_scooter"}, {"fusion_lat": 0.0, "bike_id": "f34c7fa5528bdc8b75066f0e3646974c", "fusion_lon": 0.0, "lon": -76.99775766666667, "lat": 38.84425066666667, "is_reserved": 0, "is_disabled": 0, "rental_uris": {"android": "https://dc.lft.to/lastmile_qr_scan", "ios": "https://dc.lft.to/lastmile_qr_scan"}, "name": "f34c7fa5528bdc8b75066f0e3646974c", "type": "electric_scooter"}, {"fusion_lat": 0.0, "bike_id": "4fd153b3269d4babf6c140b64ba424bb", "fusion_lon": 0.0, "lon": -77.03019366666666, "lat": 38.91808283333334, "is_reserved": 0, "is_disabled": 0, "rental_uris": {"android": "https://dc.lft.to/lastmile_qr_scan", "ios": "https://dc.lft.to/lastmile_qr_scan"}, "name": "4fd153b3269d4babf6c140b64ba424bb", "type": "electric_scooter"}, {"fusion_lat": 0.0, "bike_id": "a76cd9ba0b5d241129d08e67a6d983db", "fusion_lon": 0.0, "lon": -77.00086483333334, "lat": 38.90749066666667, "is_reserved": 0, "is_disabled": 0, "rental_uris": {"android": "https://dc.lft.to/lastmile_qr_scan", "ios": "https://dc.lft.to/lastmile_qr_scan"}, "name": "a76cd9ba0b5d241129d08e67a6d983db", "type": "electric_scooter"}, {"fusion_lat": 0.0, "bike_id": "6fce68350c2ec62df6fdf44480c2b059", "fusion_lon": 0.0, "lon": -77.02588116666666, "lat": 38.942009, "is_reserved": 0, "is_disabled": 0, "rental_uris": {"android": "https://dc.lft.to/lastmile_qr_scan", "ios": "https://dc.lft.to/lastmile_qr_scan"}, "name": "6fce68350c2ec62df6fdf44480c2b059", "type": "electric_scooter"}, {"fusion_lat": 0.0, "bike_id": "5a1815f48c0db047d55c62ed87c788d4", "fusion_lon": 0.0, "lon": -77.06277316666667, "lat": 38.90507266666667, "is_reserved": 0, "is_disabled": 0, "rental_uris": {"android": "https://dc.lft.to/lastmile_qr_scan", "ios": "https://dc.lft.to/lastmile_qr_scan"}, "name": "5a1815f48c0db047d55c62ed87c788d4", "type": "electric_scooter"}, {"fusion_lat": 0.0, "bike_id": "469a97453c7105d5be920619b5972fa3", "fusion_lon": 0.0, "lon": -77.038667, "lat": 38.902740666666666, "is_reserved": 0, "is_disabled": 0, "rental_uris": {"android": "https://dc.lft.to/lastmile_qr_scan", "ios": "https://dc.lft.to/lastmile_qr_scan"}, "name": "469a97453c7105d5be920619b5972fa3", "type": "electric_scooter"}, {"fusion_lat": 0.0, "bike_id": "8f8829057ec1913433853d54163d5d34", "fusion_lon": 0.0, "lon": -77.02555716666667, "lat": 38.882828, "is_reserved": 0, "is_disabled": 0, "rental_uris": {"android": "https://dc.lft.to/lastmile_qr_scan", "ios": "https://dc.lft.to/lastmile_qr_scan"}, "name": "8f8829057ec1913433853d54163d5d34", "type": "electric_scooter"}, {"fusion_lat": 0.0, "bike_id": "91eaf781e82a85c606912ea9a34d928b", "fusion_lon": 0.0, "lon": -77.02395516666667, "lat": 38.88137966666667, "is_reserved": 0, "is_disabled": 0, "rental_uris": {"android": "https://dc.lft.to/lastmile_qr_scan", "ios": "https://dc.lft.to/lastmile_qr_scan"}, "name": "91eaf781e82a85c606912ea9a34d928b", "type": "electric_scooter"}, {"fusion_lat": 0.0, "bike_id": "b261bed4d48271d374153d84c837afd5", "fusion_lon": 0.0, "lon": -77.0633025, "lat": 38.921101666666665, "is_reserved": 0, "is_disabled": 0, "rental_uris": {"android": "https://dc.lft.to/lastmile_qr_scan", "ios": "https://dc.lft.to/lastmile_qr_scan"}, "name": "b261bed4d48271d374153d84c837afd5", "type": "electric_scooter"}, {"fusion_lat": 0.0, "bike_id": "f0b8528efe1ace5386758f0de8195bef", "fusion_lon": 0.0, "lon": -77.047996, "lat": 38.89222066666667, "is_reserved": 0, "is_disabled": 0, "rental_uris": {"android": "https://dc.lft.to/lastmile_qr_scan", "ios": "https://dc.lft.to/lastmile_qr_scan"}, "name": "f0b8528efe1ace5386758f0de8195bef", "type": "electric_scooter"}, {"fusion_lat": 0.0, "bike_id": "2c77275e96f950c6a0c869a0e6677eca", "fusion_lon": 0.0, "lon": -77.014523, "lat": 38.92667733333333, "is_reserved": 0, "is_disabled": 0, "rental_uris": {"android": "https://dc.lft.to/lastmile_qr_scan", "ios": "https://dc.lft.to/lastmile_qr_scan"}, "name": "2c77275e96f950c6a0c869a0e6677eca", "type": "electric_scooter"}, {"fusion_lat": 0.0, "bike_id": "a9dccb8b0077eded96d259bb2816cc9f", "fusion_lon": 0.0, "lon": -76.9979305, "lat": 38.956421, "is_reserved": 0, "is_disabled": 0, "rental_uris": {"android": "https://dc.lft.to/lastmile_qr_scan", "ios": "https://dc.lft.to/lastmile_qr_scan"}, "name": "a9dccb8b0077eded96d259bb2816cc9f", "type": "electric_bike"}, {"fusion_lat": 0.0, "bike_id": "6384615f278e1161200d0e35691cfda5", "fusion_lon": 0.0, "lon": -77.04500633333333, "lat": 38.9036185, "is_reserved": 0, "is_disabled": 0, "rental_uris": {"android": "https://dc.lft.to/lastmile_qr_scan", "ios": "https://dc.lft.to/lastmile_qr_scan"}, "name": "6384615f278e1161200d0e35691cfda5", "type": "electric_scooter"}, {"fusion_lat": 0.0, "bike_id": "16af55d2887f0e18aebac38bbbb535d6", "fusion_lon": 0.0, "lon": -77.05007316666666, "lat": 38.90521666666667, "is_reserved": 0, "is_disabled": 0, "rental_uris": {"android": "https://dc.lft.to/lastmile_qr_scan", "ios": "https://dc.lft.to/lastmile_qr_scan"}, "name": "16af55d2887f0e18aebac38bbbb535d6", "type": "electric_scooter"}, {"fusion_lat": 0.0, "bike_id": "0e9fe69a7ea341078297d61c5d633a06", "fusion_lon": 0.0, "lon": -77.07007366666667, "lat": 38.9059595, "is_reserved": 0, "is_disabled": 0, "rental_uris": {"android": "https://dc.lft.to/lastmile_qr_scan", "ios": "https://dc.lft.to/lastmile_qr_scan"}, "name": "0e9fe69a7ea341078297d61c5d633a06", "type": "electric_scooter"}, {"fusion_lat": 0.0, "bike_id": "b19d6249f7da9eeb36d743dde4303b18", "fusion_lon": 0.0, "lon": -77.04148466666666, "lat": 38.91913366666667, "is_reserved": 0, "is_disabled": 0, "rental_uris": {"android": "https://dc.lft.to/lastmile_qr_scan", "ios": "https://dc.lft.to/lastmile_qr_scan"}, "name": "b19d6249f7da9eeb36d743dde4303b18", "type": "electric_scooter"}, {"fusion_lat": 0.0, "bike_id": "6366b5d7dde3e32fdc1732ad66c79f61", "fusion_lon": 0.0, "lon": -77.0364155, "lat": 38.917942333333336, "is_reserved": 0, "is_disabled": 0, "rental_uris": {"android": "https://dc.lft.to/lastmile_qr_scan", "ios": "https://dc.lft.to/lastmile_qr_scan"}, "name": "6366b5d7dde3e32fdc1732ad66c79f61", "type": "electric_scooter"}, {"fusion_lat": 0.0, "bike_id": "58d14421983f22e23d8bfb768d7897e0", "fusion_lon": 0.0, "lon": -77.038663, "lat": 38.912697, "is_reserved": 0, "is_disabled": 0, "rental_uris": {"android": "https://dc.lft.to/lastmile_qr_scan", "ios": "https://dc.lft.to/lastmile_qr_scan"}, "name": "58d14421983f22e23d8bfb768d7897e0", "type": "electric_scooter"}, {"fusion_lat": 0.0, "bike_id": "2ca4b964dc748f778a3e5280537d7dcb", "fusion_lon": 0.0, "lon": -77.048562, "lat": 38.899555166666666, "is_reserved": 0, "is_disabled": 0, "rental_uris": {"android": "https://dc.lft.to/lastmile_qr_scan", "ios": "https://dc.lft.to/lastmile_qr_scan"}, "name": "2ca4b964dc748f778a3e5280537d7dcb", "type": "electric_scooter"}, {"fusion_lat": 0.0, "bike_id": "65fb51fcd3f763177478a64420c5f79a", "fusion_lon": 0.0, "lon": -77.0432435, "lat": 38.9004095, "is_reserved": 0, "is_disabled": 0, "rental_uris": {"android": "https://dc.lft.to/lastmile_qr_scan", "ios": "https://dc.lft.to/lastmile_qr_scan"}, "name": "65fb51fcd3f763177478a64420c5f79a", "type": "electric_scooter"}, {"fusion_lat": 0.0, "bike_id": "95ca0ff50701af16e1c12327a3d92958", "fusion_lon": 0.0, "lon": -76.9992875, "lat": 38.843158333333335, "is_reserved": 0, "is_disabled": 0, "rental_uris": {"android": "https://dc.lft.to/lastmile_qr_scan", "ios": "https://dc.lft.to/lastmile_qr_scan"}, "name": "95ca0ff50701af16e1c12327a3d92958", "type": "electric_scooter"}, {"fusion_lat": 0.0, "bike_id": "12fbebf0cae71f4f19c5225d321a4b20", "fusion_lon": 0.0, "lon": -77.05701566666667, "lat": 38.92610233333333, "is_reserved": 0, "is_disabled": 0, "rental_uris": {"android": "https://dc.lft.to/lastmile_qr_scan", "ios": "https://dc.lft.to/lastmile_qr_scan"}, "name": "12fbebf0cae71f4f19c5225d321a4b20", "type": "electric_bike"}, {"fusion_lat": 0.0, "bike_id": "10ff6640c6bcc04e1dfc209bb2b23113", "fusion_lon": 0.0, "lon": -77.029517, "lat": 38.89919166666667, "is_reserved": 0, "is_disabled": 0, "rental_uris": {"android": "https://dc.lft.to/lastmile_qr_scan", "ios": "https://dc.lft.to/lastmile_qr_scan"}, "name": "10ff6640c6bcc04e1dfc209bb2b23113", "type": "electric_scooter"}, {"fusion_lat": 0.0, "bike_id": "0fd3021f6d47a1237eda5f44904bf8e3", "fusion_lon": 0.0, "lon": -77.0195075, "lat": 38.923714, "is_reserved": 0, "is_disabled": 0, "rental_uris": {"android": "https://dc.lft.to/lastmile_qr_scan", "ios": "https://dc.lft.to/lastmile_qr_scan"}, "name": "0fd3021f6d47a1237eda5f44904bf8e3", "type": "electric_scooter"}, {"fusion_lat": 0.0, "bike_id": "7ec162c7031545d12f918534d5704bb6", "fusion_lon": 0.0, "lon": -77.03542616666667, "lat": 38.9258515, "is_reserved": 0, "is_disabled": 0, "rental_uris": {"android": "https://dc.lft.to/lastmile_qr_scan", "ios": "https://dc.lft.to/lastmile_qr_scan"}, "name": "7ec162c7031545d12f918534d5704bb6", "type": "electric_scooter"}, {"fusion_lat": 0.0, "bike_id": "09ac93a42ba47ee7b448fa9d6a0f5aea", "fusion_lon": 0.0, "lon": -76.9774475, "lat": 38.86486083333333, "is_reserved": 0, "is_disabled": 0, "rental_uris": {"android": "https://dc.lft.to/lastmile_qr_scan", "ios": "https://dc.lft.to/lastmile_qr_scan"}, "name": "09ac93a42ba47ee7b448fa9d6a0f5aea", "type": "electric_bike"}, {"fusion_lat": 0.0, "bike_id": "b2f587236140a2d2ba298f077d01eba7", "fusion_lon": 0.0, "lon": -77.0479985, "lat": 38.905052, "is_reserved": 0, "is_disabled": 0, "rental_uris": {"android": "https://dc.lft.to/lastmile_qr_scan", "ios": "https://dc.lft.to/lastmile_qr_scan"}, "name": "b2f587236140a2d2ba298f077d01eba7", "type": "electric_scooter"}, {"fusion_lat": 0.0, "bike_id": "d227eb7686b862cc803fa3690fbb777f", "fusion_lon": 0.0, "lon": -77.02317566666666, "lat": 38.92787933333334, "is_reserved": 0, "is_disabled": 0, "rental_uris": {"android": "https://dc.lft.to/lastmile_qr_scan", "ios": "https://dc.lft.to/lastmile_qr_scan"}, "name": "d227eb7686b862cc803fa3690fbb777f", "type": "electric_scooter"}, {"fusion_lat": 0.0, "bike_id": "72a366478494a49f75dea2e04f9fe344", "fusion_lon": 0.0, "lon": -77.0595005, "lat": 38.91839516666667, "is_reserved": 0, "is_disabled": 0, "rental_uris": {"android": "https://dc.lft.to/lastmile_qr_scan", "ios": "https://dc.lft.to/lastmile_qr_scan"}, "name": "72a366478494a49f75dea2e04f9fe344", "type": "electric_scooter"}, {"fusion_lat": 0.0, "bike_id": "75695314790363adb87124eaa2c3c6cd", "fusion_lon": 0.0, "lon": -76.9653265, "lat": 38.87477833333333, "is_reserved": 0, "is_disabled": 0, "rental_uris": {"android": "https://dc.lft.to/lastmile_qr_scan", "ios": "https://dc.lft.to/lastmile_qr_scan"}, "name": "75695314790363adb87124eaa2c3c6cd", "type": "electric_scooter"}, {"fusion_lat": 0.0, "bike_id": "ee794548743ee2115bad64f038874137", "fusion_lon": 0.0, "lon": -77.036912, "lat": 38.9181435, "is_reserved": 0, "is_disabled": 0, "rental_uris": {"android": "https://dc.lft.to/lastmile_qr_scan", "ios": "https://dc.lft.to/lastmile_qr_scan"}, "name": "ee794548743ee2115bad64f038874137", "type": "electric_scooter"}, {"fusion_lat": 0.0, "bike_id": "82c6d1072835f00463d47dfbbfa619fb", "fusion_lon": 0.0, "lon": -77.02563016666667, "lat": 38.933545333333335, "is_reserved": 0, "is_disabled": 0, "rental_uris": {"android": "https://dc.lft.to/lastmile_qr_scan", "ios": "https://dc.lft.to/lastmile_qr_scan"}, "name": "82c6d1072835f00463d47dfbbfa619fb", "type": "electric_scooter"}, {"fusion_lat": 0.0, "bike_id": "44eaf1bdd82f1f0aa668bc46d70d4193", "fusion_lon": 0.0, "lon": -77.029147, "lat": 38.91697716666667, "is_reserved": 0, "is_disabled": 0, "rental_uris": {"android": "https://dc.lft.to/lastmile_qr_scan", "ios": "https://dc.lft.to/lastmile_qr_scan"}, "name": "44eaf1bdd82f1f0aa668bc46d70d4193", "type": "electric_scooter"}, {"fusion_lat": 0.0, "bike_id": "e949b9fe7dd45066403cc966a5168b64", "fusion_lon": 0.0, "lon": -77.03522933333333, "lat": 38.922607166666666, "is_reserved": 0, "is_disabled": 0, "rental_uris": {"android": "https://dc.lft.to/lastmile_qr_scan", "ios": "https://dc.lft.to/lastmile_qr_scan"}, "name": "e949b9fe7dd45066403cc966a5168b64", "type": "electric_scooter"}, {"fusion_lat": 0.0, "bike_id": "79c8c02cd9e214ab82a4122656c51c0f", "fusion_lon": 0.0, "lon": -76.97976783333333, "lat": 38.92898116666667, "is_reserved": 0, "is_disabled": 0, "rental_uris": {"android": "https://dc.lft.to/lastmile_qr_scan", "ios": "https://dc.lft.to/lastmile_qr_scan"}, "name": "79c8c02cd9e214ab82a4122656c51c0f", "type": "electric_bike"}, {"fusion_lat": 0.0, "bike_id": "d2b11eb4580c3458d49edfecb008ed00", "fusion_lon": 0.0, "lon": -77.03932816666666, "lat": 38.9249835, "is_reserved": 0, "is_disabled": 0, "rental_uris": {"android": "https://dc.lft.to/lastmile_qr_scan", "ios": "https://dc.lft.to/lastmile_qr_scan"}, "name": "d2b11eb4580c3458d49edfecb008ed00", "type": "electric_scooter"}, {"fusion_lat": 0.0, "bike_id": "0ffc1e0e9ff8e41728b85273743e1f19", "fusion_lon": 0.0, "lon": -77.03928333333333, "lat": 38.899635333333336, "is_reserved": 0, "is_disabled": 0, "rental_uris": {"android": "https://dc.lft.to/lastmile_qr_scan", "ios": "https://dc.lft.to/lastmile_qr_scan"}, "name": "0ffc1e0e9ff8e41728b85273743e1f19", "type": "electric_scooter"}, {"fusion_lat": 0.0, "bike_id": "79a05142cad1fa10c799e41fa0b94163", "fusion_lon": 0.0, "lon": -77.023941, "lat": 38.919607166666665, "is_reserved": 0, "is_disabled": 0, "rental_uris": {"android": "https://dc.lft.to/lastmile_qr_scan", "ios": "https://dc.lft.to/lastmile_qr_scan"}, "name": "79a05142cad1fa10c799e41fa0b94163", "type": "electric_scooter"}, {"fusion_lat": 0.0, "bike_id": "6b778d1949a07b4ef08232fd4af6d3b5", "fusion_lon": 0.0, "lon": -77.18122516666666, "lat": 38.9322705, "is_reserved": 0, "is_disabled": 0, "rental_uris": {"android": "https://dc.lft.to/lastmile_qr_scan", "ios": "https://dc.lft.to/lastmile_qr_scan"}, "name": "6b778d1949a07b4ef08232fd4af6d3b5", "type": "electric_bike"}, {"fusion_lat": 0.0, "bike_id": "fac88a7f0bcc380dd21fb2b07605970f", "fusion_lon": 0.0, "lon": -77.02155516666667, "lat": 38.894929166666664, "is_reserved": 0, "is_disabled": 0, "rental_uris": {"android": "https://dc.lft.to/lastmile_qr_scan", "ios": "https://dc.lft.to/lastmile_qr_scan"}, "name": "fac88a7f0bcc380dd21fb2b07605970f", "type": "electric_scooter"}, {"fusion_lat": 0.0, "bike_id": "31b9014e96f8746e3bd85e5a13a2a404", "fusion_lon": 0.0, "lon": -77.0469035, "lat": 38.90290983333333, "is_reserved": 0, "is_disabled": 0, "rental_uris": {"android": "https://dc.lft.to/lastmile_qr_scan", "ios": "https://dc.lft.to/lastmile_qr_scan"}, "name": "31b9014e96f8746e3bd85e5a13a2a404", "type": "electric_scooter"}, {"fusion_lat": 0.0, "bike_id": "49bcc9c302edf9ccd38c3d857cfab763", "fusion_lon": 0.0, "lon": -76.96814833333333, "lat": 38.84716316666667, "is_reserved": 0, "is_disabled": 0, "rental_uris": {"android": "https://dc.lft.to/lastmile_qr_scan", "ios": "https://dc.lft.to/lastmile_qr_scan"}, "name": "49bcc9c302edf9ccd38c3d857cfab763", "type": "electric_scooter"}, {"fusion_lat": 0.0, "bike_id": "435f4d4b98d0a33e442d5a96f5c8bc91", "fusion_lon": 0.0, "lon": -76.94634166666667, "lat": 38.898338833333334, "is_reserved": 0, "is_disabled": 0, "rental_uris": {"android": "https://dc.lft.to/lastmile_qr_scan", "ios": "https://dc.lft.to/lastmile_qr_scan"}, "name": "435f4d4b98d0a33e442d5a96f5c8bc91", "type": "electric_scooter"}, {"fusion_lat": 0.0, "bike_id": "fa4ced378e061db462e53eb1e6cc6c0f", "fusion_lon": 0.0, "lon": -76.95742216666666, "lat": 38.88427933333333, "is_reserved": 0, "is_disabled": 0, "rental_uris": {"android": "https://dc.lft.to/lastmile_qr_scan", "ios": "https://dc.lft.to/lastmile_qr_scan"}, "name": "fa4ced378e061db462e53eb1e6cc6c0f", "type": "electric_scooter"}, {"fusion_lat": 0.0, "bike_id": "7cb2195b32540278c7539bc725355bdc", "fusion_lon": 0.0, "lon": -76.99793016666666, "lat": 38.829131833333335, "is_reserved": 0, "is_disabled": 0, "rental_uris": {"android": "https://dc.lft.to/lastmile_qr_scan", "ios": "https://dc.lft.to/lastmile_qr_scan"}, "name": "7cb2195b32540278c7539bc725355bdc", "type": "electric_bike"}, {"fusion_lat": 0.0, "bike_id": "b52c6405ff8a03d0e8019db96a4ae058", "fusion_lon": 0.0, "lon": -77.03603383333333, "lat": 38.93687383333334, "is_reserved": 0, "is_disabled": 0, "rental_uris": {"android": "https://dc.lft.to/lastmile_qr_scan", "ios": "https://dc.lft.to/lastmile_qr_scan"}, "name": "b52c6405ff8a03d0e8019db96a4ae058", "type": "electric_scooter"}, {"fusion_lat": 0.0, "bike_id": "271962f86cd38b9ddda34d3e3b0b2123", "fusion_lon": 0.0, "lon": -77.0296415, "lat": 38.92287366666667, "is_reserved": 0, "is_disabled": 0, "rental_uris": {"android": "https://dc.lft.to/lastmile_qr_scan", "ios": "https://dc.lft.to/lastmile_qr_scan"}, "name": "271962f86cd38b9ddda34d3e3b0b2123", "type": "electric_scooter"}, {"fusion_lat": 0.0, "bike_id": "3ab6fa00aeb51b9b9c12373d7521d349", "fusion_lon": 0.0, "lon": -77.02094483333333, "lat": 38.93263, "is_reserved": 0, "is_disabled": 0, "rental_uris": {"android": "https://dc.lft.to/lastmile_qr_scan", "ios": "https://dc.lft.to/lastmile_qr_scan"}, "name": "3ab6fa00aeb51b9b9c12373d7521d349", "type": "electric_scooter"}, {"fusion_lat": 0.0, "bike_id": "739215423e0549effea40e53ee5b2afb", "fusion_lon": 0.0, "lon": -77.023936, "lat": 38.917334333333336, "is_reserved": 0, "is_disabled": 0, "rental_uris": {"android": "https://dc.lft.to/lastmile_qr_scan", "ios": "https://dc.lft.to/lastmile_qr_scan"}, "name": "739215423e0549effea40e53ee5b2afb", "type": "electric_scooter"}, {"fusion_lat": 0.0, "bike_id": "b0e87b57ebeca685dbdf20ac4d4e7ee5", "fusion_lon": 0.0, "lon": -77.02220366666667, "lat": 38.93552666666667, "is_reserved": 0, "is_disabled": 0, "rental_uris": {"android": "https://dc.lft.to/lastmile_qr_scan", "ios": "https://dc.lft.to/lastmile_qr_scan"}, "name": "b0e87b57ebeca685dbdf20ac4d4e7ee5", "type": "electric_scooter"}, {"fusion_lat": 0.0, "bike_id": "81aa566fdc9d0dab4fb170dac23cd5ce", "fusion_lon": 0.0, "lon": -77.117076, "lat": 38.86745233333333, "is_reserved": 0, "is_disabled": 0, "rental_uris": {"android": "https://dc.lft.to/lastmile_qr_scan", "ios": "https://dc.lft.to/lastmile_qr_scan"}, "name": "81aa566fdc9d0dab4fb170dac23cd5ce", "type": "electric_bike"}, {"fusion_lat": 0.0, "bike_id": "7932d7e904e563a8919f67a8a211c8e8", "fusion_lon": 0.0, "lon": -77.03089433333334, "lat": 38.9106205, "is_reserved": 0, "is_disabled": 0, "rental_uris": {"android": "https://dc.lft.to/lastmile_qr_scan", "ios": "https://dc.lft.to/lastmile_qr_scan"}, "name": "7932d7e904e563a8919f67a8a211c8e8", "type": "electric_scooter"}, {"fusion_lat": 0.0, "bike_id": "bded5be2fb3ac6d40596543e2ee5eff8", "fusion_lon": 0.0, "lon": -77.02324433333334, "lat": 38.8949735, "is_reserved": 0, "is_disabled": 0, "rental_uris": {"android": "https://dc.lft.to/lastmile_qr_scan", "ios": "https://dc.lft.to/lastmile_qr_scan"}, "name": "bded5be2fb3ac6d40596543e2ee5eff8", "type": "electric_scooter"}, {"fusion_lat": 0.0, "bike_id": "6e7ce4aef7d1905cb6f1c0aea55a8a0e", "fusion_lon": 0.0, "lon": -77.044806, "lat": 38.90257283333333, "is_reserved": 0, "is_disabled": 0, "rental_uris": {"android": "https://dc.lft.to/lastmile_qr_scan", "ios": "https://dc.lft.to/lastmile_qr_scan"}, "name": "6e7ce4aef7d1905cb6f1c0aea55a8a0e", "type": "electric_scooter"}, {"fusion_lat": 0.0, "bike_id": "db655335c9184c3a2adcbe50c8eebd6c", "fusion_lon": 0.0, "lon": -77.03212, "lat": 38.91134, "is_reserved": 0, "is_disabled": 0, "rental_uris": {"android": "https://dc.lft.to/lastmile_qr_scan", "ios": "https://dc.lft.to/lastmile_qr_scan"}, "name": "db655335c9184c3a2adcbe50c8eebd6c", "type": "electric_scooter"}, {"fusion_lat": 0.0, "bike_id": "5d28f13fcf60f2122cf9350bde2eacc8", "fusion_lon": 0.0, "lon": -77.028661, "lat": 38.921341166666664, "is_reserved": 0, "is_disabled": 0, "rental_uris": {"android": "https://dc.lft.to/lastmile_qr_scan", "ios": "https://dc.lft.to/lastmile_qr_scan"}, "name": "5d28f13fcf60f2122cf9350bde2eacc8", "type": "electric_bike"}, {"fusion_lat": 0.0, "bike_id": "272ce0bae0a237d0a5d9b6e1487df90a", "fusion_lon": 0.0, "lon": -77.0761705, "lat": 38.965774, "is_reserved": 0, "is_disabled": 0, "rental_uris": {"android": "https://dc.lft.to/lastmile_qr_scan", "ios": "https://dc.lft.to/lastmile_qr_scan"}, "name": "272ce0bae0a237d0a5d9b6e1487df90a", "type": "electric_bike"}, {"fusion_lat": 0.0, "bike_id": "47963df4319f77960ade19e80a61cf74", "fusion_lon": 0.0, "lon": -77.02583766666666, "lat": 38.9181885, "is_reserved": 0, "is_disabled": 0, "rental_uris": {"android": "https://dc.lft.to/lastmile_qr_scan", "ios": "https://dc.lft.to/lastmile_qr_scan"}, "name": "47963df4319f77960ade19e80a61cf74", "type": "electric_scooter"}, {"fusion_lat": 0.0, "bike_id": "56097123f65885d1ca65aa5d7fe51f43", "fusion_lon": 0.0, "lon": -77.044877, "lat": 38.922380833333335, "is_reserved": 0, "is_disabled": 0, "rental_uris": {"android": "https://dc.lft.to/lastmile_qr_scan", "ios": "https://dc.lft.to/lastmile_qr_scan"}, "name": "56097123f65885d1ca65aa5d7fe51f43", "type": "electric_scooter"}, {"fusion_lat": 0.0, "bike_id": "c1d13e47de5d5330c82aff3395303c45", "fusion_lon": 0.0, "lon": -77.03216766666667, "lat": 38.92588283333333, "is_reserved": 0, "is_disabled": 0, "rental_uris": {"android": "https://dc.lft.to/lastmile_qr_scan", "ios": "https://dc.lft.to/lastmile_qr_scan"}, "name": "c1d13e47de5d5330c82aff3395303c45", "type": "electric_scooter"}, {"fusion_lat": 0.0, "bike_id": "d534c06fb96d0d98354a2c4b04fe7f44", "fusion_lon": 0.0, "lon": -77.01406383333334, "lat": 38.88121066666667, "is_reserved": 0, "is_disabled": 0, "rental_uris": {"android": "https://dc.lft.to/lastmile_qr_scan", "ios": "https://dc.lft.to/lastmile_qr_scan"}, "name": "d534c06fb96d0d98354a2c4b04fe7f44", "type": "electric_scooter"}, {"fusion_lat": 0.0, "bike_id": "166c02d750983d4eda9f24e817c35abd", "fusion_lon": 0.0, "lon": -77.03986466666667, "lat": 38.9002985, "is_reserved": 0, "is_disabled": 0, "rental_uris": {"android": "https://dc.lft.to/lastmile_qr_scan", "ios": "https://dc.lft.to/lastmile_qr_scan"}, "name": "166c02d750983d4eda9f24e817c35abd", "type": "electric_scooter"}, {"fusion_lat": 0.0, "bike_id": "b86f224278083dbb9975b8da2b24770f", "fusion_lon": 0.0, "lon": -77.04144066666667, "lat": 38.93470466666667, "is_reserved": 0, "is_disabled": 0, "rental_uris": {"android": "https://dc.lft.to/lastmile_qr_scan", "ios": "https://dc.lft.to/lastmile_qr_scan"}, "name": "b86f224278083dbb9975b8da2b24770f", "type": "electric_bike"}, {"fusion_lat": 0.0, "bike_id": "4e162477d97bbaf3685073a73bd02ef8", "fusion_lon": 0.0, "lon": -76.9912875, "lat": 38.86415783333333, "is_reserved": 0, "is_disabled": 0, "rental_uris": {"android": "https://dc.lft.to/lastmile_qr_scan", "ios": "https://dc.lft.to/lastmile_qr_scan"}, "name": "4e162477d97bbaf3685073a73bd02ef8", "type": "electric_scooter"}, {"fusion_lat": 0.0, "bike_id": "01cf06a0b98ce0c244a1d6bee7e03c73", "fusion_lon": 0.0, "lon": -77.03121566666667, "lat": 38.91263983333333, "is_reserved": 0, "is_disabled": 0, "rental_uris": {"android": "https://dc.lft.to/lastmile_qr_scan", "ios": "https://dc.lft.to/lastmile_qr_scan"}, "name": "01cf06a0b98ce0c244a1d6bee7e03c73", "type": "electric_scooter"}, {"fusion_lat": 0.0, "bike_id": "bb27cecb6fd7b6246579a8463f85616c", "fusion_lon": 0.0, "lon": -77.0321785, "lat": 38.89227783333333, "is_reserved": 0, "is_disabled": 0, "rental_uris": {"android": "https://dc.lft.to/lastmile_qr_scan", "ios": "https://dc.lft.to/lastmile_qr_scan"}, "name": "bb27cecb6fd7b6246579a8463f85616c", "type": "electric_scooter"}, {"fusion_lat": 0.0, "bike_id": "2b6224fb31950975255587e7f6682e37", "fusion_lon": 0.0, "lon": -77.04193016666666, "lat": 38.90517233333333, "is_reserved": 0, "is_disabled": 0, "rental_uris": {"android": "https://dc.lft.to/lastmile_qr_scan", "ios": "https://dc.lft.to/lastmile_qr_scan"}, "name": "2b6224fb31950975255587e7f6682e37", "type": "electric_scooter"}, {"fusion_lat": 0.0, "bike_id": "08bc74736a38e7ea5bcfc29fe1b467c0", "fusion_lon": 0.0, "lon": -76.9690765, "lat": 38.8461055, "is_reserved": 0, "is_disabled": 0, "rental_uris": {"android": "https://dc.lft.to/lastmile_qr_scan", "ios": "https://dc.lft.to/lastmile_qr_scan"}, "name": "08bc74736a38e7ea5bcfc29fe1b467c0", "type": "electric_bike"}, {"fusion_lat": 0.0, "bike_id": "662c0aa7e4a7837e171110154e15dee0", "fusion_lon": 0.0, "lon": -77.11589366666666, "lat": 39.07493483333333, "is_reserved": 0, "is_disabled": 0, "rental_uris": {"android": "https://dc.lft.to/lastmile_qr_scan", "ios": "https://dc.lft.to/lastmile_qr_scan"}, "name": "662c0aa7e4a7837e171110154e15dee0", "type": "electric_bike"}, {"fusion_lat": 0.0, "bike_id": "1ac7c01776277216b5f6c396b2e10719", "fusion_lon": 0.0, "lon": -77.01735616666667, "lat": 38.8874345, "is_reserved": 0, "is_disabled": 0, "rental_uris": {"android": "https://dc.lft.to/lastmile_qr_scan", "ios": "https://dc.lft.to/lastmile_qr_scan"}, "name": "1ac7c01776277216b5f6c396b2e10719", "type": "electric_scooter"}, {"fusion_lat": 0.0, "bike_id": "ab3de1fef6c035d21e6a8d61b0a69de3", "fusion_lon": 0.0, "lon": -77.000633, "lat": 38.90147016666667, "is_reserved": 0, "is_disabled": 0, "rental_uris": {"android": "https://dc.lft.to/lastmile_qr_scan", "ios": "https://dc.lft.to/lastmile_qr_scan"}, "name": "ab3de1fef6c035d21e6a8d61b0a69de3", "type": "electric_bike"}, {"fusion_lat": 0.0, "bike_id": "76d5645f0431da76b0542d7f496d1af3", "fusion_lon": 0.0, "lon": -77.02707566666666, "lat": 38.920331833333336, "is_reserved": 0, "is_disabled": 0, "rental_uris": {"android": "https://dc.lft.to/lastmile_qr_scan", "ios": "https://dc.lft.to/lastmile_qr_scan"}, "name": "76d5645f0431da76b0542d7f496d1af3", "type": "electric_scooter"}, {"fusion_lat": 0.0, "bike_id": "a157d65879b061b9533f5ec0e79e1e17", "fusion_lon": 0.0, "lon": -76.988924, "lat": 38.91341466666667, "is_reserved": 0, "is_disabled": 0, "rental_uris": {"android": "https://dc.lft.to/lastmile_qr_scan", "ios": "https://dc.lft.to/lastmile_qr_scan"}, "name": "a157d65879b061b9533f5ec0e79e1e17", "type": "electric_scooter"}, {"fusion_lat": 0.0, "bike_id": "c348a531343157120fb032c195ac80fc", "fusion_lon": 0.0, "lon": -77.04087933333334, "lat": 38.915648166666664, "is_reserved": 0, "is_disabled": 0, "rental_uris": {"android": "https://dc.lft.to/lastmile_qr_scan", "ios": "https://dc.lft.to/lastmile_qr_scan"}, "name": "c348a531343157120fb032c195ac80fc", "type": "electric_scooter"}, {"fusion_lat": 0.0, "bike_id": "fae571917cccc6f371559082ed03fe9b", "fusion_lon": 0.0, "lon": -77.031838, "lat": 38.91804416666667, "is_reserved": 0, "is_disabled": 0, "rental_uris": {"android": "https://dc.lft.to/lastmile_qr_scan", "ios": "https://dc.lft.to/lastmile_qr_scan"}, "name": "fae571917cccc6f371559082ed03fe9b", "type": "electric_scooter"}, {"fusion_lat": 0.0, "bike_id": "d4585ab6b85778a84a1be2e8673c0965", "fusion_lon": 0.0, "lon": -77.0235065, "lat": 38.935367666666664, "is_reserved": 0, "is_disabled": 0, "rental_uris": {"android": "https://dc.lft.to/lastmile_qr_scan", "ios": "https://dc.lft.to/lastmile_qr_scan"}, "name": "d4585ab6b85778a84a1be2e8673c0965", "type": "electric_scooter"}, {"fusion_lat": 0.0, "bike_id": "3d915800c2516ddc69da1ff0b0c1b3e1", "fusion_lon": 0.0, "lon": -77.026069, "lat": 38.97572816666667, "is_reserved": 0, "is_disabled": 0, "rental_uris": {"android": "https://dc.lft.to/lastmile_qr_scan", "ios": "https://dc.lft.to/lastmile_qr_scan"}, "name": "3d915800c2516ddc69da1ff0b0c1b3e1", "type": "electric_scooter"}, {"fusion_lat": 0.0, "bike_id": "37846180ed4baf640fd150d939195ace", "fusion_lon": 0.0, "lon": -77.033262, "lat": 38.90113683333333, "is_reserved": 0, "is_disabled": 0, "rental_uris": {"android": "https://dc.lft.to/lastmile_qr_scan", "ios": "https://dc.lft.to/lastmile_qr_scan"}, "name": "37846180ed4baf640fd150d939195ace", "type": "electric_scooter"}, {"fusion_lat": 0.0, "bike_id": "eef2c6c5d81e574061e98921cdda3dee", "fusion_lon": 0.0, "lon": -77.02499516666667, "lat": 38.9192475, "is_reserved": 0, "is_disabled": 0, "rental_uris": {"android": "https://dc.lft.to/lastmile_qr_scan", "ios": "https://dc.lft.to/lastmile_qr_scan"}, "name": "eef2c6c5d81e574061e98921cdda3dee", "type": "electric_scooter"}, {"fusion_lat": 0.0, "bike_id": "488a8fa28ac95b4799754234221ba9cc", "fusion_lon": 0.0, "lon": -77.04262733333333, "lat": 38.922335, "is_reserved": 0, "is_disabled": 0, "rental_uris": {"android": "https://dc.lft.to/lastmile_qr_scan", "ios": "https://dc.lft.to/lastmile_qr_scan"}, "name": "488a8fa28ac95b4799754234221ba9cc", "type": "electric_scooter"}, {"fusion_lat": 0.0, "bike_id": "092aa1d2835ab7503b12bec492b0bdb9", "fusion_lon": 0.0, "lon": -77.03108466666667, "lat": 38.892239833333335, "is_reserved": 0, "is_disabled": 0, "rental_uris": {"android": "https://dc.lft.to/lastmile_qr_scan", "ios": "https://dc.lft.to/lastmile_qr_scan"}, "name": "092aa1d2835ab7503b12bec492b0bdb9", "type": "electric_scooter"}, {"fusion_lat": 0.0, "bike_id": "5e0f5f40268c636fd68983d20d890c28", "fusion_lon": 0.0, "lon": -77.031881, "lat": 38.915773, "is_reserved": 0, "is_disabled": 0, "rental_uris": {"android": "https://dc.lft.to/lastmile_qr_scan", "ios": "https://dc.lft.to/lastmile_qr_scan"}, "name": "5e0f5f40268c636fd68983d20d890c28", "type": "electric_scooter"}, {"fusion_lat": 0.0, "bike_id": "5f9c27f8f6fb70c318a83da7f0a123c6", "fusion_lon": 0.0, "lon": -77.03387183333334, "lat": 38.90271366666666, "is_reserved": 0, "is_disabled": 0, "rental_uris": {"android": "https://dc.lft.to/lastmile_qr_scan", "ios": "https://dc.lft.to/lastmile_qr_scan"}, "name": "5f9c27f8f6fb70c318a83da7f0a123c6", "type": "electric_scooter"}, {"fusion_lat": 0.0, "bike_id": "69ab7d9d17bba1fdde8ce67195a1e236", "fusion_lon": 0.0, "lon": -77.04174083333334, "lat": 38.91765516666667, "is_reserved": 0, "is_disabled": 0, "rental_uris": {"android": "https://dc.lft.to/lastmile_qr_scan", "ios": "https://dc.lft.to/lastmile_qr_scan"}, "name": "69ab7d9d17bba1fdde8ce67195a1e236", "type": "electric_scooter"}, {"fusion_lat": 0.0, "bike_id": "13c85f560049256118caef1ea7f8a638", "fusion_lon": 0.0, "lon": -77.07307, "lat": 38.9357045, "is_reserved": 0, "is_disabled": 0, "rental_uris": {"android": "https://dc.lft.to/lastmile_qr_scan", "ios": "https://dc.lft.to/lastmile_qr_scan"}, "name": "13c85f560049256118caef1ea7f8a638", "type": "electric_scooter"}, {"fusion_lat": 0.0, "bike_id": "64e8dbe99ae61936e2a94e1759447c0d", "fusion_lon": 0.0, "lon": -77.0217085, "lat": 38.942953833333334, "is_reserved": 0, "is_disabled": 0, "rental_uris": {"android": "https://dc.lft.to/lastmile_qr_scan", "ios": "https://dc.lft.to/lastmile_qr_scan"}, "name": "64e8dbe99ae61936e2a94e1759447c0d", "type": "electric_scooter"}, {"fusion_lat": 0.0, "bike_id": "2ad4115ca5510f4fd1840876810abdae", "fusion_lon": 0.0, "lon": -77.03907766666667, "lat": 38.9257655, "is_reserved": 0, "is_disabled": 0, "rental_uris": {"android": "https://dc.lft.to/lastmile_qr_scan", "ios": "https://dc.lft.to/lastmile_qr_scan"}, "name": "2ad4115ca5510f4fd1840876810abdae", "type": "electric_scooter"}, {"fusion_lat": 0.0, "bike_id": "08a2a1472a8286b213b6c8dc2b0a3287", "fusion_lon": 0.0, "lon": -77.03181516666666, "lat": 38.90432666666667, "is_reserved": 0, "is_disabled": 0, "rental_uris": {"android": "https://dc.lft.to/lastmile_qr_scan", "ios": "https://dc.lft.to/lastmile_qr_scan"}, "name": "08a2a1472a8286b213b6c8dc2b0a3287", "type": "electric_scooter"}, {"fusion_lat": 0.0, "bike_id": "a03288ad330278645e6a2bd36588a1e5", "fusion_lon": 0.0, "lon": -77.08939883333333, "lat": 38.840981, "is_reserved": 0, "is_disabled": 0, "rental_uris": {"android": "https://dc.lft.to/lastmile_qr_scan", "ios": "https://dc.lft.to/lastmile_qr_scan"}, "name": "a03288ad330278645e6a2bd36588a1e5", "type": "electric_bike"}, {"fusion_lat": 0.0, "bike_id": "6d7c4a950126ac4384ce562bdc51b239", "fusion_lon": 0.0, "lon": -77.02764133333334, "lat": 38.9346035, "is_reserved": 0, "is_disabled": 0, "rental_uris": {"android": "https://dc.lft.to/lastmile_qr_scan", "ios": "https://dc.lft.to/lastmile_qr_scan"}, "name": "6d7c4a950126ac4384ce562bdc51b239", "type": "electric_scooter"}, {"fusion_lat": 0.0, "bike_id": "25d4bc4d9dbd12ee4c8a67724ef5db5d", "fusion_lon": 0.0, "lon": -77.048878, "lat": 38.9055365, "is_reserved": 0, "is_disabled": 0, "rental_uris": {"android": "https://dc.lft.to/lastmile_qr_scan", "ios": "https://dc.lft.to/lastmile_qr_scan"}, "name": "25d4bc4d9dbd12ee4c8a67724ef5db5d", "type": "electric_scooter"},