{"data": {"bikes": [{"is_reserved": 0, "is_disabled": 0, "fusion_lat": 0.0, "name": "1ca829e9b155e8698764fdc338c849f0", "lat": 38.923204166666665, "lon": -77.01953, "bike_id": "1ca829e9b155e8698764fdc338c849f0", "rental_uris": {"ios": "https://dc.lft.to/lastmile_qr_scan", "android": "https://dc.lft.to/lastmile_qr_scan"}, "type": "electric_scooter", "fusion_lon": 0.0}, {"is_reserved": 0, "is_disabled": 0, "fusion_lat": 0.0, "name": "6a50341d4dafb6364f554bf068910498", "lat": 38.9366025, "lon": -77.0213945, "bike_id": "6a50341d4dafb6364f554bf068910498", "rental_uris": {"ios": "https://dc.lft.to/lastmile_qr_scan", "android": "https://dc.lft.to/lastmile_qr_scan"}, "type": "electric_scooter", "fusion_lon": 0.0}, {"is_reserved": 0, "is_disabled": 0, "fusion_lat": 0.0, "name": "216f3d5b234f2197af87ac390cd7ca6b", "lat": 38.90205316666667, "lon": -77.0612015, "bike_id": "216f3d5b234f2197af87ac390cd7ca6b", "rental_uris": {"ios": "https://dc.lft.to/lastmile_qr_scan", "android": "https://dc.lft.to/lastmile_qr_scan"}, "type": "electric_scooter", "fusion_lon": 0.0}, {"is_reserved": 0, "is_disabled": 0, "fusion_lat": 0.0, "name": "307f73587843dcf825e51e20c27e17f1", "lat": 38.91414533333333, "lon": -77.02727866666666, "bike_id": "307f73587843dcf825e51e20c27e17f1", "rental_uris": {"ios": "https://dc.lft.to/lastmile_qr_scan", "android": "https://dc.lft.to/lastmile_qr_scan"}, "type": "electric_scooter", "fusion_lon": 0.0}, {"is_reserved": 0, "is_disabled": 0, "fusion_lat": 0.0, "name": "985a8ea36586c388e891d9c96ef8684d", "lat": 38.91579183333333, "lon": -77.0201645, "bike_id": "985a8ea36586c388e891d9c96ef8684d", "rental_uris": {"ios": "https://dc.lft.to/lastmile_qr_scan", "android": "https://dc.lft.to/lastmile_qr_scan"}, "type": "electric_scooter", "fusion_lon": 0.0}, {"is_reserved": 0, "is_disabled": 0, "fusion_lat": 0.0, "name": "7057f65e8d0d5a69891432563cf2360d", "lat": 38.92745016666667, "lon": -77.03556883333333, "bike_id": "7057f65e8d0d5a69891432563cf2360d", "rental_uris": {"ios": "https://dc.lft.to/lastmile_qr_scan", "android": "https://dc.lft.to/lastmile_qr_scan"}, "type": "electric_scooter", "fusion_lon": 0.0}, {"is_reserved": 0, "is_disabled": 0, "fusion_lat": 0.0, "name": "a12bf63bdf1c59d568585a515a72804f", "lat": 38.9181725, "lon": -77.025308, "bike_id": "a12bf63bdf1c59d568585a515a72804f", "rental_uris": {"ios": "https://dc.lft.to/lastmile_qr_scan", "android": "https://dc.lft.to/lastmile_qr_scan"}, "type": "electric_scooter", "fusion_lon": 0.0}, {"is_reserved": 0, "is_disabled": 0, "fusion_lat": 0.0, "name": "1d3a85dd08c41e077efc288578c261e5", "lat": 38.905500333333336, "lon": -77.05711283333333, "bike_id": "1d3a85dd08c41e077efc288578c261e5", "rental_uris": {"ios": "https://dc.lft.to/lastmile_qr_scan", "android": "https://dc.lft.to/lastmile_qr_scan"}, "type": "electric_scooter", "fusion_lon": 0.0}, {"is_reserved": 0, "is_disabled": 0, "fusion_lat": 0.0, "name": "3428e837b6eca6a1ac21b2029a7d55b4", "lat": 38.93133266666667, "lon": -77.0385195, "bike_id": "3428e837b6eca6a1ac21b2029a7d55b4", "rental_uris": {"ios": "https://dc.lft.to/lastmile_qr_scan", "android": "https://dc.lft.to/lastmile_qr_scan"}, "type": "electric_scooter", "fusion_lon": 0.0}, {"is_reserved": 0, "is_disabled": 0, "fusion_lat": 0.0, "name": "66d85f33d9ed407c855a80c05cbae633", "lat": 38.91073333333333, "lon": -77.00467933333333, "bike_id": "66d85f33d9ed407c855a80c05cbae633", "rental_uris": {"ios": "https://dc.lft.to/lastmile_qr_scan", "android": "https://dc.lft.to/lastmile_qr_scan"}, "type": "electric_scooter", "fusion_lon": 0.0}, {"is_reserved": 0, "is_disabled": 0, "fusion_lat": 0.0, "name": "98afbd82415aea8d71dd005a6aac58b4", "lat": 38.901402833333336, "lon": -77.038745, "bike_id": "98afbd82415aea8d71dd005a6aac58b4", "rental_uris": {"ios": "https://dc.lft.to/lastmile_qr_scan", "android": "https://dc.lft.to/lastmile_qr_scan"}, "type": "electric_scooter", "fusion_lon": 0.0}, {"is_reserved": 0, "is_disabled": 0, "fusion_lat": 0.0, "name": "13e76c648a490a181c99c67b0702309e", "lat": 38.892579, "lon": -77.0502945, "bike_id": "13e76c648a490a181c99c67b0702309e", "rental_uris": {"ios": "https://dc.lft.to/lastmile_qr_scan", "android": "https://dc.lft.to/lastmile_qr_scan"}, "type": "electric_scooter", "fusion_lon": 0.0}, {"is_reserved": 0, "is_disabled": 0, "fusion_lat": 0.0, "name": "3ab97823b82dc128b3d61c7a2ada7e43", "lat": 38.90140066666667, "lon": -76.98967033333334, "bike_id": "3ab97823b82dc128b3d61c7a2ada7e43", "rental_uris": {"ios": "https://dc.lft.to/lastmile_qr_scan", "android": "https://dc.lft.to/lastmile_qr_scan"}, "type": "electric_scooter", "fusion_lon": 0.0}, {"is_reserved": 0, "is_disabled": 0, "fusion_lat": 0.0, "name": "a1d9106c5f56eac22ccf022aa69e8245", "lat": 38.899666333333336, "lon": -76.93765583333334, "bike_id": "a1d9106c5f56eac22ccf022aa69e8245", "rental_uris": {"ios": "https://dc.lft.to/lastmile_qr_scan", "android": "https://dc.lft.to/lastmile_qr_scan"}, "type": "electric_scooter", "fusion_lon": 0.0}, {"is_reserved": 0, "is_disabled": 0, "fusion_lat": 0.0, "name": "44e99d5249111c4105677f8546288875", "lat": 38.83040116666667, "lon": -77.00830233333333, "bike_id": "44e99d5249111c4105677f8546288875", "rental_uris": {"ios": "https://dc.lft.to/lastmile_qr_scan", "android": "https://dc.lft.to/lastmile_qr_scan"}, "type": "electric_bike", "fusion_lon": 0.0}, {"is_reserved": 0, "is_disabled": 0, "fusion_lat": 0.0, "name": "5e11f6665198fd5e278fc47c509aa437", "lat": 38.9141925, "lon": -77.031752, "bike_id": "5e11f6665198fd5e278fc47c509aa437", "rental_uris": {"ios": "https://dc.lft.to/lastmile_qr_scan", "android": "https://dc.lft.to/lastmile_qr_scan"}, "type": "electric_scooter", "fusion_lon": 0.0}, {"is_reserved": 0, "is_disabled": 0, "fusion_lat": 0.0, "name": "cfd25bfd4f49d3f3a5296184bef8a202", "lat": 38.879384, "lon": -77.00778516666666, "bike_id": "cfd25bfd4f49d3f3a5296184bef8a202", "rental_uris": {"ios": "https://dc.lft.to/lastmile_qr_scan", "android": "https://dc.lft.to/lastmile_qr_scan"}, "type": "electric_scooter", "fusion_lon": 0.0}, {"is_reserved": 0, "is_disabled": 0, "fusion_lat": 0.0, "name": "caf69bfaf0811965851781536dec0709", "lat": 38.9180785, "lon": -77.03800266666667, "bike_id": "caf69bfaf0811965851781536dec0709", "rental_uris": {"ios": "https://dc.lft.to/lastmile_qr_scan", "android": "https://dc.lft.to/lastmile_qr_scan"}, "type": "electric_scooter", "fusion_lon": 0.0}, {"is_reserved": 0, "is_disabled": 0, "fusion_lat": 0.0, "name": "fed667af175b55c89180d150fcf52eaf", "lat": 38.914202833333334, "lon": -77.038167, "bike_id": "fed667af175b55c89180d150fcf52eaf", "rental_uris": {"ios": "https://dc.lft.to/lastmile_qr_scan", "android": "https://dc.lft.to/lastmile_qr_scan"}, "type": "electric_scooter", "fusion_lon": 0.0}, {"is_reserved": 0, "is_disabled": 0, "fusion_lat": 0.0, "name": "c195374b53655cc29f7de8db3be07103", "lat": 38.899634, "lon": -77.04713333333333, "bike_id": "c195374b53655cc29f7de8db3be07103", "rental_uris": {"ios": "https://dc.lft.to/lastmile_qr_scan", "android": "https://dc.lft.to/lastmile_qr_scan"}, "type": "electric_scooter", "fusion_lon": 0.0}, {"is_reserved": 0, "is_disabled": 0, "fusion_lat": 0.0, "name": "cd575e1be797a43dd6280577ad572620", "lat": 38.8983905, "lon": -77.048095, "bike_id": "cd575e1be797a43dd6280577ad572620", "rental_uris": {"ios": "https://dc.lft.to/lastmile_qr_scan", "android": "https://dc.lft.to/lastmile_qr_scan"}, "type": "electric_scooter", "fusion_lon": 0.0}, {"is_reserved": 0, "is_disabled": 0, "fusion_lat": 0.0, "name": "2d1a413bb4b7b79ad2a068cc9119734a", "lat": 38.9058315, "lon": -77.0452065, "bike_id": "2d1a413bb4b7b79ad2a068cc9119734a", "rental_uris": {"ios": "https://dc.lft.to/lastmile_qr_scan", "android": "https://dc.lft.to/lastmile_qr_scan"}, "type": "electric_scooter", "fusion_lon": 0.0}, {"is_reserved": 0, "is_disabled": 0, "fusion_lat": 0.0, "name": "bc08606d624fcdb073904b37d52daa6e", "lat": 38.9377905, "lon": -77.02310233333333, "bike_id": "bc08606d624fcdb073904b37d52daa6e", "rental_uris": {"ios": "https://dc.lft.to/lastmile_qr_scan", "android": "https://dc.lft.to/lastmile_qr_scan"}, "type": "electric_scooter", "fusion_lon": 0.0}, {"is_reserved": 0, "is_disabled": 0, "fusion_lat": 0.0, "name": "4cd4ccaedd36da4e5cb44f9e0135d88f", "lat": 38.89850416666667, "lon": -77.02853783333333, "bike_id": "4cd4ccaedd36da4e5cb44f9e0135d88f", "rental_uris": {"ios": "https://dc.lft.to/lastmile_qr_scan", "android": "https://dc.lft.to/lastmile_qr_scan"}, "type": "electric_scooter", "fusion_lon": 0.0}, {"is_reserved": 0, "is_disabled": 0, "fusion_lat": 0.0, "name": "56a5f77177b10565941b8d29c892e415", "lat": 38.90726083333333, "lon": -77.02505366666666, "bike_id": "56a5f77177b10565941b8d29c892e415", "rental_uris": {"ios": "https://dc.lft.to/lastmile_qr_scan", "android": "https://dc.lft.to/lastmile_qr_scan"}, "type": "electric_scooter", "fusion_lon": 0.0}, {"is_reserved": 0, "is_disabled": 0, "fusion_lat": 0.0, "name": "44a7d7a2eff1076d57618c9242e50b66", "lat": 38.89579416666667, "lon": -77.04162083333334, "bike_id": "44a7d7a2eff1076d57618c9242e50b66", "rental_uris": {"ios": "https://dc.lft.to/lastmile_qr_scan", "android": "https://dc.lft.to/lastmile_qr_scan"}, "type": "electric_scooter", "fusion_lon": 0.0}, {"is_reserved": 0, "is_disabled": 0, "fusion_lat": 0.0, "name": "714a1da8af07ee2a2688c16a6972d3e0", "lat": 38.923912, "lon": -77.0585415, "bike_id": "714a1da8af07ee2a2688c16a6972d3e0", "rental_uris": {"ios": "https://dc.lft.to/lastmile_qr_scan", "android": "https://dc.lft.to/lastmile_qr_scan"}, "type": "electric_bike", "fusion_lon": 0.0}, {"is_reserved": 0, "is_disabled": 0, "fusion_lat": 0.0, "name": "5c0818743f08bb9d8b50ef41d076d692", "lat": 38.8463285, "lon": -77.069336, "bike_id": "5c0818743f08bb9d8b50ef41d076d692", "rental_uris": {"ios": "https://dc.lft.to/lastmile_qr_scan", "android": "https://dc.lft.to/lastmile_qr_scan"}, "type": "electric_bike", "fusion_lon": 0.0}, {"is_reserved": 0, "is_disabled": 0, "fusion_lat": 0.0, "name": "d1663981781ff39b3f1647f41e43a20b", "lat": 38.907217, "lon": -77.01503266666667, "bike_id": "d1663981781ff39b3f1647f41e43a20b", "rental_uris": {"ios": "https://dc.lft.to/lastmile_qr_scan", "android": "https://dc.lft.to/lastmile_qr_scan"}, "type": "electric_scooter", "fusion_lon": 0.0}, {"is_reserved": 0, "is_disabled": 0, "fusion_lat": 0.0, "name": "ebbebdb25fa973ef1a6e567c3adc80e1", "lat": 38.90350083333333, "lon": -77.01104566666666, "bike_id": "ebbebdb25fa973ef1a6e567c3adc80e1", "rental_uris": {"ios": "https://dc.lft.to/lastmile_qr_scan", "android": "https://dc.lft.to/lastmile_qr_scan"}, "type": "electric_scooter", "fusion_lon": 0.0}, {"is_reserved": 0, "is_disabled": 0, "fusion_lat": 0.0, "name": "461fed3d1b27bce58f58f6895e9268ba", "lat": 38.90955233333333, "lon": -77.0238285, "bike_id": "461fed3d1b27bce58f58f6895e9268ba", "rental_uris": {"ios": "https://dc.lft.to/lastmile_qr_scan", "android": "https://dc.lft.to/lastmile_qr_scan"}, "type": "electric_scooter", "fusion_lon": 0.0}, {"is_reserved": 0, "is_disabled": 0, "fusion_lat": 0.0, "name": "f448b525d29b156b4ef4c3c868ed0d1d", "lat": 38.90850416666667, "lon": -76.999624, "bike_id": "f448b525d29b156b4ef4c3c868ed0d1d", "rental_uris": {"ios": "https://dc.lft.to/lastmile_qr_scan", "android": "https://dc.lft.to/lastmile_qr_scan"}, "type": "electric_scooter", "fusion_lon": 0.0}, {"is_reserved": 0, "is_disabled": 0, "fusion_lat": 0.0, "name": "4dc312f370d85b148595f7fcf3d0df2b", "lat": 38.90969116666667, "lon": -77.03275766666667, "bike_id": "4dc312f370d85b148595f7fcf3d0df2b", "rental_uris": {"ios": "https://dc.lft.to/lastmile_qr_scan", "android": "https://dc.lft.to/lastmile_qr_scan"}, "type": "electric_scooter", "fusion_lon": 0.0}, {"is_reserved": 0, "is_disabled": 0, "fusion_lat": 0.0, "name": "773dad1ead3e091a9d53d74a67603d31", "lat": 38.8936785, "lon": -77.020598, "bike_id": "773dad1ead3e091a9d53d74a67603d31", "rental_uris": {"ios": "https://dc.lft.to/lastmile_qr_scan", "android": "https://dc.lft.to/lastmile_qr_scan"}, "type": "electric_scooter", "fusion_lon": 0.0}, {"is_reserved": 0, "is_disabled": 0, "fusion_lat": 0.0, "name": "9dacba50f49f288ae538a48e53801c94", "lat": 38.931178833333334, "lon": -77.02099183333333, "bike_id": "9dacba50f49f288ae538a48e53801c94", "rental_uris": {"ios": "https://dc.lft.to/lastmile_qr_scan", "android": "https://dc.lft.to/lastmile_qr_scan"}, "type": "electric_scooter", "fusion_lon": 0.0}, {"is_reserved": 0, "is_disabled": 0, "fusion_lat": 0.0, "name": "2c352671304c9ade137f4080f76f9b8b", "lat": 38.926835, "lon": -77.01534466666666, "bike_id": "2c352671304c9ade137f4080f76f9b8b", "rental_uris": {"ios": "https://dc.lft.to/lastmile_qr_scan", "android": "https://dc.lft.to/lastmile_qr_scan"}, "type": "electric_scooter", "fusion_lon": 0.0}, {"is_reserved": 0, "is_disabled": 0, "fusion_lat": 0.0, "name": "ef8262f1ac4f79f322a686b68bf60d25", "lat": 38.882518166666664, "lon": -76.93325416666667, "bike_id": "ef8262f1ac4f79f322a686b68bf60d25", "rental_uris": {"ios": "https://dc.lft.to/lastmile_qr_scan", "android": "https://dc.lft.to/lastmile_qr_scan"}, "type": "electric_scooter", "fusion_lon": 0.0}, {"is_reserved": 0, "is_disabled": 0, "fusion_lat": 0.0, "name": "767c4ffcf3efab855d3e6518eeaf0564", "lat": 38.90342666666667, "lon": -77.02605783333334, "bike_id": "767c4ffcf3efab855d3e6518eeaf0564", "rental_uris": {"ios": "https://dc.lft.to/lastmile_qr_scan", "android": "https://dc.lft.to/lastmile_qr_scan"}, "type": "electric_scooter", "fusion_lon": 0.0}, {"is_reserved": 0, "is_disabled": 0, "fusion_lat": 0.0, "name": "75b4240ed3af8f192caf0c97e4f251a7", "lat": 38.898512, "lon": -76.93209116666667, "bike_id": "75b4240ed3af8f192caf0c97e4f251a7", "rental_uris": {"ios": "https://dc.lft.to/lastmile_qr_scan", "android": "https://dc.lft.to/lastmile_qr_scan"}, "type": "electric_scooter", "fusion_lon": 0.0}, {"is_reserved": 0, "is_disabled": 0, "fusion_lat": 0.0, "name": "a407aced504023ee28e7d8f94765b23e", "lat": 38.8556355, "lon": -76.99083116666667, "bike_id": "a407aced504023ee28e7d8f94765b23e", "rental_uris": {"ios": "https://dc.lft.to/lastmile_qr_scan", "android": "https://dc.lft.to/lastmile_qr_scan"}, "type": "electric_scooter", "fusion_lon": 0.0}, {"is_reserved": 0, "is_disabled": 0, "fusion_lat": 0.0, "name": "e9a1b91eaa523058f48025b4ffd8f7b6", "lat": 38.9273415, "lon": -77.03425183333333, "bike_id": "e9a1b91eaa523058f48025b4ffd8f7b6", "rental_uris": {"ios": "https://dc.lft.to/lastmile_qr_scan", "android": "https://dc.lft.to/lastmile_qr_scan"}, "type": "electric_scooter", "fusion_lon": 0.0}, {"is_reserved": 0, "is_disabled": 0, "fusion_lat": 0.0, "name": "c05101f7ab3d6a801f969027d8df8e0d", "lat": 38.92049866666667, "lon": -77.024526, "bike_id": "c05101f7ab3d6a801f969027d8df8e0d", "rental_uris": {"ios": "https://dc.lft.to/lastmile_qr_scan", "android": "https://dc.lft.to/lastmile_qr_scan"}, "type": "electric_scooter", "fusion_lon": 0.0}, {"is_reserved": 0, "is_disabled": 0, "fusion_lat": 0.0, "name": "42167f61c685be367d687a67c9ff7c10", "lat": 38.93228883333333, "lon": -77.02976366666667, "bike_id": "42167f61c685be367d687a67c9ff7c10", "rental_uris": {"ios": "https://dc.lft.to/lastmile_qr_scan", "android": "https://dc.lft.to/lastmile_qr_scan"}, "type": "electric_scooter", "fusion_lon": 0.0}, {"is_reserved": 0, "is_disabled": 0, "fusion_lat": 0.0, "name": "fa5ef6402132c409f9f88102a7e48ca0", "lat": 38.93202616666667, "lon": -77.0187585, "bike_id": "fa5ef6402132c409f9f88102a7e48ca0", "rental_uris": {"ios": "https://dc.lft.to/lastmile_qr_scan", "android": "https://dc.lft.to/lastmile_qr_scan"}, "type": "electric_scooter", "fusion_lon": 0.0}, {"is_reserved": 0, "is_disabled": 0, "fusion_lat": 0.0, "name": "8b056c05ab82cb2d8b3fe5a390a7596b", "lat": 38.92450733333333, "lon": -77.0204035, "bike_id": "8b056c05ab82cb2d8b3fe5a390a7596b", "rental_uris": {"ios": "https://dc.lft.to/lastmile_qr_scan", "android": "https://dc.lft.to/lastmile_qr_scan"}, "type": "electric_scooter", "fusion_lon": 0.0}, {"is_reserved": 0, "is_disabled": 0, "fusion_lat": 0.0, "name": "3b1f48798be3d5684e02a5337a73e716", "lat": 38.91207883333333, "lon": -77.03853416666666, "bike_id": "3b1f48798be3d5684e02a5337a73e716", "rental_uris": {"ios": "https://dc.lft.to/lastmile_qr_scan", "android": "https://dc.lft.to/lastmile_qr_scan"}, "type": "electric_scooter", "fusion_lon": 0.0}, {"is_reserved": 0, "is_disabled": 0, "fusion_lat": 0.0, "name": "b414183b079adef65938f406b85fc7d9", "lat": 38.902135, "lon": -77.04804883333334, "bike_id": "b414183b079adef65938f406b85fc7d9", "rental_uris": {"ios": "https://dc.lft.to/lastmile_qr_scan", "android": "https://dc.lft.to/lastmile_qr_scan"}, "type": "electric_scooter", "fusion_lon": 0.0}, {"is_reserved": 0, "is_disabled": 0, "fusion_lat": 0.0, "name": "551f63b87c2baee5648b1a168cc841ad", "lat": 38.896051, "lon": -77.01090433333333, "bike_id": "551f63b87c2baee5648b1a168cc841ad", "rental_uris": {"ios": "https://dc.lft.to/lastmile_qr_scan", "android": "https://dc.lft.to/lastmile_qr_scan"}, "type": "electric_scooter", "fusion_lon": 0.0}, {"is_reserved": 0, "is_disabled": 0, "fusion_lat": 0.0, "name": "a2aa902bc73c960044a78ac5773c82bc", "lat": 38.87667, "lon": -77.00438066666666, "bike_id": "a2aa902bc73c960044a78ac5773c82bc", "rental_uris": {"ios": "https://dc.lft.to/lastmile_qr_scan", "android": "https://dc.lft.to/lastmile_qr_scan"}, "type": "electric_scooter", "fusion_lon": 0.0}, {"is_reserved": 0, "is_disabled": 0, "fusion_lat": 0.0, "name": "35ae1d4f340f5d74f650b891ab3acc84", "lat": 38.89903916666667, "lon": -77.00744016666667, "bike_id": "35ae1d4f340f5d74f650b891ab3acc84", "rental_uris": {"ios": "https://dc.lft.to/lastmile_qr_scan", "android": "https://dc.lft.to/lastmile_qr_scan"}, "type": "electric_scooter", "fusion_lon": 0.0}, {"is_reserved": 0, "is_disabled": 0, "fusion_lat": 0.0, "name": "662d6d322974085a340d6489f2bc6732", "lat": 38.897133833333335, "lon": -77.01317, "bike_id": "662d6d322974085a340d6489f2bc6732", "rental_uris": {"ios": "https://dc.lft.to/lastmile_qr_scan", "android": "https://dc.lft.to/lastmile_qr_scan"}, "type": "electric_scooter", "fusion_lon": 0.0}, {"is_reserved": 0, "is_disabled": 0, "fusion_lat": 0.0, "name": "d20ade87ac44d7aacb9fa13ce61609d3", "lat": 38.923152333333334, "lon": -77.0411575, "bike_id": "d20ade87ac44d7aacb9fa13ce61609d3", "rental_uris": {"ios": "https://dc.lft.to/lastmile_qr_scan", "android": "https://dc.lft.to/lastmile_qr_scan"}, "type": "electric_scooter", "fusion_lon": 0.0}, {"is_reserved": 0, "is_disabled": 0, "fusion_lat": 0.0, "name": "f48ee99bdfb776b1b17f2d22ce86313b", "lat": 38.915432833333334, "lon": -77.04423616666666, "bike_id": "f48ee99bdfb776b1b17f2d22ce86313b", "rental_uris": {"ios": "https://dc.lft.to/lastmile_qr_scan", "android": "https://dc.lft.to/lastmile_qr_scan"}, "type": "electric_scooter", "fusion_lon": 0.0}, {"is_reserved": 0, "is_disabled": 0, "fusion_lat": 0.0, "name": "5831d27b2054e044a44426b2120d3fe0", "lat": 38.974106666666664, "lon": -76.98418683333334, "bike_id": "5831d27b2054e044a44426b2120d3fe0", "rental_uris": {"ios": "https://dc.lft.to/lastmile_qr_scan", "android": "https://dc.lft.to/lastmile_qr_scan"}, "type": "electric_bike", "fusion_lon": 0.0}, {"is_reserved": 0, "is_disabled": 0, "fusion_lat": 0.0, "name": "62165b7582c1266a8dd4715d8e476942", "lat": 38.904622833333335, "lon": -77.05329066666667, "bike_id": "62165b7582c1266a8dd4715d8e476942", "rental_uris": {"ios": "https://dc.lft.to/lastmile_qr_scan", "android": "https://dc.lft.to/lastmile_qr_scan"}, "type": "electric_scooter", "fusion_lon": 0.0}, {"is_reserved": 0, "is_disabled": 0, "fusion_lat": 0.0, "name": "7a55ad40e0793ec7bb620b689eeea206", "lat": 38.916268333333335, "lon": -77.00501516666667, "bike_id": "7a55ad40e0793ec7bb620b689eeea206", "rental_uris": {"ios": "https://dc.lft.to/lastmile_qr_scan", "android": "https://dc.lft.to/lastmile_qr_scan"}, "type": "electric_scooter", "fusion_lon": 0.0}, {"is_reserved": 0, "is_disabled": 0, "fusion_lat": 0.0, "name": "b3763921169a85e7f1fb17cf3b091fa6", "lat": 38.94733266666667, "lon": -77.01937866666667, "bike_id": "b3763921169a85e7f1fb17cf3b091fa6", "rental_uris": {"ios": "https://dc.lft.to/lastmile_qr_scan", "android": "https://dc.lft.to/lastmile_qr_scan"}, "type": "electric_scooter", "fusion_lon": 0.0}, {"is_reserved": 0, "is_disabled": 0, "fusion_lat": 0.0, "name": "6d87ba996d9e36f83a97ed74033c7bc1", "lat": 38.91710883333333, "lon": -77.03864683333333, "bike_id": "6d87ba996d9e36f83a97ed74033c7bc1", "rental_uris": {"ios": "https://dc.lft.to/lastmile_qr_scan", "android": "https://dc.lft.to/lastmile_qr_scan"}, "type": "electric_scooter", "fusion_lon": 0.0}, {"is_reserved": 0, "is_disabled": 0, "fusion_lat": 0.0, "name": "c96213f150862a6cd22d5275dc64dec0", "lat": 38.923937, "lon": -77.034077, "bike_id": "c96213f150862a6cd22d5275dc64dec0", "rental_uris": {"ios": "https://dc.lft.to/lastmile_qr_scan", "android": "https://dc.lft.to/lastmile_qr_scan"}, "type": "electric_scooter", "fusion_lon": 0.0}, {"is_reserved": 0, "is_disabled": 0, "fusion_lat": 0.0, "name": "babbf88358b49bf2bc79b2b1a9bbeec7", "lat": 38.903467, "lon": -76.9749315, "bike_id": "babbf88358b49bf2bc79b2b1a9bbeec7", "rental_uris": {"ios": "https://dc.lft.to/lastmile_qr_scan", "android": "https://dc.lft.to/lastmile_qr_scan"}, "type": "electric_scooter", "fusion_lon": 0.0}, {"is_reserved": 0, "is_disabled": 0, "fusion_lat": 0.0, "name": "86d8647e9f930a2a5056d1793f9af8f1", "lat": 38.926571833333334, "lon": -77.09024866666667, "bike_id": "86d8647e9f930a2a5056d1793f9af8f1", "rental_uris": {"ios": "https://dc.lft.to/lastmile_qr_scan", "android": "https://dc.lft.to/lastmile_qr_scan"}, "type": "electric_bike", "fusion_lon": 0.0}, {"is_reserved": 0, "is_disabled": 0, "fusion_lat": 0.0, "name": "bf9fd46a0d55e3216e08a61063211e41", "lat": 38.91428, "lon": -76.9843415, "bike_id": "bf9fd46a0d55e3216e08a61063211e41", "rental_uris": {"ios": "https://dc.lft.to/lastmile_qr_scan", "android": "https://dc.lft.to/lastmile_qr_scan"}, "type": "electric_scooter", "fusion_lon": 0.0}, {"is_reserved": 0, "is_disabled": 0, "fusion_lat": 0.0, "name": "74d3d318c44cd3abbe4daaf536d76a67", "lat": 38.89920633333333, "lon": -77.00362566666666, "bike_id": "74d3d318c44cd3abbe4daaf536d76a67", "rental_uris": {"ios": "https://dc.lft.to/lastmile_qr_scan", "android": "https://dc.lft.to/lastmile_qr_scan"}, "type": "electric_scooter", "fusion_lon": 0.0}, {"is_reserved": 0, "is_disabled": 0, "fusion_lat": 0.0, "name": "d4ba2f7b3de621b4b761709eeb871938", "lat": 38.942152666666665, "lon": -77.01886616666667, "bike_id": "d4ba2f7b3de621b4b761709eeb871938", "rental_uris": {"ios": "https://dc.lft.to/lastmile_qr_scan", "android": "https://dc.lft.to/lastmile_qr_scan"}, "type": "electric_scooter", "fusion_lon": 0.0}, {"is_reserved": 0, "is_disabled": 0, "fusion_lat": 0.0, "name": "9e89e74eecae5eea160b1e1f3c7d70c5", "lat": 38.89924383333334, "lon": -77.03969883333333, "bike_id": "9e89e74eecae5eea160b1e1f3c7d70c5", "rental_uris": {"ios": "https://dc.lft.to/lastmile_qr_scan", "android": "https://dc.lft.to/lastmile_qr_scan"}, "type": "electric_scooter", "fusion_lon": 0.0}, {"is_reserved": 0, "is_disabled": 0, "fusion_lat": 0.0, "name": "f24e42ba59aa5f307ff5232d7c0e93f1", "lat": 38.9152785, "lon": -77.021859, "bike_id": "f24e42ba59aa5f307ff5232d7c0e93f1", "rental_uris": {"ios": "https://dc.lft.to/lastmile_qr_scan", "android": "https://dc.lft.to/lastmile_qr_scan"}, "type": "electric_scooter", "fusion_lon": 0.0}, {"is_reserved": 0, "is_disabled": 0, "fusion_lat": 0.0, "name": "60b9febc3331cbab4e3b1fb86cd62b87", "lat": 38.898466166666665, "lon": -77.04669783333334, "bike_id": "60b9febc3331cbab4e3b1fb86cd62b87", "rental_uris": {"ios": "https://dc.lft.to/lastmile_qr_scan", "android": "https://dc.lft.to/lastmile_qr_scan"}, "type": "electric_scooter", "fusion_lon": 0.0}, {"is_reserved": 0, "is_disabled": 0, "fusion_lat": 0.0, "name": "45782ea4eb3cb21e82c8c344cfc1f21c", "lat": 38.92333983333333, "lon": -77.0281755, "bike_id": "45782ea4eb3cb21e82c8c344cfc1f21c", "rental_uris": {"ios": "https://dc.lft.to/lastmile_qr_scan", "android": "https://dc.lft.to/lastmile_qr_scan"}, "type": "electric_scooter", "fusion_lon": 0.0}, {"is_reserved": 0, "is_disabled": 0, "fusion_lat": 0.0, "name": "8fd494f58588a4d35cda320cda7dde04", "lat": 38.9562545, "lon": -77.02239683333333, "bike_id": "8fd494f58588a4d35cda320cda7dde04", "rental_uris": {"ios": "https://dc.lft.to/lastmile_qr_scan", "android": "https://dc.lft.to/lastmile_qr_scan"}, "type": "electric_scooter", "fusion_lon": 0.0}, {"is_reserved": 0, "is_disabled": 0, "fusion_lat": 0.0, "name": "48ab342ba9d66cae12cbf92bcd6b59b8", "lat": 38.90709416666667, "lon": -77.0321405, "bike_id": "48ab342ba9d66cae12cbf92bcd6b59b8", "rental_uris": {"ios": "https://dc.lft.to/lastmile_qr_scan", "android": "https://dc.lft.to/lastmile_qr_scan"}, "type": "electric_scooter", "fusion_lon": 0.0}, {"is_reserved": 0, "is_disabled": 0, "fusion_lat": 0.0, "name": "49b836428c82e7bc859ad5b457555523", "lat": 38.921588, "lon": -77.02118633333333, "bike_id": "49b836428c82e7bc859ad5b457555523", "rental_uris": {"ios": "https://dc.lft.to/lastmile_qr_scan", "android": "https://dc.lft.to/lastmile_qr_scan"}, "type": "electric_scooter", "fusion_lon": 0.0}, {"is_reserved": 0, "is_disabled": 0, "fusion_lat": 0.0, "name": "ae556d18f3e0b3b4e82fb93fe6160658", "lat": 38.90668, "lon": -77.03127966666666, "bike_id": "ae556d18f3e0b3b4e82fb93fe6160658", "rental_uris": {"ios": "https://dc.lft.to/lastmile_qr_scan", "android": "https://dc.lft.to/lastmile_qr_scan"}, "type": "electric_scooter", "fusion_lon": 0.0}, {"is_reserved": 0, "is_disabled": 0, "fusion_lat": 0.0, "name": "78b173496c25d7ddec7ba7926f7efc8a", "lat": 38.9193565, "lon": -77.03483216666666, "bike_id": "78b173496c25d7ddec7ba7926f7efc8a", "rental_uris": {"ios": "https://dc.lft.to/lastmile_qr_scan", "android": "https://dc.lft.to/lastmile_qr_scan"}, "type": "electric_scooter", "fusion_lon": 0.0}, {"is_reserved": 0, "is_disabled": 0, "fusion_lat": 0.0, "name": "f8a7de3c3db8dbf00ff994a6da4f7cd1", "lat": 38.88731116666666, "lon": -76.98378766666667, "bike_id": "f8a7de3c3db8dbf00ff994a6da4f7cd1", "rental_uris": {"ios": "https://dc.lft.to/lastmile_qr_scan", "android": "https://dc.lft.to/lastmile_qr_scan"}, "type": "electric_scooter", "fusion_lon": 0.0}, {"is_reserved": 0, "is_disabled": 0, "fusion_lat": 0.0, "name": "053ea64cd593bb8763a745c55c29540f", "lat": 38.902589166666665, "lon": -77.03036766666666, "bike_id": "053ea64cd593bb8763a745c55c29540f", "rental_uris": {"ios": "https://dc.lft.to/lastmile_qr_scan", "android": "https://dc.lft.to/lastmile_qr_scan"}, "type": "electric_scooter", "fusion_lon": 0.0}, {"is_reserved": 0, "is_disabled": 0, "fusion_lat": 0.0, "name": "a005bd56f66bcf87c9b8e2f33ebbd4a4", "lat": 38.9163265, "lon": -77.0318605, "bike_id": "a005bd56f66bcf87c9b8e2f33ebbd4a4", "rental_uris": {"ios": "https://dc.lft.to/lastmile_qr_scan", "android": "https://dc.lft.to/lastmile_qr_scan"}, "type": "electric_scooter", "fusion_lon": 0.0}, {"is_reserved": 0, "is_disabled": 0, "fusion_lat": 0.0, "name": "f0f4c4c8672b751ba85a0f432d790d83", "lat": 38.9139905, "lon": -77.0321135, "bike_id": "f0f4c4c8672b751ba85a0f432d790d83", "rental_uris": {"ios": "https://dc.lft.to/lastmile_qr_scan", "android": "https://dc.lft.to/lastmile_qr_scan"}, "type": "electric_scooter", "fusion_lon": 0.0}, {"is_reserved": 0, "is_disabled": 0, "fusion_lat": 0.0, "name": "7ca244298c25236ddb46674dd0ed14d0", "lat": 38.90064066666667, "lon": -77.036519, "bike_id": "7ca244298c25236ddb46674dd0ed14d0", "rental_uris": {"ios": "https://dc.lft.to/lastmile_qr_scan", "android": "https://dc.lft.to/lastmile_qr_scan"}, "type": "electric_scooter", "fusion_lon": 0.0}, {"is_reserved": 0, "is_disabled": 0, "fusion_lat": 0.0, "name": "4f60d95f6d9838edf7a528ca8c392adc", "lat": 38.926576, "lon": -77.02438483333333, "bike_id": "4f60d95f6d9838edf7a528ca8c392adc", "rental_uris": {"ios": "https://dc.lft.to/lastmile_qr_scan", "android": "https://dc.lft.to/lastmile_qr_scan"}, "type": "electric_scooter", "fusion_lon": 0.0}, {"is_reserved": 0, "is_disabled": 0, "fusion_lat": 0.0, "name": "c289a0cb7e01f6539a43a89f0ffdd6a1", "lat": 38.9010995, "lon": -77.04500716666666, "bike_id": "c289a0cb7e01f6539a43a89f0ffdd6a1", "rental_uris": {"ios": "https://dc.lft.to/lastmile_qr_scan", "android": "https://dc.lft.to/lastmile_qr_scan"}, "type": "electric_scooter", "fusion_lon": 0.0}, {"is_reserved": 0, "is_disabled": 0, "fusion_lat": 0.0, "name": "3acfe570b8120ca3b460257e99223227", "lat": 38.9085895, "lon": -76.998016, "bike_id": "3acfe570b8120ca3b460257e99223227", "rental_uris": {"ios": "https://dc.lft.to/lastmile_qr_scan", "android": "https://dc.lft.to/lastmile_qr_scan"}, "type": "electric_scooter", "fusion_lon": 0.0}, {"is_reserved": 0, "is_disabled": 0, "fusion_lat": 0.0, "name": "060fef4e14702753e7a86cc8e5323b53", "lat": 38.97609166666667, "lon": -77.0265225, "bike_id": "060fef4e14702753e7a86cc8e5323b53", "rental_uris": {"ios": "https://dc.lft.to/lastmile_qr_scan", "android": "https://dc.lft.to/lastmile_qr_scan"}, "type": "electric_scooter", "fusion_lon": 0.0}, {"is_reserved": 0, "is_disabled": 0, "fusion_lat": 0.0, "name": "79ee200043e43eb7ee56dbd62c1f7348", "lat": 38.91577483333333, "lon": -77.020167, "bike_id": "79ee200043e43eb7ee56dbd62c1f7348", "rental_uris": {"ios": "https://dc.lft.to/lastmile_qr_scan", "android": "https://dc.lft.to/lastmile_qr_scan"}, "type": "electric_scooter", "fusion_lon": 0.0}, {"is_reserved": 0, "is_disabled": 0, "fusion_lat": 0.0, "name": "9828dc1ae0cf432fd9dc0f64c43e1e8e", "lat": 38.87547583333333, "lon": -77.00541466666667, "bike_id": "9828dc1ae0cf432fd9dc0f64c43e1e8e", "rental_uris": {"ios": "https://dc.lft.to/lastmile_qr_scan", "android": "https://dc.lft.to/lastmile_qr_scan"}, "type": "electric_scooter", "fusion_lon": 0.0}, {"is_reserved": 0, "is_disabled": 0, "fusion_lat": 0.0, "name": "6357dfa66a717f7de815d18fb6669d87", "lat": 38.9180765, "lon": -77.024564, "bike_id": "6357dfa66a717f7de815d18fb6669d87", "rental_uris": {"ios": "https://dc.lft.to/lastmile_qr_scan", "android": "https://dc.lft.to/lastmile_qr_scan"}, "type": "electric_scooter", "fusion_lon": 0.0}, {"is_reserved": 0, "is_disabled": 0, "fusion_lat": 0.0, "name": "5e2b19ca2e215110532f9c648baca596", "lat": 38.9267465, "lon": -77.01470833333333, "bike_id": "5e2b19ca2e215110532f9c648baca596", "rental_uris": {"ios": "https://dc.lft.to/lastmile_qr_scan", "android": "https://dc.lft.to/lastmile_qr_scan"}, "type": "electric_scooter", "fusion_lon": 0.0}, {"is_reserved": 0, "is_disabled": 0, "fusion_lat": 0.0, "name": "54c89a958af1aeb74036fb2b67aebf4a", "lat": 38.915812833333334, "lon": -76.9840985, "bike_id": "54c89a958af1aeb74036fb2b67aebf4a", "rental_uris": {"ios": "https://dc.lft.to/lastmile_qr_scan", "android": "https://dc.lft.to/lastmile_qr_scan"}, "type": "electric_scooter", "fusion_lon": 0.0}, {"is_reserved": 0, "is_disabled": 0, "fusion_lat": 0.0, "name": "d91d7c9b5cf069769f5909ea743356ff", "lat": 38.91668266666667, "lon": -77.04208933333334, "bike_id": "d91d7c9b5cf069769f5909ea743356ff", "rental_uris": {"ios": "https://dc.lft.to/lastmile_qr_scan", "android": "https://dc.lft.to/lastmile_qr_scan"}, "type": "electric_scooter", "fusion_lon": 0.0}, {"is_reserved": 0, "is_disabled": 0, "fusion_lat": 0.0, "name": "77371d4cd47d47213e54f0879cb289fa", "lat": 38.9242295, "lon": -77.02132483333334, "bike_id": "77371d4cd47d47213e54f0879cb289fa", "rental_uris": {"ios": "https://dc.lft.to/lastmile_qr_scan", "android": "https://dc.lft.to/lastmile_qr_scan"}, "type": "electric_scooter", "fusion_lon": 0.0}, {"is_reserved": 0, "is_disabled": 0, "fusion_lat": 0.0, "name": "1b3d239da034d68f6f8abd4b8eab0749", "lat": 38.901352, "lon": -77.0314645, "bike_id": "1b3d239da034d68f6f8abd4b8eab0749", "rental_uris": {"ios": "https://dc.lft.to/lastmile_qr_scan", "android": "https://dc.lft.to/lastmile_qr_scan"}, "type": "electric_scooter", "fusion_lon": 0.0}, {"is_reserved": 0, "is_disabled": 0, "fusion_lat": 0.0, "name": "349febce96b613d34f264e21606daea1", "lat": 38.846762, "lon": -77.139439, "bike_id": "349febce96b613d34f264e21606daea1", "rental_uris": {"ios": "https://dc.lft.to/lastmile_qr_scan", "android": "https://dc.lft.to/lastmile_qr_scan"}, "type": "electric_bike", "fusion_lon": 0.0}, {"is_reserved": 0, "is_disabled": 0, "fusion_lat": 0.0, "name": "41af5723d620b34ed9c534e423099a8c", "lat": 38.876320666666665, "lon": -77.00955166666667, "bike_id": "41af5723d620b34ed9c534e423099a8c", "rental_uris": {"ios": "https://dc.lft.to/lastmile_qr_scan", "android": "https://dc.lft.to/lastmile_qr_scan"}, "type": "electric_scooter", "fusion_lon": 0.0}, {"is_reserved": 0, "is_disabled": 0, "fusion_lat": 0.0, "name": "1cedf2f3a7d86bba589cb31289cf4ce5", "lat": 38.91863383333333, "lon": -77.0156475, "bike_id": "1cedf2f3a7d86bba589cb31289cf4ce5", "rental_uris": {"ios": "https://dc.lft.to/lastmile_qr_scan", "android": "https://dc.lft.to/lastmile_qr_scan"}, "type": "electric_scooter", "fusion_lon": 0.0}, {"is_reserved": 0, "is_disabled": 0, "fusion_lat": 0.0, "name": "379dcf0841e176fee4530a8304a0e134", "lat": 38.91707266666667, "lon": -77.03222983333333, "bike_id": "379dcf0841e176fee4530a8304a0e134", "rental_uris": {"ios": "https://dc.lft.to/lastmile_qr_scan", "android": "https://dc.lft.to/lastmile_qr_scan"}, "type": "electric_scooter", "fusion_lon": 0.0}, {"is_reserved": 0, "is_disabled": 0, "fusion_lat": 0.0, "name": "5e0af8c9c585b7dea5d7ce3351eef06c", "lat": 38.90393366666667, "lon": -77.048299, "bike_id": "5e0af8c9c585b7dea5d7ce3351eef06c", "rental_uris": {"ios": "https://dc.lft.to/lastmile_qr_scan", "android": "https://dc.lft.to/lastmile_qr_scan"}, "type": "electric_scooter", "fusion_lon": 0.0}, {"is_reserved": 0, "is_disabled": 0, "fusion_lat": 0.0, "name": "9a03c022fc05f68f3031e4d90ca048fa", "lat": 38.88432783333333, "lon": -77.03050816666666, "bike_id": "9a03c022fc05f68f3031e4d90ca048fa", "rental_uris": {"ios": "https://dc.lft.to/lastmile_qr_scan", "android": "https://dc.lft.to/lastmile_qr_scan"}, "type": "electric_scooter", "fusion_lon": 0.0}, {"is_reserved": 0, "is_disabled": 0, "fusion_lat": 0.0, "name": "a8e8ee2218a87d8ebd0d049de129c667", "lat": 38.890899166666664, "lon": -76.98817516666666, "bike_id": "a8e8ee2218a87d8ebd0d049de129c667", "rental_uris": {"ios": "https://dc.lft.to/lastmile_qr_scan", "android": "https://dc.lft.to/lastmile_qr_scan"}, "type": "electric_scooter", "fusion_lon": 0.0}, {"is_reserved": 0, "is_disabled": 0, "fusion_lat": 0.0, "name": "55c6cb73df8ed5f35f1da631506074a7", "lat": 38.912571166666666, "lon": -76.983553, "bike_id": "55c6cb73df8ed5f35f1da631506074a7", "rental_uris": {"ios": "https://dc.lft.to/lastmile_qr_scan", "android": "https://dc.lft.to/lastmile_qr_scan"}, "type": "electric_scooter", "fusion_lon": 0.0}, {"is_reserved": 0, "is_disabled": 0, "fusion_lat": 0.0, "name": "6b1febbe56027daddef24fe6edc950e3", "lat": 38.88630933333334, "lon": -76.981822, "bike_id": "6b1febbe56027daddef24fe6edc950e3", "rental_uris": {"ios": "https://dc.lft.to/lastmile_qr_scan", "android": "https://dc.lft.to/lastmile_qr_scan"}, "type": "electric_scooter", "fusion_lon": 0.0}, {"is_reserved": 0, "is_disabled": 0, "fusion_lat": 0.0, "name": "c0c4145b4fe2ed9ae00ce0d25187ac55", "lat": 38.91813766666667, "lon": -77.03726266666666, "bike_id": "c0c4145b4fe2ed9ae00ce0d25187ac55", "rental_uris": {"ios": "https://dc.lft.to/lastmile_qr_scan", "android": "https://dc.lft.to/lastmile_qr_scan"}, "type": "electric_scooter", "fusion_lon": 0.0}, {"is_reserved": 0, "is_disabled": 0, "fusion_lat": 0.0, "name": "d08ed041c2644a070cafa6251f59708b", "lat": 38.96779033333333, "lon": -76.996487, "bike_id": "d08ed041c2644a070cafa6251f59708b", "rental_uris": {"ios": "https://dc.lft.to/lastmile_qr_scan", "android": "https://dc.lft.to/lastmile_qr_scan"}, "type": "electric_bike", "fusion_lon": 0.0}, {"is_reserved": 0, "is_disabled": 0, "fusion_lat": 0.0, "name": "cb320e5b2491efeafd77a369c06b93f5", "lat": 38.9195955, "lon": -77.02593966666667, "bike_id": "cb320e5b2491efeafd77a369c06b93f5", "rental_uris": {"ios": "https://dc.lft.to/lastmile_qr_scan", "android": "https://dc.lft.to/lastmile_qr_scan"}, "type": "electric_scooter", "fusion_lon": 0.0}, {"is_reserved": 0, "is_disabled": 0, "fusion_lat": 0.0, "name": "d382f1d12957dd702f212f591846be78", "lat": 38.915799166666666, "lon": -77.02008616666667, "bike_id": "d382f1d12957dd702f212f591846be78", "rental_uris": {"ios": "https://dc.lft.to/lastmile_qr_scan", "android": "https://dc.lft.to/lastmile_qr_scan"}, "type": "electric_scooter", "fusion_lon": 0.0}, {"is_reserved": 0, "is_disabled": 0, "fusion_lat": 0.0, "name": "7e5d450600b17a7fc5b8c1471556424c", "lat": 38.90130166666667, "lon": -77.0397845, "bike_id": "7e5d450600b17a7fc5b8c1471556424c", "rental_uris": {"ios": "https://dc.lft.to/lastmile_qr_scan", "android": "https://dc.lft.to/lastmile_qr_scan"}, "type": "electric_bike", "fusion_lon": 0.0}, {"is_reserved": 0, "is_disabled": 0, "fusion_lat": 0.0, "name": "19829f32349e5cbe778d3da6af626593", "lat": 38.88702466666667, "lon": -77.00066016666666, "bike_id": "19829f32349e5cbe778d3da6af626593", "rental_uris": {"ios": "https://dc.lft.to/lastmile_qr_scan", "android": "https://dc.lft.to/lastmile_qr_scan"}, "type": "electric_scooter", "fusion_lon": 0.0}, {"is_reserved": 0, "is_disabled": 0, "fusion_lat": 0.0, "name": "10a1253c42cb462d0cfdfcc183e6f942", "lat": 38.96684233333333, "lon": -77.033989, "bike_id": "10a1253c42cb462d0cfdfcc183e6f942", "rental_uris": {"ios": "https://dc.lft.to/lastmile_qr_scan", "android": "https://dc.lft.to/lastmile_qr_scan"}, "type": "electric_scooter", "fusion_lon": 0.0}, {"is_reserved": 0, "is_disabled": 0, "fusion_lat": 0.0, "name": "3d40fab0e348ced2ebdc110ec7e06043", "lat": 38.897198333333336, "lon": -77.00797183333333, "bike_id": "3d40fab0e348ced2ebdc110ec7e06043", "rental_uris": {"ios": "https://dc.lft.to/lastmile_qr_scan", "android": "https://dc.lft.to/lastmile_qr_scan"}, "type": "electric_scooter", "fusion_lon": 0.0}, {"is_reserved": 0, "is_disabled": 0, "fusion_lat": 0.0, "name": "25e9fc4a190a55deef26f07e8ee4fa81", "lat": 38.87768766666667, "lon": -77.01872166666666, "bike_id": "25e9fc4a190a55deef26f07e8ee4fa81", "rental_uris": {"ios": "https://dc.lft.to/lastmile_qr_scan", "android": "https://dc.lft.to/lastmile_qr_scan"}, "type": "electric_scooter", "fusion_lon": 0.0}, {"is_reserved": 0, "is_disabled": 0, "fusion_lat": 0.0, "name": "c8b4a84d971ab9a075deb89aadcb6c49", "lat": 38.917105, "lon": -77.03728816666667, "bike_id": "c8b4a84d971ab9a075deb89aadcb6c49", "rental_uris": {"ios": "https://dc.lft.to/lastmile_qr_scan", "android": "https://dc.lft.to/lastmile_qr_scan"}, "type": "electric_scooter", "fusion_lon": 0.0}, {"is_reserved": 0, "is_disabled": 0, "fusion_lat": 0.0, "name": "e58626d96b0c6a01fce9520acbd03947", "lat": 38.899424833333335, "lon": -76.93769316666666, "bike_id": "e58626d96b0c6a01fce9520acbd03947", "rental_uris": {"ios": "https://dc.lft.to/lastmile_qr_scan", "android": "https://dc.lft.to/lastmile_qr_scan"}, "type": "electric_scooter", "fusion_lon": 0.0}, {"is_reserved": 0, "is_disabled": 0, "fusion_lat": 0.0, "name": "984353cb4e7d2badf12d1b1d19e7c671", "lat": 38.94486466666667, "lon": -77.063997, "bike_id": "984353cb4e7d2badf12d1b1d19e7c671", "rental_uris": {"ios": "https://dc.lft.to/lastmile_qr_scan", "android": "https://dc.lft.to/lastmile_qr_scan"}, "type": "electric_scooter", "fusion_lon": 0.0}, {"is_reserved": 0, "is_disabled": 0, "fusion_lat": 0.0, "name": "0b726f455d63db2a4d1ad311c7fe8f75", "lat": 39.03472166666667, "lon": -77.04104433333333, "bike_id": "0b726f455d63db2a4d1ad311c7fe8f75", "rental_uris": {"ios": "https://dc.lft.to/lastmile_qr_scan", "android": "https://dc.lft.to/lastmile_qr_scan"}, "type": "electric_bike", "fusion_lon": 0.0}, {"is_reserved": 0, "is_disabled": 0, "fusion_lat": 0.0, "name": "65a65c31abfea504cd759a7d7774e1a1", "lat": 38.92174466666667, "lon": -77.03833266666666, "bike_id": "65a65c31abfea504cd759a7d7774e1a1", "rental_uris": {"ios": "https://dc.lft.to/lastmile_qr_scan", "android": "https://dc.lft.to/lastmile_qr_scan"}, "type": "electric_scooter", "fusion_lon": 0.0}, {"is_reserved": 0, "is_disabled": 0, "fusion_lat": 0.0, "name": "70c6ffb52fcc03ffb1a056173b897fc4", "lat": 38.90998966666667, "lon": -77.0383495, "bike_id": "70c6ffb52fcc03ffb1a056173b897fc4", "rental_uris": {"ios": "https://dc.lft.to/lastmile_qr_scan", "android": "https://dc.lft.to/lastmile_qr_scan"}, "type": "electric_scooter", "fusion_lon": 0.0}, {"is_reserved": 0, "is_disabled": 0, "fusion_lat": 0.0, "name": "dfdf33fbd06b6160cfc386af8a89f4ad", "lat": 38.92841116666666, "lon": -77.013954, "bike_id": "dfdf33fbd06b6160cfc386af8a89f4ad", "rental_uris": {"ios": "https://dc.lft.to/lastmile_qr_scan", "android": "https://dc.lft.to/lastmile_qr_scan"}, "type": "electric_scooter", "fusion_lon": 0.0}, {"is_reserved": 0, "is_disabled": 0, "fusion_lat": 0.0, "name": "8719a45069280c4c5c95bcd0bc57e47a", "lat": 38.87287216666667, "lon": -77.00985483333334, "bike_id": "8719a45069280c4c5c95bcd0bc57e47a", "rental_uris": {"ios": "https://dc.lft.to/lastmile_qr_scan", "android": "https://dc.lft.to/lastmile_qr_scan"}, "type": "electric_scooter", "fusion_lon": 0.0}, {"is_reserved": 0, "is_disabled": 0, "fusion_lat": 0.0, "name": "0fbcd59a26b4c508d7183397b73b7a27", "lat": 38.9300745, "lon": -77.02116066666666, "bike_id": "0fbcd59a26b4c508d7183397b73b7a27", "rental_uris": {"ios": "https://dc.lft.to/lastmile_qr_scan", "android": "https://dc.lft.to/lastmile_qr_scan"}, "type": "electric_scooter", "fusion_lon": 0.0}, {"is_reserved": 0, "is_disabled": 0, "fusion_lat": 0.0, "name": "332a2e96ddfb5bc555a24de79f99c4eb", "lat": 38.90185016666667, "lon": -76.976748, "bike_id": "332a2e96ddfb5bc555a24de79f99c4eb", "rental_uris": {"ios": "https://dc.lft.to/lastmile_qr_scan", "android": "https://dc.lft.to/lastmile_qr_scan"}, "type": "electric_scooter", "fusion_lon": 0.0}, {"is_reserved": 0, "is_disabled": 0, "fusion_lat": 0.0, "name": "d76f655e9f3484c8800900fa436917d3", "lat": 38.92759316666667, "lon": -77.02122466666667, "bike_id": "d76f655e9f3484c8800900fa436917d3", "rental_uris": {"ios": "https://dc.lft.to/lastmile_qr_scan", "android": "https://dc.lft.to/lastmile_qr_scan"}, "type": "electric_scooter", "fusion_lon": 0.0}, {"is_reserved": 0, "is_disabled": 0, "fusion_lat": 0.0, "name": "ee7e8c408cf4a835aec0a22a166fbbb0", "lat": 38.90300916666666, "lon": -76.9983745, "bike_id": "ee7e8c408cf4a835aec0a22a166fbbb0", "rental_uris": {"ios": "https://dc.lft.to/lastmile_qr_scan", "android": "https://dc.lft.to/lastmile_qr_scan"}, "type": "electric_scooter", "fusion_lon": 0.0}, {"is_reserved": 0, "is_disabled": 0, "fusion_lat": 0.0, "name": "12a1b8fb2038f5374c0ee12ad778c5cf", "lat": 38.89956, "lon": -76.98565233333333, "bike_id": "12a1b8fb2038f5374c0ee12ad778c5cf", "rental_uris": {"ios": "https://dc.lft.to/lastmile_qr_scan", "android": "https://dc.lft.to/lastmile_qr_scan"}, "type": "electric_scooter", "fusion_lon": 0.0}, {"is_reserved": 0, "is_disabled": 0, "fusion_lat": 0.0, "name": "e4ca3adfdbf2f994c7fdab3ad3aa5795", "lat": 38.89513316666667, "lon": -76.948873, "bike_id": "e4ca3adfdbf2f994c7fdab3ad3aa5795", "rental_uris": {"ios": "https://dc.lft.to/lastmile_qr_scan", "android": "https://dc.lft.to/lastmile_qr_scan"}, "type": "electric_scooter", "fusion_lon": 0.0}, {"is_reserved": 0, "is_disabled": 0, "fusion_lat": 0.0, "name": "9c10ad1d806d16c3f9e5516cddcccec3", "lat": 38.8740735, "lon": -76.99998983333333, "bike_id": "9c10ad1d806d16c3f9e5516cddcccec3", "rental_uris": {"ios": "https://dc.lft.to/lastmile_qr_scan", "android": "https://dc.lft.to/lastmile_qr_scan"}, "type": "electric_scooter", "fusion_lon": 0.0}, {"is_reserved": 0, "is_disabled": 0, "fusion_lat": 0.0, "name": "dc34d157b779c54f17ab14d33000d8bb", "lat": 38.902573833333335, "lon": -76.979998, "bike_id": "dc34d157b779c54f17ab14d33000d8bb", "rental_uris": {"ios": "https://dc.lft.to/lastmile_qr_scan", "android": "https://dc.lft.to/lastmile_qr_scan"}, "type": "electric_scooter", "fusion_lon": 0.0}, {"is_reserved": 0, "is_disabled": 0, "fusion_lat": 0.0, "name": "ea8f3ede25aad7a542a4b9647d646978", "lat": 38.940684833333336, "lon": -77.00391183333333, "bike_id": "ea8f3ede25aad7a542a4b9647d646978", "rental_uris": {"ios": "https://dc.lft.to/lastmile_qr_scan", "android": "https://dc.lft.to/lastmile_qr_scan"}, "type": "electric_scooter", "fusion_lon": 0.0}, {"is_reserved": 0, "is_disabled": 0, "fusion_lat": 0.0, "name": "63bd9822d09412e491ab47d7be5dc24f", "lat": 38.9076695, "lon": -77.02409783333333, "bike_id": "63bd9822d09412e491ab47d7be5dc24f", "rental_uris": {"ios": "https://dc.lft.to/lastmile_qr_scan", "android": "https://dc.lft.to/lastmile_qr_scan"}, "type": "electric_scooter", "fusion_lon": 0.0}, {"is_reserved": 0, "is_disabled": 0, "fusion_lat": 0.0, "name": "81480a3b146f197017b07a220727fd74", "lat": 38.87887716666667, "lon": -76.96543216666667, "bike_id": "81480a3b146f197017b07a220727fd74", "rental_uris": {"ios": "https://dc.lft.to/lastmile_qr_scan", "android": "https://dc.lft.to/lastmile_qr_scan"}, "type": "electric_scooter", "fusion_lon": 0.0}, {"is_reserved": 0, "is_disabled": 0, "fusion_lat": 0.0, "name": "aad3486f254e261bde4537931b9a1a6b", "lat": 38.880097, "lon": -76.9983545, "bike_id": "aad3486f254e261bde4537931b9a1a6b", "rental_uris": {"ios": "https://dc.lft.to/lastmile_qr_scan", "android": "https://dc.lft.to/lastmile_qr_scan"}, "type": "electric_scooter", "fusion_lon": 0.0}, {"is_reserved": 0, "is_disabled": 0, "fusion_lat": 0.0, "name": "8e929b4c7f4a9d9a83db228f142fd519", "lat": 38.92060083333333, "lon": -77.04402183333333, "bike_id": "8e929b4c7f4a9d9a83db228f142fd519", "rental_uris": {"ios": "https://dc.lft.to/lastmile_qr_scan", "android": "https://dc.lft.to/lastmile_qr_scan"}, "type": "electric_scooter", "fusion_lon": 0.0}, {"is_reserved": 0, "is_disabled": 0, "fusion_lat": 0.0, "name": "ef7233a1be7262dfb3f9e99a06cee738", "lat": 38.916457666666666, "lon": -77.09757333333333, "bike_id": "ef7233a1be7262dfb3f9e99a06cee738", "rental_uris": {"ios": "https://dc.lft.to/lastmile_qr_scan", "android": "https://dc.lft.to/lastmile_qr_scan"}, "type": "electric_bike", "fusion_lon": 0.0}, {"is_reserved": 0, "is_disabled": 0, "fusion_lat": 0.0, "name": "39a662d32da02da71968bc5134995dac", "lat": 38.897461166666666, "lon": -77.04144483333333, "bike_id": "39a662d32da02da71968bc5134995dac", "rental_uris": {"ios": "https://dc.lft.to/lastmile_qr_scan", "android": "https://dc.lft.to/lastmile_qr_scan"}, "type": "electric_scooter", "fusion_lon": 0.0}, {"is_reserved": 0, "is_disabled": 0, "fusion_lat": 0.0, "name": "4e3d0d1f30b6839c3df3582489a502c8", "lat": 38.88874083333333, "lon": -77.000041, "bike_id": "4e3d0d1f30b6839c3df3582489a502c8", "rental_uris": {"ios": "https://dc.lft.to/lastmile_qr_scan", "android": "https://dc.lft.to/lastmile_qr_scan"}, "type": "electric_scooter", "fusion_lon": 0.0}, {"is_reserved": 0, "is_disabled": 0, "fusion_lat": 0.0, "name": "267f4b3b1ec547bc9730106659244d5c", "lat": 38.947511166666665, "lon": -77.03283566666667, "bike_id": "267f4b3b1ec547bc9730106659244d5c", "rental_uris": {"ios": "https://dc.lft.to/lastmile_qr_scan", "android": "https://dc.lft.to/lastmile_qr_scan"}, "type": "electric_scooter", "fusion_lon": 0.0}, {"is_reserved": 0, "is_disabled": 0, "fusion_lat": 0.0, "name": "c843a2759dfb438518d96fa839680590", "lat": 38.92022983333333, "lon": -77.07133533333334, "bike_id": "c843a2759dfb438518d96fa839680590", "rental_uris": {"ios": "https://dc.lft.to/lastmile_qr_scan", "android": "https://dc.lft.to/lastmile_qr_scan"}, "type": "electric_scooter", "fusion_lon": 0.0}, {"is_reserved": 0, "is_disabled": 0, "fusion_lat": 0.0, "name": "d85e12e0902e9b1d682cb006c1635b09", "lat": 38.9097505, "lon": -77.03219616666667, "bike_id": "d85e12e0902e9b1d682cb006c1635b09", "rental_uris": {"ios": "https://dc.lft.to/lastmile_qr_scan", "android": "https://dc.lft.to/lastmile_qr_scan"}, "type": "electric_scooter", "fusion_lon": 0.0}, {"is_reserved": 0, "is_disabled": 0, "fusion_lat": 0.0, "name": "e394a9114574d8076baae19b9bdb1e5a", "lat": 38.89978283333333, "lon": -77.04191233333333, "bike_id": "e394a9114574d8076baae19b9bdb1e5a", "rental_uris": {"ios": "https://dc.lft.to/lastmile_qr_scan", "android": "https://dc.lft.to/lastmile_qr_scan"}, "type": "electric_scooter", "fusion_lon": 0.0}, {"is_reserved": 0, "is_disabled": 0, "fusion_lat": 0.0, "name": "4fa6c11b640bd0602df01a5b10f2f3ff", "lat": 38.9204275, "lon": -77.01681066666667, "bike_id": "4fa6c11b640bd0602df01a5b10f2f3ff", "rental_uris": {"ios": "https://dc.lft.to/lastmile_qr_scan", "android": "https://dc.lft.to/lastmile_qr_scan"}, "type": "electric_scooter", "fusion_lon": 0.0}, {"is_reserved": 0, "is_disabled": 0, "fusion_lat": 0.0, "name": "aba88962970c8fd11dfaf2a6b76d0fb1", "lat": 38.859191833333334, "lon": -77.10048666666667, "bike_id": "aba88962970c8fd11dfaf2a6b76d0fb1", "rental_uris": {"ios": "https://dc.lft.to/lastmile_qr_scan", "android": "https://dc.lft.to/lastmile_qr_scan"}, "type": "electric_bike", "fusion_lon": 0.0}, {"is_reserved": 0, "is_disabled": 0, "fusion_lat": 0.0, "name": "f94f81667e88d8990acbf595c6130661", "lat": 38.922825833333334, "lon": -76.99761883333333, "bike_id": "f94f81667e88d8990acbf595c6130661", "rental_uris": {"ios": "https://dc.lft.to/lastmile_qr_scan", "android": "https://dc.lft.to/lastmile_qr_scan"}, "type": "electric_bike", "fusion_lon": 0.0}, {"is_reserved": 0, "is_disabled": 0, "fusion_lat": 0.0, "name": "319d2451142cb9e9a5c2cd9888b106a6", "lat": 38.9097335, "lon": -77.02462966666667, "bike_id": "319d2451142cb9e9a5c2cd9888b106a6", "rental_uris": {"ios": "https://dc.lft.to/lastmile_qr_scan", "android": "https://dc.lft.to/lastmile_qr_scan"}, "type": "electric_scooter", "fusion_lon": 0.0}, {"is_reserved": 0, "is_disabled": 0, "fusion_lat": 0.0, "name": "ed748b3585145857db1db8e4d311aa77", "lat": 38.901115, "lon": -77.0230875, "bike_id": "ed748b3585145857db1db8e4d311aa77", "rental_uris": {"ios": "https://dc.lft.to/lastmile_qr_scan", "android": "https://dc.lft.to/lastmile_qr_scan"}, "type": "electric_scooter", "fusion_lon": 0.0}, {"is_reserved": 0, "is_disabled": 0, "fusion_lat": 0.0, "name": "6646337df889372b2d89d87c7f674b23", "lat": 38.8954555, "lon": -76.9833635, "bike_id": "6646337df889372b2d89d87c7f674b23", "rental_uris": {"ios": "https://dc.lft.to/lastmile_qr_scan", "android": "https://dc.lft.to/lastmile_qr_scan"}, "type": "electric_scooter", "fusion_lon": 0.0}, {"is_reserved": 0, "is_disabled": 0, "fusion_lat": 0.0, "name": "863826f9fcf990b21fda782a048fe7c9", "lat": 38.918319333333336, "lon": -77.02712, "bike_id": "863826f9fcf990b21fda782a048fe7c9", "rental_uris": {"ios": "https://dc.lft.to/lastmile_qr_scan", "android": "https://dc.lft.to/lastmile_qr_scan"}, "type": "electric_scooter", "fusion_lon": 0.0}, {"is_reserved": 0, "is_disabled": 0, "fusion_lat": 0.0, "name": "02631ec3368a3c1e52b1c1ce13ae534d", "lat": 38.91707733333333, "lon": -77.031783, "bike_id": "02631ec3368a3c1e52b1c1ce13ae534d", "rental_uris": {"ios": "https://dc.lft.to/lastmile_qr_scan", "android": "https://dc.lft.to/lastmile_qr_scan"}, "type": "electric_scooter", "fusion_lon": 0.0}, {"is_reserved": 0, "is_disabled": 0, "fusion_lat": 0.0, "name": "6d3c94c57cb539839c8729e3967d88e5", "lat": 38.90265683333333, "lon": -77.03212, "bike_id": "6d3c94c57cb539839c8729e3967d88e5", "rental_uris": {"ios": "https://dc.lft.to/lastmile_qr_scan", "android": "https://dc.lft.to/lastmile_qr_scan"}, "type": "electric_scooter", "fusion_lon": 0.0}, {"is_reserved": 0, "is_disabled": 0, "fusion_lat": 0.0, "name": "bcce9808cf7219ad93ab67fbe1d16003", "lat": 38.905704, "lon": -77.04193016666666, "bike_id": "bcce9808cf7219ad93ab67fbe1d16003", "rental_uris": {"ios": "https://dc.lft.to/lastmile_qr_scan", "android": "https://dc.lft.to/lastmile_qr_scan"}, "type": "electric_scooter", "fusion_lon": 0.0}, {"is_reserved": 0, "is_disabled": 0, "fusion_lat": 0.0, "name": "4663091637c44f34c29171abbd378623", "lat": 38.9036065, "lon": -77.027104, "bike_id": "4663091637c44f34c29171abbd378623", "rental_uris": {"ios": "https://dc.lft.to/lastmile_qr_scan", "android": "https://dc.lft.to/lastmile_qr_scan"}, "type": "electric_scooter", "fusion_lon": 0.0}, {"is_reserved": 0, "is_disabled": 0, "fusion_lat": 0.0, "name": "5abb0af92b9ed260433abd1a9fff5e02", "lat": 38.874331833333336, "lon": -77.00044783333334, "bike_id": "5abb0af92b9ed260433abd1a9fff5e02", "rental_uris": {"ios": "https://dc.lft.to/lastmile_qr_scan", "android": "https://dc.lft.to/lastmile_qr_scan"}, "type": "electric_scooter", "fusion_lon": 0.0}, {"is_reserved": 0, "is_disabled": 0, "fusion_lat": 0.0, "name": "a334a3adec6ae882173b16c1dca6b389", "lat": 38.91554333333333, "lon": -77.029885, "bike_id": "a334a3adec6ae882173b16c1dca6b389", "rental_uris": {"ios": "https://dc.lft.to/lastmile_qr_scan", "android": "https://dc.lft.to/lastmile_qr_scan"}, "type": "electric_scooter", "fusion_lon": 0.0}, {"is_reserved": 0, "is_disabled": 0, "fusion_lat": 0.0, "name": "83213734cf1cc49dd1466e75b3b29c6e", "lat": 38.876268833333334, "lon": -77.00221383333333, "bike_id": "83213734cf1cc49dd1466e75b3b29c6e", "rental_uris": {"ios": "https://dc.lft.to/lastmile_qr_scan", "android": "https://dc.lft.to/lastmile_qr_scan"}, "type": "electric_scooter", "fusion_lon": 0.0}, {"is_reserved": 0, "is_disabled": 0, "fusion_lat": 0.0, "name": "a2c6b68f8498687a99356639ebf2771d", "lat": 38.90517366666667, "lon": -77.062959, "bike_id": "a2c6b68f8498687a99356639ebf2771d", "rental_uris": {"ios": "https://dc.lft.to/lastmile_qr_scan", "android": "https://dc.lft.to/lastmile_qr_scan"}, "type": "electric_scooter", "fusion_lon": 0.0}, {"is_reserved": 0, "is_disabled": 0, "fusion_lat": 0.0, "name": "4ced559a436ff051496e4d096c6e97da", "lat": 38.90310366666667, "lon": -77.0397975, "bike_id": "4ced559a436ff051496e4d096c6e97da", "rental_uris": {"ios": "https://dc.lft.to/lastmile_qr_scan", "android": "https://dc.lft.to/lastmile_qr_scan"}, "type": "electric_scooter", "fusion_lon": 0.0}, {"is_reserved": 0, "is_disabled": 0, "fusion_lat": 0.0, "name": "8de51b346208758ac543cff6b7d23a3c", "lat": 38.912837333333336, "lon": -77.06794216666667, "bike_id": "8de51b346208758ac543cff6b7d23a3c", "rental_uris": {"ios": "https://dc.lft.to/lastmile_qr_scan", "android": "https://dc.lft.to/lastmile_qr_scan"}, "type": "electric_scooter", "fusion_lon": 0.0}, {"is_reserved": 0, "is_disabled": 0, "fusion_lat": 0.0, "name": "6af9e877b6b481aaf4a1351d993a6b73", "lat": 38.91772183333333, "lon": -77.02376983333333, "bike_id": "6af9e877b6b481aaf4a1351d993a6b73", "rental_uris": {"ios": "https://dc.lft.to/lastmile_qr_scan", "android": "https://dc.lft.to/lastmile_qr_scan"}, "type": "electric_scooter", "fusion_lon": 0.0}, {"is_reserved": 0, "is_disabled": 0, "fusion_lat": 0.0, "name": "04ac0e1cce918e2b5d733b168b72453a", "lat": 38.8876935, "lon": -76.97736016666667, "bike_id": "04ac0e1cce918e2b5d733b168b72453a", "rental_uris": {"ios": "https://dc.lft.to/lastmile_qr_scan", "android": "https://dc.lft.to/lastmile_qr_scan"}, "type": "electric_scooter", "fusion_lon": 0.0}, {"is_reserved": 0, "is_disabled": 0, "fusion_lat": 0.0, "name": "5318a4181f2ac578a865daf6c7540f56", "lat": 38.92432816666667, "lon": -77.019531, "bike_id": "5318a4181f2ac578a865daf6c7540f56", "rental_uris": {"ios": "https://dc.lft.to/lastmile_qr_scan", "android": "https://dc.lft.to/lastmile_qr_scan"}, "type": "electric_scooter", "fusion_lon": 0.0}, {"is_reserved": 0, "is_disabled": 0, "fusion_lat": 0.0, "name": "ae2ad896bb605e5e02aa0d44aaf586c7", "lat": 38.903589833333335, "lon": -77.040048, "bike_id": "ae2ad896bb605e5e02aa0d44aaf586c7", "rental_uris": {"ios": "https://dc.lft.to/lastmile_qr_scan", "android": "https://dc.lft.to/lastmile_qr_scan"}, "type": "electric_scooter", "fusion_lon": 0.0}, {"is_reserved": 0, "is_disabled": 0, "fusion_lat": 0.0, "name": "5c3789fa5f3c8690c6be0f8f84264969", "lat": 38.901717166666664, "lon": -77.02298833333333, "bike_id": "5c3789fa5f3c8690c6be0f8f84264969", "rental_uris": {"ios": "https://dc.lft.to/lastmile_qr_scan", "android": "https://dc.lft.to/lastmile_qr_scan"}, "type": "electric_scooter", "fusion_lon": 0.0}, {"is_reserved": 0, "is_disabled": 0, "fusion_lat": 0.0, "name": "f90318d07d3d457715bf9093ba97230d", "lat": 38.91284133333333, "lon": -77.047604, "bike_id": "f90318d07d3d457715bf9093ba97230d", "rental_uris": {"ios": "https://dc.lft.to/lastmile_qr_scan", "android": "https://dc.lft.to/lastmile_qr_scan"}, "type": "electric_scooter", "fusion_lon": 0.0}, {"is_reserved": 0, "is_disabled": 0, "fusion_lat": 0.0, "name": "3e128a210ae47b2538ecca8b99aec337", "lat": 38.88769933333333, "lon": -76.97734533333333, "bike_id": "3e128a210ae47b2538ecca8b99aec337", "rental_uris": {"ios": "https://dc.lft.to/lastmile_qr_scan", "android": "https://dc.lft.to/lastmile_qr_scan"}, "type": "electric_scooter", "fusion_lon": 0.0}, {"is_reserved": 0, "is_disabled": 0, "fusion_lat": 0.0, "name": "750415d1c64cd891f7cba844275de2e4", "lat": 38.918598333333335, "lon": -77.04039916666666, "bike_id": "750415d1c64cd891f7cba844275de2e4", "rental_uris": {"ios": "https://dc.lft.to/lastmile_qr_scan", "android": "https://dc.lft.to/lastmile_qr_scan"}, "type": "electric_scooter", "fusion_lon": 0.0}, {"is_reserved": 0, "is_disabled": 0, "fusion_lat": 0.0, "name": "10b134b4ad4bdc679e0647da1ddedd7b", "lat": 38.89938433333333, "lon": -76.9377165, "bike_id": "10b134b4ad4bdc679e0647da1ddedd7b", "rental_uris": {"ios": "https://dc.lft.to/lastmile_qr_scan", "android": "https://dc.lft.to/lastmile_qr_scan"}, "type": "electric_scooter", "fusion_lon": 0.0}, {"is_reserved": 0, "is_disabled": 0, "fusion_lat": 0.0, "name": "87c1e545b9c36f6b9ee9a3c2de705470", "lat": 38.936142833333335, "lon": -77.0248385, "bike_id": "87c1e545b9c36f6b9ee9a3c2de705470", "rental_uris": {"ios": "https://dc.lft.to/lastmile_qr_scan", "android": "https://dc.lft.to/lastmile_qr_scan"}, "type": "electric_scooter", "fusion_lon": 0.0}, {"is_reserved": 0, "is_disabled": 0, "fusion_lat": 0.0, "name": "690f4e0fe9b69e6f3618988b8a074573", "lat": 38.910848, "lon": -77.02198533333333, "bike_id": "690f4e0fe9b69e6f3618988b8a074573", "rental_uris": {"ios": "https://dc.lft.to/lastmile_qr_scan", "android": "https://dc.lft.to/lastmile_qr_scan"}, "type": "electric_bike", "fusion_lon": 0.0}, {"is_reserved": 0, "is_disabled": 0, "fusion_lat": 0.0, "name": "da3812912ef21d72b24b0ae50f1d3341", "lat": 38.9222585, "lon": -77.02126383333334, "bike_id": "da3812912ef21d72b24b0ae50f1d3341", "rental_uris": {"ios": "https://dc.lft.to/lastmile_qr_scan", "android": "https://dc.lft.to/lastmile_qr_scan"}, "type": "electric_scooter", "fusion_lon": 0.0}, {"is_reserved": 0, "is_disabled": 0, "fusion_lat": 0.0, "name": "6da4d044902401b93c64ef8fe0930fb6", "lat": 38.9103295, "lon": -77.07395016666666, "bike_id": "6da4d044902401b93c64ef8fe0930fb6", "rental_uris": {"ios": "https://dc.lft.to/lastmile_qr_scan", "android": "https://dc.lft.to/lastmile_qr_scan"}, "type": "electric_scooter", "fusion_lon": 0.0}, {"is_reserved": 0, "is_disabled": 0, "fusion_lat": 0.0, "name": "bb2ee6e901a760b458b3830d9b546f88", "lat": 38.9224415, "lon": -77.02823, "bike_id": "bb2ee6e901a760b458b3830d9b546f88", "rental_uris": {"ios": "https://dc.lft.to/lastmile_qr_scan", "android": "https://dc.lft.to/lastmile_qr_scan"}, "type": "electric_scooter", "fusion_lon": 0.0}, {"is_reserved": 0, "is_disabled": 0, "fusion_lat": 0.0, "name": "11097fc8309bc7212291a258cf63432d", "lat": 38.939108, "lon": -77.02494216666666, "bike_id": "11097fc8309bc7212291a258cf63432d", "rental_uris": {"ios": "https://dc.lft.to/lastmile_qr_scan", "android": "https://dc.lft.to/lastmile_qr_scan"}, "type": "electric_scooter", "fusion_lon": 0.0}, {"is_reserved": 0, "is_disabled": 0, "fusion_lat": 0.0, "name": "1937ae9a4a8c8d1ef93fd08d7081958e", "lat": 38.91616233333333, "lon": -77.028193, "bike_id": "1937ae9a4a8c8d1ef93fd08d7081958e", "rental_uris": {"ios": "https://dc.lft.to/lastmile_qr_scan", "android": "https://dc.lft.to/lastmile_qr_scan"}, "type": "electric_scooter", "fusion_lon": 0.0}, {"is_reserved": 0, "is_disabled": 0, "fusion_lat": 0.0, "name": "f66db83124d7178a1c9d085ac752b4e4", "lat": 38.90408516666667, "lon": -76.97333616666667, "bike_id": "f66db83124d7178a1c9d085ac752b4e4", "rental_uris": {"ios": "https://dc.lft.to/lastmile_qr_scan", "android": "https://dc.lft.to/lastmile_qr_scan"}, "type": "electric_scooter", "fusion_lon": 0.0}, {"is_reserved": 0, "is_disabled": 0, "fusion_lat": 0.0, "name": "dd93a540807e9d3e35ec43e93ea6cfc4", "lat": 38.92739616666667, "lon": -76.99558316666666, "bike_id": "dd93a540807e9d3e35ec43e93ea6cfc4", "rental_uris": {"ios": "https://dc.lft.to/lastmile_qr_scan", "android": "https://dc.lft.to/lastmile_qr_scan"}, "type": "electric_scooter", "fusion_lon": 0.0}, {"is_reserved": 0, "is_disabled": 0, "fusion_lat": 0.0, "name": "e34d9a1641d28efc649ad2ed0ace80c5", "lat": 38.91725116666667, "lon": -77.0410205, "bike_id": "e34d9a1641d28efc649ad2ed0ace80c5", "rental_uris": {"ios": "https://dc.lft.to/lastmile_qr_scan", "android": "https://dc.lft.to/lastmile_qr_scan"}, "type": "electric_scooter", "fusion_lon": 0.0}, {"is_reserved": 0, "is_disabled": 0, "fusion_lat": 0.0, "name": "3f665740b646c904d63097d733a6a671", "lat": 38.90572816666667, "lon": -77.04187266666666, "bike_id": "3f665740b646c904d63097d733a6a671", "rental_uris": {"ios": "https://dc.lft.to/lastmile_qr_scan", "android": "https://dc.lft.to/lastmile_qr_scan"}, "type": "electric_scooter", "fusion_lon": 0.0}, {"is_reserved": 0, "is_disabled": 0, "fusion_lat": 0.0, "name": "6e3b56b7b20818ab8ec72c0144b4b9aa", "lat": 38.92394566666667, "lon": -77.03401116666667, "bike_id": "6e3b56b7b20818ab8ec72c0144b4b9aa", "rental_uris": {"ios": "https://dc.lft.to/lastmile_qr_scan", "android": "https://dc.lft.to/lastmile_qr_scan"}, "type": "electric_scooter", "fusion_lon": 0.0}, {"is_reserved": 0, "is_disabled": 0, "fusion_lat": 0.0, "name": "58f4d8b99b84480a736ea29419b70a3f", "lat": 38.942723, "lon": -77.02934816666667, "bike_id": "58f4d8b99b84480a736ea29419b70a3f", "rental_uris": {"ios": "https://dc.lft.to/lastmile_qr_scan", "android": "https://dc.lft.to/lastmile_qr_scan"}, "type": "electric_scooter", "fusion_lon": 0.0}, {"is_reserved": 0, "is_disabled": 0, "fusion_lat": 0.0, "name": "d4c15c6ab0b2ebecf6fecc9ecb99f6ea", "lat": 38.957542, "lon": -77.02211183333333, "bike_id": "d4c15c6ab0b2ebecf6fecc9ecb99f6ea", "rental_uris": {"ios": "https://dc.lft.to/lastmile_qr_scan", "android": "https://dc.lft.to/lastmile_qr_scan"}, "type": "electric_scooter", "fusion_lon": 0.0}, {"is_reserved": 0, "is_disabled": 0, "fusion_lat": 0.0, "name": "1a1572cff960d7688f3d413c00f39de5", "lat": 38.9046555, "lon": -77.0531745, "bike_id": "1a1572cff960d7688f3d413c00f39de5", "rental_uris": {"ios": "https://dc.lft.to/lastmile_qr_scan", "android": "https://dc.lft.to/lastmile_qr_scan"}, "type": "electric_scooter", "fusion_lon": 0.0}, {"is_reserved": 0, "is_disabled": 0, "fusion_lat": 0.0, "name": "2d8939cb9fb15f686bdc385c0caded5d", "lat": 38.8962285, "lon": -76.9074685, "bike_id": "2d8939cb9fb15f686bdc385c0caded5d", "rental_uris": {"ios": "https://dc.lft.to/lastmile_qr_scan", "android": "https://dc.lft.to/lastmile_qr_scan"}, "type": "electric_bike", "fusion_lon": 0.0}, {"is_reserved": 0, "is_disabled": 0, "fusion_lat": 0.0, "name": "8bec1985eaddd70ecd3f9ed1c86b73f8", "lat": 38.90172533333333, "lon": -77.02237383333333, "bike_id": "8bec1985eaddd70ecd3f9ed1c86b73f8", "rental_uris": {"ios": "https://dc.lft.to/lastmile_qr_scan", "android": "https://dc.lft.to/lastmile_qr_scan"}, "type": "electric_scooter", "fusion_lon": 0.0}, {"is_reserved": 0, "is_disabled": 0, "fusion_lat": 0.0, "name": "cdd63bf9d8acd43312c6d6c7b6782672", "lat": 38.900913, "lon": -77.02187616666667, "bike_id": "cdd63bf9d8acd43312c6d6c7b6782672", "rental_uris": {"ios": "https://dc.lft.to/lastmile_qr_scan", "android": "https://dc.lft.to/lastmile_qr_scan"}, "type": "electric_scooter", "fusion_lon": 0.0}, {"is_reserved": 0, "is_disabled": 0, "fusion_lat": 0.0, "name": "07f5a09bacb8cd73384d0a3e8556d123", "lat": 38.88516966666667, "lon": -76.92441633333334, "bike_id": "07f5a09bacb8cd73384d0a3e8556d123", "rental_uris": {"ios": "https://dc.lft.to/lastmile_qr_scan", "android": "https://dc.lft.to/lastmile_qr_scan"}, "type": "electric_scooter", "fusion_lon": 0.0}, {"is_reserved": 0, "is_disabled": 0, "fusion_lat": 0.0, "name": "4188bbd6446e6e7d42b8e8c5b9c6a98c", "lat": 38.8853445, "lon": -76.98060283333334, "bike_id": "4188bbd6446e6e7d42b8e8c5b9c6a98c", "rental_uris": {"ios": "https://dc.lft.to/lastmile_qr_scan", "android": "https://dc.lft.to/lastmile_qr_scan"}, "type": "electric_scooter", "fusion_lon": 0.0}, {"is_reserved": 0, "is_disabled": 0, "fusion_lat": 0.0, "name": "605544c7852cc9c165ad379f7c230e6a", "lat": 38.902546666666666, "lon": -76.977031, "bike_id": "605544c7852cc9c165ad379f7c230e6a", "rental_uris": {"ios": "https://dc.lft.to/lastmile_qr_scan", "android": "https://dc.lft.to/lastmile_qr_scan"}, "type": "electric_scooter", "fusion_lon": 0.0}, {"is_reserved": 0, "is_disabled": 0, "fusion_lat": 0.0, "name": "df51e247a37adae1c7b5a6498f8fcdd4", "lat": 38.93540183333333, "lon": -77.03480466666667, "bike_id": "df51e247a37adae1c7b5a6498f8fcdd4", "rental_uris": {"ios": "https://dc.lft.to/lastmile_qr_scan", "android": "https://dc.lft.to/lastmile_qr_scan"}, "type": "electric_scooter", "fusion_lon": 0.0}, {"is_reserved": 0, "is_disabled": 0, "fusion_lat": 0.0, "name": "da88d6818e14639d0a1498d2214053a5", "lat": 38.90955816666666, "lon": -77.049444, "bike_id": "da88d6818e14639d0a1498d2214053a5", "rental_uris": {"ios": "https://dc.lft.to/lastmile_qr_scan", "android": "https://dc.lft.to/lastmile_qr_scan"}, "type": "electric_scooter", "fusion_lon": 0.0}, {"is_reserved": 0, "is_disabled": 0, "fusion_lat": 0.0, "name": "ed9e03aff64960331c9494de49cd9c48", "lat": 38.92413083333334, "lon": -77.0201705, "bike_id": "ed9e03aff64960331c9494de49cd9c48", "rental_uris": {"ios": "https://dc.lft.to/lastmile_qr_scan", "android": "https://dc.lft.to/lastmile_qr_scan"}, "type": "electric_scooter", "fusion_lon": 0.0}, {"is_reserved": 0, "is_disabled": 0, "fusion_lat": 0.0, "name": "297f0c4b54d8760563fe67e39ea734f3", "lat": 38.91108766666667, "lon": -77.03369416666666, "bike_id": "297f0c4b54d8760563fe67e39ea734f3", "rental_uris": {"ios": "https://dc.lft.to/lastmile_qr_scan", "android": "https://dc.lft.to/lastmile_qr_scan"}, "type": "electric_scooter", "fusion_lon": 0.0}, {"is_reserved": 0, "is_disabled": 0, "fusion_lat": 0.0, "name": "c641923411e9c3ae49b16bb27e5dbbec", "lat": 38.88879433333334, "lon": -77.00174933333334, "bike_id": "c641923411e9c3ae49b16bb27e5dbbec", "rental_uris": {"ios": "https://dc.lft.to/lastmile_qr_scan", "android": "https://dc.lft.to/lastmile_qr_scan"}, "type": "electric_scooter", "fusion_lon": 0.0}, {"is_reserved": 0, "is_disabled": 0, "fusion_lat": 0.0, "name": "03d8c708411f028de76e5020b6d0ccd2", "lat": 38.91981966666667, "lon": -77.0236635, "bike_id": "03d8c708411f028de76e5020b6d0ccd2", "rental_uris": {"ios": "https://dc.lft.to/lastmile_qr_scan", "android": "https://dc.lft.to/lastmile_qr_scan"}, "type": "electric_scooter", "fusion_lon": 0.0}, {"is_reserved": 0, "is_disabled": 0, "fusion_lat": 0.0, "name": "6c2cb7f78cd0149e7eebf5f58063e8bb", "lat": 38.90558866666667, "lon": -77.04520383333333, "bike_id": "6c2cb7f78cd0149e7eebf5f58063e8bb", "rental_uris": {"ios": "https://dc.lft.to/lastmile_qr_scan", "android": "https://dc.lft.to/lastmile_qr_scan"}, "type": "electric_scooter", "fusion_lon": 0.0}, {"is_reserved": 0, "is_disabled": 0, "fusion_lat": 0.0, "name": "4db660a76250280becf3b6927a76cbf8", "lat": 38.90416183333333, "lon": -77.03432516666666, "bike_id": "4db660a76250280becf3b6927a76cbf8", "rental_uris": {"ios": "https://dc.lft.to/lastmile_qr_scan", "android": "https://dc.lft.to/lastmile_qr_scan"}, "type": "electric_scooter", "fusion_lon": 0.0}, {"is_reserved": 0, "is_disabled": 0, "fusion_lat": 0.0, "name": "70006a52406ffde7f75e5b5184f828c2", "lat": 38.9073595, "lon": -77.02344516666666, "bike_id": "70006a52406ffde7f75e5b5184f828c2", "rental_uris": {"ios": "https://dc.lft.to/lastmile_qr_scan", "android": "https://dc.lft.to/lastmile_qr_scan"}, "type": "electric_scooter", "fusion_lon": 0.0}, {"is_reserved": 0, "is_disabled": 0, "fusion_lat": 0.0, "name": "b2bda6c8b905f2c55054c697b7ec4e47", "lat": 38.900663, "lon": -77.05061283333333, "bike_id": "b2bda6c8b905f2c55054c697b7ec4e47", "rental_uris": {"ios": "https://dc.lft.to/lastmile_qr_scan", "android": "https://dc.lft.to/lastmile_qr_scan"}, "type": "electric_scooter", "fusion_lon": 0.0}, {"is_reserved": 0, "is_disabled": 0, "fusion_lat": 0.0, "name": "b94d113c5c14630f72e83ec53da320a9", "lat": 38.91699066666666, "lon": -77.03133733333334, "bike_id": "b94d113c5c14630f72e83ec53da320a9", "rental_uris": {"ios": "https://dc.lft.to/lastmile_qr_scan", "android": "https://dc.lft.to/lastmile_qr_scan"}, "type": "electric_scooter", "fusion_lon": 0.0}, {"is_reserved": 0, "is_disabled": 0, "fusion_lat": 0.0, "name": "b9427ef9d44b8b900aef707e195db374", "lat": 38.9047705, "lon": -77.0486265, "bike_id": "b9427ef9d44b8b900aef707e195db374", "rental_uris": {"ios": "https://dc.lft.to/lastmile_qr_scan", "android": "https://dc.lft.to/lastmile_qr_scan"}, "type": "electric_scooter", "fusion_lon": 0.0}, {"is_reserved": 0, "is_disabled": 0, "fusion_lat": 0.0, "name": "63a5aaa17de603ae07a36a73d0f90f42", "lat": 38.919503666666664, "lon": -77.047931, "bike_id": "63a5aaa17de603ae07a36a73d0f90f42", "rental_uris": {"ios": "https://dc.lft.to/lastmile_qr_scan", "android": "https://dc.lft.to/lastmile_qr_scan"}, "type": "electric_scooter", "fusion_lon": 0.0}, {"is_reserved": 0, "is_disabled": 0, "fusion_lat": 0.0, "name": "7eb7493e73e8d661e4c1af9deae2f88e", "lat": 38.92426183333333, "lon": -77.04044416666666, "bike_id": "7eb7493e73e8d661e4c1af9deae2f88e", "rental_uris": {"ios": "https://dc.lft.to/lastmile_qr_scan", "android": "https://dc.lft.to/lastmile_qr_scan"}, "type": "electric_scooter", "fusion_lon": 0.0}, {"is_reserved": 0, "is_disabled": 0, "fusion_lat": 0.0, "name": "3f22d5824839ad2d033209e9305b80fd", "lat": 38.91701333333334, "lon": -77.0289535, "bike_id": "3f22d5824839ad2d033209e9305b80fd", "rental_uris": {"ios": "https://dc.lft.to/lastmile_qr_scan", "android": "https://dc.lft.to/lastmile_qr_scan"}, "type": "electric_scooter", "fusion_lon": 0.0}, {"is_reserved": 0, "is_disabled": 0, "fusion_lat": 0.0, "name": "0fdbb1fb966853f0c3b5b3091121ca5e", "lat": 38.90954933333333, "lon": -77.01276716666666, "bike_id": "0fdbb1fb966853f0c3b5b3091121ca5e", "rental_uris": {"ios": "https://dc.lft.to/lastmile_qr_scan", "android": "https://dc.lft.to/lastmile_qr_scan"}, "type": "electric_scooter", "fusion_lon": 0.0}, {"is_reserved": 0, "is_disabled": 0, "fusion_lat": 0.0, "name": "340331c2e486166068703610919c30da", "lat": 38.907516, "lon": -77.00092983333333, "bike_id": "340331c2e486166068703610919c30da", "rental_uris": {"ios": "https://dc.lft.to/lastmile_qr_scan", "android": "https://dc.lft.to/lastmile_qr_scan"}, "type": "electric_scooter", "fusion_lon": 0.0}, {"is_reserved": 0, "is_disabled": 0, "fusion_lat": 0.0, "name": "43f7882722c225e424ba647b2c6ed18e", "lat": 38.899067333333335, "lon": -77.02181983333334, "bike_id": "43f7882722c225e424ba647b2c6ed18e", "rental_uris": {"ios": "https://dc.lft.to/lastmile_qr_scan", "android": "https://dc.lft.to/lastmile_qr_scan"}, "type": "electric_scooter", "fusion_lon": 0.0}, {"is_reserved": 0, "is_disabled": 0, "fusion_lat": 0.0, "name": "616ac3e887ce45ce22b25418c6e2db87", "lat": 38.907438666666664, "lon": -76.99922, "bike_id": "616ac3e887ce45ce22b25418c6e2db87", "rental_uris": {"ios": "https://dc.lft.to/lastmile_qr_scan", "android": "https://dc.lft.to/lastmile_qr_scan"}, "type": "electric_scooter", "fusion_lon": 0.0}, {"is_reserved": 0, "is_disabled": 0, "fusion_lat": 0.0, "name": "7b383bf893ae3057557bff59073c1005", "lat": 38.90565083333333, "lon": -77.01862433333334, "bike_id": "7b383bf893ae3057557bff59073c1005", "rental_uris": {"ios": "https://dc.lft.to/lastmile_qr_scan", "android": "https://dc.lft.to/lastmile_qr_scan"}, "type": "electric_scooter", "fusion_lon": 0.0}, {"is_reserved": 0, "is_disabled": 0, "fusion_lat": 0.0, "name": "640eb7401a403311f968aff1b1ffcdc7", "lat": 38.899751, "lon": -77.04823583333334, "bike_id": "640eb7401a403311f968aff1b1ffcdc7", "rental_uris": {"ios": "https://dc.lft.to/lastmile_qr_scan", "android": "https://dc.lft.to/lastmile_qr_scan"}, "type": "electric_scooter", "fusion_lon": 0.0}, {"is_reserved": 0, "is_disabled": 0, "fusion_lat": 0.0, "name": "0d9f8552f0a9eb8762dcab54407356c7", "lat": 38.91942233333333, "lon": -77.08134883333334, "bike_id": "0d9f8552f0a9eb8762dcab54407356c7", "rental_uris": {"ios": "https://dc.lft.to/lastmile_qr_scan", "android": "https://dc.lft.to/lastmile_qr_scan"}, "type": "electric_scooter", "fusion_lon": 0.0}, {"is_reserved": 0, "is_disabled": 0, "fusion_lat": 0.0, "name": "e4cb739ccda593e8620ff70898818ecb", "lat": 38.89314366666667, "lon": -77.01967016666667, "bike_id": "e4cb739ccda593e8620ff70898818ecb", "rental_uris": {"ios": "https://dc.lft.to/lastmile_qr_scan", "android": "https://dc.lft.to/lastmile_qr_scan"}, "type": "electric_scooter", "fusion_lon": 0.0}, {"is_reserved": 0, "is_disabled": 0, "fusion_lat": 0.0, "name": "987911cbc74614f30607960daae21d04", "lat": 38.92972433333333, "lon": -77.02798483333333, "bike_id": "987911cbc74614f30607960daae21d04", "rental_uris": {"ios": "https://dc.lft.to/lastmile_qr_scan", "android": "https://dc.lft.to/lastmile_qr_scan"}, "type": "electric_scooter", "fusion_lon": 0.0}, {"is_reserved": 0, "is_disabled": 0, "fusion_lat": 0.0, "name": "e590f607cc07808350e29efaaad62337", "lat": 38.922403, "lon": -77.02816283333334, "bike_id": "e590f607cc07808350e29efaaad62337", "rental_uris": {"ios": "https://dc.lft.to/lastmile_qr_scan", "android": "https://dc.lft.to/lastmile_qr_scan"}, "type": "electric_scooter", "fusion_lon": 0.0}, {"is_reserved": 0, "is_disabled": 0, "fusion_lat": 0.0, "name": "5f1b6621197bae3b45db57b252db33bc", "lat": 38.916040833333334, "lon": -77.012121, "bike_id": "5f1b6621197bae3b45db57b252db33bc", "rental_uris": {"ios": "https://dc.lft.to/lastmile_qr_scan", "android": "https://dc.lft.to/lastmile_qr_scan"}, "type": "electric_scooter", "fusion_lon": 0.0}, {"is_reserved": 0, "is_disabled": 0, "fusion_lat": 0.0, "name": "cf18bcae4943f711c6d9ce12e3e8374a", "lat": 38.907215666666666, "lon": -77.0486355, "bike_id": "cf18bcae4943f711c6d9ce12e3e8374a", "rental_uris": {"ios": "https://dc.lft.to/lastmile_qr_scan", "android": "https://dc.lft.to/lastmile_qr_scan"}, "type": "electric_scooter", "fusion_lon": 0.0}, {"is_reserved": 0, "is_disabled": 0, "fusion_lat": 0.0, "name": "96cd3c3aaef3034cf8712bf245f3338b", "lat": 38.86818516666666, "lon": -76.9802655, "bike_id": "96cd3c3aaef3034cf8712bf245f3338b", "rental_uris": {"ios": "https://dc.lft.to/lastmile_qr_scan", "android": "https://dc.lft.to/lastmile_qr_scan"}, "type": "electric_bike", "fusion_lon": 0.0}, {"is_reserved": 0, "is_disabled": 0, "fusion_lat": 0.0, "name": "b331075c59f82b1215d4434a53acb309", "lat": 38.902215166666664, "lon": -77.02318783333334, "bike_id": "b331075c59f82b1215d4434a53acb309", "rental_uris": {"ios": "https://dc.lft.to/lastmile_qr_scan", "android": "https://dc.lft.to/lastmile_qr_scan"}, "type": "electric_scooter", "fusion_lon": 0.0}, {"is_reserved": 0, "is_disabled": 0, "fusion_lat": 0.0, "name": "f6b847b8466c3b3a8aa9544cf7ae6bc7", "lat": 38.886735, "lon": -77.12815766666667, "bike_id": "f6b847b8466c3b3a8aa9544cf7ae6bc7", "rental_uris": {"ios": "https://dc.lft.to/lastmile_qr_scan", "android": "https://dc.lft.to/lastmile_qr_scan"}, "type": "electric_bike", "fusion_lon": 0.0}, {"is_reserved": 0, "is_disabled": 0, "fusion_lat": 0.0, "name": "cb8b5dbf13a9f95c4e82fc6466b00314", "lat": 38.920619, "lon": -77.0419345, "bike_id": "cb8b5dbf13a9f95c4e82fc6466b00314", "rental_uris": {"ios": "https://dc.lft.to/lastmile_qr_scan", "android": "https://dc.lft.to/lastmile_qr_scan"}, "type": "electric_scooter", "fusion_lon": 0.0}, {"is_reserved": 0, "is_disabled": 0, "fusion_lat": 0.0, "name": "07446f3f164854f882805bad880254f0", "lat": 38.9236025, "lon": -77.05225916666667, "bike_id": "07446f3f164854f882805bad880254f0", "rental_uris": {"ios": "https://dc.lft.to/lastmile_qr_scan", "android": "https://dc.lft.to/lastmile_qr_scan"}, "type": "electric_scooter", "fusion_lon": 0.0}, {"is_reserved": 0, "is_disabled": 0, "fusion_lat": 0.0, "name": "71baa5ab0a9e5d035d15d32f292949f7", "lat": 38.908733166666664, "lon": -77.04052083333333, "bike_id": "71baa5ab0a9e5d035d15d32f292949f7", "rental_uris": {"ios": "https://dc.lft.to/lastmile_qr_scan", "android": "https://dc.lft.to/lastmile_qr_scan"}, "type": "electric_scooter", "fusion_lon": 0.0}, {"is_reserved": 0, "is_disabled": 0, "fusion_lat": 0.0, "name": "3c89fef0846196d455aea9582416bb1e", "lat": 38.897343, "lon": -77.009293, "bike_id": "3c89fef0846196d455aea9582416bb1e", "rental_uris": {"ios": "https://dc.lft.to/lastmile_qr_scan", "android": "https://dc.lft.to/lastmile_qr_scan"}, "type": "electric_scooter", "fusion_lon": 0.0}, {"is_reserved": 0, "is_disabled": 0, "fusion_lat": 0.0, "name": "9ff47525079e9975c54ca4074fc0315b", "lat": 38.93401, "lon": -77.02215616666666, "bike_id": "9ff47525079e9975c54ca4074fc0315b", "rental_uris": {"ios": "https://dc.lft.to/lastmile_qr_scan", "android": "https://dc.lft.to/lastmile_qr_scan"}, "type": "electric_scooter", "fusion_lon": 0.0}, {"is_reserved": 0, "is_disabled": 0, "fusion_lat": 0.0, "name": "cd8e653777dffc36883990b632693f32", "lat": 38.89960116666666, "lon": -77.04522516666667, "bike_id": "cd8e653777dffc36883990b632693f32", "rental_uris": {"ios": "https://dc.lft.to/lastmile_qr_scan", "android": "https://dc.lft.to/lastmile_qr_scan"}, "type": "electric_scooter", "fusion_lon": 0.0}, {"is_reserved": 0, "is_disabled": 0, "fusion_lat": 0.0, "name": "c1bba8a9200211ca511d1c53178435bf", "lat": 38.89669966666666, "lon": -76.93211683333334, "bike_id": "c1bba8a9200211ca511d1c53178435bf", "rental_uris": {"ios": "https://dc.lft.to/lastmile_qr_scan", "android": "https://dc.lft.to/lastmile_qr_scan"}, "type": "electric_scooter", "fusion_lon": 0.0}, {"is_reserved": 0, "is_disabled": 0, "fusion_lat": 0.0, "name": "b723a1502695ce0658be320d16b27de4", "lat": 38.90565566666667, "lon": -77.00783116666666, "bike_id": "b723a1502695ce0658be320d16b27de4", "rental_uris": {"ios": "https://dc.lft.to/lastmile_qr_scan", "android": "https://dc.lft.to/lastmile_qr_scan"}, "type": "electric_scooter", "fusion_lon": 0.0}, {"is_reserved": 0, "is_disabled": 0, "fusion_lat": 0.0, "name": "d506bedfcc614cb9267a05b261bcc57d", "lat": 38.95504833333333, "lon": -77.0699975, "bike_id": "d506bedfcc614cb9267a05b261bcc57d", "rental_uris": {"ios": "https://dc.lft.to/lastmile_qr_scan", "android": "https://dc.lft.to/lastmile_qr_scan"}, "type": "electric_scooter", "fusion_lon": 0.0}, {"is_reserved": 0, "is_disabled": 0, "fusion_lat": 0.0, "name": "1e4a2b8fff3c24c7829b7be9f7447fe9", "lat": 38.9195525, "lon": -77.04153983333333, "bike_id": "1e4a2b8fff3c24c7829b7be9f7447fe9", "rental_uris": {"ios": "https://dc.lft.to/lastmile_qr_scan", "android": "https://dc.lft.to/lastmile_qr_scan"}, "type": "electric_scooter", "fusion_lon": 0.0}, {"is_reserved": 0, "is_disabled": 0, "fusion_lat": 0.0, "name": "303b10251a711cbfbd7344a3b185468c", "lat": 38.911592166666665, "lon": -77.04486083333333, "bike_id": "303b10251a711cbfbd7344a3b185468c", "rental_uris": {"ios": "https://dc.lft.to/lastmile_qr_scan", "android": "https://dc.lft.to/lastmile_qr_scan"}, "type": "electric_scooter", "fusion_lon": 0.0}, {"is_reserved": 0, "is_disabled": 0, "fusion_lat": 0.0, "name": "c618f115615e6f3e780134969cfc8f09", "lat": 38.94450633333334, "lon": -77.02914816666667, "bike_id": "c618f115615e6f3e780134969cfc8f09", "rental_uris": {"ios": "https://dc.lft.to/lastmile_qr_scan", "android": "https://dc.lft.to/lastmile_qr_scan"}, "type": "electric_scooter", "fusion_lon": 0.0}, {"is_reserved": 0, "is_disabled": 0, "fusion_lat": 0.0, "name": "a4477fed0066546e67dd18e6b1741354", "lat": 38.91490666666667, "lon": -77.0228935, "bike_id": "a4477fed0066546e67dd18e6b1741354", "rental_uris": {"ios": "https://dc.lft.to/lastmile_qr_scan", "android": "https://dc.lft.to/lastmile_qr_scan"}, "type": "electric_scooter", "fusion_lon": 0.0}, {"is_reserved": 0, "is_disabled": 0, "fusion_lat": 0.0, "name": "5fb6d538cc78cb644f746c93b838de2f", "lat": 38.89725416666667, "lon": -77.00335766666667, "bike_id": "5fb6d538cc78cb644f746c93b838de2f", "rental_uris": {"ios": "https://dc.lft.to/lastmile_qr_scan", "android": "https://dc.lft.to/lastmile_qr_scan"}, "type": "electric_scooter", "fusion_lon": 0.0}, {"is_reserved": 0, "is_disabled": 0, "fusion_lat": 0.0, "name": "ace3661b3b3dc4e7669c3488b45f57c3", "lat": 38.876868333333334, "lon": -77.00741016666667, "bike_id": "ace3661b3b3dc4e7669c3488b45f57c3", "rental_uris": {"ios": "https://dc.lft.to/lastmile_qr_scan", "android": "https://dc.lft.to/lastmile_qr_scan"}, "type": "electric_scooter", "fusion_lon": 0.0}, {"is_reserved": 0, "is_disabled": 0, "fusion_lat": 0.0, "name": "f1a1aae525438f5009c59859a0279ba4", "lat": 38.93079616666667, "lon": -77.03805016666666, "bike_id": "f1a1aae525438f5009c59859a0279ba4", "rental_uris": {"ios": "https://dc.lft.to/lastmile_qr_scan", "android": "https://dc.lft.to/lastmile_qr_scan"}, "type": "electric_scooter", "fusion_lon": 0.0}, {"is_reserved": 0, "is_disabled": 0, "fusion_lat": 0.0, "name": "016f5cc3a9fc4ad304934a4f14f5277e", "lat": 38.871867333333334, "lon": -77.01227433333334, "bike_id": "016f5cc3a9fc4ad304934a4f14f5277e", "rental_uris": {"ios": "https://dc.lft.to/lastmile_qr_scan", "android": "https://dc.lft.to/lastmile_qr_scan"}, "type": "electric_scooter", "fusion_lon": 0.0}, {"is_reserved": 0, "is_disabled": 0, "fusion_lat": 0.0, "name": "02cf75a658a12c9123e0b9b0d8865fd1", "lat": 38.923400666666666, "lon": -76.9987145, "bike_id": "02cf75a658a12c9123e0b9b0d8865fd1", "rental_uris": {"ios": "https://dc.lft.to/lastmile_qr_scan", "android": "https://dc.lft.to/lastmile_qr_scan"}, "type": "electric_scooter", "fusion_lon": 0.0}, {"is_reserved": 0, "is_disabled": 0, "fusion_lat": 0.0, "name": "be5f41d87a16a77915ed068a15561d73", "lat": 38.876312666666664, "lon": -77.009572, "bike_id": "be5f41d87a16a77915ed068a15561d73", "rental_uris": {"ios": "https://dc.lft.to/lastmile_qr_scan", "android": "https://dc.lft.to/lastmile_qr_scan"}, "type": "electric_scooter", "fusion_lon": 0.0}, {"is_reserved": 0, "is_disabled": 0, "fusion_lat": 0.0, "name": "f21ff010ecc5410143ea22301ab2c25e", "lat": 38.924882333333336, "lon": -77.0575705, "bike_id": "f21ff010ecc5410143ea22301ab2c25e", "rental_uris": {"ios": "https://dc.lft.to/lastmile_qr_scan", "android": "https://dc.lft.to/lastmile_qr_scan"}, "type": "electric_scooter", "fusion_lon": 0.0}, {"is_reserved": 0, "is_disabled": 0, "fusion_lat": 0.0, "name": "35dc9b1de4aee0de13ace6b4ffbb212e", "lat": 38.88864566666667, "lon": -76.97905333333334, "bike_id": "35dc9b1de4aee0de13ace6b4ffbb212e", "rental_uris": {"ios": "https://dc.lft.to/lastmile_qr_scan", "android": "https://dc.lft.to/lastmile_qr_scan"}, "type": "electric_scooter", "fusion_lon": 0.0}, {"is_reserved": 0, "is_disabled": 0, "fusion_lat": 0.0, "name": "4f44f51406e36744d88a6fe4bb7fbb64", "lat": 38.906613166666666, "lon": -77.02206933333333, "bike_id": "4f44f51406e36744d88a6fe4bb7fbb64", "rental_uris": {"ios": "https://dc.lft.to/lastmile_qr_scan", "android": "https://dc.lft.to/lastmile_qr_scan"}, "type": "electric_scooter", "fusion_lon": 0.0}, {"is_reserved": 0, "is_disabled": 0, "fusion_lat": 0.0, "name": "f8580114cd60a362cbb923e1486a5b29", "lat": 38.8899105, "lon": -76.98815266666666, "bike_id": "f8580114cd60a362cbb923e1486a5b29", "rental_uris": {"ios": "https://dc.lft.to/lastmile_qr_scan", "android": "https://dc.lft.to/lastmile_qr_scan"}, "type": "electric_scooter", "fusion_lon": 0.0}, {"is_reserved": 0, "is_disabled": 0, "fusion_lat": 0.0, "name": "9aeabbaf88b0c4e46d289be2bd187989", "lat": 38.9523995, "lon": -77.096442, "bike_id": "9aeabbaf88b0c4e46d289be2bd187989", "rental_uris": {"ios": "https://dc.lft.to/lastmile_qr_scan", "android": "https://dc.lft.to/lastmile_qr_scan"}, "type": "electric_bike", "fusion_lon": 0.0}, {"is_reserved": 0, "is_disabled": 0, "fusion_lat": 0.0, "name": "ed3e65d464a4af0ea4294a5bce1aeee9", "lat": 38.89654983333333, "lon": -77.009163, "bike_id": "ed3e65d464a4af0ea4294a5bce1aeee9", "rental_uris": {"ios": "https://dc.lft.to/lastmile_qr_scan", "android": "https://dc.lft.to/lastmile_qr_scan"}, "type": "electric_scooter", "fusion_lon": 0.0}, {"is_reserved": 0, "is_disabled": 0, "fusion_lat": 0.0, "name": "5d37b7dbf133519f05ac333ec37a7033", "lat": 38.857706666666665, "lon": -76.98769216666666, "bike_id": "5d37b7dbf133519f05ac333ec37a7033", "rental_uris": {"ios": "https://dc.lft.to/lastmile_qr_scan", "android": "https://dc.lft.to/lastmile_qr_scan"}, "type": "electric_bike", "fusion_lon": 0.0}, {"is_reserved": 0, "is_disabled": 0, "fusion_lat": 0.0, "name": "3c50332364ad67819b71fdd54f5b4751", "lat": 38.902602333333334, "lon": -77.0356305, "bike_id": "3c50332364ad67819b71fdd54f5b4751", "rental_uris": {"ios": "https://dc.lft.to/lastmile_qr_scan", "android": "https://dc.lft.to/lastmile_qr_scan"}, "type": "electric_scooter", "fusion_lon": 0.0}, {"is_reserved": 0, "is_disabled": 0, "fusion_lat": 0.0, "name": "30d5540fc287a009e0a59f7a2148a8d4", "lat": 38.921297, "lon": -77.04432533333333, "bike_id": "30d5540fc287a009e0a59f7a2148a8d4", "rental_uris": {"ios": "https://dc.lft.to/lastmile_qr_scan", "android": "https://dc.lft.to/lastmile_qr_scan"}, "type": "electric_scooter", "fusion_lon": 0.0}, {"is_reserved": 0, "is_disabled": 0, "fusion_lat": 0.0, "name": "9b727a423be54a1c0fb948a303bf21d4", "lat": 38.922501, "lon": -77.0389595, "bike_id": "9b727a423be54a1c0fb948a303bf21d4", "rental_uris": {"ios": "https://dc.lft.to/lastmile_qr_scan", "android": "https://dc.lft.to/lastmile_qr_scan"}, "type": "electric_scooter", "fusion_lon": 0.0}, {"is_reserved": 0, "is_disabled": 0, "fusion_lat": 0.0, "name": "53aca69e6cef8fa48da82eb1565c6bf5", "lat": 38.872687666666664, "lon": -76.97563983333333, "bike_id": "53aca69e6cef8fa48da82eb1565c6bf5", "rental_uris": {"ios": "https://dc.lft.to/lastmile_qr_scan", "android": "https://dc.lft.to/lastmile_qr_scan"}, "type": "electric_bike", "fusion_lon": 0.0}, {"is_reserved": 0, "is_disabled": 0, "fusion_lat": 0.0, "name": "f7b559cb1f05745564ebfcf47d3d35ba", "lat": 38.9024015, "lon": -77.00198933333333, "bike_id": "f7b559cb1f05745564ebfcf47d3d35ba", "rental_uris": {"ios": "https://dc.lft.to/lastmile_qr_scan", "android": "https://dc.lft.to/lastmile_qr_scan"}, "type": "electric_scooter", "fusion_lon": 0.0}, {"is_reserved": 0, "is_disabled": 0, "fusion_lat": 0.0, "name": "5670d3d44e6ef6579b6a3764ea2ebd37", "lat": 38.89414633333333, "lon": -77.01089033333334, "bike_id": "5670d3d44e6ef6579b6a3764ea2ebd37", "rental_uris": {"ios": "https://dc.lft.to/lastmile_qr_scan", "android": "https://dc.lft.to/lastmile_qr_scan"}, "type": "electric_scooter", "fusion_lon": 0.0}, {"is_reserved": 0, "is_disabled": 0, "fusion_lat": 0.0, "name": "1be8902cd8faa4d599b827f9f385a245", "lat": 38.80482166666667, "lon": -76.99106566666667, "bike_id": "1be8902cd8faa4d599b827f9f385a245", "rental_uris": {"ios": "https://dc.lft.to/lastmile_qr_scan", "android": "https://dc.lft.to/lastmile_qr_scan"}, "type": "electric_bike", "fusion_lon": 0.0}, {"is_reserved": 0, "is_disabled": 0, "fusion_lat": 0.0, "name": "e06c33da32eb6d9fb36dfe92ff18f0a0", "lat": 38.86335966666667, "lon": -76.98724216666666, "bike_id": "e06c33da32eb6d9fb36dfe92ff18f0a0", "rental_uris": {"ios": "https://dc.lft.to/lastmile_qr_scan", "android": "https://dc.lft.to/lastmile_qr_scan"}, "type": "electric_bike", "fusion_lon": 0.0}, {"is_reserved": 0, "is_disabled": 0, "fusion_lat": 0.0, "name": "63b58f3f1765fe0ebf2fed62de980234", "lat": 38.8996885, "lon": -77.01605166666667, "bike_id": "63b58f3f1765fe0ebf2fed62de980234", "rental_uris": {"ios": "https://dc.lft.to/lastmile_qr_scan", "android": "https://dc.lft.to/lastmile_qr_scan"}, "type": "electric_scooter", "fusion_lon": 0.0}, {"is_reserved": 0, "is_disabled": 0, "fusion_lat": 0.0, "name": "bec33afde65a55c2ca42fcf6fc1cf2d1", "lat": 38.9294975, "lon": -76.97561766666666, "bike_id": "bec33afde65a55c2ca42fcf6fc1cf2d1", "rental_uris": {"ios": "https://dc.lft.to/lastmile_qr_scan", "android": "https://dc.lft.to/lastmile_qr_scan"}, "type": "electric_bike", "fusion_lon": 0.0}, {"is_reserved": 0, "is_disabled": 0, "fusion_lat": 0.0, "name": "f6d2357856240c1dd4fa34438c390174", "lat": 38.907642, "lon": -77.068931, "bike_id": "f6d2357856240c1dd4fa34438c390174", "rental_uris": {"ios": "https://dc.lft.to/lastmile_qr_scan", "android": "https://dc.lft.to/lastmile_qr_scan"}, "type": "electric_scooter", "fusion_lon": 0.0}, {"is_reserved": 0, "is_disabled": 0, "fusion_lat": 0.0, "name": "ea122ec6e0b461fb9a18dafc7510f26d", "lat": 38.91418733333333, "lon": -77.018178, "bike_id": "ea122ec6e0b461fb9a18dafc7510f26d", "rental_uris": {"ios": "https://dc.lft.to/lastmile_qr_scan", "android": "https://dc.lft.to/lastmile_qr_scan"}, "type": "electric_scooter", "fusion_lon": 0.0}, {"is_reserved": 0, "is_disabled": 0, "fusion_lat": 0.0, "name": "935e38be018a9147fa178f188d5f15ff", "lat": 38.92358316666667, "lon": -77.02059383333334, "bike_id": "935e38be018a9147fa178f188d5f15ff", "rental_uris": {"ios": "https://dc.lft.to/lastmile_qr_scan", "android": "https://dc.lft.to/lastmile_qr_scan"}, "type": "electric_scooter", "fusion_lon": 0.0}, {"is_reserved": 0, "is_disabled": 0, "fusion_lat": 0.0, "name": "c9a07a4651d84e85eb44c8a23f21ca52", "lat": 38.937512, "lon": -77.03264166666666, "bike_id": "c9a07a4651d84e85eb44c8a23f21ca52", "rental_uris": {"ios": "https://dc.lft.to/lastmile_qr_scan", "android": "https://dc.lft.to/lastmile_qr_scan"}, "type": "electric_scooter", "fusion_lon": 0.0}, {"is_reserved": 0, "is_disabled": 0, "fusion_lat": 0.0, "name": "74901bb9a849eb14fafc7f9a34fb2213", "lat": 38.8996395, "lon": -77.01508433333333, "bike_id": "74901bb9a849eb14fafc7f9a34fb2213", "rental_uris": {"ios": "https://dc.lft.to/lastmile_qr_scan", "android": "https://dc.lft.to/lastmile_qr_scan"}, "type": "electric_scooter", "fusion_lon": 0.0}, {"is_reserved": 0, "is_disabled": 0, "fusion_lat": 0.0, "name": "e31791e0207c8f3e8bbbeb710b38de5e", "lat": 38.911031333333334, "lon": -77.022034, "bike_id": "e31791e0207c8f3e8bbbeb710b38de5e", "rental_uris": {"ios": "https://dc.lft.to/lastmile_qr_scan", "android": "https://dc.lft.to/lastmile_qr_scan"}, "type": "electric_scooter", "fusion_lon": 0.0}, {"is_reserved": 0, "is_disabled": 0, "fusion_lat": 0.0, "name": "e96902b7592e7aa12b0bcfe0268d4b4e", "lat": 38.896092333333335, "lon": -77.02542183333334, "bike_id": "e96902b7592e7aa12b0bcfe0268d4b4e", "rental_uris": {"ios": "https://dc.lft.to/lastmile_qr_scan", "android": "https://dc.lft.to/lastmile_qr_scan"}, "type": "electric_scooter", "fusion_lon": 0.0}, {"is_reserved": 0, "is_disabled": 0, "fusion_lat": 0.0, "name": "dce9f5c203c8ed8ce4ce2d2aaf16922d", "lat": 38.92084216666667, "lon": -77.023944, "bike_id": "dce9f5c203c8ed8ce4ce2d2aaf16922d", "rental_uris": {"ios": "https://dc.lft.to/lastmile_qr_scan", "android": "https://dc.lft.to/lastmile_qr_scan"}, "type": "electric_scooter", "fusion_lon": 0.0}, {"is_reserved": 0, "is_disabled": 0, "fusion_lat": 0.0, "name": "e2dd081f1af739eaa1e707130af3eebc", "lat": 38.910120666666664, "lon": -76.993919, "bike_id": "e2dd081f1af739eaa1e707130af3eebc", "rental_uris": {"ios": "https://dc.lft.to/lastmile_qr_scan", "android": "https://dc.lft.to/lastmile_qr_scan"}, "type": "electric_scooter", "fusion_lon": 0.0}, {"is_reserved": 0, "is_disabled": 0, "fusion_lat": 0.0, "name": "f930e633789f61a2fdcec20d8accf9cc", "lat": 38.9031515, "lon": -77.02134, "bike_id": "f930e633789f61a2fdcec20d8accf9cc", "rental_uris": {"ios": "https://dc.lft.to/lastmile_qr_scan", "android": "https://dc.lft.to/lastmile_qr_scan"}, "type": "electric_scooter", "fusion_lon": 0.0}, {"is_reserved": 0, "is_disabled": 0, "fusion_lat": 0.0, "name": "d1112b2f3a2f4e7e51974772ca3217e8", "lat": 38.90080483333333, "lon": -77.02690866666667, "bike_id": "d1112b2f3a2f4e7e51974772ca3217e8", "rental_uris": {"ios": "https://dc.lft.to/lastmile_qr_scan", "android": "https://dc.lft.to/lastmile_qr_scan"}, "type": "electric_scooter", "fusion_lon": 0.0}, {"is_reserved": 0, "is_disabled": 0, "fusion_lat": 0.0, "name": "e743ac963e660266311ad627b78b2481", "lat": 38.902389166666666, "lon": -77.002048, "bike_id": "e743ac963e660266311ad627b78b2481", "rental_uris": {"ios": "https://dc.lft.to/lastmile_qr_scan", "android": "https://dc.lft.to/lastmile_qr_scan"}, "type": "electric_scooter", "fusion_lon": 0.0}, {"is_reserved": 0, "is_disabled": 0, "fusion_lat": 0.0, "name": "39ac00f55ac87234208323280ec4d799", "lat": 38.88726183333333, "lon": -76.99609, "bike_id": "39ac00f55ac87234208323280ec4d799", "rental_uris": {"ios": "https://dc.lft.to/lastmile_qr_scan", "android": "https://dc.lft.to/lastmile_qr_scan"}, "type": "electric_scooter", "fusion_lon": 0.0}, {"is_reserved": 0, "is_disabled": 0, "fusion_lat": 0.0, "name": "56728d9fc9fcf3544c82c2417613a4c2", "lat": 38.93587933333333, "lon": -77.07427416666667, "bike_id": "56728d9fc9fcf3544c82c2417613a4c2", "rental_uris": {"ios": "https://dc.lft.to/lastmile_qr_scan", "android": "https://dc.lft.to/lastmile_qr_scan"}, "type": "electric_scooter", "fusion_lon": 0.0}, {"is_reserved": 0, "is_disabled": 0, "fusion_lat": 0.0, "name": "03ec5e9a2cc46157d9088780b1a0dd51", "lat": 38.90220016666667, "lon": -77.04660866666667, "bike_id": "03ec5e9a2cc46157d9088780b1a0dd51", "rental_uris": {"ios": "https://dc.lft.to/lastmile_qr_scan", "android": "https://dc.lft.to/lastmile_qr_scan"}, "type": "electric_scooter", "fusion_lon": 0.0}, {"is_reserved": 0, "is_disabled": 0, "fusion_lat": 0.0, "name": "d721f12119342a7606cd1749deb182da", "lat": 38.8762595, "lon": -77.00589333333333, "bike_id": "d721f12119342a7606cd1749deb182da", "rental_uris": {"ios": "https://dc.lft.to/lastmile_qr_scan", "android": "https://dc.lft.to/lastmile_qr_scan"}, "type": "electric_scooter", "fusion_lon": 0.0}, {"is_reserved": 0, "is_disabled": 0, "fusion_lat": 0.0, "name": "769bfeb7a0f43835feb4d0d92fb2e087", "lat": 38.876631, "lon": -77.00742933333333, "bike_id": "769bfeb7a0f43835feb4d0d92fb2e087", "rental_uris": {"ios": "https://dc.lft.to/lastmile_qr_scan", "android": "https://dc.lft.to/lastmile_qr_scan"}, "type": "electric_scooter", "fusion_lon": 0.0}, {"is_reserved": 0, "is_disabled": 0, "fusion_lat": 0.0, "name": "3a952b941aadcf5e7811eddaaf46da4c", "lat": 38.9187755, "lon": -77.0356795, "bike_id": "3a952b941aadcf5e7811eddaaf46da4c", "rental_uris": {"ios": "https://dc.lft.to/lastmile_qr_scan", "android": "https://dc.lft.to/lastmile_qr_scan"}, "type": "electric_scooter", "fusion_lon": 0.0}, {"is_reserved": 0, "is_disabled": 0, "fusion_lat": 0.0, "name": "99f01a3c4a81d8cd12ba04991e556461", "lat": 38.9195505, "lon": -77.04165983333333, "bike_id": "99f01a3c4a81d8cd12ba04991e556461", "rental_uris": {"ios": "https://dc.lft.to/lastmile_qr_scan", "android": "https://dc.lft.to/lastmile_qr_scan"}, "type": "electric_scooter", "fusion_lon": 0.0}, {"is_reserved": 0, "is_disabled": 0, "fusion_lat": 0.0, "name": "1ceecd5bfe437a093ce4aaf3b9cbc77e", "lat": 38.9028045, "lon": -77.04050166666667, "bike_id": "1ceecd5bfe437a093ce4aaf3b9cbc77e", "rental_uris": {"ios": "https://dc.lft.to/lastmile_qr_scan", "android": "https://dc.lft.to/lastmile_qr_scan"}, "type": "electric_scooter", "fusion_lon": 0.0}, {"is_reserved": 0, "is_disabled": 0, "fusion_lat": 0.0, "name": "28c8d74a7d2218d26d505ea4903e369c", "lat": 38.8996515, "lon": -77.01513333333334, "bike_id": "28c8d74a7d2218d26d505ea4903e369c", "rental_uris": {"ios": "https://dc.lft.to/lastmile_qr_scan", "android": "https://dc.lft.to/lastmile_qr_scan"}, "type": "electric_scooter", "fusion_lon": 0.0}, {"is_reserved": 0, "is_disabled": 0, "fusion_lat": 0.0, "name": "58cf6638813853a9616eb3f3f4ac8ec2", "lat": 38.88382416666666, "lon": -77.03047033333333, "bike_id": "58cf6638813853a9616eb3f3f4ac8ec2", "rental_uris": {"ios": "https://dc.lft.to/lastmile_qr_scan", "android": "https://dc.lft.to/lastmile_qr_scan"}, "type": "electric_scooter", "fusion_lon": 0.0}, {"is_reserved": 0, "is_disabled": 0, "fusion_lat": 0.0, "name": "4b5aae185e45e0b1707c7db55ef06480", "lat": 38.90477633333333, "lon": -77.041875, "bike_id": "4b5aae185e45e0b1707c7db55ef06480", "rental_uris": {"ios": "https://dc.lft.to/lastmile_qr_scan", "android": "https://dc.lft.to/lastmile_qr_scan"}, "type": "electric_scooter", "fusion_lon": 0.0}, {"is_reserved": 0, "is_disabled": 0, "fusion_lat": 0.0, "name": "6d73d1a30ea0bc690280f6ce713dea15", "lat": 38.907172333333335, "lon": -77.05134633333333, "bike_id": "6d73d1a30ea0bc690280f6ce713dea15", "rental_uris": {"ios": "https://dc.lft.to/lastmile_qr_scan", "android": "https://dc.lft.to/lastmile_qr_scan"}, "type": "electric_scooter", "fusion_lon": 0.0}, {"is_reserved": 0, "is_disabled": 0, "fusion_lat": 0.0, "name": "2d063d5a999ef463768b31a333d17918", "lat": 38.9024725, "lon": -77.01448916666666, "bike_id": "2d063d5a999ef463768b31a333d17918", "rental_uris": {"ios": "https://dc.lft.to/lastmile_qr_scan", "android": "https://dc.lft.to/lastmile_qr_scan"}, "type": "electric_scooter", "fusion_lon": 0.0}, {"is_reserved": 0, "is_disabled": 0, "fusion_lat": 0.0, "name": "b4b535602df0f205868fcb171f9291ff", "lat": 38.897395, "lon": -76.99220816666667, "bike_id": "b4b535602df0f205868fcb171f9291ff", "rental_uris": {"ios": "https://dc.lft.to/lastmile_qr_scan", "android": "https://dc.lft.to/lastmile_qr_scan"}, "type": "electric_scooter", "fusion_lon": 0.0}, {"is_reserved": 0, "is_disabled": 0, "fusion_lat": 0.0, "name": "70b375398eaf52f19aaaee2cb276c4e7", "lat": 38.910767166666666, "lon": -77.01627983333333, "bike_id": "70b375398eaf52f19aaaee2cb276c4e7", "rental_uris": {"ios": "https://dc.lft.to/lastmile_qr_scan", "android": "https://dc.lft.to/lastmile_qr_scan"}, "type": "electric_scooter", "fusion_lon": 0.0}, {"is_reserved": 0, "is_disabled": 0, "fusion_lat": 0.0, "name": "7ebd0815962f00e297165b3bc1319e18", "lat": 38.9736775, "lon": -77.01866933333334, "bike_id": "7ebd0815962f00e297165b3bc1319e18", "rental_uris": {"ios": "https://dc.lft.to/lastmile_qr_scan", "android": "https://dc.lft.to/lastmile_qr_scan"}, "type": "electric_scooter", "fusion_lon": 0.0}, {"is_reserved": 0, "is_disabled": 0, "fusion_lat": 0.0, "name": "efb09487ab1e8150eb5672134aeab112", "lat": 38.90250783333333, "lon": -77.02816283333334, "bike_id": "efb09487ab1e8150eb5672134aeab112", "rental_uris": {"ios": "https://dc.lft.to/lastmile_qr_scan", "android": "https://dc.lft.to/lastmile_qr_scan"}, "type": "electric_scooter", "fusion_lon": 0.0}, {"is_reserved": 0, "is_disabled": 0, "fusion_lat": 0.0, "name": "951fc0766712f5524c788076780fcddc", "lat": 38.96898683333333, "lon": -76.95568633333333, "bike_id": "951fc0766712f5524c788076780fcddc", "rental_uris": {"ios": "https://dc.lft.to/lastmile_qr_scan", "android": "https://dc.lft.to/lastmile_qr_scan"}, "type": "electric_bike", "fusion_lon": 0.0}, {"is_reserved": 0, "is_disabled": 0, "fusion_lat": 0.0, "name": "357392946df8773c501ef9fcca01700c", "lat": 38.9171725, "lon": -77.03206633333333, "bike_id": "357392946df8773c501ef9fcca01700c", "rental_uris": {"ios": "https://dc.lft.to/lastmile_qr_scan", "android": "https://dc.lft.to/lastmile_qr_scan"}, "type": "electric_scooter", "fusion_lon": 0.0}, {"is_reserved": 0, "is_disabled": 0, "fusion_lat": 0.0, "name": "3e552d24d8a6ef699a7da5d158100f87", "lat": 38.956057, "lon": -77.08041966666667, "bike_id": "3e552d24d8a6ef699a7da5d158100f87", "rental_uris": {"ios": "https://dc.lft.to/lastmile_qr_scan", "android": "https://dc.lft.to/lastmile_qr_scan"}, "type": "electric_scooter", "fusion_lon": 0.0}, {"is_reserved": 0, "is_disabled": 0, "fusion_lat": 0.0, "name": "916db248574af2f86cfaa533299b833a", "lat": 38.900776, "lon": -77.02978133333333, "bike_id": "916db248574af2f86cfaa533299b833a", "rental_uris": {"ios": "https://dc.lft.to/lastmile_qr_scan", "android": "https://dc.lft.to/lastmile_qr_scan"}, "type": "electric_scooter", "fusion_lon": 0.0},