{"data": {"bikes": [{"bike_id": "1f2a221143217ad58912bf59e9640c01", "is_reserved": 0, "name": "1f2a221143217ad58912bf59e9640c01", "lat": 38.923552666666666, "fusion_lat": 0.0, "lon": -76.97138333333334, "is_disabled": 0, "fusion_lon": 0.0, "rental_uris": {"android": "https://dc.lft.to/lastmile_qr_scan", "ios": "https://dc.lft.to/lastmile_qr_scan"}, "type": "electric_bike"}, {"bike_id": "0a96bc67acfc7c4376f4944f951530ef", "is_reserved": 0, "name": "0a96bc67acfc7c4376f4944f951530ef", "lat": 38.91856083333333, "fusion_lat": 0.0, "lon": -77.0404145, "is_disabled": 0, "fusion_lon": 0.0, "rental_uris": {"android": "https://dc.lft.to/lastmile_qr_scan", "ios": "https://dc.lft.to/lastmile_qr_scan"}, "type": "electric_scooter"}, {"bike_id": "8b142db81959432c5a39bf4c642ccf1e", "is_reserved": 0, "name": "8b142db81959432c5a39bf4c642ccf1e", "lat": 38.9203065, "fusion_lat": 0.0, "lon": -77.08191816666667, "is_disabled": 0, "fusion_lon": 0.0, "rental_uris": {"android": "https://dc.lft.to/lastmile_qr_scan", "ios": "https://dc.lft.to/lastmile_qr_scan"}, "type": "electric_scooter"}, {"bike_id": "07c04157a3f4859c5f05175cff554b85", "is_reserved": 0, "name": "07c04157a3f4859c5f05175cff554b85", "lat": 38.9064145, "fusion_lat": 0.0, "lon": -77.0269565, "is_disabled": 0, "fusion_lon": 0.0, "rental_uris": {"android": "https://dc.lft.to/lastmile_qr_scan", "ios": "https://dc.lft.to/lastmile_qr_scan"}, "type": "electric_scooter"}, {"bike_id": "4a6d1bd8bfeae61e563eca7d05ed35ab", "is_reserved": 0, "name": "4a6d1bd8bfeae61e563eca7d05ed35ab", "lat": 38.934174, "fusion_lat": 0.0, "lon": -77.0427585, "is_disabled": 0, "fusion_lon": 0.0, "rental_uris": {"android": "https://dc.lft.to/lastmile_qr_scan", "ios": "https://dc.lft.to/lastmile_qr_scan"}, "type": "electric_scooter"}, {"bike_id": "ee34bdf679924f3c7fe4143c355e54af", "is_reserved": 0, "name": "ee34bdf679924f3c7fe4143c355e54af", "lat": 38.90561066666667, "fusion_lat": 0.0, "lon": -77.006812, "is_disabled": 0, "fusion_lon": 0.0, "rental_uris": {"android": "https://dc.lft.to/lastmile_qr_scan", "ios": "https://dc.lft.to/lastmile_qr_scan"}, "type": "electric_scooter"}, {"bike_id": "159fcf293e89dd3b94a091420aa59a24", "is_reserved": 0, "name": "159fcf293e89dd3b94a091420aa59a24", "lat": 38.88743816666667, "fusion_lat": 0.0, "lon": -77.02771716666666, "is_disabled": 0, "fusion_lon": 0.0, "rental_uris": {"android": "https://dc.lft.to/lastmile_qr_scan", "ios": "https://dc.lft.to/lastmile_qr_scan"}, "type": "electric_scooter"}, {"bike_id": "648517cf7133c605f283854e74f2f4a4", "is_reserved": 0, "name": "648517cf7133c605f283854e74f2f4a4", "lat": 38.921178833333336, "fusion_lat": 0.0, "lon": -77.0269, "is_disabled": 0, "fusion_lon": 0.0, "rental_uris": {"android": "https://dc.lft.to/lastmile_qr_scan", "ios": "https://dc.lft.to/lastmile_qr_scan"}, "type": "electric_scooter"}, {"bike_id": "6c37122282fb0771dd71f2d6e9456b12", "is_reserved": 0, "name": "6c37122282fb0771dd71f2d6e9456b12", "lat": 38.93595416666667, "fusion_lat": 0.0, "lon": -77.03800283333334, "is_disabled": 0, "fusion_lon": 0.0, "rental_uris": {"android": "https://dc.lft.to/lastmile_qr_scan", "ios": "https://dc.lft.to/lastmile_qr_scan"}, "type": "electric_scooter"}, {"bike_id": "5ca3f8f688fb62fac69c9ca6b2dd6ad2", "is_reserved": 0, "name": "5ca3f8f688fb62fac69c9ca6b2dd6ad2", "lat": 38.916321333333336, "fusion_lat": 0.0, "lon": -77.05075083333334, "is_disabled": 0, "fusion_lon": 0.0, "rental_uris": {"android": "https://dc.lft.to/lastmile_qr_scan", "ios": "https://dc.lft.to/lastmile_qr_scan"}, "type": "electric_scooter"}, {"bike_id": "9bbfbb30d8864bfe82171f5e1bbafeeb", "is_reserved": 0, "name": "9bbfbb30d8864bfe82171f5e1bbafeeb", "lat": 38.899722, "fusion_lat": 0.0, "lon": -77.02476833333333, "is_disabled": 0, "fusion_lon": 0.0, "rental_uris": {"android": "https://dc.lft.to/lastmile_qr_scan", "ios": "https://dc.lft.to/lastmile_qr_scan"}, "type": "electric_scooter"}, {"bike_id": "8981da14ee40c95aafb1dda43adef9b8", "is_reserved": 0, "name": "8981da14ee40c95aafb1dda43adef9b8", "lat": 38.92017883333333, "fusion_lat": 0.0, "lon": -77.04406583333333, "is_disabled": 0, "fusion_lon": 0.0, "rental_uris": {"android": "https://dc.lft.to/lastmile_qr_scan", "ios": "https://dc.lft.to/lastmile_qr_scan"}, "type": "electric_scooter"}, {"bike_id": "5558acfce145c40375d4bb6186814c37", "is_reserved": 0, "name": "5558acfce145c40375d4bb6186814c37", "lat": 38.899862, "fusion_lat": 0.0, "lon": -77.02708716666666, "is_disabled": 0, "fusion_lon": 0.0, "rental_uris": {"android": "https://dc.lft.to/lastmile_qr_scan", "ios": "https://dc.lft.to/lastmile_qr_scan"}, "type": "electric_scooter"}, {"bike_id": "63c3b255c9ae8237440288e4d1910190", "is_reserved": 0, "name": "63c3b255c9ae8237440288e4d1910190", "lat": 38.899244, "fusion_lat": 0.0, "lon": -76.985152, "is_disabled": 0, "fusion_lon": 0.0, "rental_uris": {"android": "https://dc.lft.to/lastmile_qr_scan", "ios": "https://dc.lft.to/lastmile_qr_scan"}, "type": "electric_scooter"}, {"bike_id": "1ae82db3e245651eec75031cfb17ebb7", "is_reserved": 0, "name": "1ae82db3e245651eec75031cfb17ebb7", "lat": 38.912154, "fusion_lat": 0.0, "lon": -77.03181983333333, "is_disabled": 0, "fusion_lon": 0.0, "rental_uris": {"android": "https://dc.lft.to/lastmile_qr_scan", "ios": "https://dc.lft.to/lastmile_qr_scan"}, "type": "electric_scooter"}, {"bike_id": "223543c27b98c93d064b43115c7fe822", "is_reserved": 0, "name": "223543c27b98c93d064b43115c7fe822", "lat": 38.91121666666667, "fusion_lat": 0.0, "lon": -77.0328775, "is_disabled": 0, "fusion_lon": 0.0, "rental_uris": {"android": "https://dc.lft.to/lastmile_qr_scan", "ios": "https://dc.lft.to/lastmile_qr_scan"}, "type": "electric_scooter"}, {"bike_id": "19fe29d317c4f53feb42e58ffd15e9eb", "is_reserved": 0, "name": "19fe29d317c4f53feb42e58ffd15e9eb", "lat": 38.90282966666667, "fusion_lat": 0.0, "lon": -77.0346755, "is_disabled": 0, "fusion_lon": 0.0, "rental_uris": {"android": "https://dc.lft.to/lastmile_qr_scan", "ios": "https://dc.lft.to/lastmile_qr_scan"}, "type": "electric_scooter"}, {"bike_id": "7b2947294684dd7cc566d6f268c31b89", "is_reserved": 0, "name": "7b2947294684dd7cc566d6f268c31b89", "lat": 38.9344115, "fusion_lat": 0.0, "lon": -77.05775083333333, "is_disabled": 0, "fusion_lon": 0.0, "rental_uris": {"android": "https://dc.lft.to/lastmile_qr_scan", "ios": "https://dc.lft.to/lastmile_qr_scan"}, "type": "electric_scooter"}, {"bike_id": "36fb200e979e4f3363fc383d26e5a6fe", "is_reserved": 0, "name": "36fb200e979e4f3363fc383d26e5a6fe", "lat": 38.92454566666667, "fusion_lat": 0.0, "lon": -76.9710475, "is_disabled": 0, "fusion_lon": 0.0, "rental_uris": {"android": "https://dc.lft.to/lastmile_qr_scan", "ios": "https://dc.lft.to/lastmile_qr_scan"}, "type": "electric_scooter"}, {"bike_id": "9e4ac2449bf41eefcb7223e5e38e1a4b", "is_reserved": 0, "name": "9e4ac2449bf41eefcb7223e5e38e1a4b", "lat": 38.90859616666667, "fusion_lat": 0.0, "lon": -77.0453265, "is_disabled": 0, "fusion_lon": 0.0, "rental_uris": {"android": "https://dc.lft.to/lastmile_qr_scan", "ios": "https://dc.lft.to/lastmile_qr_scan"}, "type": "electric_scooter"}, {"bike_id": "89da43a726282a5ce0284481c5fe7014", "is_reserved": 0, "name": "89da43a726282a5ce0284481c5fe7014", "lat": 38.932758166666666, "fusion_lat": 0.0, "lon": -76.9843035, "is_disabled": 0, "fusion_lon": 0.0, "rental_uris": {"android": "https://dc.lft.to/lastmile_qr_scan", "ios": "https://dc.lft.to/lastmile_qr_scan"}, "type": "electric_scooter"}, {"bike_id": "e47fae0cbd9fb5407795db772c14ff10", "is_reserved": 0, "name": "e47fae0cbd9fb5407795db772c14ff10", "lat": 38.914217, "fusion_lat": 0.0, "lon": -77.0180225, "is_disabled": 0, "fusion_lon": 0.0, "rental_uris": {"android": "https://dc.lft.to/lastmile_qr_scan", "ios": "https://dc.lft.to/lastmile_qr_scan"}, "type": "electric_scooter"}, {"bike_id": "75f10f31ffa0386005f5e48d31d3eab7", "is_reserved": 0, "name": "75f10f31ffa0386005f5e48d31d3eab7", "lat": 38.91553616666667, "fusion_lat": 0.0, "lon": -77.01008366666667, "is_disabled": 0, "fusion_lon": 0.0, "rental_uris": {"android": "https://dc.lft.to/lastmile_qr_scan", "ios": "https://dc.lft.to/lastmile_qr_scan"}, "type": "electric_scooter"}, {"bike_id": "a2050ebef3f0b4d47a68c88dfef5e5cf", "is_reserved": 0, "name": "a2050ebef3f0b4d47a68c88dfef5e5cf", "lat": 38.93222333333333, "fusion_lat": 0.0, "lon": -76.9949175, "is_disabled": 0, "fusion_lon": 0.0, "rental_uris": {"android": "https://dc.lft.to/lastmile_qr_scan", "ios": "https://dc.lft.to/lastmile_qr_scan"}, "type": "electric_scooter"}, {"bike_id": "6c56768dedd59dac8619b5d0906ac2eb", "is_reserved": 0, "name": "6c56768dedd59dac8619b5d0906ac2eb", "lat": 38.89883966666667, "fusion_lat": 0.0, "lon": -76.9317375, "is_disabled": 0, "fusion_lon": 0.0, "rental_uris": {"android": "https://dc.lft.to/lastmile_qr_scan", "ios": "https://dc.lft.to/lastmile_qr_scan"}, "type": "electric_scooter"}, {"bike_id": "4b68f8806f88d7e7a075bb6ef60310ff", "is_reserved": 0, "name": "4b68f8806f88d7e7a075bb6ef60310ff", "lat": 38.92437783333333, "fusion_lat": 0.0, "lon": -77.020143, "is_disabled": 0, "fusion_lon": 0.0, "rental_uris": {"android": "https://dc.lft.to/lastmile_qr_scan", "ios": "https://dc.lft.to/lastmile_qr_scan"}, "type": "electric_scooter"}, {"bike_id": "e69e2b6a92e18f702f78133cfdbe2bf3", "is_reserved": 0, "name": "e69e2b6a92e18f702f78133cfdbe2bf3", "lat": 38.8935585, "fusion_lat": 0.0, "lon": -77.00336783333333, "is_disabled": 0, "fusion_lon": 0.0, "rental_uris": {"android": "https://dc.lft.to/lastmile_qr_scan", "ios": "https://dc.lft.to/lastmile_qr_scan"}, "type": "electric_scooter"}, {"bike_id": "b3389ac6392aea910c3787b60675865c", "is_reserved": 0, "name": "b3389ac6392aea910c3787b60675865c", "lat": 38.89216733333333, "fusion_lat": 0.0, "lon": -77.02657066666667, "is_disabled": 0, "fusion_lon": 0.0, "rental_uris": {"android": "https://dc.lft.to/lastmile_qr_scan", "ios": "https://dc.lft.to/lastmile_qr_scan"}, "type": "electric_scooter"}, {"bike_id": "9a68468bc875425a4d427996c179565a", "is_reserved": 0, "name": "9a68468bc875425a4d427996c179565a", "lat": 38.905444833333334, "fusion_lat": 0.0, "lon": -76.994734, "is_disabled": 0, "fusion_lon": 0.0, "rental_uris": {"android": "https://dc.lft.to/lastmile_qr_scan", "ios": "https://dc.lft.to/lastmile_qr_scan"}, "type": "electric_scooter"}, {"bike_id": "042e5ff68ab641a7699b604d95c456f2", "is_reserved": 0, "name": "042e5ff68ab641a7699b604d95c456f2", "lat": 38.93563366666667, "fusion_lat": 0.0, "lon": -77.087598, "is_disabled": 0, "fusion_lon": 0.0, "rental_uris": {"android": "https://dc.lft.to/lastmile_qr_scan", "ios": "https://dc.lft.to/lastmile_qr_scan"}, "type": "electric_scooter"}, {"bike_id": "d832571d595a610b64e0228e65908b2b", "is_reserved": 0, "name": "d832571d595a610b64e0228e65908b2b", "lat": 38.91471266666667, "fusion_lat": 0.0, "lon": -77.02457083333333, "is_disabled": 0, "fusion_lon": 0.0, "rental_uris": {"android": "https://dc.lft.to/lastmile_qr_scan", "ios": "https://dc.lft.to/lastmile_qr_scan"}, "type": "electric_scooter"}, {"bike_id": "6f8ba7adb154d70b2601d53d46364909", "is_reserved": 0, "name": "6f8ba7adb154d70b2601d53d46364909", "lat": 38.898839333333335, "fusion_lat": 0.0, "lon": -76.99697883333333, "is_disabled": 0, "fusion_lon": 0.0, "rental_uris": {"android": "https://dc.lft.to/lastmile_qr_scan", "ios": "https://dc.lft.to/lastmile_qr_scan"}, "type": "electric_scooter"}, {"bike_id": "3a3eefa78d8f2c28e0818eb1ac4b9663", "is_reserved": 0, "name": "3a3eefa78d8f2c28e0818eb1ac4b9663", "lat": 38.903665333333336, "fusion_lat": 0.0, "lon": -77.009792, "is_disabled": 0, "fusion_lon": 0.0, "rental_uris": {"android": "https://dc.lft.to/lastmile_qr_scan", "ios": "https://dc.lft.to/lastmile_qr_scan"}, "type": "electric_scooter"}, {"bike_id": "3379beebd67761adad8c286fae70218d", "is_reserved": 0, "name": "3379beebd67761adad8c286fae70218d", "lat": 38.921198833333335, "fusion_lat": 0.0, "lon": -77.02525116666666, "is_disabled": 0, "fusion_lon": 0.0, "rental_uris": {"android": "https://dc.lft.to/lastmile_qr_scan", "ios": "https://dc.lft.to/lastmile_qr_scan"}, "type": "electric_scooter"}, {"bike_id": "1e69f5f7381d985661c920acf1f94a67", "is_reserved": 0, "name": "1e69f5f7381d985661c920acf1f94a67", "lat": 38.909483333333334, "fusion_lat": 0.0, "lon": -77.02709933333334, "is_disabled": 0, "fusion_lon": 0.0, "rental_uris": {"android": "https://dc.lft.to/lastmile_qr_scan", "ios": "https://dc.lft.to/lastmile_qr_scan"}, "type": "electric_scooter"}, {"bike_id": "36d35817898f7335e5200de1dded4340", "is_reserved": 0, "name": "36d35817898f7335e5200de1dded4340", "lat": 38.88409216666667, "fusion_lat": 0.0, "lon": -76.993808, "is_disabled": 0, "fusion_lon": 0.0, "rental_uris": {"android": "https://dc.lft.to/lastmile_qr_scan", "ios": "https://dc.lft.to/lastmile_qr_scan"}, "type": "electric_scooter"}, {"bike_id": "47e5f5961f84b69d62259312754b8e06", "is_reserved": 0, "name": "47e5f5961f84b69d62259312754b8e06", "lat": 38.92362516666667, "fusion_lat": 0.0, "lon": -77.05131083333333, "is_disabled": 0, "fusion_lon": 0.0, "rental_uris": {"android": "https://dc.lft.to/lastmile_qr_scan", "ios": "https://dc.lft.to/lastmile_qr_scan"}, "type": "electric_scooter"}, {"bike_id": "beefaa562cea0d88e22b6b1826b6be6a", "is_reserved": 0, "name": "beefaa562cea0d88e22b6b1826b6be6a", "lat": 38.91913233333333, "fusion_lat": 0.0, "lon": -77.01196866666666, "is_disabled": 0, "fusion_lon": 0.0, "rental_uris": {"android": "https://dc.lft.to/lastmile_qr_scan", "ios": "https://dc.lft.to/lastmile_qr_scan"}, "type": "electric_scooter"}, {"bike_id": "fee2b3a86f2ae849f89d0ca9cc4b4a88", "is_reserved": 0, "name": "fee2b3a86f2ae849f89d0ca9cc4b4a88", "lat": 38.9202225, "fusion_lat": 0.0, "lon": -77.0385465, "is_disabled": 0, "fusion_lon": 0.0, "rental_uris": {"android": "https://dc.lft.to/lastmile_qr_scan", "ios": "https://dc.lft.to/lastmile_qr_scan"}, "type": "electric_scooter"}, {"bike_id": "5f48f7d82fb1ed6f445af112798f8072", "is_reserved": 0, "name": "5f48f7d82fb1ed6f445af112798f8072", "lat": 38.897349, "fusion_lat": 0.0, "lon": -77.02761366666667, "is_disabled": 0, "fusion_lon": 0.0, "rental_uris": {"android": "https://dc.lft.to/lastmile_qr_scan", "ios": "https://dc.lft.to/lastmile_qr_scan"}, "type": "electric_scooter"}, {"bike_id": "e38157fb815feb295d7745354d4b2c25", "is_reserved": 0, "name": "e38157fb815feb295d7745354d4b2c25", "lat": 38.869310666666664, "fusion_lat": 0.0, "lon": -77.0137055, "is_disabled": 0, "fusion_lon": 0.0, "rental_uris": {"android": "https://dc.lft.to/lastmile_qr_scan", "ios": "https://dc.lft.to/lastmile_qr_scan"}, "type": "electric_scooter"}, {"bike_id": "400370a15d6f27da4f86914f6ef03b21", "is_reserved": 0, "name": "400370a15d6f27da4f86914f6ef03b21", "lat": 38.89724983333333, "fusion_lat": 0.0, "lon": -77.05517716666667, "is_disabled": 0, "fusion_lon": 0.0, "rental_uris": {"android": "https://dc.lft.to/lastmile_qr_scan", "ios": "https://dc.lft.to/lastmile_qr_scan"}, "type": "electric_scooter"}, {"bike_id": "07187192274223fa89a43df70bd98cf3", "is_reserved": 0, "name": "07187192274223fa89a43df70bd98cf3", "lat": 38.869789833333336, "fusion_lat": 0.0, "lon": -77.0107295, "is_disabled": 0, "fusion_lon": 0.0, "rental_uris": {"android": "https://dc.lft.to/lastmile_qr_scan", "ios": "https://dc.lft.to/lastmile_qr_scan"}, "type": "electric_scooter"}, {"bike_id": "78dd27b602b30bb53a8c0b9c365d56d3", "is_reserved": 0, "name": "78dd27b602b30bb53a8c0b9c365d56d3", "lat": 38.85764983333333, "fusion_lat": 0.0, "lon": -76.987692, "is_disabled": 0, "fusion_lon": 0.0, "rental_uris": {"android": "https://dc.lft.to/lastmile_qr_scan", "ios": "https://dc.lft.to/lastmile_qr_scan"}, "type": "electric_bike"}, {"bike_id": "1ee9879a165f8208bce19054a6585ecc", "is_reserved": 0, "name": "1ee9879a165f8208bce19054a6585ecc", "lat": 38.901532, "fusion_lat": 0.0, "lon": -76.99022333333333, "is_disabled": 0, "fusion_lon": 0.0, "rental_uris": {"android": "https://dc.lft.to/lastmile_qr_scan", "ios": "https://dc.lft.to/lastmile_qr_scan"}, "type": "electric_scooter"}, {"bike_id": "e2e9d03e7b43487022ee0aedb69f7ddf", "is_reserved": 0, "name": "e2e9d03e7b43487022ee0aedb69f7ddf", "lat": 38.9051315, "fusion_lat": 0.0, "lon": -77.02977466666667, "is_disabled": 0, "fusion_lon": 0.0, "rental_uris": {"android": "https://dc.lft.to/lastmile_qr_scan", "ios": "https://dc.lft.to/lastmile_qr_scan"}, "type": "electric_scooter"}, {"bike_id": "37a5b0ddfd6805d749aca34ab537c1ec", "is_reserved": 0, "name": "37a5b0ddfd6805d749aca34ab537c1ec", "lat": 38.92153716666667, "fusion_lat": 0.0, "lon": -77.03187016666666, "is_disabled": 0, "fusion_lon": 0.0, "rental_uris": {"android": "https://dc.lft.to/lastmile_qr_scan", "ios": "https://dc.lft.to/lastmile_qr_scan"}, "type": "electric_scooter"}, {"bike_id": "7d83a16f55a0de04e97aab0bf962ecc5", "is_reserved": 0, "name": "7d83a16f55a0de04e97aab0bf962ecc5", "lat": 38.90922416666667, "fusion_lat": 0.0, "lon": -77.04425866666666, "is_disabled": 0, "fusion_lon": 0.0, "rental_uris": {"android": "https://dc.lft.to/lastmile_qr_scan", "ios": "https://dc.lft.to/lastmile_qr_scan"}, "type": "electric_scooter"}, {"bike_id": "7fcaf34e0e4f2fba9acf709a9344af3f", "is_reserved": 0, "name": "7fcaf34e0e4f2fba9acf709a9344af3f", "lat": 39.08603433333333, "fusion_lat": 0.0, "lon": -77.15255916666666, "is_disabled": 0, "fusion_lon": 0.0, "rental_uris": {"android": "https://dc.lft.to/lastmile_qr_scan", "ios": "https://dc.lft.to/lastmile_qr_scan"}, "type": "electric_bike"}, {"bike_id": "8bb2ce407f44c80149a52297fff40f23", "is_reserved": 0, "name": "8bb2ce407f44c80149a52297fff40f23", "lat": 38.90562216666667, "fusion_lat": 0.0, "lon": -77.00538116666667, "is_disabled": 0, "fusion_lon": 0.0, "rental_uris": {"android": "https://dc.lft.to/lastmile_qr_scan", "ios": "https://dc.lft.to/lastmile_qr_scan"}, "type": "electric_scooter"}, {"bike_id": "d9526481696bf31462dbcf0c41834433", "is_reserved": 0, "name": "d9526481696bf31462dbcf0c41834433", "lat": 38.885060333333335, "fusion_lat": 0.0, "lon": -76.99734283333333, "is_disabled": 0, "fusion_lon": 0.0, "rental_uris": {"android": "https://dc.lft.to/lastmile_qr_scan", "ios": "https://dc.lft.to/lastmile_qr_scan"}, "type": "electric_scooter"}, {"bike_id": "3d8d1f5e9c9cc5ed902d60e653c4b6bd", "is_reserved": 0, "name": "3d8d1f5e9c9cc5ed902d60e653c4b6bd", "lat": 38.89608316666666, "fusion_lat": 0.0, "lon": -77.13821933333334, "is_disabled": 0, "fusion_lon": 0.0, "rental_uris": {"android": "https://dc.lft.to/lastmile_qr_scan", "ios": "https://dc.lft.to/lastmile_qr_scan"}, "type": "electric_bike"}, {"bike_id": "28f2c30d80168eee3d669c2f18bce0ea", "is_reserved": 0, "name": "28f2c30d80168eee3d669c2f18bce0ea", "lat": 38.911286833333335, "fusion_lat": 0.0, "lon": -77.02195933333333, "is_disabled": 0, "fusion_lon": 0.0, "rental_uris": {"android": "https://dc.lft.to/lastmile_qr_scan", "ios": "https://dc.lft.to/lastmile_qr_scan"}, "type": "electric_scooter"}, {"bike_id": "4b1b6ee0c000e12fc1c5bdc11045619f", "is_reserved": 0, "name": "4b1b6ee0c000e12fc1c5bdc11045619f", "lat": 38.895599, "fusion_lat": 0.0, "lon": -77.07819116666667, "is_disabled": 0, "fusion_lon": 0.0, "rental_uris": {"android": "https://dc.lft.to/lastmile_qr_scan", "ios": "https://dc.lft.to/lastmile_qr_scan"}, "type": "electric_bike"}, {"bike_id": "ba854562a65505780434f6d637450394", "is_reserved": 0, "name": "ba854562a65505780434f6d637450394", "lat": 38.905069833333336, "fusion_lat": 0.0, "lon": -77.02946483333334, "is_disabled": 0, "fusion_lon": 0.0, "rental_uris": {"android": "https://dc.lft.to/lastmile_qr_scan", "ios": "https://dc.lft.to/lastmile_qr_scan"}, "type": "electric_scooter"}, {"bike_id": "e2f336c170abf72cc4beb69d89a30d76", "is_reserved": 0, "name": "e2f336c170abf72cc4beb69d89a30d76", "lat": 38.92906133333334, "fusion_lat": 0.0, "lon": -77.032707, "is_disabled": 0, "fusion_lon": 0.0, "rental_uris": {"android": "https://dc.lft.to/lastmile_qr_scan", "ios": "https://dc.lft.to/lastmile_qr_scan"}, "type": "electric_scooter"}, {"bike_id": "0b862613dc09328bfdeb10eb2ea7f909", "is_reserved": 0, "name": "0b862613dc09328bfdeb10eb2ea7f909", "lat": 38.88760716666667, "fusion_lat": 0.0, "lon": -77.01304733333333, "is_disabled": 0, "fusion_lon": 0.0, "rental_uris": {"android": "https://dc.lft.to/lastmile_qr_scan", "ios": "https://dc.lft.to/lastmile_qr_scan"}, "type": "electric_scooter"}, {"bike_id": "f6e23fb353771e1ffa54ae74ad9d9cbe", "is_reserved": 0, "name": "f6e23fb353771e1ffa54ae74ad9d9cbe", "lat": 38.925937166666664, "fusion_lat": 0.0, "lon": -77.21014083333333, "is_disabled": 0, "fusion_lon": 0.0, "rental_uris": {"android": "https://dc.lft.to/lastmile_qr_scan", "ios": "https://dc.lft.to/lastmile_qr_scan"}, "type": "electric_bike"}, {"bike_id": "3dc923d5272ae31f3804cae4bf1d968f", "is_reserved": 0, "name": "3dc923d5272ae31f3804cae4bf1d968f", "lat": 38.91109566666667, "fusion_lat": 0.0, "lon": -77.0453915, "is_disabled": 0, "fusion_lon": 0.0, "rental_uris": {"android": "https://dc.lft.to/lastmile_qr_scan", "ios": "https://dc.lft.to/lastmile_qr_scan"}, "type": "electric_scooter"}, {"bike_id": "80a855ddeba8cf04315f1a54058221f1", "is_reserved": 0, "name": "80a855ddeba8cf04315f1a54058221f1", "lat": 38.954185333333335, "fusion_lat": 0.0, "lon": -77.02768616666667, "is_disabled": 0, "fusion_lon": 0.0, "rental_uris": {"android": "https://dc.lft.to/lastmile_qr_scan", "ios": "https://dc.lft.to/lastmile_qr_scan"}, "type": "electric_scooter"}, {"bike_id": "882d68d272a69a743ac16b233f3bc340", "is_reserved": 0, "name": "882d68d272a69a743ac16b233f3bc340", "lat": 38.915845833333336, "fusion_lat": 0.0, "lon": -77.01720716666667, "is_disabled": 0, "fusion_lon": 0.0, "rental_uris": {"android": "https://dc.lft.to/lastmile_qr_scan", "ios": "https://dc.lft.to/lastmile_qr_scan"}, "type": "electric_scooter"}, {"bike_id": "c17f10695f1a83592dbcbc5e903240c1", "is_reserved": 0, "name": "c17f10695f1a83592dbcbc5e903240c1", "lat": 38.9260315, "fusion_lat": 0.0, "lon": -77.02158433333334, "is_disabled": 0, "fusion_lon": 0.0, "rental_uris": {"android": "https://dc.lft.to/lastmile_qr_scan", "ios": "https://dc.lft.to/lastmile_qr_scan"}, "type": "electric_scooter"}, {"bike_id": "cfa93c47effed4d03dc60fc4d8c819e9", "is_reserved": 0, "name": "cfa93c47effed4d03dc60fc4d8c819e9", "lat": 38.8694885, "fusion_lat": 0.0, "lon": -77.0137435, "is_disabled": 0, "fusion_lon": 0.0, "rental_uris": {"android": "https://dc.lft.to/lastmile_qr_scan", "ios": "https://dc.lft.to/lastmile_qr_scan"}, "type": "electric_scooter"}, {"bike_id": "69260db458ee93b62625f0e432a45d71", "is_reserved": 0, "name": "69260db458ee93b62625f0e432a45d71", "lat": 38.900103, "fusion_lat": 0.0, "lon": -77.00064916666666, "is_disabled": 0, "fusion_lon": 0.0, "rental_uris": {"android": "https://dc.lft.to/lastmile_qr_scan", "ios": "https://dc.lft.to/lastmile_qr_scan"}, "type": "electric_scooter"}, {"bike_id": "e49f2a9f155cfae7de2d9e2f8c63ecfa", "is_reserved": 0, "name": "e49f2a9f155cfae7de2d9e2f8c63ecfa", "lat": 38.82777983333333, "fusion_lat": 0.0, "lon": -77.124782, "is_disabled": 0, "fusion_lon": 0.0, "rental_uris": {"android": "https://dc.lft.to/lastmile_qr_scan", "ios": "https://dc.lft.to/lastmile_qr_scan"}, "type": "electric_bike"}, {"bike_id": "57c3be19c991201b8acc8e6a6206d23d", "is_reserved": 0, "name": "57c3be19c991201b8acc8e6a6206d23d", "lat": 38.91511416666667, "fusion_lat": 0.0, "lon": -77.0157375, "is_disabled": 0, "fusion_lon": 0.0, "rental_uris": {"android": "https://dc.lft.to/lastmile_qr_scan", "ios": "https://dc.lft.to/lastmile_qr_scan"}, "type": "electric_scooter"}, {"bike_id": "b2de5bf22de0ed3ad73b603475d36d34", "is_reserved": 0, "name": "b2de5bf22de0ed3ad73b603475d36d34", "lat": 38.88518283333333, "fusion_lat": 0.0, "lon": -76.98209866666667, "is_disabled": 0, "fusion_lon": 0.0, "rental_uris": {"android": "https://dc.lft.to/lastmile_qr_scan", "ios": "https://dc.lft.to/lastmile_qr_scan"}, "type": "electric_scooter"}, {"bike_id": "4696cb4df21498bc543c64fbae9afece", "is_reserved": 0, "name": "4696cb4df21498bc543c64fbae9afece", "lat": 38.90047583333333, "fusion_lat": 0.0, "lon": -77.04182633333333, "is_disabled": 0, "fusion_lon": 0.0, "rental_uris": {"android": "https://dc.lft.to/lastmile_qr_scan", "ios": "https://dc.lft.to/lastmile_qr_scan"}, "type": "electric_scooter"}, {"bike_id": "63f91112c390ad5d3f445b406feac681", "is_reserved": 0, "name": "63f91112c390ad5d3f445b406feac681", "lat": 38.912653, "fusion_lat": 0.0, "lon": -77.07439016666666, "is_disabled": 0, "fusion_lon": 0.0, "rental_uris": {"android": "https://dc.lft.to/lastmile_qr_scan", "ios": "https://dc.lft.to/lastmile_qr_scan"}, "type": "electric_scooter"}, {"bike_id": "e8dbc3b6fe9e88637fcf5423b995f423", "is_reserved": 0, "name": "e8dbc3b6fe9e88637fcf5423b995f423", "lat": 38.89207, "fusion_lat": 0.0, "lon": -77.02660633333333, "is_disabled": 0, "fusion_lon": 0.0, "rental_uris": {"android": "https://dc.lft.to/lastmile_qr_scan", "ios": "https://dc.lft.to/lastmile_qr_scan"}, "type": "electric_scooter"}, {"bike_id": "9d3f667c4af8d74b47a118330ef0759e", "is_reserved": 0, "name": "9d3f667c4af8d74b47a118330ef0759e", "lat": 38.9085105, "fusion_lat": 0.0, "lon": -77.0271895, "is_disabled": 0, "fusion_lon": 0.0, "rental_uris": {"android": "https://dc.lft.to/lastmile_qr_scan", "ios": "https://dc.lft.to/lastmile_qr_scan"}, "type": "electric_scooter"}, {"bike_id": "a5ff5f5869b0e1e3793e889d7a213d9d", "is_reserved": 0, "name": "a5ff5f5869b0e1e3793e889d7a213d9d", "lat": 38.91084516666667, "fusion_lat": 0.0, "lon": -77.043964, "is_disabled": 0, "fusion_lon": 0.0, "rental_uris": {"android": "https://dc.lft.to/lastmile_qr_scan", "ios": "https://dc.lft.to/lastmile_qr_scan"}, "type": "electric_scooter"}, {"bike_id": "dbc9c34388c1f5ba279f628d0fcf112c", "is_reserved": 0, "name": "dbc9c34388c1f5ba279f628d0fcf112c", "lat": 38.906217, "fusion_lat": 0.0, "lon": -77.025271, "is_disabled": 0, "fusion_lon": 0.0, "rental_uris": {"android": "https://dc.lft.to/lastmile_qr_scan", "ios": "https://dc.lft.to/lastmile_qr_scan"}, "type": "electric_scooter"}, {"bike_id": "458e40f9174e75da522a5dfc784c1129", "is_reserved": 0, "name": "458e40f9174e75da522a5dfc784c1129", "lat": 38.92891266666667, "fusion_lat": 0.0, "lon": -77.03236316666667, "is_disabled": 0, "fusion_lon": 0.0, "rental_uris": {"android": "https://dc.lft.to/lastmile_qr_scan", "ios": "https://dc.lft.to/lastmile_qr_scan"}, "type": "electric_scooter"}, {"bike_id": "ad90e02b388e1181ddc416a3884a7cae", "is_reserved": 0, "name": "ad90e02b388e1181ddc416a3884a7cae", "lat": 38.931839, "fusion_lat": 0.0, "lon": -77.04308966666666, "is_disabled": 0, "fusion_lon": 0.0, "rental_uris": {"android": "https://dc.lft.to/lastmile_qr_scan", "ios": "https://dc.lft.to/lastmile_qr_scan"}, "type": "electric_scooter"}, {"bike_id": "3dcee72480c6589372a915b23bf1f9c7", "is_reserved": 0, "name": "3dcee72480c6589372a915b23bf1f9c7", "lat": 38.91759483333333, "fusion_lat": 0.0, "lon": -77.02298383333333, "is_disabled": 0, "fusion_lon": 0.0, "rental_uris": {"android": "https://dc.lft.to/lastmile_qr_scan", "ios": "https://dc.lft.to/lastmile_qr_scan"}, "type": "electric_scooter"}, {"bike_id": "a0b9b53660bd5e2b3c72be0fd9260a8e", "is_reserved": 0, "name": "a0b9b53660bd5e2b3c72be0fd9260a8e", "lat": 38.8992875, "fusion_lat": 0.0, "lon": -77.01276183333333, "is_disabled": 0, "fusion_lon": 0.0, "rental_uris": {"android": "https://dc.lft.to/lastmile_qr_scan", "ios": "https://dc.lft.to/lastmile_qr_scan"}, "type": "electric_scooter"}, {"bike_id": "7933f1c80936a6bde707ea5f2a30aae5", "is_reserved": 0, "name": "7933f1c80936a6bde707ea5f2a30aae5", "lat": 38.90015566666667, "fusion_lat": 0.0, "lon": -76.99969816666666, "is_disabled": 0, "fusion_lon": 0.0, "rental_uris": {"android": "https://dc.lft.to/lastmile_qr_scan", "ios": "https://dc.lft.to/lastmile_qr_scan"}, "type": "electric_scooter"}, {"bike_id": "cef74f0f58e0308c42f202941873219c", "is_reserved": 0, "name": "cef74f0f58e0308c42f202941873219c", "lat": 38.87048883333333, "fusion_lat": 0.0, "lon": -77.0075425, "is_disabled": 0, "fusion_lon": 0.0, "rental_uris": {"android": "https://dc.lft.to/lastmile_qr_scan", "ios": "https://dc.lft.to/lastmile_qr_scan"}, "type": "electric_scooter"}, {"bike_id": "6a52e970895872ee166203a8c1c838b8", "is_reserved": 0, "name": "6a52e970895872ee166203a8c1c838b8", "lat": 38.917047833333335, "fusion_lat": 0.0, "lon": -77.0241475, "is_disabled": 0, "fusion_lon": 0.0, "rental_uris": {"android": "https://dc.lft.to/lastmile_qr_scan", "ios": "https://dc.lft.to/lastmile_qr_scan"}, "type": "electric_scooter"}, {"bike_id": "08b83f9997c66f6be09189b8d4c2d5ab", "is_reserved": 0, "name": "08b83f9997c66f6be09189b8d4c2d5ab", "lat": 38.915203, "fusion_lat": 0.0, "lon": -77.0142165, "is_disabled": 0, "fusion_lon": 0.0, "rental_uris": {"android": "https://dc.lft.to/lastmile_qr_scan", "ios": "https://dc.lft.to/lastmile_qr_scan"}, "type": "electric_scooter"}, {"bike_id": "3a70eb32c2da4e7b2cd263c22ba8fc1e", "is_reserved": 0, "name": "3a70eb32c2da4e7b2cd263c22ba8fc1e", "lat": 38.918094333333336, "fusion_lat": 0.0, "lon": -77.03164916666667, "is_disabled": 0, "fusion_lon": 0.0, "rental_uris": {"android": "https://dc.lft.to/lastmile_qr_scan", "ios": "https://dc.lft.to/lastmile_qr_scan"}, "type": "electric_scooter"}, {"bike_id": "6a777dc52e38e104e727de6f66353f77", "is_reserved": 0, "name": "6a777dc52e38e104e727de6f66353f77", "lat": 38.90962316666667, "fusion_lat": 0.0, "lon": -77.02408183333333, "is_disabled": 0, "fusion_lon": 0.0, "rental_uris": {"android": "https://dc.lft.to/lastmile_qr_scan", "ios": "https://dc.lft.to/lastmile_qr_scan"}, "type": "electric_scooter"}, {"bike_id": "090b39cf2a18d607e692f296e3bbf3c1", "is_reserved": 0, "name": "090b39cf2a18d607e692f296e3bbf3c1", "lat": 38.92363683333333, "fusion_lat": 0.0, "lon": -77.04409716666666, "is_disabled": 0, "fusion_lon": 0.0, "rental_uris": {"android": "https://dc.lft.to/lastmile_qr_scan", "ios": "https://dc.lft.to/lastmile_qr_scan"}, "type": "electric_scooter"}, {"bike_id": "8fbc24f2d3ba7043a4b9f5d34d23f2c6", "is_reserved": 0, "name": "8fbc24f2d3ba7043a4b9f5d34d23f2c6", "lat": 38.92830216666667, "fusion_lat": 0.0, "lon": -77.05418716666667, "is_disabled": 0, "fusion_lon": 0.0, "rental_uris": {"android": "https://dc.lft.to/lastmile_qr_scan", "ios": "https://dc.lft.to/lastmile_qr_scan"}, "type": "electric_scooter"}, {"bike_id": "66e13cf0e0991b5db4ef56d151a248ac", "is_reserved": 0, "name": "66e13cf0e0991b5db4ef56d151a248ac", "lat": 38.9031865, "fusion_lat": 0.0, "lon": -77.0163975, "is_disabled": 0, "fusion_lon": 0.0, "rental_uris": {"android": "https://dc.lft.to/lastmile_qr_scan", "ios": "https://dc.lft.to/lastmile_qr_scan"}, "type": "electric_scooter"}, {"bike_id": "abe01a3ad6b3096addc1199262befcb8", "is_reserved": 0, "name": "abe01a3ad6b3096addc1199262befcb8", "lat": 38.91636283333333, "fusion_lat": 0.0, "lon": -77.04168716666666, "is_disabled": 0, "fusion_lon": 0.0, "rental_uris": {"android": "https://dc.lft.to/lastmile_qr_scan", "ios": "https://dc.lft.to/lastmile_qr_scan"}, "type": "electric_scooter"}, {"bike_id": "9a95fdd35055b1b1ce2aced90f69a6d3", "is_reserved": 0, "name": "9a95fdd35055b1b1ce2aced90f69a6d3", "lat": 38.898301333333336, "fusion_lat": 0.0, "lon": -77.050323, "is_disabled": 0, "fusion_lon": 0.0, "rental_uris": {"android": "https://dc.lft.to/lastmile_qr_scan", "ios": "https://dc.lft.to/lastmile_qr_scan"}, "type": "electric_scooter"}, {"bike_id": "94dc130be86025ff2688fad305630b94", "is_reserved": 0, "name": "94dc130be86025ff2688fad305630b94", "lat": 38.91075266666667, "fusion_lat": 0.0, "lon": -77.0272295, "is_disabled": 0, "fusion_lon": 0.0, "rental_uris": {"android": "https://dc.lft.to/lastmile_qr_scan", "ios": "https://dc.lft.to/lastmile_qr_scan"}, "type": "electric_scooter"}, {"bike_id": "aeebdce02af9189935a3f0f6cf4086cd", "is_reserved": 0, "name": "aeebdce02af9189935a3f0f6cf4086cd", "lat": 38.90382366666667, "fusion_lat": 0.0, "lon": -77.02969783333333, "is_disabled": 0, "fusion_lon": 0.0, "rental_uris": {"android": "https://dc.lft.to/lastmile_qr_scan", "ios": "https://dc.lft.to/lastmile_qr_scan"}, "type": "electric_scooter"}, {"bike_id": "46febec92e0013e69dcba38a11a03cb2", "is_reserved": 0, "name": "46febec92e0013e69dcba38a11a03cb2", "lat": 38.94267716666667, "fusion_lat": 0.0, "lon": -77.03256133333333, "is_disabled": 0, "fusion_lon": 0.0, "rental_uris": {"android": "https://dc.lft.to/lastmile_qr_scan", "ios": "https://dc.lft.to/lastmile_qr_scan"}, "type": "electric_scooter"}, {"bike_id": "296434a27d0f69fc71f813c9b7aa6db0", "is_reserved": 0, "name": "296434a27d0f69fc71f813c9b7aa6db0", "lat": 38.90715816666667, "fusion_lat": 0.0, "lon": -77.02522766666667, "is_disabled": 0, "fusion_lon": 0.0, "rental_uris": {"android": "https://dc.lft.to/lastmile_qr_scan", "ios": "https://dc.lft.to/lastmile_qr_scan"}, "type": "electric_scooter"}, {"bike_id": "73770f4c686ace8ad3c739cf16808b96", "is_reserved": 0, "name": "73770f4c686ace8ad3c739cf16808b96", "lat": 38.8702695, "fusion_lat": 0.0, "lon": -77.22921666666667, "is_disabled": 0, "fusion_lon": 0.0, "rental_uris": {"android": "https://dc.lft.to/lastmile_qr_scan", "ios": "https://dc.lft.to/lastmile_qr_scan"}, "type": "electric_bike"}, {"bike_id": "8b703a8314f42623c617b270587150c1", "is_reserved": 0, "name": "8b703a8314f42623c617b270587150c1", "lat": 38.89235166666667, "fusion_lat": 0.0, "lon": -77.043589, "is_disabled": 0, "fusion_lon": 0.0, "rental_uris": {"android": "https://dc.lft.to/lastmile_qr_scan", "ios": "https://dc.lft.to/lastmile_qr_scan"}, "type": "electric_scooter"}, {"bike_id": "c8ab2f495ff84de1e9a9be4e31b4fe0b", "is_reserved": 0, "name": "c8ab2f495ff84de1e9a9be4e31b4fe0b", "lat": 38.91708666666667, "fusion_lat": 0.0, "lon": -77.0334195, "is_disabled": 0, "fusion_lon": 0.0, "rental_uris": {"android": "https://dc.lft.to/lastmile_qr_scan", "ios": "https://dc.lft.to/lastmile_qr_scan"}, "type": "electric_scooter"}, {"bike_id": "8faece7c5ec8498dd6f9f57e80b50545", "is_reserved": 0, "name": "8faece7c5ec8498dd6f9f57e80b50545", "lat": 38.919268333333335, "fusion_lat": 0.0, "lon": -77.032675, "is_disabled": 0, "fusion_lon": 0.0, "rental_uris": {"android": "https://dc.lft.to/lastmile_qr_scan", "ios": "https://dc.lft.to/lastmile_qr_scan"}, "type": "electric_scooter"}, {"bike_id": "0c587889b8ec02e35288af689ee98133", "is_reserved": 0, "name": "0c587889b8ec02e35288af689ee98133", "lat": 38.934900999999996, "fusion_lat": 0.0, "lon": -77.07280033333333, "is_disabled": 0, "fusion_lon": 0.0, "rental_uris": {"android": "https://dc.lft.to/lastmile_qr_scan", "ios": "https://dc.lft.to/lastmile_qr_scan"}, "type": "electric_scooter"}, {"bike_id": "78cec4af744a2967530ba2b3a2572cc6", "is_reserved": 0, "name": "78cec4af744a2967530ba2b3a2572cc6", "lat": 38.927098, "fusion_lat": 0.0, "lon": -77.02083533333334, "is_disabled": 0, "fusion_lon": 0.0, "rental_uris": {"android": "https://dc.lft.to/lastmile_qr_scan", "ios": "https://dc.lft.to/lastmile_qr_scan"}, "type": "electric_bike"}, {"bike_id": "f03c617a9243634f8ad1eb92569cea61", "is_reserved": 0, "name": "f03c617a9243634f8ad1eb92569cea61", "lat": 38.897904, "fusion_lat": 0.0, "lon": -76.94727416666667, "is_disabled": 0, "fusion_lon": 0.0, "rental_uris": {"android": "https://dc.lft.to/lastmile_qr_scan", "ios": "https://dc.lft.to/lastmile_qr_scan"}, "type": "electric_scooter"}, {"bike_id": "0a3aeeb8ca842bf2ac398481e5de84c3", "is_reserved": 0, "name": "0a3aeeb8ca842bf2ac398481e5de84c3", "lat": 38.87079933333333, "fusion_lat": 0.0, "lon": -77.01212666666666, "is_disabled": 0, "fusion_lon": 0.0, "rental_uris": {"android": "https://dc.lft.to/lastmile_qr_scan", "ios": "https://dc.lft.to/lastmile_qr_scan"}, "type": "electric_bike"}, {"bike_id": "824e740eeeaa07809d6ecfb56b5b0e40", "is_reserved": 0, "name": "824e740eeeaa07809d6ecfb56b5b0e40", "lat": 38.91710666666667, "fusion_lat": 0.0, "lon": -77.03249416666667, "is_disabled": 0, "fusion_lon": 0.0, "rental_uris": {"android": "https://dc.lft.to/lastmile_qr_scan", "ios": "https://dc.lft.to/lastmile_qr_scan"}, "type": "electric_scooter"}, {"bike_id": "94f5165a636148967ee8d273f5c1f9fc", "is_reserved": 0, "name": "94f5165a636148967ee8d273f5c1f9fc", "lat": 38.895446166666666, "fusion_lat": 0.0, "lon": -76.98337266666667, "is_disabled": 0, "fusion_lon": 0.0, "rental_uris": {"android": "https://dc.lft.to/lastmile_qr_scan", "ios": "https://dc.lft.to/lastmile_qr_scan"}, "type": "electric_scooter"}, {"bike_id": "725b01480fa35b66e1432aa5a39afa6f", "is_reserved": 0, "name": "725b01480fa35b66e1432aa5a39afa6f", "lat": 38.923181166666666, "fusion_lat": 0.0, "lon": -77.03027216666666, "is_disabled": 0, "fusion_lon": 0.0, "rental_uris": {"android": "https://dc.lft.to/lastmile_qr_scan", "ios": "https://dc.lft.to/lastmile_qr_scan"}, "type": "electric_scooter"}, {"bike_id": "5dcc4045d32b96abbb994ffe41a33550", "is_reserved": 0, "name": "5dcc4045d32b96abbb994ffe41a33550", "lat": 38.885001333333335, "fusion_lat": 0.0, "lon": -77.01475383333333, "is_disabled": 0, "fusion_lon": 0.0, "rental_uris": {"android": "https://dc.lft.to/lastmile_qr_scan", "ios": "https://dc.lft.to/lastmile_qr_scan"}, "type": "electric_scooter"}, {"bike_id": "413515d4233f156e107b9dada04fcd30", "is_reserved": 0, "name": "413515d4233f156e107b9dada04fcd30", "lat": 38.90822766666667, "fusion_lat": 0.0, "lon": -77.0394105, "is_disabled": 0, "fusion_lon": 0.0, "rental_uris": {"android": "https://dc.lft.to/lastmile_qr_scan", "ios": "https://dc.lft.to/lastmile_qr_scan"}, "type": "electric_scooter"}, {"bike_id": "1aeaaa0c939bc1678f26e069e0cf23eb", "is_reserved": 0, "name": "1aeaaa0c939bc1678f26e069e0cf23eb", "lat": 38.956015, "fusion_lat": 0.0, "lon": -77.010081, "is_disabled": 0, "fusion_lon": 0.0, "rental_uris": {"android": "https://dc.lft.to/lastmile_qr_scan", "ios": "https://dc.lft.to/lastmile_qr_scan"}, "type": "electric_bike"}, {"bike_id": "ee22b39b23cb3bbd99d6d2489a96e3f8", "is_reserved": 0, "name": "ee22b39b23cb3bbd99d6d2489a96e3f8", "lat": 38.89963433333333, "fusion_lat": 0.0, "lon": -76.98671883333333, "is_disabled": 0, "fusion_lon": 0.0, "rental_uris": {"android": "https://dc.lft.to/lastmile_qr_scan", "ios": "https://dc.lft.to/lastmile_qr_scan"}, "type": "electric_bike"}, {"bike_id": "37419f8c8bc897de950d3d36336c0845", "is_reserved": 0, "name": "37419f8c8bc897de950d3d36336c0845", "lat": 38.934646666666666, "fusion_lat": 0.0, "lon": -77.07220266666667, "is_disabled": 0, "fusion_lon": 0.0, "rental_uris": {"android": "https://dc.lft.to/lastmile_qr_scan", "ios": "https://dc.lft.to/lastmile_qr_scan"}, "type": "electric_scooter"}, {"bike_id": "64d569f19465cb3be3de411eeeac1ee1", "is_reserved": 0, "name": "64d569f19465cb3be3de411eeeac1ee1", "lat": 38.917350666666664, "fusion_lat": 0.0, "lon": -77.06845916666667, "is_disabled": 0, "fusion_lon": 0.0, "rental_uris": {"android": "https://dc.lft.to/lastmile_qr_scan", "ios": "https://dc.lft.to/lastmile_qr_scan"}, "type": "electric_scooter"}, {"bike_id": "df76839e31d7822e7406031575e111b3", "is_reserved": 0, "name": "df76839e31d7822e7406031575e111b3", "lat": 38.925198333333334, "fusion_lat": 0.0, "lon": -77.077036, "is_disabled": 0, "fusion_lon": 0.0, "rental_uris": {"android": "https://dc.lft.to/lastmile_qr_scan", "ios": "https://dc.lft.to/lastmile_qr_scan"}, "type": "electric_scooter"}, {"bike_id": "f2b875441178326e4e56decb5a4996ef", "is_reserved": 0, "name": "f2b875441178326e4e56decb5a4996ef", "lat": 38.888212333333335, "fusion_lat": 0.0, "lon": -76.9771835, "is_disabled": 0, "fusion_lon": 0.0, "rental_uris": {"android": "https://dc.lft.to/lastmile_qr_scan", "ios": "https://dc.lft.to/lastmile_qr_scan"}, "type": "electric_scooter"}, {"bike_id": "0e9a3f9ead3e896c8629a939caf45b21", "is_reserved": 0, "name": "0e9a3f9ead3e896c8629a939caf45b21", "lat": 38.888236666666664, "fusion_lat": 0.0, "lon": -76.977186, "is_disabled": 0, "fusion_lon": 0.0, "rental_uris": {"android": "https://dc.lft.to/lastmile_qr_scan", "ios": "https://dc.lft.to/lastmile_qr_scan"}, "type": "electric_scooter"}, {"bike_id": "4ce77a095bee13414f3edc88cc1fa6aa", "is_reserved": 0, "name": "4ce77a095bee13414f3edc88cc1fa6aa", "lat": 38.915662833333336, "fusion_lat": 0.0, "lon": -77.0200725, "is_disabled": 0, "fusion_lon": 0.0, "rental_uris": {"android": "https://dc.lft.to/lastmile_qr_scan", "ios": "https://dc.lft.to/lastmile_qr_scan"}, "type": "electric_scooter"}, {"bike_id": "5b21ffce3ab05cb64a3e139a8d46198d", "is_reserved": 0, "name": "5b21ffce3ab05cb64a3e139a8d46198d", "lat": 38.89889266666667, "fusion_lat": 0.0, "lon": -76.99360566666667, "is_disabled": 0, "fusion_lon": 0.0, "rental_uris": {"android": "https://dc.lft.to/lastmile_qr_scan", "ios": "https://dc.lft.to/lastmile_qr_scan"}, "type": "electric_scooter"}, {"bike_id": "e9bba2d04b000fa8fcee06afdde964c2", "is_reserved": 0, "name": "e9bba2d04b000fa8fcee06afdde964c2", "lat": 38.911530166666665, "fusion_lat": 0.0, "lon": -77.08753333333334, "is_disabled": 0, "fusion_lon": 0.0, "rental_uris": {"android": "https://dc.lft.to/lastmile_qr_scan", "ios": "https://dc.lft.to/lastmile_qr_scan"}, "type": "electric_scooter"}, {"bike_id": "bc3a1a6e75e059f3a3daedac996224e8", "is_reserved": 0, "name": "bc3a1a6e75e059f3a3daedac996224e8", "lat": 38.8960565, "fusion_lat": 0.0, "lon": -77.00928283333333, "is_disabled": 0, "fusion_lon": 0.0, "rental_uris": {"android": "https://dc.lft.to/lastmile_qr_scan", "ios": "https://dc.lft.to/lastmile_qr_scan"}, "type": "electric_scooter"}, {"bike_id": "8c8e0fe6003ff86f6e2903c626d9010e", "is_reserved": 0, "name": "8c8e0fe6003ff86f6e2903c626d9010e", "lat": 38.900932833333336, "fusion_lat": 0.0, "lon": -77.0504315, "is_disabled": 0, "fusion_lon": 0.0, "rental_uris": {"android": "https://dc.lft.to/lastmile_qr_scan", "ios": "https://dc.lft.to/lastmile_qr_scan"}, "type": "electric_scooter"}, {"bike_id": "9ee74e27be691dde7e92e173fbf9cf5a", "is_reserved": 0, "name": "9ee74e27be691dde7e92e173fbf9cf5a", "lat": 38.91711633333333, "fusion_lat": 0.0, "lon": -77.03553483333333, "is_disabled": 0, "fusion_lon": 0.0, "rental_uris": {"android": "https://dc.lft.to/lastmile_qr_scan", "ios": "https://dc.lft.to/lastmile_qr_scan"}, "type": "electric_scooter"}, {"bike_id": "81311a71121eda318430e0e6c36c4846", "is_reserved": 0, "name": "81311a71121eda318430e0e6c36c4846", "lat": 38.90083333333333, "fusion_lat": 0.0, "lon": -77.051406, "is_disabled": 0, "fusion_lon": 0.0, "rental_uris": {"android": "https://dc.lft.to/lastmile_qr_scan", "ios": "https://dc.lft.to/lastmile_qr_scan"}, "type": "electric_scooter"}, {"bike_id": "89aa453fc965bbf22eb125a1888bef4e", "is_reserved": 0, "name": "89aa453fc965bbf22eb125a1888bef4e", "lat": 38.912957166666665, "fusion_lat": 0.0, "lon": -76.98470383333333, "is_disabled": 0, "fusion_lon": 0.0, "rental_uris": {"android": "https://dc.lft.to/lastmile_qr_scan", "ios": "https://dc.lft.to/lastmile_qr_scan"}, "type": "electric_scooter"}, {"bike_id": "9b42f97013f03f6c164a9ecd628af9ce", "is_reserved": 0, "name": "9b42f97013f03f6c164a9ecd628af9ce", "lat": 38.89542083333333, "fusion_lat": 0.0, "lon": -76.98337766666667, "is_disabled": 0, "fusion_lon": 0.0, "rental_uris": {"android": "https://dc.lft.to/lastmile_qr_scan", "ios": "https://dc.lft.to/lastmile_qr_scan"}, "type": "electric_scooter"}, {"bike_id": "2337e1793a679d12ea116aee794effbe", "is_reserved": 0, "name": "2337e1793a679d12ea116aee794effbe", "lat": 38.900764833333334, "fusion_lat": 0.0, "lon": -76.92958316666666, "is_disabled": 0, "fusion_lon": 0.0, "rental_uris": {"android": "https://dc.lft.to/lastmile_qr_scan", "ios": "https://dc.lft.to/lastmile_qr_scan"}, "type": "electric_scooter"}, {"bike_id": "b304c3a8d888c00313604f21534a29d9", "is_reserved": 0, "name": "b304c3a8d888c00313604f21534a29d9", "lat": 38.92340216666667, "fusion_lat": 0.0, "lon": -77.05214933333333, "is_disabled": 0, "fusion_lon": 0.0, "rental_uris": {"android": "https://dc.lft.to/lastmile_qr_scan", "ios": "https://dc.lft.to/lastmile_qr_scan"}, "type": "electric_scooter"}, {"bike_id": "ba640364bc1562ea2e58f52b570eb0af", "is_reserved": 0, "name": "ba640364bc1562ea2e58f52b570eb0af", "lat": 38.901309499999996, "fusion_lat": 0.0, "lon": -77.04491833333333, "is_disabled": 0, "fusion_lon": 0.0, "rental_uris": {"android": "https://dc.lft.to/lastmile_qr_scan", "ios": "https://dc.lft.to/lastmile_qr_scan"}, "type": "electric_scooter"}, {"bike_id": "a2a99a490d567ed4d42ac1d141043f08", "is_reserved": 0, "name": "a2a99a490d567ed4d42ac1d141043f08", "lat": 38.921772, "fusion_lat": 0.0, "lon": -77.038287, "is_disabled": 0, "fusion_lon": 0.0, "rental_uris": {"android": "https://dc.lft.to/lastmile_qr_scan", "ios": "https://dc.lft.to/lastmile_qr_scan"}, "type": "electric_scooter"}, {"bike_id": "31bf33b4d753fe1b939fbbf39cb74fec", "is_reserved": 0, "name": "31bf33b4d753fe1b939fbbf39cb74fec", "lat": 38.8713335, "fusion_lat": 0.0, "lon": -77.01225316666667, "is_disabled": 0, "fusion_lon": 0.0, "rental_uris": {"android": "https://dc.lft.to/lastmile_qr_scan", "ios": "https://dc.lft.to/lastmile_qr_scan"}, "type": "electric_scooter"}, {"bike_id": "42bcff44033426766ce1ed89f041ced4", "is_reserved": 0, "name": "42bcff44033426766ce1ed89f041ced4", "lat": 38.90856083333333, "fusion_lat": 0.0, "lon": -77.00374983333333, "is_disabled": 0, "fusion_lon": 0.0, "rental_uris": {"android": "https://dc.lft.to/lastmile_qr_scan", "ios": "https://dc.lft.to/lastmile_qr_scan"}, "type": "electric_scooter"}, {"bike_id": "c093e9c110c2cad84380704ce04c32d0", "is_reserved": 0, "name": "c093e9c110c2cad84380704ce04c32d0", "lat": 38.90028233333334, "fusion_lat": 0.0, "lon": -76.991347, "is_disabled": 0, "fusion_lon": 0.0, "rental_uris": {"android": "https://dc.lft.to/lastmile_qr_scan", "ios": "https://dc.lft.to/lastmile_qr_scan"}, "type": "electric_scooter"}, {"bike_id": "6fa107ee63049c4347f3527dde8de221", "is_reserved": 0, "name": "6fa107ee63049c4347f3527dde8de221", "lat": 38.95196133333334, "fusion_lat": 0.0, "lon": -77.027394, "is_disabled": 0, "fusion_lon": 0.0, "rental_uris": {"android": "https://dc.lft.to/lastmile_qr_scan", "ios": "https://dc.lft.to/lastmile_qr_scan"}, "type": "electric_scooter"}, {"bike_id": "311f4c85c8a0e7d46665f34393d7d625", "is_reserved": 0, "name": "311f4c85c8a0e7d46665f34393d7d625", "lat": 38.821729833333336, "fusion_lat": 0.0, "lon": -77.00149933333333, "is_disabled": 0, "fusion_lon": 0.0, "rental_uris": {"android": "https://dc.lft.to/lastmile_qr_scan", "ios": "https://dc.lft.to/lastmile_qr_scan"}, "type": "electric_bike"}, {"bike_id": "eb6ea13189815128845579ec3df476e2", "is_reserved": 0, "name": "eb6ea13189815128845579ec3df476e2", "lat": 38.91490916666667, "fusion_lat": 0.0, "lon": -77.042444, "is_disabled": 0, "fusion_lon": 0.0, "rental_uris": {"android": "https://dc.lft.to/lastmile_qr_scan", "ios": "https://dc.lft.to/lastmile_qr_scan"}, "type": "electric_scooter"}, {"bike_id": "48e58101501752fb918d850a953ca965", "is_reserved": 0, "name": "48e58101501752fb918d850a953ca965", "lat": 38.92471466666667, "fusion_lat": 0.0, "lon": -77.02213516666667, "is_disabled": 0, "fusion_lon": 0.0, "rental_uris": {"android": "https://dc.lft.to/lastmile_qr_scan", "ios": "https://dc.lft.to/lastmile_qr_scan"}, "type": "electric_scooter"}, {"bike_id": "9175a54e74c64b330d73c34e6d6b0d06", "is_reserved": 0, "name": "9175a54e74c64b330d73c34e6d6b0d06", "lat": 38.912318666666664, "fusion_lat": 0.0, "lon": -77.04876166666666, "is_disabled": 0, "fusion_lon": 0.0, "rental_uris": {"android": "https://dc.lft.to/lastmile_qr_scan", "ios": "https://dc.lft.to/lastmile_qr_scan"}, "type": "electric_scooter"}, {"bike_id": "1819eec67d04d337d68fba3c1bf8e1c6", "is_reserved": 0, "name": "1819eec67d04d337d68fba3c1bf8e1c6", "lat": 38.915783166666664, "fusion_lat": 0.0, "lon": -77.01229466666666, "is_disabled": 0, "fusion_lon": 0.0, "rental_uris": {"android": "https://dc.lft.to/lastmile_qr_scan", "ios": "https://dc.lft.to/lastmile_qr_scan"}, "type": "electric_scooter"}, {"bike_id": "49479409b0ea6aa923fe174054ffb179", "is_reserved": 0, "name": "49479409b0ea6aa923fe174054ffb179", "lat": 38.92587833333333, "fusion_lat": 0.0, "lon": -77.05298266666667, "is_disabled": 0, "fusion_lon": 0.0, "rental_uris": {"android": "https://dc.lft.to/lastmile_qr_scan", "ios": "https://dc.lft.to/lastmile_qr_scan"}, "type": "electric_scooter"}, {"bike_id": "55c2b54440fa4e2689aeba1ab6b258d3", "is_reserved": 0, "name": "55c2b54440fa4e2689aeba1ab6b258d3", "lat": 38.91710966666667, "fusion_lat": 0.0, "lon": -77.03247966666666, "is_disabled": 0, "fusion_lon": 0.0, "rental_uris": {"android": "https://dc.lft.to/lastmile_qr_scan", "ios": "https://dc.lft.to/lastmile_qr_scan"}, "type": "electric_scooter"}, {"bike_id": "7d985d43b7f970fef40c000cfee76bfb", "is_reserved": 0, "name": "7d985d43b7f970fef40c000cfee76bfb", "lat": 38.910177, "fusion_lat": 0.0, "lon": -77.03434, "is_disabled": 0, "fusion_lon": 0.0, "rental_uris": {"android": "https://dc.lft.to/lastmile_qr_scan", "ios": "https://dc.lft.to/lastmile_qr_scan"}, "type": "electric_scooter"}, {"bike_id": "7fe48dbfa6de65dc81820941f67c16c0", "is_reserved": 0, "name": "7fe48dbfa6de65dc81820941f67c16c0", "lat": 38.898907333333334, "fusion_lat": 0.0, "lon": -76.9806675, "is_disabled": 0, "fusion_lon": 0.0, "rental_uris": {"android": "https://dc.lft.to/lastmile_qr_scan", "ios": "https://dc.lft.to/lastmile_qr_scan"}, "type": "electric_scooter"}, {"bike_id": "82d17b951bb69e8a294648f2bbc15326", "is_reserved": 0, "name": "82d17b951bb69e8a294648f2bbc15326", "lat": 38.9055635, "fusion_lat": 0.0, "lon": -77.00584183333333, "is_disabled": 0, "fusion_lon": 0.0, "rental_uris": {"android": "https://dc.lft.to/lastmile_qr_scan", "ios": "https://dc.lft.to/lastmile_qr_scan"}, "type": "electric_scooter"}, {"bike_id": "77535443d9ef50fa748966431e1c08c6", "is_reserved": 0, "name": "77535443d9ef50fa748966431e1c08c6", "lat": 38.9000815, "fusion_lat": 0.0, "lon": -77.00669416666666, "is_disabled": 0, "fusion_lon": 0.0, "rental_uris": {"android": "https://dc.lft.to/lastmile_qr_scan", "ios": "https://dc.lft.to/lastmile_qr_scan"}, "type": "electric_scooter"}, {"bike_id": "2ede890cafce2363e4b139c2a4670217", "is_reserved": 0, "name": "2ede890cafce2363e4b139c2a4670217", "lat": 38.91742883333333, "fusion_lat": 0.0, "lon": -77.069388, "is_disabled": 0, "fusion_lon": 0.0, "rental_uris": {"android": "https://dc.lft.to/lastmile_qr_scan", "ios": "https://dc.lft.to/lastmile_qr_scan"}, "type": "electric_scooter"}, {"bike_id": "296bb41cf71bb14f8b56ab0aa54ce4e9", "is_reserved": 0, "name": "296bb41cf71bb14f8b56ab0aa54ce4e9", "lat": 39.07056466666667, "fusion_lat": 0.0, "lon": -77.11506966666667, "is_disabled": 0, "fusion_lon": 0.0, "rental_uris": {"android": "https://dc.lft.to/lastmile_qr_scan", "ios": "https://dc.lft.to/lastmile_qr_scan"}, "type": "electric_bike"}, {"bike_id": "0b29561991be9b9a664eb87479f6e1a7", "is_reserved": 0, "name": "0b29561991be9b9a664eb87479f6e1a7", "lat": 38.9171565, "fusion_lat": 0.0, "lon": -77.03857883333333, "is_disabled": 0, "fusion_lon": 0.0, "rental_uris": {"android": "https://dc.lft.to/lastmile_qr_scan", "ios": "https://dc.lft.to/lastmile_qr_scan"}, "type": "electric_scooter"}, {"bike_id": "77db7f6b136b790ca90980f26e111008", "is_reserved": 0, "name": "77db7f6b136b790ca90980f26e111008", "lat": 38.90146633333333, "fusion_lat": 0.0, "lon": -77.01909933333333, "is_disabled": 0, "fusion_lon": 0.0, "rental_uris": {"android": "https://dc.lft.to/lastmile_qr_scan", "ios": "https://dc.lft.to/lastmile_qr_scan"}, "type": "electric_scooter"}, {"bike_id": "1de7e2173cb3e22c5ceee393d5f4ac15", "is_reserved": 0, "name": "1de7e2173cb3e22c5ceee393d5f4ac15", "lat": 38.875325833333335, "fusion_lat": 0.0, "lon": -77.00506483333334, "is_disabled": 0, "fusion_lon": 0.0, "rental_uris": {"android": "https://dc.lft.to/lastmile_qr_scan", "ios": "https://dc.lft.to/lastmile_qr_scan"}, "type": "electric_scooter"}, {"bike_id": "fe928732980061f7b66325ebe3d1672b", "is_reserved": 0, "name": "fe928732980061f7b66325ebe3d1672b", "lat": 38.900634, "fusion_lat": 0.0, "lon": -76.927451, "is_disabled": 0, "fusion_lon": 0.0, "rental_uris": {"android": "https://dc.lft.to/lastmile_qr_scan", "ios": "https://dc.lft.to/lastmile_qr_scan"}, "type": "electric_scooter"}, {"bike_id": "1c9771c9a7696943c6f8eb9254e6c619", "is_reserved": 0, "name": "1c9771c9a7696943c6f8eb9254e6c619", "lat": 38.86960066666666, "fusion_lat": 0.0, "lon": -77.01368233333334, "is_disabled": 0, "fusion_lon": 0.0, "rental_uris": {"android": "https://dc.lft.to/lastmile_qr_scan", "ios": "https://dc.lft.to/lastmile_qr_scan"}, "type": "electric_scooter"}, {"bike_id": "3283c0b84a11f8695983b77bae8020df", "is_reserved": 0, "name": "3283c0b84a11f8695983b77bae8020df", "lat": 38.89555383333333, "fusion_lat": 0.0, "lon": -76.9486965, "is_disabled": 0, "fusion_lon": 0.0, "rental_uris": {"android": "https://dc.lft.to/lastmile_qr_scan", "ios": "https://dc.lft.to/lastmile_qr_scan"}, "type": "electric_scooter"}, {"bike_id": "7b9150a245046aec54dc040394afd398", "is_reserved": 0, "name": "7b9150a245046aec54dc040394afd398", "lat": 38.90267133333333, "fusion_lat": 0.0, "lon": -77.02016283333333, "is_disabled": 0, "fusion_lon": 0.0, "rental_uris": {"android": "https://dc.lft.to/lastmile_qr_scan", "ios": "https://dc.lft.to/lastmile_qr_scan"}, "type": "electric_scooter"}, {"bike_id": "8113bc4118b3a7a3dcd4d9d2dd697139", "is_reserved": 0, "name": "8113bc4118b3a7a3dcd4d9d2dd697139", "lat": 38.90972583333333, "fusion_lat": 0.0, "lon": -77.03291016666667, "is_disabled": 0, "fusion_lon": 0.0, "rental_uris": {"android": "https://dc.lft.to/lastmile_qr_scan", "ios": "https://dc.lft.to/lastmile_qr_scan"}, "type": "electric_scooter"}, {"bike_id": "7513528c5e81da847b6ee032e074cc93", "is_reserved": 0, "name": "7513528c5e81da847b6ee032e074cc93", "lat": 38.8953725, "fusion_lat": 0.0, "lon": -76.94957416666666, "is_disabled": 0, "fusion_lon": 0.0, "rental_uris": {"android": "https://dc.lft.to/lastmile_qr_scan", "ios": "https://dc.lft.to/lastmile_qr_scan"}, "type": "electric_scooter"}, {"bike_id": "a60ef914efce6fcc2b513c5f568a89ff", "is_reserved": 0, "name": "a60ef914efce6fcc2b513c5f568a89ff", "lat": 38.905572166666666, "fusion_lat": 0.0, "lon": -77.00687933333333, "is_disabled": 0, "fusion_lon": 0.0, "rental_uris": {"android": "https://dc.lft.to/lastmile_qr_scan", "ios": "https://dc.lft.to/lastmile_qr_scan"}, "type": "electric_scooter"}, {"bike_id": "56c612b39f9f7b5da96d6aa276977f00", "is_reserved": 0, "name": "56c612b39f9f7b5da96d6aa276977f00", "lat": 38.911091, "fusion_lat": 0.0, "lon": -77.04540683333333, "is_disabled": 0, "fusion_lon": 0.0, "rental_uris": {"android": "https://dc.lft.to/lastmile_qr_scan", "ios": "https://dc.lft.to/lastmile_qr_scan"}, "type": "electric_scooter"}, {"bike_id": "db0b37d865203d7114287318ca9ebb3c", "is_reserved": 0, "name": "db0b37d865203d7114287318ca9ebb3c", "lat": 38.9170655, "fusion_lat": 0.0, "lon": -77.03769283333334, "is_disabled": 0, "fusion_lon": 0.0, "rental_uris": {"android": "https://dc.lft.to/lastmile_qr_scan", "ios": "https://dc.lft.to/lastmile_qr_scan"}, "type": "electric_scooter"}, {"bike_id": "8eeb443ab69c48830fc16041c53a54f6", "is_reserved": 0, "name": "8eeb443ab69c48830fc16041c53a54f6", "lat": 38.90962666666667, "fusion_lat": 0.0, "lon": -77.0240835, "is_disabled": 0, "fusion_lon": 0.0, "rental_uris": {"android": "https://dc.lft.to/lastmile_qr_scan", "ios": "https://dc.lft.to/lastmile_qr_scan"}, "type": "electric_scooter"}, {"bike_id": "f8df48447687bd32d754952439730ea5", "is_reserved": 0, "name": "f8df48447687bd32d754952439730ea5", "lat": 38.9274405, "fusion_lat": 0.0, "lon": -77.02434816666667, "is_disabled": 0, "fusion_lon": 0.0, "rental_uris": {"android": "https://dc.lft.to/lastmile_qr_scan", "ios": "https://dc.lft.to/lastmile_qr_scan"}, "type": "electric_scooter"}, {"bike_id": "8af478ce8a7a74c6ccdb4f7684042869", "is_reserved": 0, "name": "8af478ce8a7a74c6ccdb4f7684042869", "lat": 38.948821, "fusion_lat": 0.0, "lon": -77.03861733333333, "is_disabled": 0, "fusion_lon": 0.0, "rental_uris": {"android": "https://dc.lft.to/lastmile_qr_scan", "ios": "https://dc.lft.to/lastmile_qr_scan"}, "type": "electric_bike"}, {"bike_id": "05276b4a976c7594066333a8f22e5d86", "is_reserved": 0, "name": "05276b4a976c7594066333a8f22e5d86", "lat": 38.897230666666665, "fusion_lat": 0.0, "lon": -77.02325966666666, "is_disabled": 0, "fusion_lon": 0.0, "rental_uris": {"android": "https://dc.lft.to/lastmile_qr_scan", "ios": "https://dc.lft.to/lastmile_qr_scan"}, "type": "electric_scooter"}, {"bike_id": "56b3be02c6ae0d1cd30ef7b476bac06d", "is_reserved": 0, "name": "56b3be02c6ae0d1cd30ef7b476bac06d", "lat": 38.80759466666667, "fusion_lat": 0.0, "lon": -77.129812, "is_disabled": 0, "fusion_lon": 0.0, "rental_uris": {"android": "https://dc.lft.to/lastmile_qr_scan", "ios": "https://dc.lft.to/lastmile_qr_scan"}, "type": "electric_bike"}, {"bike_id": "9293e1fb1f5402db5ce5d357aa80abb8", "is_reserved": 0, "name": "9293e1fb1f5402db5ce5d357aa80abb8", "lat": 38.904191833333336, "fusion_lat": 0.0, "lon": -77.0199405, "is_disabled": 0, "fusion_lon": 0.0, "rental_uris": {"android": "https://dc.lft.to/lastmile_qr_scan", "ios": "https://dc.lft.to/lastmile_qr_scan"}, "type": "electric_scooter"}, {"bike_id": "a966fc6b91643927961eef632758e8b8", "is_reserved": 0, "name": "a966fc6b91643927961eef632758e8b8", "lat": 38.9368805, "fusion_lat": 0.0, "lon": -76.990574, "is_disabled": 0, "fusion_lon": 0.0, "rental_uris": {"android": "https://dc.lft.to/lastmile_qr_scan", "ios": "https://dc.lft.to/lastmile_qr_scan"}, "type": "electric_bike"}, {"bike_id": "1f4fc3cb9859e5dcbfe641a4c0b27b08", "is_reserved": 0, "name": "1f4fc3cb9859e5dcbfe641a4c0b27b08", "lat": 38.87181983333333, "fusion_lat": 0.0, "lon": -77.005789, "is_disabled": 0, "fusion_lon": 0.0, "rental_uris": {"android": "https://dc.lft.to/lastmile_qr_scan", "ios": "https://dc.lft.to/lastmile_qr_scan"}, "type": "electric_scooter"}, {"bike_id": "ddc5e7fa34b728037fc63ece5aa7c0bd", "is_reserved": 0, "name": "ddc5e7fa34b728037fc63ece5aa7c0bd", "lat": 38.9385215, "fusion_lat": 0.0, "lon": -77.02470416666667, "is_disabled": 0, "fusion_lon": 0.0, "rental_uris": {"android": "https://dc.lft.to/lastmile_qr_scan", "ios": "https://dc.lft.to/lastmile_qr_scan"}, "type": "electric_scooter"}, {"bike_id": "90257d2ce3801e704f37679c8b3a04ee", "is_reserved": 0, "name": "90257d2ce3801e704f37679c8b3a04ee", "lat": 38.8996965, "fusion_lat": 0.0, "lon": -77.01858083333333, "is_disabled": 0, "fusion_lon": 0.0, "rental_uris": {"android": "https://dc.lft.to/lastmile_qr_scan", "ios": "https://dc.lft.to/lastmile_qr_scan"}, "type": "electric_scooter"}, {"bike_id": "9686e4b9b7d6a27b9b1172bd0d941e31", "is_reserved": 0, "name": "9686e4b9b7d6a27b9b1172bd0d941e31", "lat": 38.91121316666667, "fusion_lat": 0.0, "lon": -77.03753466666667, "is_disabled": 0, "fusion_lon": 0.0, "rental_uris": {"android": "https://dc.lft.to/lastmile_qr_scan", "ios": "https://dc.lft.to/lastmile_qr_scan"}, "type": "electric_scooter"}, {"bike_id": "2b5c6ba40c514d1ff4774d5eb847c4ff", "is_reserved": 0, "name": "2b5c6ba40c514d1ff4774d5eb847c4ff", "lat": 38.8972425, "fusion_lat": 0.0, "lon": -77.02562133333333, "is_disabled": 0, "fusion_lon": 0.0, "rental_uris": {"android": "https://dc.lft.to/lastmile_qr_scan", "ios": "https://dc.lft.to/lastmile_qr_scan"}, "type": "electric_scooter"}, {"bike_id": "0d96149662bb2e004540b0bac654345b", "is_reserved": 0, "name": "0d96149662bb2e004540b0bac654345b", "lat": 38.922983, "fusion_lat": 0.0, "lon": -77.04291033333334, "is_disabled": 0, "fusion_lon": 0.0, "rental_uris": {"android": "https://dc.lft.to/lastmile_qr_scan", "ios": "https://dc.lft.to/lastmile_qr_scan"}, "type": "electric_scooter"}, {"bike_id": "152ee606c8d5843346e8adbdf9dfd40c", "is_reserved": 0, "name": "152ee606c8d5843346e8adbdf9dfd40c", "lat": 38.919203833333334, "fusion_lat": 0.0, "lon": -77.02505683333334, "is_disabled": 0, "fusion_lon": 0.0, "rental_uris": {"android": "https://dc.lft.to/lastmile_qr_scan", "ios": "https://dc.lft.to/lastmile_qr_scan"}, "type": "electric_scooter"}, {"bike_id": "14af8c19f589183703bd8ed69c7223f2", "is_reserved": 0, "name": "14af8c19f589183703bd8ed69c7223f2", "lat": 38.902672833333334, "fusion_lat": 0.0, "lon": -77.03456433333334, "is_disabled": 0, "fusion_lon": 0.0, "rental_uris": {"android": "https://dc.lft.to/lastmile_qr_scan", "ios": "https://dc.lft.to/lastmile_qr_scan"}, "type": "electric_scooter"}, {"bike_id": "eb47e6588a27582bc8fa83ca77b26659", "is_reserved": 0, "name": "eb47e6588a27582bc8fa83ca77b26659", "lat": 38.90106, "fusion_lat": 0.0, "lon": -76.97422933333333, "is_disabled": 0, "fusion_lon": 0.0, "rental_uris": {"android": "https://dc.lft.to/lastmile_qr_scan", "ios": "https://dc.lft.to/lastmile_qr_scan"}, "type": "electric_scooter"}, {"bike_id": "194aea12b4458ee45cd6a2d125eed0c1", "is_reserved": 0, "name": "194aea12b4458ee45cd6a2d125eed0c1", "lat": 38.922982, "fusion_lat": 0.0, "lon": -77.02328833333333, "is_disabled": 0, "fusion_lon": 0.0, "rental_uris": {"android": "https://dc.lft.to/lastmile_qr_scan", "ios": "https://dc.lft.to/lastmile_qr_scan"}, "type": "electric_scooter"}, {"bike_id": "8524348ef681368f2ae216b9f74c45ad", "is_reserved": 0, "name": "8524348ef681368f2ae216b9f74c45ad", "lat": 38.922703, "fusion_lat": 0.0, "lon": -77.01875483333333, "is_disabled": 0, "fusion_lon": 0.0, "rental_uris": {"android": "https://dc.lft.to/lastmile_qr_scan", "ios": "https://dc.lft.to/lastmile_qr_scan"}, "type": "electric_scooter"}, {"bike_id": "cf20af6e158c014262c440ec1e044d15", "is_reserved": 0, "name": "cf20af6e158c014262c440ec1e044d15", "lat": 38.907999833333335, "fusion_lat": 0.0, "lon": -77.03451333333334, "is_disabled": 0, "fusion_lon": 0.0, "rental_uris": {"android": "https://dc.lft.to/lastmile_qr_scan", "ios": "https://dc.lft.to/lastmile_qr_scan"}, "type": "electric_scooter"}, {"bike_id": "a988ab6218c7770716976180710e56a7", "is_reserved": 0, "name": "a988ab6218c7770716976180710e56a7", "lat": 38.89617066666667, "fusion_lat": 0.0, "lon": -77.04427033333333, "is_disabled": 0, "fusion_lon": 0.0, "rental_uris": {"android": "https://dc.lft.to/lastmile_qr_scan", "ios": "https://dc.lft.to/lastmile_qr_scan"}, "type": "electric_scooter"}, {"bike_id": "65960cdf65e8ba2792d7f267a5f28ed5", "is_reserved": 0, "name": "65960cdf65e8ba2792d7f267a5f28ed5", "lat": 38.91814133333333, "fusion_lat": 0.0, "lon": -77.0324935, "is_disabled": 0, "fusion_lon": 0.0, "rental_uris": {"android": "https://dc.lft.to/lastmile_qr_scan", "ios": "https://dc.lft.to/lastmile_qr_scan"}, "type": "electric_scooter"}, {"bike_id": "739f92c318f1c4387d4673fefdd43ba3", "is_reserved": 0, "name": "739f92c318f1c4387d4673fefdd43ba3", "lat": 38.926113, "fusion_lat": 0.0, "lon": -77.07569683333334, "is_disabled": 0, "fusion_lon": 0.0, "rental_uris": {"android": "https://dc.lft.to/lastmile_qr_scan", "ios": "https://dc.lft.to/lastmile_qr_scan"}, "type": "electric_scooter"}, {"bike_id": "407d984b0021d78622dce023c18f48be", "is_reserved": 0, "name": "407d984b0021d78622dce023c18f48be", "lat": 38.919386333333335, "fusion_lat": 0.0, "lon": -77.03196616666666, "is_disabled": 0, "fusion_lon": 0.0, "rental_uris": {"android": "https://dc.lft.to/lastmile_qr_scan", "ios": "https://dc.lft.to/lastmile_qr_scan"}, "type": "electric_scooter"}, {"bike_id": "4bce6b33f45f175635b335e735c61c4f", "is_reserved": 0, "name": "4bce6b33f45f175635b335e735c61c4f", "lat": 38.944435166666665, "fusion_lat": 0.0, "lon": -77.02914416666667, "is_disabled": 0, "fusion_lon": 0.0, "rental_uris": {"android": "https://dc.lft.to/lastmile_qr_scan", "ios": "https://dc.lft.to/lastmile_qr_scan"}, "type": "electric_scooter"}, {"bike_id": "c501cc7bb23ce65b936619c1ac2d6bae", "is_reserved": 0, "name": "c501cc7bb23ce65b936619c1ac2d6bae", "lat": 38.92236716666667, "fusion_lat": 0.0, "lon": -77.02091466666667, "is_disabled": 0, "fusion_lon": 0.0, "rental_uris": {"android": "https://dc.lft.to/lastmile_qr_scan", "ios": "https://dc.lft.to/lastmile_qr_scan"}, "type": "electric_scooter"}, {"bike_id": "cf53506f64147a1abde369e45e37df31", "is_reserved": 0, "name": "cf53506f64147a1abde369e45e37df31", "lat": 38.88738716666667, "fusion_lat": 0.0, "lon": -77.00322416666667, "is_disabled": 0, "fusion_lon": 0.0, "rental_uris": {"android": "https://dc.lft.to/lastmile_qr_scan", "ios": "https://dc.lft.to/lastmile_qr_scan"}, "type": "electric_scooter"}, {"bike_id": "1be98eef5df19a2e8e844457342a959e", "is_reserved": 0, "name": "1be98eef5df19a2e8e844457342a959e", "lat": 38.86043433333333, "fusion_lat": 0.0, "lon": -77.00346016666667, "is_disabled": 0, "fusion_lon": 0.0, "rental_uris": {"android": "https://dc.lft.to/lastmile_qr_scan", "ios": "https://dc.lft.to/lastmile_qr_scan"}, "type": "electric_scooter"}, {"bike_id": "c5007e3d342ae0ef30377af25d31aa6b", "is_reserved": 0, "name": "c5007e3d342ae0ef30377af25d31aa6b", "lat": 38.92503633333333, "fusion_lat": 0.0, "lon": -77.05738683333334, "is_disabled": 0, "fusion_lon": 0.0, "rental_uris": {"android": "https://dc.lft.to/lastmile_qr_scan", "ios": "https://dc.lft.to/lastmile_qr_scan"}, "type": "electric_bike"}, {"bike_id": "be8058f055670658c8f552cde47a4e79", "is_reserved": 0, "name": "be8058f055670658c8f552cde47a4e79", "lat": 38.915582666666666, "fusion_lat": 0.0, "lon": -77.01051533333333, "is_disabled": 0, "fusion_lon": 0.0, "rental_uris": {"android": "https://dc.lft.to/lastmile_qr_scan", "ios": "https://dc.lft.to/lastmile_qr_scan"}, "type": "electric_scooter"}, {"bike_id": "ee00a9b60492112ac9381ba93e1f5d21", "is_reserved": 0, "name": "ee00a9b60492112ac9381ba93e1f5d21", "lat": 38.89884516666667, "fusion_lat": 0.0, "lon": -76.99289966666667, "is_disabled": 0, "fusion_lon": 0.0, "rental_uris": {"android": "https://dc.lft.to/lastmile_qr_scan", "ios": "https://dc.lft.to/lastmile_qr_scan"}, "type": "electric_scooter"}, {"bike_id": "fe7850277b174c169e359db6d7ea35c9", "is_reserved": 0, "name": "fe7850277b174c169e359db6d7ea35c9", "lat": 38.9236945, "fusion_lat": 0.0, "lon": -77.0279755, "is_disabled": 0, "fusion_lon": 0.0, "rental_uris": {"android": "https://dc.lft.to/lastmile_qr_scan", "ios": "https://dc.lft.to/lastmile_qr_scan"}, "type": "electric_scooter"}, {"bike_id": "6b5fe5d9c495b2d1c314a860a4c8a996", "is_reserved": 0, "name": "6b5fe5d9c495b2d1c314a860a4c8a996", "lat": 38.91188833333333, "fusion_lat": 0.0, "lon": -77.0321675, "is_disabled": 0, "fusion_lon": 0.0, "rental_uris": {"android": "https://dc.lft.to/lastmile_qr_scan", "ios": "https://dc.lft.to/lastmile_qr_scan"}, "type": "electric_scooter"}, {"bike_id": "f0a32b03b251d556369b7486b65a864e", "is_reserved": 0, "name": "f0a32b03b251d556369b7486b65a864e", "lat": 38.91994866666667, "fusion_lat": 0.0, "lon": -77.03280433333333, "is_disabled": 0, "fusion_lon": 0.0, "rental_uris": {"android": "https://dc.lft.to/lastmile_qr_scan", "ios": "https://dc.lft.to/lastmile_qr_scan"}, "type": "electric_scooter"}, {"bike_id": "a9ed4b932ef0f986da5fad534080890c", "is_reserved": 0, "name": "a9ed4b932ef0f986da5fad534080890c", "lat": 38.90250066666667, "fusion_lat": 0.0, "lon": -76.984793, "is_disabled": 0, "fusion_lon": 0.0, "rental_uris": {"android": "https://dc.lft.to/lastmile_qr_scan", "ios": "https://dc.lft.to/lastmile_qr_scan"}, "type": "electric_scooter"}, {"bike_id": "14658df702802bcc2048be74973e83a9", "is_reserved": 0, "name": "14658df702802bcc2048be74973e83a9", "lat": 38.907704, "fusion_lat": 0.0, "lon": -77.0320265, "is_disabled": 0, "fusion_lon": 0.0, "rental_uris": {"android": "https://dc.lft.to/lastmile_qr_scan", "ios": "https://dc.lft.to/lastmile_qr_scan"}, "type": "electric_scooter"}, {"bike_id": "cc0b656420b3f423e14b6cb9217658fd", "is_reserved": 0, "name": "cc0b656420b3f423e14b6cb9217658fd", "lat": 38.9951055, "fusion_lat": 0.0, "lon": -76.9996095, "is_disabled": 0, "fusion_lon": 0.0, "rental_uris": {"android": "https://dc.lft.to/lastmile_qr_scan", "ios": "https://dc.lft.to/lastmile_qr_scan"}, "type": "electric_bike"}, {"bike_id": "f95882f064b6af9561bea338376a82b1", "is_reserved": 0, "name": "f95882f064b6af9561bea338376a82b1", "lat": 38.88533983333333, "fusion_lat": 0.0, "lon": -76.97886166666666, "is_disabled": 0, "fusion_lon": 0.0, "rental_uris": {"android": "https://dc.lft.to/lastmile_qr_scan", "ios": "https://dc.lft.to/lastmile_qr_scan"}, "type": "electric_scooter"}, {"bike_id": "67de56a96d8bae5edec29edd1b214555", "is_reserved": 0, "name": "67de56a96d8bae5edec29edd1b214555", "lat": 38.916923833333335, "fusion_lat": 0.0, "lon": -77.04271383333334, "is_disabled": 0, "fusion_lon": 0.0, "rental_uris": {"android": "https://dc.lft.to/lastmile_qr_scan", "ios": "https://dc.lft.to/lastmile_qr_scan"}, "type": "electric_scooter"}, {"bike_id": "cba103d881044bff35f192797cd739f5", "is_reserved": 0, "name": "cba103d881044bff35f192797cd739f5", "lat": 38.86931383333334, "fusion_lat": 0.0, "lon": -77.01369716666666, "is_disabled": 0, "fusion_lon": 0.0, "rental_uris": {"android": "https://dc.lft.to/lastmile_qr_scan", "ios": "https://dc.lft.to/lastmile_qr_scan"}, "type": "electric_scooter"}, {"bike_id": "84dbc73e60eead3f92e46f4cbe68fbf3", "is_reserved": 0, "name": "84dbc73e60eead3f92e46f4cbe68fbf3", "lat": 38.93055416666667, "fusion_lat": 0.0, "lon": -77.0362425, "is_disabled": 0, "fusion_lon": 0.0, "rental_uris": {"android": "https://dc.lft.to/lastmile_qr_scan", "ios": "https://dc.lft.to/lastmile_qr_scan"}, "type": "electric_scooter"}, {"bike_id": "3f3f774ef5c6695d8f2f995a0a9a7a02", "is_reserved": 0, "name": "3f3f774ef5c6695d8f2f995a0a9a7a02", "lat": 38.879055666666666, "fusion_lat": 0.0, "lon": -76.99492983333333, "is_disabled": 0, "fusion_lon": 0.0, "rental_uris": {"android": "https://dc.lft.to/lastmile_qr_scan", "ios": "https://dc.lft.to/lastmile_qr_scan"}, "type": "electric_scooter"}, {"bike_id": "661cf68b010a4c60d3dd66b6fe57b3ed", "is_reserved": 0, "name": "661cf68b010a4c60d3dd66b6fe57b3ed", "lat": 38.9286185, "fusion_lat": 0.0, "lon": -77.03334816666667, "is_disabled": 0, "fusion_lon": 0.0, "rental_uris": {"android": "https://dc.lft.to/lastmile_qr_scan", "ios": "https://dc.lft.to/lastmile_qr_scan"}, "type": "electric_scooter"}, {"bike_id": "84bfeaaa4b032c453bc5d5cbc0bf857d", "is_reserved": 0, "name": "84bfeaaa4b032c453bc5d5cbc0bf857d", "lat": 38.95934116666667, "fusion_lat": 0.0, "lon": -76.92835633333334, "is_disabled": 0, "fusion_lon": 0.0, "rental_uris": {"android": "https://dc.lft.to/lastmile_qr_scan", "ios": "https://dc.lft.to/lastmile_qr_scan"}, "type": "electric_bike"}, {"bike_id": "3952acb06d32911ae46b90631ad4b544", "is_reserved": 0, "name": "3952acb06d32911ae46b90631ad4b544", "lat": 38.9255095, "fusion_lat": 0.0, "lon": -77.05266166666667, "is_disabled": 0, "fusion_lon": 0.0, "rental_uris": {"android": "https://dc.lft.to/lastmile_qr_scan", "ios": "https://dc.lft.to/lastmile_qr_scan"}, "type": "electric_scooter"}, {"bike_id": "141a5d47293a3ecdaa10864b9651c896", "is_reserved": 0, "name": "141a5d47293a3ecdaa10864b9651c896", "lat": 38.922870333333336, "fusion_lat": 0.0, "lon": -77.0365965, "is_disabled": 0, "fusion_lon": 0.0, "rental_uris": {"android": "https://dc.lft.to/lastmile_qr_scan", "ios": "https://dc.lft.to/lastmile_qr_scan"}, "type": "electric_scooter"}, {"bike_id": "f9eaed68018bf06a922eb96b80ea13cc", "is_reserved": 0, "name": "f9eaed68018bf06a922eb96b80ea13cc", "lat": 38.91692233333333, "fusion_lat": 0.0, "lon": -77.038251, "is_disabled": 0, "fusion_lon": 0.0, "rental_uris": {"android": "https://dc.lft.to/lastmile_qr_scan", "ios": "https://dc.lft.to/lastmile_qr_scan"}, "type": "electric_scooter"}, {"bike_id": "f05ee16f8e774536526835fe8e9e9acc", "is_reserved": 0, "name": "f05ee16f8e774536526835fe8e9e9acc", "lat": 38.895804, "fusion_lat": 0.0, "lon": -76.9832165, "is_disabled": 0, "fusion_lon": 0.0, "rental_uris": {"android": "https://dc.lft.to/lastmile_qr_scan", "ios": "https://dc.lft.to/lastmile_qr_scan"}, "type": "electric_scooter"}, {"bike_id": "889c0928cad294b90562ff95e3ec977a", "is_reserved": 0, "name": "889c0928cad294b90562ff95e3ec977a", "lat": 38.9232885, "fusion_lat": 0.0, "lon": -77.01895633333334, "is_disabled": 0, "fusion_lon": 0.0, "rental_uris": {"android": "https://dc.lft.to/lastmile_qr_scan", "ios": "https://dc.lft.to/lastmile_qr_scan"}, "type": "electric_scooter"}, {"bike_id": "fc4eb1638ee6d0b7e88dc6a28da14372", "is_reserved": 0, "name": "fc4eb1638ee6d0b7e88dc6a28da14372", "lat": 38.93853133333333, "fusion_lat": 0.0, "lon": -77.0247165, "is_disabled": 0, "fusion_lon": 0.0, "rental_uris": {"android": "https://dc.lft.to/lastmile_qr_scan", "ios": "https://dc.lft.to/lastmile_qr_scan"}, "type": "electric_scooter"}, {"bike_id": "507f625fadd6680e88fd49655605eeff", "is_reserved": 0, "name": "507f625fadd6680e88fd49655605eeff", "lat": 38.926399333333336, "fusion_lat": 0.0, "lon": -77.03706866666667, "is_disabled": 0, "fusion_lon": 0.0, "rental_uris": {"android": "https://dc.lft.to/lastmile_qr_scan", "ios": "https://dc.lft.to/lastmile_qr_scan"}, "type": "electric_scooter"}, {"bike_id": "c0b2f84d2820f50cb4026aaa1b0c893e", "is_reserved": 0, "name": "c0b2f84d2820f50cb4026aaa1b0c893e", "lat": 38.91632033333333, "fusion_lat": 0.0, "lon": -77.04015766666667, "is_disabled": 0, "fusion_lon": 0.0, "rental_uris": {"android": "https://dc.lft.to/lastmile_qr_scan", "ios": "https://dc.lft.to/lastmile_qr_scan"}, "type": "electric_scooter"}, {"bike_id": "1650cb0d3d9f560dd2765a3821e5a8a1", "is_reserved": 0, "name": "1650cb0d3d9f560dd2765a3821e5a8a1", "lat": 38.88747083333333, "fusion_lat": 0.0, "lon": -77.02123516666667, "is_disabled": 0, "fusion_lon": 0.0, "rental_uris": {"android": "https://dc.lft.to/lastmile_qr_scan", "ios": "https://dc.lft.to/lastmile_qr_scan"}, "type": "electric_scooter"}, {"bike_id": "a9884ab1f279969d11e3e1372e83d857", "is_reserved": 0, "name": "a9884ab1f279969d11e3e1372e83d857", "lat": 38.973509666666665, "fusion_lat": 0.0, "lon": -77.02786733333333, "is_disabled": 0, "fusion_lon": 0.0, "rental_uris": {"android": "https://dc.lft.to/lastmile_qr_scan", "ios": "https://dc.lft.to/lastmile_qr_scan"}, "type": "electric_scooter"}, {"bike_id": "54398dce728180e35abea2511e08f40c", "is_reserved": 0, "name": "54398dce728180e35abea2511e08f40c", "lat": 38.92375916666667, "fusion_lat": 0.0, "lon": -77.03058466666667, "is_disabled": 0, "fusion_lon": 0.0, "rental_uris": {"android": "https://dc.lft.to/lastmile_qr_scan", "ios": "https://dc.lft.to/lastmile_qr_scan"}, "type": "electric_scooter"}, {"bike_id": "6bf40a7e2eac430bb603c740652aa2ea", "is_reserved": 0, "name": "6bf40a7e2eac430bb603c740652aa2ea", "lat": 38.965900833333336, "fusion_lat": 0.0, "lon": -77.01591533333334, "is_disabled": 0, "fusion_lon": 0.0, "rental_uris": {"android": "https://dc.lft.to/lastmile_qr_scan", "ios": "https://dc.lft.to/lastmile_qr_scan"}, "type": "electric_scooter"}, {"bike_id": "b5ca6b9870dee07334f0207a1f70cb17", "is_reserved": 0, "name": "b5ca6b9870dee07334f0207a1f70cb17", "lat": 38.90613166666667, "fusion_lat": 0.0, "lon": -77.0238475, "is_disabled": 0, "fusion_lon": 0.0, "rental_uris": {"android": "https://dc.lft.to/lastmile_qr_scan", "ios": "https://dc.lft.to/lastmile_qr_scan"}, "type": "electric_scooter"}, {"bike_id": "b7df94c8c7a972b25c7586e99395f25c", "is_reserved": 0, "name": "b7df94c8c7a972b25c7586e99395f25c", "lat": 38.870645333333336, "fusion_lat": 0.0, "lon": -77.00980383333334, "is_disabled": 0, "fusion_lon": 0.0, "rental_uris": {"android": "https://dc.lft.to/lastmile_qr_scan", "ios": "https://dc.lft.to/lastmile_qr_scan"}, "type": "electric_scooter"}, {"bike_id": "248a91a659fb249dbbe401c6d0c1ea82", "is_reserved": 0, "name": "248a91a659fb249dbbe401c6d0c1ea82", "lat": 38.8419055, "fusion_lat": 0.0, "lon": -77.06757216666666, "is_disabled": 0, "fusion_lon": 0.0, "rental_uris": {"android": "https://dc.lft.to/lastmile_qr_scan", "ios": "https://dc.lft.to/lastmile_qr_scan"}, "type": "electric_bike"}, {"bike_id": "085697ba7f65f1d355c3775012f592f1", "is_reserved": 0, "name": "085697ba7f65f1d355c3775012f592f1", "lat": 38.90966983333333, "fusion_lat": 0.0, "lon": -77.05193833333334, "is_disabled": 0, "fusion_lon": 0.0, "rental_uris": {"android": "https://dc.lft.to/lastmile_qr_scan", "ios": "https://dc.lft.to/lastmile_qr_scan"}, "type": "electric_scooter"}, {"bike_id": "52cc43c06440ecbe0ac326643cc42c2e", "is_reserved": 0, "name": "52cc43c06440ecbe0ac326643cc42c2e", "lat": 38.863933, "fusion_lat": 0.0, "lon": -77.20109666666667, "is_disabled": 0, "fusion_lon": 0.0, "rental_uris": {"android": "https://dc.lft.to/lastmile_qr_scan", "ios": "https://dc.lft.to/lastmile_qr_scan"}, "type": "electric_bike"}, {"bike_id": "db02500e5abddff6a8dd374e4ab5d499", "is_reserved": 0, "name": "db02500e5abddff6a8dd374e4ab5d499", "lat": 38.90226033333333, "fusion_lat": 0.0, "lon": -77.02602116666667, "is_disabled": 0, "fusion_lon": 0.0, "rental_uris": {"android": "https://dc.lft.to/lastmile_qr_scan", "ios": "https://dc.lft.to/lastmile_qr_scan"}, "type": "electric_scooter"}, {"bike_id": "54a3818cd4721068790a60fa93675208", "is_reserved": 0, "name": "54a3818cd4721068790a60fa93675208", "lat": 38.90734166666667, "fusion_lat": 0.0, "lon": -77.05712683333333, "is_disabled": 0, "fusion_lon": 0.0, "rental_uris": {"android": "https://dc.lft.to/lastmile_qr_scan", "ios": "https://dc.lft.to/lastmile_qr_scan"}, "type": "electric_scooter"}, {"bike_id": "9223d3de0968365dde315b18aec15571", "is_reserved": 0, "name": "9223d3de0968365dde315b18aec15571", "lat": 38.92433483333333, "fusion_lat": 0.0, "lon": -76.9972055, "is_disabled": 0, "fusion_lon": 0.0, "rental_uris": {"android": "https://dc.lft.to/lastmile_qr_scan", "ios": "https://dc.lft.to/lastmile_qr_scan"}, "type": "electric_scooter"}, {"bike_id": "1de9484f57746a124cb736d0182017b0", "is_reserved": 0, "name": "1de9484f57746a124cb736d0182017b0", "lat": 38.92025616666667, "fusion_lat": 0.0, "lon": -77.07159783333333, "is_disabled": 0, "fusion_lon": 0.0, "rental_uris": {"android": "https://dc.lft.to/lastmile_qr_scan", "ios": "https://dc.lft.to/lastmile_qr_scan"}, "type": "electric_scooter"}, {"bike_id": "a69deb7c602cb9f3dc0a9c4df12b2530", "is_reserved": 0, "name": "a69deb7c602cb9f3dc0a9c4df12b2530", "lat": 38.90486033333333, "fusion_lat": 0.0, "lon": -76.98877283333333, "is_disabled": 0, "fusion_lon": 0.0, "rental_uris": {"android": "https://dc.lft.to/lastmile_qr_scan", "ios": "https://dc.lft.to/lastmile_qr_scan"}, "type": "electric_scooter"}, {"bike_id": "f9d46506e3255c0a6b672187ff7d0ac6", "is_reserved": 0, "name": "f9d46506e3255c0a6b672187ff7d0ac6", "lat": 38.89697316666667, "fusion_lat": 0.0, "lon": -76.96305833333334, "is_disabled": 0, "fusion_lon": 0.0, "rental_uris": {"android": "https://dc.lft.to/lastmile_qr_scan", "ios": "https://dc.lft.to/lastmile_qr_scan"}, "type": "electric_bike"}, {"bike_id": "ed2ef43d257676775bd5041d6470c761", "is_reserved": 0, "name": "ed2ef43d257676775bd5041d6470c761", "lat": 38.941854166666666, "fusion_lat": 0.0, "lon": -77.02617216666667, "is_disabled": 0, "fusion_lon": 0.0, "rental_uris": {"android": "https://dc.lft.to/lastmile_qr_scan", "ios": "https://dc.lft.to/lastmile_qr_scan"}, "type": "electric_scooter"}, {"bike_id": "3fb4cf76d33b730e049ca4d6b07e2e89", "is_reserved": 0, "name": "3fb4cf76d33b730e049ca4d6b07e2e89", "lat": 38.90521116666667, "fusion_lat": 0.0, "lon": -77.06061966666667, "is_disabled": 0, "fusion_lon": 0.0, "rental_uris": {"android": "https://dc.lft.to/lastmile_qr_scan", "ios": "https://dc.lft.to/lastmile_qr_scan"}, "type": "electric_scooter"}, {"bike_id": "b2b4b9e5b72dffb5cd3a146b2da6cb28", "is_reserved": 0, "name": "b2b4b9e5b72dffb5cd3a146b2da6cb28", "lat": 38.92412366666667, "fusion_lat": 0.0, "lon": -77.019429, "is_disabled": 0, "fusion_lon": 0.0, "rental_uris": {"android": "https://dc.lft.to/lastmile_qr_scan", "ios": "https://dc.lft.to/lastmile_qr_scan"}, "type": "electric_scooter"}, {"bike_id": "dda128f4a904b2cb1994fccd68c0630a", "is_reserved": 0, "name": "dda128f4a904b2cb1994fccd68c0630a", "lat": 38.92437666666667, "fusion_lat": 0.0, "lon": -76.9899075, "is_disabled": 0, "fusion_lon": 0.0, "rental_uris": {"android": "https://dc.lft.to/lastmile_qr_scan", "ios": "https://dc.lft.to/lastmile_qr_scan"}, "type": "electric_scooter"}, {"bike_id": "17be2751c776208f8532bd024784a06b", "is_reserved": 0, "name": "17be2751c776208f8532bd024784a06b", "lat": 38.913422, "fusion_lat": 0.0, "lon": -77.01737583333333, "is_disabled": 0, "fusion_lon": 0.0, "rental_uris": {"android": "https://dc.lft.to/lastmile_qr_scan", "ios": "https://dc.lft.to/lastmile_qr_scan"}, "type": "electric_scooter"}, {"bike_id": "40e35f370e3330b814736538380ab535", "is_reserved": 0, "name": "40e35f370e3330b814736538380ab535", "lat": 38.9096455, "fusion_lat": 0.0, "lon": -77.0240535, "is_disabled": 0, "fusion_lon": 0.0, "rental_uris": {"android": "https://dc.lft.to/lastmile_qr_scan", "ios": "https://dc.lft.to/lastmile_qr_scan"}, "type": "electric_scooter"}, {"bike_id": "ccc34a600a94713c11816c19fee992f4", "is_reserved": 0, "name": "ccc34a600a94713c11816c19fee992f4", "lat": 38.930744, "fusion_lat": 0.0, "lon": -77.02791016666667, "is_disabled": 0, "fusion_lon": 0.0, "rental_uris": {"android": "https://dc.lft.to/lastmile_qr_scan", "ios": "https://dc.lft.to/lastmile_qr_scan"}, "type": "electric_scooter"}, {"bike_id": "987b44fbefdb51c68e8cda2295e11efe", "is_reserved": 0, "name": "987b44fbefdb51c68e8cda2295e11efe", "lat": 38.923190166666664, "fusion_lat": 0.0, "lon": -77.03971666666666, "is_disabled": 0, "fusion_lon": 0.0, "rental_uris": {"android": "https://dc.lft.to/lastmile_qr_scan", "ios": "https://dc.lft.to/lastmile_qr_scan"}, "type": "electric_scooter"}, {"bike_id": "c55c055a5f76f2167b4eeb16d7510e91", "is_reserved": 0, "name": "c55c055a5f76f2167b4eeb16d7510e91", "lat": 38.887467666666666, "fusion_lat": 0.0, "lon": -76.99604533333333, "is_disabled": 0, "fusion_lon": 0.0, "rental_uris": {"android": "https://dc.lft.to/lastmile_qr_scan", "ios": "https://dc.lft.to/lastmile_qr_scan"}, "type": "electric_scooter"}, {"bike_id": "adfee6e4416e804e177b9f33b204d0fb", "is_reserved": 0, "name": "adfee6e4416e804e177b9f33b204d0fb", "lat": 38.898566, "fusion_lat": 0.0, "lon": -77.01374383333334, "is_disabled": 0, "fusion_lon": 0.0, "rental_uris": {"android": "https://dc.lft.to/lastmile_qr_scan", "ios": "https://dc.lft.to/lastmile_qr_scan"}, "type": "electric_scooter"}, {"bike_id": "01cf16d6134922d7b2f8967bbdb497e4", "is_reserved": 0, "name": "01cf16d6134922d7b2f8967bbdb497e4", "lat": 38.92367316666667, "fusion_lat": 0.0, "lon": -77.0407975, "is_disabled": 0, "fusion_lon": 0.0, "rental_uris": {"android": "https://dc.lft.to/lastmile_qr_scan", "ios": "https://dc.lft.to/lastmile_qr_scan"}, "type": "electric_scooter"}, {"bike_id": "32056a5d9a310d3e9ffb291af68a882a", "is_reserved": 0, "name": "32056a5d9a310d3e9ffb291af68a882a", "lat": 38.90680116666667, "fusion_lat": 0.0, "lon": -77.026874, "is_disabled": 0, "fusion_lon": 0.0, "rental_uris": {"android": "https://dc.lft.to/lastmile_qr_scan", "ios": "https://dc.lft.to/lastmile_qr_scan"}, "type": "electric_scooter"}, {"bike_id": "abd022fd7a870b531529f2f17312e2e9", "is_reserved": 0, "name": "abd022fd7a870b531529f2f17312e2e9", "lat": 38.883437, "fusion_lat": 0.0, "lon": -77.0316715, "is_disabled": 0, "fusion_lon": 0.0, "rental_uris": {"android": "https://dc.lft.to/lastmile_qr_scan", "ios": "https://dc.lft.to/lastmile_qr_scan"}, "type": "electric_scooter"}, {"bike_id": "60d4c7f3b966186237acc6d7e29adefc", "is_reserved": 0, "name": "60d4c7f3b966186237acc6d7e29adefc", "lat": 38.905063166666665, "fusion_lat": 0.0, "lon": -77.0294695, "is_disabled": 0, "fusion_lon": 0.0, "rental_uris": {"android": "https://dc.lft.to/lastmile_qr_scan", "ios": "https://dc.lft.to/lastmile_qr_scan"}, "type": "electric_scooter"}, {"bike_id": "07da9dbc3301b104f3524cc247192ddd", "is_reserved": 0, "name": "07da9dbc3301b104f3524cc247192ddd", "lat": 38.9055915, "fusion_lat": 0.0, "lon": -77.02106, "is_disabled": 0, "fusion_lon": 0.0, "rental_uris": {"android": "https://dc.lft.to/lastmile_qr_scan", "ios": "https://dc.lft.to/lastmile_qr_scan"}, "type": "electric_scooter"}, {"bike_id": "75e75c2ef0634765f102b742f2640827", "is_reserved": 0, "name": "75e75c2ef0634765f102b742f2640827", "lat": 38.847579333333336, "fusion_lat": 0.0, "lon": -76.99498983333334, "is_disabled": 0, "fusion_lon": 0.0, "rental_uris": {"android": "https://dc.lft.to/lastmile_qr_scan", "ios": "https://dc.lft.to/lastmile_qr_scan"}, "type": "electric_scooter"}, {"bike_id": "8fcd0b8400dadce5d6ba6d50b43f7066", "is_reserved": 0, "name": "8fcd0b8400dadce5d6ba6d50b43f7066", "lat": 38.922294, "fusion_lat": 0.0, "lon": -76.975306, "is_disabled": 0, "fusion_lon": 0.0, "rental_uris": {"android": "https://dc.lft.to/lastmile_qr_scan", "ios": "https://dc.lft.to/lastmile_qr_scan"}, "type": "electric_scooter"}, {"bike_id": "491fab4667d01089a329ee4d3038b6b5", "is_reserved": 0, "name": "491fab4667d01089a329ee4d3038b6b5", "lat": 38.9169505, "fusion_lat": 0.0, "lon": -77.031093, "is_disabled": 0, "fusion_lon": 0.0, "rental_uris": {"android": "https://dc.lft.to/lastmile_qr_scan", "ios": "https://dc.lft.to/lastmile_qr_scan"}, "type": "electric_scooter"}, {"bike_id": "31cfb2bda3545d0c6d58ce255b11e452", "is_reserved": 0, "name": "31cfb2bda3545d0c6d58ce255b11e452", "lat": 38.908403666666665, "fusion_lat": 0.0, "lon": -77.04369, "is_disabled": 0, "fusion_lon": 0.0, "rental_uris": {"android": "https://dc.lft.to/lastmile_qr_scan", "ios": "https://dc.lft.to/lastmile_qr_scan"}, "type": "electric_scooter"}, {"bike_id": "d52b347fa430f684a5688b4f3dbd1e11", "is_reserved": 0, "name": "d52b347fa430f684a5688b4f3dbd1e11", "lat": 38.901454666666666, "fusion_lat": 0.0, "lon": -76.974243, "is_disabled": 0, "fusion_lon": 0.0, "rental_uris": {"android": "https://dc.lft.to/lastmile_qr_scan", "ios": "https://dc.lft.to/lastmile_qr_scan"}, "type": "electric_scooter"}, {"bike_id": "1a75eddc6d8d26388cb3506e2e3b3c6a", "is_reserved": 0, "name": "1a75eddc6d8d26388cb3506e2e3b3c6a", "lat": 38.91610716666667, "fusion_lat": 0.0, "lon": -77.045286, "is_disabled": 0, "fusion_lon": 0.0, "rental_uris": {"android": "https://dc.lft.to/lastmile_qr_scan", "ios": "https://dc.lft.to/lastmile_qr_scan"}, "type": "electric_scooter"}, {"bike_id": "ea5c9fa9dbd749dbcdc7b2123368e857", "is_reserved": 0, "name": "ea5c9fa9dbd749dbcdc7b2123368e857", "lat": 38.90698016666666, "fusion_lat": 0.0, "lon": -77.03584966666666, "is_disabled": 0, "fusion_lon": 0.0, "rental_uris": {"android": "https://dc.lft.to/lastmile_qr_scan", "ios": "https://dc.lft.to/lastmile_qr_scan"}, "type": "electric_scooter"}, {"bike_id": "56984c38afdc0eb1f29ffeebe4947ad5", "is_reserved": 0, "name": "56984c38afdc0eb1f29ffeebe4947ad5", "lat": 38.920205, "fusion_lat": 0.0, "lon": -77.03121133333333, "is_disabled": 0, "fusion_lon": 0.0, "rental_uris": {"android": "https://dc.lft.to/lastmile_qr_scan", "ios": "https://dc.lft.to/lastmile_qr_scan"}, "type": "electric_scooter"}, {"bike_id": "1775682f26fb0264087db67de4e0c496", "is_reserved": 0, "name": "1775682f26fb0264087db67de4e0c496", "lat": 38.88747, "fusion_lat": 0.0, "lon": -77.01771566666666, "is_disabled": 0, "fusion_lon": 0.0, "rental_uris": {"android": "https://dc.lft.to/lastmile_qr_scan", "ios": "https://dc.lft.to/lastmile_qr_scan"}, "type": "electric_scooter"}, {"bike_id": "d18a2c222193abdb1cbb41c7162f638b", "is_reserved": 0, "name": "d18a2c222193abdb1cbb41c7162f638b", "lat": 38.915920166666666, "fusion_lat": 0.0, "lon": -77.01487516666667, "is_disabled": 0, "fusion_lon": 0.0, "rental_uris": {"android": "https://dc.lft.to/lastmile_qr_scan", "ios": "https://dc.lft.to/lastmile_qr_scan"}, "type": "electric_scooter"}, {"bike_id": "b5209d32b3131a7116ae8016083e534b", "is_reserved": 0, "name": "b5209d32b3131a7116ae8016083e534b", "lat": 38.887627333333334, "fusion_lat": 0.0, "lon": -76.9829435, "is_disabled": 0, "fusion_lon": 0.0, "rental_uris": {"android": "https://dc.lft.to/lastmile_qr_scan", "ios": "https://dc.lft.to/lastmile_qr_scan"}, "type": "electric_scooter"}, {"bike_id": "4a5c49cb4883a22936e700c6d2f614f7", "is_reserved": 0, "name": "4a5c49cb4883a22936e700c6d2f614f7", "lat": 38.91416783333333, "fusion_lat": 0.0, "lon": -77.0209855, "is_disabled": 0, "fusion_lon": 0.0, "rental_uris": {"android": "https://dc.lft.to/lastmile_qr_scan", "ios": "https://dc.lft.to/lastmile_qr_scan"}, "type": "electric_scooter"}, {"bike_id": "bb4520e3ffb9664ebb1ff08b44350d97", "is_reserved": 0, "name": "bb4520e3ffb9664ebb1ff08b44350d97", "lat": 38.99211783333333, "fusion_lat": 0.0, "lon": -77.03214283333334, "is_disabled": 0, "fusion_lon": 0.0, "rental_uris": {"android": "https://dc.lft.to/lastmile_qr_scan", "ios": "https://dc.lft.to/lastmile_qr_scan"}, "type": "electric_bike"}, {"bike_id": "3b87278b87bbd1df11e60461c032c862", "is_reserved": 0, "name": "3b87278b87bbd1df11e60461c032c862", "lat": 38.91932533333333, "fusion_lat": 0.0, "lon": -77.07065583333333, "is_disabled": 0, "fusion_lon": 0.0, "rental_uris": {"android": "https://dc.lft.to/lastmile_qr_scan", "ios": "https://dc.lft.to/lastmile_qr_scan"}, "type": "electric_scooter"}, {"bike_id": "d617a9ed2a015d9371f3f3e5cb695497", "is_reserved": 0, "name": "d617a9ed2a015d9371f3f3e5cb695497", "lat": 38.918132, "fusion_lat": 0.0, "lon": -77.031813, "is_disabled": 0, "fusion_lon": 0.0, "rental_uris": {"android": "https://dc.lft.to/lastmile_qr_scan", "ios": "https://dc.lft.to/lastmile_qr_scan"}, "type": "electric_scooter"}, {"bike_id": "02c8ef6ce5550e02ba98c1870f16a786", "is_reserved": 0, "name": "02c8ef6ce5550e02ba98c1870f16a786", "lat": 38.93847983333333, "fusion_lat": 0.0, "lon": -77.072279, "is_disabled": 0, "fusion_lon": 0.0, "rental_uris": {"android": "https://dc.lft.to/lastmile_qr_scan", "ios": "https://dc.lft.to/lastmile_qr_scan"}, "type": "electric_scooter"}, {"bike_id": "815c473fc21060ac66fed2d606884585", "is_reserved": 0, "name": "815c473fc21060ac66fed2d606884585", "lat": 38.902257666666664, "fusion_lat": 0.0, "lon": -77.05331366666667, "is_disabled": 0, "fusion_lon": 0.0, "rental_uris": {"android": "https://dc.lft.to/lastmile_qr_scan", "ios": "https://dc.lft.to/lastmile_qr_scan"}, "type": "electric_scooter"}, {"bike_id": "a8e0256e82c28eeb424ca5552362d287", "is_reserved": 0, "name": "a8e0256e82c28eeb424ca5552362d287", "lat": 38.973744833333335, "fusion_lat": 0.0, "lon": -77.01270916666667, "is_disabled": 0, "fusion_lon": 0.0, "rental_uris": {"android": "https://dc.lft.to/lastmile_qr_scan", "ios": "https://dc.lft.to/lastmile_qr_scan"}, "type": "electric_scooter"}, {"bike_id": "4828660fc3a7741f6aee92e5ee312d45", "is_reserved": 0, "name": "4828660fc3a7741f6aee92e5ee312d45", "lat": 38.966061833333335, "fusion_lat": 0.0, "lon": -77.02737883333333, "is_disabled": 0, "fusion_lon": 0.0, "rental_uris": {"android": "https://dc.lft.to/lastmile_qr_scan", "ios": "https://dc.lft.to/lastmile_qr_scan"}, "type": "electric_scooter"}, {"bike_id": "372691fcaab0549c04d24130a23860c0", "is_reserved": 0, "name": "372691fcaab0549c04d24130a23860c0", "lat": 38.935376833333336, "fusion_lat": 0.0, "lon": -77.05737366666666, "is_disabled": 0, "fusion_lon": 0.0, "rental_uris": {"android": "https://dc.lft.to/lastmile_qr_scan", "ios": "https://dc.lft.to/lastmile_qr_scan"}, "type": "electric_scooter"}, {"bike_id": "08cfa4214ebfaee4ca9983f21ce93cea", "is_reserved": 0, "name": "08cfa4214ebfaee4ca9983f21ce93cea", "lat": 38.906608166666665, "fusion_lat": 0.0, "lon": -76.98931633333333, "is_disabled": 0, "fusion_lon": 0.0, "rental_uris": {"android": "https://dc.lft.to/lastmile_qr_scan", "ios": "https://dc.lft.to/lastmile_qr_scan"}, "type": "electric_scooter"}, {"bike_id": "8da6d1b2e3014f09725eac21a98c91a9", "is_reserved": 0, "name": "8da6d1b2e3014f09725eac21a98c91a9", "lat": 38.892969666666666, "fusion_lat": 0.0, "lon": -77.012301, "is_disabled": 0, "fusion_lon": 0.0, "rental_uris": {"android": "https://dc.lft.to/lastmile_qr_scan", "ios": "https://dc.lft.to/lastmile_qr_scan"}, "type": "electric_scooter"}, {"bike_id": "38da84388ccf7519b49cd3da6b4413d4", "is_reserved": 0, "name": "38da84388ccf7519b49cd3da6b4413d4", "lat": 38.8132805, "fusion_lat": 0.0, "lon": -77.050852, "is_disabled": 0, "fusion_lon": 0.0, "rental_uris": {"android": "https://dc.lft.to/lastmile_qr_scan", "ios": "https://dc.lft.to/lastmile_qr_scan"}, "type": "electric_bike"}, {"bike_id": "a3b6415a994971207045d9cbb8fc46bd", "is_reserved": 0, "name": "a3b6415a994971207045d9cbb8fc46bd", "lat": 38.8874545, "fusion_lat": 0.0, "lon": -77.01777383333334, "is_disabled": 0, "fusion_lon": 0.0, "rental_uris": {"android": "https://dc.lft.to/lastmile_qr_scan", "ios": "https://dc.lft.to/lastmile_qr_scan"}, "type": "electric_scooter"}, {"bike_id": "c25f13d898d14150fdec49e549d666a6", "is_reserved": 0, "name": "c25f13d898d14150fdec49e549d666a6", "lat": 38.899835333333336, "fusion_lat": 0.0, "lon": -77.02202483333333, "is_disabled": 0, "fusion_lon": 0.0, "rental_uris": {"android": "https://dc.lft.to/lastmile_qr_scan", "ios": "https://dc.lft.to/lastmile_qr_scan"}, "type": "electric_scooter"}, {"bike_id": "2a8bfc103000d443c5b866f2f97c61a0", "is_reserved": 0, "name": "2a8bfc103000d443c5b866f2f97c61a0", "lat": 38.89007483333334, "fusion_lat": 0.0, "lon": -76.93697233333333, "is_disabled": 0, "fusion_lon": 0.0, "rental_uris": {"android": "https://dc.lft.to/lastmile_qr_scan", "ios": "https://dc.lft.to/lastmile_qr_scan"}, "type": "electric_scooter"}, {"bike_id": "10193ea76d8542b246f0b61c8cd00a26", "is_reserved": 0, "name": "10193ea76d8542b246f0b61c8cd00a26", "lat": 38.93608416666667, "fusion_lat": 0.0, "lon": -77.05857383333333, "is_disabled": 0, "fusion_lon": 0.0, "rental_uris": {"android": "https://dc.lft.to/lastmile_qr_scan", "ios": "https://dc.lft.to/lastmile_qr_scan"}, "type": "electric_scooter"}, {"bike_id": "ce44e3de815c863aae500d364418e69f", "is_reserved": 0, "name": "ce44e3de815c863aae500d364418e69f", "lat": 38.898264833333336, "fusion_lat": 0.0, "lon": -77.02795683333333, "is_disabled": 0, "fusion_lon": 0.0, "rental_uris": {"android": "https://dc.lft.to/lastmile_qr_scan", "ios": "https://dc.lft.to/lastmile_qr_scan"}, "type": "electric_scooter"}, {"bike_id": "cc5202f282523262d54eb8b16ee885cf", "is_reserved": 0, "name": "cc5202f282523262d54eb8b16ee885cf", "lat": 38.872089, "fusion_lat": 0.0, "lon": -77.01386733333334, "is_disabled": 0, "fusion_lon": 0.0, "rental_uris": {"android": "https://dc.lft.to/lastmile_qr_scan", "ios": "https://dc.lft.to/lastmile_qr_scan"}, "type": "electric_scooter"}, {"bike_id": "53bb091e6db65ef14c3eb8cfc46c3fa9", "is_reserved": 0, "name": "53bb091e6db65ef14c3eb8cfc46c3fa9", "lat": 38.89219716666667, "fusion_lat": 0.0, "lon": -77.04323133333334, "is_disabled": 0, "fusion_lon": 0.0, "rental_uris": {"android": "https://dc.lft.to/lastmile_qr_scan", "ios": "https://dc.lft.to/lastmile_qr_scan"}, "type": "electric_scooter"}, {"bike_id": "e770b95cd1d407396f8776c6423adf78", "is_reserved": 0, "name": "e770b95cd1d407396f8776c6423adf78", "lat": 38.83509266666667, "fusion_lat": 0.0, "lon": -76.98678233333334, "is_disabled": 0, "fusion_lon": 0.0, "rental_uris": {"android": "https://dc.lft.to/lastmile_qr_scan", "ios": "https://dc.lft.to/lastmile_qr_scan"}, "type": "electric_bike"}, {"bike_id": "4eb308f533fe0a97c19aa40e12d3202c", "is_reserved": 0, "name": "4eb308f533fe0a97c19aa40e12d3202c", "lat": 38.889965333333336, "fusion_lat": 0.0, "lon": -76.95441216666667, "is_disabled": 0, "fusion_lon": 0.0, "rental_uris": {"android": "https://dc.lft.to/lastmile_qr_scan", "ios": "https://dc.lft.to/lastmile_qr_scan"}, "type": "electric_scooter"}, {"bike_id": "5633467a760715ff7bc0bb3c9e1a4f1e", "is_reserved": 0, "name": "5633467a760715ff7bc0bb3c9e1a4f1e", "lat": 38.91402633333333, "fusion_lat": 0.0, "lon": -77.0298285, "is_disabled": 0, "fusion_lon": 0.0, "rental_uris": {"android": "https://dc.lft.to/lastmile_qr_scan", "ios": "https://dc.lft.to/lastmile_qr_scan"}, "type": "electric_scooter"}, {"bike_id": "665b59f03a115f3410e9b53bf2fa4fc2", "is_reserved": 0, "name": "665b59f03a115f3410e9b53bf2fa4fc2", "lat": 38.91780033333333, "fusion_lat": 0.0, "lon": -77.04339816666666, "is_disabled": 0, "fusion_lon": 0.0, "rental_uris": {"android": "https://dc.lft.to/lastmile_qr_scan", "ios": "https://dc.lft.to/lastmile_qr_scan"}, "type": "electric_scooter"}, {"bike_id": "47e47c796faa9f5bf9f7137bd602a3bf", "is_reserved": 0, "name": "47e47c796faa9f5bf9f7137bd602a3bf", "lat": 38.90146883333333, "fusion_lat": 0.0, "lon": -76.93066166666667, "is_disabled": 0, "fusion_lon": 0.0, "rental_uris": {"android": "https://dc.lft.to/lastmile_qr_scan", "ios": "https://dc.lft.to/lastmile_qr_scan"}, "type": "electric_scooter"}, {"bike_id": "abb2559a703257d62438bf4f21633bf7", "is_reserved": 0, "name": "abb2559a703257d62438bf4f21633bf7", "lat": 38.91089616666667, "fusion_lat": 0.0, "lon": -77.0448945, "is_disabled": 0, "fusion_lon": 0.0, "rental_uris": {"android": "https://dc.lft.to/lastmile_qr_scan", "ios": "https://dc.lft.to/lastmile_qr_scan"}, "type": "electric_scooter"}, {"bike_id": "dc1a0e829653f7d7a9eaac12850b19b2", "is_reserved": 0, "name": "dc1a0e829653f7d7a9eaac12850b19b2", "lat": 38.90196016666667, "fusion_lat": 0.0, "lon": -77.02371033333333, "is_disabled": 0, "fusion_lon": 0.0, "rental_uris": {"android": "https://dc.lft.to/lastmile_qr_scan", "ios": "https://dc.lft.to/lastmile_qr_scan"}, "type": "electric_scooter"}, {"bike_id": "3e95c0736923e52a0012425b1df170ba", "is_reserved": 0, "name": "3e95c0736923e52a0012425b1df170ba", "lat": 38.9242625, "fusion_lat": 0.0, "lon": -77.05175116666666, "is_disabled": 0, "fusion_lon": 0.0, "rental_uris": {"android": "https://dc.lft.to/lastmile_qr_scan", "ios": "https://dc.lft.to/lastmile_qr_scan"}, "type": "electric_scooter"}, {"bike_id": "4ec52af651589213e8440fb47ba4f783", "is_reserved": 0, "name": "4ec52af651589213e8440fb47ba4f783", "lat": 38.87478683333333, "fusion_lat": 0.0, "lon": -77.00117816666666, "is_disabled": 0, "fusion_lon": 0.0, "rental_uris": {"android": "https://dc.lft.to/lastmile_qr_scan", "ios": "https://dc.lft.to/lastmile_qr_scan"}, "type": "electric_scooter"}, {"bike_id": "8a231b9220b1385a584e5af48c377fed", "is_reserved": 0, "name": "8a231b9220b1385a584e5af48c377fed", "lat": 38.875593333333335, "fusion_lat": 0.0, "lon": -77.00606433333333, "is_disabled": 0, "fusion_lon": 0.0, "rental_uris": {"android": "https://dc.lft.to/lastmile_qr_scan", "ios": "https://dc.lft.to/lastmile_qr_scan"}, "type": "electric_scooter"}, {"bike_id": "fdb7eee2538e459d5c5e50665434692a", "is_reserved": 0, "name": "fdb7eee2538e459d5c5e50665434692a", "lat": 38.9505665, "fusion_lat": 0.0, "lon": -77.08025933333333, "is_disabled": 0, "fusion_lon": 0.0, "rental_uris": {"android": "https://dc.lft.to/lastmile_qr_scan", "ios": "https://dc.lft.to/lastmile_qr_scan"}, "type": "electric_scooter"}, {"bike_id": "95e209978d2b292fcc4fdcc89d6a7f32", "is_reserved": 0, "name": "95e209978d2b292fcc4fdcc89d6a7f32", "lat": 38.906819, "fusion_lat": 0.0, "lon": -76.9449545, "is_disabled": 0, "fusion_lon": 0.0, "rental_uris": {"android": "https://dc.lft.to/lastmile_qr_scan", "ios": "https://dc.lft.to/lastmile_qr_scan"}, "type": "electric_bike"}, {"bike_id": "f7102c3202a28c00b345e48ac73c85e6", "is_reserved": 0, "name": "f7102c3202a28c00b345e48ac73c85e6", "lat": 38.922334, "fusion_lat": 0.0, "lon": -77.04244566666667, "is_disabled": 0, "fusion_lon": 0.0, "rental_uris": {"android": "https://dc.lft.to/lastmile_qr_scan", "ios": "https://dc.lft.to/lastmile_qr_scan"}, "type": "electric_scooter"}, {"bike_id": "8299401817b0341c79fd2b5958e4dfed", "is_reserved": 0, "name": "8299401817b0341c79fd2b5958e4dfed", "lat": 38.9270715, "fusion_lat": 0.0, "lon": -77.02085983333333, "is_disabled": 0, "fusion_lon": 0.0, "rental_uris": {"android": "https://dc.lft.to/lastmile_qr_scan", "ios": "https://dc.lft.to/lastmile_qr_scan"}, "type": "electric_scooter"}, {"bike_id": "753d479e7712335ab091f22492659a97", "is_reserved": 0, "name": "753d479e7712335ab091f22492659a97", "lat": 38.9170625, "fusion_lat": 0.0, "lon": -77.02421916666667, "is_disabled": 0, "fusion_lon": 0.0, "rental_uris": {"android": "https://dc.lft.to/lastmile_qr_scan", "ios": "https://dc.lft.to/lastmile_qr_scan"}, "type": "electric_scooter"}, {"bike_id": "0bfc3a30fba13af2c349f742d6f3f88b", "is_reserved": 0, "name": "0bfc3a30fba13af2c349f742d6f3f88b", "lat": 38.86933766666667, "fusion_lat": 0.0, "lon": -77.01375633333333, "is_disabled": 0, "fusion_lon": 0.0, "rental_uris": {"android": "https://dc.lft.to/lastmile_qr_scan", "ios": "https://dc.lft.to/lastmile_qr_scan"}, "type": "electric_scooter"}, {"bike_id": "dcd69568612dc1c8f607184d5e361c44", "is_reserved": 0, "name": "dcd69568612dc1c8f607184d5e361c44", "lat": 38.898858833333335, "fusion_lat": 0.0, "lon": -76.9317455, "is_disabled": 0, "fusion_lon": 0.0, "rental_uris": {"android": "https://dc.lft.to/lastmile_qr_scan", "ios": "https://dc.lft.to/lastmile_qr_scan"}, "type": "electric_scooter"},