{"data": {"bikes": [{"type": "electric_scooter", "name": "3f1b883edee4610c3a26399dcae033d3", "lat": 38.927823333333336, "fusion_lat": 0.0, "bike_id": "3f1b883edee4610c3a26399dcae033d3", "is_reserved": 0, "lon": -77.00549916666667, "is_disabled": 0, "fusion_lon": 0.0, "rental_uris": {"android": "https://dc.lft.to/lastmile_qr_scan", "ios": "https://dc.lft.to/lastmile_qr_scan"}}, {"type": "electric_scooter", "name": "cea0afc0b88a6c7faf5206945077dcd1", "lat": 38.945115666666666, "fusion_lat": 0.0, "bike_id": "cea0afc0b88a6c7faf5206945077dcd1", "is_reserved": 0, "lon": -77.03355266666667, "is_disabled": 0, "fusion_lon": 0.0, "rental_uris": {"android": "https://dc.lft.to/lastmile_qr_scan", "ios": "https://dc.lft.to/lastmile_qr_scan"}}, {"type": "electric_bike", "name": "01fa4af9961808c0ba7aebe4032b4f3e", "lat": 38.844710166666665, "fusion_lat": 0.0, "bike_id": "01fa4af9961808c0ba7aebe4032b4f3e", "is_reserved": 0, "lon": -76.99880866666666, "is_disabled": 0, "fusion_lon": 0.0, "rental_uris": {"android": "https://dc.lft.to/lastmile_qr_scan", "ios": "https://dc.lft.to/lastmile_qr_scan"}}, {"type": "electric_scooter", "name": "f432c6a554b5d730d2a38771681cd0c0", "lat": 38.926124333333334, "fusion_lat": 0.0, "bike_id": "f432c6a554b5d730d2a38771681cd0c0", "is_reserved": 0, "lon": -77.02148016666666, "is_disabled": 0, "fusion_lon": 0.0, "rental_uris": {"android": "https://dc.lft.to/lastmile_qr_scan", "ios": "https://dc.lft.to/lastmile_qr_scan"}}, {"type": "electric_scooter", "name": "05c244beb80dcf38fd1f91f2d4d0d5fe", "lat": 38.909943, "fusion_lat": 0.0, "bike_id": "05c244beb80dcf38fd1f91f2d4d0d5fe", "is_reserved": 0, "lon": -77.03207633333334, "is_disabled": 0, "fusion_lon": 0.0, "rental_uris": {"android": "https://dc.lft.to/lastmile_qr_scan", "ios": "https://dc.lft.to/lastmile_qr_scan"}}, {"type": "electric_scooter", "name": "07487ad560fb3158eb6fd30a80dc9cd7", "lat": 38.90572316666667, "fusion_lat": 0.0, "bike_id": "07487ad560fb3158eb6fd30a80dc9cd7", "is_reserved": 0, "lon": -77.03486916666667, "is_disabled": 0, "fusion_lon": 0.0, "rental_uris": {"android": "https://dc.lft.to/lastmile_qr_scan", "ios": "https://dc.lft.to/lastmile_qr_scan"}}, {"type": "electric_scooter", "name": "85d1dd536c2f45df24845d81a8c8ce59", "lat": 38.9001605, "fusion_lat": 0.0, "bike_id": "85d1dd536c2f45df24845d81a8c8ce59", "is_reserved": 0, "lon": -76.9883705, "is_disabled": 0, "fusion_lon": 0.0, "rental_uris": {"android": "https://dc.lft.to/lastmile_qr_scan", "ios": "https://dc.lft.to/lastmile_qr_scan"}}, {"type": "electric_scooter", "name": "bb6a1d4bb9ddce9c84898746725c5634", "lat": 38.89717983333333, "fusion_lat": 0.0, "bike_id": "bb6a1d4bb9ddce9c84898746725c5634", "is_reserved": 0, "lon": -77.0266715, "is_disabled": 0, "fusion_lon": 0.0, "rental_uris": {"android": "https://dc.lft.to/lastmile_qr_scan", "ios": "https://dc.lft.to/lastmile_qr_scan"}}, {"type": "electric_scooter", "name": "6c9240723e2a8bb9716242340b754aab", "lat": 38.9257175, "fusion_lat": 0.0, "bike_id": "6c9240723e2a8bb9716242340b754aab", "is_reserved": 0, "lon": -77.02694466666667, "is_disabled": 0, "fusion_lon": 0.0, "rental_uris": {"android": "https://dc.lft.to/lastmile_qr_scan", "ios": "https://dc.lft.to/lastmile_qr_scan"}}, {"type": "electric_scooter", "name": "5f95da3338919ef3cc4405f67e479619", "lat": 38.923367166666665, "fusion_lat": 0.0, "bike_id": "5f95da3338919ef3cc4405f67e479619", "is_reserved": 0, "lon": -77.05350366666667, "is_disabled": 0, "fusion_lon": 0.0, "rental_uris": {"android": "https://dc.lft.to/lastmile_qr_scan", "ios": "https://dc.lft.to/lastmile_qr_scan"}}, {"type": "electric_bike", "name": "21ee9f0e3474f5113ac50539c05c3b92", "lat": 38.963244, "fusion_lat": 0.0, "bike_id": "21ee9f0e3474f5113ac50539c05c3b92", "is_reserved": 0, "lon": -77.01115516666667, "is_disabled": 0, "fusion_lon": 0.0, "rental_uris": {"android": "https://dc.lft.to/lastmile_qr_scan", "ios": "https://dc.lft.to/lastmile_qr_scan"}}, {"type": "electric_scooter", "name": "06a6e12a5bcedfdb82d3d13b426a723b", "lat": 38.90882083333333, "fusion_lat": 0.0, "bike_id": "06a6e12a5bcedfdb82d3d13b426a723b", "is_reserved": 0, "lon": -77.01999233333333, "is_disabled": 0, "fusion_lon": 0.0, "rental_uris": {"android": "https://dc.lft.to/lastmile_qr_scan", "ios": "https://dc.lft.to/lastmile_qr_scan"}}, {"type": "electric_scooter", "name": "444394eb45878bec2b3585f06f6ca7f5", "lat": 38.896267333333334, "fusion_lat": 0.0, "bike_id": "444394eb45878bec2b3585f06f6ca7f5", "is_reserved": 0, "lon": -77.03219266666666, "is_disabled": 0, "fusion_lon": 0.0, "rental_uris": {"android": "https://dc.lft.to/lastmile_qr_scan", "ios": "https://dc.lft.to/lastmile_qr_scan"}}, {"type": "electric_scooter", "name": "2bb775238b46b58679dc5a0b87f3d0e6", "lat": 38.87612333333333, "fusion_lat": 0.0, "bike_id": "2bb775238b46b58679dc5a0b87f3d0e6", "is_reserved": 0, "lon": -77.0093335, "is_disabled": 0, "fusion_lon": 0.0, "rental_uris": {"android": "https://dc.lft.to/lastmile_qr_scan", "ios": "https://dc.lft.to/lastmile_qr_scan"}}, {"type": "electric_scooter", "name": "fd8a9d559c687755da8a46deafff40b4", "lat": 38.928793666666664, "fusion_lat": 0.0, "bike_id": "fd8a9d559c687755da8a46deafff40b4", "is_reserved": 0, "lon": -77.01360866666667, "is_disabled": 0, "fusion_lon": 0.0, "rental_uris": {"android": "https://dc.lft.to/lastmile_qr_scan", "ios": "https://dc.lft.to/lastmile_qr_scan"}}, {"type": "electric_scooter", "name": "693598fb185c8c9df553c2c61b20d617", "lat": 38.903976666666665, "fusion_lat": 0.0, "bike_id": "693598fb185c8c9df553c2c61b20d617", "is_reserved": 0, "lon": -77.06393383333334, "is_disabled": 0, "fusion_lon": 0.0, "rental_uris": {"android": "https://dc.lft.to/lastmile_qr_scan", "ios": "https://dc.lft.to/lastmile_qr_scan"}}, {"type": "electric_bike", "name": "9659033cf12c14e54403d8a1fd4d5478", "lat": 38.937008166666665, "fusion_lat": 0.0, "bike_id": "9659033cf12c14e54403d8a1fd4d5478", "is_reserved": 0, "lon": -77.02116183333334, "is_disabled": 0, "fusion_lon": 0.0, "rental_uris": {"android": "https://dc.lft.to/lastmile_qr_scan", "ios": "https://dc.lft.to/lastmile_qr_scan"}}, {"type": "electric_bike", "name": "2a10828f5d8aaf4d4f07f2bced9570ed", "lat": 38.893581166666664, "fusion_lat": 0.0, "bike_id": "2a10828f5d8aaf4d4f07f2bced9570ed", "is_reserved": 0, "lon": -77.187425, "is_disabled": 0, "fusion_lon": 0.0, "rental_uris": {"android": "https://dc.lft.to/lastmile_qr_scan", "ios": "https://dc.lft.to/lastmile_qr_scan"}}, {"type": "electric_scooter", "name": "89c2bc2dcc04213957a37377c425846e", "lat": 38.86513433333333, "fusion_lat": 0.0, "bike_id": "89c2bc2dcc04213957a37377c425846e", "is_reserved": 0, "lon": -76.98998583333334, "is_disabled": 0, "fusion_lon": 0.0, "rental_uris": {"android": "https://dc.lft.to/lastmile_qr_scan", "ios": "https://dc.lft.to/lastmile_qr_scan"}}, {"type": "electric_scooter", "name": "8d5659298e71c52e1703b7558be2c03a", "lat": 38.92649466666667, "fusion_lat": 0.0, "bike_id": "8d5659298e71c52e1703b7558be2c03a", "is_reserved": 0, "lon": -77.03477066666666, "is_disabled": 0, "fusion_lon": 0.0, "rental_uris": {"android": "https://dc.lft.to/lastmile_qr_scan", "ios": "https://dc.lft.to/lastmile_qr_scan"}}, {"type": "electric_scooter", "name": "61a56357f54d07b152dde230938b44e8", "lat": 38.911295833333334, "fusion_lat": 0.0, "bike_id": "61a56357f54d07b152dde230938b44e8", "is_reserved": 0, "lon": -77.04416616666667, "is_disabled": 0, "fusion_lon": 0.0, "rental_uris": {"android": "https://dc.lft.to/lastmile_qr_scan", "ios": "https://dc.lft.to/lastmile_qr_scan"}}, {"type": "electric_scooter", "name": "ddd00b549f5f7a3e53071e0880d63e99", "lat": 38.931587666666665, "fusion_lat": 0.0, "bike_id": "ddd00b549f5f7a3e53071e0880d63e99", "is_reserved": 0, "lon": -77.03611833333333, "is_disabled": 0, "fusion_lon": 0.0, "rental_uris": {"android": "https://dc.lft.to/lastmile_qr_scan", "ios": "https://dc.lft.to/lastmile_qr_scan"}}, {"type": "electric_bike", "name": "e608e807dbe5f31480c1e9d3b2f07851", "lat": 38.97483416666667, "fusion_lat": 0.0, "bike_id": "e608e807dbe5f31480c1e9d3b2f07851", "is_reserved": 0, "lon": -77.01757966666666, "is_disabled": 0, "fusion_lon": 0.0, "rental_uris": {"android": "https://dc.lft.to/lastmile_qr_scan", "ios": "https://dc.lft.to/lastmile_qr_scan"}}, {"type": "electric_scooter", "name": "bc2cadaeedbeaa5b940b343d94e34519", "lat": 38.9236665, "fusion_lat": 0.0, "bike_id": "bc2cadaeedbeaa5b940b343d94e34519", "is_reserved": 0, "lon": -77.0502715, "is_disabled": 0, "fusion_lon": 0.0, "rental_uris": {"android": "https://dc.lft.to/lastmile_qr_scan", "ios": "https://dc.lft.to/lastmile_qr_scan"}}, {"type": "electric_scooter", "name": "b14b3c97d7c0a2ef90f1caaeed44656c", "lat": 38.866898666666664, "fusion_lat": 0.0, "bike_id": "b14b3c97d7c0a2ef90f1caaeed44656c", "is_reserved": 0, "lon": -76.98565183333334, "is_disabled": 0, "fusion_lon": 0.0, "rental_uris": {"android": "https://dc.lft.to/lastmile_qr_scan", "ios": "https://dc.lft.to/lastmile_qr_scan"}}, {"type": "electric_bike", "name": "de25879d8ec66db2cf5e1897f8f020d5", "lat": 38.99099416666667, "fusion_lat": 0.0, "bike_id": "de25879d8ec66db2cf5e1897f8f020d5", "is_reserved": 0, "lon": -76.99374766666666, "is_disabled": 0, "fusion_lon": 0.0, "rental_uris": {"android": "https://dc.lft.to/lastmile_qr_scan", "ios": "https://dc.lft.to/lastmile_qr_scan"}}, {"type": "electric_scooter", "name": "edbbfae2c9d170a270a14f7f295b4592", "lat": 38.892328166666665, "fusion_lat": 0.0, "bike_id": "edbbfae2c9d170a270a14f7f295b4592", "is_reserved": 0, "lon": -77.02203033333333, "is_disabled": 0, "fusion_lon": 0.0, "rental_uris": {"android": "https://dc.lft.to/lastmile_qr_scan", "ios": "https://dc.lft.to/lastmile_qr_scan"}}, {"type": "electric_bike", "name": "3cf21d342e0e166d6bc45a55f2c0fec7", "lat": 38.936937, "fusion_lat": 0.0, "bike_id": "3cf21d342e0e166d6bc45a55f2c0fec7", "is_reserved": 0, "lon": -76.99058, "is_disabled": 0, "fusion_lon": 0.0, "rental_uris": {"android": "https://dc.lft.to/lastmile_qr_scan", "ios": "https://dc.lft.to/lastmile_qr_scan"}}, {"type": "electric_scooter", "name": "d40a3c141f7b1b89738f360ea8b581d5", "lat": 38.877232, "fusion_lat": 0.0, "bike_id": "d40a3c141f7b1b89738f360ea8b581d5", "is_reserved": 0, "lon": -77.0044895, "is_disabled": 0, "fusion_lon": 0.0, "rental_uris": {"android": "https://dc.lft.to/lastmile_qr_scan", "ios": "https://dc.lft.to/lastmile_qr_scan"}}, {"type": "electric_scooter", "name": "c928a3a31ee686bcd2030c1dca3ce7c5", "lat": 38.89219166666667, "fusion_lat": 0.0, "bike_id": "c928a3a31ee686bcd2030c1dca3ce7c5", "is_reserved": 0, "lon": -77.02504283333333, "is_disabled": 0, "fusion_lon": 0.0, "rental_uris": {"android": "https://dc.lft.to/lastmile_qr_scan", "ios": "https://dc.lft.to/lastmile_qr_scan"}}, {"type": "electric_scooter", "name": "8c68a7bcb2667f0ccfec92f653364e6b", "lat": 38.8873125, "fusion_lat": 0.0, "bike_id": "8c68a7bcb2667f0ccfec92f653364e6b", "is_reserved": 0, "lon": -77.01383916666667, "is_disabled": 0, "fusion_lon": 0.0, "rental_uris": {"android": "https://dc.lft.to/lastmile_qr_scan", "ios": "https://dc.lft.to/lastmile_qr_scan"}}, {"type": "electric_scooter", "name": "0cf3afa90823d878b339106f577ef326", "lat": 38.93885266666667, "fusion_lat": 0.0, "bike_id": "0cf3afa90823d878b339106f577ef326", "is_reserved": 0, "lon": -77.024854, "is_disabled": 0, "fusion_lon": 0.0, "rental_uris": {"android": "https://dc.lft.to/lastmile_qr_scan", "ios": "https://dc.lft.to/lastmile_qr_scan"}}, {"type": "electric_scooter", "name": "0fbbe5861832b2ef4d8f06cfa417002b", "lat": 38.938647333333336, "fusion_lat": 0.0, "bike_id": "0fbbe5861832b2ef4d8f06cfa417002b", "is_reserved": 0, "lon": -77.0278235, "is_disabled": 0, "fusion_lon": 0.0, "rental_uris": {"android": "https://dc.lft.to/lastmile_qr_scan", "ios": "https://dc.lft.to/lastmile_qr_scan"}}, {"type": "electric_scooter", "name": "f270330c72e4294173bfb4160f21e4ae", "lat": 38.94812483333333, "fusion_lat": 0.0, "bike_id": "f270330c72e4294173bfb4160f21e4ae", "is_reserved": 0, "lon": -77.02143233333334, "is_disabled": 0, "fusion_lon": 0.0, "rental_uris": {"android": "https://dc.lft.to/lastmile_qr_scan", "ios": "https://dc.lft.to/lastmile_qr_scan"}}, {"type": "electric_scooter", "name": "9a8093bb1ef68a24cbc21de952e75165", "lat": 38.9136205, "fusion_lat": 0.0, "bike_id": "9a8093bb1ef68a24cbc21de952e75165", "is_reserved": 0, "lon": -77.0456565, "is_disabled": 0, "fusion_lon": 0.0, "rental_uris": {"android": "https://dc.lft.to/lastmile_qr_scan", "ios": "https://dc.lft.to/lastmile_qr_scan"}}, {"type": "electric_bike", "name": "c702b1ce5cc1028940440612f72585bf", "lat": 38.833752833333335, "fusion_lat": 0.0, "bike_id": "c702b1ce5cc1028940440612f72585bf", "is_reserved": 0, "lon": -77.00306983333333, "is_disabled": 0, "fusion_lon": 0.0, "rental_uris": {"android": "https://dc.lft.to/lastmile_qr_scan", "ios": "https://dc.lft.to/lastmile_qr_scan"}}, {"type": "electric_scooter", "name": "bca103f126e37d2610c00be9227c3ca4", "lat": 38.90065933333333, "fusion_lat": 0.0, "bike_id": "bca103f126e37d2610c00be9227c3ca4", "is_reserved": 0, "lon": -77.04356533333333, "is_disabled": 0, "fusion_lon": 0.0, "rental_uris": {"android": "https://dc.lft.to/lastmile_qr_scan", "ios": "https://dc.lft.to/lastmile_qr_scan"}}, {"type": "electric_scooter", "name": "87cc6000c19db4522efbe3c840edf2dc", "lat": 38.916898333333336, "fusion_lat": 0.0, "bike_id": "87cc6000c19db4522efbe3c840edf2dc", "is_reserved": 0, "lon": -77.02920966666667, "is_disabled": 0, "fusion_lon": 0.0, "rental_uris": {"android": "https://dc.lft.to/lastmile_qr_scan", "ios": "https://dc.lft.to/lastmile_qr_scan"}}, {"type": "electric_scooter", "name": "a2241c90615261ff4077b1079ed38d66", "lat": 38.90536216666667, "fusion_lat": 0.0, "bike_id": "a2241c90615261ff4077b1079ed38d66", "is_reserved": 0, "lon": -77.060341, "is_disabled": 0, "fusion_lon": 0.0, "rental_uris": {"android": "https://dc.lft.to/lastmile_qr_scan", "ios": "https://dc.lft.to/lastmile_qr_scan"}}, {"type": "electric_scooter", "name": "44794a1297c9886f6db3aba148cf258c", "lat": 38.903572, "fusion_lat": 0.0, "bike_id": "44794a1297c9886f6db3aba148cf258c", "is_reserved": 0, "lon": -77.03718383333333, "is_disabled": 0, "fusion_lon": 0.0, "rental_uris": {"android": "https://dc.lft.to/lastmile_qr_scan", "ios": "https://dc.lft.to/lastmile_qr_scan"}}, {"type": "electric_scooter", "name": "397c93a45ef392edf2d4c9cbb4fb0b82", "lat": 38.91116366666667, "fusion_lat": 0.0, "bike_id": "397c93a45ef392edf2d4c9cbb4fb0b82", "is_reserved": 0, "lon": -77.043544, "is_disabled": 0, "fusion_lon": 0.0, "rental_uris": {"android": "https://dc.lft.to/lastmile_qr_scan", "ios": "https://dc.lft.to/lastmile_qr_scan"}}, {"type": "electric_scooter", "name": "cfc836f0a84f55bf26c4ae93110c12a0", "lat": 38.909784333333334, "fusion_lat": 0.0, "bike_id": "cfc836f0a84f55bf26c4ae93110c12a0", "is_reserved": 0, "lon": -77.03211883333333, "is_disabled": 0, "fusion_lon": 0.0, "rental_uris": {"android": "https://dc.lft.to/lastmile_qr_scan", "ios": "https://dc.lft.to/lastmile_qr_scan"}}, {"type": "electric_scooter", "name": "baf4e6863a627a8b5c73fda5345de45f", "lat": 38.9218815, "fusion_lat": 0.0, "bike_id": "baf4e6863a627a8b5c73fda5345de45f", "is_reserved": 0, "lon": -77.0469955, "is_disabled": 0, "fusion_lon": 0.0, "rental_uris": {"android": "https://dc.lft.to/lastmile_qr_scan", "ios": "https://dc.lft.to/lastmile_qr_scan"}}, {"type": "electric_scooter", "name": "3b92976861682e966b2727b1f0b59fd7", "lat": 38.90314883333333, "fusion_lat": 0.0, "bike_id": "3b92976861682e966b2727b1f0b59fd7", "is_reserved": 0, "lon": -77.05163216666666, "is_disabled": 0, "fusion_lon": 0.0, "rental_uris": {"android": "https://dc.lft.to/lastmile_qr_scan", "ios": "https://dc.lft.to/lastmile_qr_scan"}}, {"type": "electric_scooter", "name": "8cdc4cb2d5e58d85be542846fee96c4a", "lat": 38.9253385, "fusion_lat": 0.0, "bike_id": "8cdc4cb2d5e58d85be542846fee96c4a", "is_reserved": 0, "lon": -77.03519233333333, "is_disabled": 0, "fusion_lon": 0.0, "rental_uris": {"android": "https://dc.lft.to/lastmile_qr_scan", "ios": "https://dc.lft.to/lastmile_qr_scan"}}, {"type": "electric_scooter", "name": "3fbfc0ab3322338cf0514067fa85baf2", "lat": 38.91605833333333, "fusion_lat": 0.0, "bike_id": "3fbfc0ab3322338cf0514067fa85baf2", "is_reserved": 0, "lon": -76.98371983333334, "is_disabled": 0, "fusion_lon": 0.0, "rental_uris": {"android": "https://dc.lft.to/lastmile_qr_scan", "ios": "https://dc.lft.to/lastmile_qr_scan"}}, {"type": "electric_scooter", "name": "2a94509f21b66f14187a08d568c8bde2", "lat": 38.906483333333334, "fusion_lat": 0.0, "bike_id": "2a94509f21b66f14187a08d568c8bde2", "is_reserved": 0, "lon": -77.04253066666666, "is_disabled": 0, "fusion_lon": 0.0, "rental_uris": {"android": "https://dc.lft.to/lastmile_qr_scan", "ios": "https://dc.lft.to/lastmile_qr_scan"}}, {"type": "electric_scooter", "name": "8e298197dd9f5a48fbb5c3a96190d683", "lat": 38.908613333333335, "fusion_lat": 0.0, "bike_id": "8e298197dd9f5a48fbb5c3a96190d683", "is_reserved": 0, "lon": -77.02991966666667, "is_disabled": 0, "fusion_lon": 0.0, "rental_uris": {"android": "https://dc.lft.to/lastmile_qr_scan", "ios": "https://dc.lft.to/lastmile_qr_scan"}}, {"type": "electric_scooter", "name": "355c57501323e60d408daece7bcae923", "lat": 38.9025205, "fusion_lat": 0.0, "bike_id": "355c57501323e60d408daece7bcae923", "is_reserved": 0, "lon": -77.0395455, "is_disabled": 0, "fusion_lon": 0.0, "rental_uris": {"android": "https://dc.lft.to/lastmile_qr_scan", "ios": "https://dc.lft.to/lastmile_qr_scan"}}, {"type": "electric_scooter", "name": "6523a24fbd159417cb895cf42689dc47", "lat": 38.907323166666664, "fusion_lat": 0.0, "bike_id": "6523a24fbd159417cb895cf42689dc47", "is_reserved": 0, "lon": -77.02372966666667, "is_disabled": 0, "fusion_lon": 0.0, "rental_uris": {"android": "https://dc.lft.to/lastmile_qr_scan", "ios": "https://dc.lft.to/lastmile_qr_scan"}}, {"type": "electric_scooter", "name": "e695cc0e5604a7f669f41d918b2d602e", "lat": 38.90246466666667, "fusion_lat": 0.0, "bike_id": "e695cc0e5604a7f669f41d918b2d602e", "is_reserved": 0, "lon": -77.039561, "is_disabled": 0, "fusion_lon": 0.0, "rental_uris": {"android": "https://dc.lft.to/lastmile_qr_scan", "ios": "https://dc.lft.to/lastmile_qr_scan"}}, {"type": "electric_scooter", "name": "d0012f2d5d2a670cbce19e4b8c9d5305", "lat": 38.932787166666664, "fusion_lat": 0.0, "bike_id": "d0012f2d5d2a670cbce19e4b8c9d5305", "is_reserved": 0, "lon": -77.03878733333333, "is_disabled": 0, "fusion_lon": 0.0, "rental_uris": {"android": "https://dc.lft.to/lastmile_qr_scan", "ios": "https://dc.lft.to/lastmile_qr_scan"}}, {"type": "electric_scooter", "name": "c93a8aae7dffc0a71ac7d396f913bae7", "lat": 38.91114233333333, "fusion_lat": 0.0, "bike_id": "c93a8aae7dffc0a71ac7d396f913bae7", "is_reserved": 0, "lon": -77.0422435, "is_disabled": 0, "fusion_lon": 0.0, "rental_uris": {"android": "https://dc.lft.to/lastmile_qr_scan", "ios": "https://dc.lft.to/lastmile_qr_scan"}}, {"type": "electric_scooter", "name": "8c5b376b8141532f1825b10860d2891b", "lat": 38.944407166666664, "fusion_lat": 0.0, "bike_id": "8c5b376b8141532f1825b10860d2891b", "is_reserved": 0, "lon": -77.06404816666667, "is_disabled": 0, "fusion_lon": 0.0, "rental_uris": {"android": "https://dc.lft.to/lastmile_qr_scan", "ios": "https://dc.lft.to/lastmile_qr_scan"}}, {"type": "electric_scooter", "name": "19de334b82f1dd6d1325027fbd1c6d20", "lat": 38.894815333333334, "fusion_lat": 0.0, "bike_id": "19de334b82f1dd6d1325027fbd1c6d20", "is_reserved": 0, "lon": -77.02054016666666, "is_disabled": 0, "fusion_lon": 0.0, "rental_uris": {"android": "https://dc.lft.to/lastmile_qr_scan", "ios": "https://dc.lft.to/lastmile_qr_scan"}}, {"type": "electric_scooter", "name": "3468d87644ea8bad326b72910f1b7957", "lat": 38.911125166666665, "fusion_lat": 0.0, "bike_id": "3468d87644ea8bad326b72910f1b7957", "is_reserved": 0, "lon": -77.038296, "is_disabled": 0, "fusion_lon": 0.0, "rental_uris": {"android": "https://dc.lft.to/lastmile_qr_scan", "ios": "https://dc.lft.to/lastmile_qr_scan"}}, {"type": "electric_scooter", "name": "efc91b02eee416dc81b659ec3f6321b0", "lat": 38.921237833333336, "fusion_lat": 0.0, "bike_id": "efc91b02eee416dc81b659ec3f6321b0", "is_reserved": 0, "lon": -77.02087466666667, "is_disabled": 0, "fusion_lon": 0.0, "rental_uris": {"android": "https://dc.lft.to/lastmile_qr_scan", "ios": "https://dc.lft.to/lastmile_qr_scan"}}, {"type": "electric_scooter", "name": "515303d80092a19e458ab2a6067fd4ef", "lat": 38.90171933333333, "fusion_lat": 0.0, "bike_id": "515303d80092a19e458ab2a6067fd4ef", "is_reserved": 0, "lon": -77.02205366666666, "is_disabled": 0, "fusion_lon": 0.0, "rental_uris": {"android": "https://dc.lft.to/lastmile_qr_scan", "ios": "https://dc.lft.to/lastmile_qr_scan"}}, {"type": "electric_scooter", "name": "e8ec9dc2513b4183df482a6b5fe8c37b", "lat": 38.911106333333336, "fusion_lat": 0.0, "bike_id": "e8ec9dc2513b4183df482a6b5fe8c37b", "is_reserved": 0, "lon": -77.03830816666667, "is_disabled": 0, "fusion_lon": 0.0, "rental_uris": {"android": "https://dc.lft.to/lastmile_qr_scan", "ios": "https://dc.lft.to/lastmile_qr_scan"}}, {"type": "electric_bike", "name": "20c8d30363fa662ae7aa7435afe4c640", "lat": 39.0107775, "fusion_lat": 0.0, "bike_id": "20c8d30363fa662ae7aa7435afe4c640", "is_reserved": 0, "lon": -76.91064883333334, "is_disabled": 0, "fusion_lon": 0.0, "rental_uris": {"android": "https://dc.lft.to/lastmile_qr_scan", "ios": "https://dc.lft.to/lastmile_qr_scan"}}, {"type": "electric_scooter", "name": "f7cf3bda177c2402a07cadc4664707c4", "lat": 38.8984145, "fusion_lat": 0.0, "bike_id": "f7cf3bda177c2402a07cadc4664707c4", "is_reserved": 0, "lon": -77.01268633333333, "is_disabled": 0, "fusion_lon": 0.0, "rental_uris": {"android": "https://dc.lft.to/lastmile_qr_scan", "ios": "https://dc.lft.to/lastmile_qr_scan"}}, {"type": "electric_scooter", "name": "82e1c4545366ca0bbeb8d0c2b28fadde", "lat": 38.893466833333335, "fusion_lat": 0.0, "bike_id": "82e1c4545366ca0bbeb8d0c2b28fadde", "is_reserved": 0, "lon": -76.93967466666666, "is_disabled": 0, "fusion_lon": 0.0, "rental_uris": {"android": "https://dc.lft.to/lastmile_qr_scan", "ios": "https://dc.lft.to/lastmile_qr_scan"}}, {"type": "electric_scooter", "name": "e170d03a6a6627b5236fc8d04c602f29", "lat": 38.910015333333334, "fusion_lat": 0.0, "bike_id": "e170d03a6a6627b5236fc8d04c602f29", "is_reserved": 0, "lon": -77.00499216666667, "is_disabled": 0, "fusion_lon": 0.0, "rental_uris": {"android": "https://dc.lft.to/lastmile_qr_scan", "ios": "https://dc.lft.to/lastmile_qr_scan"}}, {"type": "electric_scooter", "name": "9a18f014abaa5ed149b2bc9f44999618", "lat": 38.90986616666667, "fusion_lat": 0.0, "bike_id": "9a18f014abaa5ed149b2bc9f44999618", "is_reserved": 0, "lon": -77.04428133333333, "is_disabled": 0, "fusion_lon": 0.0, "rental_uris": {"android": "https://dc.lft.to/lastmile_qr_scan", "ios": "https://dc.lft.to/lastmile_qr_scan"}}, {"type": "electric_scooter", "name": "d3a048422b9f320acde5eb5ad0cf5ac1", "lat": 38.90609366666666, "fusion_lat": 0.0, "bike_id": "d3a048422b9f320acde5eb5ad0cf5ac1", "is_reserved": 0, "lon": -77.006871, "is_disabled": 0, "fusion_lon": 0.0, "rental_uris": {"android": "https://dc.lft.to/lastmile_qr_scan", "ios": "https://dc.lft.to/lastmile_qr_scan"}}, {"type": "electric_scooter", "name": "c000656546622831d50e2309107f92c9", "lat": 38.9250975, "fusion_lat": 0.0, "bike_id": "c000656546622831d50e2309107f92c9", "is_reserved": 0, "lon": -77.0022555, "is_disabled": 0, "fusion_lon": 0.0, "rental_uris": {"android": "https://dc.lft.to/lastmile_qr_scan", "ios": "https://dc.lft.to/lastmile_qr_scan"}}, {"type": "electric_scooter", "name": "8bd16822deafd37842ae2b60cb890293", "lat": 38.89609316666667, "fusion_lat": 0.0, "bike_id": "8bd16822deafd37842ae2b60cb890293", "is_reserved": 0, "lon": -77.045133, "is_disabled": 0, "fusion_lon": 0.0, "rental_uris": {"android": "https://dc.lft.to/lastmile_qr_scan", "ios": "https://dc.lft.to/lastmile_qr_scan"}}, {"type": "electric_scooter", "name": "5bf1fec504310aefda649719c770c231", "lat": 38.912556333333335, "fusion_lat": 0.0, "bike_id": "5bf1fec504310aefda649719c770c231", "is_reserved": 0, "lon": -77.0222085, "is_disabled": 0, "fusion_lon": 0.0, "rental_uris": {"android": "https://dc.lft.to/lastmile_qr_scan", "ios": "https://dc.lft.to/lastmile_qr_scan"}}, {"type": "electric_scooter", "name": "34525de07232bf5dc7ee1e264b3cde46", "lat": 38.861352833333335, "fusion_lat": 0.0, "bike_id": "34525de07232bf5dc7ee1e264b3cde46", "is_reserved": 0, "lon": -76.97171483333334, "is_disabled": 0, "fusion_lon": 0.0, "rental_uris": {"android": "https://dc.lft.to/lastmile_qr_scan", "ios": "https://dc.lft.to/lastmile_qr_scan"}}, {"type": "electric_scooter", "name": "71ad12d7e4f9bddd709cb5f261f79718", "lat": 38.9338115, "fusion_lat": 0.0, "bike_id": "71ad12d7e4f9bddd709cb5f261f79718", "is_reserved": 0, "lon": -77.026882, "is_disabled": 0, "fusion_lon": 0.0, "rental_uris": {"android": "https://dc.lft.to/lastmile_qr_scan", "ios": "https://dc.lft.to/lastmile_qr_scan"}}, {"type": "electric_scooter", "name": "ccaec5b0c5de1ec3b1a6eb6400c1062a", "lat": 38.89865833333333, "fusion_lat": 0.0, "bike_id": "ccaec5b0c5de1ec3b1a6eb6400c1062a", "is_reserved": 0, "lon": -77.02825, "is_disabled": 0, "fusion_lon": 0.0, "rental_uris": {"android": "https://dc.lft.to/lastmile_qr_scan", "ios": "https://dc.lft.to/lastmile_qr_scan"}}, {"type": "electric_scooter", "name": "4fc0c1d7edb0aa5f4f2422be603d0fc9", "lat": 38.907795666666665, "fusion_lat": 0.0, "bike_id": "4fc0c1d7edb0aa5f4f2422be603d0fc9", "is_reserved": 0, "lon": -77.031986, "is_disabled": 0, "fusion_lon": 0.0, "rental_uris": {"android": "https://dc.lft.to/lastmile_qr_scan", "ios": "https://dc.lft.to/lastmile_qr_scan"}}, {"type": "electric_bike", "name": "97687736234b7c8e499fd350299e1f6a", "lat": 39.056377, "fusion_lat": 0.0, "bike_id": "97687736234b7c8e499fd350299e1f6a", "is_reserved": 0, "lon": -77.12526683333333, "is_disabled": 0, "fusion_lon": 0.0, "rental_uris": {"android": "https://dc.lft.to/lastmile_qr_scan", "ios": "https://dc.lft.to/lastmile_qr_scan"}}, {"type": "electric_scooter", "name": "f791568b6c3842ab612498b1c85be473", "lat": 38.89226683333333, "fusion_lat": 0.0, "bike_id": "f791568b6c3842ab612498b1c85be473", "is_reserved": 0, "lon": -77.04372633333334, "is_disabled": 0, "fusion_lon": 0.0, "rental_uris": {"android": "https://dc.lft.to/lastmile_qr_scan", "ios": "https://dc.lft.to/lastmile_qr_scan"}}, {"type": "electric_scooter", "name": "75adf6fcc9d599084db41e937060dd04", "lat": 38.92838233333333, "fusion_lat": 0.0, "bike_id": "75adf6fcc9d599084db41e937060dd04", "is_reserved": 0, "lon": -77.03268633333333, "is_disabled": 0, "fusion_lon": 0.0, "rental_uris": {"android": "https://dc.lft.to/lastmile_qr_scan", "ios": "https://dc.lft.to/lastmile_qr_scan"}}, {"type": "electric_scooter", "name": "e64396ff526dd8a01c22db9b7e94c966", "lat": 38.902461833333334, "fusion_lat": 0.0, "bike_id": "e64396ff526dd8a01c22db9b7e94c966", "is_reserved": 0, "lon": -77.01822733333333, "is_disabled": 0, "fusion_lon": 0.0, "rental_uris": {"android": "https://dc.lft.to/lastmile_qr_scan", "ios": "https://dc.lft.to/lastmile_qr_scan"}}, {"type": "electric_scooter", "name": "452fa00d11b17f44d4563d4237048517", "lat": 38.89860383333333, "fusion_lat": 0.0, "bike_id": "452fa00d11b17f44d4563d4237048517", "is_reserved": 0, "lon": -76.94640133333333, "is_disabled": 0, "fusion_lon": 0.0, "rental_uris": {"android": "https://dc.lft.to/lastmile_qr_scan", "ios": "https://dc.lft.to/lastmile_qr_scan"}}, {"type": "electric_scooter", "name": "66f6e75e0f95d481cce6f343caac220f", "lat": 38.931128, "fusion_lat": 0.0, "bike_id": "66f6e75e0f95d481cce6f343caac220f", "is_reserved": 0, "lon": -77.02980233333334, "is_disabled": 0, "fusion_lon": 0.0, "rental_uris": {"android": "https://dc.lft.to/lastmile_qr_scan", "ios": "https://dc.lft.to/lastmile_qr_scan"}}, {"type": "electric_scooter", "name": "e0062689cf2d39bd12e7810675ee5fb8", "lat": 38.89938933333333, "fusion_lat": 0.0, "bike_id": "e0062689cf2d39bd12e7810675ee5fb8", "is_reserved": 0, "lon": -76.9973, "is_disabled": 0, "fusion_lon": 0.0, "rental_uris": {"android": "https://dc.lft.to/lastmile_qr_scan", "ios": "https://dc.lft.to/lastmile_qr_scan"}}, {"type": "electric_scooter", "name": "b28628edbc4ace63457c070e239152a0", "lat": 38.90897366666667, "fusion_lat": 0.0, "bike_id": "b28628edbc4ace63457c070e239152a0", "is_reserved": 0, "lon": -76.99766616666666, "is_disabled": 0, "fusion_lon": 0.0, "rental_uris": {"android": "https://dc.lft.to/lastmile_qr_scan", "ios": "https://dc.lft.to/lastmile_qr_scan"}}, {"type": "electric_scooter", "name": "28bda6613220e64f201c6abdba401746", "lat": 38.934337666666664, "fusion_lat": 0.0, "bike_id": "28bda6613220e64f201c6abdba401746", "is_reserved": 0, "lon": -77.040013, "is_disabled": 0, "fusion_lon": 0.0, "rental_uris": {"android": "https://dc.lft.to/lastmile_qr_scan", "ios": "https://dc.lft.to/lastmile_qr_scan"}}, {"type": "electric_scooter", "name": "db3b89fd657bcde65ed3fda165d49701", "lat": 38.89832166666667, "fusion_lat": 0.0, "bike_id": "db3b89fd657bcde65ed3fda165d49701", "is_reserved": 0, "lon": -76.9463285, "is_disabled": 0, "fusion_lon": 0.0, "rental_uris": {"android": "https://dc.lft.to/lastmile_qr_scan", "ios": "https://dc.lft.to/lastmile_qr_scan"}}, {"type": "electric_bike", "name": "15efa94ca5b0628dd2f50c1912865554", "lat": 38.821791166666664, "fusion_lat": 0.0, "bike_id": "15efa94ca5b0628dd2f50c1912865554", "is_reserved": 0, "lon": -76.995113, "is_disabled": 0, "fusion_lon": 0.0, "rental_uris": {"android": "https://dc.lft.to/lastmile_qr_scan", "ios": "https://dc.lft.to/lastmile_qr_scan"}}, {"type": "electric_bike", "name": "c14d50f370418da4446c86c2a0d94868", "lat": 38.8525095, "fusion_lat": 0.0, "bike_id": "c14d50f370418da4446c86c2a0d94868", "is_reserved": 0, "lon": -77.1078665, "is_disabled": 0, "fusion_lon": 0.0, "rental_uris": {"android": "https://dc.lft.to/lastmile_qr_scan", "ios": "https://dc.lft.to/lastmile_qr_scan"}}, {"type": "electric_scooter", "name": "e5339f226446ecc88fa15e1ffd51dd27", "lat": 38.907216, "fusion_lat": 0.0, "bike_id": "e5339f226446ecc88fa15e1ffd51dd27", "is_reserved": 0, "lon": -77.0191095, "is_disabled": 0, "fusion_lon": 0.0, "rental_uris": {"android": "https://dc.lft.to/lastmile_qr_scan", "ios": "https://dc.lft.to/lastmile_qr_scan"}}, {"type": "electric_scooter", "name": "226fd3952dde1def6bd614053d78fc6d", "lat": 38.9354595, "fusion_lat": 0.0, "bike_id": "226fd3952dde1def6bd614053d78fc6d", "is_reserved": 0, "lon": -77.03089066666666, "is_disabled": 0, "fusion_lon": 0.0, "rental_uris": {"android": "https://dc.lft.to/lastmile_qr_scan", "ios": "https://dc.lft.to/lastmile_qr_scan"}}, {"type": "electric_bike", "name": "dc2b8fe49f5d2b8c384f218ec0d5c733", "lat": 38.907768, "fusion_lat": 0.0, "bike_id": "dc2b8fe49f5d2b8c384f218ec0d5c733", "is_reserved": 0, "lon": -77.0376095, "is_disabled": 0, "fusion_lon": 0.0, "rental_uris": {"android": "https://dc.lft.to/lastmile_qr_scan", "ios": "https://dc.lft.to/lastmile_qr_scan"}}, {"type": "electric_scooter", "name": "03054e23c594e01c64a646721bebc5fa", "lat": 38.887495, "fusion_lat": 0.0, "bike_id": "03054e23c594e01c64a646721bebc5fa", "is_reserved": 0, "lon": -77.02278233333334, "is_disabled": 0, "fusion_lon": 0.0, "rental_uris": {"android": "https://dc.lft.to/lastmile_qr_scan", "ios": "https://dc.lft.to/lastmile_qr_scan"}}, {"type": "electric_scooter", "name": "00c1ee187e1a4e14337fc9314d0420d0", "lat": 38.9058445, "fusion_lat": 0.0, "bike_id": "00c1ee187e1a4e14337fc9314d0420d0", "is_reserved": 0, "lon": -77.040366, "is_disabled": 0, "fusion_lon": 0.0, "rental_uris": {"android": "https://dc.lft.to/lastmile_qr_scan", "ios": "https://dc.lft.to/lastmile_qr_scan"}}, {"type": "electric_scooter", "name": "bb78b080c3f37bfb9c9fdff1741cc93f", "lat": 38.9074785, "fusion_lat": 0.0, "bike_id": "bb78b080c3f37bfb9c9fdff1741cc93f", "is_reserved": 0, "lon": -77.00934166666667, "is_disabled": 0, "fusion_lon": 0.0, "rental_uris": {"android": "https://dc.lft.to/lastmile_qr_scan", "ios": "https://dc.lft.to/lastmile_qr_scan"}}, {"type": "electric_scooter", "name": "b78469b5d91bc95104af1cb6d34be2e9", "lat": 38.88118433333333, "fusion_lat": 0.0, "bike_id": "b78469b5d91bc95104af1cb6d34be2e9", "is_reserved": 0, "lon": -77.02628483333334, "is_disabled": 0, "fusion_lon": 0.0, "rental_uris": {"android": "https://dc.lft.to/lastmile_qr_scan", "ios": "https://dc.lft.to/lastmile_qr_scan"}}, {"type": "electric_scooter", "name": "e01fac589c24f0cb91c6be580b01a4ca", "lat": 38.90250233333333, "fusion_lat": 0.0, "bike_id": "e01fac589c24f0cb91c6be580b01a4ca", "is_reserved": 0, "lon": -77.04471416666667, "is_disabled": 0, "fusion_lon": 0.0, "rental_uris": {"android": "https://dc.lft.to/lastmile_qr_scan", "ios": "https://dc.lft.to/lastmile_qr_scan"}}, {"type": "electric_scooter", "name": "874e41dfba0117ba8511d327b0babc26", "lat": 38.90389966666667, "fusion_lat": 0.0, "bike_id": "874e41dfba0117ba8511d327b0babc26", "is_reserved": 0, "lon": -77.045092, "is_disabled": 0, "fusion_lon": 0.0, "rental_uris": {"android": "https://dc.lft.to/lastmile_qr_scan", "ios": "https://dc.lft.to/lastmile_qr_scan"}}, {"type": "electric_scooter", "name": "298e1e814a0a5a2d175730658d77255b", "lat": 38.918124, "fusion_lat": 0.0, "bike_id": "298e1e814a0a5a2d175730658d77255b", "is_reserved": 0, "lon": -77.036923, "is_disabled": 0, "fusion_lon": 0.0, "rental_uris": {"android": "https://dc.lft.to/lastmile_qr_scan", "ios": "https://dc.lft.to/lastmile_qr_scan"}}, {"type": "electric_scooter", "name": "981e0c35b561df1cdc4cea39f68aff18", "lat": 38.8669135, "fusion_lat": 0.0, "bike_id": "981e0c35b561df1cdc4cea39f68aff18", "is_reserved": 0, "lon": -76.9854435, "is_disabled": 0, "fusion_lon": 0.0, "rental_uris": {"android": "https://dc.lft.to/lastmile_qr_scan", "ios": "https://dc.lft.to/lastmile_qr_scan"}}, {"type": "electric_scooter", "name": "4e44b51194a4ff25063d7392ce72ac05", "lat": 38.924166, "fusion_lat": 0.0, "bike_id": "4e44b51194a4ff25063d7392ce72ac05", "is_reserved": 0, "lon": -77.02007216666667, "is_disabled": 0, "fusion_lon": 0.0, "rental_uris": {"android": "https://dc.lft.to/lastmile_qr_scan", "ios": "https://dc.lft.to/lastmile_qr_scan"}}, {"type": "electric_scooter", "name": "5a5b49865a25021a3bba53c140ba75b8", "lat": 38.92160233333333, "fusion_lat": 0.0, "bike_id": "5a5b49865a25021a3bba53c140ba75b8", "is_reserved": 0, "lon": -77.0209, "is_disabled": 0, "fusion_lon": 0.0, "rental_uris": {"android": "https://dc.lft.to/lastmile_qr_scan", "ios": "https://dc.lft.to/lastmile_qr_scan"}}, {"type": "electric_scooter", "name": "8995037a70707a19603f1b298b94c0cf", "lat": 38.907277666666666, "fusion_lat": 0.0, "bike_id": "8995037a70707a19603f1b298b94c0cf", "is_reserved": 0, "lon": -77.02492833333334, "is_disabled": 0, "fusion_lon": 0.0, "rental_uris": {"android": "https://dc.lft.to/lastmile_qr_scan", "ios": "https://dc.lft.to/lastmile_qr_scan"}}, {"type": "electric_scooter", "name": "d61ffad15880c265ad69a7c498e20138", "lat": 38.88111133333334, "fusion_lat": 0.0, "bike_id": "d61ffad15880c265ad69a7c498e20138", "is_reserved": 0, "lon": -77.016495, "is_disabled": 0, "fusion_lon": 0.0, "rental_uris": {"android": "https://dc.lft.to/lastmile_qr_scan", "ios": "https://dc.lft.to/lastmile_qr_scan"}}, {"type": "electric_scooter", "name": "e7b9ab072bae7b5394f6f2d95970a6a8", "lat": 38.941691, "fusion_lat": 0.0, "bike_id": "e7b9ab072bae7b5394f6f2d95970a6a8", "is_reserved": 0, "lon": -77.025578, "is_disabled": 0, "fusion_lon": 0.0, "rental_uris": {"android": "https://dc.lft.to/lastmile_qr_scan", "ios": "https://dc.lft.to/lastmile_qr_scan"}}, {"type": "electric_scooter", "name": "7534678d3b8a782c6568c3cb2ec93aa4", "lat": 38.934871333333334, "fusion_lat": 0.0, "bike_id": "7534678d3b8a782c6568c3cb2ec93aa4", "is_reserved": 0, "lon": -77.0815275, "is_disabled": 0, "fusion_lon": 0.0, "rental_uris": {"android": "https://dc.lft.to/lastmile_qr_scan", "ios": "https://dc.lft.to/lastmile_qr_scan"}}, {"type": "electric_scooter", "name": "55fbb6470e8a9221e69d28ac9a26f163", "lat": 38.9111345, "fusion_lat": 0.0, "bike_id": "55fbb6470e8a9221e69d28ac9a26f163", "is_reserved": 0, "lon": -77.03827466666667, "is_disabled": 0, "fusion_lon": 0.0, "rental_uris": {"android": "https://dc.lft.to/lastmile_qr_scan", "ios": "https://dc.lft.to/lastmile_qr_scan"}}, {"type": "electric_scooter", "name": "8b7f05ef0e81244c77cdd07623ab473b", "lat": 38.90781366666667, "fusion_lat": 0.0, "bike_id": "8b7f05ef0e81244c77cdd07623ab473b", "is_reserved": 0, "lon": -77.00598916666667, "is_disabled": 0, "fusion_lon": 0.0, "rental_uris": {"android": "https://dc.lft.to/lastmile_qr_scan", "ios": "https://dc.lft.to/lastmile_qr_scan"}}, {"type": "electric_scooter", "name": "0531989ba0af6802e3e9c1803187b8ca", "lat": 38.91141616666667, "fusion_lat": 0.0, "bike_id": "0531989ba0af6802e3e9c1803187b8ca", "is_reserved": 0, "lon": -77.02196033333334, "is_disabled": 0, "fusion_lon": 0.0, "rental_uris": {"android": "https://dc.lft.to/lastmile_qr_scan", "ios": "https://dc.lft.to/lastmile_qr_scan"}}, {"type": "electric_scooter", "name": "99087b83dd5caf3b909cee9f68a3b183", "lat": 38.90348016666667, "fusion_lat": 0.0, "bike_id": "99087b83dd5caf3b909cee9f68a3b183", "is_reserved": 0, "lon": -77.02554716666667, "is_disabled": 0, "fusion_lon": 0.0, "rental_uris": {"android": "https://dc.lft.to/lastmile_qr_scan", "ios": "https://dc.lft.to/lastmile_qr_scan"}}, {"type": "electric_bike", "name": "adfca24aaa5db1e9d08a6b9c4d1f9578", "lat": 38.953362, "fusion_lat": 0.0, "bike_id": "adfca24aaa5db1e9d08a6b9c4d1f9578", "is_reserved": 0, "lon": -76.98257366666667, "is_disabled": 0, "fusion_lon": 0.0, "rental_uris": {"android": "https://dc.lft.to/lastmile_qr_scan", "ios": "https://dc.lft.to/lastmile_qr_scan"}}, {"type": "electric_scooter", "name": "ac71fff1f9d79e734a5cdf926e760507", "lat": 38.893368333333335, "fusion_lat": 0.0, "bike_id": "ac71fff1f9d79e734a5cdf926e760507", "is_reserved": 0, "lon": -76.93921566666667, "is_disabled": 0, "fusion_lon": 0.0, "rental_uris": {"android": "https://dc.lft.to/lastmile_qr_scan", "ios": "https://dc.lft.to/lastmile_qr_scan"}}, {"type": "electric_scooter", "name": "67cdb2a345074de80a9eaaa7606ee22f", "lat": 38.914250833333334, "fusion_lat": 0.0, "bike_id": "67cdb2a345074de80a9eaaa7606ee22f", "is_reserved": 0, "lon": -77.03168233333334, "is_disabled": 0, "fusion_lon": 0.0, "rental_uris": {"android": "https://dc.lft.to/lastmile_qr_scan", "ios": "https://dc.lft.to/lastmile_qr_scan"}}, {"type": "electric_scooter", "name": "d43be8f460c765cd1973e0cd0fdfaf0c", "lat": 38.901368833333336, "fusion_lat": 0.0, "bike_id": "d43be8f460c765cd1973e0cd0fdfaf0c", "is_reserved": 0, "lon": -77.03873816666666, "is_disabled": 0, "fusion_lon": 0.0, "rental_uris": {"android": "https://dc.lft.to/lastmile_qr_scan", "ios": "https://dc.lft.to/lastmile_qr_scan"}}, {"type": "electric_scooter", "name": "73b18d9e0ca4642250372e834f427079", "lat": 38.91491233333333, "fusion_lat": 0.0, "bike_id": "73b18d9e0ca4642250372e834f427079", "is_reserved": 0, "lon": -77.01857716666666, "is_disabled": 0, "fusion_lon": 0.0, "rental_uris": {"android": "https://dc.lft.to/lastmile_qr_scan", "ios": "https://dc.lft.to/lastmile_qr_scan"}}, {"type": "electric_scooter", "name": "84505b9c1e97af6a0f7f77a32a59733f", "lat": 38.901326833333336, "fusion_lat": 0.0, "bike_id": "84505b9c1e97af6a0f7f77a32a59733f", "is_reserved": 0, "lon": -77.0380965, "is_disabled": 0, "fusion_lon": 0.0, "rental_uris": {"android": "https://dc.lft.to/lastmile_qr_scan", "ios": "https://dc.lft.to/lastmile_qr_scan"}}, {"type": "electric_scooter", "name": "c83b582b76b7ebee5b0ee4c56a63615c", "lat": 38.916483, "fusion_lat": 0.0, "bike_id": "c83b582b76b7ebee5b0ee4c56a63615c", "is_reserved": 0, "lon": -77.04154133333333, "is_disabled": 0, "fusion_lon": 0.0, "rental_uris": {"android": "https://dc.lft.to/lastmile_qr_scan", "ios": "https://dc.lft.to/lastmile_qr_scan"}}, {"type": "electric_scooter", "name": "8b50f1cd77315bc65045ff84ff47b6c7", "lat": 38.89706666666667, "fusion_lat": 0.0, "bike_id": "8b50f1cd77315bc65045ff84ff47b6c7", "is_reserved": 0, "lon": -77.01618633333334, "is_disabled": 0, "fusion_lon": 0.0, "rental_uris": {"android": "https://dc.lft.to/lastmile_qr_scan", "ios": "https://dc.lft.to/lastmile_qr_scan"}}, {"type": "electric_scooter", "name": "ecdcf02cfce76810da3752cfc27a7742", "lat": 38.88302133333333, "fusion_lat": 0.0, "bike_id": "ecdcf02cfce76810da3752cfc27a7742", "is_reserved": 0, "lon": -76.94854583333333, "is_disabled": 0, "fusion_lon": 0.0, "rental_uris": {"android": "https://dc.lft.to/lastmile_qr_scan", "ios": "https://dc.lft.to/lastmile_qr_scan"}}, {"type": "electric_scooter", "name": "56a309d383b580fbfeae2842572ad47e", "lat": 38.9002225, "fusion_lat": 0.0, "bike_id": "56a309d383b580fbfeae2842572ad47e", "is_reserved": 0, "lon": -76.99349, "is_disabled": 0, "fusion_lon": 0.0, "rental_uris": {"android": "https://dc.lft.to/lastmile_qr_scan", "ios": "https://dc.lft.to/lastmile_qr_scan"}}, {"type": "electric_bike", "name": "9213a3f6de7a9e930adea1ea1dc0d80e", "lat": 38.88514133333334, "fusion_lat": 0.0, "bike_id": "9213a3f6de7a9e930adea1ea1dc0d80e", "is_reserved": 0, "lon": -76.951672, "is_disabled": 0, "fusion_lon": 0.0, "rental_uris": {"android": "https://dc.lft.to/lastmile_qr_scan", "ios": "https://dc.lft.to/lastmile_qr_scan"}}, {"type": "electric_scooter", "name": "932275fcd46df56d10f34b9b935f43ea", "lat": 38.89236783333333, "fusion_lat": 0.0, "bike_id": "932275fcd46df56d10f34b9b935f43ea", "is_reserved": 0, "lon": -77.04159733333333, "is_disabled": 0, "fusion_lon": 0.0, "rental_uris": {"android": "https://dc.lft.to/lastmile_qr_scan", "ios": "https://dc.lft.to/lastmile_qr_scan"}}, {"type": "electric_scooter", "name": "3f4d399e0f33a79f643b4014c6563425", "lat": 38.89617966666667, "fusion_lat": 0.0, "bike_id": "3f4d399e0f33a79f643b4014c6563425", "is_reserved": 0, "lon": -76.947808, "is_disabled": 0, "fusion_lon": 0.0, "rental_uris": {"android": "https://dc.lft.to/lastmile_qr_scan", "ios": "https://dc.lft.to/lastmile_qr_scan"}}, {"type": "electric_scooter", "name": "886e7504245c52f5c85d3f681709f918", "lat": 38.90822633333333, "fusion_lat": 0.0, "bike_id": "886e7504245c52f5c85d3f681709f918", "is_reserved": 0, "lon": -77.04266666666666, "is_disabled": 0, "fusion_lon": 0.0, "rental_uris": {"android": "https://dc.lft.to/lastmile_qr_scan", "ios": "https://dc.lft.to/lastmile_qr_scan"}}, {"type": "electric_scooter", "name": "e8f4a084bfe787fb6a2e8c3b9197a5fc", "lat": 38.909522, "fusion_lat": 0.0, "bike_id": "e8f4a084bfe787fb6a2e8c3b9197a5fc", "is_reserved": 0, "lon": -77.04658816666667, "is_disabled": 0, "fusion_lon": 0.0, "rental_uris": {"android": "https://dc.lft.to/lastmile_qr_scan", "ios": "https://dc.lft.to/lastmile_qr_scan"}}, {"type": "electric_scooter", "name": "afc33f79aeb3434f105564488f363b77", "lat": 38.9369055, "fusion_lat": 0.0, "bike_id": "afc33f79aeb3434f105564488f363b77", "is_reserved": 0, "lon": -77.03280233333334, "is_disabled": 0, "fusion_lon": 0.0, "rental_uris": {"android": "https://dc.lft.to/lastmile_qr_scan", "ios": "https://dc.lft.to/lastmile_qr_scan"}}, {"type": "electric_scooter", "name": "d8e7f46be92e5a07615388cb768753ac", "lat": 38.91935733333333, "fusion_lat": 0.0, "bike_id": "d8e7f46be92e5a07615388cb768753ac", "is_reserved": 0, "lon": -77.01360316666667, "is_disabled": 0, "fusion_lon": 0.0, "rental_uris": {"android": "https://dc.lft.to/lastmile_qr_scan", "ios": "https://dc.lft.to/lastmile_qr_scan"}}, {"type": "electric_scooter", "name": "3b5b23963b79b1b482cf7f2be87b9033", "lat": 38.926055833333336, "fusion_lat": 0.0, "bike_id": "3b5b23963b79b1b482cf7f2be87b9033", "is_reserved": 0, "lon": -77.02152566666666, "is_disabled": 0, "fusion_lon": 0.0, "rental_uris": {"android": "https://dc.lft.to/lastmile_qr_scan", "ios": "https://dc.lft.to/lastmile_qr_scan"}}, {"type": "electric_scooter", "name": "3911e0ab03ca14953519e7946a921fef", "lat": 38.864321, "fusion_lat": 0.0, "bike_id": "3911e0ab03ca14953519e7946a921fef", "is_reserved": 0, "lon": -76.99013433333333, "is_disabled": 0, "fusion_lon": 0.0, "rental_uris": {"android": "https://dc.lft.to/lastmile_qr_scan", "ios": "https://dc.lft.to/lastmile_qr_scan"}}, {"type": "electric_scooter", "name": "3052ac5c014bbe9fbad6ebc3f74e9a9c", "lat": 38.91702383333333, "fusion_lat": 0.0, "bike_id": "3052ac5c014bbe9fbad6ebc3f74e9a9c", "is_reserved": 0, "lon": -77.031425, "is_disabled": 0, "fusion_lon": 0.0, "rental_uris": {"android": "https://dc.lft.to/lastmile_qr_scan", "ios": "https://dc.lft.to/lastmile_qr_scan"}}, {"type": "electric_scooter", "name": "227745ffd9b7dcffd2f68d9596a559c4", "lat": 38.898617, "fusion_lat": 0.0, "bike_id": "227745ffd9b7dcffd2f68d9596a559c4", "is_reserved": 0, "lon": -76.9463945, "is_disabled": 0, "fusion_lon": 0.0, "rental_uris": {"android": "https://dc.lft.to/lastmile_qr_scan", "ios": "https://dc.lft.to/lastmile_qr_scan"}}, {"type": "electric_bike", "name": "cb4cfe88097b3d2a237b2dc4cb8c8caa", "lat": 38.900741, "fusion_lat": 0.0, "bike_id": "cb4cfe88097b3d2a237b2dc4cb8c8caa", "is_reserved": 0, "lon": -77.013225, "is_disabled": 0, "fusion_lon": 0.0, "rental_uris": {"android": "https://dc.lft.to/lastmile_qr_scan", "ios": "https://dc.lft.to/lastmile_qr_scan"}}, {"type": "electric_scooter", "name": "05af28c71d7fc46134dbc157e5626c8d", "lat": 38.929859, "fusion_lat": 0.0, "bike_id": "05af28c71d7fc46134dbc157e5626c8d", "is_reserved": 0, "lon": -77.0365855, "is_disabled": 0, "fusion_lon": 0.0, "rental_uris": {"android": "https://dc.lft.to/lastmile_qr_scan", "ios": "https://dc.lft.to/lastmile_qr_scan"}}, {"type": "electric_scooter", "name": "3ac2e62d47aca942ab45da7a2ddbb3a1", "lat": 38.86692333333333, "fusion_lat": 0.0, "bike_id": "3ac2e62d47aca942ab45da7a2ddbb3a1", "is_reserved": 0, "lon": -76.9856195, "is_disabled": 0, "fusion_lon": 0.0, "rental_uris": {"android": "https://dc.lft.to/lastmile_qr_scan", "ios": "https://dc.lft.to/lastmile_qr_scan"}}, {"type": "electric_scooter", "name": "6f25d666fd400a670a60b752fef723ad", "lat": 38.903247, "fusion_lat": 0.0, "bike_id": "6f25d666fd400a670a60b752fef723ad", "is_reserved": 0, "lon": -76.97548166666667, "is_disabled": 0, "fusion_lon": 0.0, "rental_uris": {"android": "https://dc.lft.to/lastmile_qr_scan", "ios": "https://dc.lft.to/lastmile_qr_scan"}}, {"type": "electric_scooter", "name": "1e80086f0a1b1170827bab095021e5a7", "lat": 38.874441833333336, "fusion_lat": 0.0, "bike_id": "1e80086f0a1b1170827bab095021e5a7", "is_reserved": 0, "lon": -77.0004095, "is_disabled": 0, "fusion_lon": 0.0, "rental_uris": {"android": "https://dc.lft.to/lastmile_qr_scan", "ios": "https://dc.lft.to/lastmile_qr_scan"}}, {"type": "electric_scooter", "name": "434f89629e28547254e832396e9fe89f", "lat": 38.923588333333335, "fusion_lat": 0.0, "bike_id": "434f89629e28547254e832396e9fe89f", "is_reserved": 0, "lon": -77.04389316666666, "is_disabled": 0, "fusion_lon": 0.0, "rental_uris": {"android": "https://dc.lft.to/lastmile_qr_scan", "ios": "https://dc.lft.to/lastmile_qr_scan"}}, {"type": "electric_bike", "name": "a28d266eade914b04b4111b92acd0b0c", "lat": 38.942637, "fusion_lat": 0.0, "bike_id": "a28d266eade914b04b4111b92acd0b0c", "is_reserved": 0, "lon": -76.99067666666667, "is_disabled": 0, "fusion_lon": 0.0, "rental_uris": {"android": "https://dc.lft.to/lastmile_qr_scan", "ios": "https://dc.lft.to/lastmile_qr_scan"}}, {"type": "electric_scooter", "name": "0f4c279e701a16851a34f920712aa4a2", "lat": 38.902185, "fusion_lat": 0.0, "bike_id": "0f4c279e701a16851a34f920712aa4a2", "is_reserved": 0, "lon": -77.02151316666667, "is_disabled": 0, "fusion_lon": 0.0, "rental_uris": {"android": "https://dc.lft.to/lastmile_qr_scan", "ios": "https://dc.lft.to/lastmile_qr_scan"}}, {"type": "electric_bike", "name": "0ecb500d53608b93778b3061268e4469", "lat": 38.930484666666665, "fusion_lat": 0.0, "bike_id": "0ecb500d53608b93778b3061268e4469", "is_reserved": 0, "lon": -76.95835583333333, "is_disabled": 0, "fusion_lon": 0.0, "rental_uris": {"android": "https://dc.lft.to/lastmile_qr_scan", "ios": "https://dc.lft.to/lastmile_qr_scan"}}, {"type": "electric_scooter", "name": "e14e7f01dafef8cf7f5343c115772dd6", "lat": 38.89819283333333, "fusion_lat": 0.0, "bike_id": "e14e7f01dafef8cf7f5343c115772dd6", "is_reserved": 0, "lon": -77.0293445, "is_disabled": 0, "fusion_lon": 0.0, "rental_uris": {"android": "https://dc.lft.to/lastmile_qr_scan", "ios": "https://dc.lft.to/lastmile_qr_scan"}}, {"type": "electric_bike", "name": "9e39e7f8fcf192a115fa4d5085f8ea63", "lat": 39.01418866666667, "fusion_lat": 0.0, "bike_id": "9e39e7f8fcf192a115fa4d5085f8ea63", "is_reserved": 0, "lon": -77.04499166666666, "is_disabled": 0, "fusion_lon": 0.0, "rental_uris": {"android": "https://dc.lft.to/lastmile_qr_scan", "ios": "https://dc.lft.to/lastmile_qr_scan"}}, {"type": "electric_bike", "name": "3cb4ffd13054f3bca5fae3337012f221", "lat": 38.8579745, "fusion_lat": 0.0, "bike_id": "3cb4ffd13054f3bca5fae3337012f221", "is_reserved": 0, "lon": -77.099589, "is_disabled": 0, "fusion_lon": 0.0, "rental_uris": {"android": "https://dc.lft.to/lastmile_qr_scan", "ios": "https://dc.lft.to/lastmile_qr_scan"}}, {"type": "electric_scooter", "name": "1c1b97147891a99819ef45726b36ca7a", "lat": 38.90424683333333, "fusion_lat": 0.0, "bike_id": "1c1b97147891a99819ef45726b36ca7a", "is_reserved": 0, "lon": -77.032649, "is_disabled": 0, "fusion_lon": 0.0, "rental_uris": {"android": "https://dc.lft.to/lastmile_qr_scan", "ios": "https://dc.lft.to/lastmile_qr_scan"}}, {"type": "electric_scooter", "name": "f333dbdd7407e8882be9305538a8a178", "lat": 38.900277333333335, "fusion_lat": 0.0, "bike_id": "f333dbdd7407e8882be9305538a8a178", "is_reserved": 0, "lon": -76.98764916666667, "is_disabled": 0, "fusion_lon": 0.0, "rental_uris": {"android": "https://dc.lft.to/lastmile_qr_scan", "ios": "https://dc.lft.to/lastmile_qr_scan"}}, {"type": "electric_scooter", "name": "40b2f1c705f1c781a10ab43621bf3ccb", "lat": 38.907375333333334, "fusion_lat": 0.0, "bike_id": "40b2f1c705f1c781a10ab43621bf3ccb", "is_reserved": 0, "lon": -77.01134233333333, "is_disabled": 0, "fusion_lon": 0.0, "rental_uris": {"android": "https://dc.lft.to/lastmile_qr_scan", "ios": "https://dc.lft.to/lastmile_qr_scan"}}, {"type": "electric_bike", "name": "0640972bf8232f871dc9786d03447fe5", "lat": 38.90429983333333, "fusion_lat": 0.0, "bike_id": "0640972bf8232f871dc9786d03447fe5", "is_reserved": 0, "lon": -76.97232016666666, "is_disabled": 0, "fusion_lon": 0.0, "rental_uris": {"android": "https://dc.lft.to/lastmile_qr_scan", "ios": "https://dc.lft.to/lastmile_qr_scan"}}, {"type": "electric_bike", "name": "e8c54418a5c58348fbf9c37daf545461", "lat": 38.816141333333334, "fusion_lat": 0.0, "bike_id": "e8c54418a5c58348fbf9c37daf545461", "is_reserved": 0, "lon": -76.99653166666667, "is_disabled": 0, "fusion_lon": 0.0, "rental_uris": {"android": "https://dc.lft.to/lastmile_qr_scan", "ios": "https://dc.lft.to/lastmile_qr_scan"}}, {"type": "electric_scooter", "name": "e19a6e413b74412a9db43eb2dd906be3", "lat": 38.9611615, "fusion_lat": 0.0, "bike_id": "e19a6e413b74412a9db43eb2dd906be3", "is_reserved": 0, "lon": -77.00944833333334, "is_disabled": 0, "fusion_lon": 0.0, "rental_uris": {"android": "https://dc.lft.to/lastmile_qr_scan", "ios": "https://dc.lft.to/lastmile_qr_scan"}}, {"type": "electric_scooter", "name": "fe27322938ad0f13b491310224dd9954", "lat": 38.900028666666664, "fusion_lat": 0.0, "bike_id": "fe27322938ad0f13b491310224dd9954", "is_reserved": 0, "lon": -77.02743216666667, "is_disabled": 0, "fusion_lon": 0.0, "rental_uris": {"android": "https://dc.lft.to/lastmile_qr_scan", "ios": "https://dc.lft.to/lastmile_qr_scan"}}, {"type": "electric_scooter", "name": "b0a8b9f6abeb638539e41b71ed2a74c5", "lat": 38.89744133333333, "fusion_lat": 0.0, "bike_id": "b0a8b9f6abeb638539e41b71ed2a74c5", "is_reserved": 0, "lon": -77.02072183333334, "is_disabled": 0, "fusion_lon": 0.0, "rental_uris": {"android": "https://dc.lft.to/lastmile_qr_scan", "ios": "https://dc.lft.to/lastmile_qr_scan"}}, {"type": "electric_scooter", "name": "4152114ba2750b3d6834b7aa7ada9e69", "lat": 38.92194, "fusion_lat": 0.0, "bike_id": "4152114ba2750b3d6834b7aa7ada9e69", "is_reserved": 0, "lon": -77.047062, "is_disabled": 0, "fusion_lon": 0.0, "rental_uris": {"android": "https://dc.lft.to/lastmile_qr_scan", "ios": "https://dc.lft.to/lastmile_qr_scan"}}, {"type": "electric_scooter", "name": "a952917c2ad691bbb1e39de176505665", "lat": 38.922928, "fusion_lat": 0.0, "bike_id": "a952917c2ad691bbb1e39de176505665", "is_reserved": 0, "lon": -77.03668916666666, "is_disabled": 0, "fusion_lon": 0.0, "rental_uris": {"android": "https://dc.lft.to/lastmile_qr_scan", "ios": "https://dc.lft.to/lastmile_qr_scan"}}, {"type": "electric_scooter", "name": "d6b80501ddccb0b8557fedff11ddbf8c", "lat": 38.941946333333334, "fusion_lat": 0.0, "bike_id": "d6b80501ddccb0b8557fedff11ddbf8c", "is_reserved": 0, "lon": -77.03834316666666, "is_disabled": 0, "fusion_lon": 0.0, "rental_uris": {"android": "https://dc.lft.to/lastmile_qr_scan", "ios": "https://dc.lft.to/lastmile_qr_scan"}}, {"type": "electric_scooter", "name": "bbc31a0ed2630d7c938fd42110e5c7ec", "lat": 38.9026925, "fusion_lat": 0.0, "bike_id": "bbc31a0ed2630d7c938fd42110e5c7ec", "is_reserved": 0, "lon": -77.02741433333334, "is_disabled": 0, "fusion_lon": 0.0, "rental_uris": {"android": "https://dc.lft.to/lastmile_qr_scan", "ios": "https://dc.lft.to/lastmile_qr_scan"}}, {"type": "electric_scooter", "name": "889ce754bfcb55d6674a209211296a97", "lat": 38.926874833333336, "fusion_lat": 0.0, "bike_id": "889ce754bfcb55d6674a209211296a97", "is_reserved": 0, "lon": -77.01548766666667, "is_disabled": 0, "fusion_lon": 0.0, "rental_uris": {"android": "https://dc.lft.to/lastmile_qr_scan", "ios": "https://dc.lft.to/lastmile_qr_scan"}}, {"type": "electric_scooter", "name": "0d4f40561889d4ce9f6d192332847134", "lat": 38.90296983333333, "fusion_lat": 0.0, "bike_id": "0d4f40561889d4ce9f6d192332847134", "is_reserved": 0, "lon": -77.03867116666666, "is_disabled": 0, "fusion_lon": 0.0, "rental_uris": {"android": "https://dc.lft.to/lastmile_qr_scan", "ios": "https://dc.lft.to/lastmile_qr_scan"}}, {"type": "electric_scooter", "name": "59ba3ad1dcca876edbf33afcfa9ec5aa", "lat": 38.90513116666666, "fusion_lat": 0.0, "bike_id": "59ba3ad1dcca876edbf33afcfa9ec5aa", "is_reserved": 0, "lon": -77.04060033333333, "is_disabled": 0, "fusion_lon": 0.0, "rental_uris": {"android": "https://dc.lft.to/lastmile_qr_scan", "ios": "https://dc.lft.to/lastmile_qr_scan"}}, {"type": "electric_scooter", "name": "dd85276e73a609ad94220c83e65f9f9f", "lat": 38.90138066666667, "fusion_lat": 0.0, "bike_id": "dd85276e73a609ad94220c83e65f9f9f", "is_reserved": 0, "lon": -77.01794633333333, "is_disabled": 0, "fusion_lon": 0.0, "rental_uris": {"android": "https://dc.lft.to/lastmile_qr_scan", "ios": "https://dc.lft.to/lastmile_qr_scan"}}, {"type": "electric_scooter", "name": "dd6cb6dee0e7b0c27543df9e5c1c362c", "lat": 38.90872533333334, "fusion_lat": 0.0, "bike_id": "dd6cb6dee0e7b0c27543df9e5c1c362c", "is_reserved": 0, "lon": -77.04733483333334, "is_disabled": 0, "fusion_lon": 0.0, "rental_uris": {"android": "https://dc.lft.to/lastmile_qr_scan", "ios": "https://dc.lft.to/lastmile_qr_scan"}}, {"type": "electric_scooter", "name": "bd22d2e81d283bdd6bfc767cbcfd0558", "lat": 38.89377783333333, "fusion_lat": 0.0, "bike_id": "bd22d2e81d283bdd6bfc767cbcfd0558", "is_reserved": 0, "lon": -77.02852283333333, "is_disabled": 0, "fusion_lon": 0.0, "rental_uris": {"android": "https://dc.lft.to/lastmile_qr_scan", "ios": "https://dc.lft.to/lastmile_qr_scan"}}, {"type": "electric_scooter", "name": "ba30e44bd4041c3c998b162d49aa3e1b", "lat": 38.902643, "fusion_lat": 0.0, "bike_id": "ba30e44bd4041c3c998b162d49aa3e1b", "is_reserved": 0, "lon": -77.00814766666667, "is_disabled": 0, "fusion_lon": 0.0, "rental_uris": {"android": "https://dc.lft.to/lastmile_qr_scan", "ios": "https://dc.lft.to/lastmile_qr_scan"}}, {"type": "electric_scooter", "name": "f2649b6228b3e01986bae006cbadf064", "lat": 38.944118833333334, "fusion_lat": 0.0, "bike_id": "f2649b6228b3e01986bae006cbadf064", "is_reserved": 0, "lon": -77.02594983333333, "is_disabled": 0, "fusion_lon": 0.0, "rental_uris": {"android": "https://dc.lft.to/lastmile_qr_scan", "ios": "https://dc.lft.to/lastmile_qr_scan"}}, {"type": "electric_bike", "name": "2abb47bf861cbff9fc1bd239da74e838", "lat": 38.79855033333333, "fusion_lat": 0.0, "bike_id": "2abb47bf861cbff9fc1bd239da74e838", "is_reserved": 0, "lon": -77.06306166666667, "is_disabled": 0, "fusion_lon": 0.0, "rental_uris": {"android": "https://dc.lft.to/lastmile_qr_scan", "ios": "https://dc.lft.to/lastmile_qr_scan"}}, {"type": "electric_bike", "name": "b6bd5610fc0dc143c8e85a857838a7fe", "lat": 38.85774516666667, "fusion_lat": 0.0, "bike_id": "b6bd5610fc0dc143c8e85a857838a7fe", "is_reserved": 0, "lon": -76.98746966666667, "is_disabled": 0, "fusion_lon": 0.0, "rental_uris": {"android": "https://dc.lft.to/lastmile_qr_scan", "ios": "https://dc.lft.to/lastmile_qr_scan"}}, {"type": "electric_scooter", "name": "2d21dfa8f2593c4e1583878676a521d8", "lat": 38.89537383333333, "fusion_lat": 0.0, "bike_id": "2d21dfa8f2593c4e1583878676a521d8", "is_reserved": 0, "lon": -77.02284733333333, "is_disabled": 0, "fusion_lon": 0.0, "rental_uris": {"android": "https://dc.lft.to/lastmile_qr_scan", "ios": "https://dc.lft.to/lastmile_qr_scan"}}, {"type": "electric_scooter", "name": "e8d301912a0ce6f6dbec769518e8a43d", "lat": 38.909292666666666, "fusion_lat": 0.0, "bike_id": "e8d301912a0ce6f6dbec769518e8a43d", "is_reserved": 0, "lon": -77.0269625, "is_disabled": 0, "fusion_lon": 0.0, "rental_uris": {"android": "https://dc.lft.to/lastmile_qr_scan", "ios": "https://dc.lft.to/lastmile_qr_scan"}}, {"type": "electric_scooter", "name": "2a39e19925971a7bdba872e9ab9af2f8", "lat": 38.919842333333335, "fusion_lat": 0.0, "bike_id": "2a39e19925971a7bdba872e9ab9af2f8", "is_reserved": 0, "lon": -77.0238335, "is_disabled": 0, "fusion_lon": 0.0, "rental_uris": {"android": "https://dc.lft.to/lastmile_qr_scan", "ios": "https://dc.lft.to/lastmile_qr_scan"}}, {"type": "electric_scooter", "name": "5034b7388c2d56bc78ddabc5d7d7a9e5", "lat": 38.911196, "fusion_lat": 0.0, "bike_id": "5034b7388c2d56bc78ddabc5d7d7a9e5", "is_reserved": 0, "lon": -77.0223735, "is_disabled": 0, "fusion_lon": 0.0, "rental_uris": {"android": "https://dc.lft.to/lastmile_qr_scan", "ios": "https://dc.lft.to/lastmile_qr_scan"}}, {"type": "electric_scooter", "name": "92c200fb7448d941cecb3224a7bf0a6a", "lat": 38.917371, "fusion_lat": 0.0, "bike_id": "92c200fb7448d941cecb3224a7bf0a6a", "is_reserved": 0, "lon": -77.0279715, "is_disabled": 0, "fusion_lon": 0.0, "rental_uris": {"android": "https://dc.lft.to/lastmile_qr_scan", "ios": "https://dc.lft.to/lastmile_qr_scan"}}, {"type": "electric_scooter", "name": "7889db65d4f5ba48db08edf7a772d388", "lat": 38.91375266666667, "fusion_lat": 0.0, "bike_id": "7889db65d4f5ba48db08edf7a772d388", "is_reserved": 0, "lon": -77.04494116666666, "is_disabled": 0, "fusion_lon": 0.0, "rental_uris": {"android": "https://dc.lft.to/lastmile_qr_scan", "ios": "https://dc.lft.to/lastmile_qr_scan"}}, {"type": "electric_scooter", "name": "57bc686df7d7e1b0aeeb41ec0905dc6f", "lat": 38.900176, "fusion_lat": 0.0, "bike_id": "57bc686df7d7e1b0aeeb41ec0905dc6f", "is_reserved": 0, "lon": -77.01179983333333, "is_disabled": 0, "fusion_lon": 0.0, "rental_uris": {"android": "https://dc.lft.to/lastmile_qr_scan", "ios": "https://dc.lft.to/lastmile_qr_scan"}}, {"type": "electric_bike", "name": "ef6f72038bb7c239fb6f58545892dd3c", "lat": 38.94436, "fusion_lat": 0.0, "bike_id": "ef6f72038bb7c239fb6f58545892dd3c", "is_reserved": 0, "lon": -77.0260045, "is_disabled": 0, "fusion_lon": 0.0, "rental_uris": {"android": "https://dc.lft.to/lastmile_qr_scan", "ios": "https://dc.lft.to/lastmile_qr_scan"}}, {"type": "electric_scooter", "name": "05f1c496f89813b25f8d4c0a6e460c22", "lat": 38.8666035, "fusion_lat": 0.0, "bike_id": "05f1c496f89813b25f8d4c0a6e460c22", "is_reserved": 0, "lon": -76.98881166666666, "is_disabled": 0, "fusion_lon": 0.0, "rental_uris": {"android": "https://dc.lft.to/lastmile_qr_scan", "ios": "https://dc.lft.to/lastmile_qr_scan"}}, {"type": "electric_scooter", "name": "1baf17b601c44abba68debfe3ba4fb2d", "lat": 38.8579835, "fusion_lat": 0.0, "bike_id": "1baf17b601c44abba68debfe3ba4fb2d", "is_reserved": 0, "lon": -76.98909833333333, "is_disabled": 0, "fusion_lon": 0.0, "rental_uris": {"android": "https://dc.lft.to/lastmile_qr_scan", "ios": "https://dc.lft.to/lastmile_qr_scan"}}, {"type": "electric_scooter", "name": "da6a14ece27adc24fb90c18391414762", "lat": 38.91642516666667, "fusion_lat": 0.0, "bike_id": "da6a14ece27adc24fb90c18391414762", "is_reserved": 0, "lon": -77.031918, "is_disabled": 0, "fusion_lon": 0.0, "rental_uris": {"android": "https://dc.lft.to/lastmile_qr_scan", "ios": "https://dc.lft.to/lastmile_qr_scan"}}, {"type": "electric_scooter", "name": "f4bfb3f50412327ed1d227480308be2e", "lat": 38.952467, "fusion_lat": 0.0, "bike_id": "f4bfb3f50412327ed1d227480308be2e", "is_reserved": 0, "lon": -77.00698166666666, "is_disabled": 0, "fusion_lon": 0.0, "rental_uris": {"android": "https://dc.lft.to/lastmile_qr_scan", "ios": "https://dc.lft.to/lastmile_qr_scan"}}, {"type": "electric_scooter", "name": "e48e37ff5cc3885ec2e33a3c8091fc26", "lat": 38.879932833333335, "fusion_lat": 0.0, "bike_id": "e48e37ff5cc3885ec2e33a3c8091fc26", "is_reserved": 0, "lon": -77.02410933333333, "is_disabled": 0, "fusion_lon": 0.0, "rental_uris": {"android": "https://dc.lft.to/lastmile_qr_scan", "ios": "https://dc.lft.to/lastmile_qr_scan"}}, {"type": "electric_scooter", "name": "d92684fcd01dabcbb63d51345979d160", "lat": 38.887392166666665, "fusion_lat": 0.0, "bike_id": "d92684fcd01dabcbb63d51345979d160", "is_reserved": 0, "lon": -77.02826116666667, "is_disabled": 0, "fusion_lon": 0.0, "rental_uris": {"android": "https://dc.lft.to/lastmile_qr_scan", "ios": "https://dc.lft.to/lastmile_qr_scan"}}, {"type": "electric_scooter", "name": "d14b551ed8b761144eece25249c200f6", "lat": 38.902416833333334, "fusion_lat": 0.0, "bike_id": "d14b551ed8b761144eece25249c200f6", "is_reserved": 0, "lon": -77.0019345, "is_disabled": 0, "fusion_lon": 0.0, "rental_uris": {"android": "https://dc.lft.to/lastmile_qr_scan", "ios": "https://dc.lft.to/lastmile_qr_scan"}}, {"type": "electric_scooter", "name": "932ed8c696a2c3245c54e2a7c6978458", "lat": 38.84187883333333, "fusion_lat": 0.0, "bike_id": "932ed8c696a2c3245c54e2a7c6978458", "is_reserved": 0, "lon": -76.997844, "is_disabled": 0, "fusion_lon": 0.0, "rental_uris": {"android": "https://dc.lft.to/lastmile_qr_scan", "ios": "https://dc.lft.to/lastmile_qr_scan"}}, {"type": "electric_scooter", "name": "8d6df727c1dfc39a9fc24567169e4f50", "lat": 38.91691616666667, "fusion_lat": 0.0, "bike_id": "8d6df727c1dfc39a9fc24567169e4f50", "is_reserved": 0, "lon": -77.029414, "is_disabled": 0, "fusion_lon": 0.0, "rental_uris": {"android": "https://dc.lft.to/lastmile_qr_scan", "ios": "https://dc.lft.to/lastmile_qr_scan"}}, {"type": "electric_scooter", "name": "ea272e11c99eab32d4bfd125ef03d2f2", "lat": 38.905715666666666, "fusion_lat": 0.0, "bike_id": "ea272e11c99eab32d4bfd125ef03d2f2", "is_reserved": 0, "lon": -77.03474016666667, "is_disabled": 0, "fusion_lon": 0.0, "rental_uris": {"android": "https://dc.lft.to/lastmile_qr_scan", "ios": "https://dc.lft.to/lastmile_qr_scan"}}, {"type": "electric_scooter", "name": "ef04de903a2e0206fbdd74b80d993a58", "lat": 38.902335666666666, "fusion_lat": 0.0, "bike_id": "ef04de903a2e0206fbdd74b80d993a58", "is_reserved": 0, "lon": -77.045593, "is_disabled": 0, "fusion_lon": 0.0, "rental_uris": {"android": "https://dc.lft.to/lastmile_qr_scan", "ios": "https://dc.lft.to/lastmile_qr_scan"}}, {"type": "electric_scooter", "name": "5f46a7ff9583ffb98b88fd293f33b0a3", "lat": 38.905209, "fusion_lat": 0.0, "bike_id": "5f46a7ff9583ffb98b88fd293f33b0a3", "is_reserved": 0, "lon": -77.044918, "is_disabled": 0, "fusion_lon": 0.0, "rental_uris": {"android": "https://dc.lft.to/lastmile_qr_scan", "ios": "https://dc.lft.to/lastmile_qr_scan"}}, {"type": "electric_scooter", "name": "588043ccf86628b9bb1a49bf911ac8c9", "lat": 38.9360745, "fusion_lat": 0.0, "bike_id": "588043ccf86628b9bb1a49bf911ac8c9", "is_reserved": 0, "lon": -77.03780783333333, "is_disabled": 0, "fusion_lon": 0.0, "rental_uris": {"android": "https://dc.lft.to/lastmile_qr_scan", "ios": "https://dc.lft.to/lastmile_qr_scan"}}, {"type": "electric_scooter", "name": "89cc6ca0e1aff83c1d2a420810c32654", "lat": 38.900226, "fusion_lat": 0.0, "bike_id": "89cc6ca0e1aff83c1d2a420810c32654", "is_reserved": 0, "lon": -76.99347633333333, "is_disabled": 0, "fusion_lon": 0.0, "rental_uris": {"android": "https://dc.lft.to/lastmile_qr_scan", "ios": "https://dc.lft.to/lastmile_qr_scan"}}, {"type": "electric_scooter", "name": "9552663d0a2a245273e6c3b1dfb3ed88", "lat": 38.862711, "fusion_lat": 0.0, "bike_id": "9552663d0a2a245273e6c3b1dfb3ed88", "is_reserved": 0, "lon": -76.9926525, "is_disabled": 0, "fusion_lon": 0.0, "rental_uris": {"android": "https://dc.lft.to/lastmile_qr_scan", "ios": "https://dc.lft.to/lastmile_qr_scan"}}, {"type": "electric_scooter", "name": "f591a50bae7c96aa047b33a8d94e7989", "lat": 38.92616783333333, "fusion_lat": 0.0, "bike_id": "f591a50bae7c96aa047b33a8d94e7989", "is_reserved": 0, "lon": -77.02161416666667, "is_disabled": 0, "fusion_lon": 0.0, "rental_uris": {"android": "https://dc.lft.to/lastmile_qr_scan", "ios": "https://dc.lft.to/lastmile_qr_scan"}}, {"type": "electric_scooter", "name": "94f0533716114d49e15ea9a90c5461f4", "lat": 38.90144766666667, "fusion_lat": 0.0, "bike_id": "94f0533716114d49e15ea9a90c5461f4", "is_reserved": 0, "lon": -76.99804016666667, "is_disabled": 0, "fusion_lon": 0.0, "rental_uris": {"android": "https://dc.lft.to/lastmile_qr_scan", "ios": "https://dc.lft.to/lastmile_qr_scan"}}, {"type": "electric_scooter", "name": "c95b9f6ef4a8fe9ae509261ff6269bd2", "lat": 38.9045685, "fusion_lat": 0.0, "bike_id": "c95b9f6ef4a8fe9ae509261ff6269bd2", "is_reserved": 0, "lon": -77.0435735, "is_disabled": 0, "fusion_lon": 0.0, "rental_uris": {"android": "https://dc.lft.to/lastmile_qr_scan", "ios": "https://dc.lft.to/lastmile_qr_scan"}}, {"type": "electric_scooter", "name": "ca8454b6e510b872be4d8448af1d5d13", "lat": 38.89230766666667, "fusion_lat": 0.0, "bike_id": "ca8454b6e510b872be4d8448af1d5d13", "is_reserved": 0, "lon": -77.046924, "is_disabled": 0, "fusion_lon": 0.0, "rental_uris": {"android": "https://dc.lft.to/lastmile_qr_scan", "ios": "https://dc.lft.to/lastmile_qr_scan"}}, {"type": "electric_scooter", "name": "e9dbecbed34e3aaebfac09158ce9c103", "lat": 38.9028665, "fusion_lat": 0.0, "bike_id": "e9dbecbed34e3aaebfac09158ce9c103", "is_reserved": 0, "lon": -77.02270383333334, "is_disabled": 0, "fusion_lon": 0.0, "rental_uris": {"android": "https://dc.lft.to/lastmile_qr_scan", "ios": "https://dc.lft.to/lastmile_qr_scan"}}, {"type": "electric_scooter", "name": "2011cd74ec403ea8b6227ed739594f0b", "lat": 38.88606516666667, "fusion_lat": 0.0, "bike_id": "2011cd74ec403ea8b6227ed739594f0b", "is_reserved": 0, "lon": -76.95594666666666, "is_disabled": 0, "fusion_lon": 0.0, "rental_uris": {"android": "https://dc.lft.to/lastmile_qr_scan", "ios": "https://dc.lft.to/lastmile_qr_scan"}}, {"type": "electric_scooter", "name": "e78da4c37d4a889cf01f29acb51a3d6f", "lat": 38.921411666666664, "fusion_lat": 0.0, "bike_id": "e78da4c37d4a889cf01f29acb51a3d6f", "is_reserved": 0, "lon": -77.019206, "is_disabled": 0, "fusion_lon": 0.0, "rental_uris": {"android": "https://dc.lft.to/lastmile_qr_scan", "ios": "https://dc.lft.to/lastmile_qr_scan"}}, {"type": "electric_scooter", "name": "78ee03662016f05b9ba8d05990441f4f", "lat": 38.93874866666667, "fusion_lat": 0.0, "bike_id": "78ee03662016f05b9ba8d05990441f4f", "is_reserved": 0, "lon": -77.0248335, "is_disabled": 0, "fusion_lon": 0.0, "rental_uris": {"android": "https://dc.lft.to/lastmile_qr_scan", "ios": "https://dc.lft.to/lastmile_qr_scan"}}, {"type": "electric_scooter", "name": "3bad043f9cf2bbb609ca9465368ce2fe", "lat": 38.892321, "fusion_lat": 0.0, "bike_id": "3bad043f9cf2bbb609ca9465368ce2fe", "is_reserved": 0, "lon": -77.05002, "is_disabled": 0, "fusion_lon": 0.0, "rental_uris": {"android": "https://dc.lft.to/lastmile_qr_scan", "ios": "https://dc.lft.to/lastmile_qr_scan"}}, {"type": "electric_scooter", "name": "d9216e5d16061c3a99a764034148b6bd", "lat": 38.88187666666666, "fusion_lat": 0.0, "bike_id": "d9216e5d16061c3a99a764034148b6bd", "is_reserved": 0, "lon": -76.95887016666667, "is_disabled": 0, "fusion_lon": 0.0, "rental_uris": {"android": "https://dc.lft.to/lastmile_qr_scan", "ios": "https://dc.lft.to/lastmile_qr_scan"}}, {"type": "electric_scooter", "name": "d8a4d42d2edfb704e550df0e0bf5cb6d", "lat": 38.8971295, "fusion_lat": 0.0, "bike_id": "d8a4d42d2edfb704e550df0e0bf5cb6d", "is_reserved": 0, "lon": -77.02677983333334, "is_disabled": 0, "fusion_lon": 0.0, "rental_uris": {"android": "https://dc.lft.to/lastmile_qr_scan", "ios": "https://dc.lft.to/lastmile_qr_scan"}}, {"type": "electric_scooter", "name": "86611da90513312ae3aa905b2ab2fd0b", "lat": 38.931892166666664, "fusion_lat": 0.0, "bike_id": "86611da90513312ae3aa905b2ab2fd0b", "is_reserved": 0, "lon": -77.04304183333333, "is_disabled": 0, "fusion_lon": 0.0, "rental_uris": {"android": "https://dc.lft.to/lastmile_qr_scan", "ios": "https://dc.lft.to/lastmile_qr_scan"}}, {"type": "electric_scooter", "name": "4a7694cdf59d4c12de004bf7e76680ab", "lat": 38.9198975, "fusion_lat": 0.0, "bike_id": "4a7694cdf59d4c12de004bf7e76680ab", "is_reserved": 0, "lon": -76.97307533333333, "is_disabled": 0, "fusion_lon": 0.0, "rental_uris": {"android": "https://dc.lft.to/lastmile_qr_scan", "ios": "https://dc.lft.to/lastmile_qr_scan"}}, {"type": "electric_scooter", "name": "dacd499f858927ecb72ed8050c5e4c1f", "lat": 38.903296166666664, "fusion_lat": 0.0, "bike_id": "dacd499f858927ecb72ed8050c5e4c1f", "is_reserved": 0, "lon": -77.02114583333334, "is_disabled": 0, "fusion_lon": 0.0, "rental_uris": {"android": "https://dc.lft.to/lastmile_qr_scan", "ios": "https://dc.lft.to/lastmile_qr_scan"}}, {"type": "electric_scooter", "name": "c9d63ccd441a4d8f37d7436d163500ce", "lat": 38.875843333333336, "fusion_lat": 0.0, "bike_id": "c9d63ccd441a4d8f37d7436d163500ce", "is_reserved": 0, "lon": -77.00416833333334, "is_disabled": 0, "fusion_lon": 0.0, "rental_uris": {"android": "https://dc.lft.to/lastmile_qr_scan", "ios": "https://dc.lft.to/lastmile_qr_scan"}}, {"type": "electric_scooter", "name": "e192dc90bb1cd77a9828b46bc6433cd6", "lat": 38.920814166666666, "fusion_lat": 0.0, "bike_id": "e192dc90bb1cd77a9828b46bc6433cd6", "is_reserved": 0, "lon": -77.01822666666666, "is_disabled": 0, "fusion_lon": 0.0, "rental_uris": {"android": "https://dc.lft.to/lastmile_qr_scan", "ios": "https://dc.lft.to/lastmile_qr_scan"}}, {"type": "electric_scooter", "name": "14d6bb815e18e7a608a4f513ff0adb13", "lat": 38.902957666666666, "fusion_lat": 0.0, "bike_id": "14d6bb815e18e7a608a4f513ff0adb13", "is_reserved": 0, "lon": -77.03864933333334, "is_disabled": 0, "fusion_lon": 0.0, "rental_uris": {"android": "https://dc.lft.to/lastmile_qr_scan", "ios": "https://dc.lft.to/lastmile_qr_scan"}}, {"type": "electric_scooter", "name": "3de2c3a7f4cced0da3f0cdb8264093b5", "lat": 38.86440416666667, "fusion_lat": 0.0, "bike_id": "3de2c3a7f4cced0da3f0cdb8264093b5", "is_reserved": 0, "lon": -76.98010483333333, "is_disabled": 0, "fusion_lon": 0.0, "rental_uris": {"android": "https://dc.lft.to/lastmile_qr_scan", "ios": "https://dc.lft.to/lastmile_qr_scan"}}, {"type": "electric_scooter", "name": "d5c50564c818fdd8fc915156067fb16f", "lat": 38.906589, "fusion_lat": 0.0, "bike_id": "d5c50564c818fdd8fc915156067fb16f", "is_reserved": 0, "lon": -77.01412866666666, "is_disabled": 0, "fusion_lon": 0.0, "rental_uris": {"android": "https://dc.lft.to/lastmile_qr_scan", "ios": "https://dc.lft.to/lastmile_qr_scan"}}, {"type": "electric_scooter", "name": "9803ffd32b789d4b9105cd0f612455a1", "lat": 38.85608666666667, "fusion_lat": 0.0, "bike_id": "9803ffd32b789d4b9105cd0f612455a1", "is_reserved": 0, "lon": -76.978499, "is_disabled": 0, "fusion_lon": 0.0, "rental_uris": {"android": "https://dc.lft.to/lastmile_qr_scan", "ios": "https://dc.lft.to/lastmile_qr_scan"}}, {"type": "electric_scooter", "name": "d73c6854a248d0fe9106ba5937d357ae", "lat": 38.92347, "fusion_lat": 0.0, "bike_id": "d73c6854a248d0fe9106ba5937d357ae", "is_reserved": 0, "lon": -77.038907, "is_disabled": 0, "fusion_lon": 0.0, "rental_uris": {"android": "https://dc.lft.to/lastmile_qr_scan", "ios": "https://dc.lft.to/lastmile_qr_scan"}}, {"type": "electric_scooter", "name": "9540be5fb7008537c6abece6818d95f9", "lat": 38.92257133333333, "fusion_lat": 0.0, "bike_id": "9540be5fb7008537c6abece6818d95f9", "is_reserved": 0, "lon": -77.04253466666667, "is_disabled": 0, "fusion_lon": 0.0, "rental_uris": {"android": "https://dc.lft.to/lastmile_qr_scan", "ios": "https://dc.lft.to/lastmile_qr_scan"}}, {"type": "electric_scooter", "name": "33829f10e6d42a67744128ff49b49301", "lat": 38.90684666666667, "fusion_lat": 0.0, "bike_id": "33829f10e6d42a67744128ff49b49301", "is_reserved": 0, "lon": -77.03657266666667, "is_disabled": 0, "fusion_lon": 0.0, "rental_uris": {"android": "https://dc.lft.to/lastmile_qr_scan", "ios": "https://dc.lft.to/lastmile_qr_scan"}}, {"type": "electric_scooter", "name": "298ab0776d44e15961c0eb23ba3cfc4f", "lat": 38.928488333333334, "fusion_lat": 0.0, "bike_id": "298ab0776d44e15961c0eb23ba3cfc4f", "is_reserved": 0, "lon": -76.99597483333334, "is_disabled": 0, "fusion_lon": 0.0, "rental_uris": {"android": "https://dc.lft.to/lastmile_qr_scan", "ios": "https://dc.lft.to/lastmile_qr_scan"}}, {"type": "electric_scooter", "name": "31dc44231a841e50559138333d49221b", "lat": 38.904257333333334, "fusion_lat": 0.0, "bike_id": "31dc44231a841e50559138333d49221b", "is_reserved": 0, "lon": -77.03459183333334, "is_disabled": 0, "fusion_lon": 0.0, "rental_uris": {"android": "https://dc.lft.to/lastmile_qr_scan", "ios": "https://dc.lft.to/lastmile_qr_scan"}}, {"type": "electric_scooter", "name": "3334292d5a199d9abe3a6bcad6269416", "lat": 38.896429, "fusion_lat": 0.0, "bike_id": "3334292d5a199d9abe3a6bcad6269416", "is_reserved": 0, "lon": -77.04014166666667, "is_disabled": 0, "fusion_lon": 0.0, "rental_uris": {"android": "https://dc.lft.to/lastmile_qr_scan", "ios": "https://dc.lft.to/lastmile_qr_scan"}}, {"type": "electric_scooter", "name": "ad9148c43f4a65f6bcedb5cad8b991ec", "lat": 38.934587666666665, "fusion_lat": 0.0, "bike_id": "ad9148c43f4a65f6bcedb5cad8b991ec", "is_reserved": 0, "lon": -77.02101, "is_disabled": 0, "fusion_lon": 0.0, "rental_uris": {"android": "https://dc.lft.to/lastmile_qr_scan", "ios": "https://dc.lft.to/lastmile_qr_scan"}}, {"type": "electric_scooter", "name": "0c26790e70f7560aef155f555acdb7ea", "lat": 38.918441, "fusion_lat": 0.0, "bike_id": "0c26790e70f7560aef155f555acdb7ea", "is_reserved": 0, "lon": -77.02694316666667, "is_disabled": 0, "fusion_lon": 0.0, "rental_uris": {"android": "https://dc.lft.to/lastmile_qr_scan", "ios": "https://dc.lft.to/lastmile_qr_scan"}}, {"type": "electric_scooter", "name": "7beecfdf763bc3234d5cf9b95168109e", "lat": 38.8996205, "fusion_lat": 0.0, "bike_id": "7beecfdf763bc3234d5cf9b95168109e", "is_reserved": 0, "lon": -77.03211433333334, "is_disabled": 0, "fusion_lon": 0.0, "rental_uris": {"android": "https://dc.lft.to/lastmile_qr_scan", "ios": "https://dc.lft.to/lastmile_qr_scan"}}, {"type": "electric_scooter", "name": "df042c48bd68212a2a16567e2e9ae01c", "lat": 38.917327666666665, "fusion_lat": 0.0, "bike_id": "df042c48bd68212a2a16567e2e9ae01c", "is_reserved": 0, "lon": -77.04172033333333, "is_disabled": 0, "fusion_lon": 0.0, "rental_uris": {"android": "https://dc.lft.to/lastmile_qr_scan", "ios": "https://dc.lft.to/lastmile_qr_scan"}}, {"type": "electric_scooter", "name": "4c12b78c27a4e5567c983fa4b359c3a9", "lat": 38.911152666666666, "fusion_lat": 0.0, "bike_id": "4c12b78c27a4e5567c983fa4b359c3a9", "is_reserved": 0, "lon": -77.04503283333334, "is_disabled": 0, "fusion_lon": 0.0, "rental_uris": {"android": "https://dc.lft.to/lastmile_qr_scan", "ios": "https://dc.lft.to/lastmile_qr_scan"}}, {"type": "electric_scooter", "name": "408201c001081092697e7be1b4c7e396", "lat": 38.938841833333335, "fusion_lat": 0.0, "bike_id": "408201c001081092697e7be1b4c7e396", "is_reserved": 0, "lon": -77.03260233333333, "is_disabled": 0, "fusion_lon": 0.0, "rental_uris": {"android": "https://dc.lft.to/lastmile_qr_scan", "ios": "https://dc.lft.to/lastmile_qr_scan"}}, {"type": "electric_bike", "name": "6eef7879235177b7c6bac706adbe3578", "lat": 38.99788016666667, "fusion_lat": 0.0, "bike_id": "6eef7879235177b7c6bac706adbe3578", "is_reserved": 0, "lon": -77.0075845, "is_disabled": 0, "fusion_lon": 0.0, "rental_uris": {"android": "https://dc.lft.to/lastmile_qr_scan", "ios": "https://dc.lft.to/lastmile_qr_scan"}}, {"type": "electric_scooter", "name": "1fd1980c8627477e542c8d19e9dbffa0", "lat": 38.9187695, "fusion_lat": 0.0, "bike_id": "1fd1980c8627477e542c8d19e9dbffa0", "is_reserved": 0, "lon": -77.03646783333333, "is_disabled": 0, "fusion_lon": 0.0, "rental_uris": {"android": "https://dc.lft.to/lastmile_qr_scan", "ios": "https://dc.lft.to/lastmile_qr_scan"}}, {"type": "electric_scooter", "name": "d7a3d6613806e30c2750e2c60af2c339", "lat": 38.917253333333335, "fusion_lat": 0.0, "bike_id": "d7a3d6613806e30c2750e2c60af2c339", "is_reserved": 0, "lon": -77.06839366666667, "is_disabled": 0, "fusion_lon": 0.0, "rental_uris": {"android": "https://dc.lft.to/lastmile_qr_scan", "ios": "https://dc.lft.to/lastmile_qr_scan"}}, {"type": "electric_scooter", "name": "037761377be4f0646e160d8c3d03d4c1", "lat": 38.896541166666665, "fusion_lat": 0.0, "bike_id": "037761377be4f0646e160d8c3d03d4c1", "is_reserved": 0, "lon": -77.02685583333333, "is_disabled": 0, "fusion_lon": 0.0, "rental_uris": {"android": "https://dc.lft.to/lastmile_qr_scan", "ios": "https://dc.lft.to/lastmile_qr_scan"}}, {"type": "electric_scooter", "name": "f86ee4029a8524387a4d19ffc96a3d44", "lat": 38.875805166666666, "fusion_lat": 0.0, "bike_id": "f86ee4029a8524387a4d19ffc96a3d44", "is_reserved": 0, "lon": -77.005776, "is_disabled": 0, "fusion_lon": 0.0, "rental_uris": {"android": "https://dc.lft.to/lastmile_qr_scan", "ios": "https://dc.lft.to/lastmile_qr_scan"}}, {"type": "electric_scooter", "name": "c102a24618b6d532686fae06d4bea5c7", "lat": 38.90385916666666, "fusion_lat": 0.0, "bike_id": "c102a24618b6d532686fae06d4bea5c7", "is_reserved": 0, "lon": -77.03632883333333, "is_disabled": 0, "fusion_lon": 0.0, "rental_uris": {"android": "https://dc.lft.to/lastmile_qr_scan", "ios": "https://dc.lft.to/lastmile_qr_scan"}}, {"type": "electric_scooter", "name": "f8c12a453da0e55adaf6e123c2edf9d8", "lat": 38.923359833333336, "fusion_lat": 0.0, "bike_id": "f8c12a453da0e55adaf6e123c2edf9d8", "is_reserved": 0, "lon": -77.04306466666667, "is_disabled": 0, "fusion_lon": 0.0, "rental_uris": {"android": "https://dc.lft.to/lastmile_qr_scan", "ios": "https://dc.lft.to/lastmile_qr_scan"}}, {"type": "electric_scooter", "name": "ba7566427c29e05e43f16f4d4a8e02f3", "lat": 38.892270833333335, "fusion_lat": 0.0, "bike_id": "ba7566427c29e05e43f16f4d4a8e02f3", "is_reserved": 0, "lon": -77.02636233333334, "is_disabled": 0, "fusion_lon": 0.0, "rental_uris": {"android": "https://dc.lft.to/lastmile_qr_scan", "ios": "https://dc.lft.to/lastmile_qr_scan"}}, {"type": "electric_scooter", "name": "6cc9e73bdb53338988b4b78aa41c1e4f", "lat": 38.8999325, "fusion_lat": 0.0, "bike_id": "6cc9e73bdb53338988b4b78aa41c1e4f", "is_reserved": 0, "lon": -77.00700516666667, "is_disabled": 0, "fusion_lon": 0.0, "rental_uris": {"android": "https://dc.lft.to/lastmile_qr_scan", "ios": "https://dc.lft.to/lastmile_qr_scan"}}, {"type": "electric_scooter", "name": "aeb93137d0edc125a2ef570750959732", "lat": 38.8791315, "fusion_lat": 0.0, "bike_id": "aeb93137d0edc125a2ef570750959732", "is_reserved": 0, "lon": -77.02205733333334, "is_disabled": 0, "fusion_lon": 0.0, "rental_uris": {"android": "https://dc.lft.to/lastmile_qr_scan", "ios": "https://dc.lft.to/lastmile_qr_scan"}}, {"type": "electric_scooter", "name": "756da646b0791b9db082b7ed9c583a92", "lat": 38.916009333333335, "fusion_lat": 0.0, "bike_id": "756da646b0791b9db082b7ed9c583a92", "is_reserved": 0, "lon": -77.02200666666667, "is_disabled": 0, "fusion_lon": 0.0, "rental_uris": {"android": "https://dc.lft.to/lastmile_qr_scan", "ios": "https://dc.lft.to/lastmile_qr_scan"}}, {"type": "electric_scooter", "name": "862ee01c0b5940a8ea9e3a015ca890b4", "lat": 38.904836833333334, "fusion_lat": 0.0, "bike_id": "862ee01c0b5940a8ea9e3a015ca890b4", "is_reserved": 0, "lon": -77.04328466666666, "is_disabled": 0, "fusion_lon": 0.0, "rental_uris": {"android": "https://dc.lft.to/lastmile_qr_scan", "ios": "https://dc.lft.to/lastmile_qr_scan"}}, {"type": "electric_scooter", "name": "e0b13f871d23006182bde9074a67041e", "lat": 38.901378666666666, "fusion_lat": 0.0, "bike_id": "e0b13f871d23006182bde9074a67041e", "is_reserved": 0, "lon": -77.01813833333334, "is_disabled": 0, "fusion_lon": 0.0, "rental_uris": {"android": "https://dc.lft.to/lastmile_qr_scan", "ios": "https://dc.lft.to/lastmile_qr_scan"}}, {"type": "electric_scooter", "name": "36d5fd95e8f78596d0dec3c69cd8c335", "lat": 38.8997175, "fusion_lat": 0.0, "bike_id": "36d5fd95e8f78596d0dec3c69cd8c335", "is_reserved": 0, "lon": -77.03362183333333, "is_disabled": 0, "fusion_lon": 0.0, "rental_uris": {"android": "https://dc.lft.to/lastmile_qr_scan", "ios": "https://dc.lft.to/lastmile_qr_scan"}}, {"type": "electric_scooter", "name": "8525d64335382738368d1fe41780f45c", "lat": 38.904034833333334, "fusion_lat": 0.0, "bike_id": "8525d64335382738368d1fe41780f45c", "is_reserved": 0, "lon": -77.040383, "is_disabled": 0, "fusion_lon": 0.0, "rental_uris": {"android": "https://dc.lft.to/lastmile_qr_scan", "ios": "https://dc.lft.to/lastmile_qr_scan"}}, {"type": "electric_scooter", "name": "39dcd65eb5af526001751b58da40610e", "lat": 38.892274666666665, "fusion_lat": 0.0, "bike_id": "39dcd65eb5af526001751b58da40610e", "is_reserved": 0, "lon": -77.045131, "is_disabled": 0, "fusion_lon": 0.0, "rental_uris": {"android": "https://dc.lft.to/lastmile_qr_scan", "ios": "https://dc.lft.to/lastmile_qr_scan"}}, {"type": "electric_scooter", "name": "c9e1ba42c95fcb1b0eed6e15c51bcb2b", "lat": 38.865663833333336, "fusion_lat": 0.0, "bike_id": "c9e1ba42c95fcb1b0eed6e15c51bcb2b", "is_reserved": 0, "lon": -76.98335433333334, "is_disabled": 0, "fusion_lon": 0.0, "rental_uris": {"android": "https://dc.lft.to/lastmile_qr_scan", "ios": "https://dc.lft.to/lastmile_qr_scan"}}, {"type": "electric_scooter", "name": "e9bca642c3fd55154b835ad960093edc", "lat": 38.92895333333333, "fusion_lat": 0.0, "bike_id": "e9bca642c3fd55154b835ad960093edc", "is_reserved": 0, "lon": -77.01642966666667, "is_disabled": 0, "fusion_lon": 0.0, "rental_uris": {"android": "https://dc.lft.to/lastmile_qr_scan", "ios": "https://dc.lft.to/lastmile_qr_scan"}}, {"type": "electric_scooter", "name": "f7473a1d82523ae5f79728aa613bf887", "lat": 38.8650655, "fusion_lat": 0.0, "bike_id": "f7473a1d82523ae5f79728aa613bf887", "is_reserved": 0, "lon": -76.9900635, "is_disabled": 0, "fusion_lon": 0.0, "rental_uris": {"android": "https://dc.lft.to/lastmile_qr_scan", "ios": "https://dc.lft.to/lastmile_qr_scan"}}, {"type": "electric_scooter", "name": "a56ad2f9b4108a054ce93205be96279d", "lat": 38.9216025, "fusion_lat": 0.0, "bike_id": "a56ad2f9b4108a054ce93205be96279d", "is_reserved": 0, "lon": -77.0421585, "is_disabled": 0, "fusion_lon": 0.0, "rental_uris": {"android": "https://dc.lft.to/lastmile_qr_scan", "ios": "https://dc.lft.to/lastmile_qr_scan"}}, {"type": "electric_scooter", "name": "09008a55beb432856e3dc3f5712d1b8f", "lat": 38.90570066666667, "fusion_lat": 0.0, "bike_id": "09008a55beb432856e3dc3f5712d1b8f", "is_reserved": 0, "lon": -77.03451883333334, "is_disabled": 0, "fusion_lon": 0.0, "rental_uris": {"android": "https://dc.lft.to/lastmile_qr_scan", "ios": "https://dc.lft.to/lastmile_qr_scan"}}, {"type": "electric_scooter", "name": "282abcde3c7f48cb11a3c1953e394e89", "lat": 38.89835766666667, "fusion_lat": 0.0, "bike_id": "282abcde3c7f48cb11a3c1953e394e89", "is_reserved": 0, "lon": -77.04338766666666, "is_disabled": 0, "fusion_lon": 0.0, "rental_uris": {"android": "https://dc.lft.to/lastmile_qr_scan", "ios": "https://dc.lft.to/lastmile_qr_scan"}}, {"type": "electric_scooter", "name": "4cb51586216ff6aff9bccf04bb536add", "lat": 38.900552166666664, "fusion_lat": 0.0, "bike_id": "4cb51586216ff6aff9bccf04bb536add", "is_reserved": 0, "lon": -76.98263666666666, "is_disabled": 0, "fusion_lon": 0.0, "rental_uris": {"android": "https://dc.lft.to/lastmile_qr_scan", "ios": "https://dc.lft.to/lastmile_qr_scan"}}, {"type": "electric_scooter", "name": "3d9012033760c245473ca3d650c3f137", "lat": 38.90417083333333, "fusion_lat": 0.0, "bike_id": "3d9012033760c245473ca3d650c3f137", "is_reserved": 0, "lon": -76.98531, "is_disabled": 0, "fusion_lon": 0.0, "rental_uris": {"android": "https://dc.lft.to/lastmile_qr_scan", "ios": "https://dc.lft.to/lastmile_qr_scan"}}, {"type": "electric_bike", "name": "0ea7b67b44bcc476653ee7fc9c4a3c5d", "lat": 38.9217995, "fusion_lat": 0.0, "bike_id": "0ea7b67b44bcc476653ee7fc9c4a3c5d", "is_reserved": 0, "lon": -76.99405483333334, "is_disabled": 0, "fusion_lon": 0.0, "rental_uris": {"android": "https://dc.lft.to/lastmile_qr_scan", "ios": "https://dc.lft.to/lastmile_qr_scan"}}, {"type": "electric_scooter", "name": "f77ec2670e15dc93a7bf37fd1e79bbe6", "lat": 38.899275833333334, "fusion_lat": 0.0, "bike_id": "f77ec2670e15dc93a7bf37fd1e79bbe6", "is_reserved": 0, "lon": -77.01982283333334, "is_disabled": 0, "fusion_lon": 0.0, "rental_uris": {"android": "https://dc.lft.to/lastmile_qr_scan", "ios": "https://dc.lft.to/lastmile_qr_scan"}}, {"type": "electric_scooter", "name": "9487038c57801d72e37ee604e8ebcba3", "lat": 38.92441, "fusion_lat": 0.0, "bike_id": "9487038c57801d72e37ee604e8ebcba3", "is_reserved": 0, "lon": -77.034012, "is_disabled": 0, "fusion_lon": 0.0, "rental_uris": {"android": "https://dc.lft.to/lastmile_qr_scan", "ios": "https://dc.lft.to/lastmile_qr_scan"}}, {"type": "electric_bike", "name": "8e68d6dde61ff8c757adcb1625fd07ed", "lat": 38.88702083333333, "fusion_lat": 0.0, "bike_id": "8e68d6dde61ff8c757adcb1625fd07ed", "is_reserved": 0, "lon": -77.00219316666667, "is_disabled": 0, "fusion_lon": 0.0, "rental_uris": {"android": "https://dc.lft.to/lastmile_qr_scan", "ios": "https://dc.lft.to/lastmile_qr_scan"}}, {"type": "electric_scooter", "name": "2cfd738139b354cb71cd24cab13f4d41", "lat": 38.900454, "fusion_lat": 0.0, "bike_id": "2cfd738139b354cb71cd24cab13f4d41", "is_reserved": 0, "lon": -77.00195566666666, "is_disabled": 0, "fusion_lon": 0.0, "rental_uris": {"android": "https://dc.lft.to/lastmile_qr_scan", "ios": "https://dc.lft.to/lastmile_qr_scan"}}, {"type": "electric_scooter", "name": "d6f1e5d973c58f53f211c449b086d8cc", "lat": 38.93220866666667, "fusion_lat": 0.0, "bike_id": "d6f1e5d973c58f53f211c449b086d8cc", "is_reserved": 0, "lon": -77.03253783333334, "is_disabled": 0, "fusion_lon": 0.0, "rental_uris": {"android": "https://dc.lft.to/lastmile_qr_scan", "ios": "https://dc.lft.to/lastmile_qr_scan"}}, {"type": "electric_scooter", "name": "1c02b2de75ca489f10a698dbe3ed706e", "lat": 38.937091833333334, "fusion_lat": 0.0, "bike_id": "1c02b2de75ca489f10a698dbe3ed706e", "is_reserved": 0, "lon": -77.0323245, "is_disabled": 0, "fusion_lon": 0.0, "rental_uris": {"android": "https://dc.lft.to/lastmile_qr_scan", "ios": "https://dc.lft.to/lastmile_qr_scan"}}, {"type": "electric_bike", "name": "464e67a36e931103b248ca5acc680795", "lat": 38.842851833333334, "fusion_lat": 0.0, "bike_id": "464e67a36e931103b248ca5acc680795", "is_reserved": 0, "lon": -76.9883735, "is_disabled": 0, "fusion_lon": 0.0, "rental_uris": {"android": "https://dc.lft.to/lastmile_qr_scan", "ios": "https://dc.lft.to/lastmile_qr_scan"}}, {"type": "electric_scooter", "name": "cd55371a0dabd519d108cb615b1fbf95", "lat": 38.90850366666667, "fusion_lat": 0.0, "bike_id": "cd55371a0dabd519d108cb615b1fbf95", "is_reserved": 0, "lon": -77.04166816666667, "is_disabled": 0, "fusion_lon": 0.0, "rental_uris": {"android": "https://dc.lft.to/lastmile_qr_scan", "ios": "https://dc.lft.to/lastmile_qr_scan"}}, {"type": "electric_scooter", "name": "c86883225e6ff9e48ab9f61dc8719af8", "lat": 38.90167016666667, "fusion_lat": 0.0, "bike_id": "c86883225e6ff9e48ab9f61dc8719af8", "is_reserved": 0, "lon": -77.02198383333334, "is_disabled": 0, "fusion_lon": 0.0, "rental_uris": {"android": "https://dc.lft.to/lastmile_qr_scan", "ios": "https://dc.lft.to/lastmile_qr_scan"}}, {"type": "electric_bike", "name": "af1ad0bab416be3a7adfaaa712f64f1c", "lat": 38.908664333333334, "fusion_lat": 0.0, "bike_id": "af1ad0bab416be3a7adfaaa712f64f1c", "is_reserved": 0, "lon": -76.99945783333334, "is_disabled": 0, "fusion_lon": 0.0, "rental_uris": {"android": "https://dc.lft.to/lastmile_qr_scan", "ios": "https://dc.lft.to/lastmile_qr_scan"}}, {"type": "electric_scooter", "name": "828e7371dcea43ac5488285feeb7660b", "lat": 38.90979866666667, "fusion_lat": 0.0, "bike_id": "828e7371dcea43ac5488285feeb7660b", "is_reserved": 0, "lon": -77.02196683333334, "is_disabled": 0, "fusion_lon": 0.0, "rental_uris": {"android": "https://dc.lft.to/lastmile_qr_scan", "ios": "https://dc.lft.to/lastmile_qr_scan"}}, {"type": "electric_scooter", "name": "07ccd3c2094879cc6ffe2ea6a70e7322", "lat": 38.90175266666667, "fusion_lat": 0.0, "bike_id": "07ccd3c2094879cc6ffe2ea6a70e7322", "is_reserved": 0, "lon": -77.02197333333334, "is_disabled": 0, "fusion_lon": 0.0, "rental_uris": {"android": "https://dc.lft.to/lastmile_qr_scan", "ios": "https://dc.lft.to/lastmile_qr_scan"}}, {"type": "electric_scooter", "name": "9e2f2c476ab09a3028054ab2a720ef3c", "lat": 38.94789166666666, "fusion_lat": 0.0, "bike_id": "9e2f2c476ab09a3028054ab2a720ef3c", "is_reserved": 0, "lon": -77.08020033333334, "is_disabled": 0, "fusion_lon": 0.0, "rental_uris": {"android": "https://dc.lft.to/lastmile_qr_scan", "ios": "https://dc.lft.to/lastmile_qr_scan"}}, {"type": "electric_scooter", "name": "a47f39277291a9bfae9bfde85b36747a", "lat": 38.94187216666667, "fusion_lat": 0.0, "bike_id": "a47f39277291a9bfae9bfde85b36747a", "is_reserved": 0, "lon": -77.024064, "is_disabled": 0, "fusion_lon": 0.0, "rental_uris": {"android": "https://dc.lft.to/lastmile_qr_scan", "ios": "https://dc.lft.to/lastmile_qr_scan"}}, {"type": "electric_scooter", "name": "f356fba8118261aa2e7cb5997839776d", "lat": 38.903677, "fusion_lat": 0.0, "bike_id": "f356fba8118261aa2e7cb5997839776d", "is_reserved": 0, "lon": -77.0371685, "is_disabled": 0, "fusion_lon": 0.0, "rental_uris": {"android": "https://dc.lft.to/lastmile_qr_scan", "ios": "https://dc.lft.to/lastmile_qr_scan"}}, {"type": "electric_scooter", "name": "be76dfe3f9e8e978e603cbf3492a54c8", "lat": 38.89235383333333, "fusion_lat": 0.0, "bike_id": "be76dfe3f9e8e978e603cbf3492a54c8", "is_reserved": 0, "lon": -77.02205466666666, "is_disabled": 0, "fusion_lon": 0.0, "rental_uris": {"android": "https://dc.lft.to/lastmile_qr_scan", "ios": "https://dc.lft.to/lastmile_qr_scan"}}, {"type": "electric_scooter", "name": "12c02c9e758c13f7dd10570119038941", "lat": 38.932774, "fusion_lat": 0.0, "bike_id": "12c02c9e758c13f7dd10570119038941", "is_reserved": 0, "lon": -77.0388045, "is_disabled": 0, "fusion_lon": 0.0, "rental_uris": {"android": "https://dc.lft.to/lastmile_qr_scan", "ios": "https://dc.lft.to/lastmile_qr_scan"}}, {"type": "electric_scooter", "name": "2efe45a9b279703432009e2869ab2afe", "lat": 38.90148633333333, "fusion_lat": 0.0, "bike_id": "2efe45a9b279703432009e2869ab2afe", "is_reserved": 0, "lon": -77.035551, "is_disabled": 0, "fusion_lon": 0.0, "rental_uris": {"android": "https://dc.lft.to/lastmile_qr_scan", "ios": "https://dc.lft.to/lastmile_qr_scan"}}, {"type": "electric_scooter", "name": "681d7b2ee1fd7f967a3437634a9753cd", "lat": 38.90998733333333, "fusion_lat": 0.0, "bike_id": "681d7b2ee1fd7f967a3437634a9753cd", "is_reserved": 0, "lon": -77.02686516666667, "is_disabled": 0, "fusion_lon": 0.0, "rental_uris": {"android": "https://dc.lft.to/lastmile_qr_scan", "ios": "https://dc.lft.to/lastmile_qr_scan"}}, {"type": "electric_scooter", "name": "7e2aa07c0ac960e3d23bab7e06f82247", "lat": 38.90917016666667, "fusion_lat": 0.0, "bike_id": "7e2aa07c0ac960e3d23bab7e06f82247", "is_reserved": 0, "lon": -77.07266283333334, "is_disabled": 0, "fusion_lon": 0.0, "rental_uris": {"android": "https://dc.lft.to/lastmile_qr_scan", "ios": "https://dc.lft.to/lastmile_qr_scan"}}, {"type": "electric_scooter", "name": "ea3ee2cd9c73d81fd260272a233b34ec", "lat": 38.89734583333333, "fusion_lat": 0.0, "bike_id": "ea3ee2cd9c73d81fd260272a233b34ec", "is_reserved": 0, "lon": -77.04735633333334, "is_disabled": 0, "fusion_lon": 0.0, "rental_uris": {"android": "https://dc.lft.to/lastmile_qr_scan", "ios": "https://dc.lft.to/lastmile_qr_scan"}}, {"type": "electric_scooter", "name": "68d92f097cabdc39005b85c2bccd6d6b", "lat": 38.910114166666666, "fusion_lat": 0.0, "bike_id": "68d92f097cabdc39005b85c2bccd6d6b", "is_reserved": 0, "lon": -77.03658066666667, "is_disabled": 0, "fusion_lon": 0.0, "rental_uris": {"android": "https://dc.lft.to/lastmile_qr_scan", "ios": "https://dc.lft.to/lastmile_qr_scan"}}, {"type": "electric_scooter", "name": "12db67dae33216eb4d9a54f70918c196", "lat": 38.905745, "fusion_lat": 0.0, "bike_id": "12db67dae33216eb4d9a54f70918c196", "is_reserved": 0, "lon": -77.00395766666666, "is_disabled": 0, "fusion_lon": 0.0, "rental_uris": {"android": "https://dc.lft.to/lastmile_qr_scan", "ios": "https://dc.lft.to/lastmile_qr_scan"}}, {"type": "electric_scooter", "name": "78866396ab2e2814170faad1318b7266", "lat": 38.925208833333336, "fusion_lat": 0.0, "bike_id": "78866396ab2e2814170faad1318b7266", "is_reserved": 0, "lon": -77.02144416666667, "is_disabled": 0, "fusion_lon": 0.0, "rental_uris": {"android": "https://dc.lft.to/lastmile_qr_scan", "ios": "https://dc.lft.to/lastmile_qr_scan"}}, {"type": "electric_scooter", "name": "78a371b1a507569a67022898c78f9e60", "lat": 38.91036166666667, "fusion_lat": 0.0, "bike_id": "78a371b1a507569a67022898c78f9e60", "is_reserved": 0, "lon": -77.03219383333334, "is_disabled": 0, "fusion_lon": 0.0, "rental_uris": {"android": "https://dc.lft.to/lastmile_qr_scan", "ios": "https://dc.lft.to/lastmile_qr_scan"}}, {"type": "electric_scooter", "name": "593960d69a8733f3bc92f054417d7049", "lat": 38.904205, "fusion_lat": 0.0, "bike_id": "593960d69a8733f3bc92f054417d7049", "is_reserved": 0, "lon": -77.04354783333334, "is_disabled": 0, "fusion_lon": 0.0, "rental_uris": {"android": "https://dc.lft.to/lastmile_qr_scan", "ios": "https://dc.lft.to/lastmile_qr_scan"}}, {"type": "electric_scooter", "name": "71436c3106c987ebcf04e8c005fc1c7d", "lat": 38.929620666666665, "fusion_lat": 0.0, "bike_id": "71436c3106c987ebcf04e8c005fc1c7d", "is_reserved": 0, "lon": -77.027848, "is_disabled": 0, "fusion_lon": 0.0, "rental_uris": {"android": "https://dc.lft.to/lastmile_qr_scan", "ios": "https://dc.lft.to/lastmile_qr_scan"}}, {"type": "electric_scooter", "name": "b58f514ceb391a135d8d63dc2448296c", "lat": 38.937047166666666, "fusion_lat": 0.0, "bike_id": "b58f514ceb391a135d8d63dc2448296c", "is_reserved": 0, "lon": -77.05599, "is_disabled": 0, "fusion_lon": 0.0, "rental_uris": {"android": "https://dc.lft.to/lastmile_qr_scan", "ios": "https://dc.lft.to/lastmile_qr_scan"}}, {"type": "electric_scooter", "name": "1ac902c37702f9ff93fbb7ddd7e8fe03", "lat": 38.8768925, "fusion_lat": 0.0, "bike_id": "1ac902c37702f9ff93fbb7ddd7e8fe03", "is_reserved": 0, "lon": -77.0175505, "is_disabled": 0, "fusion_lon": 0.0, "rental_uris": {"android": "https://dc.lft.to/lastmile_qr_scan", "ios": "https://dc.lft.to/lastmile_qr_scan"}}, {"type": "electric_scooter", "name": "0337fb10cb63f8e91729ad40f05e6ac2", "lat": 38.91987116666667, "fusion_lat": 0.0, "bike_id": "0337fb10cb63f8e91729ad40f05e6ac2", "is_reserved": 0, "lon": -77.02383933333333, "is_disabled": 0, "fusion_lon": 0.0, "rental_uris": {"android": "https://dc.lft.to/lastmile_qr_scan", "ios": "https://dc.lft.to/lastmile_qr_scan"}}, {"type": "electric_scooter", "name": "c33cc76370f11050648627d055024976", "lat": 38.92256233333333, "fusion_lat": 0.0, "bike_id": "c33cc76370f11050648627d055024976", "is_reserved": 0, "lon": -77.03887633333333, "is_disabled": 0, "fusion_lon": 0.0, "rental_uris": {"android": "https://dc.lft.to/lastmile_qr_scan", "ios": "https://dc.lft.to/lastmile_qr_scan"}}, {"type": "electric_bike", "name": "6d227f8cc2e58920d5398a5dba03b3a5", "lat": 38.909552, "fusion_lat": 0.0, "bike_id": "6d227f8cc2e58920d5398a5dba03b3a5", "is_reserved": 0, "lon": -76.998902, "is_disabled": 0, "fusion_lon": 0.0, "rental_uris": {"android": "https://dc.lft.to/lastmile_qr_scan", "ios": "https://dc.lft.to/lastmile_qr_scan"}}, {"type": "electric_scooter", "name": "cc2a301cc402e60e735f37907fe28d97", "lat": 38.9031305, "fusion_lat": 0.0, "bike_id": "cc2a301cc402e60e735f37907fe28d97", "is_reserved": 0, "lon": -77.02359066666666, "is_disabled": 0, "fusion_lon": 0.0, "rental_uris": {"android": "https://dc.lft.to/lastmile_qr_scan", "ios": "https://dc.lft.to/lastmile_qr_scan"}}, {"type": "electric_scooter", "name": "796ddd68b55e13987ab33c89bc2710f5", "lat": 38.91560033333333, "fusion_lat": 0.0, "bike_id": "796ddd68b55e13987ab33c89bc2710f5", "is_reserved": 0, "lon": -77.03174416666667, "is_disabled": 0, "fusion_lon": 0.0, "rental_uris": {"android": "https://dc.lft.to/lastmile_qr_scan", "ios": "https://dc.lft.to/lastmile_qr_scan"}}, {"type": "electric_bike", "name": "66afbbafc0e1cec22ea0e5198711e2d1", "lat": 38.98466533333333, "fusion_lat": 0.0, "bike_id": "66afbbafc0e1cec22ea0e5198711e2d1", "is_reserved": 0, "lon": -76.97052066666667, "is_disabled": 0, "fusion_lon": 0.0, "rental_uris": {"android": "https://dc.lft.to/lastmile_qr_scan", "ios": "https://dc.lft.to/lastmile_qr_scan"}}, {"type": "electric_scooter", "name": "0be4a9c0ca9cea1328bc7dfc11d8f6cf", "lat": 38.893649, "fusion_lat": 0.0, "bike_id": "0be4a9c0ca9cea1328bc7dfc11d8f6cf", "is_reserved": 0, "lon": -76.98677066666667, "is_disabled": 0, "fusion_lon": 0.0, "rental_uris": {"android": "https://dc.lft.to/lastmile_qr_scan", "ios": "https://dc.lft.to/lastmile_qr_scan"}}, {"type": "electric_scooter", "name": "41d06901550afba56182b939be31614a", "lat": 38.90979866666667, "fusion_lat": 0.0, "bike_id": "41d06901550afba56182b939be31614a", "is_reserved": 0, "lon": -77.022002, "is_disabled": 0, "fusion_lon": 0.0, "rental_uris": {"android": "https://dc.lft.to/lastmile_qr_scan", "ios": "https://dc.lft.to/lastmile_qr_scan"}}, {"type": "electric_scooter", "name": "505f3c5d05d9e142173e399a951c53f0", "lat": 38.898459833333334, "fusion_lat": 0.0, "bike_id": "505f3c5d05d9e142173e399a951c53f0", "is_reserved": 0, "lon": -77.00735466666667, "is_disabled": 0, "fusion_lon": 0.0, "rental_uris": {"android": "https://dc.lft.to/lastmile_qr_scan", "ios": "https://dc.lft.to/lastmile_qr_scan"}}, {"type": "electric_scooter", "name": "fa0e798725174bedfa9de7e4de7e4b9f", "lat": 38.935262, "fusion_lat": 0.0, "bike_id": "fa0e798725174bedfa9de7e4de7e4b9f", "is_reserved": 0, "lon": -77.086979, "is_disabled": 0, "fusion_lon": 0.0, "rental_uris": {"android": "https://dc.lft.to/lastmile_qr_scan", "ios": "https://dc.lft.to/lastmile_qr_scan"}}, {"type": "electric_scooter", "name": "9461c07d8438c6c5e1ba839e8c856634", "lat": 38.89488716666666, "fusion_lat": 0.0, "bike_id": "9461c07d8438c6c5e1ba839e8c856634", "is_reserved": 0, "lon": -77.002232, "is_disabled": 0, "fusion_lon": 0.0, "rental_uris": {"android": "https://dc.lft.to/lastmile_qr_scan", "ios": "https://dc.lft.to/lastmile_qr_scan"}}, {"type": "electric_scooter", "name": "f7313a37fbbe86a9a31e902b193abc6c", "lat": 38.8908305, "fusion_lat": 0.0, "bike_id": "f7313a37fbbe86a9a31e902b193abc6c", "is_reserved": 0, "lon": -76.9881875, "is_disabled": 0, "fusion_lon": 0.0, "rental_uris": {"android": "https://dc.lft.to/lastmile_qr_scan", "ios": "https://dc.lft.to/lastmile_qr_scan"}}, {"type": "electric_scooter", "name": "3df86d457a7578f2a30022103bb63cb1", "lat": 38.90823416666667, "fusion_lat": 0.0, "bike_id": "3df86d457a7578f2a30022103bb63cb1", "is_reserved": 0, "lon": -76.98409983333333, "is_disabled": 0, "fusion_lon": 0.0, "rental_uris": {"android": "https://dc.lft.to/lastmile_qr_scan", "ios": "https://dc.lft.to/lastmile_qr_scan"}},