{"data": {"bikes": [{"is_disabled": 0, "fusion_lat": 0.0, "lat": 38.91827333333333, "type": "electric_scooter", "lon": -77.03640183333333, "is_reserved": 0, "fusion_lon": 0.0, "bike_id": "cfe12edf52362f0acd548c41fe75c73e", "name": "cfe12edf52362f0acd548c41fe75c73e", "rental_uris": {"ios": "https://dc.lft.to/lastmile_qr_scan", "android": "https://dc.lft.to/lastmile_qr_scan"}}, {"is_disabled": 0, "fusion_lat": 0.0, "lat": 38.90514366666667, "type": "electric_scooter", "lon": -77.04338566666667, "is_reserved": 0, "fusion_lon": 0.0, "bike_id": "5cfdad91d7fc9dfd8aa5dfc72a75f27d", "name": "5cfdad91d7fc9dfd8aa5dfc72a75f27d", "rental_uris": {"ios": "https://dc.lft.to/lastmile_qr_scan", "android": "https://dc.lft.to/lastmile_qr_scan"}}, {"is_disabled": 0, "fusion_lat": 0.0, "lat": 38.934386, "type": "electric_scooter", "lon": -77.03440566666667, "is_reserved": 0, "fusion_lon": 0.0, "bike_id": "d0842bf6026bca24123883aa4b8581f3", "name": "d0842bf6026bca24123883aa4b8581f3", "rental_uris": {"ios": "https://dc.lft.to/lastmile_qr_scan", "android": "https://dc.lft.to/lastmile_qr_scan"}}, {"is_disabled": 0, "fusion_lat": 0.0, "lat": 38.89341783333333, "type": "electric_scooter", "lon": -77.01200766666666, "is_reserved": 0, "fusion_lon": 0.0, "bike_id": "a512d73db19792e615819777c4ad0964", "name": "a512d73db19792e615819777c4ad0964", "rental_uris": {"ios": "https://dc.lft.to/lastmile_qr_scan", "android": "https://dc.lft.to/lastmile_qr_scan"}}, {"is_disabled": 0, "fusion_lat": 0.0, "lat": 38.907587666666664, "type": "electric_scooter", "lon": -77.00112783333333, "is_reserved": 0, "fusion_lon": 0.0, "bike_id": "78b8100fdb0e0b1d5a30b871fd3fa54e", "name": "78b8100fdb0e0b1d5a30b871fd3fa54e", "rental_uris": {"ios": "https://dc.lft.to/lastmile_qr_scan", "android": "https://dc.lft.to/lastmile_qr_scan"}}, {"is_disabled": 0, "fusion_lat": 0.0, "lat": 38.884332, "type": "electric_scooter", "lon": -76.9575425, "is_reserved": 0, "fusion_lon": 0.0, "bike_id": "1f4cd8c80f2587da8eb45e92aa5c3326", "name": "1f4cd8c80f2587da8eb45e92aa5c3326", "rental_uris": {"ios": "https://dc.lft.to/lastmile_qr_scan", "android": "https://dc.lft.to/lastmile_qr_scan"}}, {"is_disabled": 0, "fusion_lat": 0.0, "lat": 38.839382, "type": "electric_bike", "lon": -77.0789625, "is_reserved": 0, "fusion_lon": 0.0, "bike_id": "d0c54c5b221691219aa0c8977e22bf1c", "name": "d0c54c5b221691219aa0c8977e22bf1c", "rental_uris": {"ios": "https://dc.lft.to/lastmile_qr_scan", "android": "https://dc.lft.to/lastmile_qr_scan"}}, {"is_disabled": 0, "fusion_lat": 0.0, "lat": 38.91551033333333, "type": "electric_scooter", "lon": -77.01988216666666, "is_reserved": 0, "fusion_lon": 0.0, "bike_id": "f717348ff65ca6f108e751ffa8ceab9c", "name": "f717348ff65ca6f108e751ffa8ceab9c", "rental_uris": {"ios": "https://dc.lft.to/lastmile_qr_scan", "android": "https://dc.lft.to/lastmile_qr_scan"}}, {"is_disabled": 0, "fusion_lat": 0.0, "lat": 38.93834583333334, "type": "electric_scooter", "lon": -77.02451016666667, "is_reserved": 0, "fusion_lon": 0.0, "bike_id": "1236536e8d1aa0465b68f707674eb22c", "name": "1236536e8d1aa0465b68f707674eb22c", "rental_uris": {"ios": "https://dc.lft.to/lastmile_qr_scan", "android": "https://dc.lft.to/lastmile_qr_scan"}}, {"is_disabled": 0, "fusion_lat": 0.0, "lat": 38.882294, "type": "electric_scooter", "lon": -76.92657166666666, "is_reserved": 0, "fusion_lon": 0.0, "bike_id": "abf2af3991820763ad65dff999fbf1f3", "name": "abf2af3991820763ad65dff999fbf1f3", "rental_uris": {"ios": "https://dc.lft.to/lastmile_qr_scan", "android": "https://dc.lft.to/lastmile_qr_scan"}}, {"is_disabled": 0, "fusion_lat": 0.0, "lat": 38.92497816666667, "type": "electric_scooter", "lon": -77.00883166666667, "is_reserved": 0, "fusion_lon": 0.0, "bike_id": "f89cd06f3d79c5f1ba384dcbe8371fb5", "name": "f89cd06f3d79c5f1ba384dcbe8371fb5", "rental_uris": {"ios": "https://dc.lft.to/lastmile_qr_scan", "android": "https://dc.lft.to/lastmile_qr_scan"}}, {"is_disabled": 0, "fusion_lat": 0.0, "lat": 38.961737166666666, "type": "electric_bike", "lon": -76.9958675, "is_reserved": 0, "fusion_lon": 0.0, "bike_id": "15420616e9842b54f9392aa906055477", "name": "15420616e9842b54f9392aa906055477", "rental_uris": {"ios": "https://dc.lft.to/lastmile_qr_scan", "android": "https://dc.lft.to/lastmile_qr_scan"}}, {"is_disabled": 0, "fusion_lat": 0.0, "lat": 38.89409466666667, "type": "electric_scooter", "lon": -76.95668083333334, "is_reserved": 0, "fusion_lon": 0.0, "bike_id": "6ecfb922f794fa9c7ae328bdd6fb315d", "name": "6ecfb922f794fa9c7ae328bdd6fb315d", "rental_uris": {"ios": "https://dc.lft.to/lastmile_qr_scan", "android": "https://dc.lft.to/lastmile_qr_scan"}}, {"is_disabled": 0, "fusion_lat": 0.0, "lat": 38.93628266666666, "type": "electric_bike", "lon": -77.03655133333334, "is_reserved": 0, "fusion_lon": 0.0, "bike_id": "68897a49591c6a92e83ae885abe614d7", "name": "68897a49591c6a92e83ae885abe614d7", "rental_uris": {"ios": "https://dc.lft.to/lastmile_qr_scan", "android": "https://dc.lft.to/lastmile_qr_scan"}}, {"is_disabled": 0, "fusion_lat": 0.0, "lat": 38.916235666666665, "type": "electric_scooter", "lon": -77.0318795, "is_reserved": 0, "fusion_lon": 0.0, "bike_id": "a7400a039f031ca6f2591824a0e7c27c", "name": "a7400a039f031ca6f2591824a0e7c27c", "rental_uris": {"ios": "https://dc.lft.to/lastmile_qr_scan", "android": "https://dc.lft.to/lastmile_qr_scan"}}, {"is_disabled": 0, "fusion_lat": 0.0, "lat": 38.9279095, "type": "electric_scooter", "lon": -77.0315315, "is_reserved": 0, "fusion_lon": 0.0, "bike_id": "4a905cbf45f5aa6db43546073c1c8243", "name": "4a905cbf45f5aa6db43546073c1c8243", "rental_uris": {"ios": "https://dc.lft.to/lastmile_qr_scan", "android": "https://dc.lft.to/lastmile_qr_scan"}}, {"is_disabled": 0, "fusion_lat": 0.0, "lat": 38.984638, "type": "electric_bike", "lon": -76.955247, "is_reserved": 0, "fusion_lon": 0.0, "bike_id": "4801baff1467b206a2fe215630c18f5e", "name": "4801baff1467b206a2fe215630c18f5e", "rental_uris": {"ios": "https://dc.lft.to/lastmile_qr_scan", "android": "https://dc.lft.to/lastmile_qr_scan"}}, {"is_disabled": 0, "fusion_lat": 0.0, "lat": 38.9230885, "type": "electric_scooter", "lon": -77.04226916666667, "is_reserved": 0, "fusion_lon": 0.0, "bike_id": "0b9762b54f4f8098f7df7b06df892b7d", "name": "0b9762b54f4f8098f7df7b06df892b7d", "rental_uris": {"ios": "https://dc.lft.to/lastmile_qr_scan", "android": "https://dc.lft.to/lastmile_qr_scan"}}, {"is_disabled": 0, "fusion_lat": 0.0, "lat": 38.89222433333333, "type": "electric_scooter", "lon": -77.046538, "is_reserved": 0, "fusion_lon": 0.0, "bike_id": "59e5c3b4ea9b8a8dd768226e08dc1f2f", "name": "59e5c3b4ea9b8a8dd768226e08dc1f2f", "rental_uris": {"ios": "https://dc.lft.to/lastmile_qr_scan", "android": "https://dc.lft.to/lastmile_qr_scan"}}, {"is_disabled": 0, "fusion_lat": 0.0, "lat": 38.92134816666667, "type": "electric_scooter", "lon": -77.01797983333333, "is_reserved": 0, "fusion_lon": 0.0, "bike_id": "9c8eae6344d78234a209784532916206", "name": "9c8eae6344d78234a209784532916206", "rental_uris": {"ios": "https://dc.lft.to/lastmile_qr_scan", "android": "https://dc.lft.to/lastmile_qr_scan"}}, {"is_disabled": 0, "fusion_lat": 0.0, "lat": 38.852192, "type": "electric_bike", "lon": -77.12957583333333, "is_reserved": 0, "fusion_lon": 0.0, "bike_id": "a5e048773303f9c052740c13ae1deb17", "name": "a5e048773303f9c052740c13ae1deb17", "rental_uris": {"ios": "https://dc.lft.to/lastmile_qr_scan", "android": "https://dc.lft.to/lastmile_qr_scan"}}, {"is_disabled": 0, "fusion_lat": 0.0, "lat": 38.921718, "type": "electric_scooter", "lon": -77.0513555, "is_reserved": 0, "fusion_lon": 0.0, "bike_id": "1beb47ca5f4bb1d03216ab486191900c", "name": "1beb47ca5f4bb1d03216ab486191900c", "rental_uris": {"ios": "https://dc.lft.to/lastmile_qr_scan", "android": "https://dc.lft.to/lastmile_qr_scan"}}, {"is_disabled": 0, "fusion_lat": 0.0, "lat": 38.902813, "type": "electric_scooter", "lon": -77.0407205, "is_reserved": 0, "fusion_lon": 0.0, "bike_id": "0d4d59ca8ebe765dbf734ccf98dd66ca", "name": "0d4d59ca8ebe765dbf734ccf98dd66ca", "rental_uris": {"ios": "https://dc.lft.to/lastmile_qr_scan", "android": "https://dc.lft.to/lastmile_qr_scan"}}, {"is_disabled": 0, "fusion_lat": 0.0, "lat": 38.90041266666667, "type": "electric_scooter", "lon": -76.98828116666667, "is_reserved": 0, "fusion_lon": 0.0, "bike_id": "587bf8079d601994ed096a6763439195", "name": "587bf8079d601994ed096a6763439195", "rental_uris": {"ios": "https://dc.lft.to/lastmile_qr_scan", "android": "https://dc.lft.to/lastmile_qr_scan"}}, {"is_disabled": 0, "fusion_lat": 0.0, "lat": 38.865931833333335, "type": "electric_bike", "lon": -76.93226333333334, "is_reserved": 0, "fusion_lon": 0.0, "bike_id": "9dd37afe87e4b9af20398282f9271741", "name": "9dd37afe87e4b9af20398282f9271741", "rental_uris": {"ios": "https://dc.lft.to/lastmile_qr_scan", "android": "https://dc.lft.to/lastmile_qr_scan"}}, {"is_disabled": 0, "fusion_lat": 0.0, "lat": 38.985965666666665, "type": "electric_bike", "lon": -77.03751633333333, "is_reserved": 0, "fusion_lon": 0.0, "bike_id": "785976bca811575a87966bb761880c6d", "name": "785976bca811575a87966bb761880c6d", "rental_uris": {"ios": "https://dc.lft.to/lastmile_qr_scan", "android": "https://dc.lft.to/lastmile_qr_scan"}}, {"is_disabled": 0, "fusion_lat": 0.0, "lat": 38.90058916666667, "type": "electric_scooter", "lon": -77.0075665, "is_reserved": 0, "fusion_lon": 0.0, "bike_id": "13c5953120b71a6add2c5bc387d62676", "name": "13c5953120b71a6add2c5bc387d62676", "rental_uris": {"ios": "https://dc.lft.to/lastmile_qr_scan", "android": "https://dc.lft.to/lastmile_qr_scan"}}, {"is_disabled": 0, "fusion_lat": 0.0, "lat": 38.94272083333333, "type": "electric_scooter", "lon": -77.0325475, "is_reserved": 0, "fusion_lon": 0.0, "bike_id": "eca5d85c8c87e129f8f219e0c753e688", "name": "eca5d85c8c87e129f8f219e0c753e688", "rental_uris": {"ios": "https://dc.lft.to/lastmile_qr_scan", "android": "https://dc.lft.to/lastmile_qr_scan"}}, {"is_disabled": 0, "fusion_lat": 0.0, "lat": 38.89250916666667, "type": "electric_scooter", "lon": -76.9432615, "is_reserved": 0, "fusion_lon": 0.0, "bike_id": "5c4eabe2dfe03561ba21ca384623f43d", "name": "5c4eabe2dfe03561ba21ca384623f43d", "rental_uris": {"ios": "https://dc.lft.to/lastmile_qr_scan", "android": "https://dc.lft.to/lastmile_qr_scan"}}, {"is_disabled": 0, "fusion_lat": 0.0, "lat": 38.898784166666665, "type": "electric_scooter", "lon": -77.0327995, "is_reserved": 0, "fusion_lon": 0.0, "bike_id": "83cb02adf3b8f995a060bbbe5c36984f", "name": "83cb02adf3b8f995a060bbbe5c36984f", "rental_uris": {"ios": "https://dc.lft.to/lastmile_qr_scan", "android": "https://dc.lft.to/lastmile_qr_scan"}}, {"is_disabled": 0, "fusion_lat": 0.0, "lat": 38.900058, "type": "electric_scooter", "lon": -77.005936, "is_reserved": 0, "fusion_lon": 0.0, "bike_id": "32017102400c57f6dad5cf9fa26b432c", "name": "32017102400c57f6dad5cf9fa26b432c", "rental_uris": {"ios": "https://dc.lft.to/lastmile_qr_scan", "android": "https://dc.lft.to/lastmile_qr_scan"}}, {"is_disabled": 0, "fusion_lat": 0.0, "lat": 38.91619933333333, "type": "electric_scooter", "lon": -77.02699816666667, "is_reserved": 0, "fusion_lon": 0.0, "bike_id": "e40738e6657d008a81503534c1b23d62", "name": "e40738e6657d008a81503534c1b23d62", "rental_uris": {"ios": "https://dc.lft.to/lastmile_qr_scan", "android": "https://dc.lft.to/lastmile_qr_scan"}}, {"is_disabled": 0, "fusion_lat": 0.0, "lat": 38.871462666666666, "type": "electric_bike", "lon": -76.9366335, "is_reserved": 0, "fusion_lon": 0.0, "bike_id": "b8282985b22b29b4e8c805a4d4e4aeb1", "name": "b8282985b22b29b4e8c805a4d4e4aeb1", "rental_uris": {"ios": "https://dc.lft.to/lastmile_qr_scan", "android": "https://dc.lft.to/lastmile_qr_scan"}}, {"is_disabled": 0, "fusion_lat": 0.0, "lat": 38.95351383333333, "type": "electric_bike", "lon": -76.98097383333334, "is_reserved": 0, "fusion_lon": 0.0, "bike_id": "e2ee33713d3d098d13f091e189d96010", "name": "e2ee33713d3d098d13f091e189d96010", "rental_uris": {"ios": "https://dc.lft.to/lastmile_qr_scan", "android": "https://dc.lft.to/lastmile_qr_scan"}}, {"is_disabled": 0, "fusion_lat": 0.0, "lat": 38.92150616666667, "type": "electric_scooter", "lon": -77.038624, "is_reserved": 0, "fusion_lon": 0.0, "bike_id": "36327585c95707ce8c480067dff82919", "name": "36327585c95707ce8c480067dff82919", "rental_uris": {"ios": "https://dc.lft.to/lastmile_qr_scan", "android": "https://dc.lft.to/lastmile_qr_scan"}}, {"is_disabled": 0, "fusion_lat": 0.0, "lat": 38.9037165, "type": "electric_scooter", "lon": -77.03892683333333, "is_reserved": 0, "fusion_lon": 0.0, "bike_id": "c37b0403a938908ebb3f44d24f238bd1", "name": "c37b0403a938908ebb3f44d24f238bd1", "rental_uris": {"ios": "https://dc.lft.to/lastmile_qr_scan", "android": "https://dc.lft.to/lastmile_qr_scan"}}, {"is_disabled": 0, "fusion_lat": 0.0, "lat": 38.920546333333334, "type": "electric_scooter", "lon": -77.0242255, "is_reserved": 0, "fusion_lon": 0.0, "bike_id": "e5d53098733b9653f01dd24dda24e14c", "name": "e5d53098733b9653f01dd24dda24e14c", "rental_uris": {"ios": "https://dc.lft.to/lastmile_qr_scan", "android": "https://dc.lft.to/lastmile_qr_scan"}}, {"is_disabled": 0, "fusion_lat": 0.0, "lat": 38.884494833333335, "type": "electric_scooter", "lon": -77.00572766666667, "is_reserved": 0, "fusion_lon": 0.0, "bike_id": "e65fe47a276062075540a38e1e6a57c7", "name": "e65fe47a276062075540a38e1e6a57c7", "rental_uris": {"ios": "https://dc.lft.to/lastmile_qr_scan", "android": "https://dc.lft.to/lastmile_qr_scan"}}, {"is_disabled": 0, "fusion_lat": 0.0, "lat": 38.9014035, "type": "electric_scooter", "lon": -76.9979865, "is_reserved": 0, "fusion_lon": 0.0, "bike_id": "47b009750ba6c84150035119cae34a07", "name": "47b009750ba6c84150035119cae34a07", "rental_uris": {"ios": "https://dc.lft.to/lastmile_qr_scan", "android": "https://dc.lft.to/lastmile_qr_scan"}}, {"is_disabled": 0, "fusion_lat": 0.0, "lat": 38.912730333333336, "type": "electric_scooter", "lon": -77.04169916666666, "is_reserved": 0, "fusion_lon": 0.0, "bike_id": "e0e82cd5f96ef985e86b026b5d8c4563", "name": "e0e82cd5f96ef985e86b026b5d8c4563", "rental_uris": {"ios": "https://dc.lft.to/lastmile_qr_scan", "android": "https://dc.lft.to/lastmile_qr_scan"}}, {"is_disabled": 0, "fusion_lat": 0.0, "lat": 38.908465666666665, "type": "electric_scooter", "lon": -77.0245775, "is_reserved": 0, "fusion_lon": 0.0, "bike_id": "2b42359d6bc4804b19c92f12e3369baa", "name": "2b42359d6bc4804b19c92f12e3369baa", "rental_uris": {"ios": "https://dc.lft.to/lastmile_qr_scan", "android": "https://dc.lft.to/lastmile_qr_scan"}}, {"is_disabled": 0, "fusion_lat": 0.0, "lat": 38.8961475, "type": "electric_scooter", "lon": -76.99417733333334, "is_reserved": 0, "fusion_lon": 0.0, "bike_id": "7e6beb9e7a56dda05084f911b16d5ed4", "name": "7e6beb9e7a56dda05084f911b16d5ed4", "rental_uris": {"ios": "https://dc.lft.to/lastmile_qr_scan", "android": "https://dc.lft.to/lastmile_qr_scan"}}, {"is_disabled": 0, "fusion_lat": 0.0, "lat": 38.938471666666665, "type": "electric_bike", "lon": -77.03382883333333, "is_reserved": 0, "fusion_lon": 0.0, "bike_id": "c57e7dcfe37b8ccadc838128bd442dea", "name": "c57e7dcfe37b8ccadc838128bd442dea", "rental_uris": {"ios": "https://dc.lft.to/lastmile_qr_scan", "android": "https://dc.lft.to/lastmile_qr_scan"}}, {"is_disabled": 0, "fusion_lat": 0.0, "lat": 38.9479865, "type": "electric_bike", "lon": -77.0081195, "is_reserved": 0, "fusion_lon": 0.0, "bike_id": "e1707ad44d4f9769107f759ea1c34826", "name": "e1707ad44d4f9769107f759ea1c34826", "rental_uris": {"ios": "https://dc.lft.to/lastmile_qr_scan", "android": "https://dc.lft.to/lastmile_qr_scan"}}, {"is_disabled": 0, "fusion_lat": 0.0, "lat": 38.9023985, "type": "electric_scooter", "lon": -76.9808, "is_reserved": 0, "fusion_lon": 0.0, "bike_id": "f86b9acb3008d897e5039496fa679aae", "name": "f86b9acb3008d897e5039496fa679aae", "rental_uris": {"ios": "https://dc.lft.to/lastmile_qr_scan", "android": "https://dc.lft.to/lastmile_qr_scan"}}, {"is_disabled": 0, "fusion_lat": 0.0, "lat": 38.902005333333335, "type": "electric_scooter", "lon": -77.02568716666667, "is_reserved": 0, "fusion_lon": 0.0, "bike_id": "b2c8eeba9a76cd1362ed7515fd921448", "name": "b2c8eeba9a76cd1362ed7515fd921448", "rental_uris": {"ios": "https://dc.lft.to/lastmile_qr_scan", "android": "https://dc.lft.to/lastmile_qr_scan"}}, {"is_disabled": 0, "fusion_lat": 0.0, "lat": 38.948957166666666, "type": "electric_bike", "lon": -76.963695, "is_reserved": 0, "fusion_lon": 0.0, "bike_id": "62c4bcc2f92b05bc1f10e8a373aeb2b1", "name": "62c4bcc2f92b05bc1f10e8a373aeb2b1", "rental_uris": {"ios": "https://dc.lft.to/lastmile_qr_scan", "android": "https://dc.lft.to/lastmile_qr_scan"}}, {"is_disabled": 0, "fusion_lat": 0.0, "lat": 38.922870333333336, "type": "electric_scooter", "lon": -77.03192016666667, "is_reserved": 0, "fusion_lon": 0.0, "bike_id": "14629339d505adcfd163bfaf50c12bc6", "name": "14629339d505adcfd163bfaf50c12bc6", "rental_uris": {"ios": "https://dc.lft.to/lastmile_qr_scan", "android": "https://dc.lft.to/lastmile_qr_scan"}}, {"is_disabled": 0, "fusion_lat": 0.0, "lat": 38.88314733333333, "type": "electric_scooter", "lon": -77.00933466666666, "is_reserved": 0, "fusion_lon": 0.0, "bike_id": "50268b6a7bb1c447bd0927af06e244e8", "name": "50268b6a7bb1c447bd0927af06e244e8", "rental_uris": {"ios": "https://dc.lft.to/lastmile_qr_scan", "android": "https://dc.lft.to/lastmile_qr_scan"}}, {"is_disabled": 0, "fusion_lat": 0.0, "lat": 38.90218216666667, "type": "electric_bike", "lon": -76.950487, "is_reserved": 0, "fusion_lon": 0.0, "bike_id": "e0418d2e9a8871e67c3bda530a9c34de", "name": "e0418d2e9a8871e67c3bda530a9c34de", "rental_uris": {"ios": "https://dc.lft.to/lastmile_qr_scan", "android": "https://dc.lft.to/lastmile_qr_scan"}}, {"is_disabled": 0, "fusion_lat": 0.0, "lat": 38.923264333333336, "type": "electric_scooter", "lon": -77.04328483333333, "is_reserved": 0, "fusion_lon": 0.0, "bike_id": "3978913f1ab44325f12ea9ca6b6673e4", "name": "3978913f1ab44325f12ea9ca6b6673e4", "rental_uris": {"ios": "https://dc.lft.to/lastmile_qr_scan", "android": "https://dc.lft.to/lastmile_qr_scan"}}, {"is_disabled": 0, "fusion_lat": 0.0, "lat": 38.89826016666667, "type": "electric_scooter", "lon": -77.05019983333334, "is_reserved": 0, "fusion_lon": 0.0, "bike_id": "ef61e7b55c9bd66469537cee4a5e213e", "name": "ef61e7b55c9bd66469537cee4a5e213e", "rental_uris": {"ios": "https://dc.lft.to/lastmile_qr_scan", "android": "https://dc.lft.to/lastmile_qr_scan"}}, {"is_disabled": 0, "fusion_lat": 0.0, "lat": 38.901396166666665, "type": "electric_scooter", "lon": -77.0432235, "is_reserved": 0, "fusion_lon": 0.0, "bike_id": "56180a398eec853ab1dcf665cfecb4b1", "name": "56180a398eec853ab1dcf665cfecb4b1", "rental_uris": {"ios": "https://dc.lft.to/lastmile_qr_scan", "android": "https://dc.lft.to/lastmile_qr_scan"}}, {"is_disabled": 0, "fusion_lat": 0.0, "lat": 38.90377683333333, "type": "electric_scooter", "lon": -77.0427265, "is_reserved": 0, "fusion_lon": 0.0, "bike_id": "53be7a051b785d98aecb19e514c8c2b7", "name": "53be7a051b785d98aecb19e514c8c2b7", "rental_uris": {"ios": "https://dc.lft.to/lastmile_qr_scan", "android": "https://dc.lft.to/lastmile_qr_scan"}}, {"is_disabled": 0, "fusion_lat": 0.0, "lat": 38.93240516666667, "type": "electric_scooter", "lon": -77.0327245, "is_reserved": 0, "fusion_lon": 0.0, "bike_id": "65e3ef4f00ff68093d8af6f1ec1a94de", "name": "65e3ef4f00ff68093d8af6f1ec1a94de", "rental_uris": {"ios": "https://dc.lft.to/lastmile_qr_scan", "android": "https://dc.lft.to/lastmile_qr_scan"}}, {"is_disabled": 0, "fusion_lat": 0.0, "lat": 38.911404, "type": "electric_bike", "lon": -77.04888333333334, "is_reserved": 0, "fusion_lon": 0.0, "bike_id": "28a2563684e88942dec57aa4474787ec", "name": "28a2563684e88942dec57aa4474787ec", "rental_uris": {"ios": "https://dc.lft.to/lastmile_qr_scan", "android": "https://dc.lft.to/lastmile_qr_scan"}}, {"is_disabled": 0, "fusion_lat": 0.0, "lat": 38.9219925, "type": "electric_scooter", "lon": -77.04010733333334, "is_reserved": 0, "fusion_lon": 0.0, "bike_id": "a75965f9560ebb901fd4e1a6b5086abc", "name": "a75965f9560ebb901fd4e1a6b5086abc", "rental_uris": {"ios": "https://dc.lft.to/lastmile_qr_scan", "android": "https://dc.lft.to/lastmile_qr_scan"}}, {"is_disabled": 0, "fusion_lat": 0.0, "lat": 38.901282333333334, "type": "electric_scooter", "lon": -76.99711033333334, "is_reserved": 0, "fusion_lon": 0.0, "bike_id": "6fe021813497a5e12e37420c62e9f28d", "name": "6fe021813497a5e12e37420c62e9f28d", "rental_uris": {"ios": "https://dc.lft.to/lastmile_qr_scan", "android": "https://dc.lft.to/lastmile_qr_scan"}}, {"is_disabled": 0, "fusion_lat": 0.0, "lat": 38.920133, "type": "electric_scooter", "lon": -77.021834, "is_reserved": 0, "fusion_lon": 0.0, "bike_id": "699b6d9d141bb5b4837aaa4c1028e59f", "name": "699b6d9d141bb5b4837aaa4c1028e59f", "rental_uris": {"ios": "https://dc.lft.to/lastmile_qr_scan", "android": "https://dc.lft.to/lastmile_qr_scan"}}, {"is_disabled": 0, "fusion_lat": 0.0, "lat": 38.91158716666666, "type": "electric_scooter", "lon": -76.986573, "is_reserved": 0, "fusion_lon": 0.0, "bike_id": "400d00a0c44e0a3496d5edca92710acf", "name": "400d00a0c44e0a3496d5edca92710acf", "rental_uris": {"ios": "https://dc.lft.to/lastmile_qr_scan", "android": "https://dc.lft.to/lastmile_qr_scan"}}, {"is_disabled": 0, "fusion_lat": 0.0, "lat": 38.952879, "type": "electric_scooter", "lon": -77.06856733333333, "is_reserved": 0, "fusion_lon": 0.0, "bike_id": "15ecf79d08ffa62d910819de45ee2b44", "name": "15ecf79d08ffa62d910819de45ee2b44", "rental_uris": {"ios": "https://dc.lft.to/lastmile_qr_scan", "android": "https://dc.lft.to/lastmile_qr_scan"}}, {"is_disabled": 0, "fusion_lat": 0.0, "lat": 38.92710433333333, "type": "electric_scooter", "lon": -77.04043966666667, "is_reserved": 0, "fusion_lon": 0.0, "bike_id": "4891e1dbf76861f9402c84cb03a7dc23", "name": "4891e1dbf76861f9402c84cb03a7dc23", "rental_uris": {"ios": "https://dc.lft.to/lastmile_qr_scan", "android": "https://dc.lft.to/lastmile_qr_scan"}}, {"is_disabled": 0, "fusion_lat": 0.0, "lat": 38.920162, "type": "electric_scooter", "lon": -77.040696, "is_reserved": 0, "fusion_lon": 0.0, "bike_id": "407c2dac9334ad91821f0db5d98b6b54", "name": "407c2dac9334ad91821f0db5d98b6b54", "rental_uris": {"ios": "https://dc.lft.to/lastmile_qr_scan", "android": "https://dc.lft.to/lastmile_qr_scan"}}, {"is_disabled": 0, "fusion_lat": 0.0, "lat": 38.90487233333333, "type": "electric_scooter", "lon": -77.06006, "is_reserved": 0, "fusion_lon": 0.0, "bike_id": "fa5770107d02d71fe713123e12442519", "name": "fa5770107d02d71fe713123e12442519", "rental_uris": {"ios": "https://dc.lft.to/lastmile_qr_scan", "android": "https://dc.lft.to/lastmile_qr_scan"}}, {"is_disabled": 0, "fusion_lat": 0.0, "lat": 38.940136333333335, "type": "electric_scooter", "lon": -77.07175316666667, "is_reserved": 0, "fusion_lon": 0.0, "bike_id": "9540884ffbb9a3bffbfb93157115040e", "name": "9540884ffbb9a3bffbfb93157115040e", "rental_uris": {"ios": "https://dc.lft.to/lastmile_qr_scan", "android": "https://dc.lft.to/lastmile_qr_scan"}}, {"is_disabled": 0, "fusion_lat": 0.0, "lat": 38.8548735, "type": "electric_bike", "lon": -77.11611116666667, "is_reserved": 0, "fusion_lon": 0.0, "bike_id": "65ddebef0e6c798337c2eb7fb6b6be92", "name": "65ddebef0e6c798337c2eb7fb6b6be92", "rental_uris": {"ios": "https://dc.lft.to/lastmile_qr_scan", "android": "https://dc.lft.to/lastmile_qr_scan"}}, {"is_disabled": 0, "fusion_lat": 0.0, "lat": 38.8919875, "type": "electric_scooter", "lon": -77.02378366666667, "is_reserved": 0, "fusion_lon": 0.0, "bike_id": "049832266a3fbdf051a918dd6e05b8e1", "name": "049832266a3fbdf051a918dd6e05b8e1", "rental_uris": {"ios": "https://dc.lft.to/lastmile_qr_scan", "android": "https://dc.lft.to/lastmile_qr_scan"}}, {"is_disabled": 0, "fusion_lat": 0.0, "lat": 38.8991115, "type": "electric_scooter", "lon": -76.93342616666666, "is_reserved": 0, "fusion_lon": 0.0, "bike_id": "51d169957ff7e5ea09748c8c2361f7ed", "name": "51d169957ff7e5ea09748c8c2361f7ed", "rental_uris": {"ios": "https://dc.lft.to/lastmile_qr_scan", "android": "https://dc.lft.to/lastmile_qr_scan"}}, {"is_disabled": 0, "fusion_lat": 0.0, "lat": 38.874988333333334, "type": "electric_scooter", "lon": -76.99795916666666, "is_reserved": 0, "fusion_lon": 0.0, "bike_id": "63c5f5e6eb14a7b608eed51b67463a56", "name": "63c5f5e6eb14a7b608eed51b67463a56", "rental_uris": {"ios": "https://dc.lft.to/lastmile_qr_scan", "android": "https://dc.lft.to/lastmile_qr_scan"}}, {"is_disabled": 0, "fusion_lat": 0.0, "lat": 38.92416433333333, "type": "electric_scooter", "lon": -77.02244133333333, "is_reserved": 0, "fusion_lon": 0.0, "bike_id": "4ca388083213f1fda55ab2b5f6f01604", "name": "4ca388083213f1fda55ab2b5f6f01604", "rental_uris": {"ios": "https://dc.lft.to/lastmile_qr_scan", "android": "https://dc.lft.to/lastmile_qr_scan"}}, {"is_disabled": 0, "fusion_lat": 0.0, "lat": 38.9040605, "type": "electric_scooter", "lon": -77.0207475, "is_reserved": 0, "fusion_lon": 0.0, "bike_id": "1685fc4d8466e7ac7063f4d6193b3134", "name": "1685fc4d8466e7ac7063f4d6193b3134", "rental_uris": {"ios": "https://dc.lft.to/lastmile_qr_scan", "android": "https://dc.lft.to/lastmile_qr_scan"}}, {"is_disabled": 0, "fusion_lat": 0.0, "lat": 38.88517566666667, "type": "electric_scooter", "lon": -77.03348766666667, "is_reserved": 0, "fusion_lon": 0.0, "bike_id": "8393fa3a0a8b507ed4346adfcfaf8798", "name": "8393fa3a0a8b507ed4346adfcfaf8798", "rental_uris": {"ios": "https://dc.lft.to/lastmile_qr_scan", "android": "https://dc.lft.to/lastmile_qr_scan"}}, {"is_disabled": 0, "fusion_lat": 0.0, "lat": 38.858140166666665, "type": "electric_scooter", "lon": -76.98989433333334, "is_reserved": 0, "fusion_lon": 0.0, "bike_id": "c622746f600a32a37e71beea4917031d", "name": "c622746f600a32a37e71beea4917031d", "rental_uris": {"ios": "https://dc.lft.to/lastmile_qr_scan", "android": "https://dc.lft.to/lastmile_qr_scan"}}, {"is_disabled": 0, "fusion_lat": 0.0, "lat": 38.844247, "type": "electric_scooter", "lon": -76.99776966666667, "is_reserved": 0, "fusion_lon": 0.0, "bike_id": "3cce81f85edb7a309e65bdfee93ae8ab", "name": "3cce81f85edb7a309e65bdfee93ae8ab", "rental_uris": {"ios": "https://dc.lft.to/lastmile_qr_scan", "android": "https://dc.lft.to/lastmile_qr_scan"}}, {"is_disabled": 0, "fusion_lat": 0.0, "lat": 38.9211525, "type": "electric_scooter", "lon": -77.04581016666667, "is_reserved": 0, "fusion_lon": 0.0, "bike_id": "fa26b24f54927eb4edabb98c6033b4bf", "name": "fa26b24f54927eb4edabb98c6033b4bf", "rental_uris": {"ios": "https://dc.lft.to/lastmile_qr_scan", "android": "https://dc.lft.to/lastmile_qr_scan"}}, {"is_disabled": 0, "fusion_lat": 0.0, "lat": 38.86922716666667, "type": "electric_scooter", "lon": -76.9830055, "is_reserved": 0, "fusion_lon": 0.0, "bike_id": "99686135db2b6e8e7b2c112c6dfe6dcc", "name": "99686135db2b6e8e7b2c112c6dfe6dcc", "rental_uris": {"ios": "https://dc.lft.to/lastmile_qr_scan", "android": "https://dc.lft.to/lastmile_qr_scan"}}, {"is_disabled": 0, "fusion_lat": 0.0, "lat": 38.90462383333333, "type": "electric_scooter", "lon": -77.0327835, "is_reserved": 0, "fusion_lon": 0.0, "bike_id": "728df0f5158a58c3ec44d574b11df936", "name": "728df0f5158a58c3ec44d574b11df936", "rental_uris": {"ios": "https://dc.lft.to/lastmile_qr_scan", "android": "https://dc.lft.to/lastmile_qr_scan"}}, {"is_disabled": 0, "fusion_lat": 0.0, "lat": 38.88502966666667, "type": "electric_scooter", "lon": -77.00564183333333, "is_reserved": 0, "fusion_lon": 0.0, "bike_id": "7242791f69f297810072fd4581c55b85", "name": "7242791f69f297810072fd4581c55b85", "rental_uris": {"ios": "https://dc.lft.to/lastmile_qr_scan", "android": "https://dc.lft.to/lastmile_qr_scan"}}, {"is_disabled": 0, "fusion_lat": 0.0, "lat": 38.986586, "type": "electric_bike", "lon": -77.05642066666667, "is_reserved": 0, "fusion_lon": 0.0, "bike_id": "ec7a88fdefeaec36c977991b5ef709dc", "name": "ec7a88fdefeaec36c977991b5ef709dc", "rental_uris": {"ios": "https://dc.lft.to/lastmile_qr_scan", "android": "https://dc.lft.to/lastmile_qr_scan"}}, {"is_disabled": 0, "fusion_lat": 0.0, "lat": 38.911786666666664, "type": "electric_scooter", "lon": -77.06831816666667, "is_reserved": 0, "fusion_lon": 0.0, "bike_id": "c7e9c4b3ea3831bf23b9f2316c9840d0", "name": "c7e9c4b3ea3831bf23b9f2316c9840d0", "rental_uris": {"ios": "https://dc.lft.to/lastmile_qr_scan", "android": "https://dc.lft.to/lastmile_qr_scan"}}, {"is_disabled": 0, "fusion_lat": 0.0, "lat": 38.89490033333333, "type": "electric_scooter", "lon": -77.01091816666667, "is_reserved": 0, "fusion_lon": 0.0, "bike_id": "8107f816f268b7b6ec98b36f92bade62", "name": "8107f816f268b7b6ec98b36f92bade62", "rental_uris": {"ios": "https://dc.lft.to/lastmile_qr_scan", "android": "https://dc.lft.to/lastmile_qr_scan"}}, {"is_disabled": 0, "fusion_lat": 0.0, "lat": 38.87537283333333, "type": "electric_scooter", "lon": -77.00044166666666, "is_reserved": 0, "fusion_lon": 0.0, "bike_id": "84e82294d6ab384d7f8bbb72af76064b", "name": "84e82294d6ab384d7f8bbb72af76064b", "rental_uris": {"ios": "https://dc.lft.to/lastmile_qr_scan", "android": "https://dc.lft.to/lastmile_qr_scan"}}, {"is_disabled": 0, "fusion_lat": 0.0, "lat": 38.90329366666667, "type": "electric_scooter", "lon": -77.043213, "is_reserved": 0, "fusion_lon": 0.0, "bike_id": "8af79b2a00d642e965571cc591a9d2c6", "name": "8af79b2a00d642e965571cc591a9d2c6", "rental_uris": {"ios": "https://dc.lft.to/lastmile_qr_scan", "android": "https://dc.lft.to/lastmile_qr_scan"}}, {"is_disabled": 0, "fusion_lat": 0.0, "lat": 38.9263995, "type": "electric_scooter", "lon": -77.01336883333333, "is_reserved": 0, "fusion_lon": 0.0, "bike_id": "ec53c2243bd994a4935497a211a7e784", "name": "ec53c2243bd994a4935497a211a7e784", "rental_uris": {"ios": "https://dc.lft.to/lastmile_qr_scan", "android": "https://dc.lft.to/lastmile_qr_scan"}}, {"is_disabled": 0, "fusion_lat": 0.0, "lat": 38.899015166666665, "type": "electric_scooter", "lon": -77.00696683333334, "is_reserved": 0, "fusion_lon": 0.0, "bike_id": "7f742e6879551734e5df989078afb670", "name": "7f742e6879551734e5df989078afb670", "rental_uris": {"ios": "https://dc.lft.to/lastmile_qr_scan", "android": "https://dc.lft.to/lastmile_qr_scan"}}, {"is_disabled": 0, "fusion_lat": 0.0, "lat": 38.90792616666667, "type": "electric_scooter", "lon": -77.04483966666666, "is_reserved": 0, "fusion_lon": 0.0, "bike_id": "34dcc4525e855fdc2fd1b23593a5dc0d", "name": "34dcc4525e855fdc2fd1b23593a5dc0d", "rental_uris": {"ios": "https://dc.lft.to/lastmile_qr_scan", "android": "https://dc.lft.to/lastmile_qr_scan"}}, {"is_disabled": 0, "fusion_lat": 0.0, "lat": 38.92600633333333, "type": "electric_scooter", "lon": -77.05688833333333, "is_reserved": 0, "fusion_lon": 0.0, "bike_id": "99725990eafdfaf172400adb47c2d5b2", "name": "99725990eafdfaf172400adb47c2d5b2", "rental_uris": {"ios": "https://dc.lft.to/lastmile_qr_scan", "android": "https://dc.lft.to/lastmile_qr_scan"}}, {"is_disabled": 0, "fusion_lat": 0.0, "lat": 38.93765666666667, "type": "electric_scooter", "lon": -77.02114283333333, "is_reserved": 0, "fusion_lon": 0.0, "bike_id": "06219396fddc4877c68c6ce773da0c7f", "name": "06219396fddc4877c68c6ce773da0c7f", "rental_uris": {"ios": "https://dc.lft.to/lastmile_qr_scan", "android": "https://dc.lft.to/lastmile_qr_scan"}}, {"is_disabled": 0, "fusion_lat": 0.0, "lat": 38.92324, "type": "electric_scooter", "lon": -77.038917, "is_reserved": 0, "fusion_lon": 0.0, "bike_id": "c95f1a9f39028f9d16632376b1f6861b", "name": "c95f1a9f39028f9d16632376b1f6861b", "rental_uris": {"ios": "https://dc.lft.to/lastmile_qr_scan", "android": "https://dc.lft.to/lastmile_qr_scan"}}, {"is_disabled": 0, "fusion_lat": 0.0, "lat": 38.90364116666667, "type": "electric_scooter", "lon": -77.018406, "is_reserved": 0, "fusion_lon": 0.0, "bike_id": "325fb388258e35bc1b3d8df5bb9b727b", "name": "325fb388258e35bc1b3d8df5bb9b727b", "rental_uris": {"ios": "https://dc.lft.to/lastmile_qr_scan", "android": "https://dc.lft.to/lastmile_qr_scan"}}, {"is_disabled": 0, "fusion_lat": 0.0, "lat": 38.9182715, "type": "electric_scooter", "lon": -77.03523083333333, "is_reserved": 0, "fusion_lon": 0.0, "bike_id": "2bc477f8e86e77ce419703128120a2cc", "name": "2bc477f8e86e77ce419703128120a2cc", "rental_uris": {"ios": "https://dc.lft.to/lastmile_qr_scan", "android": "https://dc.lft.to/lastmile_qr_scan"}}, {"is_disabled": 0, "fusion_lat": 0.0, "lat": 38.940883, "type": "electric_scooter", "lon": -77.02721566666666, "is_reserved": 0, "fusion_lon": 0.0, "bike_id": "f7e412c4bca9a910b469b29d48da58d1", "name": "f7e412c4bca9a910b469b29d48da58d1", "rental_uris": {"ios": "https://dc.lft.to/lastmile_qr_scan", "android": "https://dc.lft.to/lastmile_qr_scan"}}, {"is_disabled": 0, "fusion_lat": 0.0, "lat": 38.95086516666667, "type": "electric_scooter", "lon": -77.02824766666667, "is_reserved": 0, "fusion_lon": 0.0, "bike_id": "31cbdc07e341c7bcea91af85d935a95d", "name": "31cbdc07e341c7bcea91af85d935a95d", "rental_uris": {"ios": "https://dc.lft.to/lastmile_qr_scan", "android": "https://dc.lft.to/lastmile_qr_scan"}}, {"is_disabled": 0, "fusion_lat": 0.0, "lat": 38.8208565, "type": "electric_bike", "lon": -77.05361633333334, "is_reserved": 0, "fusion_lon": 0.0, "bike_id": "4e26594a7570a3123cd359b265b05a25", "name": "4e26594a7570a3123cd359b265b05a25", "rental_uris": {"ios": "https://dc.lft.to/lastmile_qr_scan", "android": "https://dc.lft.to/lastmile_qr_scan"}}, {"is_disabled": 0, "fusion_lat": 0.0, "lat": 38.919521833333334, "type": "electric_scooter", "lon": -77.03193583333334, "is_reserved": 0, "fusion_lon": 0.0, "bike_id": "0e3320d48084b9332e3314e3abb9a109", "name": "0e3320d48084b9332e3314e3abb9a109", "rental_uris": {"ios": "https://dc.lft.to/lastmile_qr_scan", "android": "https://dc.lft.to/lastmile_qr_scan"}}, {"is_disabled": 0, "fusion_lat": 0.0, "lat": 38.91963283333333, "type": "electric_scooter", "lon": -77.03210033333333, "is_reserved": 0, "fusion_lon": 0.0, "bike_id": "13c39ca569c76a183025db2deb0a5067", "name": "13c39ca569c76a183025db2deb0a5067", "rental_uris": {"ios": "https://dc.lft.to/lastmile_qr_scan", "android": "https://dc.lft.to/lastmile_qr_scan"}}, {"is_disabled": 0, "fusion_lat": 0.0, "lat": 38.906672666666665, "type": "electric_scooter", "lon": -77.02705033333334, "is_reserved": 0, "fusion_lon": 0.0, "bike_id": "743ec4dd0c5f8a0847d8ad97ac296cdf", "name": "743ec4dd0c5f8a0847d8ad97ac296cdf", "rental_uris": {"ios": "https://dc.lft.to/lastmile_qr_scan", "android": "https://dc.lft.to/lastmile_qr_scan"}}, {"is_disabled": 0, "fusion_lat": 0.0, "lat": 38.95262783333333, "type": "electric_bike", "lon": -77.0697445, "is_reserved": 0, "fusion_lon": 0.0, "bike_id": "6e8d4decd179ed4dae59d4eba6dde8a4", "name": "6e8d4decd179ed4dae59d4eba6dde8a4", "rental_uris": {"ios": "https://dc.lft.to/lastmile_qr_scan", "android": "https://dc.lft.to/lastmile_qr_scan"}}, {"is_disabled": 0, "fusion_lat": 0.0, "lat": 38.93537333333333, "type": "electric_scooter", "lon": -77.02352366666666, "is_reserved": 0, "fusion_lon": 0.0, "bike_id": "0c4c95b1e2a8bb04992211f0739532f8", "name": "0c4c95b1e2a8bb04992211f0739532f8", "rental_uris": {"ios": "https://dc.lft.to/lastmile_qr_scan", "android": "https://dc.lft.to/lastmile_qr_scan"}}, {"is_disabled": 0, "fusion_lat": 0.0, "lat": 38.887699833333336, "type": "electric_scooter", "lon": -77.02229316666667, "is_reserved": 0, "fusion_lon": 0.0, "bike_id": "7eaa6059473796e7be919cc614f2893f", "name": "7eaa6059473796e7be919cc614f2893f", "rental_uris": {"ios": "https://dc.lft.to/lastmile_qr_scan", "android": "https://dc.lft.to/lastmile_qr_scan"}}, {"is_disabled": 0, "fusion_lat": 0.0, "lat": 38.8843155, "type": "electric_scooter", "lon": -76.9575345, "is_reserved": 0, "fusion_lon": 0.0, "bike_id": "0fad4714cf77e4bbb956a31f0e83f98d", "name": "0fad4714cf77e4bbb956a31f0e83f98d", "rental_uris": {"ios": "https://dc.lft.to/lastmile_qr_scan", "android": "https://dc.lft.to/lastmile_qr_scan"}}, {"is_disabled": 0, "fusion_lat": 0.0, "lat": 38.91556383333333, "type": "electric_scooter", "lon": -77.0306435, "is_reserved": 0, "fusion_lon": 0.0, "bike_id": "e99582d76da154a3bd1e8eeec7b9dc9f", "name": "e99582d76da154a3bd1e8eeec7b9dc9f", "rental_uris": {"ios": "https://dc.lft.to/lastmile_qr_scan", "android": "https://dc.lft.to/lastmile_qr_scan"}}, {"is_disabled": 0, "fusion_lat": 0.0, "lat": 38.9006435, "type": "electric_scooter", "lon": -76.93383216666666, "is_reserved": 0, "fusion_lon": 0.0, "bike_id": "49aa54d6ec5d9b1e5a9ebacb4532763c", "name": "49aa54d6ec5d9b1e5a9ebacb4532763c", "rental_uris": {"ios": "https://dc.lft.to/lastmile_qr_scan", "android": "https://dc.lft.to/lastmile_qr_scan"}}, {"is_disabled": 0, "fusion_lat": 0.0, "lat": 38.92291616666667, "type": "electric_scooter", "lon": -77.02069, "is_reserved": 0, "fusion_lon": 0.0, "bike_id": "481603165a24b7f75681acf5cc8f4715", "name": "481603165a24b7f75681acf5cc8f4715", "rental_uris": {"ios": "https://dc.lft.to/lastmile_qr_scan", "android": "https://dc.lft.to/lastmile_qr_scan"}}, {"is_disabled": 0, "fusion_lat": 0.0, "lat": 38.90795933333333, "type": "electric_scooter", "lon": -77.02383366666666, "is_reserved": 0, "fusion_lon": 0.0, "bike_id": "c79f8bd7135fad46e8c934193ae409cd", "name": "c79f8bd7135fad46e8c934193ae409cd", "rental_uris": {"ios": "https://dc.lft.to/lastmile_qr_scan", "android": "https://dc.lft.to/lastmile_qr_scan"}}, {"is_disabled": 0, "fusion_lat": 0.0, "lat": 38.9193585, "type": "electric_scooter", "lon": -77.08132533333334, "is_reserved": 0, "fusion_lon": 0.0, "bike_id": "6b9520214d80b03d05209434398a7dd1", "name": "6b9520214d80b03d05209434398a7dd1", "rental_uris": {"ios": "https://dc.lft.to/lastmile_qr_scan", "android": "https://dc.lft.to/lastmile_qr_scan"}}, {"is_disabled": 0, "fusion_lat": 0.0, "lat": 38.8610465, "type": "electric_scooter", "lon": -76.98330883333334, "is_reserved": 0, "fusion_lon": 0.0, "bike_id": "0c3a4ecd55ae1d06daa7830eda276a29", "name": "0c3a4ecd55ae1d06daa7830eda276a29", "rental_uris": {"ios": "https://dc.lft.to/lastmile_qr_scan", "android": "https://dc.lft.to/lastmile_qr_scan"}}, {"is_disabled": 0, "fusion_lat": 0.0, "lat": 38.99074983333333, "type": "electric_bike", "lon": -76.87468083333333, "is_reserved": 0, "fusion_lon": 0.0, "bike_id": "61adf3a43a909420023498c368a48439", "name": "61adf3a43a909420023498c368a48439", "rental_uris": {"ios": "https://dc.lft.to/lastmile_qr_scan", "android": "https://dc.lft.to/lastmile_qr_scan"}}, {"is_disabled": 0, "fusion_lat": 0.0, "lat": 38.9318585, "type": "electric_scooter", "lon": -77.028195, "is_reserved": 0, "fusion_lon": 0.0, "bike_id": "f76ee141576ee1fae42de19491ab880f", "name": "f76ee141576ee1fae42de19491ab880f", "rental_uris": {"ios": "https://dc.lft.to/lastmile_qr_scan", "android": "https://dc.lft.to/lastmile_qr_scan"}}, {"is_disabled": 0, "fusion_lat": 0.0, "lat": 38.900222, "type": "electric_scooter", "lon": -77.0022125, "is_reserved": 0, "fusion_lon": 0.0, "bike_id": "5fcb86024642efa7fdf3ea37fd4e07e2", "name": "5fcb86024642efa7fdf3ea37fd4e07e2", "rental_uris": {"ios": "https://dc.lft.to/lastmile_qr_scan", "android": "https://dc.lft.to/lastmile_qr_scan"}}, {"is_disabled": 0, "fusion_lat": 0.0, "lat": 38.88515733333333, "type": "electric_scooter", "lon": -77.01559066666667, "is_reserved": 0, "fusion_lon": 0.0, "bike_id": "5a96b90d7dcde5499d76d3e8f7c9f84a", "name": "5a96b90d7dcde5499d76d3e8f7c9f84a", "rental_uris": {"ios": "https://dc.lft.to/lastmile_qr_scan", "android": "https://dc.lft.to/lastmile_qr_scan"}}, {"is_disabled": 0, "fusion_lat": 0.0, "lat": 38.903154, "type": "electric_scooter", "lon": -76.97795333333333, "is_reserved": 0, "fusion_lon": 0.0, "bike_id": "8f3d7b8b5c9448db00aa70be85f0e551", "name": "8f3d7b8b5c9448db00aa70be85f0e551", "rental_uris": {"ios": "https://dc.lft.to/lastmile_qr_scan", "android": "https://dc.lft.to/lastmile_qr_scan"}}, {"is_disabled": 0, "fusion_lat": 0.0, "lat": 38.879690333333336, "type": "electric_bike", "lon": -77.010044, "is_reserved": 0, "fusion_lon": 0.0, "bike_id": "9b3d983214dd1a099806066b5cd2fce1", "name": "9b3d983214dd1a099806066b5cd2fce1", "rental_uris": {"ios": "https://dc.lft.to/lastmile_qr_scan", "android": "https://dc.lft.to/lastmile_qr_scan"}}, {"is_disabled": 0, "fusion_lat": 0.0, "lat": 38.97088333333333, "type": "electric_bike", "lon": -77.06969316666667, "is_reserved": 0, "fusion_lon": 0.0, "bike_id": "e592f64b6c3fb91412b0a5440de22ddb", "name": "e592f64b6c3fb91412b0a5440de22ddb", "rental_uris": {"ios": "https://dc.lft.to/lastmile_qr_scan", "android": "https://dc.lft.to/lastmile_qr_scan"}}, {"is_disabled": 0, "fusion_lat": 0.0, "lat": 38.89975733333333, "type": "electric_scooter", "lon": -77.02698616666666, "is_reserved": 0, "fusion_lon": 0.0, "bike_id": "88c57f78d34b7be3c51aac81ac2f577f", "name": "88c57f78d34b7be3c51aac81ac2f577f", "rental_uris": {"ios": "https://dc.lft.to/lastmile_qr_scan", "android": "https://dc.lft.to/lastmile_qr_scan"}}, {"is_disabled": 0, "fusion_lat": 0.0, "lat": 38.925272166666666, "type": "electric_scooter", "lon": -77.038922, "is_reserved": 0, "fusion_lon": 0.0, "bike_id": "fd4ca0aacdd215bd2a1def0198e56f2b", "name": "fd4ca0aacdd215bd2a1def0198e56f2b", "rental_uris": {"ios": "https://dc.lft.to/lastmile_qr_scan", "android": "https://dc.lft.to/lastmile_qr_scan"}}, {"is_disabled": 0, "fusion_lat": 0.0, "lat": 38.89876316666667, "type": "electric_scooter", "lon": -76.93181516666667, "is_reserved": 0, "fusion_lon": 0.0, "bike_id": "416a86edcea3197b8dc476f064139e4c", "name": "416a86edcea3197b8dc476f064139e4c", "rental_uris": {"ios": "https://dc.lft.to/lastmile_qr_scan", "android": "https://dc.lft.to/lastmile_qr_scan"}}, {"is_disabled": 0, "fusion_lat": 0.0, "lat": 38.915607666666666, "type": "electric_scooter", "lon": -77.0487425, "is_reserved": 0, "fusion_lon": 0.0, "bike_id": "f5e09789983b1d52abb38f9c0a3c13ae", "name": "f5e09789983b1d52abb38f9c0a3c13ae", "rental_uris": {"ios": "https://dc.lft.to/lastmile_qr_scan", "android": "https://dc.lft.to/lastmile_qr_scan"}}, {"is_disabled": 0, "fusion_lat": 0.0, "lat": 38.92585416666667, "type": "electric_scooter", "lon": -77.0047445, "is_reserved": 0, "fusion_lon": 0.0, "bike_id": "a9944238f5347ad06f587be205351500", "name": "a9944238f5347ad06f587be205351500", "rental_uris": {"ios": "https://dc.lft.to/lastmile_qr_scan", "android": "https://dc.lft.to/lastmile_qr_scan"}}, {"is_disabled": 0, "fusion_lat": 0.0, "lat": 38.886792666666665, "type": "electric_scooter", "lon": -77.00203383333333, "is_reserved": 0, "fusion_lon": 0.0, "bike_id": "abd26d0e977cfa6fa73f2a5bc1937e29", "name": "abd26d0e977cfa6fa73f2a5bc1937e29", "rental_uris": {"ios": "https://dc.lft.to/lastmile_qr_scan", "android": "https://dc.lft.to/lastmile_qr_scan"}}, {"is_disabled": 0, "fusion_lat": 0.0, "lat": 38.90633866666667, "type": "electric_scooter", "lon": -77.011387, "is_reserved": 0, "fusion_lon": 0.0, "bike_id": "becd2ce8c6104208050e883eb3738ead", "name": "becd2ce8c6104208050e883eb3738ead", "rental_uris": {"ios": "https://dc.lft.to/lastmile_qr_scan", "android": "https://dc.lft.to/lastmile_qr_scan"}}, {"is_disabled": 0, "fusion_lat": 0.0, "lat": 38.926031333333334, "type": "electric_scooter", "lon": -77.05692066666667, "is_reserved": 0, "fusion_lon": 0.0, "bike_id": "fa450cf20cd8241d433c71fbc3241272", "name": "fa450cf20cd8241d433c71fbc3241272", "rental_uris": {"ios": "https://dc.lft.to/lastmile_qr_scan", "android": "https://dc.lft.to/lastmile_qr_scan"}}, {"is_disabled": 0, "fusion_lat": 0.0, "lat": 38.84426916666666, "type": "electric_scooter", "lon": -76.997778, "is_reserved": 0, "fusion_lon": 0.0, "bike_id": "73b80cdeec18746b35a0544ea993aa03", "name": "73b80cdeec18746b35a0544ea993aa03", "rental_uris": {"ios": "https://dc.lft.to/lastmile_qr_scan", "android": "https://dc.lft.to/lastmile_qr_scan"}}, {"is_disabled": 0, "fusion_lat": 0.0, "lat": 38.919718833333334, "type": "electric_scooter", "lon": -77.01522483333333, "is_reserved": 0, "fusion_lon": 0.0, "bike_id": "e2fd969458d59a3e109bbda899392269", "name": "e2fd969458d59a3e109bbda899392269", "rental_uris": {"ios": "https://dc.lft.to/lastmile_qr_scan", "android": "https://dc.lft.to/lastmile_qr_scan"}}, {"is_disabled": 0, "fusion_lat": 0.0, "lat": 38.81048216666667, "type": "electric_bike", "lon": -77.08502083333333, "is_reserved": 0, "fusion_lon": 0.0, "bike_id": "36a0c213b3cf0b151e1b548c3395ea0d", "name": "36a0c213b3cf0b151e1b548c3395ea0d", "rental_uris": {"ios": "https://dc.lft.to/lastmile_qr_scan", "android": "https://dc.lft.to/lastmile_qr_scan"}}, {"is_disabled": 0, "fusion_lat": 0.0, "lat": 38.8774475, "type": "electric_bike", "lon": -76.98050366666666, "is_reserved": 0, "fusion_lon": 0.0, "bike_id": "2c6bcdcacab3819381eeffaa11f669f3", "name": "2c6bcdcacab3819381eeffaa11f669f3", "rental_uris": {"ios": "https://dc.lft.to/lastmile_qr_scan", "android": "https://dc.lft.to/lastmile_qr_scan"}}, {"is_disabled": 0, "fusion_lat": 0.0, "lat": 38.89224333333333, "type": "electric_scooter", "lon": -77.04857466666667, "is_reserved": 0, "fusion_lon": 0.0, "bike_id": "e411c15958f7ba25993e9a328b736773", "name": "e411c15958f7ba25993e9a328b736773", "rental_uris": {"ios": "https://dc.lft.to/lastmile_qr_scan", "android": "https://dc.lft.to/lastmile_qr_scan"}}, {"is_disabled": 0, "fusion_lat": 0.0, "lat": 38.9342575, "type": "electric_scooter", "lon": -77.02844783333333, "is_reserved": 0, "fusion_lon": 0.0, "bike_id": "2a236cf7deb3823f7c846ceeb9786e33", "name": "2a236cf7deb3823f7c846ceeb9786e33", "rental_uris": {"ios": "https://dc.lft.to/lastmile_qr_scan", "android": "https://dc.lft.to/lastmile_qr_scan"}}, {"is_disabled": 0, "fusion_lat": 0.0, "lat": 38.9062945, "type": "electric_scooter", "lon": -77.0356105, "is_reserved": 0, "fusion_lon": 0.0, "bike_id": "cebbac0e54dde32cdb55cb92442aa6a2", "name": "cebbac0e54dde32cdb55cb92442aa6a2", "rental_uris": {"ios": "https://dc.lft.to/lastmile_qr_scan", "android": "https://dc.lft.to/lastmile_qr_scan"}}, {"is_disabled": 0, "fusion_lat": 0.0, "lat": 38.882099833333335, "type": "electric_scooter", "lon": -76.999448, "is_reserved": 0, "fusion_lon": 0.0, "bike_id": "3b6693f87cd78d97d62c36edd9575989", "name": "3b6693f87cd78d97d62c36edd9575989", "rental_uris": {"ios": "https://dc.lft.to/lastmile_qr_scan", "android": "https://dc.lft.to/lastmile_qr_scan"}}, {"is_disabled": 0, "fusion_lat": 0.0, "lat": 38.85438383333333, "type": "electric_bike", "lon": -76.90975883333333, "is_reserved": 0, "fusion_lon": 0.0, "bike_id": "5259e0b217ca796c1a01dc5078faa4f9", "name": "5259e0b217ca796c1a01dc5078faa4f9", "rental_uris": {"ios": "https://dc.lft.to/lastmile_qr_scan", "android": "https://dc.lft.to/lastmile_qr_scan"}}, {"is_disabled": 0, "fusion_lat": 0.0, "lat": 38.9036525, "type": "electric_scooter", "lon": -77.00343466666666, "is_reserved": 0, "fusion_lon": 0.0, "bike_id": "163b52bba2f1af1fc7e6b617d0d51aee", "name": "163b52bba2f1af1fc7e6b617d0d51aee", "rental_uris": {"ios": "https://dc.lft.to/lastmile_qr_scan", "android": "https://dc.lft.to/lastmile_qr_scan"}}, {"is_disabled": 0, "fusion_lat": 0.0, "lat": 38.9088415, "type": "electric_scooter", "lon": -77.04393833333333, "is_reserved": 0, "fusion_lon": 0.0, "bike_id": "963ecf0b082fc69b9a2605dedd30b5af", "name": "963ecf0b082fc69b9a2605dedd30b5af", "rental_uris": {"ios": "https://dc.lft.to/lastmile_qr_scan", "android": "https://dc.lft.to/lastmile_qr_scan"}}, {"is_disabled": 0, "fusion_lat": 0.0, "lat": 38.8719975, "type": "electric_scooter", "lon": -77.0061145, "is_reserved": 0, "fusion_lon": 0.0, "bike_id": "c957365ea43c5adb71ed8555aca37e9f", "name": "c957365ea43c5adb71ed8555aca37e9f", "rental_uris": {"ios": "https://dc.lft.to/lastmile_qr_scan", "android": "https://dc.lft.to/lastmile_qr_scan"}}, {"is_disabled": 0, "fusion_lat": 0.0, "lat": 38.91823466666666, "type": "electric_scooter", "lon": -77.03844316666667, "is_reserved": 0, "fusion_lon": 0.0, "bike_id": "ad7703045b0a650acf21636de5fb072a", "name": "ad7703045b0a650acf21636de5fb072a", "rental_uris": {"ios": "https://dc.lft.to/lastmile_qr_scan", "android": "https://dc.lft.to/lastmile_qr_scan"}}, {"is_disabled": 0, "fusion_lat": 0.0, "lat": 38.89224266666667, "type": "electric_scooter", "lon": -77.04645016666667, "is_reserved": 0, "fusion_lon": 0.0, "bike_id": "bc683c73c48bf47ceffd4e022e6c322a", "name": "bc683c73c48bf47ceffd4e022e6c322a", "rental_uris": {"ios": "https://dc.lft.to/lastmile_qr_scan", "android": "https://dc.lft.to/lastmile_qr_scan"}}, {"is_disabled": 0, "fusion_lat": 0.0, "lat": 38.905054166666666, "type": "electric_scooter", "lon": -77.05909166666666, "is_reserved": 0, "fusion_lon": 0.0, "bike_id": "3ed1926cdf95ee5cf8fb37ca7e031f2a", "name": "3ed1926cdf95ee5cf8fb37ca7e031f2a", "rental_uris": {"ios": "https://dc.lft.to/lastmile_qr_scan", "android": "https://dc.lft.to/lastmile_qr_scan"}}, {"is_disabled": 0, "fusion_lat": 0.0, "lat": 38.9097525, "type": "electric_scooter", "lon": -77.03445716666667, "is_reserved": 0, "fusion_lon": 0.0, "bike_id": "72c3c4ea7d649d644b69a79647c018cb", "name": "72c3c4ea7d649d644b69a79647c018cb", "rental_uris": {"ios": "https://dc.lft.to/lastmile_qr_scan", "android": "https://dc.lft.to/lastmile_qr_scan"}}, {"is_disabled": 0, "fusion_lat": 0.0, "lat": 38.902589166666665, "type": "electric_scooter", "lon": -77.0491025, "is_reserved": 0, "fusion_lon": 0.0, "bike_id": "00017db45e558fbfecedfcab7dae28de", "name": "00017db45e558fbfecedfcab7dae28de", "rental_uris": {"ios": "https://dc.lft.to/lastmile_qr_scan", "android": "https://dc.lft.to/lastmile_qr_scan"}}, {"is_disabled": 0, "fusion_lat": 0.0, "lat": 38.90492066666667, "type": "electric_scooter", "lon": -77.06782383333334, "is_reserved": 0, "fusion_lon": 0.0, "bike_id": "1a8cba00d968ab1eb9506d20e6dbfd32", "name": "1a8cba00d968ab1eb9506d20e6dbfd32", "rental_uris": {"ios": "https://dc.lft.to/lastmile_qr_scan", "android": "https://dc.lft.to/lastmile_qr_scan"}}, {"is_disabled": 0, "fusion_lat": 0.0, "lat": 38.933592, "type": "electric_scooter", "lon": -77.05719366666666, "is_reserved": 0, "fusion_lon": 0.0, "bike_id": "24baa9142021cc95f404683c87d2ce54", "name": "24baa9142021cc95f404683c87d2ce54", "rental_uris": {"ios": "https://dc.lft.to/lastmile_qr_scan", "android": "https://dc.lft.to/lastmile_qr_scan"}}, {"is_disabled": 0, "fusion_lat": 0.0, "lat": 38.90515033333333, "type": "electric_scooter", "lon": -77.06658783333333, "is_reserved": 0, "fusion_lon": 0.0, "bike_id": "4b62f82649fc66e5e7dbb6a5ae90236e", "name": "4b62f82649fc66e5e7dbb6a5ae90236e", "rental_uris": {"ios": "https://dc.lft.to/lastmile_qr_scan", "android": "https://dc.lft.to/lastmile_qr_scan"}}, {"is_disabled": 0, "fusion_lat": 0.0, "lat": 38.876541833333334, "type": "electric_scooter", "lon": -77.01583566666666, "is_reserved": 0, "fusion_lon": 0.0, "bike_id": "10cc1125ca286001842c7c0a82fe3cb1", "name": "10cc1125ca286001842c7c0a82fe3cb1", "rental_uris": {"ios": "https://dc.lft.to/lastmile_qr_scan", "android": "https://dc.lft.to/lastmile_qr_scan"}}, {"is_disabled": 0, "fusion_lat": 0.0, "lat": 38.91049816666667, "type": "electric_scooter", "lon": -77.015154, "is_reserved": 0, "fusion_lon": 0.0, "bike_id": "60cd5ea316153a684fb075a872a2deca", "name": "60cd5ea316153a684fb075a872a2deca", "rental_uris": {"ios": "https://dc.lft.to/lastmile_qr_scan", "android": "https://dc.lft.to/lastmile_qr_scan"}}, {"is_disabled": 0, "fusion_lat": 0.0, "lat": 38.8749625, "type": "electric_scooter", "lon": -77.00121183333333, "is_reserved": 0, "fusion_lon": 0.0, "bike_id": "4e102d9d148a0e95a3283d62d65a02fd", "name": "4e102d9d148a0e95a3283d62d65a02fd", "rental_uris": {"ios": "https://dc.lft.to/lastmile_qr_scan", "android": "https://dc.lft.to/lastmile_qr_scan"}}, {"is_disabled": 0, "fusion_lat": 0.0, "lat": 38.900803333333336, "type": "electric_scooter", "lon": -77.05049866666667, "is_reserved": 0, "fusion_lon": 0.0, "bike_id": "f1c54d22e99dff4ffb7b1d212be08a46", "name": "f1c54d22e99dff4ffb7b1d212be08a46", "rental_uris": {"ios": "https://dc.lft.to/lastmile_qr_scan", "android": "https://dc.lft.to/lastmile_qr_scan"}}, {"is_disabled": 0, "fusion_lat": 0.0, "lat": 38.956353666666665, "type": "electric_scooter", "lon": -77.03301533333334, "is_reserved": 0, "fusion_lon": 0.0, "bike_id": "1a47cc8fa248035ce59b90da1c3f6e4d", "name": "1a47cc8fa248035ce59b90da1c3f6e4d", "rental_uris": {"ios": "https://dc.lft.to/lastmile_qr_scan", "android": "https://dc.lft.to/lastmile_qr_scan"}}, {"is_disabled": 0, "fusion_lat": 0.0, "lat": 38.908697833333335, "type": "electric_scooter", "lon": -77.04483433333333, "is_reserved": 0, "fusion_lon": 0.0, "bike_id": "ca1edb3cc2aa385fd8170277ec4c35b6", "name": "ca1edb3cc2aa385fd8170277ec4c35b6", "rental_uris": {"ios": "https://dc.lft.to/lastmile_qr_scan", "android": "https://dc.lft.to/lastmile_qr_scan"}}, {"is_disabled": 0, "fusion_lat": 0.0, "lat": 38.9182225, "type": "electric_scooter", "lon": -77.02704166666666, "is_reserved": 0, "fusion_lon": 0.0, "bike_id": "6cb2b3fc31ded0a8e99ec7ede18db550", "name": "6cb2b3fc31ded0a8e99ec7ede18db550", "rental_uris": {"ios": "https://dc.lft.to/lastmile_qr_scan", "android": "https://dc.lft.to/lastmile_qr_scan"}}, {"is_disabled": 0, "fusion_lat": 0.0, "lat": 38.91559683333333, "type": "electric_scooter", "lon": -77.021569, "is_reserved": 0, "fusion_lon": 0.0, "bike_id": "db2618ecd0d938ba61838bb5d46c16d6", "name": "db2618ecd0d938ba61838bb5d46c16d6", "rental_uris": {"ios": "https://dc.lft.to/lastmile_qr_scan", "android": "https://dc.lft.to/lastmile_qr_scan"}}, {"is_disabled": 0, "fusion_lat": 0.0, "lat": 38.924578333333336, "type": "electric_bike", "lon": -76.97557616666667, "is_reserved": 0, "fusion_lon": 0.0, "bike_id": "1de72246d5604e04aa8670f26a1c5bb3", "name": "1de72246d5604e04aa8670f26a1c5bb3", "rental_uris": {"ios": "https://dc.lft.to/lastmile_qr_scan", "android": "https://dc.lft.to/lastmile_qr_scan"}}, {"is_disabled": 0, "fusion_lat": 0.0, "lat": 38.920077, "type": "electric_scooter", "lon": -77.02179183333334, "is_reserved": 0, "fusion_lon": 0.0, "bike_id": "2d7bea5988607bb7d5398586fe6e1051", "name": "2d7bea5988607bb7d5398586fe6e1051", "rental_uris": {"ios": "https://dc.lft.to/lastmile_qr_scan", "android": "https://dc.lft.to/lastmile_qr_scan"}}, {"is_disabled": 0, "fusion_lat": 0.0, "lat": 38.855597333333336, "type": "electric_scooter", "lon": -76.99500083333334, "is_reserved": 0, "fusion_lon": 0.0, "bike_id": "c973608755143541b83189f4fd35d0a0", "name": "c973608755143541b83189f4fd35d0a0", "rental_uris": {"ios": "https://dc.lft.to/lastmile_qr_scan", "android": "https://dc.lft.to/lastmile_qr_scan"}}, {"is_disabled": 0, "fusion_lat": 0.0, "lat": 38.90290916666667, "type": "electric_scooter", "lon": -77.040369, "is_reserved": 0, "fusion_lon": 0.0, "bike_id": "1c3ebd75e1919354d2bd7e7c4c466816", "name": "1c3ebd75e1919354d2bd7e7c4c466816", "rental_uris": {"ios": "https://dc.lft.to/lastmile_qr_scan", "android": "https://dc.lft.to/lastmile_qr_scan"}}, {"is_disabled": 0, "fusion_lat": 0.0, "lat": 38.918369166666665, "type": "electric_scooter", "lon": -77.0415495, "is_reserved": 0, "fusion_lon": 0.0, "bike_id": "2b71ce244938700d336a419d6cfddfb2", "name": "2b71ce244938700d336a419d6cfddfb2", "rental_uris": {"ios": "https://dc.lft.to/lastmile_qr_scan", "android": "https://dc.lft.to/lastmile_qr_scan"}}, {"is_disabled": 0, "fusion_lat": 0.0, "lat": 38.927224833333334, "type": "electric_scooter", "lon": -77.03659083333334, "is_reserved": 0, "fusion_lon": 0.0, "bike_id": "c7af893ff61db44a362234cc70f362f4", "name": "c7af893ff61db44a362234cc70f362f4", "rental_uris": {"ios": "https://dc.lft.to/lastmile_qr_scan", "android": "https://dc.lft.to/lastmile_qr_scan"}}, {"is_disabled": 0, "fusion_lat": 0.0, "lat": 38.924610666666666, "type": "electric_scooter", "lon": -77.05760783333334, "is_reserved": 0, "fusion_lon": 0.0, "bike_id": "2bc11d3a870049de2769e7db4df9c329", "name": "2bc11d3a870049de2769e7db4df9c329", "rental_uris": {"ios": "https://dc.lft.to/lastmile_qr_scan", "android": "https://dc.lft.to/lastmile_qr_scan"}}, {"is_disabled": 0, "fusion_lat": 0.0, "lat": 38.921184, "type": "electric_scooter", "lon": -77.041133, "is_reserved": 0, "fusion_lon": 0.0, "bike_id": "e43526a9ab04e0ee9bbe8e064d21a790", "name": "e43526a9ab04e0ee9bbe8e064d21a790", "rental_uris": {"ios": "https://dc.lft.to/lastmile_qr_scan", "android": "https://dc.lft.to/lastmile_qr_scan"}}, {"is_disabled": 0, "fusion_lat": 0.0, "lat": 38.924771666666665, "type": "electric_scooter", "lon": -77.0338075, "is_reserved": 0, "fusion_lon": 0.0, "bike_id": "2a487ec31a7d8b19bb41aa96252605b7", "name": "2a487ec31a7d8b19bb41aa96252605b7", "rental_uris": {"ios": "https://dc.lft.to/lastmile_qr_scan", "android": "https://dc.lft.to/lastmile_qr_scan"}}, {"is_disabled": 0, "fusion_lat": 0.0, "lat": 38.915339, "type": "electric_scooter", "lon": -77.02003366666666, "is_reserved": 0, "fusion_lon": 0.0, "bike_id": "68c24b1e3ca0abb7ae8c1bae958fbfd2", "name": "68c24b1e3ca0abb7ae8c1bae958fbfd2", "rental_uris": {"ios": "https://dc.lft.to/lastmile_qr_scan", "android": "https://dc.lft.to/lastmile_qr_scan"}}, {"is_disabled": 0, "fusion_lat": 0.0, "lat": 38.91713166666667, "type": "electric_scooter", "lon": -77.034737, "is_reserved": 0, "fusion_lon": 0.0, "bike_id": "53006f9bf69b443a3c4bf2ad58641a41", "name": "53006f9bf69b443a3c4bf2ad58641a41", "rental_uris": {"ios": "https://dc.lft.to/lastmile_qr_scan", "android": "https://dc.lft.to/lastmile_qr_scan"}}, {"is_disabled": 0, "fusion_lat": 0.0, "lat": 38.89596066666667, "type": "electric_scooter", "lon": -76.9552195, "is_reserved": 0, "fusion_lon": 0.0, "bike_id": "c8dddc42423cd9f86b8823753d4d327f", "name": "c8dddc42423cd9f86b8823753d4d327f", "rental_uris": {"ios": "https://dc.lft.to/lastmile_qr_scan", "android": "https://dc.lft.to/lastmile_qr_scan"}}, {"is_disabled": 0, "fusion_lat": 0.0, "lat": 38.92111533333333, "type": "electric_scooter", "lon": -77.042103, "is_reserved": 0, "fusion_lon": 0.0, "bike_id": "7ff748767d399504af944c04da5c1013", "name": "7ff748767d399504af944c04da5c1013", "rental_uris": {"ios": "https://dc.lft.to/lastmile_qr_scan", "android": "https://dc.lft.to/lastmile_qr_scan"}}, {"is_disabled": 0, "fusion_lat": 0.0, "lat": 38.88886766666667, "type": "electric_scooter", "lon": -76.93152533333334, "is_reserved": 0, "fusion_lon": 0.0, "bike_id": "010e949704c472a6c65e0b5856e161d1", "name": "010e949704c472a6c65e0b5856e161d1", "rental_uris": {"ios": "https://dc.lft.to/lastmile_qr_scan", "android": "https://dc.lft.to/lastmile_qr_scan"}}, {"is_disabled": 0, "fusion_lat": 0.0, "lat": 38.8902635, "type": "electric_scooter", "lon": -76.937251, "is_reserved": 0, "fusion_lon": 0.0, "bike_id": "cd5498f7415984d145a0abdef2c504da", "name": "cd5498f7415984d145a0abdef2c504da", "rental_uris": {"ios": "https://dc.lft.to/lastmile_qr_scan", "android": "https://dc.lft.to/lastmile_qr_scan"}}, {"is_disabled": 0, "fusion_lat": 0.0, "lat": 38.91913916666667, "type": "electric_scooter", "lon": -77.04624, "is_reserved": 0, "fusion_lon": 0.0, "bike_id": "b7486909f6d5e9142bcb67cd605b7eef", "name": "b7486909f6d5e9142bcb67cd605b7eef", "rental_uris": {"ios": "https://dc.lft.to/lastmile_qr_scan", "android": "https://dc.lft.to/lastmile_qr_scan"}}, {"is_disabled": 0, "fusion_lat": 0.0, "lat": 38.908772166666665, "type": "electric_scooter", "lon": -76.99800966666666, "is_reserved": 0, "fusion_lon": 0.0, "bike_id": "36b6af54883cbe4e5a8c84e51ed86fb2", "name": "36b6af54883cbe4e5a8c84e51ed86fb2", "rental_uris": {"ios": "https://dc.lft.to/lastmile_qr_scan", "android": "https://dc.lft.to/lastmile_qr_scan"}}, {"is_disabled": 0, "fusion_lat": 0.0, "lat": 38.92366416666667, "type": "electric_scooter", "lon": -77.01912583333333, "is_reserved": 0, "fusion_lon": 0.0, "bike_id": "9b046f49e659b471e8ef9a8d1f0642e4", "name": "9b046f49e659b471e8ef9a8d1f0642e4", "rental_uris": {"ios": "https://dc.lft.to/lastmile_qr_scan", "android": "https://dc.lft.to/lastmile_qr_scan"}}, {"is_disabled": 0, "fusion_lat": 0.0, "lat": 38.88481866666667, "type": "electric_scooter", "lon": -76.94595816666667, "is_reserved": 0, "fusion_lon": 0.0, "bike_id": "7104a1c05796ff0b73d10eeb215b1c1c", "name": "7104a1c05796ff0b73d10eeb215b1c1c", "rental_uris": {"ios": "https://dc.lft.to/lastmile_qr_scan", "android": "https://dc.lft.to/lastmile_qr_scan"}}, {"is_disabled": 0, "fusion_lat": 0.0, "lat": 38.880493, "type": "electric_scooter", "lon": -77.00552133333333, "is_reserved": 0, "fusion_lon": 0.0, "bike_id": "3bda4bba68d7b0fd5476d42bf736bf4b", "name": "3bda4bba68d7b0fd5476d42bf736bf4b", "rental_uris": {"ios": "https://dc.lft.to/lastmile_qr_scan", "android": "https://dc.lft.to/lastmile_qr_scan"}}, {"is_disabled": 0, "fusion_lat": 0.0, "lat": 38.90352216666667, "type": "electric_scooter", "lon": -77.03641683333333, "is_reserved": 0, "fusion_lon": 0.0, "bike_id": "98d6b83ddcc42e61af6aee0bd41a5e9e", "name": "98d6b83ddcc42e61af6aee0bd41a5e9e", "rental_uris": {"ios": "https://dc.lft.to/lastmile_qr_scan", "android": "https://dc.lft.to/lastmile_qr_scan"}}, {"is_disabled": 0, "fusion_lat": 0.0, "lat": 38.9351805, "type": "electric_scooter", "lon": -77.0329315, "is_reserved": 0, "fusion_lon": 0.0, "bike_id": "8ec537273fd9ae2cdbaf07a120ad4bbe", "name": "8ec537273fd9ae2cdbaf07a120ad4bbe", "rental_uris": {"ios": "https://dc.lft.to/lastmile_qr_scan", "android": "https://dc.lft.to/lastmile_qr_scan"}}, {"is_disabled": 0, "fusion_lat": 0.0, "lat": 38.91630966666666, "type": "electric_scooter", "lon": -77.0320195, "is_reserved": 0, "fusion_lon": 0.0, "bike_id": "73ccedbab8b41611b3b912edbca03073", "name": "73ccedbab8b41611b3b912edbca03073", "rental_uris": {"ios": "https://dc.lft.to/lastmile_qr_scan", "android": "https://dc.lft.to/lastmile_qr_scan"}}, {"is_disabled": 0, "fusion_lat": 0.0, "lat": 38.918223, "type": "electric_scooter", "lon": -77.035263, "is_reserved": 0, "fusion_lon": 0.0, "bike_id": "265b336dbff1c71a8a2405c04422154b", "name": "265b336dbff1c71a8a2405c04422154b", "rental_uris": {"ios": "https://dc.lft.to/lastmile_qr_scan", "android": "https://dc.lft.to/lastmile_qr_scan"}}, {"is_disabled": 0, "fusion_lat": 0.0, "lat": 38.9012215, "type": "electric_scooter", "lon": -77.02194783333333, "is_reserved": 0, "fusion_lon": 0.0, "bike_id": "b35b0a88b3675758b9f606d17f33513c", "name": "b35b0a88b3675758b9f606d17f33513c", "rental_uris": {"ios": "https://dc.lft.to/lastmile_qr_scan", "android": "https://dc.lft.to/lastmile_qr_scan"}}, {"is_disabled": 0, "fusion_lat": 0.0, "lat": 38.8860285, "type": "electric_scooter", "lon": -77.04507466666666, "is_reserved": 0, "fusion_lon": 0.0, "bike_id": "f9ac79b6ba4f704ca77b00ce8774ed36", "name": "f9ac79b6ba4f704ca77b00ce8774ed36", "rental_uris": {"ios": "https://dc.lft.to/lastmile_qr_scan", "android": "https://dc.lft.to/lastmile_qr_scan"}}, {"is_disabled": 0, "fusion_lat": 0.0, "lat": 38.90065516666667, "type": "electric_scooter", "lon": -77.01282233333333, "is_reserved": 0, "fusion_lon": 0.0, "bike_id": "be96b83f35b9cd03c73a278bae033afe", "name": "be96b83f35b9cd03c73a278bae033afe", "rental_uris": {"ios": "https://dc.lft.to/lastmile_qr_scan", "android": "https://dc.lft.to/lastmile_qr_scan"}}, {"is_disabled": 0, "fusion_lat": 0.0, "lat": 38.92408733333333, "type": "electric_scooter", "lon": -77.05624733333333, "is_reserved": 0, "fusion_lon": 0.0, "bike_id": "114c78cf7d58ad389dd8565830b535aa", "name": "114c78cf7d58ad389dd8565830b535aa", "rental_uris": {"ios": "https://dc.lft.to/lastmile_qr_scan", "android": "https://dc.lft.to/lastmile_qr_scan"}}, {"is_disabled": 0, "fusion_lat": 0.0, "lat": 38.896050333333335, "type": "electric_scooter", "lon": -77.03167533333334, "is_reserved": 0, "fusion_lon": 0.0, "bike_id": "fc8650e4bf9d0740e9b11b6da77c97b7", "name": "fc8650e4bf9d0740e9b11b6da77c97b7", "rental_uris": {"ios": "https://dc.lft.to/lastmile_qr_scan", "android": "https://dc.lft.to/lastmile_qr_scan"}}, {"is_disabled": 0, "fusion_lat": 0.0, "lat": 38.956337166666664, "type": "electric_scooter", "lon": -77.0330135, "is_reserved": 0, "fusion_lon": 0.0, "bike_id": "43bebc42b1414b85330ad3b0b7b86f86", "name": "43bebc42b1414b85330ad3b0b7b86f86", "rental_uris": {"ios": "https://dc.lft.to/lastmile_qr_scan", "android": "https://dc.lft.to/lastmile_qr_scan"}}, {"is_disabled": 0, "fusion_lat": 0.0, "lat": 38.926755166666666, "type": "electric_scooter", "lon": -77.030412, "is_reserved": 0, "fusion_lon": 0.0, "bike_id": "30d49dfdcae26312094aa49ff50756e3", "name": "30d49dfdcae26312094aa49ff50756e3", "rental_uris": {"ios": "https://dc.lft.to/lastmile_qr_scan", "android": "https://dc.lft.to/lastmile_qr_scan"}}, {"is_disabled": 0, "fusion_lat": 0.0, "lat": 38.918120333333334, "type": "electric_scooter", "lon": -77.02315283333333, "is_reserved": 0, "fusion_lon": 0.0, "bike_id": "0c34329dfca90f987b944c9f92bc2fcf", "name": "0c34329dfca90f987b944c9f92bc2fcf", "rental_uris": {"ios": "https://dc.lft.to/lastmile_qr_scan", "android": "https://dc.lft.to/lastmile_qr_scan"}}, {"is_disabled": 0, "fusion_lat": 0.0, "lat": 38.902729, "type": "electric_scooter", "lon": -77.0383805, "is_reserved": 0, "fusion_lon": 0.0, "bike_id": "6870a815c78c9028f008cf0ce0cc76fa", "name": "6870a815c78c9028f008cf0ce0cc76fa", "rental_uris": {"ios": "https://dc.lft.to/lastmile_qr_scan", "android": "https://dc.lft.to/lastmile_qr_scan"}}, {"is_disabled": 0, "fusion_lat": 0.0, "lat": 38.8458515, "type": "electric_scooter", "lon": -76.981597, "is_reserved": 0, "fusion_lon": 0.0, "bike_id": "0a6a6694c12c24f6bc988989f5bd10f9", "name": "0a6a6694c12c24f6bc988989f5bd10f9", "rental_uris": {"ios": "https://dc.lft.to/lastmile_qr_scan", "android": "https://dc.lft.to/lastmile_qr_scan"}}, {"is_disabled": 0, "fusion_lat": 0.0, "lat": 38.936009166666665, "type": "electric_scooter", "lon": -77.03799233333334, "is_reserved": 0, "fusion_lon": 0.0, "bike_id": "df738d8b394c8edc5bb46a1339b32a25", "name": "df738d8b394c8edc5bb46a1339b32a25", "rental_uris": {"ios": "https://dc.lft.to/lastmile_qr_scan", "android": "https://dc.lft.to/lastmile_qr_scan"}}, {"is_disabled": 0, "fusion_lat": 0.0, "lat": 38.92183516666667, "type": "electric_scooter", "lon": -77.04707333333333, "is_reserved": 0, "fusion_lon": 0.0, "bike_id": "ffcea0ac639050192d4bfec43837c219", "name": "ffcea0ac639050192d4bfec43837c219", "rental_uris": {"ios": "https://dc.lft.to/lastmile_qr_scan", "android": "https://dc.lft.to/lastmile_qr_scan"}}, {"is_disabled": 0, "fusion_lat": 0.0, "lat": 38.92559033333333, "type": "electric_bike", "lon": -77.00136616666667, "is_reserved": 0, "fusion_lon": 0.0, "bike_id": "c52c6362304e793d9fecfb17118f6861", "name": "c52c6362304e793d9fecfb17118f6861", "rental_uris": {"ios": "https://dc.lft.to/lastmile_qr_scan", "android": "https://dc.lft.to/lastmile_qr_scan"}}, {"is_disabled": 0, "fusion_lat": 0.0, "lat": 38.90239433333333, "type": "electric_scooter", "lon": -77.04597883333334, "is_reserved": 0, "fusion_lon": 0.0, "bike_id": "c0c27614f9b75f73f493d124e073be31", "name": "c0c27614f9b75f73f493d124e073be31", "rental_uris": {"ios": "https://dc.lft.to/lastmile_qr_scan", "android": "https://dc.lft.to/lastmile_qr_scan"}}, {"is_disabled": 0, "fusion_lat": 0.0, "lat": 38.925661, "type": "electric_scooter", "lon": -77.05269283333334, "is_reserved": 0, "fusion_lon": 0.0, "bike_id": "16bde1a9a73dbdc4fc8870f4a9e7df4e", "name": "16bde1a9a73dbdc4fc8870f4a9e7df4e", "rental_uris": {"ios": "https://dc.lft.to/lastmile_qr_scan", "android": "https://dc.lft.to/lastmile_qr_scan"}}, {"is_disabled": 0, "fusion_lat": 0.0, "lat": 38.863667166666666, "type": "electric_bike", "lon": -76.97004133333333, "is_reserved": 0, "fusion_lon": 0.0, "bike_id": "19f83ec5040f1ff762710505ef2df936", "name": "19f83ec5040f1ff762710505ef2df936", "rental_uris": {"ios": "https://dc.lft.to/lastmile_qr_scan", "android": "https://dc.lft.to/lastmile_qr_scan"}}, {"is_disabled": 0, "fusion_lat": 0.0, "lat": 38.850585833333334, "type": "electric_bike", "lon": -76.97325533333333, "is_reserved": 0, "fusion_lon": 0.0, "bike_id": "0f04af6ca8c52b87b1e1c794d9c06199", "name": "0f04af6ca8c52b87b1e1c794d9c06199", "rental_uris": {"ios": "https://dc.lft.to/lastmile_qr_scan", "android": "https://dc.lft.to/lastmile_qr_scan"}}, {"is_disabled": 0, "fusion_lat": 0.0, "lat": 38.9402325, "type": "electric_scooter", "lon": -77.0716845, "is_reserved": 0, "fusion_lon": 0.0, "bike_id": "8ab8e4490ddc51db9cab54d0705a0615", "name": "8ab8e4490ddc51db9cab54d0705a0615", "rental_uris": {"ios": "https://dc.lft.to/lastmile_qr_scan", "android": "https://dc.lft.to/lastmile_qr_scan"}}, {"is_disabled": 0, "fusion_lat": 0.0, "lat": 38.89883916666667, "type": "electric_scooter", "lon": -76.93174283333333, "is_reserved": 0, "fusion_lon": 0.0, "bike_id": "20110d00c25138a0b9f0e6148f90545a", "name": "20110d00c25138a0b9f0e6148f90545a", "rental_uris": {"ios": "https://dc.lft.to/lastmile_qr_scan", "android": "https://dc.lft.to/lastmile_qr_scan"}}, {"is_disabled": 0, "fusion_lat": 0.0, "lat": 38.92067733333333, "type": "electric_scooter", "lon": -77.0437845, "is_reserved": 0, "fusion_lon": 0.0, "bike_id": "03ad54127c6fc6ee9acea594ae33a2b9", "name": "03ad54127c6fc6ee9acea594ae33a2b9", "rental_uris": {"ios": "https://dc.lft.to/lastmile_qr_scan", "android": "https://dc.lft.to/lastmile_qr_scan"}}, {"is_disabled": 0, "fusion_lat": 0.0, "lat": 38.902652833333335, "type": "electric_scooter", "lon": -77.02137866666666, "is_reserved": 0, "fusion_lon": 0.0, "bike_id": "fbbca396a1c7ba11b26776a9177c7dc2", "name": "fbbca396a1c7ba11b26776a9177c7dc2", "rental_uris": {"ios": "https://dc.lft.to/lastmile_qr_scan", "android": "https://dc.lft.to/lastmile_qr_scan"}}, {"is_disabled": 0, "fusion_lat": 0.0, "lat": 38.9144995, "type": "electric_scooter", "lon": -77.04581116666667, "is_reserved": 0, "fusion_lon": 0.0, "bike_id": "e307aa4bafea4d20652e923f3063307f", "name": "e307aa4bafea4d20652e923f3063307f", "rental_uris": {"ios": "https://dc.lft.to/lastmile_qr_scan", "android": "https://dc.lft.to/lastmile_qr_scan"}}, {"is_disabled": 0, "fusion_lat": 0.0, "lat": 38.909728, "type": "electric_scooter", "lon": -77.03589683333334, "is_reserved": 0, "fusion_lon": 0.0, "bike_id": "826ce92bddcab9ffbfccdb2ded342e36", "name": "826ce92bddcab9ffbfccdb2ded342e36", "rental_uris": {"ios": "https://dc.lft.to/lastmile_qr_scan", "android": "https://dc.lft.to/lastmile_qr_scan"}}, {"is_disabled": 0, "fusion_lat": 0.0, "lat": 38.91960683333333, "type": "electric_bike", "lon": -76.97268466666667, "is_reserved": 0, "fusion_lon": 0.0, "bike_id": "02433a12cf28e535928c219cebd53485", "name": "02433a12cf28e535928c219cebd53485", "rental_uris": {"ios": "https://dc.lft.to/lastmile_qr_scan", "android": "https://dc.lft.to/lastmile_qr_scan"}}, {"is_disabled": 0, "fusion_lat": 0.0, "lat": 38.94948866666667, "type": "electric_scooter", "lon": -77.0160855, "is_reserved": 0, "fusion_lon": 0.0, "bike_id": "d9462c7ea42a5ff598fa3aba335478cf", "name": "d9462c7ea42a5ff598fa3aba335478cf", "rental_uris": {"ios": "https://dc.lft.to/lastmile_qr_scan", "android": "https://dc.lft.to/lastmile_qr_scan"}}, {"is_disabled": 0, "fusion_lat": 0.0, "lat": 38.91575783333333, "type": "electric_scooter", "lon": -77.04677166666667, "is_reserved": 0, "fusion_lon": 0.0, "bike_id": "fdcb3205a523bb63e6578772502dcac2", "name": "fdcb3205a523bb63e6578772502dcac2", "rental_uris": {"ios": "https://dc.lft.to/lastmile_qr_scan", "android": "https://dc.lft.to/lastmile_qr_scan"}}, {"is_disabled": 0, "fusion_lat": 0.0, "lat": 38.92885066666667, "type": "electric_scooter", "lon": -77.032144, "is_reserved": 0, "fusion_lon": 0.0, "bike_id": "e8dcc12e22fa63df8bf576c745cae6a7", "name": "e8dcc12e22fa63df8bf576c745cae6a7", "rental_uris": {"ios": "https://dc.lft.to/lastmile_qr_scan", "android": "https://dc.lft.to/lastmile_qr_scan"}}, {"is_disabled": 0, "fusion_lat": 0.0, "lat": 38.86093016666667, "type": "electric_scooter", "lon": -76.98372583333334, "is_reserved": 0, "fusion_lon": 0.0, "bike_id": "2d1108633388db5c5c02fa3932addc3b", "name": "2d1108633388db5c5c02fa3932addc3b", "rental_uris": {"ios": "https://dc.lft.to/lastmile_qr_scan", "android": "https://dc.lft.to/lastmile_qr_scan"}}, {"is_disabled": 0, "fusion_lat": 0.0, "lat": 38.92473233333333, "type": "electric_scooter", "lon": -77.03918683333333, "is_reserved": 0, "fusion_lon": 0.0, "bike_id": "5ff1adbd3be8700c760e48a9c119a77a", "name": "5ff1adbd3be8700c760e48a9c119a77a", "rental_uris": {"ios": "https://dc.lft.to/lastmile_qr_scan", "android": "https://dc.lft.to/lastmile_qr_scan"}}, {"is_disabled": 0, "fusion_lat": 0.0, "lat": 38.92418283333333, "type": "electric_bike", "lon": -77.04565516666666, "is_reserved": 0, "fusion_lon": 0.0, "bike_id": "aaebbb6e930c3e917168f78e56a3ae02", "name": "aaebbb6e930c3e917168f78e56a3ae02", "rental_uris": {"ios": "https://dc.lft.to/lastmile_qr_scan", "android": "https://dc.lft.to/lastmile_qr_scan"}}, {"is_disabled": 0, "fusion_lat": 0.0, "lat": 38.9182515, "type": "electric_scooter", "lon": -77.03642666666667, "is_reserved": 0, "fusion_lon": 0.0, "bike_id": "63284cac6b4a6310847673322b68f3d5", "name": "63284cac6b4a6310847673322b68f3d5", "rental_uris": {"ios": "https://dc.lft.to/lastmile_qr_scan", "android": "https://dc.lft.to/lastmile_qr_scan"}}, {"is_disabled": 0, "fusion_lat": 0.0, "lat": 38.902154333333336, "type": "electric_scooter", "lon": -76.94578266666667, "is_reserved": 0, "fusion_lon": 0.0, "bike_id": "c4b1595834c947ce2e6a412a63377e0e", "name": "c4b1595834c947ce2e6a412a63377e0e", "rental_uris": {"ios": "https://dc.lft.to/lastmile_qr_scan", "android": "https://dc.lft.to/lastmile_qr_scan"}}, {"is_disabled": 0, "fusion_lat": 0.0, "lat": 38.89623366666667, "type": "electric_scooter", "lon": -77.00906483333333, "is_reserved": 0, "fusion_lon": 0.0, "bike_id": "65c3053c10e03d4e2339702bf195a063", "name": "65c3053c10e03d4e2339702bf195a063", "rental_uris": {"ios": "https://dc.lft.to/lastmile_qr_scan", "android": "https://dc.lft.to/lastmile_qr_scan"}}, {"is_disabled": 0, "fusion_lat": 0.0, "lat": 38.899897833333334, "type": "electric_scooter", "lon": -77.022373, "is_reserved": 0, "fusion_lon": 0.0, "bike_id": "7b913c4db6d77021fffbe580c76edfdf", "name": "7b913c4db6d77021fffbe580c76edfdf", "rental_uris": {"ios": "https://dc.lft.to/lastmile_qr_scan", "android": "https://dc.lft.to/lastmile_qr_scan"}}, {"is_disabled": 0, "fusion_lat": 0.0, "lat": 38.958777166666664, "type": "electric_bike", "lon": -77.010388, "is_reserved": 0, "fusion_lon": 0.0, "bike_id": "5654494e7c1ff40427fc83b0a12fe0ba", "name": "5654494e7c1ff40427fc83b0a12fe0ba", "rental_uris": {"ios": "https://dc.lft.to/lastmile_qr_scan", "android": "https://dc.lft.to/lastmile_qr_scan"}}, {"is_disabled": 0, "fusion_lat": 0.0, "lat": 38.961736, "type": "electric_bike", "lon": -76.99586633333334, "is_reserved": 0, "fusion_lon": 0.0, "bike_id": "6c28487fa8ba876c70119a4053d200dc", "name": "6c28487fa8ba876c70119a4053d200dc", "rental_uris": {"ios": "https://dc.lft.to/lastmile_qr_scan", "android": "https://dc.lft.to/lastmile_qr_scan"}}, {"is_disabled": 0, "fusion_lat": 0.0, "lat": 38.90252733333333, "type": "electric_scooter", "lon": -77.02656, "is_reserved": 0, "fusion_lon": 0.0, "bike_id": "7c2e8865de3fc49e0c538ae41b7784f4", "name": "7c2e8865de3fc49e0c538ae41b7784f4", "rental_uris": {"ios": "https://dc.lft.to/lastmile_qr_scan", "android": "https://dc.lft.to/lastmile_qr_scan"}}, {"is_disabled": 0, "fusion_lat": 0.0, "lat": 38.9009455, "type": "electric_scooter", "lon": -76.98340966666666, "is_reserved": 0, "fusion_lon": 0.0, "bike_id": "300d329583343741e1de3264aaf52ec3", "name": "300d329583343741e1de3264aaf52ec3", "rental_uris": {"ios": "https://dc.lft.to/lastmile_qr_scan", "android": "https://dc.lft.to/lastmile_qr_scan"}}, {"is_disabled": 0, "fusion_lat": 0.0, "lat": 38.87651916666667, "type": "electric_scooter", "lon": -77.00433333333334, "is_reserved": 0, "fusion_lon": 0.0, "bike_id": "c0ddb1542cb895fc73f3ef129b1e0e01", "name": "c0ddb1542cb895fc73f3ef129b1e0e01", "rental_uris": {"ios": "https://dc.lft.to/lastmile_qr_scan", "android": "https://dc.lft.to/lastmile_qr_scan"}}, {"is_disabled": 0, "fusion_lat": 0.0, "lat": 38.892454, "type": "electric_scooter", "lon": -77.0395635, "is_reserved": 0, "fusion_lon": 0.0, "bike_id": "e844bf690ee78651db8777c74949bea9", "name": "e844bf690ee78651db8777c74949bea9", "rental_uris": {"ios": "https://dc.lft.to/lastmile_qr_scan", "android": "https://dc.lft.to/lastmile_qr_scan"}}, {"is_disabled": 0, "fusion_lat": 0.0, "lat": 38.9105505, "type": "electric_scooter", "lon": -77.022038, "is_reserved": 0, "fusion_lon": 0.0, "bike_id": "07fc04ba9e350f371b7f25327311373d", "name": "07fc04ba9e350f371b7f25327311373d", "rental_uris": {"ios": "https://dc.lft.to/lastmile_qr_scan", "android": "https://dc.lft.to/lastmile_qr_scan"}}, {"is_disabled": 0, "fusion_lat": 0.0, "lat": 38.917666, "type": "electric_scooter", "lon": -77.03998083333333, "is_reserved": 0, "fusion_lon": 0.0, "bike_id": "57226fbb39d8897fa5719556e990f968", "name": "57226fbb39d8897fa5719556e990f968", "rental_uris": {"ios": "https://dc.lft.to/lastmile_qr_scan", "android": "https://dc.lft.to/lastmile_qr_scan"}}, {"is_disabled": 0, "fusion_lat": 0.0, "lat": 38.9056355, "type": "electric_scooter", "lon": -77.03972716666667, "is_reserved": 0, "fusion_lon": 0.0, "bike_id": "06de05d8a868cc4f07c0e4c3db23138e", "name": "06de05d8a868cc4f07c0e4c3db23138e", "rental_uris": {"ios": "https://dc.lft.to/lastmile_qr_scan", "android": "https://dc.lft.to/lastmile_qr_scan"}}, {"is_disabled": 0, "fusion_lat": 0.0, "lat": 38.99072866666667, "type": "electric_bike", "lon": -76.87466683333334, "is_reserved": 0, "fusion_lon": 0.0, "bike_id": "a822c0447d3282ebe45feae8d1d72706", "name": "a822c0447d3282ebe45feae8d1d72706", "rental_uris": {"ios": "https://dc.lft.to/lastmile_qr_scan", "android": "https://dc.lft.to/lastmile_qr_scan"}}, {"is_disabled": 0, "fusion_lat": 0.0, "lat": 38.91413033333333, "type": "electric_scooter", "lon": -77.0454755, "is_reserved": 0, "fusion_lon": 0.0, "bike_id": "1104648dc7f7cde0750c22dd56115f64", "name": "1104648dc7f7cde0750c22dd56115f64", "rental_uris": {"ios": "https://dc.lft.to/lastmile_qr_scan", "android": "https://dc.lft.to/lastmile_qr_scan"}}, {"is_disabled": 0, "fusion_lat": 0.0, "lat": 38.903146166666666, "type": "electric_scooter", "lon": -77.04331516666667, "is_reserved": 0, "fusion_lon": 0.0, "bike_id": "ec77c1c9691e552b12314a1ee560efc0", "name": "ec77c1c9691e552b12314a1ee560efc0", "rental_uris": {"ios": "https://dc.lft.to/lastmile_qr_scan", "android": "https://dc.lft.to/lastmile_qr_scan"}}, {"is_disabled": 0, "fusion_lat": 0.0, "lat": 38.883972666666665, "type": "electric_scooter", "lon": -77.0153545, "is_reserved": 0, "fusion_lon": 0.0, "bike_id": "f91e52de4ec4d4cc44969873bd682ff0", "name": "f91e52de4ec4d4cc44969873bd682ff0", "rental_uris": {"ios": "https://dc.lft.to/lastmile_qr_scan", "android": "https://dc.lft.to/lastmile_qr_scan"}}, {"is_disabled": 0, "fusion_lat": 0.0, "lat": 38.936307166666666, "type": "electric_scooter", "lon": -77.03659166666667, "is_reserved": 0, "fusion_lon": 0.0, "bike_id": "5953d44d18ff7ba582455ee3351e2e2a", "name": "5953d44d18ff7ba582455ee3351e2e2a", "rental_uris": {"ios": "https://dc.lft.to/lastmile_qr_scan", "android": "https://dc.lft.to/lastmile_qr_scan"}}, {"is_disabled": 0, "fusion_lat": 0.0, "lat": 38.8287305, "type": "electric_bike", "lon": -77.11219616666666, "is_reserved": 0, "fusion_lon": 0.0, "bike_id": "0168f4e83c9277258c8fb9c86ba32311", "name": "0168f4e83c9277258c8fb9c86ba32311", "rental_uris": {"ios": "https://dc.lft.to/lastmile_qr_scan", "android": "https://dc.lft.to/lastmile_qr_scan"}}, {"is_disabled": 0, "fusion_lat": 0.0, "lat": 38.909792, "type": "electric_scooter", "lon": -77.06708216666667, "is_reserved": 0, "fusion_lon": 0.0, "bike_id": "94fd42cf042f165888e774d62aa10c40", "name": "94fd42cf042f165888e774d62aa10c40", "rental_uris": {"ios": "https://dc.lft.to/lastmile_qr_scan", "android": "https://dc.lft.to/lastmile_qr_scan"}}, {"is_disabled": 0, "fusion_lat": 0.0, "lat": 38.902640833333336, "type": "electric_scooter", "lon": -77.03840783333334, "is_reserved": 0, "fusion_lon": 0.0, "bike_id": "0b5c2b8978e51d23e651334963336059", "name": "0b5c2b8978e51d23e651334963336059", "rental_uris": {"ios": "https://dc.lft.to/lastmile_qr_scan", "android": "https://dc.lft.to/lastmile_qr_scan"}}, {"is_disabled": 0, "fusion_lat": 0.0, "lat": 38.882838, "type": "electric_scooter", "lon": -77.041542, "is_reserved": 0, "fusion_lon": 0.0, "bike_id": "8ae14b8d244d2d48f4508dc3e9120e96", "name": "8ae14b8d244d2d48f4508dc3e9120e96", "rental_uris": {"ios": "https://dc.lft.to/lastmile_qr_scan", "android": "https://dc.lft.to/lastmile_qr_scan"}}, {"is_disabled": 0, "fusion_lat": 0.0, "lat": 38.9188255, "type": "electric_scooter", "lon": -76.97134366666667, "is_reserved": 0, "fusion_lon": 0.0, "bike_id": "4c890224871d0ae3e4422f6696165261", "name": "4c890224871d0ae3e4422f6696165261", "rental_uris": {"ios": "https://dc.lft.to/lastmile_qr_scan", "android": "https://dc.lft.to/lastmile_qr_scan"}}, {"is_disabled": 0, "fusion_lat": 0.0, "lat": 38.946100333333334, "type": "electric_scooter", "lon": -77.03501916666667, "is_reserved": 0, "fusion_lon": 0.0, "bike_id": "999e824eb99919a19d021470a454238a", "name": "999e824eb99919a19d021470a454238a", "rental_uris": {"ios": "https://dc.lft.to/lastmile_qr_scan", "android": "https://dc.lft.to/lastmile_qr_scan"}}, {"is_disabled": 0, "fusion_lat": 0.0, "lat": 38.94329583333333, "type": "electric_scooter", "lon": -77.0738895, "is_reserved": 0, "fusion_lon": 0.0, "bike_id": "a48469dc6a7c5811d0d7070fb1f74a44", "name": "a48469dc6a7c5811d0d7070fb1f74a44", "rental_uris": {"ios": "https://dc.lft.to/lastmile_qr_scan", "android": "https://dc.lft.to/lastmile_qr_scan"}}, {"is_disabled": 0, "fusion_lat": 0.0, "lat": 38.90852433333333, "type": "electric_scooter", "lon": -77.02453666666666, "is_reserved": 0, "fusion_lon": 0.0, "bike_id": "384ea11a7db4a759a55ba1426af64d71", "name": "384ea11a7db4a759a55ba1426af64d71", "rental_uris": {"ios": "https://dc.lft.to/lastmile_qr_scan", "android": "https://dc.lft.to/lastmile_qr_scan"}}, {"is_disabled": 0, "fusion_lat": 0.0, "lat": 38.86361333333333, "type": "electric_scooter", "lon": -76.99034433333334, "is_reserved": 0, "fusion_lon": 0.0, "bike_id": "f59eba7d0e36218871ed58a486cecb0c", "name": "f59eba7d0e36218871ed58a486cecb0c", "rental_uris": {"ios": "https://dc.lft.to/lastmile_qr_scan", "android": "https://dc.lft.to/lastmile_qr_scan"}}, {"is_disabled": 0, "fusion_lat": 0.0, "lat": 38.8992575, "type": "electric_scooter", "lon": -77.05408816666667, "is_reserved": 0, "fusion_lon": 0.0, "bike_id": "4f4f81bd7c2cccee18c09728d25a1d5c", "name": "4f4f81bd7c2cccee18c09728d25a1d5c", "rental_uris": {"ios": "https://dc.lft.to/lastmile_qr_scan", "android": "https://dc.lft.to/lastmile_qr_scan"}}, {"is_disabled": 0, "fusion_lat": 0.0, "lat": 38.87507033333333, "type": "electric_scooter", "lon": -77.00189283333333, "is_reserved": 0, "fusion_lon": 0.0, "bike_id": "1ac3b8abffd9aaecd3a3630683efb5bf", "name": "1ac3b8abffd9aaecd3a3630683efb5bf", "rental_uris": {"ios": "https://dc.lft.to/lastmile_qr_scan", "android": "https://dc.lft.to/lastmile_qr_scan"}}, {"is_disabled": 0, "fusion_lat": 0.0, "lat": 38.92615816666667, "type": "electric_scooter", "lon": -77.00561366666666, "is_reserved": 0, "fusion_lon": 0.0, "bike_id": "ba04a1a5712be448cb3f81930242a560", "name": "ba04a1a5712be448cb3f81930242a560", "rental_uris": {"ios": "https://dc.lft.to/lastmile_qr_scan", "android": "https://dc.lft.to/lastmile_qr_scan"}}, {"is_disabled": 0, "fusion_lat": 0.0, "lat": 38.92251566666667, "type": "electric_scooter", "lon": -77.03065516666666, "is_reserved": 0, "fusion_lon": 0.0, "bike_id": "538825de2e75874f9dc686c3c2221331", "name": "538825de2e75874f9dc686c3c2221331", "rental_uris": {"ios": "https://dc.lft.to/lastmile_qr_scan", "android": "https://dc.lft.to/lastmile_qr_scan"}}, {"is_disabled": 0, "fusion_lat": 0.0, "lat": 38.88706533333333, "type": "electric_scooter", "lon": -77.0320385, "is_reserved": 0, "fusion_lon": 0.0, "bike_id": "4fb74f94895a4aa5f814169626cec99e", "name": "4fb74f94895a4aa5f814169626cec99e", "rental_uris": {"ios": "https://dc.lft.to/lastmile_qr_scan", "android": "https://dc.lft.to/lastmile_qr_scan"}}, {"is_disabled": 0, "fusion_lat": 0.0, "lat": 38.901041666666664, "type": "electric_scooter", "lon": -77.0438435, "is_reserved": 0, "fusion_lon": 0.0, "bike_id": "be7f5de618648dde1ad959b7b63c5723", "name": "be7f5de618648dde1ad959b7b63c5723", "rental_uris": {"ios": "https://dc.lft.to/lastmile_qr_scan", "android": "https://dc.lft.to/lastmile_qr_scan"}}, {"is_disabled": 0, "fusion_lat": 0.0, "lat": 38.912453666666664, "type": "electric_scooter", "lon": -77.01607766666666, "is_reserved": 0, "fusion_lon": 0.0, "bike_id": "d000b9db3786a7cbb935383a06973e8d", "name": "d000b9db3786a7cbb935383a06973e8d", "rental_uris": {"ios": "https://dc.lft.to/lastmile_qr_scan", "android": "https://dc.lft.to/lastmile_qr_scan"}}, {"is_disabled": 0, "fusion_lat": 0.0, "lat": 38.92250283333333, "type": "electric_scooter", "lon": -77.04250516666667, "is_reserved": 0, "fusion_lon": 0.0, "bike_id": "f0480faa1c1129ed842badba2672820f", "name": "f0480faa1c1129ed842badba2672820f", "rental_uris": {"ios": "https://dc.lft.to/lastmile_qr_scan", "android": "https://dc.lft.to/lastmile_qr_scan"}}, {"is_disabled": 0, "fusion_lat": 0.0, "lat": 38.92763033333333, "type": "electric_scooter", "lon": -77.00591616666667, "is_reserved": 0, "fusion_lon": 0.0, "bike_id": "3a250e7bf35cd03013ac97815d36ec6c", "name": "3a250e7bf35cd03013ac97815d36ec6c", "rental_uris": {"ios": "https://dc.lft.to/lastmile_qr_scan", "android": "https://dc.lft.to/lastmile_qr_scan"}}, {"is_disabled": 0, "fusion_lat": 0.0, "lat": 38.906181333333336, "type": "electric_scooter", "lon": -77.039814, "is_reserved": 0, "fusion_lon": 0.0, "bike_id": "1c1a287c53c4e2952c530fa562b5bf40", "name": "1c1a287c53c4e2952c530fa562b5bf40", "rental_uris": {"ios": "https://dc.lft.to/lastmile_qr_scan", "android": "https://dc.lft.to/lastmile_qr_scan"}}, {"is_disabled": 0, "fusion_lat": 0.0, "lat": 38.9061615, "type": "electric_scooter", "lon": -77.05900683333333, "is_reserved": 0, "fusion_lon": 0.0, "bike_id": "4ccbe0c06cfe4a807fdf3f41d65fbc94", "name": "4ccbe0c06cfe4a807fdf3f41d65fbc94", "rental_uris": {"ios": "https://dc.lft.to/lastmile_qr_scan", "android": "https://dc.lft.to/lastmile_qr_scan"}}, {"is_disabled": 0, "fusion_lat": 0.0, "lat": 38.91982983333333, "type": "electric_scooter", "lon": -77.04163833333334, "is_reserved": 0, "fusion_lon": 0.0, "bike_id": "91be92c2ce88dd6968476a2fd36a47be", "name": "91be92c2ce88dd6968476a2fd36a47be", "rental_uris": {"ios": "https://dc.lft.to/lastmile_qr_scan", "android": "https://dc.lft.to/lastmile_qr_scan"}}, {"is_disabled": 0, "fusion_lat": 0.0, "lat": 38.907309833333336, "type": "electric_scooter", "lon": -77.02324883333333, "is_reserved": 0, "fusion_lon": 0.0, "bike_id": "52ceb5c9bacc063c9c9740d34c9c4d32", "name": "52ceb5c9bacc063c9c9740d34c9c4d32", "rental_uris": {"ios": "https://dc.lft.to/lastmile_qr_scan", "android": "https://dc.lft.to/lastmile_qr_scan"}}, {"is_disabled": 0, "fusion_lat": 0.0, "lat": 38.915483333333334, "type": "electric_scooter", "lon": -77.0417225, "is_reserved": 0, "fusion_lon": 0.0, "bike_id": "916a4f28daf9fca63479f6bab79b49e4", "name": "916a4f28daf9fca63479f6bab79b49e4", "rental_uris": {"ios": "https://dc.lft.to/lastmile_qr_scan", "android": "https://dc.lft.to/lastmile_qr_scan"}}, {"is_disabled": 0, "fusion_lat": 0.0, "lat": 38.878427333333335, "type": "electric_scooter", "lon": -77.02267366666666, "is_reserved": 0, "fusion_lon": 0.0, "bike_id": "f074e2410bc4991692c957432b1d8f2b", "name": "f074e2410bc4991692c957432b1d8f2b", "rental_uris": {"ios": "https://dc.lft.to/lastmile_qr_scan", "android": "https://dc.lft.to/lastmile_qr_scan"}}, {"is_disabled": 0, "fusion_lat": 0.0, "lat": 38.924746999999996, "type": "electric_scooter", "lon": -77.025524, "is_reserved": 0, "fusion_lon": 0.0, "bike_id": "8414b2daaaa2cbda5995b97092e2b546", "name": "8414b2daaaa2cbda5995b97092e2b546", "rental_uris": {"ios": "https://dc.lft.to/lastmile_qr_scan", "android": "https://dc.lft.to/lastmile_qr_scan"}}, {"is_disabled": 0, "fusion_lat": 0.0, "lat": 38.92744733333333, "type": "electric_scooter", "lon": -77.02530766666666, "is_reserved": 0, "fusion_lon": 0.0, "bike_id": "a637f738a729f7c5d8a87b694a9682cc", "name": "a637f738a729f7c5d8a87b694a9682cc", "rental_uris": {"ios": "https://dc.lft.to/lastmile_qr_scan", "android": "https://dc.lft.to/lastmile_qr_scan"}}, {"is_disabled": 0, "fusion_lat": 0.0, "lat": 38.905163, "type": "electric_scooter", "lon": -77.06864383333334, "is_reserved": 0, "fusion_lon": 0.0, "bike_id": "9010695b9e3f7224f600394686af03b6", "name": "9010695b9e3f7224f600394686af03b6", "rental_uris": {"ios": "https://dc.lft.to/lastmile_qr_scan", "android": "https://dc.lft.to/lastmile_qr_scan"}}, {"is_disabled": 0, "fusion_lat": 0.0, "lat": 38.92444916666667, "type": "electric_bike", "lon": -76.99656766666666, "is_reserved": 0, "fusion_lon": 0.0, "bike_id": "d6a3bfb2bab39c3a4c0e93aefeaa4b1f", "name": "d6a3bfb2bab39c3a4c0e93aefeaa4b1f", "rental_uris": {"ios": "https://dc.lft.to/lastmile_qr_scan", "android": "https://dc.lft.to/lastmile_qr_scan"}}, {"is_disabled": 0, "fusion_lat": 0.0, "lat": 38.8971985, "type": "electric_scooter", "lon": -77.03123633333334, "is_reserved": 0, "fusion_lon": 0.0, "bike_id": "a6f28f7b25068b03eed2d03ef3280749", "name": "a6f28f7b25068b03eed2d03ef3280749", "rental_uris": {"ios": "https://dc.lft.to/lastmile_qr_scan", "android": "https://dc.lft.to/lastmile_qr_scan"}}, {"is_disabled": 0, "fusion_lat": 0.0, "lat": 38.89884083333333, "type": "electric_scooter", "lon": -76.93171683333334, "is_reserved": 0, "fusion_lon": 0.0, "bike_id": "839a429c77b5155fbd4f69bb241612d6", "name": "839a429c77b5155fbd4f69bb241612d6", "rental_uris": {"ios": "https://dc.lft.to/lastmile_qr_scan", "android": "https://dc.lft.to/lastmile_qr_scan"}}, {"is_disabled": 0, "fusion_lat": 0.0, "lat": 38.88588333333333, "type": "electric_scooter", "lon": -77.01974616666666, "is_reserved": 0, "fusion_lon": 0.0, "bike_id": "94afcdabd88e6f9670078e873406f5e8", "name": "94afcdabd88e6f9670078e873406f5e8", "rental_uris": {"ios": "https://dc.lft.to/lastmile_qr_scan", "android": "https://dc.lft.to/lastmile_qr_scan"}}, {"is_disabled": 0, "fusion_lat": 0.0, "lat": 38.926789666666664, "type": "electric_scooter", "lon": -77.014793, "is_reserved": 0, "fusion_lon": 0.0, "bike_id": "89a24311f5204526b7dd362ad7a9978c", "name": "89a24311f5204526b7dd362ad7a9978c", "rental_uris": {"ios": "https://dc.lft.to/lastmile_qr_scan", "android": "https://dc.lft.to/lastmile_qr_scan"}}, {"is_disabled": 0, "fusion_lat": 0.0, "lat": 38.89272483333333, "type": "electric_scooter", "lon": -76.94917383333333, "is_reserved": 0, "fusion_lon": 0.0, "bike_id": "2b6fa37e5658ea6093fdb1a08823517e", "name": "2b6fa37e5658ea6093fdb1a08823517e", "rental_uris": {"ios": "https://dc.lft.to/lastmile_qr_scan", "android": "https://dc.lft.to/lastmile_qr_scan"}}, {"is_disabled": 0, "fusion_lat": 0.0, "lat": 38.96624966666667, "type": "electric_bike", "lon": -77.03431033333334, "is_reserved": 0, "fusion_lon": 0.0, "bike_id": "2d6cd4783a1d59bedb59a4dcae36521a", "name": "2d6cd4783a1d59bedb59a4dcae36521a", "rental_uris": {"ios": "https://dc.lft.to/lastmile_qr_scan", "android": "https://dc.lft.to/lastmile_qr_scan"}}, {"is_disabled": 0, "fusion_lat": 0.0, "lat": 38.91537833333334, "type": "electric_scooter", "lon": -77.03791383333333, "is_reserved": 0, "fusion_lon": 0.0, "bike_id": "1835b798dc5c2dea1258ec8f51e01762", "name": "1835b798dc5c2dea1258ec8f51e01762", "rental_uris": {"ios": "https://dc.lft.to/lastmile_qr_scan", "android": "https://dc.lft.to/lastmile_qr_scan"}}, {"is_disabled": 0, "fusion_lat": 0.0, "lat": 38.9602905, "type": "electric_bike", "lon": -77.033878, "is_reserved": 0, "fusion_lon": 0.0, "bike_id": "48e5dbe0e1bcf1c1c8854bfcb4e28eee", "name": "48e5dbe0e1bcf1c1c8854bfcb4e28eee", "rental_uris": {"ios": "https://dc.lft.to/lastmile_qr_scan", "android": "https://dc.lft.to/lastmile_qr_scan"}}, {"is_disabled": 0, "fusion_lat": 0.0, "lat": 38.90574816666667, "type": "electric_scooter", "lon": -77.04876716666666, "is_reserved": 0, "fusion_lon": 0.0, "bike_id": "febfe8bd6f51f8e14de45074f9c2116d", "name": "febfe8bd6f51f8e14de45074f9c2116d", "rental_uris": {"ios": "https://dc.lft.to/lastmile_qr_scan", "android": "https://dc.lft.to/lastmile_qr_scan"}}, {"is_disabled": 0, "fusion_lat": 0.0, "lat": 38.90804766666667, "type": "electric_scooter", "lon": -76.99837083333334, "is_reserved": 0, "fusion_lon": 0.0, "bike_id": "9bc66fcc368555fb83dabedabecbaf48", "name": "9bc66fcc368555fb83dabedabecbaf48", "rental_uris": {"ios": "https://dc.lft.to/lastmile_qr_scan", "android": "https://dc.lft.to/lastmile_qr_scan"}}, {"is_disabled": 0, "fusion_lat": 0.0, "lat": 38.9040205, "type": "electric_scooter", "lon": -77.03999516666667, "is_reserved": 0, "fusion_lon": 0.0, "bike_id": "641cecc0825ba898584008e39610e74b", "name": "641cecc0825ba898584008e39610e74b", "rental_uris": {"ios": "https://dc.lft.to/lastmile_qr_scan", "android": "https://dc.lft.to/lastmile_qr_scan"}}, {"is_disabled": 0, "fusion_lat": 0.0, "lat": 38.92074516666667, "type": "electric_scooter", "lon": -77.0454635, "is_reserved": 0, "fusion_lon": 0.0, "bike_id": "0a508be0d4b7edcad2726c26173cb15f", "name": "0a508be0d4b7edcad2726c26173cb15f", "rental_uris": {"ios": "https://dc.lft.to/lastmile_qr_scan", "android": "https://dc.lft.to/lastmile_qr_scan"}}, {"is_disabled": 0, "fusion_lat": 0.0, "lat": 38.92334016666667, "type": "electric_scooter", "lon": -77.03612333333334, "is_reserved": 0, "fusion_lon": 0.0, "bike_id": "f33425fcce640b0d169c49061a2fd3e4", "name": "f33425fcce640b0d169c49061a2fd3e4", "rental_uris": {"ios": "https://dc.lft.to/lastmile_qr_scan", "android": "https://dc.lft.to/lastmile_qr_scan"}}, {"is_disabled": 0, "fusion_lat": 0.0, "lat": 38.905501, "type": "electric_scooter", "lon": -77.0465105, "is_reserved": 0, "fusion_lon": 0.0, "bike_id": "65df7844476c7d19f4edacaffa43e332", "name": "65df7844476c7d19f4edacaffa43e332", "rental_uris": {"ios": "https://dc.lft.to/lastmile_qr_scan", "android": "https://dc.lft.to/lastmile_qr_scan"}}, {"is_disabled": 0, "fusion_lat": 0.0, "lat": 38.92422033333333, "type": "electric_scooter", "lon": -77.03547083333333, "is_reserved": 0, "fusion_lon": 0.0, "bike_id": "1f76dbf9b0a50a785d2945833ef213e5", "name": "1f76dbf9b0a50a785d2945833ef213e5", "rental_uris": {"ios": "https://dc.lft.to/lastmile_qr_scan", "android": "https://dc.lft.to/lastmile_qr_scan"}}, {"is_disabled": 0, "fusion_lat": 0.0, "lat": 38.91694833333333, "type": "electric_scooter", "lon": -77.034848, "is_reserved": 0, "fusion_lon": 0.0, "bike_id": "846f92f7ed33c30486e0a3683d8d14fa", "name": "846f92f7ed33c30486e0a3683d8d14fa", "rental_uris": {"ios": "https://dc.lft.to/lastmile_qr_scan", "android": "https://dc.lft.to/lastmile_qr_scan"}}, {"is_disabled": 0, "fusion_lat": 0.0, "lat": 38.92066833333333, "type": "electric_scooter", "lon": -77.0321465, "is_reserved": 0, "fusion_lon": 0.0, "bike_id": "0f7a768ce74c836cc60135dc4e2484d3", "name": "0f7a768ce74c836cc60135dc4e2484d3", "rental_uris": {"ios": "https://dc.lft.to/lastmile_qr_scan", "android": "https://dc.lft.to/lastmile_qr_scan"}}, {"is_disabled": 0, "fusion_lat": 0.0, "lat": 38.874764666666664, "type": "electric_bike", "lon": -76.965175, "is_reserved": 0, "fusion_lon": 0.0, "bike_id": "7413efb84771d8d5d3a4195363049578", "name": "7413efb84771d8d5d3a4195363049578", "rental_uris": {"ios": "https://dc.lft.to/lastmile_qr_scan", "android": "https://dc.lft.to/lastmile_qr_scan"}}, {"is_disabled": 0, "fusion_lat": 0.0, "lat": 38.9100165, "type": "electric_scooter", "lon": -77.02096833333333, "is_reserved": 0, "fusion_lon": 0.0, "bike_id": "36361a0a7ea6743c206bc7a07623e3b5", "name": "36361a0a7ea6743c206bc7a07623e3b5", "rental_uris": {"ios": "https://dc.lft.to/lastmile_qr_scan", "android": "https://dc.lft.to/lastmile_qr_scan"}}, {"is_disabled": 0, "fusion_lat": 0.0, "lat": 38.9231385, "type": "electric_scooter", "lon": -77.04125766666667, "is_reserved": 0, "fusion_lon": 0.0, "bike_id": "28f309770fa7aeeffafe4f616d2f3c67", "name": "28f309770fa7aeeffafe4f616d2f3c67", "rental_uris": {"ios": "https://dc.lft.to/lastmile_qr_scan", "android": "https://dc.lft.to/lastmile_qr_scan"}}, {"is_disabled": 0, "fusion_lat": 0.0, "lat": 38.90469183333333, "type": "electric_scooter", "lon": -76.98903833333334, "is_reserved": 0, "fusion_lon": 0.0, "bike_id": "9060d30213a5beb48bb7f5833d616e57", "name": "9060d30213a5beb48bb7f5833d616e57", "rental_uris": {"ios": "https://dc.lft.to/lastmile_qr_scan", "android": "https://dc.lft.to/lastmile_qr_scan"}}, {"is_disabled": 0, "fusion_lat": 0.0, "lat": 38.92789766666667, "type": "electric_scooter", "lon": -77.0272125, "is_reserved": 0, "fusion_lon": 0.0, "bike_id": "abf80b138452094a99316885f67f4e46", "name": "abf80b138452094a99316885f67f4e46", "rental_uris": {"ios": "https://dc.lft.to/lastmile_qr_scan", "android": "https://dc.lft.to/lastmile_qr_scan"}}, {"is_disabled": 0, "fusion_lat": 0.0, "lat": 38.9371545, "type": "electric_scooter", "lon": -77.03260816666666, "is_reserved": 0, "fusion_lon": 0.0, "bike_id": "31fd78524d627c6c296ac5cfda848f02", "name": "31fd78524d627c6c296ac5cfda848f02", "rental_uris": {"ios": "https://dc.lft.to/lastmile_qr_scan", "android": "https://dc.lft.to/lastmile_qr_scan"}}, {"is_disabled": 0, "fusion_lat": 0.0, "lat": 38.92122033333333, "type": "electric_scooter", "lon": -77.04425666666667, "is_reserved": 0, "fusion_lon": 0.0, "bike_id": "23baa2ab5a1489f7006d5064a7c8d056", "name": "23baa2ab5a1489f7006d5064a7c8d056", "rental_uris": {"ios": "https://dc.lft.to/lastmile_qr_scan", "android": "https://dc.lft.to/lastmile_qr_scan"}}, {"is_disabled": 0, "fusion_lat": 0.0, "lat": 38.8634545, "type": "electric_scooter", "lon": -76.9899525, "is_reserved": 0, "fusion_lon": 0.0, "bike_id": "3faf3f105f2973dd67cf4ec661bcce6e", "name": "3faf3f105f2973dd67cf4ec661bcce6e", "rental_uris": {"ios": "https://dc.lft.to/lastmile_qr_scan", "android": "https://dc.lft.to/lastmile_qr_scan"}}, {"is_disabled": 0, "fusion_lat": 0.0, "lat": 38.89831, "type": "electric_scooter", "lon": -77.03300016666667, "is_reserved": 0, "fusion_lon": 0.0, "bike_id": "1e60a6ba2e937e33bb7e4a50258033bb", "name": "1e60a6ba2e937e33bb7e4a50258033bb", "rental_uris": {"ios": "https://dc.lft.to/lastmile_qr_scan", "android": "https://dc.lft.to/lastmile_qr_scan"}}, {"is_disabled": 0, "fusion_lat": 0.0, "lat": 38.903349166666665, "type": "electric_scooter", "lon": -77.0659305, "is_reserved": 0, "fusion_lon": 0.0, "bike_id": "2d4499edca7e75fb7fa52bf4394735bc", "name": "2d4499edca7e75fb7fa52bf4394735bc", "rental_uris": {"ios": "https://dc.lft.to/lastmile_qr_scan", "android": "https://dc.lft.to/lastmile_qr_scan"}}, {"is_disabled": 0, "fusion_lat": 0.0, "lat": 38.90603816666667, "type": "electric_scooter", "lon": -77.01325133333333, "is_reserved": 0, "fusion_lon": 0.0, "bike_id": "f512731b76f277ffcd8b641a49eb4235", "name": "f512731b76f277ffcd8b641a49eb4235", "rental_uris": {"ios": "https://dc.lft.to/lastmile_qr_scan", "android": "https://dc.lft.to/lastmile_qr_scan"}}, {"is_disabled": 0, "fusion_lat": 0.0, "lat": 38.9249415, "type": "electric_scooter", "lon": -77.05751583333333, "is_reserved": 0, "fusion_lon": 0.0, "bike_id": "6de58a8a0164164c39aa09b5a7fef277", "name": "6de58a8a0164164c39aa09b5a7fef277", "rental_uris": {"ios": "https://dc.lft.to/lastmile_qr_scan", "android": "https://dc.lft.to/lastmile_qr_scan"}}, {"is_disabled": 0, "fusion_lat": 0.0, "lat": 38.90724216666667, "type": "electric_scooter", "lon": -77.02504633333334, "is_reserved": 0, "fusion_lon": 0.0, "bike_id": "eed12ed26df2ecb7cc32cc7fadc5df78", "name": "eed12ed26df2ecb7cc32cc7fadc5df78", "rental_uris": {"ios": "https://dc.lft.to/lastmile_qr_scan", "android": "https://dc.lft.to/lastmile_qr_scan"}}, {"is_disabled": 0, "fusion_lat": 0.0, "lat": 38.8991655, "type": "electric_scooter", "lon": -76.93374866666667, "is_reserved": 0, "fusion_lon": 0.0, "bike_id": "1a53e4febc1af90ac3e1a93567dac5ce", "name": "1a53e4febc1af90ac3e1a93567dac5ce", "rental_uris": {"ios": "https://dc.lft.to/lastmile_qr_scan", "android": "https://dc.lft.to/lastmile_qr_scan"}}, {"is_disabled": 0, "fusion_lat": 0.0, "lat": 38.84293366666667, "type": "electric_scooter", "lon": -76.99945266666667, "is_reserved": 0, "fusion_lon": 0.0, "bike_id": "80065f352f63062353a52cbb292daf0f", "name": "80065f352f63062353a52cbb292daf0f", "rental_uris": {"ios": "https://dc.lft.to/lastmile_qr_scan", "android": "https://dc.lft.to/lastmile_qr_scan"}},