{"data": {"bikes": [{"name": "9776456da9682496cf6ae77d3fc11837", "type": "electric_scooter", "lat": 38.89772216666667, "is_reserved": 0, "lon": -77.00900516666667, "fusion_lon": 0.0, "is_disabled": 0, "fusion_lat": 0.0, "bike_id": "9776456da9682496cf6ae77d3fc11837", "rental_uris": {"ios": "https://dc.lft.to/lastmile_qr_scan", "android": "https://dc.lft.to/lastmile_qr_scan"}}, {"name": "e231780a9dffb1f3a56b84f003c58157", "type": "electric_scooter", "lat": 38.906184833333334, "is_reserved": 0, "lon": -77.03970666666666, "fusion_lon": 0.0, "is_disabled": 0, "fusion_lat": 0.0, "bike_id": "e231780a9dffb1f3a56b84f003c58157", "rental_uris": {"ios": "https://dc.lft.to/lastmile_qr_scan", "android": "https://dc.lft.to/lastmile_qr_scan"}}, {"name": "22ee1c69f700fd35ce815961ea45ff22", "type": "electric_scooter", "lat": 38.92152933333333, "is_reserved": 0, "lon": -77.03459316666667, "fusion_lon": 0.0, "is_disabled": 0, "fusion_lat": 0.0, "bike_id": "22ee1c69f700fd35ce815961ea45ff22", "rental_uris": {"ios": "https://dc.lft.to/lastmile_qr_scan", "android": "https://dc.lft.to/lastmile_qr_scan"}}, {"name": "97a8505857669b29be079206da30fd89", "type": "electric_bike", "lat": 38.959112, "is_reserved": 0, "lon": -77.00154083333334, "fusion_lon": 0.0, "is_disabled": 0, "fusion_lat": 0.0, "bike_id": "97a8505857669b29be079206da30fd89", "rental_uris": {"ios": "https://dc.lft.to/lastmile_qr_scan", "android": "https://dc.lft.to/lastmile_qr_scan"}}, {"name": "27ef84c36caf74d0e7d5be64c198ecc8", "type": "electric_scooter", "lat": 38.92148516666666, "is_reserved": 0, "lon": -77.03532483333333, "fusion_lon": 0.0, "is_disabled": 0, "fusion_lat": 0.0, "bike_id": "27ef84c36caf74d0e7d5be64c198ecc8", "rental_uris": {"ios": "https://dc.lft.to/lastmile_qr_scan", "android": "https://dc.lft.to/lastmile_qr_scan"}}, {"name": "b3db7c10ad02bc95160cfc917aafea6f", "type": "electric_scooter", "lat": 38.9037055, "is_reserved": 0, "lon": -77.0397385, "fusion_lon": 0.0, "is_disabled": 0, "fusion_lat": 0.0, "bike_id": "b3db7c10ad02bc95160cfc917aafea6f", "rental_uris": {"ios": "https://dc.lft.to/lastmile_qr_scan", "android": "https://dc.lft.to/lastmile_qr_scan"}}, {"name": "fd1e05934cea026d3aebe0044d9d3310", "type": "electric_scooter", "lat": 38.9409905, "is_reserved": 0, "lon": -77.021138, "fusion_lon": 0.0, "is_disabled": 0, "fusion_lat": 0.0, "bike_id": "fd1e05934cea026d3aebe0044d9d3310", "rental_uris": {"ios": "https://dc.lft.to/lastmile_qr_scan", "android": "https://dc.lft.to/lastmile_qr_scan"}}, {"name": "4f78df440b848875be8053f0e6b52d10", "type": "electric_scooter", "lat": 38.88506833333334, "is_reserved": 0, "lon": -77.00567716666667, "fusion_lon": 0.0, "is_disabled": 0, "fusion_lat": 0.0, "bike_id": "4f78df440b848875be8053f0e6b52d10", "rental_uris": {"ios": "https://dc.lft.to/lastmile_qr_scan", "android": "https://dc.lft.to/lastmile_qr_scan"}}, {"name": "dba9996c69d07135f5cdc440f01ba925", "type": "electric_scooter", "lat": 38.899512333333334, "is_reserved": 0, "lon": -77.031182, "fusion_lon": 0.0, "is_disabled": 0, "fusion_lat": 0.0, "bike_id": "dba9996c69d07135f5cdc440f01ba925", "rental_uris": {"ios": "https://dc.lft.to/lastmile_qr_scan", "android": "https://dc.lft.to/lastmile_qr_scan"}}, {"name": "0359930b7e332ed4684e070f1b3b9dca", "type": "electric_scooter", "lat": 38.928792666666666, "is_reserved": 0, "lon": -77.0375995, "fusion_lon": 0.0, "is_disabled": 0, "fusion_lat": 0.0, "bike_id": "0359930b7e332ed4684e070f1b3b9dca", "rental_uris": {"ios": "https://dc.lft.to/lastmile_qr_scan", "android": "https://dc.lft.to/lastmile_qr_scan"}}, {"name": "eb180eac847c52020e9e1232633f1f4b", "type": "electric_scooter", "lat": 38.92382583333333, "is_reserved": 0, "lon": -77.0318775, "fusion_lon": 0.0, "is_disabled": 0, "fusion_lat": 0.0, "bike_id": "eb180eac847c52020e9e1232633f1f4b", "rental_uris": {"ios": "https://dc.lft.to/lastmile_qr_scan", "android": "https://dc.lft.to/lastmile_qr_scan"}}, {"name": "d28474c7722fad079fc8b7a636acdd2c", "type": "electric_bike", "lat": 38.855163, "is_reserved": 0, "lon": -77.1116045, "fusion_lon": 0.0, "is_disabled": 0, "fusion_lat": 0.0, "bike_id": "d28474c7722fad079fc8b7a636acdd2c", "rental_uris": {"ios": "https://dc.lft.to/lastmile_qr_scan", "android": "https://dc.lft.to/lastmile_qr_scan"}}, {"name": "c600b649d5052add1d7cd33402b6050d", "type": "electric_scooter", "lat": 38.87214933333333, "is_reserved": 0, "lon": -77.00574183333333, "fusion_lon": 0.0, "is_disabled": 0, "fusion_lat": 0.0, "bike_id": "c600b649d5052add1d7cd33402b6050d", "rental_uris": {"ios": "https://dc.lft.to/lastmile_qr_scan", "android": "https://dc.lft.to/lastmile_qr_scan"}}, {"name": "577ca07a66641881a12882dc1a68f06c", "type": "electric_scooter", "lat": 38.92513483333333, "is_reserved": 0, "lon": -77.02362016666666, "fusion_lon": 0.0, "is_disabled": 0, "fusion_lat": 0.0, "bike_id": "577ca07a66641881a12882dc1a68f06c", "rental_uris": {"ios": "https://dc.lft.to/lastmile_qr_scan", "android": "https://dc.lft.to/lastmile_qr_scan"}}, {"name": "57a8aeaa4f8ec2db8bed90ac0acc8187", "type": "electric_scooter", "lat": 38.907325666666665, "is_reserved": 0, "lon": -77.03449933333333, "fusion_lon": 0.0, "is_disabled": 0, "fusion_lat": 0.0, "bike_id": "57a8aeaa4f8ec2db8bed90ac0acc8187", "rental_uris": {"ios": "https://dc.lft.to/lastmile_qr_scan", "android": "https://dc.lft.to/lastmile_qr_scan"}}, {"name": "3a954041f11c7ea6b22f11e233a0c371", "type": "electric_scooter", "lat": 38.9156155, "is_reserved": 0, "lon": -77.02171783333333, "fusion_lon": 0.0, "is_disabled": 0, "fusion_lat": 0.0, "bike_id": "3a954041f11c7ea6b22f11e233a0c371", "rental_uris": {"ios": "https://dc.lft.to/lastmile_qr_scan", "android": "https://dc.lft.to/lastmile_qr_scan"}}, {"name": "77962da331e0d1afa903817ea9cd0228", "type": "electric_scooter", "lat": 38.89885833333334, "is_reserved": 0, "lon": -76.93177416666667, "fusion_lon": 0.0, "is_disabled": 0, "fusion_lat": 0.0, "bike_id": "77962da331e0d1afa903817ea9cd0228", "rental_uris": {"ios": "https://dc.lft.to/lastmile_qr_scan", "android": "https://dc.lft.to/lastmile_qr_scan"}}, {"name": "6358b0dd1427c09ad87800c2a8e11492", "type": "electric_scooter", "lat": 38.8935735, "is_reserved": 0, "lon": -77.003359, "fusion_lon": 0.0, "is_disabled": 0, "fusion_lat": 0.0, "bike_id": "6358b0dd1427c09ad87800c2a8e11492", "rental_uris": {"ios": "https://dc.lft.to/lastmile_qr_scan", "android": "https://dc.lft.to/lastmile_qr_scan"}}, {"name": "d6dbe2994d9672e2302ca50b3231a14a", "type": "electric_bike", "lat": 38.961878666666664, "is_reserved": 0, "lon": -77.07373116666666, "fusion_lon": 0.0, "is_disabled": 0, "fusion_lat": 0.0, "bike_id": "d6dbe2994d9672e2302ca50b3231a14a", "rental_uris": {"ios": "https://dc.lft.to/lastmile_qr_scan", "android": "https://dc.lft.to/lastmile_qr_scan"}}, {"name": "849500884c7a97a2b903eab6252beb18", "type": "electric_scooter", "lat": 38.8624565, "is_reserved": 0, "lon": -76.995014, "fusion_lon": 0.0, "is_disabled": 0, "fusion_lat": 0.0, "bike_id": "849500884c7a97a2b903eab6252beb18", "rental_uris": {"ios": "https://dc.lft.to/lastmile_qr_scan", "android": "https://dc.lft.to/lastmile_qr_scan"}}, {"name": "4e8739e06b70a2feb51ef09d578fc179", "type": "electric_scooter", "lat": 38.84423916666667, "is_reserved": 0, "lon": -76.99781133333333, "fusion_lon": 0.0, "is_disabled": 0, "fusion_lat": 0.0, "bike_id": "4e8739e06b70a2feb51ef09d578fc179", "rental_uris": {"ios": "https://dc.lft.to/lastmile_qr_scan", "android": "https://dc.lft.to/lastmile_qr_scan"}}, {"name": "45562b67de28ffeadaabc48dc4c8be29", "type": "electric_scooter", "lat": 38.895084, "is_reserved": 0, "lon": -77.00338583333334, "fusion_lon": 0.0, "is_disabled": 0, "fusion_lat": 0.0, "bike_id": "45562b67de28ffeadaabc48dc4c8be29", "rental_uris": {"ios": "https://dc.lft.to/lastmile_qr_scan", "android": "https://dc.lft.to/lastmile_qr_scan"}}, {"name": "b734acb84cef17bcc41f0d21f3d2de1c", "type": "electric_scooter", "lat": 38.91591666666667, "is_reserved": 0, "lon": -76.98397066666666, "fusion_lon": 0.0, "is_disabled": 0, "fusion_lat": 0.0, "bike_id": "b734acb84cef17bcc41f0d21f3d2de1c", "rental_uris": {"ios": "https://dc.lft.to/lastmile_qr_scan", "android": "https://dc.lft.to/lastmile_qr_scan"}}, {"name": "1963c3bd700b83456188967223e9b903", "type": "electric_scooter", "lat": 38.92614666666667, "is_reserved": 0, "lon": -77.0216375, "fusion_lon": 0.0, "is_disabled": 0, "fusion_lat": 0.0, "bike_id": "1963c3bd700b83456188967223e9b903", "rental_uris": {"ios": "https://dc.lft.to/lastmile_qr_scan", "android": "https://dc.lft.to/lastmile_qr_scan"}}, {"name": "b58bee5663afd0e730c6c416afcdc708", "type": "electric_scooter", "lat": 38.93485366666667, "is_reserved": 0, "lon": -77.07260233333334, "fusion_lon": 0.0, "is_disabled": 0, "fusion_lat": 0.0, "bike_id": "b58bee5663afd0e730c6c416afcdc708", "rental_uris": {"ios": "https://dc.lft.to/lastmile_qr_scan", "android": "https://dc.lft.to/lastmile_qr_scan"}}, {"name": "088611cdaf0ffd35993699ee0b9a2c46", "type": "electric_scooter", "lat": 38.908434666666665, "is_reserved": 0, "lon": -77.000303, "fusion_lon": 0.0, "is_disabled": 0, "fusion_lat": 0.0, "bike_id": "088611cdaf0ffd35993699ee0b9a2c46", "rental_uris": {"ios": "https://dc.lft.to/lastmile_qr_scan", "android": "https://dc.lft.to/lastmile_qr_scan"}}, {"name": "71f94991b988d79e76495e85d8b0ae38", "type": "electric_scooter", "lat": 38.9072585, "is_reserved": 0, "lon": -77.042138, "fusion_lon": 0.0, "is_disabled": 0, "fusion_lat": 0.0, "bike_id": "71f94991b988d79e76495e85d8b0ae38", "rental_uris": {"ios": "https://dc.lft.to/lastmile_qr_scan", "android": "https://dc.lft.to/lastmile_qr_scan"}}, {"name": "629490cbaedaa69fd9620fbbf241c22c", "type": "electric_scooter", "lat": 38.908458833333334, "is_reserved": 0, "lon": -77.02062516666666, "fusion_lon": 0.0, "is_disabled": 0, "fusion_lat": 0.0, "bike_id": "629490cbaedaa69fd9620fbbf241c22c", "rental_uris": {"ios": "https://dc.lft.to/lastmile_qr_scan", "android": "https://dc.lft.to/lastmile_qr_scan"}}, {"name": "68af658ca29a1a0f5fe21d6a34a5bf76", "type": "electric_scooter", "lat": 38.9311475, "is_reserved": 0, "lon": -77.021028, "fusion_lon": 0.0, "is_disabled": 0, "fusion_lat": 0.0, "bike_id": "68af658ca29a1a0f5fe21d6a34a5bf76", "rental_uris": {"ios": "https://dc.lft.to/lastmile_qr_scan", "android": "https://dc.lft.to/lastmile_qr_scan"}}, {"name": "c055eddf48845c6135ecddc5387ba486", "type": "electric_scooter", "lat": 38.90975783333333, "is_reserved": 0, "lon": -77.06712616666667, "fusion_lon": 0.0, "is_disabled": 0, "fusion_lat": 0.0, "bike_id": "c055eddf48845c6135ecddc5387ba486", "rental_uris": {"ios": "https://dc.lft.to/lastmile_qr_scan", "android": "https://dc.lft.to/lastmile_qr_scan"}}, {"name": "97084ce756f832ff65794dcb74cbcd2f", "type": "electric_scooter", "lat": 38.90256266666667, "is_reserved": 0, "lon": -77.02830716666666, "fusion_lon": 0.0, "is_disabled": 0, "fusion_lat": 0.0, "bike_id": "97084ce756f832ff65794dcb74cbcd2f", "rental_uris": {"ios": "https://dc.lft.to/lastmile_qr_scan", "android": "https://dc.lft.to/lastmile_qr_scan"}}, {"name": "7f73625722909a81bf98e993c34a14ba", "type": "electric_scooter", "lat": 38.88323666666667, "is_reserved": 0, "lon": -77.017671, "fusion_lon": 0.0, "is_disabled": 0, "fusion_lat": 0.0, "bike_id": "7f73625722909a81bf98e993c34a14ba", "rental_uris": {"ios": "https://dc.lft.to/lastmile_qr_scan", "android": "https://dc.lft.to/lastmile_qr_scan"}}, {"name": "f05d7d475aca4fcbc4d35a957603fa9f", "type": "electric_scooter", "lat": 38.949305833333334, "is_reserved": 0, "lon": -77.01938916666667, "fusion_lon": 0.0, "is_disabled": 0, "fusion_lat": 0.0, "bike_id": "f05d7d475aca4fcbc4d35a957603fa9f", "rental_uris": {"ios": "https://dc.lft.to/lastmile_qr_scan", "android": "https://dc.lft.to/lastmile_qr_scan"}}, {"name": "b40557c3db7c6b0e1a7a1fa4ac1c0272", "type": "electric_scooter", "lat": 38.91491583333333, "is_reserved": 0, "lon": -77.021852, "fusion_lon": 0.0, "is_disabled": 0, "fusion_lat": 0.0, "bike_id": "b40557c3db7c6b0e1a7a1fa4ac1c0272", "rental_uris": {"ios": "https://dc.lft.to/lastmile_qr_scan", "android": "https://dc.lft.to/lastmile_qr_scan"}}, {"name": "a2e166068d121532cac225d6010a4f7c", "type": "electric_scooter", "lat": 38.9215235, "is_reserved": 0, "lon": -76.99960916666667, "fusion_lon": 0.0, "is_disabled": 0, "fusion_lat": 0.0, "bike_id": "a2e166068d121532cac225d6010a4f7c", "rental_uris": {"ios": "https://dc.lft.to/lastmile_qr_scan", "android": "https://dc.lft.to/lastmile_qr_scan"}}, {"name": "16b86c1851eb35b0c858a942f80e822c", "type": "electric_scooter", "lat": 38.904309833333336, "is_reserved": 0, "lon": -77.02953416666666, "fusion_lon": 0.0, "is_disabled": 0, "fusion_lat": 0.0, "bike_id": "16b86c1851eb35b0c858a942f80e822c", "rental_uris": {"ios": "https://dc.lft.to/lastmile_qr_scan", "android": "https://dc.lft.to/lastmile_qr_scan"}}, {"name": "23799abbac793896c284b5a666ca6ee3", "type": "electric_scooter", "lat": 38.904627833333336, "is_reserved": 0, "lon": -76.995075, "fusion_lon": 0.0, "is_disabled": 0, "fusion_lat": 0.0, "bike_id": "23799abbac793896c284b5a666ca6ee3", "rental_uris": {"ios": "https://dc.lft.to/lastmile_qr_scan", "android": "https://dc.lft.to/lastmile_qr_scan"}}, {"name": "89dd84013b7f52ab73915f4d3b9b18e7", "type": "electric_scooter", "lat": 38.88725816666667, "is_reserved": 0, "lon": -77.02827033333334, "fusion_lon": 0.0, "is_disabled": 0, "fusion_lat": 0.0, "bike_id": "89dd84013b7f52ab73915f4d3b9b18e7", "rental_uris": {"ios": "https://dc.lft.to/lastmile_qr_scan", "android": "https://dc.lft.to/lastmile_qr_scan"}}, {"name": "357fe4bc60e94ec90409fefcf59aeaae", "type": "electric_scooter", "lat": 38.93305383333333, "is_reserved": 0, "lon": -77.03767433333333, "fusion_lon": 0.0, "is_disabled": 0, "fusion_lat": 0.0, "bike_id": "357fe4bc60e94ec90409fefcf59aeaae", "rental_uris": {"ios": "https://dc.lft.to/lastmile_qr_scan", "android": "https://dc.lft.to/lastmile_qr_scan"}}, {"name": "f3acbbafcbd79252caae73645e6dc964", "type": "electric_scooter", "lat": 38.926039333333335, "is_reserved": 0, "lon": -77.021556, "fusion_lon": 0.0, "is_disabled": 0, "fusion_lat": 0.0, "bike_id": "f3acbbafcbd79252caae73645e6dc964", "rental_uris": {"ios": "https://dc.lft.to/lastmile_qr_scan", "android": "https://dc.lft.to/lastmile_qr_scan"}}, {"name": "c945472fc0a095f7ee86f273fe3b7d17", "type": "electric_scooter", "lat": 38.9177245, "is_reserved": 0, "lon": -77.041034, "fusion_lon": 0.0, "is_disabled": 0, "fusion_lat": 0.0, "bike_id": "c945472fc0a095f7ee86f273fe3b7d17", "rental_uris": {"ios": "https://dc.lft.to/lastmile_qr_scan", "android": "https://dc.lft.to/lastmile_qr_scan"}}, {"name": "9c7c49ebd3aebccf8e832a20bdc69c2d", "type": "electric_scooter", "lat": 38.9682265, "is_reserved": 0, "lon": -77.01788733333333, "fusion_lon": 0.0, "is_disabled": 0, "fusion_lat": 0.0, "bike_id": "9c7c49ebd3aebccf8e832a20bdc69c2d", "rental_uris": {"ios": "https://dc.lft.to/lastmile_qr_scan", "android": "https://dc.lft.to/lastmile_qr_scan"}}, {"name": "d86bfb53ed90e6413c0e8c031703ac52", "type": "electric_bike", "lat": 39.0293525, "is_reserved": 0, "lon": -77.04928383333333, "fusion_lon": 0.0, "is_disabled": 0, "fusion_lat": 0.0, "bike_id": "d86bfb53ed90e6413c0e8c031703ac52", "rental_uris": {"ios": "https://dc.lft.to/lastmile_qr_scan", "android": "https://dc.lft.to/lastmile_qr_scan"}}, {"name": "2218d72a4484d4ba7354e7089af0eb3e", "type": "electric_scooter", "lat": 38.8922345, "is_reserved": 0, "lon": -77.03343483333333, "fusion_lon": 0.0, "is_disabled": 0, "fusion_lat": 0.0, "bike_id": "2218d72a4484d4ba7354e7089af0eb3e", "rental_uris": {"ios": "https://dc.lft.to/lastmile_qr_scan", "android": "https://dc.lft.to/lastmile_qr_scan"}}, {"name": "516bd9677f8728f22c655b618e79e34c", "type": "electric_scooter", "lat": 38.9257065, "is_reserved": 0, "lon": -77.05281066666667, "fusion_lon": 0.0, "is_disabled": 0, "fusion_lat": 0.0, "bike_id": "516bd9677f8728f22c655b618e79e34c", "rental_uris": {"ios": "https://dc.lft.to/lastmile_qr_scan", "android": "https://dc.lft.to/lastmile_qr_scan"}}, {"name": "02ed450cf1f9aa2da5edda60472c46af", "type": "electric_scooter", "lat": 38.896092333333335, "is_reserved": 0, "lon": -77.04505566666667, "fusion_lon": 0.0, "is_disabled": 0, "fusion_lat": 0.0, "bike_id": "02ed450cf1f9aa2da5edda60472c46af", "rental_uris": {"ios": "https://dc.lft.to/lastmile_qr_scan", "android": "https://dc.lft.to/lastmile_qr_scan"}}, {"name": "678b61a7eb2017b91073a8256ee3cfaa", "type": "electric_scooter", "lat": 38.898347333333334, "is_reserved": 0, "lon": -77.04280166666666, "fusion_lon": 0.0, "is_disabled": 0, "fusion_lat": 0.0, "bike_id": "678b61a7eb2017b91073a8256ee3cfaa", "rental_uris": {"ios": "https://dc.lft.to/lastmile_qr_scan", "android": "https://dc.lft.to/lastmile_qr_scan"}}, {"name": "ca2edd99d7767e3a401ab3640b9dcbdf", "type": "electric_scooter", "lat": 38.896113, "is_reserved": 0, "lon": -77.010236, "fusion_lon": 0.0, "is_disabled": 0, "fusion_lat": 0.0, "bike_id": "ca2edd99d7767e3a401ab3640b9dcbdf", "rental_uris": {"ios": "https://dc.lft.to/lastmile_qr_scan", "android": "https://dc.lft.to/lastmile_qr_scan"}}, {"name": "dc867a6a08c72397b08fd9571beedc24", "type": "electric_scooter", "lat": 38.86664783333333, "is_reserved": 0, "lon": -76.9888665, "fusion_lon": 0.0, "is_disabled": 0, "fusion_lat": 0.0, "bike_id": "dc867a6a08c72397b08fd9571beedc24", "rental_uris": {"ios": "https://dc.lft.to/lastmile_qr_scan", "android": "https://dc.lft.to/lastmile_qr_scan"}}, {"name": "4f5afd50028dd20ae08e2ef8e0ca0629", "type": "electric_scooter", "lat": 38.884570833333335, "is_reserved": 0, "lon": -77.00584366666666, "fusion_lon": 0.0, "is_disabled": 0, "fusion_lat": 0.0, "bike_id": "4f5afd50028dd20ae08e2ef8e0ca0629", "rental_uris": {"ios": "https://dc.lft.to/lastmile_qr_scan", "android": "https://dc.lft.to/lastmile_qr_scan"}}, {"name": "7446f062d920eb7e3e428e48e444abd7", "type": "electric_scooter", "lat": 38.9171745, "is_reserved": 0, "lon": -77.03862583333333, "fusion_lon": 0.0, "is_disabled": 0, "fusion_lat": 0.0, "bike_id": "7446f062d920eb7e3e428e48e444abd7", "rental_uris": {"ios": "https://dc.lft.to/lastmile_qr_scan", "android": "https://dc.lft.to/lastmile_qr_scan"}}, {"name": "d2f6d68c3356a2ed40a5f6c9dd36dac1", "type": "electric_scooter", "lat": 38.92754516666667, "is_reserved": 0, "lon": -77.02420716666667, "fusion_lon": 0.0, "is_disabled": 0, "fusion_lat": 0.0, "bike_id": "d2f6d68c3356a2ed40a5f6c9dd36dac1", "rental_uris": {"ios": "https://dc.lft.to/lastmile_qr_scan", "android": "https://dc.lft.to/lastmile_qr_scan"}}, {"name": "493f1e3005c47296fb16c269a1272062", "type": "electric_scooter", "lat": 38.931716, "is_reserved": 0, "lon": -77.03842066666667, "fusion_lon": 0.0, "is_disabled": 0, "fusion_lat": 0.0, "bike_id": "493f1e3005c47296fb16c269a1272062", "rental_uris": {"ios": "https://dc.lft.to/lastmile_qr_scan", "android": "https://dc.lft.to/lastmile_qr_scan"}}, {"name": "0cff07e062a7e3a6950b78253486adfc", "type": "electric_scooter", "lat": 38.895190166666666, "is_reserved": 0, "lon": -77.0228555, "fusion_lon": 0.0, "is_disabled": 0, "fusion_lat": 0.0, "bike_id": "0cff07e062a7e3a6950b78253486adfc", "rental_uris": {"ios": "https://dc.lft.to/lastmile_qr_scan", "android": "https://dc.lft.to/lastmile_qr_scan"}}, {"name": "8a0f0d90eae82c3b5d87c30534a2dc0d", "type": "electric_scooter", "lat": 38.89883066666667, "is_reserved": 0, "lon": -76.93177866666667, "fusion_lon": 0.0, "is_disabled": 0, "fusion_lat": 0.0, "bike_id": "8a0f0d90eae82c3b5d87c30534a2dc0d", "rental_uris": {"ios": "https://dc.lft.to/lastmile_qr_scan", "android": "https://dc.lft.to/lastmile_qr_scan"}}, {"name": "ef72167295f1dd1c5f690094354ad4d4", "type": "electric_scooter", "lat": 38.91644816666667, "is_reserved": 0, "lon": -77.04621183333333, "fusion_lon": 0.0, "is_disabled": 0, "fusion_lat": 0.0, "bike_id": "ef72167295f1dd1c5f690094354ad4d4", "rental_uris": {"ios": "https://dc.lft.to/lastmile_qr_scan", "android": "https://dc.lft.to/lastmile_qr_scan"}}, {"name": "7f7c4ecace95e8797fb79eee70e3f76f", "type": "electric_scooter", "lat": 38.905185833333334, "is_reserved": 0, "lon": -77.066267, "fusion_lon": 0.0, "is_disabled": 0, "fusion_lat": 0.0, "bike_id": "7f7c4ecace95e8797fb79eee70e3f76f", "rental_uris": {"ios": "https://dc.lft.to/lastmile_qr_scan", "android": "https://dc.lft.to/lastmile_qr_scan"}}, {"name": "b035ca9ee1d269764ab2e7c90a1ae00d", "type": "electric_scooter", "lat": 38.893976, "is_reserved": 0, "lon": -76.99367383333333, "fusion_lon": 0.0, "is_disabled": 0, "fusion_lat": 0.0, "bike_id": "b035ca9ee1d269764ab2e7c90a1ae00d", "rental_uris": {"ios": "https://dc.lft.to/lastmile_qr_scan", "android": "https://dc.lft.to/lastmile_qr_scan"}}, {"name": "fb8bcd9f46ce6d6002d41080408905a8", "type": "electric_scooter", "lat": 38.9463885, "is_reserved": 0, "lon": -77.01923833333333, "fusion_lon": 0.0, "is_disabled": 0, "fusion_lat": 0.0, "bike_id": "fb8bcd9f46ce6d6002d41080408905a8", "rental_uris": {"ios": "https://dc.lft.to/lastmile_qr_scan", "android": "https://dc.lft.to/lastmile_qr_scan"}}, {"name": "b0f9a7d23fa46bab84db820d4e16bf1b", "type": "electric_bike", "lat": 38.9427215, "is_reserved": 0, "lon": -76.9807275, "fusion_lon": 0.0, "is_disabled": 0, "fusion_lat": 0.0, "bike_id": "b0f9a7d23fa46bab84db820d4e16bf1b", "rental_uris": {"ios": "https://dc.lft.to/lastmile_qr_scan", "android": "https://dc.lft.to/lastmile_qr_scan"}}, {"name": "7cc6ce50f657339b1333a503fd009560", "type": "electric_scooter", "lat": 38.9393985, "is_reserved": 0, "lon": -77.017085, "fusion_lon": 0.0, "is_disabled": 0, "fusion_lat": 0.0, "bike_id": "7cc6ce50f657339b1333a503fd009560", "rental_uris": {"ios": "https://dc.lft.to/lastmile_qr_scan", "android": "https://dc.lft.to/lastmile_qr_scan"}}, {"name": "371f202d2ef4f3ab4e960ba42d77ba89", "type": "electric_scooter", "lat": 38.90115733333333, "is_reserved": 0, "lon": -77.04233133333334, "fusion_lon": 0.0, "is_disabled": 0, "fusion_lat": 0.0, "bike_id": "371f202d2ef4f3ab4e960ba42d77ba89", "rental_uris": {"ios": "https://dc.lft.to/lastmile_qr_scan", "android": "https://dc.lft.to/lastmile_qr_scan"}}, {"name": "41e337d97f2891bd8c47edf657e8f008", "type": "electric_bike", "lat": 38.87482083333333, "is_reserved": 0, "lon": -76.96535066666667, "fusion_lon": 0.0, "is_disabled": 0, "fusion_lat": 0.0, "bike_id": "41e337d97f2891bd8c47edf657e8f008", "rental_uris": {"ios": "https://dc.lft.to/lastmile_qr_scan", "android": "https://dc.lft.to/lastmile_qr_scan"}}, {"name": "e6a57ac5df1e50a4186ebe80a534efbb", "type": "electric_scooter", "lat": 38.896117833333335, "is_reserved": 0, "lon": -77.04507766666667, "fusion_lon": 0.0, "is_disabled": 0, "fusion_lat": 0.0, "bike_id": "e6a57ac5df1e50a4186ebe80a534efbb", "rental_uris": {"ios": "https://dc.lft.to/lastmile_qr_scan", "android": "https://dc.lft.to/lastmile_qr_scan"}}, {"name": "4e636f2019cf4967d841e2e0acfbe584", "type": "electric_scooter", "lat": 38.934532, "is_reserved": 0, "lon": -77.07236933333333, "fusion_lon": 0.0, "is_disabled": 0, "fusion_lat": 0.0, "bike_id": "4e636f2019cf4967d841e2e0acfbe584", "rental_uris": {"ios": "https://dc.lft.to/lastmile_qr_scan", "android": "https://dc.lft.to/lastmile_qr_scan"}}, {"name": "67c8eec3a18f45291ac1033747dfa3fe", "type": "electric_scooter", "lat": 38.88318783333333, "is_reserved": 0, "lon": -77.00942466666666, "fusion_lon": 0.0, "is_disabled": 0, "fusion_lat": 0.0, "bike_id": "67c8eec3a18f45291ac1033747dfa3fe", "rental_uris": {"ios": "https://dc.lft.to/lastmile_qr_scan", "android": "https://dc.lft.to/lastmile_qr_scan"}}, {"name": "bd6a713a35abdd8e0097b37df56cb099", "type": "electric_scooter", "lat": 38.905283, "is_reserved": 0, "lon": -77.05020283333333, "fusion_lon": 0.0, "is_disabled": 0, "fusion_lat": 0.0, "bike_id": "bd6a713a35abdd8e0097b37df56cb099", "rental_uris": {"ios": "https://dc.lft.to/lastmile_qr_scan", "android": "https://dc.lft.to/lastmile_qr_scan"}}, {"name": "9b8f48a0d0a6de99279dc7b5facb6ed8", "type": "electric_scooter", "lat": 38.91703433333333, "is_reserved": 0, "lon": -77.04621233333333, "fusion_lon": 0.0, "is_disabled": 0, "fusion_lat": 0.0, "bike_id": "9b8f48a0d0a6de99279dc7b5facb6ed8", "rental_uris": {"ios": "https://dc.lft.to/lastmile_qr_scan", "android": "https://dc.lft.to/lastmile_qr_scan"}}, {"name": "5c778e126253857c8f3dd079491109df", "type": "electric_scooter", "lat": 38.9159435, "is_reserved": 0, "lon": -76.98369616666666, "fusion_lon": 0.0, "is_disabled": 0, "fusion_lat": 0.0, "bike_id": "5c778e126253857c8f3dd079491109df", "rental_uris": {"ios": "https://dc.lft.to/lastmile_qr_scan", "android": "https://dc.lft.to/lastmile_qr_scan"}}, {"name": "d70aff9206318cd1b894994d2665f745", "type": "electric_scooter", "lat": 38.8902615, "is_reserved": 0, "lon": -76.93688016666667, "fusion_lon": 0.0, "is_disabled": 0, "fusion_lat": 0.0, "bike_id": "d70aff9206318cd1b894994d2665f745", "rental_uris": {"ios": "https://dc.lft.to/lastmile_qr_scan", "android": "https://dc.lft.to/lastmile_qr_scan"}}, {"name": "3261200160895f6e794e4893ef22d317", "type": "electric_bike", "lat": 39.05814383333333, "is_reserved": 0, "lon": -77.12625233333333, "fusion_lon": 0.0, "is_disabled": 0, "fusion_lat": 0.0, "bike_id": "3261200160895f6e794e4893ef22d317", "rental_uris": {"ios": "https://dc.lft.to/lastmile_qr_scan", "android": "https://dc.lft.to/lastmile_qr_scan"}}, {"name": "c35efedad95621e1a9911650425f1f5a", "type": "electric_scooter", "lat": 38.914751833333334, "is_reserved": 0, "lon": -77.00838483333334, "fusion_lon": 0.0, "is_disabled": 0, "fusion_lat": 0.0, "bike_id": "c35efedad95621e1a9911650425f1f5a", "rental_uris": {"ios": "https://dc.lft.to/lastmile_qr_scan", "android": "https://dc.lft.to/lastmile_qr_scan"}}, {"name": "e6c7aeff1702292da375eb0b91eaffba", "type": "electric_scooter", "lat": 38.898989666666665, "is_reserved": 0, "lon": -77.03286766666666, "fusion_lon": 0.0, "is_disabled": 0, "fusion_lat": 0.0, "bike_id": "e6c7aeff1702292da375eb0b91eaffba", "rental_uris": {"ios": "https://dc.lft.to/lastmile_qr_scan", "android": "https://dc.lft.to/lastmile_qr_scan"}}, {"name": "4d7e25d07820418e2c458f94f8b398ad", "type": "electric_scooter", "lat": 38.88502066666667, "is_reserved": 0, "lon": -76.99849033333334, "fusion_lon": 0.0, "is_disabled": 0, "fusion_lat": 0.0, "bike_id": "4d7e25d07820418e2c458f94f8b398ad", "rental_uris": {"ios": "https://dc.lft.to/lastmile_qr_scan", "android": "https://dc.lft.to/lastmile_qr_scan"}}, {"name": "fb00cb3bcac22a6755063376bc602b45", "type": "electric_scooter", "lat": 38.89654783333334, "is_reserved": 0, "lon": -77.02806766666667, "fusion_lon": 0.0, "is_disabled": 0, "fusion_lat": 0.0, "bike_id": "fb00cb3bcac22a6755063376bc602b45", "rental_uris": {"ios": "https://dc.lft.to/lastmile_qr_scan", "android": "https://dc.lft.to/lastmile_qr_scan"}}, {"name": "08268b58923be2f1d1c130eca944969d", "type": "electric_scooter", "lat": 38.941829166666665, "is_reserved": 0, "lon": -77.03030683333333, "fusion_lon": 0.0, "is_disabled": 0, "fusion_lat": 0.0, "bike_id": "08268b58923be2f1d1c130eca944969d", "rental_uris": {"ios": "https://dc.lft.to/lastmile_qr_scan", "android": "https://dc.lft.to/lastmile_qr_scan"}}, {"name": "907d66eb49b533ab91104fd38d644c3d", "type": "electric_bike", "lat": 38.95289616666667, "is_reserved": 0, "lon": -76.978119, "fusion_lon": 0.0, "is_disabled": 0, "fusion_lat": 0.0, "bike_id": "907d66eb49b533ab91104fd38d644c3d", "rental_uris": {"ios": "https://dc.lft.to/lastmile_qr_scan", "android": "https://dc.lft.to/lastmile_qr_scan"}}, {"name": "d84647e14d2bf78137bdd75ade61b6dd", "type": "electric_scooter", "lat": 38.902764, "is_reserved": 0, "lon": -77.031693, "fusion_lon": 0.0, "is_disabled": 0, "fusion_lat": 0.0, "bike_id": "d84647e14d2bf78137bdd75ade61b6dd", "rental_uris": {"ios": "https://dc.lft.to/lastmile_qr_scan", "android": "https://dc.lft.to/lastmile_qr_scan"}}, {"name": "2578428ed3927d44e4707e98266d25a2", "type": "electric_bike", "lat": 38.84611783333333, "is_reserved": 0, "lon": -76.978327, "fusion_lon": 0.0, "is_disabled": 0, "fusion_lat": 0.0, "bike_id": "2578428ed3927d44e4707e98266d25a2", "rental_uris": {"ios": "https://dc.lft.to/lastmile_qr_scan", "android": "https://dc.lft.to/lastmile_qr_scan"}}, {"name": "17e0ee3704da535a5b71bd5ae1ffe754", "type": "electric_scooter", "lat": 38.92848816666667, "is_reserved": 0, "lon": -77.05429433333333, "fusion_lon": 0.0, "is_disabled": 0, "fusion_lat": 0.0, "bike_id": "17e0ee3704da535a5b71bd5ae1ffe754", "rental_uris": {"ios": "https://dc.lft.to/lastmile_qr_scan", "android": "https://dc.lft.to/lastmile_qr_scan"}}, {"name": "66caeaa56fd684e929df1c43c3d053c3", "type": "electric_scooter", "lat": 38.89509133333333, "is_reserved": 0, "lon": -77.00339183333334, "fusion_lon": 0.0, "is_disabled": 0, "fusion_lat": 0.0, "bike_id": "66caeaa56fd684e929df1c43c3d053c3", "rental_uris": {"ios": "https://dc.lft.to/lastmile_qr_scan", "android": "https://dc.lft.to/lastmile_qr_scan"}}, {"name": "44797b4517ad5821db2cade01cbe5714", "type": "electric_scooter", "lat": 38.8955105, "is_reserved": 0, "lon": -77.00917566666666, "fusion_lon": 0.0, "is_disabled": 0, "fusion_lat": 0.0, "bike_id": "44797b4517ad5821db2cade01cbe5714", "rental_uris": {"ios": "https://dc.lft.to/lastmile_qr_scan", "android": "https://dc.lft.to/lastmile_qr_scan"}}, {"name": "bc7236303025bda7fbd2731f085ded7b", "type": "electric_scooter", "lat": 38.88495066666667, "is_reserved": 0, "lon": -77.00726516666667, "fusion_lon": 0.0, "is_disabled": 0, "fusion_lat": 0.0, "bike_id": "bc7236303025bda7fbd2731f085ded7b", "rental_uris": {"ios": "https://dc.lft.to/lastmile_qr_scan", "android": "https://dc.lft.to/lastmile_qr_scan"}}, {"name": "8814bf2a574806c35b3b207d0dd5ffe4", "type": "electric_scooter", "lat": 38.91199866666667, "is_reserved": 0, "lon": -77.0731525, "fusion_lon": 0.0, "is_disabled": 0, "fusion_lat": 0.0, "bike_id": "8814bf2a574806c35b3b207d0dd5ffe4", "rental_uris": {"ios": "https://dc.lft.to/lastmile_qr_scan", "android": "https://dc.lft.to/lastmile_qr_scan"}}, {"name": "4518b5ec4b2f89e54609e7ff331ab7c8", "type": "electric_scooter", "lat": 38.906678666666664, "is_reserved": 0, "lon": -77.00890133333333, "fusion_lon": 0.0, "is_disabled": 0, "fusion_lat": 0.0, "bike_id": "4518b5ec4b2f89e54609e7ff331ab7c8", "rental_uris": {"ios": "https://dc.lft.to/lastmile_qr_scan", "android": "https://dc.lft.to/lastmile_qr_scan"}}, {"name": "b148ff38409a2dc254aa83a044d84a79", "type": "electric_scooter", "lat": 38.911896, "is_reserved": 0, "lon": -77.06097516666667, "fusion_lon": 0.0, "is_disabled": 0, "fusion_lat": 0.0, "bike_id": "b148ff38409a2dc254aa83a044d84a79", "rental_uris": {"ios": "https://dc.lft.to/lastmile_qr_scan", "android": "https://dc.lft.to/lastmile_qr_scan"}}, {"name": "3d40324c67cba4549a4b3298aa82a8eb", "type": "electric_scooter", "lat": 38.9026555, "is_reserved": 0, "lon": -77.05967433333333, "fusion_lon": 0.0, "is_disabled": 0, "fusion_lat": 0.0, "bike_id": "3d40324c67cba4549a4b3298aa82a8eb", "rental_uris": {"ios": "https://dc.lft.to/lastmile_qr_scan", "android": "https://dc.lft.to/lastmile_qr_scan"}}, {"name": "ca00c0a945c3bfc2de67d2fdd1b075a6", "type": "electric_scooter", "lat": 38.929870666666666, "is_reserved": 0, "lon": -77.0248915, "fusion_lon": 0.0, "is_disabled": 0, "fusion_lat": 0.0, "bike_id": "ca00c0a945c3bfc2de67d2fdd1b075a6", "rental_uris": {"ios": "https://dc.lft.to/lastmile_qr_scan", "android": "https://dc.lft.to/lastmile_qr_scan"}}, {"name": "a2db23864c63b64b471251acc8a1337e", "type": "electric_scooter", "lat": 38.9296135, "is_reserved": 0, "lon": -77.0234255, "fusion_lon": 0.0, "is_disabled": 0, "fusion_lat": 0.0, "bike_id": "a2db23864c63b64b471251acc8a1337e", "rental_uris": {"ios": "https://dc.lft.to/lastmile_qr_scan", "android": "https://dc.lft.to/lastmile_qr_scan"}}, {"name": "c8f24d975b35e675ee937d3396d50200", "type": "electric_scooter", "lat": 38.921504, "is_reserved": 0, "lon": -77.03533316666666, "fusion_lon": 0.0, "is_disabled": 0, "fusion_lat": 0.0, "bike_id": "c8f24d975b35e675ee937d3396d50200", "rental_uris": {"ios": "https://dc.lft.to/lastmile_qr_scan", "android": "https://dc.lft.to/lastmile_qr_scan"}}, {"name": "7d7ab76df65c4e83630a9d45811155e9", "type": "electric_bike", "lat": 38.95953883333333, "is_reserved": 0, "lon": -77.10093033333334, "fusion_lon": 0.0, "is_disabled": 0, "fusion_lat": 0.0, "bike_id": "7d7ab76df65c4e83630a9d45811155e9", "rental_uris": {"ios": "https://dc.lft.to/lastmile_qr_scan", "android": "https://dc.lft.to/lastmile_qr_scan"}}, {"name": "27c2f4a8f7158f96704c37e515c57e74", "type": "electric_scooter", "lat": 38.909606333333336, "is_reserved": 0, "lon": -77.04868483333334, "fusion_lon": 0.0, "is_disabled": 0, "fusion_lat": 0.0, "bike_id": "27c2f4a8f7158f96704c37e515c57e74", "rental_uris": {"ios": "https://dc.lft.to/lastmile_qr_scan", "android": "https://dc.lft.to/lastmile_qr_scan"}}, {"name": "e9b840f04ce3b244a7bf695377ebfbec", "type": "electric_scooter", "lat": 38.8973, "is_reserved": 0, "lon": -77.0271575, "fusion_lon": 0.0, "is_disabled": 0, "fusion_lat": 0.0, "bike_id": "e9b840f04ce3b244a7bf695377ebfbec", "rental_uris": {"ios": "https://dc.lft.to/lastmile_qr_scan", "android": "https://dc.lft.to/lastmile_qr_scan"}}, {"name": "f6f55c68f1fffe2d7ecb9ac09e2f251b", "type": "electric_scooter", "lat": 38.90393666666667, "is_reserved": 0, "lon": -77.04373216666667, "fusion_lon": 0.0, "is_disabled": 0, "fusion_lat": 0.0, "bike_id": "f6f55c68f1fffe2d7ecb9ac09e2f251b", "rental_uris": {"ios": "https://dc.lft.to/lastmile_qr_scan", "android": "https://dc.lft.to/lastmile_qr_scan"}}, {"name": "ef6568419ace62447727144f3497734f", "type": "electric_scooter", "lat": 38.90788766666667, "is_reserved": 0, "lon": -77.0096525, "fusion_lon": 0.0, "is_disabled": 0, "fusion_lat": 0.0, "bike_id": "ef6568419ace62447727144f3497734f", "rental_uris": {"ios": "https://dc.lft.to/lastmile_qr_scan", "android": "https://dc.lft.to/lastmile_qr_scan"}}, {"name": "2d823f64340853d32728f88ad478ab8e", "type": "electric_scooter", "lat": 38.923353666666664, "is_reserved": 0, "lon": -77.03659666666667, "fusion_lon": 0.0, "is_disabled": 0, "fusion_lat": 0.0, "bike_id": "2d823f64340853d32728f88ad478ab8e", "rental_uris": {"ios": "https://dc.lft.to/lastmile_qr_scan", "android": "https://dc.lft.to/lastmile_qr_scan"}}, {"name": "37a8a494bb41fe1cae6279c107e8bd1a", "type": "electric_scooter", "lat": 38.88113116666667, "is_reserved": 0, "lon": -76.99948533333334, "fusion_lon": 0.0, "is_disabled": 0, "fusion_lat": 0.0, "bike_id": "37a8a494bb41fe1cae6279c107e8bd1a", "rental_uris": {"ios": "https://dc.lft.to/lastmile_qr_scan", "android": "https://dc.lft.to/lastmile_qr_scan"}}, {"name": "f03e5dc94b10fb5932d34d2fbe82035f", "type": "electric_scooter", "lat": 38.8833575, "is_reserved": 0, "lon": -77.01744083333334, "fusion_lon": 0.0, "is_disabled": 0, "fusion_lat": 0.0, "bike_id": "f03e5dc94b10fb5932d34d2fbe82035f", "rental_uris": {"ios": "https://dc.lft.to/lastmile_qr_scan", "android": "https://dc.lft.to/lastmile_qr_scan"}}, {"name": "848de55f1c9ed0d0843108fb6009374d", "type": "electric_scooter", "lat": 38.929557333333335, "is_reserved": 0, "lon": -77.0347325, "fusion_lon": 0.0, "is_disabled": 0, "fusion_lat": 0.0, "bike_id": "848de55f1c9ed0d0843108fb6009374d", "rental_uris": {"ios": "https://dc.lft.to/lastmile_qr_scan", "android": "https://dc.lft.to/lastmile_qr_scan"}}, {"name": "c84f560a65687c6564ba75873bab9aa7", "type": "electric_scooter", "lat": 38.90956766666667, "is_reserved": 0, "lon": -77.04866666666666, "fusion_lon": 0.0, "is_disabled": 0, "fusion_lat": 0.0, "bike_id": "c84f560a65687c6564ba75873bab9aa7", "rental_uris": {"ios": "https://dc.lft.to/lastmile_qr_scan", "android": "https://dc.lft.to/lastmile_qr_scan"}}, {"name": "59a4f15fc4a215fa5eb1d9b989c43a3d", "type": "electric_scooter", "lat": 38.9476925, "is_reserved": 0, "lon": -77.065373, "fusion_lon": 0.0, "is_disabled": 0, "fusion_lat": 0.0, "bike_id": "59a4f15fc4a215fa5eb1d9b989c43a3d", "rental_uris": {"ios": "https://dc.lft.to/lastmile_qr_scan", "android": "https://dc.lft.to/lastmile_qr_scan"}}, {"name": "e618595fe7b6038a07b111d356a36585", "type": "electric_scooter", "lat": 38.9018655, "is_reserved": 0, "lon": -77.0465335, "fusion_lon": 0.0, "is_disabled": 0, "fusion_lat": 0.0, "bike_id": "e618595fe7b6038a07b111d356a36585", "rental_uris": {"ios": "https://dc.lft.to/lastmile_qr_scan", "android": "https://dc.lft.to/lastmile_qr_scan"}}, {"name": "cefce256f25b48a08f789e9209d596b0", "type": "electric_scooter", "lat": 38.92264866666667, "is_reserved": 0, "lon": -77.04128616666667, "fusion_lon": 0.0, "is_disabled": 0, "fusion_lat": 0.0, "bike_id": "cefce256f25b48a08f789e9209d596b0", "rental_uris": {"ios": "https://dc.lft.to/lastmile_qr_scan", "android": "https://dc.lft.to/lastmile_qr_scan"}}, {"name": "a138592f5a627d90dc7d3522e94c2f8c", "type": "electric_scooter", "lat": 38.895535833333334, "is_reserved": 0, "lon": -77.041625, "fusion_lon": 0.0, "is_disabled": 0, "fusion_lat": 0.0, "bike_id": "a138592f5a627d90dc7d3522e94c2f8c", "rental_uris": {"ios": "https://dc.lft.to/lastmile_qr_scan", "android": "https://dc.lft.to/lastmile_qr_scan"}}, {"name": "cfa97e1e9173e92fec6582e872f51878", "type": "electric_scooter", "lat": 38.940763, "is_reserved": 0, "lon": -77.0270345, "fusion_lon": 0.0, "is_disabled": 0, "fusion_lat": 0.0, "bike_id": "cfa97e1e9173e92fec6582e872f51878", "rental_uris": {"ios": "https://dc.lft.to/lastmile_qr_scan", "android": "https://dc.lft.to/lastmile_qr_scan"}}, {"name": "a8746d995fe9ff6de038b369e5c7d80b", "type": "electric_scooter", "lat": 38.93969666666667, "is_reserved": 0, "lon": -77.03259433333334, "fusion_lon": 0.0, "is_disabled": 0, "fusion_lat": 0.0, "bike_id": "a8746d995fe9ff6de038b369e5c7d80b", "rental_uris": {"ios": "https://dc.lft.to/lastmile_qr_scan", "android": "https://dc.lft.to/lastmile_qr_scan"}}, {"name": "4f9e49e43a6a4bd2e5ecba5f3325e69a", "type": "electric_scooter", "lat": 38.907168, "is_reserved": 0, "lon": -77.03069833333333, "fusion_lon": 0.0, "is_disabled": 0, "fusion_lat": 0.0, "bike_id": "4f9e49e43a6a4bd2e5ecba5f3325e69a", "rental_uris": {"ios": "https://dc.lft.to/lastmile_qr_scan", "android": "https://dc.lft.to/lastmile_qr_scan"}}, {"name": "c2ae41bf41cc48c0d578cb9c3e713c37", "type": "electric_bike", "lat": 38.99064933333333, "is_reserved": 0, "lon": -77.10030066666667, "fusion_lon": 0.0, "is_disabled": 0, "fusion_lat": 0.0, "bike_id": "c2ae41bf41cc48c0d578cb9c3e713c37", "rental_uris": {"ios": "https://dc.lft.to/lastmile_qr_scan", "android": "https://dc.lft.to/lastmile_qr_scan"}}, {"name": "63b8d1ca1c04dce8db5ffae5eee4a130", "type": "electric_scooter", "lat": 38.9204785, "is_reserved": 0, "lon": -76.998207, "fusion_lon": 0.0, "is_disabled": 0, "fusion_lat": 0.0, "bike_id": "63b8d1ca1c04dce8db5ffae5eee4a130", "rental_uris": {"ios": "https://dc.lft.to/lastmile_qr_scan", "android": "https://dc.lft.to/lastmile_qr_scan"}}, {"name": "d2754358600f20a7b3b0184ed2ba6fe0", "type": "electric_scooter", "lat": 38.85316783333333, "is_reserved": 0, "lon": -76.98007183333333, "fusion_lon": 0.0, "is_disabled": 0, "fusion_lat": 0.0, "bike_id": "d2754358600f20a7b3b0184ed2ba6fe0", "rental_uris": {"ios": "https://dc.lft.to/lastmile_qr_scan", "android": "https://dc.lft.to/lastmile_qr_scan"}}, {"name": "20e63f0fb71508d9188e9e5c21af6239", "type": "electric_bike", "lat": 38.873023333333336, "is_reserved": 0, "lon": -77.01096166666666, "fusion_lon": 0.0, "is_disabled": 0, "fusion_lat": 0.0, "bike_id": "20e63f0fb71508d9188e9e5c21af6239", "rental_uris": {"ios": "https://dc.lft.to/lastmile_qr_scan", "android": "https://dc.lft.to/lastmile_qr_scan"}}, {"name": "b5094d8f0842cc034c14059128c40458", "type": "electric_scooter", "lat": 38.939481, "is_reserved": 0, "lon": -77.03263416666667, "fusion_lon": 0.0, "is_disabled": 0, "fusion_lat": 0.0, "bike_id": "b5094d8f0842cc034c14059128c40458", "rental_uris": {"ios": "https://dc.lft.to/lastmile_qr_scan", "android": "https://dc.lft.to/lastmile_qr_scan"}}, {"name": "cf2f550d0a3c93314b8659402bed9e48", "type": "electric_scooter", "lat": 38.917143333333335, "is_reserved": 0, "lon": -77.03860516666667, "fusion_lon": 0.0, "is_disabled": 0, "fusion_lat": 0.0, "bike_id": "cf2f550d0a3c93314b8659402bed9e48", "rental_uris": {"ios": "https://dc.lft.to/lastmile_qr_scan", "android": "https://dc.lft.to/lastmile_qr_scan"}}, {"name": "0929c3b01aee202875ebd69df48d8e43", "type": "electric_bike", "lat": 38.838046166666665, "is_reserved": 0, "lon": -76.9984335, "fusion_lon": 0.0, "is_disabled": 0, "fusion_lat": 0.0, "bike_id": "0929c3b01aee202875ebd69df48d8e43", "rental_uris": {"ios": "https://dc.lft.to/lastmile_qr_scan", "android": "https://dc.lft.to/lastmile_qr_scan"}}, {"name": "1a68e563c4125551348fb6119cf36e4c", "type": "electric_bike", "lat": 38.902977, "is_reserved": 0, "lon": -76.9444365, "fusion_lon": 0.0, "is_disabled": 0, "fusion_lat": 0.0, "bike_id": "1a68e563c4125551348fb6119cf36e4c", "rental_uris": {"ios": "https://dc.lft.to/lastmile_qr_scan", "android": "https://dc.lft.to/lastmile_qr_scan"}}, {"name": "64206070872c966b2f5cd2fa2bd7a1ab", "type": "electric_scooter", "lat": 38.900129666666665, "is_reserved": 0, "lon": -76.99078783333333, "fusion_lon": 0.0, "is_disabled": 0, "fusion_lat": 0.0, "bike_id": "64206070872c966b2f5cd2fa2bd7a1ab", "rental_uris": {"ios": "https://dc.lft.to/lastmile_qr_scan", "android": "https://dc.lft.to/lastmile_qr_scan"}}, {"name": "ed85d1a790391b4a799170ce8b01de16", "type": "electric_scooter", "lat": 38.91188183333333, "is_reserved": 0, "lon": -77.03637916666666, "fusion_lon": 0.0, "is_disabled": 0, "fusion_lat": 0.0, "bike_id": "ed85d1a790391b4a799170ce8b01de16", "rental_uris": {"ios": "https://dc.lft.to/lastmile_qr_scan", "android": "https://dc.lft.to/lastmile_qr_scan"}}, {"name": "541126ddd43b51218601e68cff66b3d5", "type": "electric_scooter", "lat": 38.90587816666667, "is_reserved": 0, "lon": -77.04022166666667, "fusion_lon": 0.0, "is_disabled": 0, "fusion_lat": 0.0, "bike_id": "541126ddd43b51218601e68cff66b3d5", "rental_uris": {"ios": "https://dc.lft.to/lastmile_qr_scan", "android": "https://dc.lft.to/lastmile_qr_scan"}}, {"name": "9d5d127a00dff39c0cb2f7203a6ef5aa", "type": "electric_scooter", "lat": 38.90120966666667, "is_reserved": 0, "lon": -77.04981483333333, "fusion_lon": 0.0, "is_disabled": 0, "fusion_lat": 0.0, "bike_id": "9d5d127a00dff39c0cb2f7203a6ef5aa", "rental_uris": {"ios": "https://dc.lft.to/lastmile_qr_scan", "android": "https://dc.lft.to/lastmile_qr_scan"}}, {"name": "b6921085deab161ccfc9845451b733e2", "type": "electric_scooter", "lat": 38.903169166666665, "is_reserved": 0, "lon": -77.0345385, "fusion_lon": 0.0, "is_disabled": 0, "fusion_lat": 0.0, "bike_id": "b6921085deab161ccfc9845451b733e2", "rental_uris": {"ios": "https://dc.lft.to/lastmile_qr_scan", "android": "https://dc.lft.to/lastmile_qr_scan"}}, {"name": "38e6acdae3e8f4ac5432830ea3c64394", "type": "electric_scooter", "lat": 38.90573966666667, "is_reserved": 0, "lon": -77.00476683333333, "fusion_lon": 0.0, "is_disabled": 0, "fusion_lat": 0.0, "bike_id": "38e6acdae3e8f4ac5432830ea3c64394", "rental_uris": {"ios": "https://dc.lft.to/lastmile_qr_scan", "android": "https://dc.lft.to/lastmile_qr_scan"}}, {"name": "9f32c455895a0527fe5f804480fd321b", "type": "electric_scooter", "lat": 38.93122283333334, "is_reserved": 0, "lon": -77.03832533333333, "fusion_lon": 0.0, "is_disabled": 0, "fusion_lat": 0.0, "bike_id": "9f32c455895a0527fe5f804480fd321b", "rental_uris": {"ios": "https://dc.lft.to/lastmile_qr_scan", "android": "https://dc.lft.to/lastmile_qr_scan"}}, {"name": "27ae913f960a8543303754ab9da7924c", "type": "electric_scooter", "lat": 38.882207, "is_reserved": 0, "lon": -76.9418065, "fusion_lon": 0.0, "is_disabled": 0, "fusion_lat": 0.0, "bike_id": "27ae913f960a8543303754ab9da7924c", "rental_uris": {"ios": "https://dc.lft.to/lastmile_qr_scan", "android": "https://dc.lft.to/lastmile_qr_scan"}}, {"name": "49fd6ad148034b3a504d4c5ff84293bb", "type": "electric_scooter", "lat": 38.886010666666664, "is_reserved": 0, "lon": -76.995134, "fusion_lon": 0.0, "is_disabled": 0, "fusion_lat": 0.0, "bike_id": "49fd6ad148034b3a504d4c5ff84293bb", "rental_uris": {"ios": "https://dc.lft.to/lastmile_qr_scan", "android": "https://dc.lft.to/lastmile_qr_scan"}}, {"name": "78810dcee0b7fd8e14fcf91a530372e2", "type": "electric_scooter", "lat": 38.903338, "is_reserved": 0, "lon": -76.9897515, "fusion_lon": 0.0, "is_disabled": 0, "fusion_lat": 0.0, "bike_id": "78810dcee0b7fd8e14fcf91a530372e2", "rental_uris": {"ios": "https://dc.lft.to/lastmile_qr_scan", "android": "https://dc.lft.to/lastmile_qr_scan"}}, {"name": "944e7f4d1607c29cb1ca25cefdbf7eef", "type": "electric_scooter", "lat": 38.8981205, "is_reserved": 0, "lon": -77.03291383333334, "fusion_lon": 0.0, "is_disabled": 0, "fusion_lat": 0.0, "bike_id": "944e7f4d1607c29cb1ca25cefdbf7eef", "rental_uris": {"ios": "https://dc.lft.to/lastmile_qr_scan", "android": "https://dc.lft.to/lastmile_qr_scan"}}, {"name": "c14679d7870351a0210f520830330995", "type": "electric_scooter", "lat": 38.894649666666666, "is_reserved": 0, "lon": -77.02147883333333, "fusion_lon": 0.0, "is_disabled": 0, "fusion_lat": 0.0, "bike_id": "c14679d7870351a0210f520830330995", "rental_uris": {"ios": "https://dc.lft.to/lastmile_qr_scan", "android": "https://dc.lft.to/lastmile_qr_scan"}}, {"name": "4553ddbe05dcf3f3760680ab5b7834e4", "type": "electric_scooter", "lat": 38.90566716666667, "is_reserved": 0, "lon": -77.006038, "fusion_lon": 0.0, "is_disabled": 0, "fusion_lat": 0.0, "bike_id": "4553ddbe05dcf3f3760680ab5b7834e4", "rental_uris": {"ios": "https://dc.lft.to/lastmile_qr_scan", "android": "https://dc.lft.to/lastmile_qr_scan"}}, {"name": "2f2d9c5af3813ed2843bd8cf266ecda9", "type": "electric_scooter", "lat": 38.896251, "is_reserved": 0, "lon": -77.02288433333334, "fusion_lon": 0.0, "is_disabled": 0, "fusion_lat": 0.0, "bike_id": "2f2d9c5af3813ed2843bd8cf266ecda9", "rental_uris": {"ios": "https://dc.lft.to/lastmile_qr_scan", "android": "https://dc.lft.to/lastmile_qr_scan"}}, {"name": "5f6429e42e19f4c33c42a94e349da876", "type": "electric_scooter", "lat": 38.907291666666666, "is_reserved": 0, "lon": -77.01132483333333, "fusion_lon": 0.0, "is_disabled": 0, "fusion_lat": 0.0, "bike_id": "5f6429e42e19f4c33c42a94e349da876", "rental_uris": {"ios": "https://dc.lft.to/lastmile_qr_scan", "android": "https://dc.lft.to/lastmile_qr_scan"}}, {"name": "53d5044f56d86dba21f65de87d39c55f", "type": "electric_scooter", "lat": 38.923399333333336, "is_reserved": 0, "lon": -77.05045533333333, "fusion_lon": 0.0, "is_disabled": 0, "fusion_lat": 0.0, "bike_id": "53d5044f56d86dba21f65de87d39c55f", "rental_uris": {"ios": "https://dc.lft.to/lastmile_qr_scan", "android": "https://dc.lft.to/lastmile_qr_scan"}}, {"name": "37d3631408f971030184b87c72eedb47", "type": "electric_scooter", "lat": 38.89799883333333, "is_reserved": 0, "lon": -76.99502283333334, "fusion_lon": 0.0, "is_disabled": 0, "fusion_lat": 0.0, "bike_id": "37d3631408f971030184b87c72eedb47", "rental_uris": {"ios": "https://dc.lft.to/lastmile_qr_scan", "android": "https://dc.lft.to/lastmile_qr_scan"}}, {"name": "7b12595735a088b7e8d3f3a9bf5b41b8", "type": "electric_bike", "lat": 38.905122666666664, "is_reserved": 0, "lon": -77.060175, "fusion_lon": 0.0, "is_disabled": 0, "fusion_lat": 0.0, "bike_id": "7b12595735a088b7e8d3f3a9bf5b41b8", "rental_uris": {"ios": "https://dc.lft.to/lastmile_qr_scan", "android": "https://dc.lft.to/lastmile_qr_scan"}}, {"name": "8a34df6db6ebc64e5defd2e8fb6b0ccf", "type": "electric_scooter", "lat": 38.9004235, "is_reserved": 0, "lon": -76.91919133333333, "fusion_lon": 0.0, "is_disabled": 0, "fusion_lat": 0.0, "bike_id": "8a34df6db6ebc64e5defd2e8fb6b0ccf", "rental_uris": {"ios": "https://dc.lft.to/lastmile_qr_scan", "android": "https://dc.lft.to/lastmile_qr_scan"}}, {"name": "ec95295499e4d4701d15298d35ad1cbf", "type": "electric_scooter", "lat": 38.90110416666667, "is_reserved": 0, "lon": -77.051657, "fusion_lon": 0.0, "is_disabled": 0, "fusion_lat": 0.0, "bike_id": "ec95295499e4d4701d15298d35ad1cbf", "rental_uris": {"ios": "https://dc.lft.to/lastmile_qr_scan", "android": "https://dc.lft.to/lastmile_qr_scan"}}, {"name": "921ff389117a1ef40995a4130e85dc1d", "type": "electric_scooter", "lat": 38.90343583333333, "is_reserved": 0, "lon": -77.03839333333333, "fusion_lon": 0.0, "is_disabled": 0, "fusion_lat": 0.0, "bike_id": "921ff389117a1ef40995a4130e85dc1d", "rental_uris": {"ios": "https://dc.lft.to/lastmile_qr_scan", "android": "https://dc.lft.to/lastmile_qr_scan"}}, {"name": "12fe2b0e4350d842eeed902193c12266", "type": "electric_scooter", "lat": 38.905806166666665, "is_reserved": 0, "lon": -77.0397395, "fusion_lon": 0.0, "is_disabled": 0, "fusion_lat": 0.0, "bike_id": "12fe2b0e4350d842eeed902193c12266", "rental_uris": {"ios": "https://dc.lft.to/lastmile_qr_scan", "android": "https://dc.lft.to/lastmile_qr_scan"}}, {"name": "2161c35945e1993ee09ddad1a1803c8b", "type": "electric_scooter", "lat": 38.862170166666665, "is_reserved": 0, "lon": -76.99473783333333, "fusion_lon": 0.0, "is_disabled": 0, "fusion_lat": 0.0, "bike_id": "2161c35945e1993ee09ddad1a1803c8b", "rental_uris": {"ios": "https://dc.lft.to/lastmile_qr_scan", "android": "https://dc.lft.to/lastmile_qr_scan"}}, {"name": "afc22419aea8b1ec83b4f3351ab6afe3", "type": "electric_scooter", "lat": 38.959261, "is_reserved": 0, "lon": -77.03326583333333, "fusion_lon": 0.0, "is_disabled": 0, "fusion_lat": 0.0, "bike_id": "afc22419aea8b1ec83b4f3351ab6afe3", "rental_uris": {"ios": "https://dc.lft.to/lastmile_qr_scan", "android": "https://dc.lft.to/lastmile_qr_scan"}}, {"name": "1709007fd72f33512fce0c04a32b45b2", "type": "electric_scooter", "lat": 38.923696666666665, "is_reserved": 0, "lon": -77.02124516666667, "fusion_lon": 0.0, "is_disabled": 0, "fusion_lat": 0.0, "bike_id": "1709007fd72f33512fce0c04a32b45b2", "rental_uris": {"ios": "https://dc.lft.to/lastmile_qr_scan", "android": "https://dc.lft.to/lastmile_qr_scan"}}, {"name": "fe9975840bb84a3ec0026ddc5c7b229f", "type": "electric_scooter", "lat": 38.912585666666665, "is_reserved": 0, "lon": -77.00932333333333, "fusion_lon": 0.0, "is_disabled": 0, "fusion_lat": 0.0, "bike_id": "fe9975840bb84a3ec0026ddc5c7b229f", "rental_uris": {"ios": "https://dc.lft.to/lastmile_qr_scan", "android": "https://dc.lft.to/lastmile_qr_scan"}}, {"name": "b60f6f46ae81ba6beabb4c8a917c82f5", "type": "electric_scooter", "lat": 38.91693183333334, "is_reserved": 0, "lon": -77.0297315, "fusion_lon": 0.0, "is_disabled": 0, "fusion_lat": 0.0, "bike_id": "b60f6f46ae81ba6beabb4c8a917c82f5", "rental_uris": {"ios": "https://dc.lft.to/lastmile_qr_scan", "android": "https://dc.lft.to/lastmile_qr_scan"}}, {"name": "508cb19e4d545245d57f3b4f89758593", "type": "electric_scooter", "lat": 38.87760033333333, "is_reserved": 0, "lon": -77.0081495, "fusion_lon": 0.0, "is_disabled": 0, "fusion_lat": 0.0, "bike_id": "508cb19e4d545245d57f3b4f89758593", "rental_uris": {"ios": "https://dc.lft.to/lastmile_qr_scan", "android": "https://dc.lft.to/lastmile_qr_scan"}}, {"name": "387da1288ecc481ccf75ef6ae284a224", "type": "electric_scooter", "lat": 38.8983275, "is_reserved": 0, "lon": -76.94636066666666, "fusion_lon": 0.0, "is_disabled": 0, "fusion_lat": 0.0, "bike_id": "387da1288ecc481ccf75ef6ae284a224", "rental_uris": {"ios": "https://dc.lft.to/lastmile_qr_scan", "android": "https://dc.lft.to/lastmile_qr_scan"}}, {"name": "1302a91652959b91233f773ada2411b8", "type": "electric_scooter", "lat": 38.919987666666664, "is_reserved": 0, "lon": -76.95814083333333, "fusion_lon": 0.0, "is_disabled": 0, "fusion_lat": 0.0, "bike_id": "1302a91652959b91233f773ada2411b8", "rental_uris": {"ios": "https://dc.lft.to/lastmile_qr_scan", "android": "https://dc.lft.to/lastmile_qr_scan"}}, {"name": "8a0bcd00a4d9ea69b15260271ca496df", "type": "electric_scooter", "lat": 38.8901895, "is_reserved": 0, "lon": -76.93734283333333, "fusion_lon": 0.0, "is_disabled": 0, "fusion_lat": 0.0, "bike_id": "8a0bcd00a4d9ea69b15260271ca496df", "rental_uris": {"ios": "https://dc.lft.to/lastmile_qr_scan", "android": "https://dc.lft.to/lastmile_qr_scan"}}, {"name": "136c0635a908655ef086f9804181adf0", "type": "electric_scooter", "lat": 38.9623285, "is_reserved": 0, "lon": -77.02978883333333, "fusion_lon": 0.0, "is_disabled": 0, "fusion_lat": 0.0, "bike_id": "136c0635a908655ef086f9804181adf0", "rental_uris": {"ios": "https://dc.lft.to/lastmile_qr_scan", "android": "https://dc.lft.to/lastmile_qr_scan"}}, {"name": "61daa307b3ffc475a74409e805285f01", "type": "electric_scooter", "lat": 38.940895, "is_reserved": 0, "lon": -77.06194666666667, "fusion_lon": 0.0, "is_disabled": 0, "fusion_lat": 0.0, "bike_id": "61daa307b3ffc475a74409e805285f01", "rental_uris": {"ios": "https://dc.lft.to/lastmile_qr_scan", "android": "https://dc.lft.to/lastmile_qr_scan"}}, {"name": "cd281f3d60fce39efa2ce424d7ef1ea9", "type": "electric_scooter", "lat": 38.902337333333335, "is_reserved": 0, "lon": -77.04679016666667, "fusion_lon": 0.0, "is_disabled": 0, "fusion_lat": 0.0, "bike_id": "cd281f3d60fce39efa2ce424d7ef1ea9", "rental_uris": {"ios": "https://dc.lft.to/lastmile_qr_scan", "android": "https://dc.lft.to/lastmile_qr_scan"}}, {"name": "eedb7ff6b664379e96c689aa000dedd5", "type": "electric_scooter", "lat": 38.9026545, "is_reserved": 0, "lon": -77.033536, "fusion_lon": 0.0, "is_disabled": 0, "fusion_lat": 0.0, "bike_id": "eedb7ff6b664379e96c689aa000dedd5", "rental_uris": {"ios": "https://dc.lft.to/lastmile_qr_scan", "android": "https://dc.lft.to/lastmile_qr_scan"}}, {"name": "0b69dce8068268614745ff0aa4e0f9dc", "type": "electric_scooter", "lat": 38.89674466666666, "is_reserved": 0, "lon": -77.05402416666666, "fusion_lon": 0.0, "is_disabled": 0, "fusion_lat": 0.0, "bike_id": "0b69dce8068268614745ff0aa4e0f9dc", "rental_uris": {"ios": "https://dc.lft.to/lastmile_qr_scan", "android": "https://dc.lft.to/lastmile_qr_scan"}}, {"name": "a746a011093ba696f63e221efd005327", "type": "electric_scooter", "lat": 38.89820983333333, "is_reserved": 0, "lon": -76.92640216666666, "fusion_lon": 0.0, "is_disabled": 0, "fusion_lat": 0.0, "bike_id": "a746a011093ba696f63e221efd005327", "rental_uris": {"ios": "https://dc.lft.to/lastmile_qr_scan", "android": "https://dc.lft.to/lastmile_qr_scan"}}, {"name": "23fdb5a0c7dea27411ab956a39eeedf3", "type": "electric_bike", "lat": 38.905340333333335, "is_reserved": 0, "lon": -76.99807083333333, "fusion_lon": 0.0, "is_disabled": 0, "fusion_lat": 0.0, "bike_id": "23fdb5a0c7dea27411ab956a39eeedf3", "rental_uris": {"ios": "https://dc.lft.to/lastmile_qr_scan", "android": "https://dc.lft.to/lastmile_qr_scan"}}, {"name": "2bb86dd523ce15d550d00ab8cb8eec81", "type": "electric_scooter", "lat": 38.866965666666665, "is_reserved": 0, "lon": -76.987105, "fusion_lon": 0.0, "is_disabled": 0, "fusion_lat": 0.0, "bike_id": "2bb86dd523ce15d550d00ab8cb8eec81", "rental_uris": {"ios": "https://dc.lft.to/lastmile_qr_scan", "android": "https://dc.lft.to/lastmile_qr_scan"}}, {"name": "3750295cac9db5a73626f9c4b7fa6367", "type": "electric_scooter", "lat": 38.9050525, "is_reserved": 0, "lon": -77.0450775, "fusion_lon": 0.0, "is_disabled": 0, "fusion_lat": 0.0, "bike_id": "3750295cac9db5a73626f9c4b7fa6367", "rental_uris": {"ios": "https://dc.lft.to/lastmile_qr_scan", "android": "https://dc.lft.to/lastmile_qr_scan"}}, {"name": "a6bf89f9e0a43e6acd408f92ec95b6cb", "type": "electric_scooter", "lat": 38.922896333333334, "is_reserved": 0, "lon": -77.032026, "fusion_lon": 0.0, "is_disabled": 0, "fusion_lat": 0.0, "bike_id": "a6bf89f9e0a43e6acd408f92ec95b6cb", "rental_uris": {"ios": "https://dc.lft.to/lastmile_qr_scan", "android": "https://dc.lft.to/lastmile_qr_scan"}}, {"name": "09f0fcc5a28a3efb79b62810280cc3a7", "type": "electric_scooter", "lat": 38.90676416666667, "is_reserved": 0, "lon": -77.03826283333333, "fusion_lon": 0.0, "is_disabled": 0, "fusion_lat": 0.0, "bike_id": "09f0fcc5a28a3efb79b62810280cc3a7", "rental_uris": {"ios": "https://dc.lft.to/lastmile_qr_scan", "android": "https://dc.lft.to/lastmile_qr_scan"}}, {"name": "0e4158b8ba1395d943bb3cee882dedd9", "type": "electric_bike", "lat": 38.990917833333334, "is_reserved": 0, "lon": -76.87500633333333, "fusion_lon": 0.0, "is_disabled": 0, "fusion_lat": 0.0, "bike_id": "0e4158b8ba1395d943bb3cee882dedd9", "rental_uris": {"ios": "https://dc.lft.to/lastmile_qr_scan", "android": "https://dc.lft.to/lastmile_qr_scan"}}, {"name": "9a3ed992cd7894459b13630b351c6424", "type": "electric_scooter", "lat": 38.913331166666666, "is_reserved": 0, "lon": -77.030428, "fusion_lon": 0.0, "is_disabled": 0, "fusion_lat": 0.0, "bike_id": "9a3ed992cd7894459b13630b351c6424", "rental_uris": {"ios": "https://dc.lft.to/lastmile_qr_scan", "android": "https://dc.lft.to/lastmile_qr_scan"}}, {"name": "38638d2177db54ae280dbc63b7a9e318", "type": "electric_scooter", "lat": 38.88432983333333, "is_reserved": 0, "lon": -76.95757433333333, "fusion_lon": 0.0, "is_disabled": 0, "fusion_lat": 0.0, "bike_id": "38638d2177db54ae280dbc63b7a9e318", "rental_uris": {"ios": "https://dc.lft.to/lastmile_qr_scan", "android": "https://dc.lft.to/lastmile_qr_scan"}}, {"name": "f471b98c6b5b051be1b1ad1253fac96a", "type": "electric_scooter", "lat": 38.9415425, "is_reserved": 0, "lon": -77.03653183333333, "fusion_lon": 0.0, "is_disabled": 0, "fusion_lat": 0.0, "bike_id": "f471b98c6b5b051be1b1ad1253fac96a", "rental_uris": {"ios": "https://dc.lft.to/lastmile_qr_scan", "android": "https://dc.lft.to/lastmile_qr_scan"}}, {"name": "3a18b5f65847ad99aedbe8547d24014e", "type": "electric_scooter", "lat": 38.922942166666665, "is_reserved": 0, "lon": -77.02069816666666, "fusion_lon": 0.0, "is_disabled": 0, "fusion_lat": 0.0, "bike_id": "3a18b5f65847ad99aedbe8547d24014e", "rental_uris": {"ios": "https://dc.lft.to/lastmile_qr_scan", "android": "https://dc.lft.to/lastmile_qr_scan"}}, {"name": "341d55847c2d62eb1b86d6549489363f", "type": "electric_bike", "lat": 38.913765833333336, "is_reserved": 0, "lon": -77.027207, "fusion_lon": 0.0, "is_disabled": 0, "fusion_lat": 0.0, "bike_id": "341d55847c2d62eb1b86d6549489363f", "rental_uris": {"ios": "https://dc.lft.to/lastmile_qr_scan", "android": "https://dc.lft.to/lastmile_qr_scan"}}, {"name": "0c4387591d56d849e395ad5691196501", "type": "electric_scooter", "lat": 38.92166783333333, "is_reserved": 0, "lon": -76.99407466666666, "fusion_lon": 0.0, "is_disabled": 0, "fusion_lat": 0.0, "bike_id": "0c4387591d56d849e395ad5691196501", "rental_uris": {"ios": "https://dc.lft.to/lastmile_qr_scan", "android": "https://dc.lft.to/lastmile_qr_scan"}}, {"name": "83b15e8ce97a7ab7c92f1c17d49f6163", "type": "electric_scooter", "lat": 38.91534583333333, "is_reserved": 0, "lon": -77.0462555, "fusion_lon": 0.0, "is_disabled": 0, "fusion_lat": 0.0, "bike_id": "83b15e8ce97a7ab7c92f1c17d49f6163", "rental_uris": {"ios": "https://dc.lft.to/lastmile_qr_scan", "android": "https://dc.lft.to/lastmile_qr_scan"}}, {"name": "eab3e5856a388b383c4501971adfb623", "type": "electric_scooter", "lat": 38.9149085, "is_reserved": 0, "lon": -77.018511, "fusion_lon": 0.0, "is_disabled": 0, "fusion_lat": 0.0, "bike_id": "eab3e5856a388b383c4501971adfb623", "rental_uris": {"ios": "https://dc.lft.to/lastmile_qr_scan", "android": "https://dc.lft.to/lastmile_qr_scan"}}, {"name": "c693d181ae26e7b171e72469faa5ff9f", "type": "electric_scooter", "lat": 38.912612833333334, "is_reserved": 0, "lon": -77.00368183333333, "fusion_lon": 0.0, "is_disabled": 0, "fusion_lat": 0.0, "bike_id": "c693d181ae26e7b171e72469faa5ff9f", "rental_uris": {"ios": "https://dc.lft.to/lastmile_qr_scan", "android": "https://dc.lft.to/lastmile_qr_scan"}}, {"name": "8f56ff84c7c041db6c094caa37172eb9", "type": "electric_scooter", "lat": 38.930608, "is_reserved": 0, "lon": -77.04128216666666, "fusion_lon": 0.0, "is_disabled": 0, "fusion_lat": 0.0, "bike_id": "8f56ff84c7c041db6c094caa37172eb9", "rental_uris": {"ios": "https://dc.lft.to/lastmile_qr_scan", "android": "https://dc.lft.to/lastmile_qr_scan"}}, {"name": "24aa06dfe57f47909025c3cf54cea20a", "type": "electric_scooter", "lat": 38.89484783333333, "is_reserved": 0, "lon": -76.94872733333334, "fusion_lon": 0.0, "is_disabled": 0, "fusion_lat": 0.0, "bike_id": "24aa06dfe57f47909025c3cf54cea20a", "rental_uris": {"ios": "https://dc.lft.to/lastmile_qr_scan", "android": "https://dc.lft.to/lastmile_qr_scan"}}, {"name": "5a4e96ccb28d1946b5fdc17dd49217c3", "type": "electric_scooter", "lat": 38.91984166666667, "is_reserved": 0, "lon": -77.02192283333333, "fusion_lon": 0.0, "is_disabled": 0, "fusion_lat": 0.0, "bike_id": "5a4e96ccb28d1946b5fdc17dd49217c3", "rental_uris": {"ios": "https://dc.lft.to/lastmile_qr_scan", "android": "https://dc.lft.to/lastmile_qr_scan"}}, {"name": "b3a837bba5e3c83fc8f777908bc9e498", "type": "electric_scooter", "lat": 38.9149815, "is_reserved": 0, "lon": -76.98357866666667, "fusion_lon": 0.0, "is_disabled": 0, "fusion_lat": 0.0, "bike_id": "b3a837bba5e3c83fc8f777908bc9e498", "rental_uris": {"ios": "https://dc.lft.to/lastmile_qr_scan", "android": "https://dc.lft.to/lastmile_qr_scan"}}, {"name": "b745115a83588f7cc825104b0e61fce0", "type": "electric_scooter", "lat": 38.912689, "is_reserved": 0, "lon": -77.031445, "fusion_lon": 0.0, "is_disabled": 0, "fusion_lat": 0.0, "bike_id": "b745115a83588f7cc825104b0e61fce0", "rental_uris": {"ios": "https://dc.lft.to/lastmile_qr_scan", "android": "https://dc.lft.to/lastmile_qr_scan"}}, {"name": "924bf36a2c9377951458d377b0664ec5", "type": "electric_scooter", "lat": 38.89222983333333, "is_reserved": 0, "lon": -77.04368016666666, "fusion_lon": 0.0, "is_disabled": 0, "fusion_lat": 0.0, "bike_id": "924bf36a2c9377951458d377b0664ec5", "rental_uris": {"ios": "https://dc.lft.to/lastmile_qr_scan", "android": "https://dc.lft.to/lastmile_qr_scan"}}, {"name": "31973e0f505d8ff2bac22bab6d53eecd", "type": "electric_scooter", "lat": 38.922509833333336, "is_reserved": 0, "lon": -77.03075166666666, "fusion_lon": 0.0, "is_disabled": 0, "fusion_lat": 0.0, "bike_id": "31973e0f505d8ff2bac22bab6d53eecd", "rental_uris": {"ios": "https://dc.lft.to/lastmile_qr_scan", "android": "https://dc.lft.to/lastmile_qr_scan"}}, {"name": "7b9ace2cdadaa4299edfd20eaa8bb710", "type": "electric_scooter", "lat": 38.89220916666667, "is_reserved": 0, "lon": -77.02226033333334, "fusion_lon": 0.0, "is_disabled": 0, "fusion_lat": 0.0, "bike_id": "7b9ace2cdadaa4299edfd20eaa8bb710", "rental_uris": {"ios": "https://dc.lft.to/lastmile_qr_scan", "android": "https://dc.lft.to/lastmile_qr_scan"}}, {"name": "a081773aff4fc6bb36a04242d0f6eb60", "type": "electric_scooter", "lat": 38.895153666666666, "is_reserved": 0, "lon": -77.0484605, "fusion_lon": 0.0, "is_disabled": 0, "fusion_lat": 0.0, "bike_id": "a081773aff4fc6bb36a04242d0f6eb60", "rental_uris": {"ios": "https://dc.lft.to/lastmile_qr_scan", "android": "https://dc.lft.to/lastmile_qr_scan"}}, {"name": "4be570826c4e88ef064bd782d135bcb9", "type": "electric_scooter", "lat": 38.87551966666667, "is_reserved": 0, "lon": -76.96492983333333, "fusion_lon": 0.0, "is_disabled": 0, "fusion_lat": 0.0, "bike_id": "4be570826c4e88ef064bd782d135bcb9", "rental_uris": {"ios": "https://dc.lft.to/lastmile_qr_scan", "android": "https://dc.lft.to/lastmile_qr_scan"}}, {"name": "974c460b0c12fd59334a4b7322c898f8", "type": "electric_scooter", "lat": 38.8999695, "is_reserved": 0, "lon": -77.0523065, "fusion_lon": 0.0, "is_disabled": 0, "fusion_lat": 0.0, "bike_id": "974c460b0c12fd59334a4b7322c898f8", "rental_uris": {"ios": "https://dc.lft.to/lastmile_qr_scan", "android": "https://dc.lft.to/lastmile_qr_scan"}}, {"name": "c6a889905e4a25a501d650cf71cda29d", "type": "electric_scooter", "lat": 38.91795783333333, "is_reserved": 0, "lon": -77.0231165, "fusion_lon": 0.0, "is_disabled": 0, "fusion_lat": 0.0, "bike_id": "c6a889905e4a25a501d650cf71cda29d", "rental_uris": {"ios": "https://dc.lft.to/lastmile_qr_scan", "android": "https://dc.lft.to/lastmile_qr_scan"}}, {"name": "ab50ad065a0e2ee34f820aaa7895caf2", "type": "electric_bike", "lat": 38.90476316666667, "is_reserved": 0, "lon": -76.92950766666667, "fusion_lon": 0.0, "is_disabled": 0, "fusion_lat": 0.0, "bike_id": "ab50ad065a0e2ee34f820aaa7895caf2", "rental_uris": {"ios": "https://dc.lft.to/lastmile_qr_scan", "android": "https://dc.lft.to/lastmile_qr_scan"}}, {"name": "aee9a7b31967498a25f0cdf6c1856226", "type": "electric_scooter", "lat": 38.90359566666667, "is_reserved": 0, "lon": -77.03384716666666, "fusion_lon": 0.0, "is_disabled": 0, "fusion_lat": 0.0, "bike_id": "aee9a7b31967498a25f0cdf6c1856226", "rental_uris": {"ios": "https://dc.lft.to/lastmile_qr_scan", "android": "https://dc.lft.to/lastmile_qr_scan"}}, {"name": "0afcd54293a9b8cf57d39b49a2331ff5", "type": "electric_scooter", "lat": 38.898809666666665, "is_reserved": 0, "lon": -77.03279116666667, "fusion_lon": 0.0, "is_disabled": 0, "fusion_lat": 0.0, "bike_id": "0afcd54293a9b8cf57d39b49a2331ff5", "rental_uris": {"ios": "https://dc.lft.to/lastmile_qr_scan", "android": "https://dc.lft.to/lastmile_qr_scan"}}, {"name": "b76c189607cb4ad7b34fed1aa9a189f4", "type": "electric_scooter", "lat": 38.908396, "is_reserved": 0, "lon": -76.99970216666667, "fusion_lon": 0.0, "is_disabled": 0, "fusion_lat": 0.0, "bike_id": "b76c189607cb4ad7b34fed1aa9a189f4", "rental_uris": {"ios": "https://dc.lft.to/lastmile_qr_scan", "android": "https://dc.lft.to/lastmile_qr_scan"}}, {"name": "87a45cdeaf0681af0b7fe0f332455368", "type": "electric_scooter", "lat": 38.892304833333334, "is_reserved": 0, "lon": -77.050004, "fusion_lon": 0.0, "is_disabled": 0, "fusion_lat": 0.0, "bike_id": "87a45cdeaf0681af0b7fe0f332455368", "rental_uris": {"ios": "https://dc.lft.to/lastmile_qr_scan", "android": "https://dc.lft.to/lastmile_qr_scan"}}, {"name": "5608f53b18555029be8d08f38a68ce92", "type": "electric_scooter", "lat": 38.93354983333333, "is_reserved": 0, "lon": -77.03429033333333, "fusion_lon": 0.0, "is_disabled": 0, "fusion_lat": 0.0, "bike_id": "5608f53b18555029be8d08f38a68ce92", "rental_uris": {"ios": "https://dc.lft.to/lastmile_qr_scan", "android": "https://dc.lft.to/lastmile_qr_scan"}}, {"name": "6c6c8c9301d805da92e9d59fcbe03b63", "type": "electric_scooter", "lat": 38.907211333333336, "is_reserved": 0, "lon": -77.02505783333334, "fusion_lon": 0.0, "is_disabled": 0, "fusion_lat": 0.0, "bike_id": "6c6c8c9301d805da92e9d59fcbe03b63", "rental_uris": {"ios": "https://dc.lft.to/lastmile_qr_scan", "android": "https://dc.lft.to/lastmile_qr_scan"}}, {"name": "d70d727c4e65ee623683b6cf19ef9977", "type": "electric_scooter", "lat": 38.933703666666666, "is_reserved": 0, "lon": -77.057259, "fusion_lon": 0.0, "is_disabled": 0, "fusion_lat": 0.0, "bike_id": "d70d727c4e65ee623683b6cf19ef9977", "rental_uris": {"ios": "https://dc.lft.to/lastmile_qr_scan", "android": "https://dc.lft.to/lastmile_qr_scan"}}, {"name": "26f77cd4b9079b497124179590576588", "type": "electric_bike", "lat": 38.8226095, "is_reserved": 0, "lon": -77.00559416666667, "fusion_lon": 0.0, "is_disabled": 0, "fusion_lat": 0.0, "bike_id": "26f77cd4b9079b497124179590576588", "rental_uris": {"ios": "https://dc.lft.to/lastmile_qr_scan", "android": "https://dc.lft.to/lastmile_qr_scan"}}, {"name": "b8896a43d5cdcec04a821bd4fa262224", "type": "electric_bike", "lat": 38.886414, "is_reserved": 0, "lon": -76.9547605, "fusion_lon": 0.0, "is_disabled": 0, "fusion_lat": 0.0, "bike_id": "b8896a43d5cdcec04a821bd4fa262224", "rental_uris": {"ios": "https://dc.lft.to/lastmile_qr_scan", "android": "https://dc.lft.to/lastmile_qr_scan"}}, {"name": "6360a6dd52949c7929d87859c570bcff", "type": "electric_scooter", "lat": 38.905521, "is_reserved": 0, "lon": -77.046689, "fusion_lon": 0.0, "is_disabled": 0, "fusion_lat": 0.0, "bike_id": "6360a6dd52949c7929d87859c570bcff", "rental_uris": {"ios": "https://dc.lft.to/lastmile_qr_scan", "android": "https://dc.lft.to/lastmile_qr_scan"}}, {"name": "80eb3c95e7ef29a4db8e9c8e8cd201fa", "type": "electric_scooter", "lat": 38.9259865, "is_reserved": 0, "lon": -77.021309, "fusion_lon": 0.0, "is_disabled": 0, "fusion_lat": 0.0, "bike_id": "80eb3c95e7ef29a4db8e9c8e8cd201fa", "rental_uris": {"ios": "https://dc.lft.to/lastmile_qr_scan", "android": "https://dc.lft.to/lastmile_qr_scan"}}, {"name": "d06aef296b3ff1fcb159e2f9c230c468", "type": "electric_scooter", "lat": 38.864242833333336, "is_reserved": 0, "lon": -76.9857665, "fusion_lon": 0.0, "is_disabled": 0, "fusion_lat": 0.0, "bike_id": "d06aef296b3ff1fcb159e2f9c230c468", "rental_uris": {"ios": "https://dc.lft.to/lastmile_qr_scan", "android": "https://dc.lft.to/lastmile_qr_scan"}}, {"name": "719c93b413ea688983fe411835c015c2", "type": "electric_scooter", "lat": 38.9562955, "is_reserved": 0, "lon": -77.025392, "fusion_lon": 0.0, "is_disabled": 0, "fusion_lat": 0.0, "bike_id": "719c93b413ea688983fe411835c015c2", "rental_uris": {"ios": "https://dc.lft.to/lastmile_qr_scan", "android": "https://dc.lft.to/lastmile_qr_scan"}}, {"name": "a82e4f7f165a9d2dfcc20d784451aeb6", "type": "electric_scooter", "lat": 38.9006995, "is_reserved": 0, "lon": -77.0319185, "fusion_lon": 0.0, "is_disabled": 0, "fusion_lat": 0.0, "bike_id": "a82e4f7f165a9d2dfcc20d784451aeb6", "rental_uris": {"ios": "https://dc.lft.to/lastmile_qr_scan", "android": "https://dc.lft.to/lastmile_qr_scan"}}, {"name": "6f473369aff291bdbf6fb5bc0b255734", "type": "electric_bike", "lat": 38.89454333333333, "is_reserved": 0, "lon": -76.97036033333333, "fusion_lon": 0.0, "is_disabled": 0, "fusion_lat": 0.0, "bike_id": "6f473369aff291bdbf6fb5bc0b255734", "rental_uris": {"ios": "https://dc.lft.to/lastmile_qr_scan", "android": "https://dc.lft.to/lastmile_qr_scan"}}, {"name": "50c5792cddb026d05bd50f685a61c99d", "type": "electric_scooter", "lat": 38.926373, "is_reserved": 0, "lon": -77.03708066666667, "fusion_lon": 0.0, "is_disabled": 0, "fusion_lat": 0.0, "bike_id": "50c5792cddb026d05bd50f685a61c99d", "rental_uris": {"ios": "https://dc.lft.to/lastmile_qr_scan", "android": "https://dc.lft.to/lastmile_qr_scan"}}, {"name": "bfefde3cab3b95becad953e465997b0e", "type": "electric_scooter", "lat": 38.89623483333333, "is_reserved": 0, "lon": -77.02149133333333, "fusion_lon": 0.0, "is_disabled": 0, "fusion_lat": 0.0, "bike_id": "bfefde3cab3b95becad953e465997b0e", "rental_uris": {"ios": "https://dc.lft.to/lastmile_qr_scan", "android": "https://dc.lft.to/lastmile_qr_scan"}}, {"name": "07109229325c85f1513958a506d12048", "type": "electric_scooter", "lat": 38.88304816666667, "is_reserved": 0, "lon": -77.01764333333334, "fusion_lon": 0.0, "is_disabled": 0, "fusion_lat": 0.0, "bike_id": "07109229325c85f1513958a506d12048", "rental_uris": {"ios": "https://dc.lft.to/lastmile_qr_scan", "android": "https://dc.lft.to/lastmile_qr_scan"}}, {"name": "012bc3e6400ad6cc05eb5089bf07e7d9", "type": "electric_scooter", "lat": 38.917383, "is_reserved": 0, "lon": -77.010279, "fusion_lon": 0.0, "is_disabled": 0, "fusion_lat": 0.0, "bike_id": "012bc3e6400ad6cc05eb5089bf07e7d9", "rental_uris": {"ios": "https://dc.lft.to/lastmile_qr_scan", "android": "https://dc.lft.to/lastmile_qr_scan"}}, {"name": "f891ba660dadc5e9bac3505f12e802ef", "type": "electric_scooter", "lat": 38.9015495, "is_reserved": 0, "lon": -77.02304116666667, "fusion_lon": 0.0, "is_disabled": 0, "fusion_lat": 0.0, "bike_id": "f891ba660dadc5e9bac3505f12e802ef", "rental_uris": {"ios": "https://dc.lft.to/lastmile_qr_scan", "android": "https://dc.lft.to/lastmile_qr_scan"}}, {"name": "d4c045ea289ae438b64e35e366875505", "type": "electric_scooter", "lat": 38.9258515, "is_reserved": 0, "lon": -77.03988133333333, "fusion_lon": 0.0, "is_disabled": 0, "fusion_lat": 0.0, "bike_id": "d4c045ea289ae438b64e35e366875505", "rental_uris": {"ios": "https://dc.lft.to/lastmile_qr_scan", "android": "https://dc.lft.to/lastmile_qr_scan"}}, {"name": "f9c05041663a75a87805308b9583939b", "type": "electric_bike", "lat": 38.96125266666667, "is_reserved": 0, "lon": -77.03271566666666, "fusion_lon": 0.0, "is_disabled": 0, "fusion_lat": 0.0, "bike_id": "f9c05041663a75a87805308b9583939b", "rental_uris": {"ios": "https://dc.lft.to/lastmile_qr_scan", "android": "https://dc.lft.to/lastmile_qr_scan"}}, {"name": "59d05551fc0c68c07beeb25e99d45f85", "type": "electric_scooter", "lat": 38.9135215, "is_reserved": 0, "lon": -77.0321395, "fusion_lon": 0.0, "is_disabled": 0, "fusion_lat": 0.0, "bike_id": "59d05551fc0c68c07beeb25e99d45f85", "rental_uris": {"ios": "https://dc.lft.to/lastmile_qr_scan", "android": "https://dc.lft.to/lastmile_qr_scan"}}, {"name": "8bc6393281eedc1302e737d64f472f93", "type": "electric_scooter", "lat": 38.9156315, "is_reserved": 0, "lon": -77.0461385, "fusion_lon": 0.0, "is_disabled": 0, "fusion_lat": 0.0, "bike_id": "8bc6393281eedc1302e737d64f472f93", "rental_uris": {"ios": "https://dc.lft.to/lastmile_qr_scan", "android": "https://dc.lft.to/lastmile_qr_scan"}}, {"name": "f88ac28989e9fa18f4c8f0a292323dd5", "type": "electric_scooter", "lat": 38.92445583333333, "is_reserved": 0, "lon": -76.9933305, "fusion_lon": 0.0, "is_disabled": 0, "fusion_lat": 0.0, "bike_id": "f88ac28989e9fa18f4c8f0a292323dd5", "rental_uris": {"ios": "https://dc.lft.to/lastmile_qr_scan", "android": "https://dc.lft.to/lastmile_qr_scan"}}, {"name": "bd7ab651f4323433310e45f6bef537a6", "type": "electric_scooter", "lat": 38.898782, "is_reserved": 0, "lon": -76.9316085, "fusion_lon": 0.0, "is_disabled": 0, "fusion_lat": 0.0, "bike_id": "bd7ab651f4323433310e45f6bef537a6", "rental_uris": {"ios": "https://dc.lft.to/lastmile_qr_scan", "android": "https://dc.lft.to/lastmile_qr_scan"}}, {"name": "6f40ec8f298c13de5d3e66490f4ebae1", "type": "electric_scooter", "lat": 38.943937, "is_reserved": 0, "lon": -77.03894916666667, "fusion_lon": 0.0, "is_disabled": 0, "fusion_lat": 0.0, "bike_id": "6f40ec8f298c13de5d3e66490f4ebae1", "rental_uris": {"ios": "https://dc.lft.to/lastmile_qr_scan", "android": "https://dc.lft.to/lastmile_qr_scan"}}, {"name": "09de81d1e50ae754524bcffa8849b30d", "type": "electric_scooter", "lat": 38.908896666666664, "is_reserved": 0, "lon": -77.00564566666667, "fusion_lon": 0.0, "is_disabled": 0, "fusion_lat": 0.0, "bike_id": "09de81d1e50ae754524bcffa8849b30d", "rental_uris": {"ios": "https://dc.lft.to/lastmile_qr_scan", "android": "https://dc.lft.to/lastmile_qr_scan"}}, {"name": "fc106fccacfcf633d25c56bd6abe900e", "type": "electric_scooter", "lat": 38.88618983333333, "is_reserved": 0, "lon": -77.021755, "fusion_lon": 0.0, "is_disabled": 0, "fusion_lat": 0.0, "bike_id": "fc106fccacfcf633d25c56bd6abe900e", "rental_uris": {"ios": "https://dc.lft.to/lastmile_qr_scan", "android": "https://dc.lft.to/lastmile_qr_scan"}}, {"name": "25e4a901c4e250ad5e12a20259cc7541", "type": "electric_scooter", "lat": 38.91655433333333, "is_reserved": 0, "lon": -77.02697866666666, "fusion_lon": 0.0, "is_disabled": 0, "fusion_lat": 0.0, "bike_id": "25e4a901c4e250ad5e12a20259cc7541", "rental_uris": {"ios": "https://dc.lft.to/lastmile_qr_scan", "android": "https://dc.lft.to/lastmile_qr_scan"}}, {"name": "5858304dfe340edfa86cef5bb4047f25", "type": "electric_scooter", "lat": 38.903740666666664, "is_reserved": 0, "lon": -77.02986066666666, "fusion_lon": 0.0, "is_disabled": 0, "fusion_lat": 0.0, "bike_id": "5858304dfe340edfa86cef5bb4047f25", "rental_uris": {"ios": "https://dc.lft.to/lastmile_qr_scan", "android": "https://dc.lft.to/lastmile_qr_scan"}}, {"name": "9faf8969e7e606b9436d44ab3938e791", "type": "electric_scooter", "lat": 38.903445, "is_reserved": 0, "lon": -77.0446695, "fusion_lon": 0.0, "is_disabled": 0, "fusion_lat": 0.0, "bike_id": "9faf8969e7e606b9436d44ab3938e791", "rental_uris": {"ios": "https://dc.lft.to/lastmile_qr_scan", "android": "https://dc.lft.to/lastmile_qr_scan"}}, {"name": "8d8df927e1100f00497363a59fa030da", "type": "electric_scooter", "lat": 38.89676466666667, "is_reserved": 0, "lon": -76.947267, "fusion_lon": 0.0, "is_disabled": 0, "fusion_lat": 0.0, "bike_id": "8d8df927e1100f00497363a59fa030da", "rental_uris": {"ios": "https://dc.lft.to/lastmile_qr_scan", "android": "https://dc.lft.to/lastmile_qr_scan"}}, {"name": "18bb2c3263630c1efd64fc6af0335239", "type": "electric_scooter", "lat": 38.92615766666667, "is_reserved": 0, "lon": -77.02163383333334, "fusion_lon": 0.0, "is_disabled": 0, "fusion_lat": 0.0, "bike_id": "18bb2c3263630c1efd64fc6af0335239", "rental_uris": {"ios": "https://dc.lft.to/lastmile_qr_scan", "android": "https://dc.lft.to/lastmile_qr_scan"}}, {"name": "e8c7c0cfd523fc36139d9baba2595789", "type": "electric_scooter", "lat": 38.87874383333333, "is_reserved": 0, "lon": -77.0228135, "fusion_lon": 0.0, "is_disabled": 0, "fusion_lat": 0.0, "bike_id": "e8c7c0cfd523fc36139d9baba2595789", "rental_uris": {"ios": "https://dc.lft.to/lastmile_qr_scan", "android": "https://dc.lft.to/lastmile_qr_scan"}}, {"name": "a3238c12f18b530c3ad3d57d751f56ed", "type": "electric_scooter", "lat": 38.913362666666664, "is_reserved": 0, "lon": -77.031842, "fusion_lon": 0.0, "is_disabled": 0, "fusion_lat": 0.0, "bike_id": "a3238c12f18b530c3ad3d57d751f56ed", "rental_uris": {"ios": "https://dc.lft.to/lastmile_qr_scan", "android": "https://dc.lft.to/lastmile_qr_scan"}}, {"name": "3510c7784d2e91ed9b63eb0049f2e000", "type": "electric_scooter", "lat": 38.916713, "is_reserved": 0, "lon": -77.00504416666666, "fusion_lon": 0.0, "is_disabled": 0, "fusion_lat": 0.0, "bike_id": "3510c7784d2e91ed9b63eb0049f2e000", "rental_uris": {"ios": "https://dc.lft.to/lastmile_qr_scan", "android": "https://dc.lft.to/lastmile_qr_scan"}}, {"name": "e22e06f2cd23b2a5ecfb08b687a7e2cb", "type": "electric_scooter", "lat": 38.9071405, "is_reserved": 0, "lon": -77.04356916666667, "fusion_lon": 0.0, "is_disabled": 0, "fusion_lat": 0.0, "bike_id": "e22e06f2cd23b2a5ecfb08b687a7e2cb", "rental_uris": {"ios": "https://dc.lft.to/lastmile_qr_scan", "android": "https://dc.lft.to/lastmile_qr_scan"}}, {"name": "09232be2426db28b5d7fff3f26cbc1a6", "type": "electric_scooter", "lat": 38.8919685, "is_reserved": 0, "lon": -77.0458055, "fusion_lon": 0.0, "is_disabled": 0, "fusion_lat": 0.0, "bike_id": "09232be2426db28b5d7fff3f26cbc1a6", "rental_uris": {"ios": "https://dc.lft.to/lastmile_qr_scan", "android": "https://dc.lft.to/lastmile_qr_scan"}}, {"name": "9a112d19dcc1f86923c6e6c64e251cfa", "type": "electric_scooter", "lat": 38.944154166666664, "is_reserved": 0, "lon": -77.055178, "fusion_lon": 0.0, "is_disabled": 0, "fusion_lat": 0.0, "bike_id": "9a112d19dcc1f86923c6e6c64e251cfa", "rental_uris": {"ios": "https://dc.lft.to/lastmile_qr_scan", "android": "https://dc.lft.to/lastmile_qr_scan"}}, {"name": "d6b7b00a152fe0d04db4e7de09434959", "type": "electric_bike", "lat": 38.906884, "is_reserved": 0, "lon": -76.95188833333333, "fusion_lon": 0.0, "is_disabled": 0, "fusion_lat": 0.0, "bike_id": "d6b7b00a152fe0d04db4e7de09434959", "rental_uris": {"ios": "https://dc.lft.to/lastmile_qr_scan", "android": "https://dc.lft.to/lastmile_qr_scan"}}, {"name": "966d366d9f21a7f5a53524ec396523a5", "type": "electric_scooter", "lat": 38.883343833333335, "is_reserved": 0, "lon": -77.01771883333333, "fusion_lon": 0.0, "is_disabled": 0, "fusion_lat": 0.0, "bike_id": "966d366d9f21a7f5a53524ec396523a5", "rental_uris": {"ios": "https://dc.lft.to/lastmile_qr_scan", "android": "https://dc.lft.to/lastmile_qr_scan"}}, {"name": "fee67ac6f50118b0e8dedf79d14bf61f", "type": "electric_bike", "lat": 38.80225033333333, "is_reserved": 0, "lon": -77.079175, "fusion_lon": 0.0, "is_disabled": 0, "fusion_lat": 0.0, "bike_id": "fee67ac6f50118b0e8dedf79d14bf61f", "rental_uris": {"ios": "https://dc.lft.to/lastmile_qr_scan", "android": "https://dc.lft.to/lastmile_qr_scan"}}, {"name": "30a765910fce0fd1542234df392e4275", "type": "electric_scooter", "lat": 38.929496666666665, "is_reserved": 0, "lon": -77.04402366666666, "fusion_lon": 0.0, "is_disabled": 0, "fusion_lat": 0.0, "bike_id": "30a765910fce0fd1542234df392e4275", "rental_uris": {"ios": "https://dc.lft.to/lastmile_qr_scan", "android": "https://dc.lft.to/lastmile_qr_scan"}}, {"name": "84171fe00d6d0f6df9c21af5cade2859", "type": "electric_scooter", "lat": 38.901653833333334, "is_reserved": 0, "lon": -77.03322833333333, "fusion_lon": 0.0, "is_disabled": 0, "fusion_lat": 0.0, "bike_id": "84171fe00d6d0f6df9c21af5cade2859", "rental_uris": {"ios": "https://dc.lft.to/lastmile_qr_scan", "android": "https://dc.lft.to/lastmile_qr_scan"}}, {"name": "e0bf0005c7d895a4d85ad80df3f28ca8", "type": "electric_scooter", "lat": 38.909608666666664, "is_reserved": 0, "lon": -77.00770233333333, "fusion_lon": 0.0, "is_disabled": 0, "fusion_lat": 0.0, "bike_id": "e0bf0005c7d895a4d85ad80df3f28ca8", "rental_uris": {"ios": "https://dc.lft.to/lastmile_qr_scan", "android": "https://dc.lft.to/lastmile_qr_scan"}}, {"name": "f9e0c1e33a21f6a470f4e8981406b2fd", "type": "electric_scooter", "lat": 38.93197816666667, "is_reserved": 0, "lon": -77.0387675, "fusion_lon": 0.0, "is_disabled": 0, "fusion_lat": 0.0, "bike_id": "f9e0c1e33a21f6a470f4e8981406b2fd", "rental_uris": {"ios": "https://dc.lft.to/lastmile_qr_scan", "android": "https://dc.lft.to/lastmile_qr_scan"}}, {"name": "4131b4471bfbb1a5447dc85258b554f1", "type": "electric_scooter", "lat": 38.909750333333335, "is_reserved": 0, "lon": -77.03299833333334, "fusion_lon": 0.0, "is_disabled": 0, "fusion_lat": 0.0, "bike_id": "4131b4471bfbb1a5447dc85258b554f1", "rental_uris": {"ios": "https://dc.lft.to/lastmile_qr_scan", "android": "https://dc.lft.to/lastmile_qr_scan"}}, {"name": "5e8264ea1b07fa0ba76763aad4433376", "type": "electric_scooter", "lat": 38.8953845, "is_reserved": 0, "lon": -77.04653266666666, "fusion_lon": 0.0, "is_disabled": 0, "fusion_lat": 0.0, "bike_id": "5e8264ea1b07fa0ba76763aad4433376", "rental_uris": {"ios": "https://dc.lft.to/lastmile_qr_scan", "android": "https://dc.lft.to/lastmile_qr_scan"}}, {"name": "bd3979e3dc954d57b1d9200b6a97a18c", "type": "electric_scooter", "lat": 38.90637266666667, "is_reserved": 0, "lon": -77.03909633333333, "fusion_lon": 0.0, "is_disabled": 0, "fusion_lat": 0.0, "bike_id": "bd3979e3dc954d57b1d9200b6a97a18c", "rental_uris": {"ios": "https://dc.lft.to/lastmile_qr_scan", "android": "https://dc.lft.to/lastmile_qr_scan"}}, {"name": "95b39adf5eb6d6bcfa2fdfa260a9d74c", "type": "electric_scooter", "lat": 38.90239533333333, "is_reserved": 0, "lon": -77.03633866666667, "fusion_lon": 0.0, "is_disabled": 0, "fusion_lat": 0.0, "bike_id": "95b39adf5eb6d6bcfa2fdfa260a9d74c", "rental_uris": {"ios": "https://dc.lft.to/lastmile_qr_scan", "android": "https://dc.lft.to/lastmile_qr_scan"}}, {"name": "f4634a2aab0d02ec5e5042877ccec49d", "type": "electric_scooter", "lat": 38.90937483333333, "is_reserved": 0, "lon": -77.02185233333333, "fusion_lon": 0.0, "is_disabled": 0, "fusion_lat": 0.0, "bike_id": "f4634a2aab0d02ec5e5042877ccec49d", "rental_uris": {"ios": "https://dc.lft.to/lastmile_qr_scan", "android": "https://dc.lft.to/lastmile_qr_scan"}}, {"name": "beb4468db93557ac55c41a3418d218d2", "type": "electric_scooter", "lat": 38.927484166666666, "is_reserved": 0, "lon": -77.02492, "fusion_lon": 0.0, "is_disabled": 0, "fusion_lat": 0.0, "bike_id": "beb4468db93557ac55c41a3418d218d2", "rental_uris": {"ios": "https://dc.lft.to/lastmile_qr_scan", "android": "https://dc.lft.to/lastmile_qr_scan"}}, {"name": "d422f888bb669983952eaec42d95cb55", "type": "electric_scooter", "lat": 38.905428, "is_reserved": 0, "lon": -77.04359833333334, "fusion_lon": 0.0, "is_disabled": 0, "fusion_lat": 0.0, "bike_id": "d422f888bb669983952eaec42d95cb55", "rental_uris": {"ios": "https://dc.lft.to/lastmile_qr_scan", "android": "https://dc.lft.to/lastmile_qr_scan"}}, {"name": "79c62b9c4c39bba3f9283f72518e72c1", "type": "electric_scooter", "lat": 38.89912316666667, "is_reserved": 0, "lon": -77.0392925, "fusion_lon": 0.0, "is_disabled": 0, "fusion_lat": 0.0, "bike_id": "79c62b9c4c39bba3f9283f72518e72c1", "rental_uris": {"ios": "https://dc.lft.to/lastmile_qr_scan", "android": "https://dc.lft.to/lastmile_qr_scan"}}, {"name": "82dd1789d11d348f366a571288c31931", "type": "electric_scooter", "lat": 38.9026965, "is_reserved": 0, "lon": -77.05316433333333, "fusion_lon": 0.0, "is_disabled": 0, "fusion_lat": 0.0, "bike_id": "82dd1789d11d348f366a571288c31931", "rental_uris": {"ios": "https://dc.lft.to/lastmile_qr_scan", "android": "https://dc.lft.to/lastmile_qr_scan"}}, {"name": "b50ac3936271991332e6534c4b7eaf09", "type": "electric_scooter", "lat": 38.907951833333335, "is_reserved": 0, "lon": -77.04829433333333, "fusion_lon": 0.0, "is_disabled": 0, "fusion_lat": 0.0, "bike_id": "b50ac3936271991332e6534c4b7eaf09", "rental_uris": {"ios": "https://dc.lft.to/lastmile_qr_scan", "android": "https://dc.lft.to/lastmile_qr_scan"}}, {"name": "e8bf9e4e4c56a6469b11c9df45b64c17", "type": "electric_scooter", "lat": 38.89963, "is_reserved": 0, "lon": -77.051015, "fusion_lon": 0.0, "is_disabled": 0, "fusion_lat": 0.0, "bike_id": "e8bf9e4e4c56a6469b11c9df45b64c17", "rental_uris": {"ios": "https://dc.lft.to/lastmile_qr_scan", "android": "https://dc.lft.to/lastmile_qr_scan"}}, {"name": "13fdcdade089f0f8886c7bd680a86526", "type": "electric_bike", "lat": 38.89563233333333, "is_reserved": 0, "lon": -77.12738033333333, "fusion_lon": 0.0, "is_disabled": 0, "fusion_lat": 0.0, "bike_id": "13fdcdade089f0f8886c7bd680a86526", "rental_uris": {"ios": "https://dc.lft.to/lastmile_qr_scan", "android": "https://dc.lft.to/lastmile_qr_scan"}}, {"name": "9a93b43050484169b6c1ee7b1f06048c", "type": "electric_scooter", "lat": 38.898510333333334, "is_reserved": 0, "lon": -77.04379566666667, "fusion_lon": 0.0, "is_disabled": 0, "fusion_lat": 0.0, "bike_id": "9a93b43050484169b6c1ee7b1f06048c", "rental_uris": {"ios": "https://dc.lft.to/lastmile_qr_scan", "android": "https://dc.lft.to/lastmile_qr_scan"}}, {"name": "965e616f852e422569678f5e2be1deb5", "type": "electric_bike", "lat": 38.895131666666664, "is_reserved": 0, "lon": -77.02723766666666, "fusion_lon": 0.0, "is_disabled": 0, "fusion_lat": 0.0, "bike_id": "965e616f852e422569678f5e2be1deb5", "rental_uris": {"ios": "https://dc.lft.to/lastmile_qr_scan", "android": "https://dc.lft.to/lastmile_qr_scan"}}, {"name": "9758795388bf176a9f9704f617e0eb56", "type": "electric_scooter", "lat": 38.9039035, "is_reserved": 0, "lon": -77.0443745, "fusion_lon": 0.0, "is_disabled": 0, "fusion_lat": 0.0, "bike_id": "9758795388bf176a9f9704f617e0eb56", "rental_uris": {"ios": "https://dc.lft.to/lastmile_qr_scan", "android": "https://dc.lft.to/lastmile_qr_scan"}}, {"name": "004a9723d034443c94d82d97cb083f56", "type": "electric_scooter", "lat": 38.894789, "is_reserved": 0, "lon": -76.985613, "fusion_lon": 0.0, "is_disabled": 0, "fusion_lat": 0.0, "bike_id": "004a9723d034443c94d82d97cb083f56", "rental_uris": {"ios": "https://dc.lft.to/lastmile_qr_scan", "android": "https://dc.lft.to/lastmile_qr_scan"}}, {"name": "8d2759ae43f951862fa2f669a2d6e983", "type": "electric_scooter", "lat": 38.90004116666667, "is_reserved": 0, "lon": -77.03310016666667, "fusion_lon": 0.0, "is_disabled": 0, "fusion_lat": 0.0, "bike_id": "8d2759ae43f951862fa2f669a2d6e983", "rental_uris": {"ios": "https://dc.lft.to/lastmile_qr_scan", "android": "https://dc.lft.to/lastmile_qr_scan"}}, {"name": "4e1c6423bb565c6260eb05e708cc1825", "type": "electric_bike", "lat": 38.89091233333333, "is_reserved": 0, "lon": -77.00312716666667, "fusion_lon": 0.0, "is_disabled": 0, "fusion_lat": 0.0, "bike_id": "4e1c6423bb565c6260eb05e708cc1825", "rental_uris": {"ios": "https://dc.lft.to/lastmile_qr_scan", "android": "https://dc.lft.to/lastmile_qr_scan"}}, {"name": "36466f921777a27f64389cb290610a94", "type": "electric_scooter", "lat": 38.905189, "is_reserved": 0, "lon": -77.05335283333334, "fusion_lon": 0.0, "is_disabled": 0, "fusion_lat": 0.0, "bike_id": "36466f921777a27f64389cb290610a94", "rental_uris": {"ios": "https://dc.lft.to/lastmile_qr_scan", "android": "https://dc.lft.to/lastmile_qr_scan"}}, {"name": "7192b391b4662fa848afd6a88f9951c5", "type": "electric_scooter", "lat": 38.898447166666664, "is_reserved": 0, "lon": -77.02773516666667, "fusion_lon": 0.0, "is_disabled": 0, "fusion_lat": 0.0, "bike_id": "7192b391b4662fa848afd6a88f9951c5", "rental_uris": {"ios": "https://dc.lft.to/lastmile_qr_scan", "android": "https://dc.lft.to/lastmile_qr_scan"}}, {"name": "7b121d2261b72e297980ef0e9498d17f", "type": "electric_scooter", "lat": 38.941812166666665, "is_reserved": 0, "lon": -77.03655083333334, "fusion_lon": 0.0, "is_disabled": 0, "fusion_lat": 0.0, "bike_id": "7b121d2261b72e297980ef0e9498d17f", "rental_uris": {"ios": "https://dc.lft.to/lastmile_qr_scan", "android": "https://dc.lft.to/lastmile_qr_scan"}}, {"name": "bbc21cef8a53b82024e89665afc3be45", "type": "electric_scooter", "lat": 38.907262, "is_reserved": 0, "lon": -77.04348433333334, "fusion_lon": 0.0, "is_disabled": 0, "fusion_lat": 0.0, "bike_id": "bbc21cef8a53b82024e89665afc3be45", "rental_uris": {"ios": "https://dc.lft.to/lastmile_qr_scan", "android": "https://dc.lft.to/lastmile_qr_scan"}}, {"name": "75ed48e1a557203856d78f1dd4fbb258", "type": "electric_scooter", "lat": 38.913317166666666, "is_reserved": 0, "lon": -77.04817033333333, "fusion_lon": 0.0, "is_disabled": 0, "fusion_lat": 0.0, "bike_id": "75ed48e1a557203856d78f1dd4fbb258", "rental_uris": {"ios": "https://dc.lft.to/lastmile_qr_scan", "android": "https://dc.lft.to/lastmile_qr_scan"}}, {"name": "977ac918fe887c351d05d04cc01b3f68", "type": "electric_scooter", "lat": 38.87634966666667, "is_reserved": 0, "lon": -77.00925483333333, "fusion_lon": 0.0, "is_disabled": 0, "fusion_lat": 0.0, "bike_id": "977ac918fe887c351d05d04cc01b3f68", "rental_uris": {"ios": "https://dc.lft.to/lastmile_qr_scan", "android": "https://dc.lft.to/lastmile_qr_scan"}}, {"name": "a1426a07c251444d99e0cd4d204df0dc", "type": "electric_scooter", "lat": 38.927506, "is_reserved": 0, "lon": -77.03268166666666, "fusion_lon": 0.0, "is_disabled": 0, "fusion_lat": 0.0, "bike_id": "a1426a07c251444d99e0cd4d204df0dc", "rental_uris": {"ios": "https://dc.lft.to/lastmile_qr_scan", "android": "https://dc.lft.to/lastmile_qr_scan"}}, {"name": "153cd9df2d3aa2d0ddb6232ddb5ed7fc", "type": "electric_bike", "lat": 38.93670933333333, "is_reserved": 0, "lon": -76.9520875, "fusion_lon": 0.0, "is_disabled": 0, "fusion_lat": 0.0, "bike_id": "153cd9df2d3aa2d0ddb6232ddb5ed7fc", "rental_uris": {"ios": "https://dc.lft.to/lastmile_qr_scan", "android": "https://dc.lft.to/lastmile_qr_scan"}}, {"name": "8875eff38120f05ade6968cacd3aacb8", "type": "electric_scooter", "lat": 38.9288135, "is_reserved": 0, "lon": -77.04048983333334, "fusion_lon": 0.0, "is_disabled": 0, "fusion_lat": 0.0, "bike_id": "8875eff38120f05ade6968cacd3aacb8", "rental_uris": {"ios": "https://dc.lft.to/lastmile_qr_scan", "android": "https://dc.lft.to/lastmile_qr_scan"}}, {"name": "bca19d354719932291150e6cfdf54427", "type": "electric_scooter", "lat": 38.896337, "is_reserved": 0, "lon": -77.039693, "fusion_lon": 0.0, "is_disabled": 0, "fusion_lat": 0.0, "bike_id": "bca19d354719932291150e6cfdf54427", "rental_uris": {"ios": "https://dc.lft.to/lastmile_qr_scan", "android": "https://dc.lft.to/lastmile_qr_scan"}}, {"name": "c63f0b17d57f5e5bd0d5d87c0f9e6d0f", "type": "electric_bike", "lat": 38.954688833333336, "is_reserved": 0, "lon": -76.99012, "fusion_lon": 0.0, "is_disabled": 0, "fusion_lat": 0.0, "bike_id": "c63f0b17d57f5e5bd0d5d87c0f9e6d0f", "rental_uris": {"ios": "https://dc.lft.to/lastmile_qr_scan", "android": "https://dc.lft.to/lastmile_qr_scan"}}, {"name": "01090ed1b7c9c697ff661f82ced25223", "type": "electric_scooter", "lat": 38.902113, "is_reserved": 0, "lon": -77.01764666666666, "fusion_lon": 0.0, "is_disabled": 0, "fusion_lat": 0.0, "bike_id": "01090ed1b7c9c697ff661f82ced25223", "rental_uris": {"ios": "https://dc.lft.to/lastmile_qr_scan", "android": "https://dc.lft.to/lastmile_qr_scan"}}, {"name": "11406f88d7fceb896bc1b9f071d5c129", "type": "electric_scooter", "lat": 38.9205975, "is_reserved": 0, "lon": -77.02977866666667, "fusion_lon": 0.0, "is_disabled": 0, "fusion_lat": 0.0, "bike_id": "11406f88d7fceb896bc1b9f071d5c129", "rental_uris": {"ios": "https://dc.lft.to/lastmile_qr_scan", "android": "https://dc.lft.to/lastmile_qr_scan"}}, {"name": "6a8e6612bfcf30f9773abeaef599f6a1", "type": "electric_scooter", "lat": 38.92341, "is_reserved": 0, "lon": -77.0190485, "fusion_lon": 0.0, "is_disabled": 0, "fusion_lat": 0.0, "bike_id": "6a8e6612bfcf30f9773abeaef599f6a1", "rental_uris": {"ios": "https://dc.lft.to/lastmile_qr_scan", "android": "https://dc.lft.to/lastmile_qr_scan"}}, {"name": "7ecbf219a362d8db736d80a869cc13b0", "type": "electric_bike", "lat": 38.94610333333333, "is_reserved": 0, "lon": -77.06982166666667, "fusion_lon": 0.0, "is_disabled": 0, "fusion_lat": 0.0, "bike_id": "7ecbf219a362d8db736d80a869cc13b0", "rental_uris": {"ios": "https://dc.lft.to/lastmile_qr_scan", "android": "https://dc.lft.to/lastmile_qr_scan"}}, {"name": "856b1712cc29b044688ea81d0c1eade3", "type": "electric_scooter", "lat": 38.896941, "is_reserved": 0, "lon": -77.02952133333334, "fusion_lon": 0.0, "is_disabled": 0, "fusion_lat": 0.0, "bike_id": "856b1712cc29b044688ea81d0c1eade3", "rental_uris": {"ios": "https://dc.lft.to/lastmile_qr_scan", "android": "https://dc.lft.to/lastmile_qr_scan"}}, {"name": "4e129759c55ae9e181d72a470ec506cc", "type": "electric_scooter", "lat": 38.905894, "is_reserved": 0, "lon": -77.0652385, "fusion_lon": 0.0, "is_disabled": 0, "fusion_lat": 0.0, "bike_id": "4e129759c55ae9e181d72a470ec506cc", "rental_uris": {"ios": "https://dc.lft.to/lastmile_qr_scan", "android": "https://dc.lft.to/lastmile_qr_scan"}}, {"name": "5241a4ab795ee3b7d3f95a35ebfa453c", "type": "electric_scooter", "lat": 38.92066283333333, "is_reserved": 0, "lon": -76.9780145, "fusion_lon": 0.0, "is_disabled": 0, "fusion_lat": 0.0, "bike_id": "5241a4ab795ee3b7d3f95a35ebfa453c", "rental_uris": {"ios": "https://dc.lft.to/lastmile_qr_scan", "android": "https://dc.lft.to/lastmile_qr_scan"}}, {"name": "89f7632869d108e1ba72f9682f8235dd", "type": "electric_scooter", "lat": 38.9051555, "is_reserved": 0, "lon": -77.06390766666667, "fusion_lon": 0.0, "is_disabled": 0, "fusion_lat": 0.0, "bike_id": "89f7632869d108e1ba72f9682f8235dd", "rental_uris": {"ios": "https://dc.lft.to/lastmile_qr_scan", "android": "https://dc.lft.to/lastmile_qr_scan"}}, {"name": "ce8f827edcecfdf8b865f8c41ade6880", "type": "electric_scooter", "lat": 38.90968933333333, "is_reserved": 0, "lon": -77.0112705, "fusion_lon": 0.0, "is_disabled": 0, "fusion_lat": 0.0, "bike_id": "ce8f827edcecfdf8b865f8c41ade6880", "rental_uris": {"ios": "https://dc.lft.to/lastmile_qr_scan", "android": "https://dc.lft.to/lastmile_qr_scan"}}, {"name": "9db94f5c5e92b1aa596f94de5efb1283", "type": "electric_scooter", "lat": 38.90586916666667, "is_reserved": 0, "lon": -77.065196, "fusion_lon": 0.0, "is_disabled": 0, "fusion_lat": 0.0, "bike_id": "9db94f5c5e92b1aa596f94de5efb1283", "rental_uris": {"ios": "https://dc.lft.to/lastmile_qr_scan", "android": "https://dc.lft.to/lastmile_qr_scan"}}, {"name": "cada007d5d7628cd0992461c56e597c4", "type": "electric_scooter", "lat": 38.926354833333335, "is_reserved": 0, "lon": -77.03509133333333, "fusion_lon": 0.0, "is_disabled": 0, "fusion_lat": 0.0, "bike_id": "cada007d5d7628cd0992461c56e597c4", "rental_uris": {"ios": "https://dc.lft.to/lastmile_qr_scan", "android": "https://dc.lft.to/lastmile_qr_scan"}}, {"name": "d4709fd3d78736f4caedfa86783d808d", "type": "electric_bike", "lat": 38.95532733333334, "is_reserved": 0, "lon": -77.0229335, "fusion_lon": 0.0, "is_disabled": 0, "fusion_lat": 0.0, "bike_id": "d4709fd3d78736f4caedfa86783d808d", "rental_uris": {"ios": "https://dc.lft.to/lastmile_qr_scan", "android": "https://dc.lft.to/lastmile_qr_scan"}}, {"name": "02cf0198c4ca90d6a85738c0aa3ca752", "type": "electric_scooter", "lat": 38.92752566666667, "is_reserved": 0, "lon": -77.032692, "fusion_lon": 0.0, "is_disabled": 0, "fusion_lat": 0.0, "bike_id": "02cf0198c4ca90d6a85738c0aa3ca752", "rental_uris": {"ios": "https://dc.lft.to/lastmile_qr_scan", "android": "https://dc.lft.to/lastmile_qr_scan"}}, {"name": "916a9c9c5eb0ae885a0cfe0e7c64e2f0", "type": "electric_scooter", "lat": 38.919732333333336, "is_reserved": 0, "lon": -77.00107, "fusion_lon": 0.0, "is_disabled": 0, "fusion_lat": 0.0, "bike_id": "916a9c9c5eb0ae885a0cfe0e7c64e2f0", "rental_uris": {"ios": "https://dc.lft.to/lastmile_qr_scan", "android": "https://dc.lft.to/lastmile_qr_scan"}}, {"name": "fb4e1e6d8110fe896a80630e27f125aa", "type": "electric_bike", "lat": 38.8659635, "is_reserved": 0, "lon": -76.93230833333334, "fusion_lon": 0.0, "is_disabled": 0, "fusion_lat": 0.0, "bike_id": "fb4e1e6d8110fe896a80630e27f125aa", "rental_uris": {"ios": "https://dc.lft.to/lastmile_qr_scan", "android": "https://dc.lft.to/lastmile_qr_scan"}}, {"name": "cdf5f4b5d60cd9f89c02f8d6131733a1", "type": "electric_scooter", "lat": 38.897148, "is_reserved": 0, "lon": -77.02722016666667, "fusion_lon": 0.0, "is_disabled": 0, "fusion_lat": 0.0, "bike_id": "cdf5f4b5d60cd9f89c02f8d6131733a1", "rental_uris": {"ios": "https://dc.lft.to/lastmile_qr_scan", "android": "https://dc.lft.to/lastmile_qr_scan"}}, {"name": "30eb5ec733513b9998e8f915026ba84f", "type": "electric_bike", "lat": 38.80697266666667, "is_reserved": 0, "lon": -77.059551, "fusion_lon": 0.0, "is_disabled": 0, "fusion_lat": 0.0, "bike_id": "30eb5ec733513b9998e8f915026ba84f", "rental_uris": {"ios": "https://dc.lft.to/lastmile_qr_scan", "android": "https://dc.lft.to/lastmile_qr_scan"}}, {"name": "394d1556db0ea25a6abc5cdc8c3b350f", "type": "electric_scooter", "lat": 38.90276466666667, "is_reserved": 0, "lon": -77.04068433333333, "fusion_lon": 0.0, "is_disabled": 0, "fusion_lat": 0.0, "bike_id": "394d1556db0ea25a6abc5cdc8c3b350f", "rental_uris": {"ios": "https://dc.lft.to/lastmile_qr_scan", "android": "https://dc.lft.to/lastmile_qr_scan"}}, {"name": "2e6b8709691a426cdaeb59dd349aff03", "type": "electric_bike", "lat": 38.85221516666667, "is_reserved": 0, "lon": -77.129608, "fusion_lon": 0.0, "is_disabled": 0, "fusion_lat": 0.0, "bike_id": "2e6b8709691a426cdaeb59dd349aff03", "rental_uris": {"ios": "https://dc.lft.to/lastmile_qr_scan", "android": "https://dc.lft.to/lastmile_qr_scan"}}, {"name": "09a81427aad157badf842b4fa2261b00", "type": "electric_scooter", "lat": 38.93950266666667, "is_reserved": 0, "lon": -77.03263183333334, "fusion_lon": 0.0, "is_disabled": 0, "fusion_lat": 0.0, "bike_id": "09a81427aad157badf842b4fa2261b00", "rental_uris": {"ios": "https://dc.lft.to/lastmile_qr_scan", "android": "https://dc.lft.to/lastmile_qr_scan"}}, {"name": "34676ab095775c867236c7ca860f6c96", "type": "electric_scooter", "lat": 38.885945666666665, "is_reserved": 0, "lon": -76.95264583333334, "fusion_lon": 0.0, "is_disabled": 0, "fusion_lat": 0.0, "bike_id": "34676ab095775c867236c7ca860f6c96", "rental_uris": {"ios": "https://dc.lft.to/lastmile_qr_scan", "android": "https://dc.lft.to/lastmile_qr_scan"}}, {"name": "a0ca45d65c16cde7da59d427b407b073", "type": "electric_bike", "lat": 38.832394, "is_reserved": 0, "lon": -77.00723466666666, "fusion_lon": 0.0, "is_disabled": 0, "fusion_lat": 0.0, "bike_id": "a0ca45d65c16cde7da59d427b407b073", "rental_uris": {"ios": "https://dc.lft.to/lastmile_qr_scan", "android": "https://dc.lft.to/lastmile_qr_scan"}}, {"name": "86b6a349073e730c160cbc2d914e849d", "type": "electric_scooter", "lat": 38.92334433333333, "is_reserved": 0, "lon": -77.036608, "fusion_lon": 0.0, "is_disabled": 0, "fusion_lat": 0.0, "bike_id": "86b6a349073e730c160cbc2d914e849d", "rental_uris": {"ios": "https://dc.lft.to/lastmile_qr_scan", "android": "https://dc.lft.to/lastmile_qr_scan"}}, {"name": "e9c2a6b44189bfc74ed36742d7b44d3f", "type": "electric_bike", "lat": 38.984589, "is_reserved": 0, "lon": -76.95530566666666, "fusion_lon": 0.0, "is_disabled": 0, "fusion_lat": 0.0, "bike_id": "e9c2a6b44189bfc74ed36742d7b44d3f", "rental_uris": {"ios": "https://dc.lft.to/lastmile_qr_scan", "android": "https://dc.lft.to/lastmile_qr_scan"}}, {"name": "70e0b15ba8fbcb7ccb5ac72e3503d2ad", "type": "electric_scooter", "lat": 38.88716683333333, "is_reserved": 0, "lon": -77.0258375, "fusion_lon": 0.0, "is_disabled": 0, "fusion_lat": 0.0, "bike_id": "70e0b15ba8fbcb7ccb5ac72e3503d2ad", "rental_uris": {"ios": "https://dc.lft.to/lastmile_qr_scan", "android": "https://dc.lft.to/lastmile_qr_scan"}}, {"name": "db5141474ea82b277631fa4278e49a66", "type": "electric_scooter", "lat": 38.9276175, "is_reserved": 0, "lon": -77.05362466666666, "fusion_lon": 0.0, "is_disabled": 0, "fusion_lat": 0.0, "bike_id": "db5141474ea82b277631fa4278e49a66", "rental_uris": {"ios": "https://dc.lft.to/lastmile_qr_scan", "android": "https://dc.lft.to/lastmile_qr_scan"}},