{"data": {"bikes": [{"is_disabled": 0, "is_reserved": 0, "fusion_lat": 0.0, "lat": 38.90269833333333, "fusion_lon": 0.0, "rental_uris": {"ios": "https://dc.lft.to/lastmile_qr_scan", "android": "https://dc.lft.to/lastmile_qr_scan"}, "lon": -77.0176505, "bike_id": "94f6dc998e9b3f90c3e241bbb889612b", "type": "electric_scooter", "name": "94f6dc998e9b3f90c3e241bbb889612b"}, {"is_disabled": 0, "is_reserved": 0, "fusion_lat": 0.0, "lat": 38.90150416666667, "fusion_lon": 0.0, "rental_uris": {"ios": "https://dc.lft.to/lastmile_qr_scan", "android": "https://dc.lft.to/lastmile_qr_scan"}, "lon": -77.04147, "bike_id": "c4655b07790741317495816a842ef14c", "type": "electric_scooter", "name": "c4655b07790741317495816a842ef14c"}, {"is_disabled": 0, "is_reserved": 0, "fusion_lat": 0.0, "lat": 38.87677683333333, "fusion_lon": 0.0, "rental_uris": {"ios": "https://dc.lft.to/lastmile_qr_scan", "android": "https://dc.lft.to/lastmile_qr_scan"}, "lon": -77.0006315, "bike_id": "84535a43f6d163f856c4f2e8abec5fe4", "type": "electric_scooter", "name": "84535a43f6d163f856c4f2e8abec5fe4"}, {"is_disabled": 0, "is_reserved": 0, "fusion_lat": 0.0, "lat": 38.901952333333334, "fusion_lon": 0.0, "rental_uris": {"ios": "https://dc.lft.to/lastmile_qr_scan", "android": "https://dc.lft.to/lastmile_qr_scan"}, "lon": -76.98839183333334, "bike_id": "0b0b85b448db6fdda4d4f256b0fe2901", "type": "electric_scooter", "name": "0b0b85b448db6fdda4d4f256b0fe2901"}, {"is_disabled": 0, "is_reserved": 0, "fusion_lat": 0.0, "lat": 38.90189633333333, "fusion_lon": 0.0, "rental_uris": {"ios": "https://dc.lft.to/lastmile_qr_scan", "android": "https://dc.lft.to/lastmile_qr_scan"}, "lon": -76.99957816666667, "bike_id": "3f40cd747522396eaf8bf0fb33e00def", "type": "electric_scooter", "name": "3f40cd747522396eaf8bf0fb33e00def"}, {"is_disabled": 0, "is_reserved": 0, "fusion_lat": 0.0, "lat": 38.80741233333333, "fusion_lon": 0.0, "rental_uris": {"ios": "https://dc.lft.to/lastmile_qr_scan", "android": "https://dc.lft.to/lastmile_qr_scan"}, "lon": -77.0968535, "bike_id": "0674d7932051d96b34ae4ef22d90c7a5", "type": "electric_bike", "name": "0674d7932051d96b34ae4ef22d90c7a5"}, {"is_disabled": 0, "is_reserved": 0, "fusion_lat": 0.0, "lat": 38.897316333333336, "fusion_lon": 0.0, "rental_uris": {"ios": "https://dc.lft.to/lastmile_qr_scan", "android": "https://dc.lft.to/lastmile_qr_scan"}, "lon": -76.99139166666667, "bike_id": "a89eddd95e599559e9160e94900b07b5", "type": "electric_scooter", "name": "a89eddd95e599559e9160e94900b07b5"}, {"is_disabled": 0, "is_reserved": 0, "fusion_lat": 0.0, "lat": 38.87175583333333, "fusion_lon": 0.0, "rental_uris": {"ios": "https://dc.lft.to/lastmile_qr_scan", "android": "https://dc.lft.to/lastmile_qr_scan"}, "lon": -77.23390016666667, "bike_id": "a28f4e18cfc1a924ec3d3e41d1e582ed", "type": "electric_bike", "name": "a28f4e18cfc1a924ec3d3e41d1e582ed"}, {"is_disabled": 0, "is_reserved": 0, "fusion_lat": 0.0, "lat": 38.89363633333333, "fusion_lon": 0.0, "rental_uris": {"ios": "https://dc.lft.to/lastmile_qr_scan", "android": "https://dc.lft.to/lastmile_qr_scan"}, "lon": -76.94108416666667, "bike_id": "b147d72708fa608ccdef5ee16e286d61", "type": "electric_scooter", "name": "b147d72708fa608ccdef5ee16e286d61"}, {"is_disabled": 0, "is_reserved": 0, "fusion_lat": 0.0, "lat": 38.91410583333333, "fusion_lon": 0.0, "rental_uris": {"ios": "https://dc.lft.to/lastmile_qr_scan", "android": "https://dc.lft.to/lastmile_qr_scan"}, "lon": -77.03262416666666, "bike_id": "7498f3b4ceb73ec8991573edea5a9759", "type": "electric_scooter", "name": "7498f3b4ceb73ec8991573edea5a9759"}, {"is_disabled": 0, "is_reserved": 0, "fusion_lat": 0.0, "lat": 38.903741333333336, "fusion_lon": 0.0, "rental_uris": {"ios": "https://dc.lft.to/lastmile_qr_scan", "android": "https://dc.lft.to/lastmile_qr_scan"}, "lon": -77.02947516666667, "bike_id": "902edacef78769c2b790a9bf0404accc", "type": "electric_scooter", "name": "902edacef78769c2b790a9bf0404accc"}, {"is_disabled": 0, "is_reserved": 0, "fusion_lat": 0.0, "lat": 38.90937183333333, "fusion_lon": 0.0, "rental_uris": {"ios": "https://dc.lft.to/lastmile_qr_scan", "android": "https://dc.lft.to/lastmile_qr_scan"}, "lon": -77.03170283333333, "bike_id": "c78d80346feb8aa5bafd11a444b45622", "type": "electric_scooter", "name": "c78d80346feb8aa5bafd11a444b45622"}, {"is_disabled": 0, "is_reserved": 0, "fusion_lat": 0.0, "lat": 38.915327, "fusion_lon": 0.0, "rental_uris": {"ios": "https://dc.lft.to/lastmile_qr_scan", "android": "https://dc.lft.to/lastmile_qr_scan"}, "lon": -77.066601, "bike_id": "a6b20a5498dda2449d326d9a0522734a", "type": "electric_bike", "name": "a6b20a5498dda2449d326d9a0522734a"}, {"is_disabled": 0, "is_reserved": 0, "fusion_lat": 0.0, "lat": 38.902314833333335, "fusion_lon": 0.0, "rental_uris": {"ios": "https://dc.lft.to/lastmile_qr_scan", "android": "https://dc.lft.to/lastmile_qr_scan"}, "lon": -77.00070983333333, "bike_id": "1a0f8ec2a83472e0c254a9ec98d899aa", "type": "electric_scooter", "name": "1a0f8ec2a83472e0c254a9ec98d899aa"}, {"is_disabled": 0, "is_reserved": 0, "fusion_lat": 0.0, "lat": 38.91829933333333, "fusion_lon": 0.0, "rental_uris": {"ios": "https://dc.lft.to/lastmile_qr_scan", "android": "https://dc.lft.to/lastmile_qr_scan"}, "lon": -77.04172516666667, "bike_id": "e7b442e67dcbfa780f29e4ff6b4fa834", "type": "electric_scooter", "name": "e7b442e67dcbfa780f29e4ff6b4fa834"}, {"is_disabled": 0, "is_reserved": 0, "fusion_lat": 0.0, "lat": 38.897321833333336, "fusion_lon": 0.0, "rental_uris": {"ios": "https://dc.lft.to/lastmile_qr_scan", "android": "https://dc.lft.to/lastmile_qr_scan"}, "lon": -77.04990066666667, "bike_id": "8741d613d29800cd6b51f039c867d531", "type": "electric_scooter", "name": "8741d613d29800cd6b51f039c867d531"}, {"is_disabled": 0, "is_reserved": 0, "fusion_lat": 0.0, "lat": 38.91695416666666, "fusion_lon": 0.0, "rental_uris": {"ios": "https://dc.lft.to/lastmile_qr_scan", "android": "https://dc.lft.to/lastmile_qr_scan"}, "lon": -77.02723316666666, "bike_id": "d67bbb82eac58d4ae69266f753253136", "type": "electric_scooter", "name": "d67bbb82eac58d4ae69266f753253136"}, {"is_disabled": 0, "is_reserved": 0, "fusion_lat": 0.0, "lat": 38.99998166666666, "fusion_lon": 0.0, "rental_uris": {"ios": "https://dc.lft.to/lastmile_qr_scan", "android": "https://dc.lft.to/lastmile_qr_scan"}, "lon": -76.91805316666667, "bike_id": "1594d701e926634fe9c31569a0a4faf5", "type": "electric_bike", "name": "1594d701e926634fe9c31569a0a4faf5"}, {"is_disabled": 0, "is_reserved": 0, "fusion_lat": 0.0, "lat": 38.87101783333333, "fusion_lon": 0.0, "rental_uris": {"ios": "https://dc.lft.to/lastmile_qr_scan", "android": "https://dc.lft.to/lastmile_qr_scan"}, "lon": -77.00793516666667, "bike_id": "6a8c084c7e90f5205e8f97df2967aec6", "type": "electric_scooter", "name": "6a8c084c7e90f5205e8f97df2967aec6"}, {"is_disabled": 0, "is_reserved": 0, "fusion_lat": 0.0, "lat": 38.899856166666666, "fusion_lon": 0.0, "rental_uris": {"ios": "https://dc.lft.to/lastmile_qr_scan", "android": "https://dc.lft.to/lastmile_qr_scan"}, "lon": -76.99485, "bike_id": "7bbd3e88083a4b171a4747ca3335b6f7", "type": "electric_bike", "name": "7bbd3e88083a4b171a4747ca3335b6f7"}, {"is_disabled": 0, "is_reserved": 0, "fusion_lat": 0.0, "lat": 38.9130505, "fusion_lon": 0.0, "rental_uris": {"ios": "https://dc.lft.to/lastmile_qr_scan", "android": "https://dc.lft.to/lastmile_qr_scan"}, "lon": -77.04329616666666, "bike_id": "6b95aaea9b65f1f9c4cb1cc2c83863e3", "type": "electric_scooter", "name": "6b95aaea9b65f1f9c4cb1cc2c83863e3"}, {"is_disabled": 0, "is_reserved": 0, "fusion_lat": 0.0, "lat": 38.90906716666667, "fusion_lon": 0.0, "rental_uris": {"ios": "https://dc.lft.to/lastmile_qr_scan", "android": "https://dc.lft.to/lastmile_qr_scan"}, "lon": -77.0351315, "bike_id": "e1e0e155c15ed4c788e6f5d968b16b99", "type": "electric_scooter", "name": "e1e0e155c15ed4c788e6f5d968b16b99"}, {"is_disabled": 0, "is_reserved": 0, "fusion_lat": 0.0, "lat": 38.89220233333333, "fusion_lon": 0.0, "rental_uris": {"ios": "https://dc.lft.to/lastmile_qr_scan", "android": "https://dc.lft.to/lastmile_qr_scan"}, "lon": -77.02417516666667, "bike_id": "e3628d4d3f124a97a012704e4feff7a6", "type": "electric_scooter", "name": "e3628d4d3f124a97a012704e4feff7a6"}, {"is_disabled": 0, "is_reserved": 0, "fusion_lat": 0.0, "lat": 38.90157683333334, "fusion_lon": 0.0, "rental_uris": {"ios": "https://dc.lft.to/lastmile_qr_scan", "android": "https://dc.lft.to/lastmile_qr_scan"}, "lon": -77.0380175, "bike_id": "cd28b0070515ef2227c5c7452765c4e3", "type": "electric_scooter", "name": "cd28b0070515ef2227c5c7452765c4e3"}, {"is_disabled": 0, "is_reserved": 0, "fusion_lat": 0.0, "lat": 38.931427666666664, "fusion_lon": 0.0, "rental_uris": {"ios": "https://dc.lft.to/lastmile_qr_scan", "android": "https://dc.lft.to/lastmile_qr_scan"}, "lon": -77.056944, "bike_id": "619bfeb5af2e63629d3633e6a17e2990", "type": "electric_scooter", "name": "619bfeb5af2e63629d3633e6a17e2990"}, {"is_disabled": 0, "is_reserved": 0, "fusion_lat": 0.0, "lat": 38.89716133333334, "fusion_lon": 0.0, "rental_uris": {"ios": "https://dc.lft.to/lastmile_qr_scan", "android": "https://dc.lft.to/lastmile_qr_scan"}, "lon": -77.0237735, "bike_id": "bf9dcfc15e3d18f8d6fffb89787723ef", "type": "electric_scooter", "name": "bf9dcfc15e3d18f8d6fffb89787723ef"}, {"is_disabled": 0, "is_reserved": 0, "fusion_lat": 0.0, "lat": 38.900124166666664, "fusion_lon": 0.0, "rental_uris": {"ios": "https://dc.lft.to/lastmile_qr_scan", "android": "https://dc.lft.to/lastmile_qr_scan"}, "lon": -77.00347966666666, "bike_id": "c13cda03a2f8cee97f28beba2394bb54", "type": "electric_scooter", "name": "c13cda03a2f8cee97f28beba2394bb54"}, {"is_disabled": 0, "is_reserved": 0, "fusion_lat": 0.0, "lat": 38.901344333333334, "fusion_lon": 0.0, "rental_uris": {"ios": "https://dc.lft.to/lastmile_qr_scan", "android": "https://dc.lft.to/lastmile_qr_scan"}, "lon": -77.027843, "bike_id": "bf51936168021d4f04df9a66053799a7", "type": "electric_scooter", "name": "bf51936168021d4f04df9a66053799a7"}, {"is_disabled": 0, "is_reserved": 0, "fusion_lat": 0.0, "lat": 38.915959666666666, "fusion_lon": 0.0, "rental_uris": {"ios": "https://dc.lft.to/lastmile_qr_scan", "android": "https://dc.lft.to/lastmile_qr_scan"}, "lon": -76.9828915, "bike_id": "837814d97430cc54bbec24dc71cd0e76", "type": "electric_scooter", "name": "837814d97430cc54bbec24dc71cd0e76"}, {"is_disabled": 0, "is_reserved": 0, "fusion_lat": 0.0, "lat": 38.924857, "fusion_lon": 0.0, "rental_uris": {"ios": "https://dc.lft.to/lastmile_qr_scan", "android": "https://dc.lft.to/lastmile_qr_scan"}, "lon": -77.03184733333333, "bike_id": "0f9f18a40682d3327e5669ce06d06a1f", "type": "electric_scooter", "name": "0f9f18a40682d3327e5669ce06d06a1f"}, {"is_disabled": 0, "is_reserved": 0, "fusion_lat": 0.0, "lat": 38.93462516666666, "fusion_lon": 0.0, "rental_uris": {"ios": "https://dc.lft.to/lastmile_qr_scan", "android": "https://dc.lft.to/lastmile_qr_scan"}, "lon": -77.02768883333333, "bike_id": "56a6f3abbe0198d643358319521da6a3", "type": "electric_scooter", "name": "56a6f3abbe0198d643358319521da6a3"}, {"is_disabled": 0, "is_reserved": 0, "fusion_lat": 0.0, "lat": 38.84055266666667, "fusion_lon": 0.0, "rental_uris": {"ios": "https://dc.lft.to/lastmile_qr_scan", "android": "https://dc.lft.to/lastmile_qr_scan"}, "lon": -76.97589783333333, "bike_id": "86746f2b6a9e7cc9cc13cee39acedf06", "type": "electric_bike", "name": "86746f2b6a9e7cc9cc13cee39acedf06"}, {"is_disabled": 0, "is_reserved": 0, "fusion_lat": 0.0, "lat": 38.90187016666667, "fusion_lon": 0.0, "rental_uris": {"ios": "https://dc.lft.to/lastmile_qr_scan", "android": "https://dc.lft.to/lastmile_qr_scan"}, "lon": -77.0021835, "bike_id": "1ae81cd25a8d585a260172f42aaac92e", "type": "electric_scooter", "name": "1ae81cd25a8d585a260172f42aaac92e"}, {"is_disabled": 0, "is_reserved": 0, "fusion_lat": 0.0, "lat": 38.866321666666664, "fusion_lon": 0.0, "rental_uris": {"ios": "https://dc.lft.to/lastmile_qr_scan", "android": "https://dc.lft.to/lastmile_qr_scan"}, "lon": -76.982585, "bike_id": "2f1a8f465fa60d6506b78e812ca50088", "type": "electric_scooter", "name": "2f1a8f465fa60d6506b78e812ca50088"}, {"is_disabled": 0, "is_reserved": 0, "fusion_lat": 0.0, "lat": 38.876394833333336, "fusion_lon": 0.0, "rental_uris": {"ios": "https://dc.lft.to/lastmile_qr_scan", "android": "https://dc.lft.to/lastmile_qr_scan"}, "lon": -76.99294933333333, "bike_id": "696025965489d15162b6c95edfe1a88f", "type": "electric_scooter", "name": "696025965489d15162b6c95edfe1a88f"}, {"is_disabled": 0, "is_reserved": 0, "fusion_lat": 0.0, "lat": 38.964364833333335, "fusion_lon": 0.0, "rental_uris": {"ios": "https://dc.lft.to/lastmile_qr_scan", "android": "https://dc.lft.to/lastmile_qr_scan"}, "lon": -77.03187583333333, "bike_id": "6aab1521d1046e6ed27acb6f69656ce9", "type": "electric_bike", "name": "6aab1521d1046e6ed27acb6f69656ce9"}, {"is_disabled": 0, "is_reserved": 0, "fusion_lat": 0.0, "lat": 38.9283335, "fusion_lon": 0.0, "rental_uris": {"ios": "https://dc.lft.to/lastmile_qr_scan", "android": "https://dc.lft.to/lastmile_qr_scan"}, "lon": -77.036981, "bike_id": "5f5984563ee60ddd094e319896bc519b", "type": "electric_scooter", "name": "5f5984563ee60ddd094e319896bc519b"}, {"is_disabled": 0, "is_reserved": 0, "fusion_lat": 0.0, "lat": 38.9289295, "fusion_lon": 0.0, "rental_uris": {"ios": "https://dc.lft.to/lastmile_qr_scan", "android": "https://dc.lft.to/lastmile_qr_scan"}, "lon": -77.01943866666667, "bike_id": "864e036153682a181e10604d98bc6d94", "type": "electric_scooter", "name": "864e036153682a181e10604d98bc6d94"}, {"is_disabled": 0, "is_reserved": 0, "fusion_lat": 0.0, "lat": 38.9185395, "fusion_lon": 0.0, "rental_uris": {"ios": "https://dc.lft.to/lastmile_qr_scan", "android": "https://dc.lft.to/lastmile_qr_scan"}, "lon": -76.96554183333333, "bike_id": "1a9ad472939e200c62de994c288c4ad5", "type": "electric_scooter", "name": "1a9ad472939e200c62de994c288c4ad5"}, {"is_disabled": 0, "is_reserved": 0, "fusion_lat": 0.0, "lat": 38.8950735, "fusion_lon": 0.0, "rental_uris": {"ios": "https://dc.lft.to/lastmile_qr_scan", "android": "https://dc.lft.to/lastmile_qr_scan"}, "lon": -77.022905, "bike_id": "7f8c2238d7af3e2d13d05a7be10315cd", "type": "electric_scooter", "name": "7f8c2238d7af3e2d13d05a7be10315cd"}, {"is_disabled": 0, "is_reserved": 0, "fusion_lat": 0.0, "lat": 38.883950166666665, "fusion_lon": 0.0, "rental_uris": {"ios": "https://dc.lft.to/lastmile_qr_scan", "android": "https://dc.lft.to/lastmile_qr_scan"}, "lon": -76.9950955, "bike_id": "5feaeb6a60382351aeaeb6fcf364889f", "type": "electric_scooter", "name": "5feaeb6a60382351aeaeb6fcf364889f"}, {"is_disabled": 0, "is_reserved": 0, "fusion_lat": 0.0, "lat": 38.936624333333334, "fusion_lon": 0.0, "rental_uris": {"ios": "https://dc.lft.to/lastmile_qr_scan", "android": "https://dc.lft.to/lastmile_qr_scan"}, "lon": -77.06608683333333, "bike_id": "0ccb7ff906d1c919408bbd3db788f4c7", "type": "electric_scooter", "name": "0ccb7ff906d1c919408bbd3db788f4c7"}, {"is_disabled": 0, "is_reserved": 0, "fusion_lat": 0.0, "lat": 38.91787166666667, "fusion_lon": 0.0, "rental_uris": {"ios": "https://dc.lft.to/lastmile_qr_scan", "android": "https://dc.lft.to/lastmile_qr_scan"}, "lon": -77.02372733333333, "bike_id": "6b35fbaf0d7757c2fb55c908f44091df", "type": "electric_scooter", "name": "6b35fbaf0d7757c2fb55c908f44091df"}, {"is_disabled": 0, "is_reserved": 0, "fusion_lat": 0.0, "lat": 38.91468533333333, "fusion_lon": 0.0, "rental_uris": {"ios": "https://dc.lft.to/lastmile_qr_scan", "android": "https://dc.lft.to/lastmile_qr_scan"}, "lon": -77.00208466666666, "bike_id": "34b05b42992a963737a644471039f72c", "type": "electric_scooter", "name": "34b05b42992a963737a644471039f72c"}, {"is_disabled": 0, "is_reserved": 0, "fusion_lat": 0.0, "lat": 38.941627, "fusion_lon": 0.0, "rental_uris": {"ios": "https://dc.lft.to/lastmile_qr_scan", "android": "https://dc.lft.to/lastmile_qr_scan"}, "lon": -76.99405166666666, "bike_id": "166385b7b3f4616d13150a4d1b10dda6", "type": "electric_bike", "name": "166385b7b3f4616d13150a4d1b10dda6"}, {"is_disabled": 0, "is_reserved": 0, "fusion_lat": 0.0, "lat": 38.9574605, "fusion_lon": 0.0, "rental_uris": {"ios": "https://dc.lft.to/lastmile_qr_scan", "android": "https://dc.lft.to/lastmile_qr_scan"}, "lon": -77.02324266666666, "bike_id": "128d1a2380360ee72ca1da5015677287", "type": "electric_scooter", "name": "128d1a2380360ee72ca1da5015677287"}, {"is_disabled": 0, "is_reserved": 0, "fusion_lat": 0.0, "lat": 38.875704166666665, "fusion_lon": 0.0, "rental_uris": {"ios": "https://dc.lft.to/lastmile_qr_scan", "android": "https://dc.lft.to/lastmile_qr_scan"}, "lon": -77.00600083333333, "bike_id": "cd8e9a3f3d739e445d0dfede1f71cc86", "type": "electric_scooter", "name": "cd8e9a3f3d739e445d0dfede1f71cc86"}, {"is_disabled": 0, "is_reserved": 0, "fusion_lat": 0.0, "lat": 38.92611733333333, "fusion_lon": 0.0, "rental_uris": {"ios": "https://dc.lft.to/lastmile_qr_scan", "android": "https://dc.lft.to/lastmile_qr_scan"}, "lon": -77.00651333333333, "bike_id": "8f3825a65070561b926bfbf78c7ee351", "type": "electric_scooter", "name": "8f3825a65070561b926bfbf78c7ee351"}, {"is_disabled": 0, "is_reserved": 0, "fusion_lat": 0.0, "lat": 38.9126355, "fusion_lon": 0.0, "rental_uris": {"ios": "https://dc.lft.to/lastmile_qr_scan", "android": "https://dc.lft.to/lastmile_qr_scan"}, "lon": -77.04788766666667, "bike_id": "800b83a8890cadc9a3e2eb62ab8465f4", "type": "electric_scooter", "name": "800b83a8890cadc9a3e2eb62ab8465f4"}, {"is_disabled": 0, "is_reserved": 0, "fusion_lat": 0.0, "lat": 38.90175133333334, "fusion_lon": 0.0, "rental_uris": {"ios": "https://dc.lft.to/lastmile_qr_scan", "android": "https://dc.lft.to/lastmile_qr_scan"}, "lon": -77.00213366666667, "bike_id": "ae331eb824649e65d6b449415ba1e879", "type": "electric_scooter", "name": "ae331eb824649e65d6b449415ba1e879"}, {"is_disabled": 0, "is_reserved": 0, "fusion_lat": 0.0, "lat": 38.90034133333333, "fusion_lon": 0.0, "rental_uris": {"ios": "https://dc.lft.to/lastmile_qr_scan", "android": "https://dc.lft.to/lastmile_qr_scan"}, "lon": -76.9902775, "bike_id": "7d843e45fceb9e85b8cb856ad026609f", "type": "electric_bike", "name": "7d843e45fceb9e85b8cb856ad026609f"}, {"is_disabled": 0, "is_reserved": 0, "fusion_lat": 0.0, "lat": 38.926104, "fusion_lon": 0.0, "rental_uris": {"ios": "https://dc.lft.to/lastmile_qr_scan", "android": "https://dc.lft.to/lastmile_qr_scan"}, "lon": -77.02158816666666, "bike_id": "2374741cff38d68d9d5158f2924d5ee8", "type": "electric_scooter", "name": "2374741cff38d68d9d5158f2924d5ee8"}, {"is_disabled": 0, "is_reserved": 0, "fusion_lat": 0.0, "lat": 38.93969883333333, "fusion_lon": 0.0, "rental_uris": {"ios": "https://dc.lft.to/lastmile_qr_scan", "android": "https://dc.lft.to/lastmile_qr_scan"}, "lon": -77.0325475, "bike_id": "74c43489aa1f7436f8b1c9f099ab41ee", "type": "electric_scooter", "name": "74c43489aa1f7436f8b1c9f099ab41ee"}, {"is_disabled": 0, "is_reserved": 0, "fusion_lat": 0.0, "lat": 38.915365666666666, "fusion_lon": 0.0, "rental_uris": {"ios": "https://dc.lft.to/lastmile_qr_scan", "android": "https://dc.lft.to/lastmile_qr_scan"}, "lon": -77.0754585, "bike_id": "231191e0b4217a1837003003dae1d49e", "type": "electric_scooter", "name": "231191e0b4217a1837003003dae1d49e"}, {"is_disabled": 0, "is_reserved": 0, "fusion_lat": 0.0, "lat": 38.893621833333334, "fusion_lon": 0.0, "rental_uris": {"ios": "https://dc.lft.to/lastmile_qr_scan", "android": "https://dc.lft.to/lastmile_qr_scan"}, "lon": -77.04475083333334, "bike_id": "146c5e017a0fe04a49eedd3ff3e28e3e", "type": "electric_scooter", "name": "146c5e017a0fe04a49eedd3ff3e28e3e"}, {"is_disabled": 0, "is_reserved": 0, "fusion_lat": 0.0, "lat": 39.0002245, "fusion_lon": 0.0, "rental_uris": {"ios": "https://dc.lft.to/lastmile_qr_scan", "android": "https://dc.lft.to/lastmile_qr_scan"}, "lon": -76.91059483333333, "bike_id": "6dc0b9ba52a90cac627c65c211e32a6d", "type": "electric_bike", "name": "6dc0b9ba52a90cac627c65c211e32a6d"}, {"is_disabled": 0, "is_reserved": 0, "fusion_lat": 0.0, "lat": 38.939822666666664, "fusion_lon": 0.0, "rental_uris": {"ios": "https://dc.lft.to/lastmile_qr_scan", "android": "https://dc.lft.to/lastmile_qr_scan"}, "lon": -77.01913116666667, "bike_id": "e004c9badb1256e31c9fc4a4a77bc23e", "type": "electric_scooter", "name": "e004c9badb1256e31c9fc4a4a77bc23e"}, {"is_disabled": 0, "is_reserved": 0, "fusion_lat": 0.0, "lat": 38.927783, "fusion_lon": 0.0, "rental_uris": {"ios": "https://dc.lft.to/lastmile_qr_scan", "android": "https://dc.lft.to/lastmile_qr_scan"}, "lon": -77.05267633333334, "bike_id": "4b96f5c68de3c50c4bf025b0efbb4c60", "type": "electric_scooter", "name": "4b96f5c68de3c50c4bf025b0efbb4c60"}, {"is_disabled": 0, "is_reserved": 0, "fusion_lat": 0.0, "lat": 38.8982935, "fusion_lon": 0.0, "rental_uris": {"ios": "https://dc.lft.to/lastmile_qr_scan", "android": "https://dc.lft.to/lastmile_qr_scan"}, "lon": -77.0280285, "bike_id": "442be444be24b78bde48da15dff1f50d", "type": "electric_scooter", "name": "442be444be24b78bde48da15dff1f50d"}, {"is_disabled": 0, "is_reserved": 0, "fusion_lat": 0.0, "lat": 38.916533333333334, "fusion_lon": 0.0, "rental_uris": {"ios": "https://dc.lft.to/lastmile_qr_scan", "android": "https://dc.lft.to/lastmile_qr_scan"}, "lon": -77.0318765, "bike_id": "86c7feccf2e298da91423dd4dd19b097", "type": "electric_scooter", "name": "86c7feccf2e298da91423dd4dd19b097"}, {"is_disabled": 0, "is_reserved": 0, "fusion_lat": 0.0, "lat": 38.915657833333334, "fusion_lon": 0.0, "rental_uris": {"ios": "https://dc.lft.to/lastmile_qr_scan", "android": "https://dc.lft.to/lastmile_qr_scan"}, "lon": -77.031424, "bike_id": "29df61d2318f190780c1cd429d6b4800", "type": "electric_scooter", "name": "29df61d2318f190780c1cd429d6b4800"}, {"is_disabled": 0, "is_reserved": 0, "fusion_lat": 0.0, "lat": 38.924162, "fusion_lon": 0.0, "rental_uris": {"ios": "https://dc.lft.to/lastmile_qr_scan", "android": "https://dc.lft.to/lastmile_qr_scan"}, "lon": -77.03542033333333, "bike_id": "7c2090452c39e61fcf2707393c5e3923", "type": "electric_scooter", "name": "7c2090452c39e61fcf2707393c5e3923"}, {"is_disabled": 0, "is_reserved": 0, "fusion_lat": 0.0, "lat": 38.90651666666667, "fusion_lon": 0.0, "rental_uris": {"ios": "https://dc.lft.to/lastmile_qr_scan", "android": "https://dc.lft.to/lastmile_qr_scan"}, "lon": -77.045578, "bike_id": "34141a46204198723910ebff8b358aad", "type": "electric_scooter", "name": "34141a46204198723910ebff8b358aad"}, {"is_disabled": 0, "is_reserved": 0, "fusion_lat": 0.0, "lat": 38.908282666666665, "fusion_lon": 0.0, "rental_uris": {"ios": "https://dc.lft.to/lastmile_qr_scan", "android": "https://dc.lft.to/lastmile_qr_scan"}, "lon": -77.0383875, "bike_id": "ec5497cd018c1c7bb1cf48e3944018a0", "type": "electric_bike", "name": "ec5497cd018c1c7bb1cf48e3944018a0"}, {"is_disabled": 0, "is_reserved": 0, "fusion_lat": 0.0, "lat": 38.905731833333334, "fusion_lon": 0.0, "rental_uris": {"ios": "https://dc.lft.to/lastmile_qr_scan", "android": "https://dc.lft.to/lastmile_qr_scan"}, "lon": -77.01718033333333, "bike_id": "1653f3468740f7eb6ebf376a515e33d6", "type": "electric_scooter", "name": "1653f3468740f7eb6ebf376a515e33d6"}, {"is_disabled": 0, "is_reserved": 0, "fusion_lat": 0.0, "lat": 38.912588, "fusion_lon": 0.0, "rental_uris": {"ios": "https://dc.lft.to/lastmile_qr_scan", "android": "https://dc.lft.to/lastmile_qr_scan"}, "lon": -77.04598516666667, "bike_id": "137a62f92b47d51e3b6061cc07e6f933", "type": "electric_scooter", "name": "137a62f92b47d51e3b6061cc07e6f933"}, {"is_disabled": 0, "is_reserved": 0, "fusion_lat": 0.0, "lat": 38.92406033333334, "fusion_lon": 0.0, "rental_uris": {"ios": "https://dc.lft.to/lastmile_qr_scan", "android": "https://dc.lft.to/lastmile_qr_scan"}, "lon": -77.051686, "bike_id": "b2b38a123794ae75e1d79b3614617c59", "type": "electric_scooter", "name": "b2b38a123794ae75e1d79b3614617c59"}, {"is_disabled": 0, "is_reserved": 0, "fusion_lat": 0.0, "lat": 38.90042716666667, "fusion_lon": 0.0, "rental_uris": {"ios": "https://dc.lft.to/lastmile_qr_scan", "android": "https://dc.lft.to/lastmile_qr_scan"}, "lon": -76.99501133333334, "bike_id": "fde9c67b46fa89e8e8c6c93f73ca3e7a", "type": "electric_scooter", "name": "fde9c67b46fa89e8e8c6c93f73ca3e7a"}, {"is_disabled": 0, "is_reserved": 0, "fusion_lat": 0.0, "lat": 38.94588366666667, "fusion_lon": 0.0, "rental_uris": {"ios": "https://dc.lft.to/lastmile_qr_scan", "android": "https://dc.lft.to/lastmile_qr_scan"}, "lon": -77.0203435, "bike_id": "9ef7e83da23b6ac3d4e8f7934c91caf9", "type": "electric_scooter", "name": "9ef7e83da23b6ac3d4e8f7934c91caf9"}, {"is_disabled": 0, "is_reserved": 0, "fusion_lat": 0.0, "lat": 38.919868666666666, "fusion_lon": 0.0, "rental_uris": {"ios": "https://dc.lft.to/lastmile_qr_scan", "android": "https://dc.lft.to/lastmile_qr_scan"}, "lon": -76.97302633333334, "bike_id": "717038737ac7635827347506b66f2d89", "type": "electric_scooter", "name": "717038737ac7635827347506b66f2d89"}, {"is_disabled": 0, "is_reserved": 0, "fusion_lat": 0.0, "lat": 38.8940595, "fusion_lon": 0.0, "rental_uris": {"ios": "https://dc.lft.to/lastmile_qr_scan", "android": "https://dc.lft.to/lastmile_qr_scan"}, "lon": -76.9781235, "bike_id": "9c934906ee49a6aaf479ddb405b66d98", "type": "electric_scooter", "name": "9c934906ee49a6aaf479ddb405b66d98"}, {"is_disabled": 0, "is_reserved": 0, "fusion_lat": 0.0, "lat": 38.84280866666667, "fusion_lon": 0.0, "rental_uris": {"ios": "https://dc.lft.to/lastmile_qr_scan", "android": "https://dc.lft.to/lastmile_qr_scan"}, "lon": -76.9883875, "bike_id": "3e84c3a9055ac9735169aeb62e9072a3", "type": "electric_bike", "name": "3e84c3a9055ac9735169aeb62e9072a3"}, {"is_disabled": 0, "is_reserved": 0, "fusion_lat": 0.0, "lat": 38.87335483333333, "fusion_lon": 0.0, "rental_uris": {"ios": "https://dc.lft.to/lastmile_qr_scan", "android": "https://dc.lft.to/lastmile_qr_scan"}, "lon": -77.000589, "bike_id": "7be5571d571351ff8205b450f910cbae", "type": "electric_scooter", "name": "7be5571d571351ff8205b450f910cbae"}, {"is_disabled": 0, "is_reserved": 0, "fusion_lat": 0.0, "lat": 38.9025975, "fusion_lon": 0.0, "rental_uris": {"ios": "https://dc.lft.to/lastmile_qr_scan", "android": "https://dc.lft.to/lastmile_qr_scan"}, "lon": -77.046657, "bike_id": "c024a50be2196c1a791728c7af12cbbe", "type": "electric_scooter", "name": "c024a50be2196c1a791728c7af12cbbe"}, {"is_disabled": 0, "is_reserved": 0, "fusion_lat": 0.0, "lat": 38.91036966666667, "fusion_lon": 0.0, "rental_uris": {"ios": "https://dc.lft.to/lastmile_qr_scan", "android": "https://dc.lft.to/lastmile_qr_scan"}, "lon": -77.03798333333333, "bike_id": "235cbcaefdf7998461afa8109f73e407", "type": "electric_scooter", "name": "235cbcaefdf7998461afa8109f73e407"}, {"is_disabled": 0, "is_reserved": 0, "fusion_lat": 0.0, "lat": 38.8981865, "fusion_lon": 0.0, "rental_uris": {"ios": "https://dc.lft.to/lastmile_qr_scan", "android": "https://dc.lft.to/lastmile_qr_scan"}, "lon": -77.00214616666666, "bike_id": "e04906e181a188dd910c37f94841f299", "type": "electric_scooter", "name": "e04906e181a188dd910c37f94841f299"}, {"is_disabled": 0, "is_reserved": 0, "fusion_lat": 0.0, "lat": 38.90184766666667, "fusion_lon": 0.0, "rental_uris": {"ios": "https://dc.lft.to/lastmile_qr_scan", "android": "https://dc.lft.to/lastmile_qr_scan"}, "lon": -77.0019345, "bike_id": "1075a041900d2b346c41b5a6c6dabcb7", "type": "electric_scooter", "name": "1075a041900d2b346c41b5a6c6dabcb7"}, {"is_disabled": 0, "is_reserved": 0, "fusion_lat": 0.0, "lat": 38.91040233333333, "fusion_lon": 0.0, "rental_uris": {"ios": "https://dc.lft.to/lastmile_qr_scan", "android": "https://dc.lft.to/lastmile_qr_scan"}, "lon": -76.93835516666667, "bike_id": "fd125689b5b1a221342349c5515fbd5c", "type": "electric_scooter", "name": "fd125689b5b1a221342349c5515fbd5c"}, {"is_disabled": 0, "is_reserved": 0, "fusion_lat": 0.0, "lat": 38.8990975, "fusion_lon": 0.0, "rental_uris": {"ios": "https://dc.lft.to/lastmile_qr_scan", "android": "https://dc.lft.to/lastmile_qr_scan"}, "lon": -76.980385, "bike_id": "2a59ef527a5237ac8737b99c0ec09bba", "type": "electric_scooter", "name": "2a59ef527a5237ac8737b99c0ec09bba"}, {"is_disabled": 0, "is_reserved": 0, "fusion_lat": 0.0, "lat": 38.908543, "fusion_lon": 0.0, "rental_uris": {"ios": "https://dc.lft.to/lastmile_qr_scan", "android": "https://dc.lft.to/lastmile_qr_scan"}, "lon": -76.99973133333333, "bike_id": "78153ede8fb01aa7c4ba7a137517fb90", "type": "electric_scooter", "name": "78153ede8fb01aa7c4ba7a137517fb90"}, {"is_disabled": 0, "is_reserved": 0, "fusion_lat": 0.0, "lat": 38.9480025, "fusion_lon": 0.0, "rental_uris": {"ios": "https://dc.lft.to/lastmile_qr_scan", "android": "https://dc.lft.to/lastmile_qr_scan"}, "lon": -77.0791685, "bike_id": "8221653d6fe4809f084361590dc63b86", "type": "electric_scooter", "name": "8221653d6fe4809f084361590dc63b86"}, {"is_disabled": 0, "is_reserved": 0, "fusion_lat": 0.0, "lat": 38.907743333333336, "fusion_lon": 0.0, "rental_uris": {"ios": "https://dc.lft.to/lastmile_qr_scan", "android": "https://dc.lft.to/lastmile_qr_scan"}, "lon": -77.02408116666666, "bike_id": "5f1ef86890f30d804050d27e3ca2165b", "type": "electric_scooter", "name": "5f1ef86890f30d804050d27e3ca2165b"}, {"is_disabled": 0, "is_reserved": 0, "fusion_lat": 0.0, "lat": 38.87719666666667, "fusion_lon": 0.0, "rental_uris": {"ios": "https://dc.lft.to/lastmile_qr_scan", "android": "https://dc.lft.to/lastmile_qr_scan"}, "lon": -77.00743483333333, "bike_id": "9eef63b74b9e5b063a21ca57d89127bd", "type": "electric_scooter", "name": "9eef63b74b9e5b063a21ca57d89127bd"}, {"is_disabled": 0, "is_reserved": 0, "fusion_lat": 0.0, "lat": 38.930059666666665, "fusion_lon": 0.0, "rental_uris": {"ios": "https://dc.lft.to/lastmile_qr_scan", "android": "https://dc.lft.to/lastmile_qr_scan"}, "lon": -77.02114333333333, "bike_id": "bc9929c080c45883903f4cf270294d7f", "type": "electric_scooter", "name": "bc9929c080c45883903f4cf270294d7f"}, {"is_disabled": 0, "is_reserved": 0, "fusion_lat": 0.0, "lat": 38.8994835, "fusion_lon": 0.0, "rental_uris": {"ios": "https://dc.lft.to/lastmile_qr_scan", "android": "https://dc.lft.to/lastmile_qr_scan"}, "lon": -76.9376075, "bike_id": "8258a1f5a6d556c7ac9da52e6b23fd76", "type": "electric_scooter", "name": "8258a1f5a6d556c7ac9da52e6b23fd76"}, {"is_disabled": 0, "is_reserved": 0, "fusion_lat": 0.0, "lat": 38.88008333333333, "fusion_lon": 0.0, "rental_uris": {"ios": "https://dc.lft.to/lastmile_qr_scan", "android": "https://dc.lft.to/lastmile_qr_scan"}, "lon": -76.9983515, "bike_id": "b4830803e66d4c5c435eee65fbd3b129", "type": "electric_scooter", "name": "b4830803e66d4c5c435eee65fbd3b129"}, {"is_disabled": 0, "is_reserved": 0, "fusion_lat": 0.0, "lat": 38.90176183333333, "fusion_lon": 0.0, "rental_uris": {"ios": "https://dc.lft.to/lastmile_qr_scan", "android": "https://dc.lft.to/lastmile_qr_scan"}, "lon": -77.00208366666666, "bike_id": "8864b838d362c4df7e37f0d98627e2a6", "type": "electric_scooter", "name": "8864b838d362c4df7e37f0d98627e2a6"}, {"is_disabled": 0, "is_reserved": 0, "fusion_lat": 0.0, "lat": 39.03475383333333, "fusion_lon": 0.0, "rental_uris": {"ios": "https://dc.lft.to/lastmile_qr_scan", "android": "https://dc.lft.to/lastmile_qr_scan"}, "lon": -77.0410585, "bike_id": "3a911d3a9d5389b0aebf33c06574cebf", "type": "electric_bike", "name": "3a911d3a9d5389b0aebf33c06574cebf"}, {"is_disabled": 0, "is_reserved": 0, "fusion_lat": 0.0, "lat": 38.907504833333334, "fusion_lon": 0.0, "rental_uris": {"ios": "https://dc.lft.to/lastmile_qr_scan", "android": "https://dc.lft.to/lastmile_qr_scan"}, "lon": -76.998786, "bike_id": "4e0b6bd71280026e7fa3f4c68249bc3c", "type": "electric_scooter", "name": "4e0b6bd71280026e7fa3f4c68249bc3c"}, {"is_disabled": 0, "is_reserved": 0, "fusion_lat": 0.0, "lat": 38.90560033333333, "fusion_lon": 0.0, "rental_uris": {"ios": "https://dc.lft.to/lastmile_qr_scan", "android": "https://dc.lft.to/lastmile_qr_scan"}, "lon": -77.057092, "bike_id": "2d773de41d7eac3315b2bf749d184beb", "type": "electric_bike", "name": "2d773de41d7eac3315b2bf749d184beb"}, {"is_disabled": 0, "is_reserved": 0, "fusion_lat": 0.0, "lat": 38.901875, "fusion_lon": 0.0, "rental_uris": {"ios": "https://dc.lft.to/lastmile_qr_scan", "android": "https://dc.lft.to/lastmile_qr_scan"}, "lon": -76.97670683333334, "bike_id": "ae054b3dca73d100d162888c50dcccc1", "type": "electric_scooter", "name": "ae054b3dca73d100d162888c50dcccc1"}, {"is_disabled": 0, "is_reserved": 0, "fusion_lat": 0.0, "lat": 38.939322, "fusion_lon": 0.0, "rental_uris": {"ios": "https://dc.lft.to/lastmile_qr_scan", "android": "https://dc.lft.to/lastmile_qr_scan"}, "lon": -77.07249383333334, "bike_id": "a59698fe3af530dd20266eb402abf887", "type": "electric_scooter", "name": "a59698fe3af530dd20266eb402abf887"}, {"is_disabled": 0, "is_reserved": 0, "fusion_lat": 0.0, "lat": 38.90097333333333, "fusion_lon": 0.0, "rental_uris": {"ios": "https://dc.lft.to/lastmile_qr_scan", "android": "https://dc.lft.to/lastmile_qr_scan"}, "lon": -77.049904, "bike_id": "efe7744a5b1fd1204aba17aa44f08109", "type": "electric_scooter", "name": "efe7744a5b1fd1204aba17aa44f08109"}, {"is_disabled": 0, "is_reserved": 0, "fusion_lat": 0.0, "lat": 38.922721333333335, "fusion_lon": 0.0, "rental_uris": {"ios": "https://dc.lft.to/lastmile_qr_scan", "android": "https://dc.lft.to/lastmile_qr_scan"}, "lon": -77.04237483333333, "bike_id": "2abee2db5c3a3749f2ca7c8f17e24570", "type": "electric_scooter", "name": "2abee2db5c3a3749f2ca7c8f17e24570"}, {"is_disabled": 0, "is_reserved": 0, "fusion_lat": 0.0, "lat": 38.90276166666666, "fusion_lon": 0.0, "rental_uris": {"ios": "https://dc.lft.to/lastmile_qr_scan", "android": "https://dc.lft.to/lastmile_qr_scan"}, "lon": -77.02763283333333, "bike_id": "509f1d573a55812432bd035396a2e759", "type": "electric_scooter", "name": "509f1d573a55812432bd035396a2e759"}, {"is_disabled": 0, "is_reserved": 0, "fusion_lat": 0.0, "lat": 38.95631183333333, "fusion_lon": 0.0, "rental_uris": {"ios": "https://dc.lft.to/lastmile_qr_scan", "android": "https://dc.lft.to/lastmile_qr_scan"}, "lon": -77.02211316666667, "bike_id": "48f749fd1787ff9641e1d008279209b0", "type": "electric_scooter", "name": "48f749fd1787ff9641e1d008279209b0"}, {"is_disabled": 0, "is_reserved": 0, "fusion_lat": 0.0, "lat": 38.922604666666665, "fusion_lon": 0.0, "rental_uris": {"ios": "https://dc.lft.to/lastmile_qr_scan", "android": "https://dc.lft.to/lastmile_qr_scan"}, "lon": -77.036681, "bike_id": "b591df999d83c10f0e55720cd2785b09", "type": "electric_scooter", "name": "b591df999d83c10f0e55720cd2785b09"}, {"is_disabled": 0, "is_reserved": 0, "fusion_lat": 0.0, "lat": 38.898996833333335, "fusion_lon": 0.0, "rental_uris": {"ios": "https://dc.lft.to/lastmile_qr_scan", "android": "https://dc.lft.to/lastmile_qr_scan"}, "lon": -77.049988, "bike_id": "777cdd3b95a79aac73a0af49a07c41ca", "type": "electric_scooter", "name": "777cdd3b95a79aac73a0af49a07c41ca"}, {"is_disabled": 0, "is_reserved": 0, "fusion_lat": 0.0, "lat": 38.920488, "fusion_lon": 0.0, "rental_uris": {"ios": "https://dc.lft.to/lastmile_qr_scan", "android": "https://dc.lft.to/lastmile_qr_scan"}, "lon": -77.0166845, "bike_id": "66faab130d2cf6c1656f433e01e633fd", "type": "electric_scooter", "name": "66faab130d2cf6c1656f433e01e633fd"}, {"is_disabled": 0, "is_reserved": 0, "fusion_lat": 0.0, "lat": 38.9201985, "fusion_lon": 0.0, "rental_uris": {"ios": "https://dc.lft.to/lastmile_qr_scan", "android": "https://dc.lft.to/lastmile_qr_scan"}, "lon": -77.01703216666667, "bike_id": "a0bc70f3f365f7d97bd021e7fb4b9611", "type": "electric_scooter", "name": "a0bc70f3f365f7d97bd021e7fb4b9611"}, {"is_disabled": 0, "is_reserved": 0, "fusion_lat": 0.0, "lat": 38.938642, "fusion_lon": 0.0, "rental_uris": {"ios": "https://dc.lft.to/lastmile_qr_scan", "android": "https://dc.lft.to/lastmile_qr_scan"}, "lon": -77.07235316666667, "bike_id": "966c7b5f187792ac9fc2ad88e7ccd0b3", "type": "electric_scooter", "name": "966c7b5f187792ac9fc2ad88e7ccd0b3"}, {"is_disabled": 0, "is_reserved": 0, "fusion_lat": 0.0, "lat": 38.90137416666666, "fusion_lon": 0.0, "rental_uris": {"ios": "https://dc.lft.to/lastmile_qr_scan", "android": "https://dc.lft.to/lastmile_qr_scan"}, "lon": -76.99274766666667, "bike_id": "637af89b89b70a154a258d7311b61da2", "type": "electric_scooter", "name": "637af89b89b70a154a258d7311b61da2"}, {"is_disabled": 0, "is_reserved": 0, "fusion_lat": 0.0, "lat": 38.9004735, "fusion_lon": 0.0, "rental_uris": {"ios": "https://dc.lft.to/lastmile_qr_scan", "android": "https://dc.lft.to/lastmile_qr_scan"}, "lon": -77.03497066666667, "bike_id": "79ec0f8ff5646d8c4ba136528935d478", "type": "electric_scooter", "name": "79ec0f8ff5646d8c4ba136528935d478"}, {"is_disabled": 0, "is_reserved": 0, "fusion_lat": 0.0, "lat": 39.0261955, "fusion_lon": 0.0, "rental_uris": {"ios": "https://dc.lft.to/lastmile_qr_scan", "android": "https://dc.lft.to/lastmile_qr_scan"}, "lon": -77.03878066666667, "bike_id": "ff86cc557d80b3ea82c6cecc9e6c2887", "type": "electric_bike", "name": "ff86cc557d80b3ea82c6cecc9e6c2887"}, {"is_disabled": 0, "is_reserved": 0, "fusion_lat": 0.0, "lat": 38.938804833333336, "fusion_lon": 0.0, "rental_uris": {"ios": "https://dc.lft.to/lastmile_qr_scan", "android": "https://dc.lft.to/lastmile_qr_scan"}, "lon": -77.02829083333333, "bike_id": "5e2d8fc33feaac618b322221d0169118", "type": "electric_scooter", "name": "5e2d8fc33feaac618b322221d0169118"}, {"is_disabled": 0, "is_reserved": 0, "fusion_lat": 0.0, "lat": 38.917056, "fusion_lon": 0.0, "rental_uris": {"ios": "https://dc.lft.to/lastmile_qr_scan", "android": "https://dc.lft.to/lastmile_qr_scan"}, "lon": -77.00198383333333, "bike_id": "929f454a1ee70afa2ded17f255fc9bbe", "type": "electric_bike", "name": "929f454a1ee70afa2ded17f255fc9bbe"}, {"is_disabled": 0, "is_reserved": 0, "fusion_lat": 0.0, "lat": 38.885091333333335, "fusion_lon": 0.0, "rental_uris": {"ios": "https://dc.lft.to/lastmile_qr_scan", "android": "https://dc.lft.to/lastmile_qr_scan"}, "lon": -76.9975005, "bike_id": "16ec8a27a1d7005a5205f8718e9a9762", "type": "electric_scooter", "name": "16ec8a27a1d7005a5205f8718e9a9762"}, {"is_disabled": 0, "is_reserved": 0, "fusion_lat": 0.0, "lat": 38.924842166666664, "fusion_lon": 0.0, "rental_uris": {"ios": "https://dc.lft.to/lastmile_qr_scan", "android": "https://dc.lft.to/lastmile_qr_scan"}, "lon": -77.03183066666666, "bike_id": "0055b9eebca3c294941b4cd7cc8e4c9f", "type": "electric_scooter", "name": "0055b9eebca3c294941b4cd7cc8e4c9f"}, {"is_disabled": 0, "is_reserved": 0, "fusion_lat": 0.0, "lat": 38.92089816666667, "fusion_lon": 0.0, "rental_uris": {"ios": "https://dc.lft.to/lastmile_qr_scan", "android": "https://dc.lft.to/lastmile_qr_scan"}, "lon": -77.0239855, "bike_id": "ee3e3e1c0acb722a66461caae48d59d6", "type": "electric_scooter", "name": "ee3e3e1c0acb722a66461caae48d59d6"}, {"is_disabled": 0, "is_reserved": 0, "fusion_lat": 0.0, "lat": 38.92207366666667, "fusion_lon": 0.0, "rental_uris": {"ios": "https://dc.lft.to/lastmile_qr_scan", "android": "https://dc.lft.to/lastmile_qr_scan"}, "lon": -76.99694466666666, "bike_id": "497456ee322b9fa23cd9e08aa1211921", "type": "electric_scooter", "name": "497456ee322b9fa23cd9e08aa1211921"}, {"is_disabled": 0, "is_reserved": 0, "fusion_lat": 0.0, "lat": 38.858008166666664, "fusion_lon": 0.0, "rental_uris": {"ios": "https://dc.lft.to/lastmile_qr_scan", "android": "https://dc.lft.to/lastmile_qr_scan"}, "lon": -76.98752416666666, "bike_id": "0cd85e7c20eaef1cf2902c741b2e192c", "type": "electric_bike", "name": "0cd85e7c20eaef1cf2902c741b2e192c"}, {"is_disabled": 0, "is_reserved": 0, "fusion_lat": 0.0, "lat": 38.903118666666664, "fusion_lon": 0.0, "rental_uris": {"ios": "https://dc.lft.to/lastmile_qr_scan", "android": "https://dc.lft.to/lastmile_qr_scan"}, "lon": -76.97801633333333, "bike_id": "82a184c99e188aee59318feb10403605", "type": "electric_scooter", "name": "82a184c99e188aee59318feb10403605"}, {"is_disabled": 0, "is_reserved": 0, "fusion_lat": 0.0, "lat": 38.87671183333333, "fusion_lon": 0.0, "rental_uris": {"ios": "https://dc.lft.to/lastmile_qr_scan", "android": "https://dc.lft.to/lastmile_qr_scan"}, "lon": -77.00822416666666, "bike_id": "7ec2efb727a26a29143b0e04276e7524", "type": "electric_scooter", "name": "7ec2efb727a26a29143b0e04276e7524"}, {"is_disabled": 0, "is_reserved": 0, "fusion_lat": 0.0, "lat": 38.90059133333333, "fusion_lon": 0.0, "rental_uris": {"ios": "https://dc.lft.to/lastmile_qr_scan", "android": "https://dc.lft.to/lastmile_qr_scan"}, "lon": -76.99339783333333, "bike_id": "4f5a15005b1f3fce834f581be0f64973", "type": "electric_scooter", "name": "4f5a15005b1f3fce834f581be0f64973"}, {"is_disabled": 0, "is_reserved": 0, "fusion_lat": 0.0, "lat": 38.883943333333335, "fusion_lon": 0.0, "rental_uris": {"ios": "https://dc.lft.to/lastmile_qr_scan", "android": "https://dc.lft.to/lastmile_qr_scan"}, "lon": -76.99514216666667, "bike_id": "42daac50464a1fce4d09fae1040770f0", "type": "electric_scooter", "name": "42daac50464a1fce4d09fae1040770f0"}, {"is_disabled": 0, "is_reserved": 0, "fusion_lat": 0.0, "lat": 38.84270716666666, "fusion_lon": 0.0, "rental_uris": {"ios": "https://dc.lft.to/lastmile_qr_scan", "android": "https://dc.lft.to/lastmile_qr_scan"}, "lon": -76.98843616666667, "bike_id": "7a900b20100cefb5d372e70aa7e95a6a", "type": "electric_scooter", "name": "7a900b20100cefb5d372e70aa7e95a6a"}, {"is_disabled": 0, "is_reserved": 0, "fusion_lat": 0.0, "lat": 38.922875, "fusion_lon": 0.0, "rental_uris": {"ios": "https://dc.lft.to/lastmile_qr_scan", "android": "https://dc.lft.to/lastmile_qr_scan"}, "lon": -77.02958816666667, "bike_id": "0cfeda82c13fcc2efc6c312ada5f6998", "type": "electric_scooter", "name": "0cfeda82c13fcc2efc6c312ada5f6998"}, {"is_disabled": 0, "is_reserved": 0, "fusion_lat": 0.0, "lat": 38.95647683333333, "fusion_lon": 0.0, "rental_uris": {"ios": "https://dc.lft.to/lastmile_qr_scan", "android": "https://dc.lft.to/lastmile_qr_scan"}, "lon": -77.02818733333334, "bike_id": "ba632d06ef75889703c5eb1391d059ac", "type": "electric_scooter", "name": "ba632d06ef75889703c5eb1391d059ac"}, {"is_disabled": 0, "is_reserved": 0, "fusion_lat": 0.0, "lat": 38.896168833333334, "fusion_lon": 0.0, "rental_uris": {"ios": "https://dc.lft.to/lastmile_qr_scan", "android": "https://dc.lft.to/lastmile_qr_scan"}, "lon": -77.04115366666667, "bike_id": "ea9f46acf87650cc5bdbbd8445d8c26f", "type": "electric_scooter", "name": "ea9f46acf87650cc5bdbbd8445d8c26f"}, {"is_disabled": 0, "is_reserved": 0, "fusion_lat": 0.0, "lat": 38.91257216666666, "fusion_lon": 0.0, "rental_uris": {"ios": "https://dc.lft.to/lastmile_qr_scan", "android": "https://dc.lft.to/lastmile_qr_scan"}, "lon": -76.98354383333333, "bike_id": "5797f8463324fc043122d613ce716d53", "type": "electric_scooter", "name": "5797f8463324fc043122d613ce716d53"}, {"is_disabled": 0, "is_reserved": 0, "fusion_lat": 0.0, "lat": 38.91706333333333, "fusion_lon": 0.0, "rental_uris": {"ios": "https://dc.lft.to/lastmile_qr_scan", "android": "https://dc.lft.to/lastmile_qr_scan"}, "lon": -77.02411083333334, "bike_id": "836a86fcde8b2c5395355f239d7b0ad8", "type": "electric_scooter", "name": "836a86fcde8b2c5395355f239d7b0ad8"}, {"is_disabled": 0, "is_reserved": 0, "fusion_lat": 0.0, "lat": 38.84672416666667, "fusion_lon": 0.0, "rental_uris": {"ios": "https://dc.lft.to/lastmile_qr_scan", "android": "https://dc.lft.to/lastmile_qr_scan"}, "lon": -77.13934283333333, "bike_id": "83778ff9099540d3040e47319e084bda", "type": "electric_bike", "name": "83778ff9099540d3040e47319e084bda"}, {"is_disabled": 0, "is_reserved": 0, "fusion_lat": 0.0, "lat": 38.87616416666667, "fusion_lon": 0.0, "rental_uris": {"ios": "https://dc.lft.to/lastmile_qr_scan", "android": "https://dc.lft.to/lastmile_qr_scan"}, "lon": -77.0061805, "bike_id": "f1a75a1243921584bf32f82aed47e2a0", "type": "electric_scooter", "name": "f1a75a1243921584bf32f82aed47e2a0"}, {"is_disabled": 0, "is_reserved": 0, "fusion_lat": 0.0, "lat": 38.87189883333333, "fusion_lon": 0.0, "rental_uris": {"ios": "https://dc.lft.to/lastmile_qr_scan", "android": "https://dc.lft.to/lastmile_qr_scan"}, "lon": -77.00587733333333, "bike_id": "01a67e7411c8c0370a7749bdb3109b53", "type": "electric_scooter", "name": "01a67e7411c8c0370a7749bdb3109b53"}, {"is_disabled": 0, "is_reserved": 0, "fusion_lat": 0.0, "lat": 38.9155445, "fusion_lon": 0.0, "rental_uris": {"ios": "https://dc.lft.to/lastmile_qr_scan", "android": "https://dc.lft.to/lastmile_qr_scan"}, "lon": -77.05100933333334, "bike_id": "e34a1d1ef8e0520eb8a01476ca454ca4", "type": "electric_scooter", "name": "e34a1d1ef8e0520eb8a01476ca454ca4"}, {"is_disabled": 0, "is_reserved": 0, "fusion_lat": 0.0, "lat": 38.9209125, "fusion_lon": 0.0, "rental_uris": {"ios": "https://dc.lft.to/lastmile_qr_scan", "android": "https://dc.lft.to/lastmile_qr_scan"}, "lon": -77.04110066666667, "bike_id": "2280a69021d97ff39d1c6d3e1ccd7c72", "type": "electric_scooter", "name": "2280a69021d97ff39d1c6d3e1ccd7c72"}, {"is_disabled": 0, "is_reserved": 0, "fusion_lat": 0.0, "lat": 38.92913183333334, "fusion_lon": 0.0, "rental_uris": {"ios": "https://dc.lft.to/lastmile_qr_scan", "android": "https://dc.lft.to/lastmile_qr_scan"}, "lon": -77.02091833333333, "bike_id": "7254a37608329df0ab97875620e52f7e", "type": "electric_scooter", "name": "7254a37608329df0ab97875620e52f7e"}, {"is_disabled": 0, "is_reserved": 0, "fusion_lat": 0.0, "lat": 38.91416783333333, "fusion_lon": 0.0, "rental_uris": {"ios": "https://dc.lft.to/lastmile_qr_scan", "android": "https://dc.lft.to/lastmile_qr_scan"}, "lon": -77.0316875, "bike_id": "a57cba1819097b9958e98ca9906e8235", "type": "electric_scooter", "name": "a57cba1819097b9958e98ca9906e8235"}, {"is_disabled": 0, "is_reserved": 0, "fusion_lat": 0.0, "lat": 38.92903416666667, "fusion_lon": 0.0, "rental_uris": {"ios": "https://dc.lft.to/lastmile_qr_scan", "android": "https://dc.lft.to/lastmile_qr_scan"}, "lon": -77.0326215, "bike_id": "b50c101e5d7793f80ee8d7eacc1ea605", "type": "electric_scooter", "name": "b50c101e5d7793f80ee8d7eacc1ea605"}, {"is_disabled": 0, "is_reserved": 0, "fusion_lat": 0.0, "lat": 38.904099333333335, "fusion_lon": 0.0, "rental_uris": {"ios": "https://dc.lft.to/lastmile_qr_scan", "android": "https://dc.lft.to/lastmile_qr_scan"}, "lon": -77.0241985, "bike_id": "df0bae0247bceb6d28320737aed84aa0", "type": "electric_scooter", "name": "df0bae0247bceb6d28320737aed84aa0"}, {"is_disabled": 0, "is_reserved": 0, "fusion_lat": 0.0, "lat": 38.876568166666665, "fusion_lon": 0.0, "rental_uris": {"ios": "https://dc.lft.to/lastmile_qr_scan", "android": "https://dc.lft.to/lastmile_qr_scan"}, "lon": -77.00566766666667, "bike_id": "795eeeda017e9aa5d981f3c828eaea0f", "type": "electric_scooter", "name": "795eeeda017e9aa5d981f3c828eaea0f"}, {"is_disabled": 0, "is_reserved": 0, "fusion_lat": 0.0, "lat": 38.91816716666666, "fusion_lon": 0.0, "rental_uris": {"ios": "https://dc.lft.to/lastmile_qr_scan", "android": "https://dc.lft.to/lastmile_qr_scan"}, "lon": -77.03999633333333, "bike_id": "5530c53bfece0db795a88a46ab718655", "type": "electric_scooter", "name": "5530c53bfece0db795a88a46ab718655"}, {"is_disabled": 0, "is_reserved": 0, "fusion_lat": 0.0, "lat": 38.936072333333335, "fusion_lon": 0.0, "rental_uris": {"ios": "https://dc.lft.to/lastmile_qr_scan", "android": "https://dc.lft.to/lastmile_qr_scan"}, "lon": -77.024129, "bike_id": "b864e934f03133963492b5b389338406", "type": "electric_scooter", "name": "b864e934f03133963492b5b389338406"}, {"is_disabled": 0, "is_reserved": 0, "fusion_lat": 0.0, "lat": 38.88383733333333, "fusion_lon": 0.0, "rental_uris": {"ios": "https://dc.lft.to/lastmile_qr_scan", "android": "https://dc.lft.to/lastmile_qr_scan"}, "lon": -77.04603683333333, "bike_id": "dfd86b9659eae6b66645ff41f627934e", "type": "electric_scooter", "name": "dfd86b9659eae6b66645ff41f627934e"}, {"is_disabled": 0, "is_reserved": 0, "fusion_lat": 0.0, "lat": 38.912009833333336, "fusion_lon": 0.0, "rental_uris": {"ios": "https://dc.lft.to/lastmile_qr_scan", "android": "https://dc.lft.to/lastmile_qr_scan"}, "lon": -77.00214, "bike_id": "f92da9285333f9c9a6d9c23c6877575b", "type": "electric_scooter", "name": "f92da9285333f9c9a6d9c23c6877575b"}, {"is_disabled": 0, "is_reserved": 0, "fusion_lat": 0.0, "lat": 38.8904415, "fusion_lon": 0.0, "rental_uris": {"ios": "https://dc.lft.to/lastmile_qr_scan", "android": "https://dc.lft.to/lastmile_qr_scan"}, "lon": -76.9375585, "bike_id": "cc62919b00d8c95cdc12d16f57def99a", "type": "electric_scooter", "name": "cc62919b00d8c95cdc12d16f57def99a"}, {"is_disabled": 0, "is_reserved": 0, "fusion_lat": 0.0, "lat": 38.87443866666667, "fusion_lon": 0.0, "rental_uris": {"ios": "https://dc.lft.to/lastmile_qr_scan", "android": "https://dc.lft.to/lastmile_qr_scan"}, "lon": -77.009152, "bike_id": "8abb09add07ccf46242d01f12b56a5c5", "type": "electric_scooter", "name": "8abb09add07ccf46242d01f12b56a5c5"}, {"is_disabled": 0, "is_reserved": 0, "fusion_lat": 0.0, "lat": 38.9680105, "fusion_lon": 0.0, "rental_uris": {"ios": "https://dc.lft.to/lastmile_qr_scan", "android": "https://dc.lft.to/lastmile_qr_scan"}, "lon": -77.02432916666666, "bike_id": "3841df7980a4fc4f8ddd796358aca114", "type": "electric_scooter", "name": "3841df7980a4fc4f8ddd796358aca114"}, {"is_disabled": 0, "is_reserved": 0, "fusion_lat": 0.0, "lat": 38.921755833333336, "fusion_lon": 0.0, "rental_uris": {"ios": "https://dc.lft.to/lastmile_qr_scan", "android": "https://dc.lft.to/lastmile_qr_scan"}, "lon": -77.03834216666667, "bike_id": "c5c63ba59fa583556df7a6415913fa1f", "type": "electric_scooter", "name": "c5c63ba59fa583556df7a6415913fa1f"}, {"is_disabled": 0, "is_reserved": 0, "fusion_lat": 0.0, "lat": 38.90229133333333, "fusion_lon": 0.0, "rental_uris": {"ios": "https://dc.lft.to/lastmile_qr_scan", "android": "https://dc.lft.to/lastmile_qr_scan"}, "lon": -77.029776, "bike_id": "2904c106d2d33f95fb50ef8a4f6876e1", "type": "electric_scooter", "name": "2904c106d2d33f95fb50ef8a4f6876e1"}, {"is_disabled": 0, "is_reserved": 0, "fusion_lat": 0.0, "lat": 38.80522416666667, "fusion_lon": 0.0, "rental_uris": {"ios": "https://dc.lft.to/lastmile_qr_scan", "android": "https://dc.lft.to/lastmile_qr_scan"}, "lon": -77.04339466666667, "bike_id": "29728768d55d1532033211bd0e609de9", "type": "electric_bike", "name": "29728768d55d1532033211bd0e609de9"}, {"is_disabled": 0, "is_reserved": 0, "fusion_lat": 0.0, "lat": 38.89845566666666, "fusion_lon": 0.0, "rental_uris": {"ios": "https://dc.lft.to/lastmile_qr_scan", "android": "https://dc.lft.to/lastmile_qr_scan"}, "lon": -76.991448, "bike_id": "fb2fef7ec8a27dc8a4750b9ec6658b96", "type": "electric_scooter", "name": "fb2fef7ec8a27dc8a4750b9ec6658b96"}, {"is_disabled": 0, "is_reserved": 0, "fusion_lat": 0.0, "lat": 38.908421833333335, "fusion_lon": 0.0, "rental_uris": {"ios": "https://dc.lft.to/lastmile_qr_scan", "android": "https://dc.lft.to/lastmile_qr_scan"}, "lon": -76.93445983333334, "bike_id": "f2be8d5b55828e9416cc19b0f504805b", "type": "electric_scooter", "name": "f2be8d5b55828e9416cc19b0f504805b"}, {"is_disabled": 0, "is_reserved": 0, "fusion_lat": 0.0, "lat": 38.909619, "fusion_lon": 0.0, "rental_uris": {"ios": "https://dc.lft.to/lastmile_qr_scan", "android": "https://dc.lft.to/lastmile_qr_scan"}, "lon": -77.032413, "bike_id": "c28ae75b9954e65b1f94524148876ac7", "type": "electric_bike", "name": "c28ae75b9954e65b1f94524148876ac7"}, {"is_disabled": 0, "is_reserved": 0, "fusion_lat": 0.0, "lat": 38.897833166666665, "fusion_lon": 0.0, "rental_uris": {"ios": "https://dc.lft.to/lastmile_qr_scan", "android": "https://dc.lft.to/lastmile_qr_scan"}, "lon": -77.04795583333333, "bike_id": "4280076de1d243f454ac4a891f9d1fda", "type": "electric_scooter", "name": "4280076de1d243f454ac4a891f9d1fda"}, {"is_disabled": 0, "is_reserved": 0, "fusion_lat": 0.0, "lat": 38.922646, "fusion_lon": 0.0, "rental_uris": {"ios": "https://dc.lft.to/lastmile_qr_scan", "android": "https://dc.lft.to/lastmile_qr_scan"}, "lon": -77.03665716666667, "bike_id": "25f3af3b0e847ff706ed6ea2e1b16532", "type": "electric_scooter", "name": "25f3af3b0e847ff706ed6ea2e1b16532"}, {"is_disabled": 0, "is_reserved": 0, "fusion_lat": 0.0, "lat": 38.8242975, "fusion_lon": 0.0, "rental_uris": {"ios": "https://dc.lft.to/lastmile_qr_scan", "android": "https://dc.lft.to/lastmile_qr_scan"}, "lon": -77.12043983333334, "bike_id": "a887a6c419ba8409adc0f2f557522828", "type": "electric_bike", "name": "a887a6c419ba8409adc0f2f557522828"}, {"is_disabled": 0, "is_reserved": 0, "fusion_lat": 0.0, "lat": 38.856327666666665, "fusion_lon": 0.0, "rental_uris": {"ios": "https://dc.lft.to/lastmile_qr_scan", "android": "https://dc.lft.to/lastmile_qr_scan"}, "lon": -77.06841466666667, "bike_id": "5f45746cc058ecc4f6d33b7d6dfbab12", "type": "electric_bike", "name": "5f45746cc058ecc4f6d33b7d6dfbab12"}, {"is_disabled": 0, "is_reserved": 0, "fusion_lat": 0.0, "lat": 38.88580833333333, "fusion_lon": 0.0, "rental_uris": {"ios": "https://dc.lft.to/lastmile_qr_scan", "android": "https://dc.lft.to/lastmile_qr_scan"}, "lon": -77.01226116666666, "bike_id": "44be74a547bb9803b4508d70214e5444", "type": "electric_scooter", "name": "44be74a547bb9803b4508d70214e5444"}, {"is_disabled": 0, "is_reserved": 0, "fusion_lat": 0.0, "lat": 38.92946533333333, "fusion_lon": 0.0, "rental_uris": {"ios": "https://dc.lft.to/lastmile_qr_scan", "android": "https://dc.lft.to/lastmile_qr_scan"}, "lon": -77.05477333333333, "bike_id": "e2885630a60b2b0dd5660a944d75ed08", "type": "electric_scooter", "name": "e2885630a60b2b0dd5660a944d75ed08"}, {"is_disabled": 0, "is_reserved": 0, "fusion_lat": 0.0, "lat": 38.87621983333333, "fusion_lon": 0.0, "rental_uris": {"ios": "https://dc.lft.to/lastmile_qr_scan", "android": "https://dc.lft.to/lastmile_qr_scan"}, "lon": -77.00595783333333, "bike_id": "52ec05ca0d8b1a1338e2588401b97d9b", "type": "electric_scooter", "name": "52ec05ca0d8b1a1338e2588401b97d9b"}, {"is_disabled": 0, "is_reserved": 0, "fusion_lat": 0.0, "lat": 38.8656145, "fusion_lon": 0.0, "rental_uris": {"ios": "https://dc.lft.to/lastmile_qr_scan", "android": "https://dc.lft.to/lastmile_qr_scan"}, "lon": -76.97475166666666, "bike_id": "6a0208ca75d09c549cdc8519e4a1f1c6", "type": "electric_bike", "name": "6a0208ca75d09c549cdc8519e4a1f1c6"}, {"is_disabled": 0, "is_reserved": 0, "fusion_lat": 0.0, "lat": 38.894666666666666, "fusion_lon": 0.0, "rental_uris": {"ios": "https://dc.lft.to/lastmile_qr_scan", "android": "https://dc.lft.to/lastmile_qr_scan"}, "lon": -77.00233883333334, "bike_id": "f7c948e1562f59eb3c9abf79dfe06e78", "type": "electric_scooter", "name": "f7c948e1562f59eb3c9abf79dfe06e78"}, {"is_disabled": 0, "is_reserved": 0, "fusion_lat": 0.0, "lat": 38.91457533333333, "fusion_lon": 0.0, "rental_uris": {"ios": "https://dc.lft.to/lastmile_qr_scan", "android": "https://dc.lft.to/lastmile_qr_scan"}, "lon": -77.02694516666666, "bike_id": "fd36ea7abf7ba60bcb7d924416ae0d70", "type": "electric_scooter", "name": "fd36ea7abf7ba60bcb7d924416ae0d70"}, {"is_disabled": 0, "is_reserved": 0, "fusion_lat": 0.0, "lat": 38.92525333333333, "fusion_lon": 0.0, "rental_uris": {"ios": "https://dc.lft.to/lastmile_qr_scan", "android": "https://dc.lft.to/lastmile_qr_scan"}, "lon": -77.04122366666667, "bike_id": "ec8fab417ae2bac0e48885de244d5bb5", "type": "electric_scooter", "name": "ec8fab417ae2bac0e48885de244d5bb5"}, {"is_disabled": 0, "is_reserved": 0, "fusion_lat": 0.0, "lat": 38.91486833333333, "fusion_lon": 0.0, "rental_uris": {"ios": "https://dc.lft.to/lastmile_qr_scan", "android": "https://dc.lft.to/lastmile_qr_scan"}, "lon": -77.04944683333333, "bike_id": "9555a893d7422c63661025d3e1cb91d1", "type": "electric_scooter", "name": "9555a893d7422c63661025d3e1cb91d1"}, {"is_disabled": 0, "is_reserved": 0, "fusion_lat": 0.0, "lat": 38.894201, "fusion_lon": 0.0, "rental_uris": {"ios": "https://dc.lft.to/lastmile_qr_scan", "android": "https://dc.lft.to/lastmile_qr_scan"}, "lon": -77.02134066666666, "bike_id": "a94a400267c97cb97c58f5f2f3ef760e", "type": "electric_scooter", "name": "a94a400267c97cb97c58f5f2f3ef760e"}, {"is_disabled": 0, "is_reserved": 0, "fusion_lat": 0.0, "lat": 38.90529, "fusion_lon": 0.0, "rental_uris": {"ios": "https://dc.lft.to/lastmile_qr_scan", "android": "https://dc.lft.to/lastmile_qr_scan"}, "lon": -77.06102416666667, "bike_id": "ce53fd21b74d1b9b28e73df1d4384dcd", "type": "electric_scooter", "name": "ce53fd21b74d1b9b28e73df1d4384dcd"}, {"is_disabled": 0, "is_reserved": 0, "fusion_lat": 0.0, "lat": 38.8953465, "fusion_lon": 0.0, "rental_uris": {"ios": "https://dc.lft.to/lastmile_qr_scan", "android": "https://dc.lft.to/lastmile_qr_scan"}, "lon": -76.94890216666667, "bike_id": "e705e0218829e15c03dcfbe20c7b43f6", "type": "electric_scooter", "name": "e705e0218829e15c03dcfbe20c7b43f6"}, {"is_disabled": 0, "is_reserved": 0, "fusion_lat": 0.0, "lat": 38.916857, "fusion_lon": 0.0, "rental_uris": {"ios": "https://dc.lft.to/lastmile_qr_scan", "android": "https://dc.lft.to/lastmile_qr_scan"}, "lon": -77.025593, "bike_id": "c24b75c714cc32052bb79a242899a3e6", "type": "electric_scooter", "name": "c24b75c714cc32052bb79a242899a3e6"}, {"is_disabled": 0, "is_reserved": 0, "fusion_lat": 0.0, "lat": 38.9395005, "fusion_lon": 0.0, "rental_uris": {"ios": "https://dc.lft.to/lastmile_qr_scan", "android": "https://dc.lft.to/lastmile_qr_scan"}, "lon": -77.0723825, "bike_id": "934b2cfc1f99101758a82c612fa20251", "type": "electric_scooter", "name": "934b2cfc1f99101758a82c612fa20251"}, {"is_disabled": 0, "is_reserved": 0, "fusion_lat": 0.0, "lat": 38.9171235, "fusion_lon": 0.0, "rental_uris": {"ios": "https://dc.lft.to/lastmile_qr_scan", "android": "https://dc.lft.to/lastmile_qr_scan"}, "lon": -77.032367, "bike_id": "2bd264e8f8c007f40875fda57f372a58", "type": "electric_scooter", "name": "2bd264e8f8c007f40875fda57f372a58"}, {"is_disabled": 0, "is_reserved": 0, "fusion_lat": 0.0, "lat": 38.9370125, "fusion_lon": 0.0, "rental_uris": {"ios": "https://dc.lft.to/lastmile_qr_scan", "android": "https://dc.lft.to/lastmile_qr_scan"}, "lon": -77.0568485, "bike_id": "34f3ad045b22f26a719a27a7d4c93601", "type": "electric_scooter", "name": "34f3ad045b22f26a719a27a7d4c93601"}, {"is_disabled": 0, "is_reserved": 0, "fusion_lat": 0.0, "lat": 38.918045166666666, "fusion_lon": 0.0, "rental_uris": {"ios": "https://dc.lft.to/lastmile_qr_scan", "android": "https://dc.lft.to/lastmile_qr_scan"}, "lon": -77.02496383333333, "bike_id": "43333e17783b23f4fb3fe5691632bdfc", "type": "electric_scooter", "name": "43333e17783b23f4fb3fe5691632bdfc"}, {"is_disabled": 0, "is_reserved": 0, "fusion_lat": 0.0, "lat": 38.90009216666667, "fusion_lon": 0.0, "rental_uris": {"ios": "https://dc.lft.to/lastmile_qr_scan", "android": "https://dc.lft.to/lastmile_qr_scan"}, "lon": -76.979891, "bike_id": "2cfd862324dfc20f678e061f779a9280", "type": "electric_scooter", "name": "2cfd862324dfc20f678e061f779a9280"}, {"is_disabled": 0, "is_reserved": 0, "fusion_lat": 0.0, "lat": 38.922343, "fusion_lon": 0.0, "rental_uris": {"ios": "https://dc.lft.to/lastmile_qr_scan", "android": "https://dc.lft.to/lastmile_qr_scan"}, "lon": -77.0401215, "bike_id": "704eba0f8bda4f5e1d48e42edb2dbf63", "type": "electric_scooter", "name": "704eba0f8bda4f5e1d48e42edb2dbf63"}, {"is_disabled": 0, "is_reserved": 0, "fusion_lat": 0.0, "lat": 38.900707833333335, "fusion_lon": 0.0, "rental_uris": {"ios": "https://dc.lft.to/lastmile_qr_scan", "android": "https://dc.lft.to/lastmile_qr_scan"}, "lon": -77.00659516666667, "bike_id": "a59bde29f3a408f2de60d1e075c2cfd8", "type": "electric_scooter", "name": "a59bde29f3a408f2de60d1e075c2cfd8"}, {"is_disabled": 0, "is_reserved": 0, "fusion_lat": 0.0, "lat": 38.920587, "fusion_lon": 0.0, "rental_uris": {"ios": "https://dc.lft.to/lastmile_qr_scan", "android": "https://dc.lft.to/lastmile_qr_scan"}, "lon": -77.0229895, "bike_id": "f654f1a72758f85206e40af714b25706", "type": "electric_scooter", "name": "f654f1a72758f85206e40af714b25706"}, {"is_disabled": 0, "is_reserved": 0, "fusion_lat": 0.0, "lat": 38.9163605, "fusion_lon": 0.0, "rental_uris": {"ios": "https://dc.lft.to/lastmile_qr_scan", "android": "https://dc.lft.to/lastmile_qr_scan"}, "lon": -77.0269655, "bike_id": "83ef8939d64b4f6ef5f86f1e7afe9fbc", "type": "electric_scooter", "name": "83ef8939d64b4f6ef5f86f1e7afe9fbc"}, {"is_disabled": 0, "is_reserved": 0, "fusion_lat": 0.0, "lat": 38.8709055, "fusion_lon": 0.0, "rental_uris": {"ios": "https://dc.lft.to/lastmile_qr_scan", "android": "https://dc.lft.to/lastmile_qr_scan"}, "lon": -77.01209966666667, "bike_id": "3db744a79226b96413bc20ceb80d2257", "type": "electric_scooter", "name": "3db744a79226b96413bc20ceb80d2257"}, {"is_disabled": 0, "is_reserved": 0, "fusion_lat": 0.0, "lat": 38.92074133333333, "fusion_lon": 0.0, "rental_uris": {"ios": "https://dc.lft.to/lastmile_qr_scan", "android": "https://dc.lft.to/lastmile_qr_scan"}, "lon": -77.02509516666667, "bike_id": "8bc837fe838a4bd02caa3958762972eb", "type": "electric_scooter", "name": "8bc837fe838a4bd02caa3958762972eb"}, {"is_disabled": 0, "is_reserved": 0, "fusion_lat": 0.0, "lat": 38.899177333333334, "fusion_lon": 0.0, "rental_uris": {"ios": "https://dc.lft.to/lastmile_qr_scan", "android": "https://dc.lft.to/lastmile_qr_scan"}, "lon": -77.04011316666667, "bike_id": "18e3a53374dab41fdbd73edd406c568e", "type": "electric_scooter", "name": "18e3a53374dab41fdbd73edd406c568e"}, {"is_disabled": 0, "is_reserved": 0, "fusion_lat": 0.0, "lat": 38.923202, "fusion_lon": 0.0, "rental_uris": {"ios": "https://dc.lft.to/lastmile_qr_scan", "android": "https://dc.lft.to/lastmile_qr_scan"}, "lon": -77.01950533333333, "bike_id": "4b502173c3201f678aad53dd38cccafb", "type": "electric_scooter", "name": "4b502173c3201f678aad53dd38cccafb"}, {"is_disabled": 0, "is_reserved": 0, "fusion_lat": 0.0, "lat": 38.885425166666664, "fusion_lon": 0.0, "rental_uris": {"ios": "https://dc.lft.to/lastmile_qr_scan", "android": "https://dc.lft.to/lastmile_qr_scan"}, "lon": -76.9597505, "bike_id": "3d915bbc735fc93c5e3a575ba0419178", "type": "electric_scooter", "name": "3d915bbc735fc93c5e3a575ba0419178"}, {"is_disabled": 0, "is_reserved": 0, "fusion_lat": 0.0, "lat": 38.86010383333333, "fusion_lon": 0.0, "rental_uris": {"ios": "https://dc.lft.to/lastmile_qr_scan", "android": "https://dc.lft.to/lastmile_qr_scan"}, "lon": -77.06529066666667, "bike_id": "86ffa1c4a3d095edf127153a1aea0d67", "type": "electric_bike", "name": "86ffa1c4a3d095edf127153a1aea0d67"}, {"is_disabled": 0, "is_reserved": 0, "fusion_lat": 0.0, "lat": 38.877226, "fusion_lon": 0.0, "rental_uris": {"ios": "https://dc.lft.to/lastmile_qr_scan", "android": "https://dc.lft.to/lastmile_qr_scan"}, "lon": -77.007466, "bike_id": "3a96b2b66282bd601bae34ca10a3bdbb", "type": "electric_scooter", "name": "3a96b2b66282bd601bae34ca10a3bdbb"}, {"is_disabled": 0, "is_reserved": 0, "fusion_lat": 0.0, "lat": 38.919443, "fusion_lon": 0.0, "rental_uris": {"ios": "https://dc.lft.to/lastmile_qr_scan", "android": "https://dc.lft.to/lastmile_qr_scan"}, "lon": -77.01385416666666, "bike_id": "a105f6da438a0bffe80a2779a5741f92", "type": "electric_scooter", "name": "a105f6da438a0bffe80a2779a5741f92"}, {"is_disabled": 0, "is_reserved": 0, "fusion_lat": 0.0, "lat": 38.883071, "fusion_lon": 0.0, "rental_uris": {"ios": "https://dc.lft.to/lastmile_qr_scan", "android": "https://dc.lft.to/lastmile_qr_scan"}, "lon": -76.99369716666666, "bike_id": "6017565958ee09591d293250ac21031f", "type": "electric_scooter", "name": "6017565958ee09591d293250ac21031f"}, {"is_disabled": 0, "is_reserved": 0, "fusion_lat": 0.0, "lat": 38.905082166666666, "fusion_lon": 0.0, "rental_uris": {"ios": "https://dc.lft.to/lastmile_qr_scan", "android": "https://dc.lft.to/lastmile_qr_scan"}, "lon": -76.95201633333333, "bike_id": "9b9bfcabab932efa0af920ecfaf0b89d", "type": "electric_scooter", "name": "9b9bfcabab932efa0af920ecfaf0b89d"}, {"is_disabled": 0, "is_reserved": 0, "fusion_lat": 0.0, "lat": 38.9384865, "fusion_lon": 0.0, "rental_uris": {"ios": "https://dc.lft.to/lastmile_qr_scan", "android": "https://dc.lft.to/lastmile_qr_scan"}, "lon": -77.01952583333333, "bike_id": "f9e2d5c1f25696682d061844f9dbeec2", "type": "electric_scooter", "name": "f9e2d5c1f25696682d061844f9dbeec2"}, {"is_disabled": 0, "is_reserved": 0, "fusion_lat": 0.0, "lat": 38.89665816666667, "fusion_lon": 0.0, "rental_uris": {"ios": "https://dc.lft.to/lastmile_qr_scan", "android": "https://dc.lft.to/lastmile_qr_scan"}, "lon": -76.932087, "bike_id": "a1b330964954a76ce2527c26061f6943", "type": "electric_scooter", "name": "a1b330964954a76ce2527c26061f6943"}, {"is_disabled": 0, "is_reserved": 0, "fusion_lat": 0.0, "lat": 38.87464716666667, "fusion_lon": 0.0, "rental_uris": {"ios": "https://dc.lft.to/lastmile_qr_scan", "android": "https://dc.lft.to/lastmile_qr_scan"}, "lon": -77.00940666666666, "bike_id": "95433b77c5a89955ec986977336640da", "type": "electric_scooter", "name": "95433b77c5a89955ec986977336640da"}, {"is_disabled": 0, "is_reserved": 0, "fusion_lat": 0.0, "lat": 38.89466483333333, "fusion_lon": 0.0, "rental_uris": {"ios": "https://dc.lft.to/lastmile_qr_scan", "android": "https://dc.lft.to/lastmile_qr_scan"}, "lon": -77.02261333333334, "bike_id": "6eabfe95152319df02e5a6793fad8983", "type": "electric_scooter", "name": "6eabfe95152319df02e5a6793fad8983"}, {"is_disabled": 0, "is_reserved": 0, "fusion_lat": 0.0, "lat": 38.90205983333333, "fusion_lon": 0.0, "rental_uris": {"ios": "https://dc.lft.to/lastmile_qr_scan", "android": "https://dc.lft.to/lastmile_qr_scan"}, "lon": -76.99254166666667, "bike_id": "82e887b90dc64bb71dbc0745e8342764", "type": "electric_scooter", "name": "82e887b90dc64bb71dbc0745e8342764"}, {"is_disabled": 0, "is_reserved": 0, "fusion_lat": 0.0, "lat": 38.90609466666667, "fusion_lon": 0.0, "rental_uris": {"ios": "https://dc.lft.to/lastmile_qr_scan", "android": "https://dc.lft.to/lastmile_qr_scan"}, "lon": -77.0210615, "bike_id": "50554d874a735555f6485f4b908a753d", "type": "electric_scooter", "name": "50554d874a735555f6485f4b908a753d"}, {"is_disabled": 0, "is_reserved": 0, "fusion_lat": 0.0, "lat": 38.9047735, "fusion_lon": 0.0, "rental_uris": {"ios": "https://dc.lft.to/lastmile_qr_scan", "android": "https://dc.lft.to/lastmile_qr_scan"}, "lon": -76.95056083333333, "bike_id": "33abacb6c975a0498190477736e0e2f8", "type": "electric_scooter", "name": "33abacb6c975a0498190477736e0e2f8"}, {"is_disabled": 0, "is_reserved": 0, "fusion_lat": 0.0, "lat": 38.855184333333334, "fusion_lon": 0.0, "rental_uris": {"ios": "https://dc.lft.to/lastmile_qr_scan", "android": "https://dc.lft.to/lastmile_qr_scan"}, "lon": -76.99139433333333, "bike_id": "ea46659742d174e1cf8aa2576eed810e", "type": "electric_scooter", "name": "ea46659742d174e1cf8aa2576eed810e"}, {"is_disabled": 0, "is_reserved": 0, "fusion_lat": 0.0, "lat": 38.9221975, "fusion_lon": 0.0, "rental_uris": {"ios": "https://dc.lft.to/lastmile_qr_scan", "android": "https://dc.lft.to/lastmile_qr_scan"}, "lon": -77.03291233333333, "bike_id": "20bcfd40262d6293c873e9ec5e4169e4", "type": "electric_scooter", "name": "20bcfd40262d6293c873e9ec5e4169e4"}, {"is_disabled": 0, "is_reserved": 0, "fusion_lat": 0.0, "lat": 38.918441, "fusion_lon": 0.0, "rental_uris": {"ios": "https://dc.lft.to/lastmile_qr_scan", "android": "https://dc.lft.to/lastmile_qr_scan"}, "lon": -77.0228515, "bike_id": "dc4b5c87611b6a38331c73decf8a5467", "type": "electric_scooter", "name": "dc4b5c87611b6a38331c73decf8a5467"}, {"is_disabled": 0, "is_reserved": 0, "fusion_lat": 0.0, "lat": 38.91413333333333, "fusion_lon": 0.0, "rental_uris": {"ios": "https://dc.lft.to/lastmile_qr_scan", "android": "https://dc.lft.to/lastmile_qr_scan"}, "lon": -77.03253883333333, "bike_id": "cc861a0f012f40d16aedbaf59559b9dc", "type": "electric_scooter", "name": "cc861a0f012f40d16aedbaf59559b9dc"}, {"is_disabled": 0, "is_reserved": 0, "fusion_lat": 0.0, "lat": 38.90728133333333, "fusion_lon": 0.0, "rental_uris": {"ios": "https://dc.lft.to/lastmile_qr_scan", "android": "https://dc.lft.to/lastmile_qr_scan"}, "lon": -77.040132, "bike_id": "12f0dff6dfd5748ff7c18aa15809365f", "type": "electric_scooter", "name": "12f0dff6dfd5748ff7c18aa15809365f"}, {"is_disabled": 0, "is_reserved": 0, "fusion_lat": 0.0, "lat": 38.92769333333333, "fusion_lon": 0.0, "rental_uris": {"ios": "https://dc.lft.to/lastmile_qr_scan", "android": "https://dc.lft.to/lastmile_qr_scan"}, "lon": -77.02618433333333, "bike_id": "72e6c72ae5191a98c1dba0a1915fa67b", "type": "electric_scooter", "name": "72e6c72ae5191a98c1dba0a1915fa67b"}, {"is_disabled": 0, "is_reserved": 0, "fusion_lat": 0.0, "lat": 38.888762666666665, "fusion_lon": 0.0, "rental_uris": {"ios": "https://dc.lft.to/lastmile_qr_scan", "android": "https://dc.lft.to/lastmile_qr_scan"}, "lon": -76.95699183333333, "bike_id": "3089e3172c5529e7e19c69fbea0f827f", "type": "electric_bike", "name": "3089e3172c5529e7e19c69fbea0f827f"}, {"is_disabled": 0, "is_reserved": 0, "fusion_lat": 0.0, "lat": 38.902463166666664, "fusion_lon": 0.0, "rental_uris": {"ios": "https://dc.lft.to/lastmile_qr_scan", "android": "https://dc.lft.to/lastmile_qr_scan"}, "lon": -76.99386516666667, "bike_id": "7e20fba03e0b4efa44c09c49747ada8c", "type": "electric_scooter", "name": "7e20fba03e0b4efa44c09c49747ada8c"}, {"is_disabled": 0, "is_reserved": 0, "fusion_lat": 0.0, "lat": 38.901906333333336, "fusion_lon": 0.0, "rental_uris": {"ios": "https://dc.lft.to/lastmile_qr_scan", "android": "https://dc.lft.to/lastmile_qr_scan"}, "lon": -77.002099, "bike_id": "2bdee85150ec9e4f5b03588a29ccaa23", "type": "electric_scooter", "name": "2bdee85150ec9e4f5b03588a29ccaa23"}, {"is_disabled": 0, "is_reserved": 0, "fusion_lat": 0.0, "lat": 38.87956766666667, "fusion_lon": 0.0, "rental_uris": {"ios": "https://dc.lft.to/lastmile_qr_scan", "android": "https://dc.lft.to/lastmile_qr_scan"}, "lon": -76.931838, "bike_id": "f114a9cae3bf228a4417699bf036a59c", "type": "electric_bike", "name": "f114a9cae3bf228a4417699bf036a59c"}, {"is_disabled": 0, "is_reserved": 0, "fusion_lat": 0.0, "lat": 38.9017825, "fusion_lon": 0.0, "rental_uris": {"ios": "https://dc.lft.to/lastmile_qr_scan", "android": "https://dc.lft.to/lastmile_qr_scan"}, "lon": -77.00063033333333, "bike_id": "22d62a51cbd9d44643c341a4d9d824b4", "type": "electric_scooter", "name": "22d62a51cbd9d44643c341a4d9d824b4"}, {"is_disabled": 0, "is_reserved": 0, "fusion_lat": 0.0, "lat": 38.89966833333333, "fusion_lon": 0.0, "rental_uris": {"ios": "https://dc.lft.to/lastmile_qr_scan", "android": "https://dc.lft.to/lastmile_qr_scan"}, "lon": -76.983609, "bike_id": "35599a40889d41a5414abdf2685d06b6", "type": "electric_scooter", "name": "35599a40889d41a5414abdf2685d06b6"}, {"is_disabled": 0, "is_reserved": 0, "fusion_lat": 0.0, "lat": 38.89085166666667, "fusion_lon": 0.0, "rental_uris": {"ios": "https://dc.lft.to/lastmile_qr_scan", "android": "https://dc.lft.to/lastmile_qr_scan"}, "lon": -76.93811183333334, "bike_id": "e73d371dd04bf8bd4834d43cc4e858da", "type": "electric_scooter", "name": "e73d371dd04bf8bd4834d43cc4e858da"}, {"is_disabled": 0, "is_reserved": 0, "fusion_lat": 0.0, "lat": 38.875794, "fusion_lon": 0.0, "rental_uris": {"ios": "https://dc.lft.to/lastmile_qr_scan", "android": "https://dc.lft.to/lastmile_qr_scan"}, "lon": -77.23410033333333, "bike_id": "27a69d9f2380042692ecd71d4213fe77", "type": "electric_bike", "name": "27a69d9f2380042692ecd71d4213fe77"}, {"is_disabled": 0, "is_reserved": 0, "fusion_lat": 0.0, "lat": 38.91682683333333, "fusion_lon": 0.0, "rental_uris": {"ios": "https://dc.lft.to/lastmile_qr_scan", "android": "https://dc.lft.to/lastmile_qr_scan"}, "lon": -77.02559, "bike_id": "a2907a29caf7a1934cb41c768a3db3d6", "type": "electric_scooter", "name": "a2907a29caf7a1934cb41c768a3db3d6"}, {"is_disabled": 0, "is_reserved": 0, "fusion_lat": 0.0, "lat": 38.91556883333333, "fusion_lon": 0.0, "rental_uris": {"ios": "https://dc.lft.to/lastmile_qr_scan", "android": "https://dc.lft.to/lastmile_qr_scan"}, "lon": -77.02142933333333, "bike_id": "b6057abadaa51385291140cd3f234942", "type": "electric_scooter", "name": "b6057abadaa51385291140cd3f234942"}, {"is_disabled": 0, "is_reserved": 0, "fusion_lat": 0.0, "lat": 38.870691, "fusion_lon": 0.0, "rental_uris": {"ios": "https://dc.lft.to/lastmile_qr_scan", "android": "https://dc.lft.to/lastmile_qr_scan"}, "lon": -76.98131733333334, "bike_id": "f977208430d911caa798279464027782", "type": "electric_scooter", "name": "f977208430d911caa798279464027782"}, {"is_disabled": 0, "is_reserved": 0, "fusion_lat": 0.0, "lat": 38.881629833333335, "fusion_lon": 0.0, "rental_uris": {"ios": "https://dc.lft.to/lastmile_qr_scan", "android": "https://dc.lft.to/lastmile_qr_scan"}, "lon": -77.02763983333334, "bike_id": "457a4d06661eb7e07c64eae19daf4194", "type": "electric_scooter", "name": "457a4d06661eb7e07c64eae19daf4194"}, {"is_disabled": 0, "is_reserved": 0, "fusion_lat": 0.0, "lat": 38.91705816666666, "fusion_lon": 0.0, "rental_uris": {"ios": "https://dc.lft.to/lastmile_qr_scan", "android": "https://dc.lft.to/lastmile_qr_scan"}, "lon": -77.04172483333333, "bike_id": "6fee6a68d4522d214de7ef5ff8faed96", "type": "electric_scooter", "name": "6fee6a68d4522d214de7ef5ff8faed96"}, {"is_disabled": 0, "is_reserved": 0, "fusion_lat": 0.0, "lat": 38.80518716666667, "fusion_lon": 0.0, "rental_uris": {"ios": "https://dc.lft.to/lastmile_qr_scan", "android": "https://dc.lft.to/lastmile_qr_scan"}, "lon": -77.04338166666666, "bike_id": "8d7ac80e9f19693af13f7ef05af6b142", "type": "electric_bike", "name": "8d7ac80e9f19693af13f7ef05af6b142"}, {"is_disabled": 0, "is_reserved": 0, "fusion_lat": 0.0, "lat": 38.92091716666667, "fusion_lon": 0.0, "rental_uris": {"ios": "https://dc.lft.to/lastmile_qr_scan", "android": "https://dc.lft.to/lastmile_qr_scan"}, "lon": -77.02404416666667, "bike_id": "5a89adf3a59d4f5811b41aa6bdc4e1d0", "type": "electric_scooter", "name": "5a89adf3a59d4f5811b41aa6bdc4e1d0"}, {"is_disabled": 0, "is_reserved": 0, "fusion_lat": 0.0, "lat": 38.86489, "fusion_lon": 0.0, "rental_uris": {"ios": "https://dc.lft.to/lastmile_qr_scan", "android": "https://dc.lft.to/lastmile_qr_scan"}, "lon": -76.96982116666666, "bike_id": "c368c779ee3418532f49454a0a07a32f", "type": "electric_bike", "name": "c368c779ee3418532f49454a0a07a32f"}, {"is_disabled": 0, "is_reserved": 0, "fusion_lat": 0.0, "lat": 38.89272233333333, "fusion_lon": 0.0, "rental_uris": {"ios": "https://dc.lft.to/lastmile_qr_scan", "android": "https://dc.lft.to/lastmile_qr_scan"}, "lon": -77.02206933333333, "bike_id": "02a38ff6baca79d62e78dadc0161fb3d", "type": "electric_scooter", "name": "02a38ff6baca79d62e78dadc0161fb3d"}, {"is_disabled": 0, "is_reserved": 0, "fusion_lat": 0.0, "lat": 38.880265, "fusion_lon": 0.0, "rental_uris": {"ios": "https://dc.lft.to/lastmile_qr_scan", "android": "https://dc.lft.to/lastmile_qr_scan"}, "lon": -76.94323066666666, "bike_id": "fa62f2d70303328db534b82e48a82d96", "type": "electric_scooter", "name": "fa62f2d70303328db534b82e48a82d96"}, {"is_disabled": 0, "is_reserved": 0, "fusion_lat": 0.0, "lat": 38.897521166666664, "fusion_lon": 0.0, "rental_uris": {"ios": "https://dc.lft.to/lastmile_qr_scan", "android": "https://dc.lft.to/lastmile_qr_scan"}, "lon": -77.01763783333334, "bike_id": "d74bdf4e59aba06267dd8d0ba3880ddb", "type": "electric_scooter", "name": "d74bdf4e59aba06267dd8d0ba3880ddb"}, {"is_disabled": 0, "is_reserved": 0, "fusion_lat": 0.0, "lat": 38.924069833333334, "fusion_lon": 0.0, "rental_uris": {"ios": "https://dc.lft.to/lastmile_qr_scan", "android": "https://dc.lft.to/lastmile_qr_scan"}, "lon": -77.05167833333333, "bike_id": "b38c2274ac8ca79bbede10ddfdc0c177", "type": "electric_scooter", "name": "b38c2274ac8ca79bbede10ddfdc0c177"}, {"is_disabled": 0, "is_reserved": 0, "fusion_lat": 0.0, "lat": 38.88074483333333, "fusion_lon": 0.0, "rental_uris": {"ios": "https://dc.lft.to/lastmile_qr_scan", "android": "https://dc.lft.to/lastmile_qr_scan"}, "lon": -77.02550883333333, "bike_id": "4e65440ecaa3471ff48399ef56c8dcee", "type": "electric_scooter", "name": "4e65440ecaa3471ff48399ef56c8dcee"}, {"is_disabled": 0, "is_reserved": 0, "fusion_lat": 0.0, "lat": 38.8786535, "fusion_lon": 0.0, "rental_uris": {"ios": "https://dc.lft.to/lastmile_qr_scan", "android": "https://dc.lft.to/lastmile_qr_scan"}, "lon": -77.006771, "bike_id": "01c51c6873a8b1ae37d9151c1c9ed516", "type": "electric_scooter", "name": "01c51c6873a8b1ae37d9151c1c9ed516"}, {"is_disabled": 0, "is_reserved": 0, "fusion_lat": 0.0, "lat": 38.8950895, "fusion_lon": 0.0, "rental_uris": {"ios": "https://dc.lft.to/lastmile_qr_scan", "android": "https://dc.lft.to/lastmile_qr_scan"}, "lon": -77.02279883333334, "bike_id": "546f4eb4d47bf58359a1254f9fdbcea5", "type": "electric_scooter", "name": "546f4eb4d47bf58359a1254f9fdbcea5"}, {"is_disabled": 0, "is_reserved": 0, "fusion_lat": 0.0, "lat": 38.9166335, "fusion_lon": 0.0, "rental_uris": {"ios": "https://dc.lft.to/lastmile_qr_scan", "android": "https://dc.lft.to/lastmile_qr_scan"}, "lon": -77.04382483333333, "bike_id": "1c399730a941e0260eef8f7c85d2018f", "type": "electric_scooter", "name": "1c399730a941e0260eef8f7c85d2018f"}, {"is_disabled": 0, "is_reserved": 0, "fusion_lat": 0.0, "lat": 38.908474, "fusion_lon": 0.0, "rental_uris": {"ios": "https://dc.lft.to/lastmile_qr_scan", "android": "https://dc.lft.to/lastmile_qr_scan"}, "lon": -77.0246305, "bike_id": "b3998fa1d2d09d1a0f408a7c0228f0c3", "type": "electric_scooter", "name": "b3998fa1d2d09d1a0f408a7c0228f0c3"}, {"is_disabled": 0, "is_reserved": 0, "fusion_lat": 0.0, "lat": 38.85543966666667, "fusion_lon": 0.0, "rental_uris": {"ios": "https://dc.lft.to/lastmile_qr_scan", "android": "https://dc.lft.to/lastmile_qr_scan"}, "lon": -76.98660216666667, "bike_id": "5aa8d38bff0e4fe6a6dfd9b6be5c9a73", "type": "electric_scooter", "name": "5aa8d38bff0e4fe6a6dfd9b6be5c9a73"}, {"is_disabled": 0, "is_reserved": 0, "fusion_lat": 0.0, "lat": 38.8735525, "fusion_lon": 0.0, "rental_uris": {"ios": "https://dc.lft.to/lastmile_qr_scan", "android": "https://dc.lft.to/lastmile_qr_scan"}, "lon": -77.00886133333333, "bike_id": "06bdd408dcb806f3d4d423b1ef944d26", "type": "electric_scooter", "name": "06bdd408dcb806f3d4d423b1ef944d26"}, {"is_disabled": 0, "is_reserved": 0, "fusion_lat": 0.0, "lat": 38.898482333333334, "fusion_lon": 0.0, "rental_uris": {"ios": "https://dc.lft.to/lastmile_qr_scan", "android": "https://dc.lft.to/lastmile_qr_scan"}, "lon": -77.00209683333334, "bike_id": "60b02835cff72f59cd753fd9ce07f534", "type": "electric_scooter", "name": "60b02835cff72f59cd753fd9ce07f534"}, {"is_disabled": 0, "is_reserved": 0, "fusion_lat": 0.0, "lat": 38.974379, "fusion_lon": 0.0, "rental_uris": {"ios": "https://dc.lft.to/lastmile_qr_scan", "android": "https://dc.lft.to/lastmile_qr_scan"}, "lon": -77.09614416666666, "bike_id": "4d5044aba4c3436d9ffeb54e3ce680ae", "type": "electric_bike", "name": "4d5044aba4c3436d9ffeb54e3ce680ae"}, {"is_disabled": 0, "is_reserved": 0, "fusion_lat": 0.0, "lat": 38.92325016666667, "fusion_lon": 0.0, "rental_uris": {"ios": "https://dc.lft.to/lastmile_qr_scan", "android": "https://dc.lft.to/lastmile_qr_scan"}, "lon": -77.035493, "bike_id": "e179194d1ec1b62666b23df5862eeceb", "type": "electric_scooter", "name": "e179194d1ec1b62666b23df5862eeceb"}, {"is_disabled": 0, "is_reserved": 0, "fusion_lat": 0.0, "lat": 38.848595833333334, "fusion_lon": 0.0, "rental_uris": {"ios": "https://dc.lft.to/lastmile_qr_scan", "android": "https://dc.lft.to/lastmile_qr_scan"}, "lon": -77.0682895, "bike_id": "1382ad16bae6811b7906648a309d1758", "type": "electric_bike", "name": "1382ad16bae6811b7906648a309d1758"}, {"is_disabled": 0, "is_reserved": 0, "fusion_lat": 0.0, "lat": 38.9204185, "fusion_lon": 0.0, "rental_uris": {"ios": "https://dc.lft.to/lastmile_qr_scan", "android": "https://dc.lft.to/lastmile_qr_scan"}, "lon": -77.016772, "bike_id": "3c2ef8a8474d7ab34c4885d068812a51", "type": "electric_scooter", "name": "3c2ef8a8474d7ab34c4885d068812a51"}, {"is_disabled": 0, "is_reserved": 0, "fusion_lat": 0.0, "lat": 38.906500666666666, "fusion_lon": 0.0, "rental_uris": {"ios": "https://dc.lft.to/lastmile_qr_scan", "android": "https://dc.lft.to/lastmile_qr_scan"}, "lon": -77.04876216666666, "bike_id": "093ebf734996b92be413c4badbc01b56", "type": "electric_scooter", "name": "093ebf734996b92be413c4badbc01b56"}, {"is_disabled": 0, "is_reserved": 0, "fusion_lat": 0.0, "lat": 38.990955666666665, "fusion_lon": 0.0, "rental_uris": {"ios": "https://dc.lft.to/lastmile_qr_scan", "android": "https://dc.lft.to/lastmile_qr_scan"}, "lon": -76.9937225, "bike_id": "d2c7d1d53af3051a3e9294538f3e009c", "type": "electric_bike", "name": "d2c7d1d53af3051a3e9294538f3e009c"}, {"is_disabled": 0, "is_reserved": 0, "fusion_lat": 0.0, "lat": 38.9050845, "fusion_lon": 0.0, "rental_uris": {"ios": "https://dc.lft.to/lastmile_qr_scan", "android": "https://dc.lft.to/lastmile_qr_scan"}, "lon": -77.04079616666667, "bike_id": "9c6d19cc98d747874a0470ee5f14b1e7", "type": "electric_scooter", "name": "9c6d19cc98d747874a0470ee5f14b1e7"}, {"is_disabled": 0, "is_reserved": 0, "fusion_lat": 0.0, "lat": 38.902303333333336, "fusion_lon": 0.0, "rental_uris": {"ios": "https://dc.lft.to/lastmile_qr_scan", "android": "https://dc.lft.to/lastmile_qr_scan"}, "lon": -77.00062333333334, "bike_id": "d1b56acd6b7806b51e491df03db13029", "type": "electric_scooter", "name": "d1b56acd6b7806b51e491df03db13029"}, {"is_disabled": 0, "is_reserved": 0, "fusion_lat": 0.0, "lat": 38.9084445, "fusion_lon": 0.0, "rental_uris": {"ios": "https://dc.lft.to/lastmile_qr_scan", "android": "https://dc.lft.to/lastmile_qr_scan"}, "lon": -77.05807183333333, "bike_id": "fe57b0c047588a0f12ffb6fcb09f1b2f", "type": "electric_scooter", "name": "fe57b0c047588a0f12ffb6fcb09f1b2f"}, {"is_disabled": 0, "is_reserved": 0, "fusion_lat": 0.0, "lat": 38.88747383333333, "fusion_lon": 0.0, "rental_uris": {"ios": "https://dc.lft.to/lastmile_qr_scan", "android": "https://dc.lft.to/lastmile_qr_scan"}, "lon": -77.0141235, "bike_id": "8e456f2d9323b1d5e95e5a637e2e3078", "type": "electric_scooter", "name": "8e456f2d9323b1d5e95e5a637e2e3078"}, {"is_disabled": 0, "is_reserved": 0, "fusion_lat": 0.0, "lat": 38.901793833333336, "fusion_lon": 0.0, "rental_uris": {"ios": "https://dc.lft.to/lastmile_qr_scan", "android": "https://dc.lft.to/lastmile_qr_scan"}, "lon": -76.9869615, "bike_id": "2fbba2a7dd9d26b242766467e33d575b", "type": "electric_scooter", "name": "2fbba2a7dd9d26b242766467e33d575b"}, {"is_disabled": 0, "is_reserved": 0, "fusion_lat": 0.0, "lat": 38.91543983333333, "fusion_lon": 0.0, "rental_uris": {"ios": "https://dc.lft.to/lastmile_qr_scan", "android": "https://dc.lft.to/lastmile_qr_scan"}, "lon": -77.026361, "bike_id": "9a82fd3dcb319bb12c9074f5cc8bda59", "type": "electric_scooter", "name": "9a82fd3dcb319bb12c9074f5cc8bda59"}, {"is_disabled": 0, "is_reserved": 0, "fusion_lat": 0.0, "lat": 38.92457433333333, "fusion_lon": 0.0, "rental_uris": {"ios": "https://dc.lft.to/lastmile_qr_scan", "android": "https://dc.lft.to/lastmile_qr_scan"}, "lon": -77.03787633333333, "bike_id": "55d52fabcdd8889656c716e587f60385", "type": "electric_scooter", "name": "55d52fabcdd8889656c716e587f60385"}, {"is_disabled": 0, "is_reserved": 0, "fusion_lat": 0.0, "lat": 38.895463, "fusion_lon": 0.0, "rental_uris": {"ios": "https://dc.lft.to/lastmile_qr_scan", "android": "https://dc.lft.to/lastmile_qr_scan"}, "lon": -77.0217805, "bike_id": "40ca0b3e169eec336eb6b4883fcbf975", "type": "electric_scooter", "name": "40ca0b3e169eec336eb6b4883fcbf975"}, {"is_disabled": 0, "is_reserved": 0, "fusion_lat": 0.0, "lat": 38.897315666666664, "fusion_lon": 0.0, "rental_uris": {"ios": "https://dc.lft.to/lastmile_qr_scan", "android": "https://dc.lft.to/lastmile_qr_scan"}, "lon": -77.03339116666666, "bike_id": "193d644fabdcf092d291ab427e4dae14", "type": "electric_scooter", "name": "193d644fabdcf092d291ab427e4dae14"}, {"is_disabled": 0, "is_reserved": 0, "fusion_lat": 0.0, "lat": 38.8718045, "fusion_lon": 0.0, "rental_uris": {"ios": "https://dc.lft.to/lastmile_qr_scan", "android": "https://dc.lft.to/lastmile_qr_scan"}, "lon": -77.00613783333333, "bike_id": "47669fdb2817e2e70c5d6d2367a96157", "type": "electric_scooter", "name": "47669fdb2817e2e70c5d6d2367a96157"}, {"is_disabled": 0, "is_reserved": 0, "fusion_lat": 0.0, "lat": 38.92884866666667, "fusion_lon": 0.0, "rental_uris": {"ios": "https://dc.lft.to/lastmile_qr_scan", "android": "https://dc.lft.to/lastmile_qr_scan"}, "lon": -77.037354, "bike_id": "5a388dd0896528f2a8ab9e15661599e5", "type": "electric_scooter", "name": "5a388dd0896528f2a8ab9e15661599e5"}, {"is_disabled": 0, "is_reserved": 0, "fusion_lat": 0.0, "lat": 38.89794716666667, "fusion_lon": 0.0, "rental_uris": {"ios": "https://dc.lft.to/lastmile_qr_scan", "android": "https://dc.lft.to/lastmile_qr_scan"}, "lon": -77.0502395, "bike_id": "af12c7b027472e1f236f1c39dea0232d", "type": "electric_scooter", "name": "af12c7b027472e1f236f1c39dea0232d"}, {"is_disabled": 0, "is_reserved": 0, "fusion_lat": 0.0, "lat": 38.876916333333334, "fusion_lon": 0.0, "rental_uris": {"ios": "https://dc.lft.to/lastmile_qr_scan", "android": "https://dc.lft.to/lastmile_qr_scan"}, "lon": -77.01665283333334, "bike_id": "68d1fe8a2e920915fbbd765757b9732c", "type": "electric_scooter", "name": "68d1fe8a2e920915fbbd765757b9732c"}, {"is_disabled": 0, "is_reserved": 0, "fusion_lat": 0.0, "lat": 38.88122966666667, "fusion_lon": 0.0, "rental_uris": {"ios": "https://dc.lft.to/lastmile_qr_scan", "android": "https://dc.lft.to/lastmile_qr_scan"}, "lon": -76.99283816666667, "bike_id": "5ad474a0224251925ce9cc0a4ff1aa3f", "type": "electric_scooter", "name": "5ad474a0224251925ce9cc0a4ff1aa3f"}, {"is_disabled": 0, "is_reserved": 0, "fusion_lat": 0.0, "lat": 38.89366233333333, "fusion_lon": 0.0, "rental_uris": {"ios": "https://dc.lft.to/lastmile_qr_scan", "android": "https://dc.lft.to/lastmile_qr_scan"}, "lon": -77.01147516666667, "bike_id": "d7173d1f4d9c3b9dc001955b11bffbae", "type": "electric_scooter", "name": "d7173d1f4d9c3b9dc001955b11bffbae"}, {"is_disabled": 0, "is_reserved": 0, "fusion_lat": 0.0, "lat": 38.9249845, "fusion_lon": 0.0, "rental_uris": {"ios": "https://dc.lft.to/lastmile_qr_scan", "android": "https://dc.lft.to/lastmile_qr_scan"}, "lon": -77.04334733333333, "bike_id": "07ce5a0feb5bd187725aa2092054670a", "type": "electric_scooter", "name": "07ce5a0feb5bd187725aa2092054670a"}, {"is_disabled": 0, "is_reserved": 0, "fusion_lat": 0.0, "lat": 38.92571183333333, "fusion_lon": 0.0, "rental_uris": {"ios": "https://dc.lft.to/lastmile_qr_scan", "android": "https://dc.lft.to/lastmile_qr_scan"}, "lon": -76.99489033333333, "bike_id": "58d487ede0567f33a796e840057ae189", "type": "electric_scooter", "name": "58d487ede0567f33a796e840057ae189"}, {"is_disabled": 0, "is_reserved": 0, "fusion_lat": 0.0, "lat": 38.92705733333333, "fusion_lon": 0.0, "rental_uris": {"ios": "https://dc.lft.to/lastmile_qr_scan", "android": "https://dc.lft.to/lastmile_qr_scan"}, "lon": -76.96080266666667, "bike_id": "3817ca439f695d0b79192df55a917bc6", "type": "electric_scooter", "name": "3817ca439f695d0b79192df55a917bc6"}, {"is_disabled": 0, "is_reserved": 0, "fusion_lat": 0.0, "lat": 38.92697733333333, "fusion_lon": 0.0, "rental_uris": {"ios": "https://dc.lft.to/lastmile_qr_scan", "android": "https://dc.lft.to/lastmile_qr_scan"}, "lon": -77.02492416666666, "bike_id": "96c759d8f508d2e6b2add96a370c5ad9", "type": "electric_scooter", "name": "96c759d8f508d2e6b2add96a370c5ad9"}, {"is_disabled": 0, "is_reserved": 0, "fusion_lat": 0.0, "lat": 38.9058765, "fusion_lon": 0.0, "rental_uris": {"ios": "https://dc.lft.to/lastmile_qr_scan", "android": "https://dc.lft.to/lastmile_qr_scan"}, "lon": -77.04322283333333, "bike_id": "b267b87c56c9081bb4b9de2d89302d17", "type": "electric_scooter", "name": "b267b87c56c9081bb4b9de2d89302d17"}, {"is_disabled": 0, "is_reserved": 0, "fusion_lat": 0.0, "lat": 38.90718916666667, "fusion_lon": 0.0, "rental_uris": {"ios": "https://dc.lft.to/lastmile_qr_scan", "android": "https://dc.lft.to/lastmile_qr_scan"}, "lon": -77.02505983333333, "bike_id": "d95bf255466b437c6407a3907e140274", "type": "electric_scooter", "name": "d95bf255466b437c6407a3907e140274"}, {"is_disabled": 0, "is_reserved": 0, "fusion_lat": 0.0, "lat": 38.90001066666667, "fusion_lon": 0.0, "rental_uris": {"ios": "https://dc.lft.to/lastmile_qr_scan", "android": "https://dc.lft.to/lastmile_qr_scan"}, "lon": -77.05254666666667, "bike_id": "f4b3ada333a673d4cf002b403a854f21", "type": "electric_scooter", "name": "f4b3ada333a673d4cf002b403a854f21"}, {"is_disabled": 0, "is_reserved": 0, "fusion_lat": 0.0, "lat": 38.9170325, "fusion_lon": 0.0, "rental_uris": {"ios": "https://dc.lft.to/lastmile_qr_scan", "android": "https://dc.lft.to/lastmile_qr_scan"}, "lon": -77.02410633333334, "bike_id": "486238f7540a108ef0e9810db1accacc", "type": "electric_scooter", "name": "486238f7540a108ef0e9810db1accacc"}, {"is_disabled": 0, "is_reserved": 0, "fusion_lat": 0.0, "lat": 38.914906, "fusion_lon": 0.0, "rental_uris": {"ios": "https://dc.lft.to/lastmile_qr_scan", "android": "https://dc.lft.to/lastmile_qr_scan"}, "lon": -76.983717, "bike_id": "e32d7b9815c25d233805150d7bb94788", "type": "electric_scooter", "name": "e32d7b9815c25d233805150d7bb94788"}, {"is_disabled": 0, "is_reserved": 0, "fusion_lat": 0.0, "lat": 38.91685783333333, "fusion_lon": 0.0, "rental_uris": {"ios": "https://dc.lft.to/lastmile_qr_scan", "android": "https://dc.lft.to/lastmile_qr_scan"}, "lon": -77.03435333333333, "bike_id": "eb6b8a5e8ed437de312492326ede952e", "type": "electric_scooter", "name": "eb6b8a5e8ed437de312492326ede952e"}, {"is_disabled": 0, "is_reserved": 0, "fusion_lat": 0.0, "lat": 38.91692783333333, "fusion_lon": 0.0, "rental_uris": {"ios": "https://dc.lft.to/lastmile_qr_scan", "android": "https://dc.lft.to/lastmile_qr_scan"}, "lon": -77.03720133333333, "bike_id": "f273a72b5d3b2aab6df9af0043035175", "type": "electric_scooter", "name": "f273a72b5d3b2aab6df9af0043035175"}, {"is_disabled": 0, "is_reserved": 0, "fusion_lat": 0.0, "lat": 38.9444715, "fusion_lon": 0.0, "rental_uris": {"ios": "https://dc.lft.to/lastmile_qr_scan", "android": "https://dc.lft.to/lastmile_qr_scan"}, "lon": -77.03277883333334, "bike_id": "67b3f4a0aee7fbef28cccd22ce27bbb7", "type": "electric_scooter", "name": "67b3f4a0aee7fbef28cccd22ce27bbb7"}, {"is_disabled": 0, "is_reserved": 0, "fusion_lat": 0.0, "lat": 38.92878533333333, "fusion_lon": 0.0, "rental_uris": {"ios": "https://dc.lft.to/lastmile_qr_scan", "android": "https://dc.lft.to/lastmile_qr_scan"}, "lon": -77.03997266666667, "bike_id": "6e85a291e1877e15b5a25fb0e6057cff", "type": "electric_scooter", "name": "6e85a291e1877e15b5a25fb0e6057cff"}, {"is_disabled": 0, "is_reserved": 0, "fusion_lat": 0.0, "lat": 38.919534666666664, "fusion_lon": 0.0, "rental_uris": {"ios": "https://dc.lft.to/lastmile_qr_scan", "android": "https://dc.lft.to/lastmile_qr_scan"}, "lon": -77.02305283333334, "bike_id": "af0a17499d33b16804f4476500fe2c92", "type": "electric_scooter", "name": "af0a17499d33b16804f4476500fe2c92"}, {"is_disabled": 0, "is_reserved": 0, "fusion_lat": 0.0, "lat": 38.89836366666667, "fusion_lon": 0.0, "rental_uris": {"ios": "https://dc.lft.to/lastmile_qr_scan", "android": "https://dc.lft.to/lastmile_qr_scan"}, "lon": -77.04905416666666, "bike_id": "19591f6fbd8dfe382c1ebdacf2d12d33", "type": "electric_scooter", "name": "19591f6fbd8dfe382c1ebdacf2d12d33"}, {"is_disabled": 0, "is_reserved": 0, "fusion_lat": 0.0, "lat": 38.91691866666667, "fusion_lon": 0.0, "rental_uris": {"ios": "https://dc.lft.to/lastmile_qr_scan", "android": "https://dc.lft.to/lastmile_qr_scan"}, "lon": -77.025986, "bike_id": "34424d6f83b0ba0b56675375a7100c25", "type": "electric_scooter", "name": "34424d6f83b0ba0b56675375a7100c25"}, {"is_disabled": 0, "is_reserved": 0, "fusion_lat": 0.0, "lat": 38.8681845, "fusion_lon": 0.0, "rental_uris": {"ios": "https://dc.lft.to/lastmile_qr_scan", "android": "https://dc.lft.to/lastmile_qr_scan"}, "lon": -76.98021883333334, "bike_id": "90b319fb26e11a816b7794369d489c79", "type": "electric_bike", "name": "90b319fb26e11a816b7794369d489c79"}, {"is_disabled": 0, "is_reserved": 0, "fusion_lat": 0.0, "lat": 38.914134, "fusion_lon": 0.0, "rental_uris": {"ios": "https://dc.lft.to/lastmile_qr_scan", "android": "https://dc.lft.to/lastmile_qr_scan"}, "lon": -77.03167066666667, "bike_id": "1a2538ff80f8d4a311130cc6106e767f", "type": "electric_scooter", "name": "1a2538ff80f8d4a311130cc6106e767f"}, {"is_disabled": 0, "is_reserved": 0, "fusion_lat": 0.0, "lat": 38.92422333333333, "fusion_lon": 0.0, "rental_uris": {"ios": "https://dc.lft.to/lastmile_qr_scan", "android": "https://dc.lft.to/lastmile_qr_scan"}, "lon": -77.02039016666667, "bike_id": "5c12bfaf1fa7372f47de699626bbdeef", "type": "electric_scooter", "name": "5c12bfaf1fa7372f47de699626bbdeef"}, {"is_disabled": 0, "is_reserved": 0, "fusion_lat": 0.0, "lat": 38.942171, "fusion_lon": 0.0, "rental_uris": {"ios": "https://dc.lft.to/lastmile_qr_scan", "android": "https://dc.lft.to/lastmile_qr_scan"}, "lon": -76.96130633333334, "bike_id": "0b6dee6ae3340e13af1669cfa6836d70", "type": "electric_bike", "name": "0b6dee6ae3340e13af1669cfa6836d70"}, {"is_disabled": 0, "is_reserved": 0, "fusion_lat": 0.0, "lat": 38.91646083333333, "fusion_lon": 0.0, "rental_uris": {"ios": "https://dc.lft.to/lastmile_qr_scan", "android": "https://dc.lft.to/lastmile_qr_scan"}, "lon": -77.01021516666667, "bike_id": "04a3748e0f149b26d00b6b105e8a0aa3", "type": "electric_scooter", "name": "04a3748e0f149b26d00b6b105e8a0aa3"}, {"is_disabled": 0, "is_reserved": 0, "fusion_lat": 0.0, "lat": 38.89824616666667, "fusion_lon": 0.0, "rental_uris": {"ios": "https://dc.lft.to/lastmile_qr_scan", "android": "https://dc.lft.to/lastmile_qr_scan"}, "lon": -76.93000716666667, "bike_id": "23e853000b366e9a104646df30482b21", "type": "electric_scooter", "name": "23e853000b366e9a104646df30482b21"}, {"is_disabled": 0, "is_reserved": 0, "fusion_lat": 0.0, "lat": 38.906720666666665, "fusion_lon": 0.0, "rental_uris": {"ios": "https://dc.lft.to/lastmile_qr_scan", "android": "https://dc.lft.to/lastmile_qr_scan"}, "lon": -77.0714555, "bike_id": "b9800b1f29d704b63a648db117bb5420", "type": "electric_scooter", "name": "b9800b1f29d704b63a648db117bb5420"}, {"is_disabled": 0, "is_reserved": 0, "fusion_lat": 0.0, "lat": 38.9200665, "fusion_lon": 0.0, "rental_uris": {"ios": "https://dc.lft.to/lastmile_qr_scan", "android": "https://dc.lft.to/lastmile_qr_scan"}, "lon": -77.04173466666667, "bike_id": "7f573c681bda290b4b9161db5623c0c3", "type": "electric_scooter", "name": "7f573c681bda290b4b9161db5623c0c3"}, {"is_disabled": 0, "is_reserved": 0, "fusion_lat": 0.0, "lat": 38.897800333333336, "fusion_lon": 0.0, "rental_uris": {"ios": "https://dc.lft.to/lastmile_qr_scan", "android": "https://dc.lft.to/lastmile_qr_scan"}, "lon": -77.047948, "bike_id": "d223cd4cd1cc89a178ec81b8309c43b1", "type": "electric_scooter", "name": "d223cd4cd1cc89a178ec81b8309c43b1"}, {"is_disabled": 0, "is_reserved": 0, "fusion_lat": 0.0, "lat": 38.901817666666666, "fusion_lon": 0.0, "rental_uris": {"ios": "https://dc.lft.to/lastmile_qr_scan", "android": "https://dc.lft.to/lastmile_qr_scan"}, "lon": -76.99957683333334, "bike_id": "7aba3066b9a84b75013c74813d85f945", "type": "electric_scooter", "name": "7aba3066b9a84b75013c74813d85f945"}, {"is_disabled": 0, "is_reserved": 0, "fusion_lat": 0.0, "lat": 38.926670666666666, "fusion_lon": 0.0, "rental_uris": {"ios": "https://dc.lft.to/lastmile_qr_scan", "android": "https://dc.lft.to/lastmile_qr_scan"}, "lon": -76.99556316666667, "bike_id": "079d24bd43ed7cb81df6752ba8c3c6a5", "type": "electric_scooter", "name": "079d24bd43ed7cb81df6752ba8c3c6a5"}, {"is_disabled": 0, "is_reserved": 0, "fusion_lat": 0.0, "lat": 38.809798, "fusion_lon": 0.0, "rental_uris": {"ios": "https://dc.lft.to/lastmile_qr_scan", "android": "https://dc.lft.to/lastmile_qr_scan"}, "lon": -77.07657283333333, "bike_id": "8cb7b894f496e2833ab3bcd2e07b8c72", "type": "electric_bike", "name": "8cb7b894f496e2833ab3bcd2e07b8c72"}, {"is_disabled": 0, "is_reserved": 0, "fusion_lat": 0.0, "lat": 38.89629983333333, "fusion_lon": 0.0, "rental_uris": {"ios": "https://dc.lft.to/lastmile_qr_scan", "android": "https://dc.lft.to/lastmile_qr_scan"}, "lon": -77.02847883333334, "bike_id": "6f7586d6d93fa58bfe0f78a965f206f9", "type": "electric_scooter", "name": "6f7586d6d93fa58bfe0f78a965f206f9"}, {"is_disabled": 0, "is_reserved": 0, "fusion_lat": 0.0, "lat": 38.92765133333333, "fusion_lon": 0.0, "rental_uris": {"ios": "https://dc.lft.to/lastmile_qr_scan", "android": "https://dc.lft.to/lastmile_qr_scan"}, "lon": -77.07053783333333, "bike_id": "76356b4a629a479463048a7083028cee", "type": "electric_scooter", "name": "76356b4a629a479463048a7083028cee"}, {"is_disabled": 0, "is_reserved": 0, "fusion_lat": 0.0, "lat": 38.898307333333335, "fusion_lon": 0.0, "rental_uris": {"ios": "https://dc.lft.to/lastmile_qr_scan", "android": "https://dc.lft.to/lastmile_qr_scan"}, "lon": -77.02858433333333, "bike_id": "18f6d86eaab1f1eff3ce2bb2c909e581", "type": "electric_scooter", "name": "18f6d86eaab1f1eff3ce2bb2c909e581"}, {"is_disabled": 0, "is_reserved": 0, "fusion_lat": 0.0, "lat": 38.892319, "fusion_lon": 0.0, "rental_uris": {"ios": "https://dc.lft.to/lastmile_qr_scan", "android": "https://dc.lft.to/lastmile_qr_scan"}, "lon": -77.04461883333333, "bike_id": "8ae6c800e269672f1bbd7ceb9fb329b3", "type": "electric_scooter", "name": "8ae6c800e269672f1bbd7ceb9fb329b3"}, {"is_disabled": 0, "is_reserved": 0, "fusion_lat": 0.0, "lat": 38.90044283333334, "fusion_lon": 0.0, "rental_uris": {"ios": "https://dc.lft.to/lastmile_qr_scan", "android": "https://dc.lft.to/lastmile_qr_scan"}, "lon": -76.99014383333333, "bike_id": "9fcee6e93899be238301967e4efa033e", "type": "electric_bike", "name": "9fcee6e93899be238301967e4efa033e"}, {"is_disabled": 0, "is_reserved": 0, "fusion_lat": 0.0, "lat": 38.884494833333335, "fusion_lon": 0.0, "rental_uris": {"ios": "https://dc.lft.to/lastmile_qr_scan", "android": "https://dc.lft.to/lastmile_qr_scan"}, "lon": -76.95094666666667, "bike_id": "538c1405fe6bae469f4d11d6915250f0", "type": "electric_scooter", "name": "538c1405fe6bae469f4d11d6915250f0"}, {"is_disabled": 0, "is_reserved": 0, "fusion_lat": 0.0, "lat": 38.881369166666666, "fusion_lon": 0.0, "rental_uris": {"ios": "https://dc.lft.to/lastmile_qr_scan", "android": "https://dc.lft.to/lastmile_qr_scan"}, "lon": -77.0227135, "bike_id": "c1baa3229e83834dcbf3c21ecd83d11c", "type": "electric_scooter", "name": "c1baa3229e83834dcbf3c21ecd83d11c"}, {"is_disabled": 0, "is_reserved": 0, "fusion_lat": 0.0, "lat": 38.820373000000004, "fusion_lon": 0.0, "rental_uris": {"ios": "https://dc.lft.to/lastmile_qr_scan", "android": "https://dc.lft.to/lastmile_qr_scan"}, "lon": -77.054594, "bike_id": "4a8ffb0d0e6362ae7842766ed1a6ebb5", "type": "electric_bike", "name": "4a8ffb0d0e6362ae7842766ed1a6ebb5"}, {"is_disabled": 0, "is_reserved": 0, "fusion_lat": 0.0, "lat": 38.921561, "fusion_lon": 0.0, "rental_uris": {"ios": "https://dc.lft.to/lastmile_qr_scan", "android": "https://dc.lft.to/lastmile_qr_scan"}, "lon": -77.03384166666666, "bike_id": "60dd34929b7f52ef9e97a48807941e5b", "type": "electric_scooter", "name": "60dd34929b7f52ef9e97a48807941e5b"}, {"is_disabled": 0, "is_reserved": 0, "fusion_lat": 0.0, "lat": 38.938611333333334, "fusion_lon": 0.0, "rental_uris": {"ios": "https://dc.lft.to/lastmile_qr_scan", "android": "https://dc.lft.to/lastmile_qr_scan"}, "lon": -77.0246395, "bike_id": "a947a298f9cdfa06d7800d7f88eddbb2", "type": "electric_scooter", "name": "a947a298f9cdfa06d7800d7f88eddbb2"}, {"is_disabled": 0, "is_reserved": 0, "fusion_lat": 0.0, "lat": 38.9468155, "fusion_lon": 0.0, "rental_uris": {"ios": "https://dc.lft.to/lastmile_qr_scan", "android": "https://dc.lft.to/lastmile_qr_scan"}, "lon": -77.032815, "bike_id": "35a618edc889a44f8602ea94d5c40e8a", "type": "electric_scooter", "name": "35a618edc889a44f8602ea94d5c40e8a"}, {"is_disabled": 0, "is_reserved": 0, "fusion_lat": 0.0, "lat": 38.916847, "fusion_lon": 0.0, "rental_uris": {"ios": "https://dc.lft.to/lastmile_qr_scan", "android": "https://dc.lft.to/lastmile_qr_scan"}, "lon": -77.029586, "bike_id": "95ab8b8ea1b6d3918ce1b6fe9b3ccb45", "type": "electric_scooter", "name": "95ab8b8ea1b6d3918ce1b6fe9b3ccb45"}, {"is_disabled": 0, "is_reserved": 0, "fusion_lat": 0.0, "lat": 38.9247335, "fusion_lon": 0.0, "rental_uris": {"ios": "https://dc.lft.to/lastmile_qr_scan", "android": "https://dc.lft.to/lastmile_qr_scan"}, "lon": -77.02719883333333, "bike_id": "694b5d32a90e32caef627df79899456e", "type": "electric_scooter", "name": "694b5d32a90e32caef627df79899456e"},