{"data": {"bikes": [{"fusion_lon": 0.0, "bike_id": "50a62452b7e7be72e98e865b229e8d69", "name": "50a62452b7e7be72e98e865b229e8d69", "rental_uris": {"android": "https://dc.lft.to/lastmile_qr_scan", "ios": "https://dc.lft.to/lastmile_qr_scan"}, "lon": -77.03433233333334, "fusion_lat": 0.0, "is_disabled": 0, "is_reserved": 0, "lat": 38.91929416666667, "type": "electric_scooter"}, {"fusion_lon": 0.0, "bike_id": "54c74b421ecca62fc38f2ca7ebfa23ca", "name": "54c74b421ecca62fc38f2ca7ebfa23ca", "rental_uris": {"android": "https://dc.lft.to/lastmile_qr_scan", "ios": "https://dc.lft.to/lastmile_qr_scan"}, "lon": -77.04204766666666, "fusion_lat": 0.0, "is_disabled": 0, "is_reserved": 0, "lat": 38.89822816666667, "type": "electric_scooter"}, {"fusion_lon": 0.0, "bike_id": "9b89f27870bda630a52698824f9fef29", "name": "9b89f27870bda630a52698824f9fef29", "rental_uris": {"android": "https://dc.lft.to/lastmile_qr_scan", "ios": "https://dc.lft.to/lastmile_qr_scan"}, "lon": -77.02672983333333, "fusion_lat": 0.0, "is_disabled": 0, "is_reserved": 0, "lat": 38.931057, "type": "electric_scooter"}, {"fusion_lon": 0.0, "bike_id": "fda313bbeb7f2e42c71ea058b139eee3", "name": "fda313bbeb7f2e42c71ea058b139eee3", "rental_uris": {"android": "https://dc.lft.to/lastmile_qr_scan", "ios": "https://dc.lft.to/lastmile_qr_scan"}, "lon": -76.98297466666666, "fusion_lat": 0.0, "is_disabled": 0, "is_reserved": 0, "lat": 38.8876475, "type": "electric_scooter"}, {"fusion_lon": 0.0, "bike_id": "ebb5439e66009199a6b19b3322b142f5", "name": "ebb5439e66009199a6b19b3322b142f5", "rental_uris": {"android": "https://dc.lft.to/lastmile_qr_scan", "ios": "https://dc.lft.to/lastmile_qr_scan"}, "lon": -77.00926083333333, "fusion_lat": 0.0, "is_disabled": 0, "is_reserved": 0, "lat": 38.912735166666664, "type": "electric_scooter"}, {"fusion_lon": 0.0, "bike_id": "05e5fc6c38ae0394b057bf171f7e4281", "name": "05e5fc6c38ae0394b057bf171f7e4281", "rental_uris": {"android": "https://dc.lft.to/lastmile_qr_scan", "ios": "https://dc.lft.to/lastmile_qr_scan"}, "lon": -77.0436815, "fusion_lat": 0.0, "is_disabled": 0, "is_reserved": 0, "lat": 38.90150233333333, "type": "electric_scooter"}, {"fusion_lon": 0.0, "bike_id": "c792f1eefd0ca946dd3a8a510ff92fce", "name": "c792f1eefd0ca946dd3a8a510ff92fce", "rental_uris": {"android": "https://dc.lft.to/lastmile_qr_scan", "ios": "https://dc.lft.to/lastmile_qr_scan"}, "lon": -77.03580883333333, "fusion_lat": 0.0, "is_disabled": 0, "is_reserved": 0, "lat": 38.906920166666666, "type": "electric_scooter"}, {"fusion_lon": 0.0, "bike_id": "c66c4599184a3d76b3f33d012631f5d3", "name": "c66c4599184a3d76b3f33d012631f5d3", "rental_uris": {"android": "https://dc.lft.to/lastmile_qr_scan", "ios": "https://dc.lft.to/lastmile_qr_scan"}, "lon": -77.03472866666667, "fusion_lat": 0.0, "is_disabled": 0, "is_reserved": 0, "lat": 38.92642883333333, "type": "electric_scooter"}, {"fusion_lon": 0.0, "bike_id": "b7a5ce3b7cba9ce6503607cf6021c129", "name": "b7a5ce3b7cba9ce6503607cf6021c129", "rental_uris": {"android": "https://dc.lft.to/lastmile_qr_scan", "ios": "https://dc.lft.to/lastmile_qr_scan"}, "lon": -77.03318383333334, "fusion_lat": 0.0, "is_disabled": 0, "is_reserved": 0, "lat": 38.887661666666666, "type": "electric_scooter"}, {"fusion_lon": 0.0, "bike_id": "7f568eb6e5806075948f51e98c989cb4", "name": "7f568eb6e5806075948f51e98c989cb4", "rental_uris": {"android": "https://dc.lft.to/lastmile_qr_scan", "ios": "https://dc.lft.to/lastmile_qr_scan"}, "lon": -77.00453966666667, "fusion_lat": 0.0, "is_disabled": 0, "is_reserved": 0, "lat": 38.837968833333335, "type": "electric_scooter"}, {"fusion_lon": 0.0, "bike_id": "dc273d932820506f932d42679fcf2070", "name": "dc273d932820506f932d42679fcf2070", "rental_uris": {"android": "https://dc.lft.to/lastmile_qr_scan", "ios": "https://dc.lft.to/lastmile_qr_scan"}, "lon": -76.98899166666666, "fusion_lat": 0.0, "is_disabled": 0, "is_reserved": 0, "lat": 38.8611315, "type": "electric_scooter"}, {"fusion_lon": 0.0, "bike_id": "a0ddee8e00ab81a37f773b53530e4fbc", "name": "a0ddee8e00ab81a37f773b53530e4fbc", "rental_uris": {"android": "https://dc.lft.to/lastmile_qr_scan", "ios": "https://dc.lft.to/lastmile_qr_scan"}, "lon": -77.042136, "fusion_lat": 0.0, "is_disabled": 0, "is_reserved": 0, "lat": 38.921145, "type": "electric_scooter"}, {"fusion_lon": 0.0, "bike_id": "b56a42de90e60b651a4f082cd840fe1f", "name": "b56a42de90e60b651a4f082cd840fe1f", "rental_uris": {"android": "https://dc.lft.to/lastmile_qr_scan", "ios": "https://dc.lft.to/lastmile_qr_scan"}, "lon": -77.027467, "fusion_lat": 0.0, "is_disabled": 0, "is_reserved": 0, "lat": 38.966038833333336, "type": "electric_scooter"}, {"fusion_lon": 0.0, "bike_id": "007f4e2b58e11424541b38fcfa4ea5f8", "name": "007f4e2b58e11424541b38fcfa4ea5f8", "rental_uris": {"android": "https://dc.lft.to/lastmile_qr_scan", "ios": "https://dc.lft.to/lastmile_qr_scan"}, "lon": -77.04209216666666, "fusion_lat": 0.0, "is_disabled": 0, "is_reserved": 0, "lat": 38.90762216666667, "type": "electric_scooter"}, {"fusion_lon": 0.0, "bike_id": "be19e18f47f323203e82931a3c14b33e", "name": "be19e18f47f323203e82931a3c14b33e", "rental_uris": {"android": "https://dc.lft.to/lastmile_qr_scan", "ios": "https://dc.lft.to/lastmile_qr_scan"}, "lon": -77.0726635, "fusion_lat": 0.0, "is_disabled": 0, "is_reserved": 0, "lat": 38.93635333333334, "type": "electric_scooter"}, {"fusion_lon": 0.0, "bike_id": "089273149817e343af7dd8d124b4863f", "name": "089273149817e343af7dd8d124b4863f", "rental_uris": {"android": "https://dc.lft.to/lastmile_qr_scan", "ios": "https://dc.lft.to/lastmile_qr_scan"}, "lon": -77.04745733333333, "fusion_lat": 0.0, "is_disabled": 0, "is_reserved": 0, "lat": 39.00034, "type": "electric_bike"}, {"fusion_lon": 0.0, "bike_id": "da5aaf889ab1511b60f6f22b20fd8312", "name": "da5aaf889ab1511b60f6f22b20fd8312", "rental_uris": {"android": "https://dc.lft.to/lastmile_qr_scan", "ios": "https://dc.lft.to/lastmile_qr_scan"}, "lon": -77.07229216666667, "fusion_lat": 0.0, "is_disabled": 0, "is_reserved": 0, "lat": 38.93849783333334, "type": "electric_scooter"}, {"fusion_lon": 0.0, "bike_id": "09630af2597fe0ded0340b07720b1f98", "name": "09630af2597fe0ded0340b07720b1f98", "rental_uris": {"android": "https://dc.lft.to/lastmile_qr_scan", "ios": "https://dc.lft.to/lastmile_qr_scan"}, "lon": -77.032087, "fusion_lat": 0.0, "is_disabled": 0, "is_reserved": 0, "lat": 38.916466666666665, "type": "electric_scooter"}, {"fusion_lon": 0.0, "bike_id": "f8bc32523e6eec9f8f016c278053a997", "name": "f8bc32523e6eec9f8f016c278053a997", "rental_uris": {"android": "https://dc.lft.to/lastmile_qr_scan", "ios": "https://dc.lft.to/lastmile_qr_scan"}, "lon": -77.0502325, "fusion_lat": 0.0, "is_disabled": 0, "is_reserved": 0, "lat": 38.8964115, "type": "electric_scooter"}, {"fusion_lon": 0.0, "bike_id": "58d89016690d66b45b5920421d2d28f5", "name": "58d89016690d66b45b5920421d2d28f5", "rental_uris": {"android": "https://dc.lft.to/lastmile_qr_scan", "ios": "https://dc.lft.to/lastmile_qr_scan"}, "lon": -77.0491155, "fusion_lat": 0.0, "is_disabled": 0, "is_reserved": 0, "lat": 38.899025333333334, "type": "electric_scooter"}, {"fusion_lon": 0.0, "bike_id": "c7d621fa60c4dd5342fc074df8422031", "name": "c7d621fa60c4dd5342fc074df8422031", "rental_uris": {"android": "https://dc.lft.to/lastmile_qr_scan", "ios": "https://dc.lft.to/lastmile_qr_scan"}, "lon": -77.0701775, "fusion_lat": 0.0, "is_disabled": 0, "is_reserved": 0, "lat": 38.8411165, "type": "electric_bike"}, {"fusion_lon": 0.0, "bike_id": "42c631762aa7a634144a16eb8f6faf42", "name": "42c631762aa7a634144a16eb8f6faf42", "rental_uris": {"android": "https://dc.lft.to/lastmile_qr_scan", "ios": "https://dc.lft.to/lastmile_qr_scan"}, "lon": -77.04045983333333, "fusion_lat": 0.0, "is_disabled": 0, "is_reserved": 0, "lat": 38.906092, "type": "electric_scooter"}, {"fusion_lon": 0.0, "bike_id": "4f29a229aac0ba598efd4620eb1bb1e7", "name": "4f29a229aac0ba598efd4620eb1bb1e7", "rental_uris": {"android": "https://dc.lft.to/lastmile_qr_scan", "ios": "https://dc.lft.to/lastmile_qr_scan"}, "lon": -76.96504766666666, "fusion_lat": 0.0, "is_disabled": 0, "is_reserved": 0, "lat": 38.876482, "type": "electric_scooter"}, {"fusion_lon": 0.0, "bike_id": "c3c67ebccf457371dfeb252cab60fa6c", "name": "c3c67ebccf457371dfeb252cab60fa6c", "rental_uris": {"android": "https://dc.lft.to/lastmile_qr_scan", "ios": "https://dc.lft.to/lastmile_qr_scan"}, "lon": -77.04336766666667, "fusion_lat": 0.0, "is_disabled": 0, "is_reserved": 0, "lat": 38.892256, "type": "electric_scooter"}, {"fusion_lon": 0.0, "bike_id": "fd0451f9fa9dab15eab0899f5d4c3412", "name": "fd0451f9fa9dab15eab0899f5d4c3412", "rental_uris": {"android": "https://dc.lft.to/lastmile_qr_scan", "ios": "https://dc.lft.to/lastmile_qr_scan"}, "lon": -76.96976516666666, "fusion_lat": 0.0, "is_disabled": 0, "is_reserved": 0, "lat": 38.87385533333333, "type": "electric_scooter"}, {"fusion_lon": 0.0, "bike_id": "22041bf4d97a8dd2d7f90c577442d3b5", "name": "22041bf4d97a8dd2d7f90c577442d3b5", "rental_uris": {"android": "https://dc.lft.to/lastmile_qr_scan", "ios": "https://dc.lft.to/lastmile_qr_scan"}, "lon": -77.01764666666666, "fusion_lat": 0.0, "is_disabled": 0, "is_reserved": 0, "lat": 38.938946333333334, "type": "electric_scooter"}, {"fusion_lon": 0.0, "bike_id": "01ebbca94a2f61ebee0a84d0437764d1", "name": "01ebbca94a2f61ebee0a84d0437764d1", "rental_uris": {"android": "https://dc.lft.to/lastmile_qr_scan", "ios": "https://dc.lft.to/lastmile_qr_scan"}, "lon": -77.0239745, "fusion_lat": 0.0, "is_disabled": 0, "is_reserved": 0, "lat": 38.957139166666664, "type": "electric_scooter"}, {"fusion_lon": 0.0, "bike_id": "2888d8d126dca117ca9bc8ef6faa297e", "name": "2888d8d126dca117ca9bc8ef6faa297e", "rental_uris": {"android": "https://dc.lft.to/lastmile_qr_scan", "ios": "https://dc.lft.to/lastmile_qr_scan"}, "lon": -77.17682533333333, "fusion_lat": 0.0, "is_disabled": 0, "is_reserved": 0, "lat": 39.0878425, "type": "electric_bike"}, {"fusion_lon": 0.0, "bike_id": "8b75d0dcda105c5f68fa0ff4f4c6c27d", "name": "8b75d0dcda105c5f68fa0ff4f4c6c27d", "rental_uris": {"android": "https://dc.lft.to/lastmile_qr_scan", "ios": "https://dc.lft.to/lastmile_qr_scan"}, "lon": -77.02816083333333, "fusion_lat": 0.0, "is_disabled": 0, "is_reserved": 0, "lat": 38.916403833333334, "type": "electric_scooter"}, {"fusion_lon": 0.0, "bike_id": "294f3e039633247a19005a16bda3c6e2", "name": "294f3e039633247a19005a16bda3c6e2", "rental_uris": {"android": "https://dc.lft.to/lastmile_qr_scan", "ios": "https://dc.lft.to/lastmile_qr_scan"}, "lon": -77.02236316666666, "fusion_lat": 0.0, "is_disabled": 0, "is_reserved": 0, "lat": 38.922435, "type": "electric_scooter"}, {"fusion_lon": 0.0, "bike_id": "a4eeb1a33d92e3b399e88bdea189bd0a", "name": "a4eeb1a33d92e3b399e88bdea189bd0a", "rental_uris": {"android": "https://dc.lft.to/lastmile_qr_scan", "ios": "https://dc.lft.to/lastmile_qr_scan"}, "lon": -77.02047316666666, "fusion_lat": 0.0, "is_disabled": 0, "is_reserved": 0, "lat": 38.91564366666667, "type": "electric_scooter"}, {"fusion_lon": 0.0, "bike_id": "4609b54be23c72487a3bff818129a1c9", "name": "4609b54be23c72487a3bff818129a1c9", "rental_uris": {"android": "https://dc.lft.to/lastmile_qr_scan", "ios": "https://dc.lft.to/lastmile_qr_scan"}, "lon": -76.99553466666667, "fusion_lat": 0.0, "is_disabled": 0, "is_reserved": 0, "lat": 38.8623505, "type": "electric_scooter"}, {"fusion_lon": 0.0, "bike_id": "94915707a34624934c8cc7b6728ddec0", "name": "94915707a34624934c8cc7b6728ddec0", "rental_uris": {"android": "https://dc.lft.to/lastmile_qr_scan", "ios": "https://dc.lft.to/lastmile_qr_scan"}, "lon": -77.04150583333333, "fusion_lat": 0.0, "is_disabled": 0, "is_reserved": 0, "lat": 38.92335633333333, "type": "electric_scooter"}, {"fusion_lon": 0.0, "bike_id": "4961babd228f0a1f888af656f3d2bf65", "name": "4961babd228f0a1f888af656f3d2bf65", "rental_uris": {"android": "https://dc.lft.to/lastmile_qr_scan", "ios": "https://dc.lft.to/lastmile_qr_scan"}, "lon": -77.050389, "fusion_lat": 0.0, "is_disabled": 0, "is_reserved": 0, "lat": 39.03900066666667, "type": "electric_bike"}, {"fusion_lon": 0.0, "bike_id": "cce7e0d55f7c3682869e622c628f3899", "name": "cce7e0d55f7c3682869e622c628f3899", "rental_uris": {"android": "https://dc.lft.to/lastmile_qr_scan", "ios": "https://dc.lft.to/lastmile_qr_scan"}, "lon": -77.041242, "fusion_lat": 0.0, "is_disabled": 0, "is_reserved": 0, "lat": 38.92309816666667, "type": "electric_scooter"}, {"fusion_lon": 0.0, "bike_id": "54cb3a92a52aa18b361caa28b8aa5c42", "name": "54cb3a92a52aa18b361caa28b8aa5c42", "rental_uris": {"android": "https://dc.lft.to/lastmile_qr_scan", "ios": "https://dc.lft.to/lastmile_qr_scan"}, "lon": -77.017936, "fusion_lat": 0.0, "is_disabled": 0, "is_reserved": 0, "lat": 38.9063945, "type": "electric_scooter"}, {"fusion_lon": 0.0, "bike_id": "b9e71104fcfbf03f5ae3f779388d2075", "name": "b9e71104fcfbf03f5ae3f779388d2075", "rental_uris": {"android": "https://dc.lft.to/lastmile_qr_scan", "ios": "https://dc.lft.to/lastmile_qr_scan"}, "lon": -76.96716683333334, "fusion_lat": 0.0, "is_disabled": 0, "is_reserved": 0, "lat": 38.860668833333335, "type": "electric_scooter"}, {"fusion_lon": 0.0, "bike_id": "29a2837596dcbfb55ba723afbdabea14", "name": "29a2837596dcbfb55ba723afbdabea14", "rental_uris": {"android": "https://dc.lft.to/lastmile_qr_scan", "ios": "https://dc.lft.to/lastmile_qr_scan"}, "lon": -77.041796, "fusion_lat": 0.0, "is_disabled": 0, "is_reserved": 0, "lat": 38.920525, "type": "electric_scooter"}, {"fusion_lon": 0.0, "bike_id": "ccf522f8e69a5773aa43b6a7000f2d8c", "name": "ccf522f8e69a5773aa43b6a7000f2d8c", "rental_uris": {"android": "https://dc.lft.to/lastmile_qr_scan", "ios": "https://dc.lft.to/lastmile_qr_scan"}, "lon": -77.02021416666666, "fusion_lat": 0.0, "is_disabled": 0, "is_reserved": 0, "lat": 38.901617, "type": "electric_scooter"}, {"fusion_lon": 0.0, "bike_id": "104c1e7c34fceb4c4161282e6a95a097", "name": "104c1e7c34fceb4c4161282e6a95a097", "rental_uris": {"android": "https://dc.lft.to/lastmile_qr_scan", "ios": "https://dc.lft.to/lastmile_qr_scan"}, "lon": -77.04000216666667, "fusion_lat": 0.0, "is_disabled": 0, "is_reserved": 0, "lat": 38.908506333333335, "type": "electric_scooter"}, {"fusion_lon": 0.0, "bike_id": "90dfb2df63e6f452690fbb04c1d5b6e8", "name": "90dfb2df63e6f452690fbb04c1d5b6e8", "rental_uris": {"android": "https://dc.lft.to/lastmile_qr_scan", "ios": "https://dc.lft.to/lastmile_qr_scan"}, "lon": -77.04895433333333, "fusion_lat": 0.0, "is_disabled": 0, "is_reserved": 0, "lat": 38.89848333333333, "type": "electric_scooter"}, {"fusion_lon": 0.0, "bike_id": "0cc613024b65e6e6ab46f246e0407f18", "name": "0cc613024b65e6e6ab46f246e0407f18", "rental_uris": {"android": "https://dc.lft.to/lastmile_qr_scan", "ios": "https://dc.lft.to/lastmile_qr_scan"}, "lon": -77.04243966666667, "fusion_lat": 0.0, "is_disabled": 0, "is_reserved": 0, "lat": 38.92226616666667, "type": "electric_scooter"}, {"fusion_lon": 0.0, "bike_id": "c15a69fdadd931aa79d5df47cc41d56e", "name": "c15a69fdadd931aa79d5df47cc41d56e", "rental_uris": {"android": "https://dc.lft.to/lastmile_qr_scan", "ios": "https://dc.lft.to/lastmile_qr_scan"}, "lon": -77.045392, "fusion_lat": 0.0, "is_disabled": 0, "is_reserved": 0, "lat": 38.91201516666667, "type": "electric_scooter"}, {"fusion_lon": 0.0, "bike_id": "a9e3135de044699d1764e14c8fdee40a", "name": "a9e3135de044699d1764e14c8fdee40a", "rental_uris": {"android": "https://dc.lft.to/lastmile_qr_scan", "ios": "https://dc.lft.to/lastmile_qr_scan"}, "lon": -77.03658483333334, "fusion_lat": 0.0, "is_disabled": 0, "is_reserved": 0, "lat": 38.90097933333333, "type": "electric_scooter"}, {"fusion_lon": 0.0, "bike_id": "90f86754c7e471e845ad9caa109f6849", "name": "90f86754c7e471e845ad9caa109f6849", "rental_uris": {"android": "https://dc.lft.to/lastmile_qr_scan", "ios": "https://dc.lft.to/lastmile_qr_scan"}, "lon": -77.04363266666667, "fusion_lat": 0.0, "is_disabled": 0, "is_reserved": 0, "lat": 38.90556466666666, "type": "electric_scooter"}, {"fusion_lon": 0.0, "bike_id": "a48928db9afce6d54268a127e6ac174b", "name": "a48928db9afce6d54268a127e6ac174b", "rental_uris": {"android": "https://dc.lft.to/lastmile_qr_scan", "ios": "https://dc.lft.to/lastmile_qr_scan"}, "lon": -77.02082383333334, "fusion_lat": 0.0, "is_disabled": 0, "is_reserved": 0, "lat": 38.92143633333333, "type": "electric_scooter"}, {"fusion_lon": 0.0, "bike_id": "c60e8b42e803db97771e41695ab2bbc5", "name": "c60e8b42e803db97771e41695ab2bbc5", "rental_uris": {"android": "https://dc.lft.to/lastmile_qr_scan", "ios": "https://dc.lft.to/lastmile_qr_scan"}, "lon": -76.9864465, "fusion_lat": 0.0, "is_disabled": 0, "is_reserved": 0, "lat": 38.89758333333333, "type": "electric_scooter"}, {"fusion_lon": 0.0, "bike_id": "07692a6581e734c9510f114edcc269cd", "name": "07692a6581e734c9510f114edcc269cd", "rental_uris": {"android": "https://dc.lft.to/lastmile_qr_scan", "ios": "https://dc.lft.to/lastmile_qr_scan"}, "lon": -77.01191133333333, "fusion_lat": 0.0, "is_disabled": 0, "is_reserved": 0, "lat": 38.900255666666666, "type": "electric_scooter"}, {"fusion_lon": 0.0, "bike_id": "b814b67c67a388854cb4c3c9383504bd", "name": "b814b67c67a388854cb4c3c9383504bd", "rental_uris": {"android": "https://dc.lft.to/lastmile_qr_scan", "ios": "https://dc.lft.to/lastmile_qr_scan"}, "lon": -77.0329885, "fusion_lat": 0.0, "is_disabled": 0, "is_reserved": 0, "lat": 38.934455, "type": "electric_scooter"}, {"fusion_lon": 0.0, "bike_id": "c94b3278a95650ea1167311cd418edaa", "name": "c94b3278a95650ea1167311cd418edaa", "rental_uris": {"android": "https://dc.lft.to/lastmile_qr_scan", "ios": "https://dc.lft.to/lastmile_qr_scan"}, "lon": -77.04996316666667, "fusion_lat": 0.0, "is_disabled": 0, "is_reserved": 0, "lat": 38.9011675, "type": "electric_scooter"}, {"fusion_lon": 0.0, "bike_id": "dc9f28dfc6f7e63925b3e70787365bc2", "name": "dc9f28dfc6f7e63925b3e70787365bc2", "rental_uris": {"android": "https://dc.lft.to/lastmile_qr_scan", "ios": "https://dc.lft.to/lastmile_qr_scan"}, "lon": -77.0317955, "fusion_lat": 0.0, "is_disabled": 0, "is_reserved": 0, "lat": 38.887360666666666, "type": "electric_scooter"}, {"fusion_lon": 0.0, "bike_id": "587875c31c11c3ce50a07bc6d1dd9626", "name": "587875c31c11c3ce50a07bc6d1dd9626", "rental_uris": {"android": "https://dc.lft.to/lastmile_qr_scan", "ios": "https://dc.lft.to/lastmile_qr_scan"}, "lon": -77.032783, "fusion_lat": 0.0, "is_disabled": 0, "is_reserved": 0, "lat": 38.89913683333333, "type": "electric_scooter"}, {"fusion_lon": 0.0, "bike_id": "72a735b8a77c2ede585e11f10aad7c37", "name": "72a735b8a77c2ede585e11f10aad7c37", "rental_uris": {"android": "https://dc.lft.to/lastmile_qr_scan", "ios": "https://dc.lft.to/lastmile_qr_scan"}, "lon": -77.03227916666667, "fusion_lat": 0.0, "is_disabled": 0, "is_reserved": 0, "lat": 38.9140735, "type": "electric_scooter"}, {"fusion_lon": 0.0, "bike_id": "924848bc36044351ea925f098148d4a5", "name": "924848bc36044351ea925f098148d4a5", "rental_uris": {"android": "https://dc.lft.to/lastmile_qr_scan", "ios": "https://dc.lft.to/lastmile_qr_scan"}, "lon": -77.02191666666667, "fusion_lat": 0.0, "is_disabled": 0, "is_reserved": 0, "lat": 38.91085, "type": "electric_scooter"}, {"fusion_lon": 0.0, "bike_id": "e5beac4c024891898105255684e39a68", "name": "e5beac4c024891898105255684e39a68", "rental_uris": {"android": "https://dc.lft.to/lastmile_qr_scan", "ios": "https://dc.lft.to/lastmile_qr_scan"}, "lon": -77.03288733333333, "fusion_lat": 0.0, "is_disabled": 0, "is_reserved": 0, "lat": 38.937794333333336, "type": "electric_scooter"}, {"fusion_lon": 0.0, "bike_id": "7de785bbda6bdb52534ad941f224fbba", "name": "7de785bbda6bdb52534ad941f224fbba", "rental_uris": {"android": "https://dc.lft.to/lastmile_qr_scan", "ios": "https://dc.lft.to/lastmile_qr_scan"}, "lon": -77.052664, "fusion_lat": 0.0, "is_disabled": 0, "is_reserved": 0, "lat": 38.92766916666667, "type": "electric_scooter"}, {"fusion_lon": 0.0, "bike_id": "662ea9a18b97c363c076bfbdbe3c84be", "name": "662ea9a18b97c363c076bfbdbe3c84be", "rental_uris": {"android": "https://dc.lft.to/lastmile_qr_scan", "ios": "https://dc.lft.to/lastmile_qr_scan"}, "lon": -77.029803, "fusion_lat": 0.0, "is_disabled": 0, "is_reserved": 0, "lat": 38.934854666666666, "type": "electric_scooter"}, {"fusion_lon": 0.0, "bike_id": "ed9664e127b2b9d9fa53a951dd2801a1", "name": "ed9664e127b2b9d9fa53a951dd2801a1", "rental_uris": {"android": "https://dc.lft.to/lastmile_qr_scan", "ios": "https://dc.lft.to/lastmile_qr_scan"}, "lon": -77.03858, "fusion_lat": 0.0, "is_disabled": 0, "is_reserved": 0, "lat": 38.91285833333333, "type": "electric_scooter"}, {"fusion_lon": 0.0, "bike_id": "01c10fa5117c76af9dcc7c2c7a28792d", "name": "01c10fa5117c76af9dcc7c2c7a28792d", "rental_uris": {"android": "https://dc.lft.to/lastmile_qr_scan", "ios": "https://dc.lft.to/lastmile_qr_scan"}, "lon": -77.02156933333333, "fusion_lat": 0.0, "is_disabled": 0, "is_reserved": 0, "lat": 38.926006666666666, "type": "electric_scooter"}, {"fusion_lon": 0.0, "bike_id": "405bb5b9c942091db0342e29ecf4be3b", "name": "405bb5b9c942091db0342e29ecf4be3b", "rental_uris": {"android": "https://dc.lft.to/lastmile_qr_scan", "ios": "https://dc.lft.to/lastmile_qr_scan"}, "lon": -76.93173833333333, "fusion_lat": 0.0, "is_disabled": 0, "is_reserved": 0, "lat": 38.898864, "type": "electric_scooter"}, {"fusion_lon": 0.0, "bike_id": "5d2d96da769ef45911fed42ceb489dc5", "name": "5d2d96da769ef45911fed42ceb489dc5", "rental_uris": {"android": "https://dc.lft.to/lastmile_qr_scan", "ios": "https://dc.lft.to/lastmile_qr_scan"}, "lon": -76.98432316666667, "fusion_lat": 0.0, "is_disabled": 0, "is_reserved": 0, "lat": 38.93277716666667, "type": "electric_scooter"}, {"fusion_lon": 0.0, "bike_id": "a20688c2a021b2399778026106a20025", "name": "a20688c2a021b2399778026106a20025", "rental_uris": {"android": "https://dc.lft.to/lastmile_qr_scan", "ios": "https://dc.lft.to/lastmile_qr_scan"}, "lon": -77.02798266666667, "fusion_lat": 0.0, "is_disabled": 0, "is_reserved": 0, "lat": 38.94451316666667, "type": "electric_scooter"}, {"fusion_lon": 0.0, "bike_id": "a9adbbb07a2e124de812a0a8ef50aaf8", "name": "a9adbbb07a2e124de812a0a8ef50aaf8", "rental_uris": {"android": "https://dc.lft.to/lastmile_qr_scan", "ios": "https://dc.lft.to/lastmile_qr_scan"}, "lon": -77.01989383333333, "fusion_lat": 0.0, "is_disabled": 0, "is_reserved": 0, "lat": 38.924194666666665, "type": "electric_scooter"}, {"fusion_lon": 0.0, "bike_id": "3e2214002663117b9ba981ca45f93b7d", "name": "3e2214002663117b9ba981ca45f93b7d", "rental_uris": {"android": "https://dc.lft.to/lastmile_qr_scan", "ios": "https://dc.lft.to/lastmile_qr_scan"}, "lon": -77.023766, "fusion_lat": 0.0, "is_disabled": 0, "is_reserved": 0, "lat": 38.8919805, "type": "electric_scooter"}, {"fusion_lon": 0.0, "bike_id": "1e92c6c367d539e1a9b2df8e9276b98e", "name": "1e92c6c367d539e1a9b2df8e9276b98e", "rental_uris": {"android": "https://dc.lft.to/lastmile_qr_scan", "ios": "https://dc.lft.to/lastmile_qr_scan"}, "lon": -77.042597, "fusion_lat": 0.0, "is_disabled": 0, "is_reserved": 0, "lat": 38.9219, "type": "electric_scooter"}, {"fusion_lon": 0.0, "bike_id": "49c5126fda98b4abbfa0355430f4cb36", "name": "49c5126fda98b4abbfa0355430f4cb36", "rental_uris": {"android": "https://dc.lft.to/lastmile_qr_scan", "ios": "https://dc.lft.to/lastmile_qr_scan"}, "lon": -77.00762283333333, "fusion_lat": 0.0, "is_disabled": 0, "is_reserved": 0, "lat": 38.876722, "type": "electric_scooter"}, {"fusion_lon": 0.0, "bike_id": "b93100897acf173183a70488551ca380", "name": "b93100897acf173183a70488551ca380", "rental_uris": {"android": "https://dc.lft.to/lastmile_qr_scan", "ios": "https://dc.lft.to/lastmile_qr_scan"}, "lon": -77.01886183333333, "fusion_lat": 0.0, "is_disabled": 0, "is_reserved": 0, "lat": 38.92270216666667, "type": "electric_scooter"}, {"fusion_lon": 0.0, "bike_id": "68278867fccd85004ab785723ac960e1", "name": "68278867fccd85004ab785723ac960e1", "rental_uris": {"android": "https://dc.lft.to/lastmile_qr_scan", "ios": "https://dc.lft.to/lastmile_qr_scan"}, "lon": -76.934835, "fusion_lat": 0.0, "is_disabled": 0, "is_reserved": 0, "lat": 38.891055333333334, "type": "electric_bike"}, {"fusion_lon": 0.0, "bike_id": "af6da6b0d0c4d5b64df4787b91b4d1cd", "name": "af6da6b0d0c4d5b64df4787b91b4d1cd", "rental_uris": {"android": "https://dc.lft.to/lastmile_qr_scan", "ios": "https://dc.lft.to/lastmile_qr_scan"}, "lon": -77.02387016666667, "fusion_lat": 0.0, "is_disabled": 0, "is_reserved": 0, "lat": 38.88731283333333, "type": "electric_scooter"}, {"fusion_lon": 0.0, "bike_id": "80983059d4ba6f94737bccb8dcd2f447", "name": "80983059d4ba6f94737bccb8dcd2f447", "rental_uris": {"android": "https://dc.lft.to/lastmile_qr_scan", "ios": "https://dc.lft.to/lastmile_qr_scan"}, "lon": -77.01967566666667, "fusion_lat": 0.0, "is_disabled": 0, "is_reserved": 0, "lat": 38.956475833333336, "type": "electric_scooter"}, {"fusion_lon": 0.0, "bike_id": "9a1f9b53adb0692a751d4ff08633d919", "name": "9a1f9b53adb0692a751d4ff08633d919", "rental_uris": {"android": "https://dc.lft.to/lastmile_qr_scan", "ios": "https://dc.lft.to/lastmile_qr_scan"}, "lon": -77.02134316666667, "fusion_lat": 0.0, "is_disabled": 0, "is_reserved": 0, "lat": 38.93764066666667, "type": "electric_scooter"}, {"fusion_lon": 0.0, "bike_id": "146b62e40e13aa85beb3125013a1efcd", "name": "146b62e40e13aa85beb3125013a1efcd", "rental_uris": {"android": "https://dc.lft.to/lastmile_qr_scan", "ios": "https://dc.lft.to/lastmile_qr_scan"}, "lon": -77.02380366666667, "fusion_lat": 0.0, "is_disabled": 0, "is_reserved": 0, "lat": 38.89197816666667, "type": "electric_scooter"}, {"fusion_lon": 0.0, "bike_id": "5e0273fedf7f384438a467d202255dae", "name": "5e0273fedf7f384438a467d202255dae", "rental_uris": {"android": "https://dc.lft.to/lastmile_qr_scan", "ios": "https://dc.lft.to/lastmile_qr_scan"}, "lon": -77.02605416666667, "fusion_lat": 0.0, "is_disabled": 0, "is_reserved": 0, "lat": 38.916808333333336, "type": "electric_scooter"}, {"fusion_lon": 0.0, "bike_id": "9ddc8b2b2021d6f83fd2fd22ea30db47", "name": "9ddc8b2b2021d6f83fd2fd22ea30db47", "rental_uris": {"android": "https://dc.lft.to/lastmile_qr_scan", "ios": "https://dc.lft.to/lastmile_qr_scan"}, "lon": -77.02999133333333, "fusion_lat": 0.0, "is_disabled": 0, "is_reserved": 0, "lat": 38.91700316666667, "type": "electric_scooter"}, {"fusion_lon": 0.0, "bike_id": "75215bfd9802ea97ccb80a54ec6e2627", "name": "75215bfd9802ea97ccb80a54ec6e2627", "rental_uris": {"android": "https://dc.lft.to/lastmile_qr_scan", "ios": "https://dc.lft.to/lastmile_qr_scan"}, "lon": -77.070075, "fusion_lat": 0.0, "is_disabled": 0, "is_reserved": 0, "lat": 38.9066875, "type": "electric_scooter"}, {"fusion_lon": 0.0, "bike_id": "fd5b32d1e3ed230c760e239203cd7224", "name": "fd5b32d1e3ed230c760e239203cd7224", "rental_uris": {"android": "https://dc.lft.to/lastmile_qr_scan", "ios": "https://dc.lft.to/lastmile_qr_scan"}, "lon": -77.00931083333333, "fusion_lat": 0.0, "is_disabled": 0, "is_reserved": 0, "lat": 38.896123833333334, "type": "electric_scooter"}, {"fusion_lon": 0.0, "bike_id": "090700e03ff4765999bff460826cb9d7", "name": "090700e03ff4765999bff460826cb9d7", "rental_uris": {"android": "https://dc.lft.to/lastmile_qr_scan", "ios": "https://dc.lft.to/lastmile_qr_scan"}, "lon": -77.03543083333334, "fusion_lat": 0.0, "is_disabled": 0, "is_reserved": 0, "lat": 38.925868333333334, "type": "electric_scooter"}, {"fusion_lon": 0.0, "bike_id": "48d130bb146f72c8878aa0477440b62d", "name": "48d130bb146f72c8878aa0477440b62d", "rental_uris": {"android": "https://dc.lft.to/lastmile_qr_scan", "ios": "https://dc.lft.to/lastmile_qr_scan"}, "lon": -77.00819883333334, "fusion_lat": 0.0, "is_disabled": 0, "is_reserved": 0, "lat": 38.876281666666664, "type": "electric_scooter"}, {"fusion_lon": 0.0, "bike_id": "bbfc0278a343d3f7df065dbb076d9ced", "name": "bbfc0278a343d3f7df065dbb076d9ced", "rental_uris": {"android": "https://dc.lft.to/lastmile_qr_scan", "ios": "https://dc.lft.to/lastmile_qr_scan"}, "lon": -76.98564466666667, "fusion_lat": 0.0, "is_disabled": 0, "is_reserved": 0, "lat": 38.88620816666667, "type": "electric_scooter"}, {"fusion_lon": 0.0, "bike_id": "8fc0113661e1d4c8223713462a9fac86", "name": "8fc0113661e1d4c8223713462a9fac86", "rental_uris": {"android": "https://dc.lft.to/lastmile_qr_scan", "ios": "https://dc.lft.to/lastmile_qr_scan"}, "lon": -77.0259225, "fusion_lat": 0.0, "is_disabled": 0, "is_reserved": 0, "lat": 38.918797166666664, "type": "electric_scooter"}, {"fusion_lon": 0.0, "bike_id": "8d3e9491bd510de1435dfc7fd2355f59", "name": "8d3e9491bd510de1435dfc7fd2355f59", "rental_uris": {"android": "https://dc.lft.to/lastmile_qr_scan", "ios": "https://dc.lft.to/lastmile_qr_scan"}, "lon": -77.034275, "fusion_lat": 0.0, "is_disabled": 0, "is_reserved": 0, "lat": 38.9193025, "type": "electric_scooter"}, {"fusion_lon": 0.0, "bike_id": "d108b398521553120a2c0b76a0f06cde", "name": "d108b398521553120a2c0b76a0f06cde", "rental_uris": {"android": "https://dc.lft.to/lastmile_qr_scan", "ios": "https://dc.lft.to/lastmile_qr_scan"}, "lon": -77.0485415, "fusion_lat": 0.0, "is_disabled": 0, "is_reserved": 0, "lat": 38.90017683333333, "type": "electric_scooter"}, {"fusion_lon": 0.0, "bike_id": "418b6d63e9d769ab0079239f52f8b671", "name": "418b6d63e9d769ab0079239f52f8b671", "rental_uris": {"android": "https://dc.lft.to/lastmile_qr_scan", "ios": "https://dc.lft.to/lastmile_qr_scan"}, "lon": -76.99379183333333, "fusion_lat": 0.0, "is_disabled": 0, "is_reserved": 0, "lat": 38.893479666666664, "type": "electric_scooter"}, {"fusion_lon": 0.0, "bike_id": "4a5a753fd2cc51d4cdaf92fd266dca1a", "name": "4a5a753fd2cc51d4cdaf92fd266dca1a", "rental_uris": {"android": "https://dc.lft.to/lastmile_qr_scan", "ios": "https://dc.lft.to/lastmile_qr_scan"}, "lon": -77.03202216666666, "fusion_lat": 0.0, "is_disabled": 0, "is_reserved": 0, "lat": 38.916725666666665, "type": "electric_scooter"}, {"fusion_lon": 0.0, "bike_id": "b3a6764707f90f6acd7140ad9f673825", "name": "b3a6764707f90f6acd7140ad9f673825", "rental_uris": {"android": "https://dc.lft.to/lastmile_qr_scan", "ios": "https://dc.lft.to/lastmile_qr_scan"}, "lon": -76.99266866666666, "fusion_lat": 0.0, "is_disabled": 0, "is_reserved": 0, "lat": 38.9222975, "type": "electric_scooter"}, {"fusion_lon": 0.0, "bike_id": "49498e4977f0a2e8452598173f6c3cbe", "name": "49498e4977f0a2e8452598173f6c3cbe", "rental_uris": {"android": "https://dc.lft.to/lastmile_qr_scan", "ios": "https://dc.lft.to/lastmile_qr_scan"}, "lon": -77.02178516666666, "fusion_lat": 0.0, "is_disabled": 0, "is_reserved": 0, "lat": 38.91438, "type": "electric_scooter"}, {"fusion_lon": 0.0, "bike_id": "64f45bb82bd0f5942e505cd00c3135d6", "name": "64f45bb82bd0f5942e505cd00c3135d6", "rental_uris": {"android": "https://dc.lft.to/lastmile_qr_scan", "ios": "https://dc.lft.to/lastmile_qr_scan"}, "lon": -77.0746745, "fusion_lat": 0.0, "is_disabled": 0, "is_reserved": 0, "lat": 38.795911333333336, "type": "electric_scooter"}, {"fusion_lon": 0.0, "bike_id": "00c0c0c74b276f7c5cdc8d9355248fa2", "name": "00c0c0c74b276f7c5cdc8d9355248fa2", "rental_uris": {"android": "https://dc.lft.to/lastmile_qr_scan", "ios": "https://dc.lft.to/lastmile_qr_scan"}, "lon": -77.04534666666666, "fusion_lat": 0.0, "is_disabled": 0, "is_reserved": 0, "lat": 38.914218, "type": "electric_scooter"}, {"fusion_lon": 0.0, "bike_id": "1384744d23f8d1a7a236400b129109b5", "name": "1384744d23f8d1a7a236400b129109b5", "rental_uris": {"android": "https://dc.lft.to/lastmile_qr_scan", "ios": "https://dc.lft.to/lastmile_qr_scan"}, "lon": -77.00655766666667, "fusion_lat": 0.0, "is_disabled": 0, "is_reserved": 0, "lat": 38.87685166666667, "type": "electric_scooter"}, {"fusion_lon": 0.0, "bike_id": "369600cdef8749c05f57757f6cd8a9c9", "name": "369600cdef8749c05f57757f6cd8a9c9", "rental_uris": {"android": "https://dc.lft.to/lastmile_qr_scan", "ios": "https://dc.lft.to/lastmile_qr_scan"}, "lon": -77.033793, "fusion_lat": 0.0, "is_disabled": 0, "is_reserved": 0, "lat": 38.892386, "type": "electric_scooter"}, {"fusion_lon": 0.0, "bike_id": "940141444f4b5e4f6800ea22e68e7ed9", "name": "940141444f4b5e4f6800ea22e68e7ed9", "rental_uris": {"android": "https://dc.lft.to/lastmile_qr_scan", "ios": "https://dc.lft.to/lastmile_qr_scan"}, "lon": -77.0556035, "fusion_lat": 0.0, "is_disabled": 0, "is_reserved": 0, "lat": 38.93032133333333, "type": "electric_scooter"}, {"fusion_lon": 0.0, "bike_id": "3e8a74bda0283b3fe5cb7584099fbc5a", "name": "3e8a74bda0283b3fe5cb7584099fbc5a", "rental_uris": {"android": "https://dc.lft.to/lastmile_qr_scan", "ios": "https://dc.lft.to/lastmile_qr_scan"}, "lon": -77.01667816666667, "fusion_lat": 0.0, "is_disabled": 0, "is_reserved": 0, "lat": 38.92054733333333, "type": "electric_scooter"}, {"fusion_lon": 0.0, "bike_id": "cddfba577c2feb966f8078f4caf07c39", "name": "cddfba577c2feb966f8078f4caf07c39", "rental_uris": {"android": "https://dc.lft.to/lastmile_qr_scan", "ios": "https://dc.lft.to/lastmile_qr_scan"}, "lon": -77.04619533333333, "fusion_lat": 0.0, "is_disabled": 0, "is_reserved": 0, "lat": 38.9097565, "type": "electric_scooter"}, {"fusion_lon": 0.0, "bike_id": "49cb026d03165dd197926343df770d8c", "name": "49cb026d03165dd197926343df770d8c", "rental_uris": {"android": "https://dc.lft.to/lastmile_qr_scan", "ios": "https://dc.lft.to/lastmile_qr_scan"}, "lon": -77.0467725, "fusion_lat": 0.0, "is_disabled": 0, "is_reserved": 0, "lat": 38.89508683333333, "type": "electric_scooter"}, {"fusion_lon": 0.0, "bike_id": "32bbb68d0c5b7c93cf3323c989b57037", "name": "32bbb68d0c5b7c93cf3323c989b57037", "rental_uris": {"android": "https://dc.lft.to/lastmile_qr_scan", "ios": "https://dc.lft.to/lastmile_qr_scan"}, "lon": -77.03167966666666, "fusion_lat": 0.0, "is_disabled": 0, "is_reserved": 0, "lat": 38.892224166666665, "type": "electric_scooter"}, {"fusion_lon": 0.0, "bike_id": "1e12d3292aea944dc8f93485ffb9d957", "name": "1e12d3292aea944dc8f93485ffb9d957", "rental_uris": {"android": "https://dc.lft.to/lastmile_qr_scan", "ios": "https://dc.lft.to/lastmile_qr_scan"}, "lon": -77.038001, "fusion_lat": 0.0, "is_disabled": 0, "is_reserved": 0, "lat": 38.902811666666665, "type": "electric_scooter"}, {"fusion_lon": 0.0, "bike_id": "fb68115f8c94cdb641dca2d6742f5fd2", "name": "fb68115f8c94cdb641dca2d6742f5fd2", "rental_uris": {"android": "https://dc.lft.to/lastmile_qr_scan", "ios": "https://dc.lft.to/lastmile_qr_scan"}, "lon": -76.975232, "fusion_lat": 0.0, "is_disabled": 0, "is_reserved": 0, "lat": 38.840065333333335, "type": "electric_bike"}, {"fusion_lon": 0.0, "bike_id": "c56b8454385ad8b050b48368e048e94d", "name": "c56b8454385ad8b050b48368e048e94d", "rental_uris": {"android": "https://dc.lft.to/lastmile_qr_scan", "ios": "https://dc.lft.to/lastmile_qr_scan"}, "lon": -77.04223466666667, "fusion_lat": 0.0, "is_disabled": 0, "is_reserved": 0, "lat": 38.921853666666664, "type": "electric_scooter"}, {"fusion_lon": 0.0, "bike_id": "358cc90eb4929fff0f3fd0aa6898a5af", "name": "358cc90eb4929fff0f3fd0aa6898a5af", "rental_uris": {"android": "https://dc.lft.to/lastmile_qr_scan", "ios": "https://dc.lft.to/lastmile_qr_scan"}, "lon": -76.9650835, "fusion_lat": 0.0, "is_disabled": 0, "is_reserved": 0, "lat": 38.87647183333333, "type": "electric_scooter"}, {"fusion_lon": 0.0, "bike_id": "f057459ff571d84cdaaa74a83b03702e", "name": "f057459ff571d84cdaaa74a83b03702e", "rental_uris": {"android": "https://dc.lft.to/lastmile_qr_scan", "ios": "https://dc.lft.to/lastmile_qr_scan"}, "lon": -77.05133583333334, "fusion_lat": 0.0, "is_disabled": 0, "is_reserved": 0, "lat": 38.90652633333333, "type": "electric_scooter"}, {"fusion_lon": 0.0, "bike_id": "7dc5a1f00a041eb242b30d0541ef9f61", "name": "7dc5a1f00a041eb242b30d0541ef9f61", "rental_uris": {"android": "https://dc.lft.to/lastmile_qr_scan", "ios": "https://dc.lft.to/lastmile_qr_scan"}, "lon": -77.12734166666667, "fusion_lat": 0.0, "is_disabled": 0, "is_reserved": 0, "lat": 38.89565233333333, "type": "electric_bike"}, {"fusion_lon": 0.0, "bike_id": "99e222b80daea2b1feba6484a974b7db", "name": "99e222b80daea2b1feba6484a974b7db", "rental_uris": {"android": "https://dc.lft.to/lastmile_qr_scan", "ios": "https://dc.lft.to/lastmile_qr_scan"}, "lon": -77.0321525, "fusion_lat": 0.0, "is_disabled": 0, "is_reserved": 0, "lat": 38.917994, "type": "electric_scooter"}, {"fusion_lon": 0.0, "bike_id": "51d69d9ff54fc81a82b0d11a04c15251", "name": "51d69d9ff54fc81a82b0d11a04c15251", "rental_uris": {"android": "https://dc.lft.to/lastmile_qr_scan", "ios": "https://dc.lft.to/lastmile_qr_scan"}, "lon": -77.040251, "fusion_lat": 0.0, "is_disabled": 0, "is_reserved": 0, "lat": 38.90123366666667, "type": "electric_scooter"}, {"fusion_lon": 0.0, "bike_id": "174a779198277b9634e39cb6c662e212", "name": "174a779198277b9634e39cb6c662e212", "rental_uris": {"android": "https://dc.lft.to/lastmile_qr_scan", "ios": "https://dc.lft.to/lastmile_qr_scan"}, "lon": -77.0380455, "fusion_lat": 0.0, "is_disabled": 0, "is_reserved": 0, "lat": 38.90661983333333, "type": "electric_scooter"}, {"fusion_lon": 0.0, "bike_id": "1fc222fe8e67224d42aa440d28618ff5", "name": "1fc222fe8e67224d42aa440d28618ff5", "rental_uris": {"android": "https://dc.lft.to/lastmile_qr_scan", "ios": "https://dc.lft.to/lastmile_qr_scan"}, "lon": -77.17446033333333, "fusion_lat": 0.0, "is_disabled": 0, "is_reserved": 0, "lat": 39.08575033333333, "type": "electric_bike"}, {"fusion_lon": 0.0, "bike_id": "d3e54b919980591ee98ed9b14e94f762", "name": "d3e54b919980591ee98ed9b14e94f762", "rental_uris": {"android": "https://dc.lft.to/lastmile_qr_scan", "ios": "https://dc.lft.to/lastmile_qr_scan"}, "lon": -77.04102533333334, "fusion_lat": 0.0, "is_disabled": 0, "is_reserved": 0, "lat": 38.923729333333334, "type": "electric_scooter"}, {"fusion_lon": 0.0, "bike_id": "95a2e8a8fc9f0a0cbe5ecd8ded4aed59", "name": "95a2e8a8fc9f0a0cbe5ecd8ded4aed59", "rental_uris": {"android": "https://dc.lft.to/lastmile_qr_scan", "ios": "https://dc.lft.to/lastmile_qr_scan"}, "lon": -77.05792966666667, "fusion_lat": 0.0, "is_disabled": 0, "is_reserved": 0, "lat": 38.901041666666664, "type": "electric_scooter"}, {"fusion_lon": 0.0, "bike_id": "dd7188d2367979ef8df476fd53a535b6", "name": "dd7188d2367979ef8df476fd53a535b6", "rental_uris": {"android": "https://dc.lft.to/lastmile_qr_scan", "ios": "https://dc.lft.to/lastmile_qr_scan"}, "lon": -77.0076305, "fusion_lat": 0.0, "is_disabled": 0, "is_reserved": 0, "lat": 38.8711495, "type": "electric_scooter"}, {"fusion_lon": 0.0, "bike_id": "f725e2b66cd868ba40656192d4f3b96e", "name": "f725e2b66cd868ba40656192d4f3b96e", "rental_uris": {"android": "https://dc.lft.to/lastmile_qr_scan", "ios": "https://dc.lft.to/lastmile_qr_scan"}, "lon": -77.04018433333333, "fusion_lat": 0.0, "is_disabled": 0, "is_reserved": 0, "lat": 38.90328933333333, "type": "electric_scooter"}, {"fusion_lon": 0.0, "bike_id": "53470d156dcda22feabec8e64f7dee1b", "name": "53470d156dcda22feabec8e64f7dee1b", "rental_uris": {"android": "https://dc.lft.to/lastmile_qr_scan", "ios": "https://dc.lft.to/lastmile_qr_scan"}, "lon": -77.03203283333333, "fusion_lat": 0.0, "is_disabled": 0, "is_reserved": 0, "lat": 38.9210335, "type": "electric_scooter"}, {"fusion_lon": 0.0, "bike_id": "1c4d5596736ea1e4a9c3e61ef7578383", "name": "1c4d5596736ea1e4a9c3e61ef7578383", "rental_uris": {"android": "https://dc.lft.to/lastmile_qr_scan", "ios": "https://dc.lft.to/lastmile_qr_scan"}, "lon": -76.96913433333333, "fusion_lat": 0.0, "is_disabled": 0, "is_reserved": 0, "lat": 38.846189333333335, "type": "electric_bike"}, {"fusion_lon": 0.0, "bike_id": "294bea83a27fcddc5590d3234cec4205", "name": "294bea83a27fcddc5590d3234cec4205", "rental_uris": {"android": "https://dc.lft.to/lastmile_qr_scan", "ios": "https://dc.lft.to/lastmile_qr_scan"}, "lon": -77.02201683333334, "fusion_lat": 0.0, "is_disabled": 0, "is_reserved": 0, "lat": 38.89511983333333, "type": "electric_scooter"}, {"fusion_lon": 0.0, "bike_id": "0aefed023638e04ef6ec23f3ed489f21", "name": "0aefed023638e04ef6ec23f3ed489f21", "rental_uris": {"android": "https://dc.lft.to/lastmile_qr_scan", "ios": "https://dc.lft.to/lastmile_qr_scan"}, "lon": -77.04353616666667, "fusion_lat": 0.0, "is_disabled": 0, "is_reserved": 0, "lat": 38.921543166666666, "type": "electric_scooter"}, {"fusion_lon": 0.0, "bike_id": "52dc8b0b651c58862625d025d386ed9b", "name": "52dc8b0b651c58862625d025d386ed9b", "rental_uris": {"android": "https://dc.lft.to/lastmile_qr_scan", "ios": "https://dc.lft.to/lastmile_qr_scan"}, "lon": -77.043317, "fusion_lat": 0.0, "is_disabled": 0, "is_reserved": 0, "lat": 38.89221916666666, "type": "electric_scooter"}, {"fusion_lon": 0.0, "bike_id": "723840794cbea1dd7be53d759037fb94", "name": "723840794cbea1dd7be53d759037fb94", "rental_uris": {"android": "https://dc.lft.to/lastmile_qr_scan", "ios": "https://dc.lft.to/lastmile_qr_scan"}, "lon": -77.02221483333334, "fusion_lat": 0.0, "is_disabled": 0, "is_reserved": 0, "lat": 38.924733333333336, "type": "electric_scooter"}, {"fusion_lon": 0.0, "bike_id": "cd2a86904e5c2a18129ee4b92002ac61", "name": "cd2a86904e5c2a18129ee4b92002ac61", "rental_uris": {"android": "https://dc.lft.to/lastmile_qr_scan", "ios": "https://dc.lft.to/lastmile_qr_scan"}, "lon": -77.01841883333333, "fusion_lat": 0.0, "is_disabled": 0, "is_reserved": 0, "lat": 38.92148366666667, "type": "electric_scooter"}, {"fusion_lon": 0.0, "bike_id": "aa68c669b5ba1d2d3b6b509a2e6ff212", "name": "aa68c669b5ba1d2d3b6b509a2e6ff212", "rental_uris": {"android": "https://dc.lft.to/lastmile_qr_scan", "ios": "https://dc.lft.to/lastmile_qr_scan"}, "lon": -77.00362233333334, "fusion_lat": 0.0, "is_disabled": 0, "is_reserved": 0, "lat": 38.895417333333334, "type": "electric_scooter"}, {"fusion_lon": 0.0, "bike_id": "e34678a8ef9b67d27a2d74c320a6e6c7", "name": "e34678a8ef9b67d27a2d74c320a6e6c7", "rental_uris": {"android": "https://dc.lft.to/lastmile_qr_scan", "ios": "https://dc.lft.to/lastmile_qr_scan"}, "lon": -77.03246316666667, "fusion_lat": 0.0, "is_disabled": 0, "is_reserved": 0, "lat": 38.9347045, "type": "electric_scooter"}, {"fusion_lon": 0.0, "bike_id": "936b2c384787bd965e4cea68f8d538d9", "name": "936b2c384787bd965e4cea68f8d538d9", "rental_uris": {"android": "https://dc.lft.to/lastmile_qr_scan", "ios": "https://dc.lft.to/lastmile_qr_scan"}, "lon": -77.01855016666667, "fusion_lat": 0.0, "is_disabled": 0, "is_reserved": 0, "lat": 38.954363666666666, "type": "electric_scooter"}, {"fusion_lon": 0.0, "bike_id": "0cf38ab1775e6a808217529c7528420d", "name": "0cf38ab1775e6a808217529c7528420d", "rental_uris": {"android": "https://dc.lft.to/lastmile_qr_scan", "ios": "https://dc.lft.to/lastmile_qr_scan"}, "lon": -77.02574933333334, "fusion_lat": 0.0, "is_disabled": 0, "is_reserved": 0, "lat": 38.920541, "type": "electric_scooter"}, {"fusion_lon": 0.0, "bike_id": "555805fbccf0b6f0ec275739607915fd", "name": "555805fbccf0b6f0ec275739607915fd", "rental_uris": {"android": "https://dc.lft.to/lastmile_qr_scan", "ios": "https://dc.lft.to/lastmile_qr_scan"}, "lon": -77.04219183333333, "fusion_lat": 0.0, "is_disabled": 0, "is_reserved": 0, "lat": 38.923949, "type": "electric_scooter"}, {"fusion_lon": 0.0, "bike_id": "c8cd91714acec93dd52625933644ab83", "name": "c8cd91714acec93dd52625933644ab83", "rental_uris": {"android": "https://dc.lft.to/lastmile_qr_scan", "ios": "https://dc.lft.to/lastmile_qr_scan"}, "lon": -77.04238116666667, "fusion_lat": 0.0, "is_disabled": 0, "is_reserved": 0, "lat": 38.905582833333334, "type": "electric_scooter"}, {"fusion_lon": 0.0, "bike_id": "48e5d5bfb83a01821dd78ecc81965e9c", "name": "48e5d5bfb83a01821dd78ecc81965e9c", "rental_uris": {"android": "https://dc.lft.to/lastmile_qr_scan", "ios": "https://dc.lft.to/lastmile_qr_scan"}, "lon": -76.998305, "fusion_lat": 0.0, "is_disabled": 0, "is_reserved": 0, "lat": 38.90061, "type": "electric_scooter"}, {"fusion_lon": 0.0, "bike_id": "a04f3a5b162c9919a485193dfc07599e", "name": "a04f3a5b162c9919a485193dfc07599e", "rental_uris": {"android": "https://dc.lft.to/lastmile_qr_scan", "ios": "https://dc.lft.to/lastmile_qr_scan"}, "lon": -76.996806, "fusion_lat": 0.0, "is_disabled": 0, "is_reserved": 0, "lat": 38.856597666666666, "type": "electric_scooter"}, {"fusion_lon": 0.0, "bike_id": "6f1c02f78c2c1e0086b241c6d395263a", "name": "6f1c02f78c2c1e0086b241c6d395263a", "rental_uris": {"android": "https://dc.lft.to/lastmile_qr_scan", "ios": "https://dc.lft.to/lastmile_qr_scan"}, "lon": -77.02589316666666, "fusion_lat": 0.0, "is_disabled": 0, "is_reserved": 0, "lat": 38.917194333333335, "type": "electric_scooter"}, {"fusion_lon": 0.0, "bike_id": "ccd5a60ba60f1e49908b2af9c0e78f26", "name": "ccd5a60ba60f1e49908b2af9c0e78f26", "rental_uris": {"android": "https://dc.lft.to/lastmile_qr_scan", "ios": "https://dc.lft.to/lastmile_qr_scan"}, "lon": -77.09062216666666, "fusion_lat": 0.0, "is_disabled": 0, "is_reserved": 0, "lat": 38.93441983333334, "type": "electric_scooter"}, {"fusion_lon": 0.0, "bike_id": "e0b20db60d22e47694d03dca0e7ee0df", "name": "e0b20db60d22e47694d03dca0e7ee0df", "rental_uris": {"android": "https://dc.lft.to/lastmile_qr_scan", "ios": "https://dc.lft.to/lastmile_qr_scan"}, "lon": -77.04152133333334, "fusion_lat": 0.0, "is_disabled": 0, "is_reserved": 0, "lat": 38.89928666666667, "type": "electric_scooter"}, {"fusion_lon": 0.0, "bike_id": "096d938733539923476f0cc89586a61c", "name": "096d938733539923476f0cc89586a61c", "rental_uris": {"android": "https://dc.lft.to/lastmile_qr_scan", "ios": "https://dc.lft.to/lastmile_qr_scan"}, "lon": -77.04156183333333, "fusion_lat": 0.0, "is_disabled": 0, "is_reserved": 0, "lat": 38.91718916666667, "type": "electric_scooter"}, {"fusion_lon": 0.0, "bike_id": "2c8e2ebd66f396f773d4688d61526002", "name": "2c8e2ebd66f396f773d4688d61526002", "rental_uris": {"android": "https://dc.lft.to/lastmile_qr_scan", "ios": "https://dc.lft.to/lastmile_qr_scan"}, "lon": -77.23411766666666, "fusion_lat": 0.0, "is_disabled": 0, "is_reserved": 0, "lat": 38.87582583333333, "type": "electric_bike"}, {"fusion_lon": 0.0, "bike_id": "75efebc10395a89703df0e3830c3e448", "name": "75efebc10395a89703df0e3830c3e448", "rental_uris": {"android": "https://dc.lft.to/lastmile_qr_scan", "ios": "https://dc.lft.to/lastmile_qr_scan"}, "lon": -77.003498, "fusion_lat": 0.0, "is_disabled": 0, "is_reserved": 0, "lat": 38.89536233333333, "type": "electric_scooter"}, {"fusion_lon": 0.0, "bike_id": "3021b8b2e3944ee715185552010e44bd", "name": "3021b8b2e3944ee715185552010e44bd", "rental_uris": {"android": "https://dc.lft.to/lastmile_qr_scan", "ios": "https://dc.lft.to/lastmile_qr_scan"}, "lon": -77.0602735, "fusion_lat": 0.0, "is_disabled": 0, "is_reserved": 0, "lat": 38.903136333333336, "type": "electric_scooter"}, {"fusion_lon": 0.0, "bike_id": "375e5bf12b7d4006c6b74f2bd1db77b1", "name": "375e5bf12b7d4006c6b74f2bd1db77b1", "rental_uris": {"android": "https://dc.lft.to/lastmile_qr_scan", "ios": "https://dc.lft.to/lastmile_qr_scan"}, "lon": -77.04695033333333, "fusion_lat": 0.0, "is_disabled": 0, "is_reserved": 0, "lat": 38.9211135, "type": "electric_scooter"}, {"fusion_lon": 0.0, "bike_id": "9a6fa2f4936049eae1b6049222704e58", "name": "9a6fa2f4936049eae1b6049222704e58", "rental_uris": {"android": "https://dc.lft.to/lastmile_qr_scan", "ios": "https://dc.lft.to/lastmile_qr_scan"}, "lon": -77.0066775, "fusion_lat": 0.0, "is_disabled": 0, "is_reserved": 0, "lat": 38.912678666666665, "type": "electric_scooter"}, {"fusion_lon": 0.0, "bike_id": "084bd47481aa3b827b9744b4dc49a93e", "name": "084bd47481aa3b827b9744b4dc49a93e", "rental_uris": {"android": "https://dc.lft.to/lastmile_qr_scan", "ios": "https://dc.lft.to/lastmile_qr_scan"}, "lon": -77.03658583333333, "fusion_lat": 0.0, "is_disabled": 0, "is_reserved": 0, "lat": 38.916760333333336, "type": "electric_scooter"}, {"fusion_lon": 0.0, "bike_id": "3397e19923f188b3a4b34b50f6cb0f4e", "name": "3397e19923f188b3a4b34b50f6cb0f4e", "rental_uris": {"android": "https://dc.lft.to/lastmile_qr_scan", "ios": "https://dc.lft.to/lastmile_qr_scan"}, "lon": -77.03214333333334, "fusion_lat": 0.0, "is_disabled": 0, "is_reserved": 0, "lat": 38.910483, "type": "electric_scooter"}, {"fusion_lon": 0.0, "bike_id": "8f95a8d5240f87d3a61eef9f004b7341", "name": "8f95a8d5240f87d3a61eef9f004b7341", "rental_uris": {"android": "https://dc.lft.to/lastmile_qr_scan", "ios": "https://dc.lft.to/lastmile_qr_scan"}, "lon": -77.03423633333334, "fusion_lat": 0.0, "is_disabled": 0, "is_reserved": 0, "lat": 38.909821, "type": "electric_scooter"}, {"fusion_lon": 0.0, "bike_id": "7bdfa39d4ac42d6262cfe4540da5dae0", "name": "7bdfa39d4ac42d6262cfe4540da5dae0", "rental_uris": {"android": "https://dc.lft.to/lastmile_qr_scan", "ios": "https://dc.lft.to/lastmile_qr_scan"}, "lon": -77.04171666666667, "fusion_lat": 0.0, "is_disabled": 0, "is_reserved": 0, "lat": 38.89933283333333, "type": "electric_scooter"}, {"fusion_lon": 0.0, "bike_id": "af95b3d154279ab55ee2ccc7cdb71a72", "name": "af95b3d154279ab55ee2ccc7cdb71a72", "rental_uris": {"android": "https://dc.lft.to/lastmile_qr_scan", "ios": "https://dc.lft.to/lastmile_qr_scan"}, "lon": -77.02182366666666, "fusion_lat": 0.0, "is_disabled": 0, "is_reserved": 0, "lat": 38.94294716666667, "type": "electric_scooter"}, {"fusion_lon": 0.0, "bike_id": "e7107ad7f3aa5ae36bb827120807d2bc", "name": "e7107ad7f3aa5ae36bb827120807d2bc", "rental_uris": {"android": "https://dc.lft.to/lastmile_qr_scan", "ios": "https://dc.lft.to/lastmile_qr_scan"}, "lon": -77.03498916666666, "fusion_lat": 0.0, "is_disabled": 0, "is_reserved": 0, "lat": 38.917051, "type": "electric_scooter"}, {"fusion_lon": 0.0, "bike_id": "7ecc3b7a0c93f0200f454fa15df03425", "name": "7ecc3b7a0c93f0200f454fa15df03425", "rental_uris": {"android": "https://dc.lft.to/lastmile_qr_scan", "ios": "https://dc.lft.to/lastmile_qr_scan"}, "lon": -77.090066, "fusion_lat": 0.0, "is_disabled": 0, "is_reserved": 0, "lat": 38.92657366666667, "type": "electric_bike"}, {"fusion_lon": 0.0, "bike_id": "89bd308e2d5e4d33161e638beb170bb9", "name": "89bd308e2d5e4d33161e638beb170bb9", "rental_uris": {"android": "https://dc.lft.to/lastmile_qr_scan", "ios": "https://dc.lft.to/lastmile_qr_scan"}, "lon": -77.049973, "fusion_lat": 0.0, "is_disabled": 0, "is_reserved": 0, "lat": 38.89234616666667, "type": "electric_scooter"}, {"fusion_lon": 0.0, "bike_id": "897047d43111cb6864cb9df1cc9e9b71", "name": "897047d43111cb6864cb9df1cc9e9b71", "rental_uris": {"android": "https://dc.lft.to/lastmile_qr_scan", "ios": "https://dc.lft.to/lastmile_qr_scan"}, "lon": -77.01378716666666, "fusion_lat": 0.0, "is_disabled": 0, "is_reserved": 0, "lat": 38.8693435, "type": "electric_scooter"}, {"fusion_lon": 0.0, "bike_id": "7fd92cd6108b2bbd2acc6581b6b5dd81", "name": "7fd92cd6108b2bbd2acc6581b6b5dd81", "rental_uris": {"android": "https://dc.lft.to/lastmile_qr_scan", "ios": "https://dc.lft.to/lastmile_qr_scan"}, "lon": -77.03508583333333, "fusion_lat": 0.0, "is_disabled": 0, "is_reserved": 0, "lat": 38.93221583333333, "type": "electric_scooter"}, {"fusion_lon": 0.0, "bike_id": "267d76f28677fc6a4af2f184f4abd786", "name": "267d76f28677fc6a4af2f184f4abd786", "rental_uris": {"android": "https://dc.lft.to/lastmile_qr_scan", "ios": "https://dc.lft.to/lastmile_qr_scan"}, "lon": -77.00775583333333, "fusion_lat": 0.0, "is_disabled": 0, "is_reserved": 0, "lat": 38.87478216666667, "type": "electric_bike"}, {"fusion_lon": 0.0, "bike_id": "02c83c04caaeb39f84524ffc2724ce4f", "name": "02c83c04caaeb39f84524ffc2724ce4f", "rental_uris": {"android": "https://dc.lft.to/lastmile_qr_scan", "ios": "https://dc.lft.to/lastmile_qr_scan"}, "lon": -77.02287566666666, "fusion_lat": 0.0, "is_disabled": 0, "is_reserved": 0, "lat": 38.925165166666666, "type": "electric_scooter"}, {"fusion_lon": 0.0, "bike_id": "bc9cae782817738d685a1a2c7b86db5d", "name": "bc9cae782817738d685a1a2c7b86db5d", "rental_uris": {"android": "https://dc.lft.to/lastmile_qr_scan", "ios": "https://dc.lft.to/lastmile_qr_scan"}, "lon": -77.0199835, "fusion_lat": 0.0, "is_disabled": 0, "is_reserved": 0, "lat": 38.899501, "type": "electric_scooter"}, {"fusion_lon": 0.0, "bike_id": "8e320f3acb8e671d0a012dd98a19770b", "name": "8e320f3acb8e671d0a012dd98a19770b", "rental_uris": {"android": "https://dc.lft.to/lastmile_qr_scan", "ios": "https://dc.lft.to/lastmile_qr_scan"}, "lon": -77.00164283333334, "fusion_lat": 0.0, "is_disabled": 0, "is_reserved": 0, "lat": 38.87386766666667, "type": "electric_scooter"}, {"fusion_lon": 0.0, "bike_id": "971b5dc0f6c1da25a53426808ae454e0", "name": "971b5dc0f6c1da25a53426808ae454e0", "rental_uris": {"android": "https://dc.lft.to/lastmile_qr_scan", "ios": "https://dc.lft.to/lastmile_qr_scan"}, "lon": -76.95709916666667, "fusion_lat": 0.0, "is_disabled": 0, "is_reserved": 0, "lat": 38.85079316666667, "type": "electric_bike"}, {"fusion_lon": 0.0, "bike_id": "097be26ad32afca8949059a11ffe31fb", "name": "097be26ad32afca8949059a11ffe31fb", "rental_uris": {"android": "https://dc.lft.to/lastmile_qr_scan", "ios": "https://dc.lft.to/lastmile_qr_scan"}, "lon": -77.02001816666667, "fusion_lat": 0.0, "is_disabled": 0, "is_reserved": 0, "lat": 38.9644505, "type": "electric_scooter"}, {"fusion_lon": 0.0, "bike_id": "53024de13af158083af725241a558e83", "name": "53024de13af158083af725241a558e83", "rental_uris": {"android": "https://dc.lft.to/lastmile_qr_scan", "ios": "https://dc.lft.to/lastmile_qr_scan"}, "lon": -77.031916, "fusion_lat": 0.0, "is_disabled": 0, "is_reserved": 0, "lat": 38.911885, "type": "electric_scooter"}, {"fusion_lon": 0.0, "bike_id": "d65a2c4c9a8a941e5a91fead36886e1b", "name": "d65a2c4c9a8a941e5a91fead36886e1b", "rental_uris": {"android": "https://dc.lft.to/lastmile_qr_scan", "ios": "https://dc.lft.to/lastmile_qr_scan"}, "lon": -77.0089505, "fusion_lat": 0.0, "is_disabled": 0, "is_reserved": 0, "lat": 38.95571783333333, "type": "electric_scooter"}, {"fusion_lon": 0.0, "bike_id": "610d612190cd390b718cd66b3ded4b58", "name": "610d612190cd390b718cd66b3ded4b58", "rental_uris": {"android": "https://dc.lft.to/lastmile_qr_scan", "ios": "https://dc.lft.to/lastmile_qr_scan"}, "lon": -77.012311, "fusion_lat": 0.0, "is_disabled": 0, "is_reserved": 0, "lat": 38.893480333333336, "type": "electric_scooter"}, {"fusion_lon": 0.0, "bike_id": "60d6e0e89cbbadfd96543686f39896c8", "name": "60d6e0e89cbbadfd96543686f39896c8", "rental_uris": {"android": "https://dc.lft.to/lastmile_qr_scan", "ios": "https://dc.lft.to/lastmile_qr_scan"}, "lon": -77.0410155, "fusion_lat": 0.0, "is_disabled": 0, "is_reserved": 0, "lat": 38.89852283333333, "type": "electric_scooter"}, {"fusion_lon": 0.0, "bike_id": "574c9bf92323de74236d8dc8669ca786", "name": "574c9bf92323de74236d8dc8669ca786", "rental_uris": {"android": "https://dc.lft.to/lastmile_qr_scan", "ios": "https://dc.lft.to/lastmile_qr_scan"}, "lon": -77.01954416666666, "fusion_lat": 0.0, "is_disabled": 0, "is_reserved": 0, "lat": 38.92324933333333, "type": "electric_scooter"}, {"fusion_lon": 0.0, "bike_id": "fa5792811c74afa251ac9fc9510d1b95", "name": "fa5792811c74afa251ac9fc9510d1b95", "rental_uris": {"android": "https://dc.lft.to/lastmile_qr_scan", "ios": "https://dc.lft.to/lastmile_qr_scan"}, "lon": -77.051364, "fusion_lat": 0.0, "is_disabled": 0, "is_reserved": 0, "lat": 38.9051085, "type": "electric_scooter"}, {"fusion_lon": 0.0, "bike_id": "033b22c2064b7de2028d4026f7288f72", "name": "033b22c2064b7de2028d4026f7288f72", "rental_uris": {"android": "https://dc.lft.to/lastmile_qr_scan", "ios": "https://dc.lft.to/lastmile_qr_scan"}, "lon": -77.0234435, "fusion_lat": 0.0, "is_disabled": 0, "is_reserved": 0, "lat": 38.931734166666665, "type": "electric_scooter"}, {"fusion_lon": 0.0, "bike_id": "9c40b411cd4d89cfe9410a7f15cf2fc7", "name": "9c40b411cd4d89cfe9410a7f15cf2fc7", "rental_uris": {"android": "https://dc.lft.to/lastmile_qr_scan", "ios": "https://dc.lft.to/lastmile_qr_scan"}, "lon": -77.04175633333334, "fusion_lat": 0.0, "is_disabled": 0, "is_reserved": 0, "lat": 38.917353, "type": "electric_scooter"}, {"fusion_lon": 0.0, "bike_id": "632a8405468390f57186cb17eddd7b6a", "name": "632a8405468390f57186cb17eddd7b6a", "rental_uris": {"android": "https://dc.lft.to/lastmile_qr_scan", "ios": "https://dc.lft.to/lastmile_qr_scan"}, "lon": -77.03771333333333, "fusion_lat": 0.0, "is_disabled": 0, "is_reserved": 0, "lat": 38.9077155, "type": "electric_scooter"}, {"fusion_lon": 0.0, "bike_id": "163747d15da9d3f233befa847360c19e", "name": "163747d15da9d3f233befa847360c19e", "rental_uris": {"android": "https://dc.lft.to/lastmile_qr_scan", "ios": "https://dc.lft.to/lastmile_qr_scan"}, "lon": -77.04337133333334, "fusion_lat": 0.0, "is_disabled": 0, "is_reserved": 0, "lat": 38.922258, "type": "electric_scooter"}, {"fusion_lon": 0.0, "bike_id": "32be352f39fe489913a74e4055dbfac6", "name": "32be352f39fe489913a74e4055dbfac6", "rental_uris": {"android": "https://dc.lft.to/lastmile_qr_scan", "ios": "https://dc.lft.to/lastmile_qr_scan"}, "lon": -77.01662833333333, "fusion_lat": 0.0, "is_disabled": 0, "is_reserved": 0, "lat": 38.881215166666664, "type": "electric_bike"}, {"fusion_lon": 0.0, "bike_id": "6bcde5a3d0cf83d96ffa2fb9856df6f3", "name": "6bcde5a3d0cf83d96ffa2fb9856df6f3", "rental_uris": {"android": "https://dc.lft.to/lastmile_qr_scan", "ios": "https://dc.lft.to/lastmile_qr_scan"}, "lon": -77.01967666666667, "fusion_lat": 0.0, "is_disabled": 0, "is_reserved": 0, "lat": 38.922586333333335, "type": "electric_scooter"}, {"fusion_lon": 0.0, "bike_id": "ce9f53db9124fca218258fcf562a7073", "name": "ce9f53db9124fca218258fcf562a7073", "rental_uris": {"android": "https://dc.lft.to/lastmile_qr_scan", "ios": "https://dc.lft.to/lastmile_qr_scan"}, "lon": -77.0415005, "fusion_lat": 0.0, "is_disabled": 0, "is_reserved": 0, "lat": 38.899194, "type": "electric_scooter"}, {"fusion_lon": 0.0, "bike_id": "f6fe2e417365a0cb6d5de071fb47743d", "name": "f6fe2e417365a0cb6d5de071fb47743d", "rental_uris": {"android": "https://dc.lft.to/lastmile_qr_scan", "ios": "https://dc.lft.to/lastmile_qr_scan"}, "lon": -77.031562, "fusion_lat": 0.0, "is_disabled": 0, "is_reserved": 0, "lat": 38.915683666666666, "type": "electric_scooter"}, {"fusion_lon": 0.0, "bike_id": "4e38551e49647b2beef402b615ba492f", "name": "4e38551e49647b2beef402b615ba492f", "rental_uris": {"android": "https://dc.lft.to/lastmile_qr_scan", "ios": "https://dc.lft.to/lastmile_qr_scan"}, "lon": -77.0092435, "fusion_lat": 0.0, "is_disabled": 0, "is_reserved": 0, "lat": 38.89599316666666, "type": "electric_scooter"}, {"fusion_lon": 0.0, "bike_id": "789d6ccad28cb907415127376a2c7691", "name": "789d6ccad28cb907415127376a2c7691", "rental_uris": {"android": "https://dc.lft.to/lastmile_qr_scan", "ios": "https://dc.lft.to/lastmile_qr_scan"}, "lon": -77.0049245, "fusion_lat": 0.0, "is_disabled": 0, "is_reserved": 0, "lat": 38.89689883333333, "type": "electric_scooter"}, {"fusion_lon": 0.0, "bike_id": "0239dc5c17cfecfd2b0a6d0b7ae47a36", "name": "0239dc5c17cfecfd2b0a6d0b7ae47a36", "rental_uris": {"android": "https://dc.lft.to/lastmile_qr_scan", "ios": "https://dc.lft.to/lastmile_qr_scan"}, "lon": -77.06473466666667, "fusion_lat": 0.0, "is_disabled": 0, "is_reserved": 0, "lat": 38.90506383333334, "type": "electric_scooter"}, {"fusion_lon": 0.0, "bike_id": "cda7ba043c7c44e31e5fcc3f9c9f9bfb", "name": "cda7ba043c7c44e31e5fcc3f9c9f9bfb", "rental_uris": {"android": "https://dc.lft.to/lastmile_qr_scan", "ios": "https://dc.lft.to/lastmile_qr_scan"}, "lon": -77.02434916666667, "fusion_lat": 0.0, "is_disabled": 0, "is_reserved": 0, "lat": 38.89993066666667, "type": "electric_scooter"}, {"fusion_lon": 0.0, "bike_id": "414a8b24c2fec9f449f48dfd3b3b6ad1", "name": "414a8b24c2fec9f449f48dfd3b3b6ad1", "rental_uris": {"android": "https://dc.lft.to/lastmile_qr_scan", "ios": "https://dc.lft.to/lastmile_qr_scan"}, "lon": -77.02476516666667, "fusion_lat": 0.0, "is_disabled": 0, "is_reserved": 0, "lat": 38.938591333333335, "type": "electric_scooter"}, {"fusion_lon": 0.0, "bike_id": "e1fc0d4bfdb6d573e7274a1167813a73", "name": "e1fc0d4bfdb6d573e7274a1167813a73", "rental_uris": {"android": "https://dc.lft.to/lastmile_qr_scan", "ios": "https://dc.lft.to/lastmile_qr_scan"}, "lon": -77.01887066666667, "fusion_lat": 0.0, "is_disabled": 0, "is_reserved": 0, "lat": 38.922662, "type": "electric_scooter"}, {"fusion_lon": 0.0, "bike_id": "599ddc684e45313782b9eb21617d3b16", "name": "599ddc684e45313782b9eb21617d3b16", "rental_uris": {"android": "https://dc.lft.to/lastmile_qr_scan", "ios": "https://dc.lft.to/lastmile_qr_scan"}, "lon": -76.99506716666667, "fusion_lat": 0.0, "is_disabled": 0, "is_reserved": 0, "lat": 38.89611883333333, "type": "electric_scooter"}, {"fusion_lon": 0.0, "bike_id": "fb8f6b968264fa295ebe983328128ba7", "name": "fb8f6b968264fa295ebe983328128ba7", "rental_uris": {"android": "https://dc.lft.to/lastmile_qr_scan", "ios": "https://dc.lft.to/lastmile_qr_scan"}, "lon": -77.044464, "fusion_lat": 0.0, "is_disabled": 0, "is_reserved": 0, "lat": 38.905710666666664, "type": "electric_scooter"}, {"fusion_lon": 0.0, "bike_id": "9deb944e3a3163f30125faae2f02d73f", "name": "9deb944e3a3163f30125faae2f02d73f", "rental_uris": {"android": "https://dc.lft.to/lastmile_qr_scan", "ios": "https://dc.lft.to/lastmile_qr_scan"}, "lon": -77.04074333333334, "fusion_lat": 0.0, "is_disabled": 0, "is_reserved": 0, "lat": 38.90123416666667, "type": "electric_scooter"}, {"fusion_lon": 0.0, "bike_id": "a61ad07159516145701d8a503f045c8d", "name": "a61ad07159516145701d8a503f045c8d", "rental_uris": {"android": "https://dc.lft.to/lastmile_qr_scan", "ios": "https://dc.lft.to/lastmile_qr_scan"}, "lon": -77.06422966666666, "fusion_lat": 0.0, "is_disabled": 0, "is_reserved": 0, "lat": 38.91396833333334, "type": "electric_scooter"}, {"fusion_lon": 0.0, "bike_id": "d948121a2d7c98410e217b503a40d2fd", "name": "d948121a2d7c98410e217b503a40d2fd", "rental_uris": {"android": "https://dc.lft.to/lastmile_qr_scan", "ios": "https://dc.lft.to/lastmile_qr_scan"}, "lon": -76.94217883333333, "fusion_lat": 0.0, "is_disabled": 0, "is_reserved": 0, "lat": 38.946817833333334, "type": "electric_bike"}, {"fusion_lon": 0.0, "bike_id": "56074a058713b7715e577d14e8946ab8", "name": "56074a058713b7715e577d14e8946ab8", "rental_uris": {"android": "https://dc.lft.to/lastmile_qr_scan", "ios": "https://dc.lft.to/lastmile_qr_scan"}, "lon": -77.050053, "fusion_lat": 0.0, "is_disabled": 0, "is_reserved": 0, "lat": 38.892301, "type": "electric_scooter"}, {"fusion_lon": 0.0, "bike_id": "2efa10820323f0a5d84c73e0c6338178", "name": "2efa10820323f0a5d84c73e0c6338178", "rental_uris": {"android": "https://dc.lft.to/lastmile_qr_scan", "ios": "https://dc.lft.to/lastmile_qr_scan"}, "lon": -77.03585233333334, "fusion_lat": 0.0, "is_disabled": 0, "is_reserved": 0, "lat": 38.90247383333333, "type": "electric_scooter"}, {"fusion_lon": 0.0, "bike_id": "0aed9d907dc2647b679e48257cd45461", "name": "0aed9d907dc2647b679e48257cd45461", "rental_uris": {"android": "https://dc.lft.to/lastmile_qr_scan", "ios": "https://dc.lft.to/lastmile_qr_scan"}, "lon": -77.0437685, "fusion_lat": 0.0, "is_disabled": 0, "is_reserved": 0, "lat": 38.92108833333333, "type": "electric_scooter"}, {"fusion_lon": 0.0, "bike_id": "dce88000a5fea022f9071f78ed340ef0", "name": "dce88000a5fea022f9071f78ed340ef0", "rental_uris": {"android": "https://dc.lft.to/lastmile_qr_scan", "ios": "https://dc.lft.to/lastmile_qr_scan"}, "lon": -76.99960566666667, "fusion_lat": 0.0, "is_disabled": 0, "is_reserved": 0, "lat": 38.89427633333333, "type": "electric_scooter"}, {"fusion_lon": 0.0, "bike_id": "125d36abe52225b2f9926182a1e0b129", "name": "125d36abe52225b2f9926182a1e0b129", "rental_uris": {"android": "https://dc.lft.to/lastmile_qr_scan", "ios": "https://dc.lft.to/lastmile_qr_scan"}, "lon": -76.98843583333333, "fusion_lat": 0.0, "is_disabled": 0, "is_reserved": 0, "lat": 38.89043233333334, "type": "electric_scooter"}, {"fusion_lon": 0.0, "bike_id": "dda379a594801fe514274680ee86cd3c", "name": "dda379a594801fe514274680ee86cd3c", "rental_uris": {"android": "https://dc.lft.to/lastmile_qr_scan", "ios": "https://dc.lft.to/lastmile_qr_scan"}, "lon": -77.050927, "fusion_lat": 0.0, "is_disabled": 0, "is_reserved": 0, "lat": 38.813377833333334, "type": "electric_bike"}, {"fusion_lon": 0.0, "bike_id": "7cf7b26aea08ab4f98c1343b9d58db6a", "name": "7cf7b26aea08ab4f98c1343b9d58db6a", "rental_uris": {"android": "https://dc.lft.to/lastmile_qr_scan", "ios": "https://dc.lft.to/lastmile_qr_scan"}, "lon": -77.01259716666667, "fusion_lat": 0.0, "is_disabled": 0, "is_reserved": 0, "lat": 38.90013733333333, "type": "electric_scooter"}, {"fusion_lon": 0.0, "bike_id": "565df26f22db23968f5430df4d3dcf14", "name": "565df26f22db23968f5430df4d3dcf14", "rental_uris": {"android": "https://dc.lft.to/lastmile_qr_scan", "ios": "https://dc.lft.to/lastmile_qr_scan"}, "lon": -77.01884966666667, "fusion_lat": 0.0, "is_disabled": 0, "is_reserved": 0, "lat": 38.9127075, "type": "electric_scooter"}, {"fusion_lon": 0.0, "bike_id": "4807e61fb7536fb084201f8ec58f9566", "name": "4807e61fb7536fb084201f8ec58f9566", "rental_uris": {"android": "https://dc.lft.to/lastmile_qr_scan", "ios": "https://dc.lft.to/lastmile_qr_scan"}, "lon": -76.9106435, "fusion_lat": 0.0, "is_disabled": 0, "is_reserved": 0, "lat": 39.010797, "type": "electric_bike"}, {"fusion_lon": 0.0, "bike_id": "ec8fc5f2c5768e0e14ab58842bae72e5", "name": "ec8fc5f2c5768e0e14ab58842bae72e5", "rental_uris": {"android": "https://dc.lft.to/lastmile_qr_scan", "ios": "https://dc.lft.to/lastmile_qr_scan"}, "lon": -77.03362216666666, "fusion_lat": 0.0, "is_disabled": 0, "is_reserved": 0, "lat": 38.94511166666667, "type": "electric_scooter"}, {"fusion_lon": 0.0, "bike_id": "14cb47db3404c44578172b20e58a7d9d", "name": "14cb47db3404c44578172b20e58a7d9d", "rental_uris": {"android": "https://dc.lft.to/lastmile_qr_scan", "ios": "https://dc.lft.to/lastmile_qr_scan"}, "lon": -77.0188745, "fusion_lat": 0.0, "is_disabled": 0, "is_reserved": 0, "lat": 38.90341466666667, "type": "electric_scooter"}, {"fusion_lon": 0.0, "bike_id": "f088f0a99ff754ca6fcefa1d8265b784", "name": "f088f0a99ff754ca6fcefa1d8265b784", "rental_uris": {"android": "https://dc.lft.to/lastmile_qr_scan", "ios": "https://dc.lft.to/lastmile_qr_scan"}, "lon": -77.00057716666667, "fusion_lat": 0.0, "is_disabled": 0, "is_reserved": 0, "lat": 38.874421166666664, "type": "electric_scooter"}, {"fusion_lon": 0.0, "bike_id": "ae4bd4ab151503e1eea403edf71ab440", "name": "ae4bd4ab151503e1eea403edf71ab440", "rental_uris": {"android": "https://dc.lft.to/lastmile_qr_scan", "ios": "https://dc.lft.to/lastmile_qr_scan"}, "lon": -77.028636, "fusion_lat": 0.0, "is_disabled": 0, "is_reserved": 0, "lat": 38.903383833333336, "type": "electric_scooter"}, {"fusion_lon": 0.0, "bike_id": "895da84c20fcf045f7152747aedea4c8", "name": "895da84c20fcf045f7152747aedea4c8", "rental_uris": {"android": "https://dc.lft.to/lastmile_qr_scan", "ios": "https://dc.lft.to/lastmile_qr_scan"}, "lon": -76.933849, "fusion_lat": 0.0, "is_disabled": 0, "is_reserved": 0, "lat": 38.89915766666667, "type": "electric_scooter"}, {"fusion_lon": 0.0, "bike_id": "d1245786e61a321dd3a10b4423b5544e", "name": "d1245786e61a321dd3a10b4423b5544e", "rental_uris": {"android": "https://dc.lft.to/lastmile_qr_scan", "ios": "https://dc.lft.to/lastmile_qr_scan"}, "lon": -77.00115266666667, "fusion_lat": 0.0, "is_disabled": 0, "is_reserved": 0, "lat": 38.876698833333336, "type": "electric_scooter"}, {"fusion_lon": 0.0, "bike_id": "9c1b90834d522efdfc8257b8064c4d32", "name": "9c1b90834d522efdfc8257b8064c4d32", "rental_uris": {"android": "https://dc.lft.to/lastmile_qr_scan", "ios": "https://dc.lft.to/lastmile_qr_scan"}, "lon": -77.02497816666667, "fusion_lat": 0.0, "is_disabled": 0, "is_reserved": 0, "lat": 38.919376, "type": "electric_scooter"}, {"fusion_lon": 0.0, "bike_id": "0fb0831f9144c42dfc58207d05243ae9", "name": "0fb0831f9144c42dfc58207d05243ae9", "rental_uris": {"android": "https://dc.lft.to/lastmile_qr_scan", "ios": "https://dc.lft.to/lastmile_qr_scan"}, "lon": -77.03185566666667, "fusion_lat": 0.0, "is_disabled": 0, "is_reserved": 0, "lat": 38.909807, "type": "electric_scooter"}, {"fusion_lon": 0.0, "bike_id": "fd51b0fe2f4b31f07357d060729909d6", "name": "fd51b0fe2f4b31f07357d060729909d6", "rental_uris": {"android": "https://dc.lft.to/lastmile_qr_scan", "ios": "https://dc.lft.to/lastmile_qr_scan"}, "lon": -77.04451683333333, "fusion_lat": 0.0, "is_disabled": 0, "is_reserved": 0, "lat": 38.905876166666665, "type": "electric_scooter"}, {"fusion_lon": 0.0, "bike_id": "d9cdd345938e4e3a0cd0ed9c32243a9b", "name": "d9cdd345938e4e3a0cd0ed9c32243a9b", "rental_uris": {"android": "https://dc.lft.to/lastmile_qr_scan", "ios": "https://dc.lft.to/lastmile_qr_scan"}, "lon": -77.03191333333334, "fusion_lat": 0.0, "is_disabled": 0, "is_reserved": 0, "lat": 38.916101833333336, "type": "electric_scooter"}, {"fusion_lon": 0.0, "bike_id": "1ebd56e58c92e279bb187d61a4b9244a", "name": "1ebd56e58c92e279bb187d61a4b9244a", "rental_uris": {"android": "https://dc.lft.to/lastmile_qr_scan", "ios": "https://dc.lft.to/lastmile_qr_scan"}, "lon": -76.958779, "fusion_lat": 0.0, "is_disabled": 0, "is_reserved": 0, "lat": 38.85950783333333, "type": "electric_scooter"}, {"fusion_lon": 0.0, "bike_id": "0c23a7fc8087c32ff465a23f430ba989", "name": "0c23a7fc8087c32ff465a23f430ba989", "rental_uris": {"android": "https://dc.lft.to/lastmile_qr_scan", "ios": "https://dc.lft.to/lastmile_qr_scan"}, "lon": -77.02833816666667, "fusion_lat": 0.0, "is_disabled": 0, "is_reserved": 0, "lat": 38.9611695, "type": "electric_scooter"}, {"fusion_lon": 0.0, "bike_id": "a35b87bf0f0e05afc567d3d81c65282d", "name": "a35b87bf0f0e05afc567d3d81c65282d", "rental_uris": {"android": "https://dc.lft.to/lastmile_qr_scan", "ios": "https://dc.lft.to/lastmile_qr_scan"}, "lon": -77.0257435, "fusion_lat": 0.0, "is_disabled": 0, "is_reserved": 0, "lat": 38.9268995, "type": "electric_scooter"}, {"fusion_lon": 0.0, "bike_id": "bfb575934b6d464944f81ff041a1fd66", "name": "bfb575934b6d464944f81ff041a1fd66", "rental_uris": {"android": "https://dc.lft.to/lastmile_qr_scan", "ios": "https://dc.lft.to/lastmile_qr_scan"}, "lon": -77.0172495, "fusion_lat": 0.0, "is_disabled": 0, "is_reserved": 0, "lat": 38.89497, "type": "electric_scooter"}, {"fusion_lon": 0.0, "bike_id": "6376618f89fb9858752b750f278e242a", "name": "6376618f89fb9858752b750f278e242a", "rental_uris": {"android": "https://dc.lft.to/lastmile_qr_scan", "ios": "https://dc.lft.to/lastmile_qr_scan"}, "lon": -76.95798683333334, "fusion_lat": 0.0, "is_disabled": 0, "is_reserved": 0, "lat": 38.98048466666667, "type": "electric_bike"}, {"fusion_lon": 0.0, "bike_id": "37cd454233eca5c639bdc500eb6591b9", "name": "37cd454233eca5c639bdc500eb6591b9", "rental_uris": {"android": "https://dc.lft.to/lastmile_qr_scan", "ios": "https://dc.lft.to/lastmile_qr_scan"}, "lon": -77.0224865, "fusion_lat": 0.0, "is_disabled": 0, "is_reserved": 0, "lat": 38.922728666666664, "type": "electric_scooter"}, {"fusion_lon": 0.0, "bike_id": "526c364cdbcd4225186823d975eb4326", "name": "526c364cdbcd4225186823d975eb4326", "rental_uris": {"android": "https://dc.lft.to/lastmile_qr_scan", "ios": "https://dc.lft.to/lastmile_qr_scan"}, "lon": -77.00515133333333, "fusion_lat": 0.0, "is_disabled": 0, "is_reserved": 0, "lat": 38.87475466666667, "type": "electric_scooter"}, {"fusion_lon": 0.0, "bike_id": "7c267e5dd27c54cd76a4c50a631ad6f5", "name": "7c267e5dd27c54cd76a4c50a631ad6f5", "rental_uris": {"android": "https://dc.lft.to/lastmile_qr_scan", "ios": "https://dc.lft.to/lastmile_qr_scan"}, "lon": -77.07544533333333, "fusion_lat": 0.0, "is_disabled": 0, "is_reserved": 0, "lat": 38.910515333333336, "type": "electric_scooter"}, {"fusion_lon": 0.0, "bike_id": "21b98c5b6cabf2ecac5b8cf7f7b8e743", "name": "21b98c5b6cabf2ecac5b8cf7f7b8e743", "rental_uris": {"android": "https://dc.lft.to/lastmile_qr_scan", "ios": "https://dc.lft.to/lastmile_qr_scan"}, "lon": -77.032386, "fusion_lat": 0.0, "is_disabled": 0, "is_reserved": 0, "lat": 38.9103315, "type": "electric_scooter"}, {"fusion_lon": 0.0, "bike_id": "8b38c43207d3bf4e2da9f919973fb3d2", "name": "8b38c43207d3bf4e2da9f919973fb3d2", "rental_uris": {"android": "https://dc.lft.to/lastmile_qr_scan", "ios": "https://dc.lft.to/lastmile_qr_scan"}, "lon": -77.02592366666667, "fusion_lat": 0.0, "is_disabled": 0, "is_reserved": 0, "lat": 38.963944166666664, "type": "electric_scooter"}, {"fusion_lon": 0.0, "bike_id": "b0f4acc1f79df662d1dfd2279630c7ac", "name": "b0f4acc1f79df662d1dfd2279630c7ac", "rental_uris": {"android": "https://dc.lft.to/lastmile_qr_scan", "ios": "https://dc.lft.to/lastmile_qr_scan"}, "lon": -77.04182766666666, "fusion_lat": 0.0, "is_disabled": 0, "is_reserved": 0, "lat": 38.9047965, "type": "electric_scooter"}, {"fusion_lon": 0.0, "bike_id": "a778888a572619d469e2aed8a62873c4", "name": "a778888a572619d469e2aed8a62873c4", "rental_uris": {"android": "https://dc.lft.to/lastmile_qr_scan", "ios": "https://dc.lft.to/lastmile_qr_scan"}, "lon": -77.025254, "fusion_lat": 0.0, "is_disabled": 0, "is_reserved": 0, "lat": 38.942013, "type": "electric_scooter"}, {"fusion_lon": 0.0, "bike_id": "fcb559202259fbae6cc669a43fb9a2fa", "name": "fcb559202259fbae6cc669a43fb9a2fa", "rental_uris": {"android": "https://dc.lft.to/lastmile_qr_scan", "ios": "https://dc.lft.to/lastmile_qr_scan"}, "lon": -77.07004966666666, "fusion_lat": 0.0, "is_disabled": 0, "is_reserved": 0, "lat": 38.95634866666666, "type": "electric_scooter"}, {"fusion_lon": 0.0, "bike_id": "80bf2ba35e2f2930e2d378fdd2f28107", "name": "80bf2ba35e2f2930e2d378fdd2f28107", "rental_uris": {"android": "https://dc.lft.to/lastmile_qr_scan", "ios": "https://dc.lft.to/lastmile_qr_scan"}, "lon": -77.03033966666666, "fusion_lat": 0.0, "is_disabled": 0, "is_reserved": 0, "lat": 38.9232105, "type": "electric_scooter"}, {"fusion_lon": 0.0, "bike_id": "abd1a85d5111585b4847666db64d38b2", "name": "abd1a85d5111585b4847666db64d38b2", "rental_uris": {"android": "https://dc.lft.to/lastmile_qr_scan", "ios": "https://dc.lft.to/lastmile_qr_scan"}, "lon": -77.02410416666666, "fusion_lat": 0.0, "is_disabled": 0, "is_reserved": 0, "lat": 38.906159, "type": "electric_scooter"}, {"fusion_lon": 0.0, "bike_id": "405c629a42c2804355850509b289059e", "name": "405c629a42c2804355850509b289059e", "rental_uris": {"android": "https://dc.lft.to/lastmile_qr_scan", "ios": "https://dc.lft.to/lastmile_qr_scan"}, "lon": -77.03641533333334, "fusion_lat": 0.0, "is_disabled": 0, "is_reserved": 0, "lat": 38.908295, "type": "electric_scooter"}, {"fusion_lon": 0.0, "bike_id": "f9517cc4a05dc23ce759886ce068fef9", "name": "f9517cc4a05dc23ce759886ce068fef9", "rental_uris": {"android": "https://dc.lft.to/lastmile_qr_scan", "ios": "https://dc.lft.to/lastmile_qr_scan"}, "lon": -77.01900516666667, "fusion_lat": 0.0, "is_disabled": 0, "is_reserved": 0, "lat": 38.89240183333333, "type": "electric_scooter"}, {"fusion_lon": 0.0, "bike_id": "e04295c50aae57322eae5a9713cd0460", "name": "e04295c50aae57322eae5a9713cd0460", "rental_uris": {"android": "https://dc.lft.to/lastmile_qr_scan", "ios": "https://dc.lft.to/lastmile_qr_scan"}, "lon": -77.02708483333333, "fusion_lat": 0.0, "is_disabled": 0, "is_reserved": 0, "lat": 38.881388333333334, "type": "electric_scooter"}, {"fusion_lon": 0.0, "bike_id": "fea1bc5952b61cae4e4802563583a23a", "name": "fea1bc5952b61cae4e4802563583a23a", "rental_uris": {"android": "https://dc.lft.to/lastmile_qr_scan", "ios": "https://dc.lft.to/lastmile_qr_scan"}, "lon": -77.0266875, "fusion_lat": 0.0, "is_disabled": 0, "is_reserved": 0, "lat": 38.92186233333334, "type": "electric_scooter"}, {"fusion_lon": 0.0, "bike_id": "0a6fde602650aee2a428b8ee80b1f60e", "name": "0a6fde602650aee2a428b8ee80b1f60e", "rental_uris": {"android": "https://dc.lft.to/lastmile_qr_scan", "ios": "https://dc.lft.to/lastmile_qr_scan"}, "lon": -76.95763383333333, "fusion_lat": 0.0, "is_disabled": 0, "is_reserved": 0, "lat": 38.8959965, "type": "electric_scooter"}, {"fusion_lon": 0.0, "bike_id": "2f523d8e0c6d255636f430121a346746", "name": "2f523d8e0c6d255636f430121a346746", "rental_uris": {"android": "https://dc.lft.to/lastmile_qr_scan", "ios": "https://dc.lft.to/lastmile_qr_scan"}, "lon": -77.03243833333333, "fusion_lat": 0.0, "is_disabled": 0, "is_reserved": 0, "lat": 38.93135316666667, "type": "electric_scooter"}, {"fusion_lon": 0.0, "bike_id": "404fddd1041e2bad6e66bf9d4eb500e6", "name": "404fddd1041e2bad6e66bf9d4eb500e6", "rental_uris": {"android": "https://dc.lft.to/lastmile_qr_scan", "ios": "https://dc.lft.to/lastmile_qr_scan"}, "lon": -77.03678783333334, "fusion_lat": 0.0, "is_disabled": 0, "is_reserved": 0, "lat": 38.91652233333333, "type": "electric_scooter"}, {"fusion_lon": 0.0, "bike_id": "829022ce47bed13949175345e32b1c00", "name": "829022ce47bed13949175345e32b1c00", "rental_uris": {"android": "https://dc.lft.to/lastmile_qr_scan", "ios": "https://dc.lft.to/lastmile_qr_scan"}, "lon": -77.02278316666667, "fusion_lat": 0.0, "is_disabled": 0, "is_reserved": 0, "lat": 38.9096245, "type": "electric_scooter"}, {"fusion_lon": 0.0, "bike_id": "eb19a55189c62e54724b66a2007d20a2", "name": "eb19a55189c62e54724b66a2007d20a2", "rental_uris": {"android": "https://dc.lft.to/lastmile_qr_scan", "ios": "https://dc.lft.to/lastmile_qr_scan"}, "lon": -77.0212055, "fusion_lat": 0.0, "is_disabled": 0, "is_reserved": 0, "lat": 38.914292333333336, "type": "electric_scooter"}, {"fusion_lon": 0.0, "bike_id": "6229586a69cdf456db04c570014b2953", "name": "6229586a69cdf456db04c570014b2953", "rental_uris": {"android": "https://dc.lft.to/lastmile_qr_scan", "ios": "https://dc.lft.to/lastmile_qr_scan"}, "lon": -77.00384716666667, "fusion_lat": 0.0, "is_disabled": 0, "is_reserved": 0, "lat": 38.87636833333333, "type": "electric_scooter"}, {"fusion_lon": 0.0, "bike_id": "63f60bb8b1d864859e60a9d4fa1a1a62", "name": "63f60bb8b1d864859e60a9d4fa1a1a62", "rental_uris": {"android": "https://dc.lft.to/lastmile_qr_scan", "ios": "https://dc.lft.to/lastmile_qr_scan"}, "lon": -77.04036066666667, "fusion_lat": 0.0, "is_disabled": 0, "is_reserved": 0, "lat": 38.9244825, "type": "electric_scooter"}, {"fusion_lon": 0.0, "bike_id": "bedb647be17dc703d1913cbf7a448acd", "name": "bedb647be17dc703d1913cbf7a448acd", "rental_uris": {"android": "https://dc.lft.to/lastmile_qr_scan", "ios": "https://dc.lft.to/lastmile_qr_scan"}, "lon": -77.02554433333333, "fusion_lat": 0.0, "is_disabled": 0, "is_reserved": 0, "lat": 38.924733333333336, "type": "electric_scooter"}, {"fusion_lon": 0.0, "bike_id": "0ae7968ee2319671967318a4ece09b0b", "name": "0ae7968ee2319671967318a4ece09b0b", "rental_uris": {"android": "https://dc.lft.to/lastmile_qr_scan", "ios": "https://dc.lft.to/lastmile_qr_scan"}, "lon": -77.00465216666667, "fusion_lat": 0.0, "is_disabled": 0, "is_reserved": 0, "lat": 38.91119333333333, "type": "electric_scooter"}, {"fusion_lon": 0.0, "bike_id": "211e5702d911b956eee3bc414c026266", "name": "211e5702d911b956eee3bc414c026266", "rental_uris": {"android": "https://dc.lft.to/lastmile_qr_scan", "ios": "https://dc.lft.to/lastmile_qr_scan"}, "lon": -77.04331816666667, "fusion_lat": 0.0, "is_disabled": 0, "is_reserved": 0, "lat": 38.9222975, "type": "electric_scooter"}, {"fusion_lon": 0.0, "bike_id": "cc912fd2bf7634d36768a55d3688dd7a", "name": "cc912fd2bf7634d36768a55d3688dd7a", "rental_uris": {"android": "https://dc.lft.to/lastmile_qr_scan", "ios": "https://dc.lft.to/lastmile_qr_scan"}, "lon": -77.033202, "fusion_lat": 0.0, "is_disabled": 0, "is_reserved": 0, "lat": 38.88766416666667, "type": "electric_scooter"}, {"fusion_lon": 0.0, "bike_id": "40d61cd5862ab34a9c427bdd383f6de8", "name": "40d61cd5862ab34a9c427bdd383f6de8", "rental_uris": {"android": "https://dc.lft.to/lastmile_qr_scan", "ios": "https://dc.lft.to/lastmile_qr_scan"}, "lon": -76.99749733333333, "fusion_lat": 0.0, "is_disabled": 0, "is_reserved": 0, "lat": 38.95649083333333, "type": "electric_bike"}, {"fusion_lon": 0.0, "bike_id": "72d055cf6169f1fdd7cf0e5f0cd274c7", "name": "72d055cf6169f1fdd7cf0e5f0cd274c7", "rental_uris": {"android": "https://dc.lft.to/lastmile_qr_scan", "ios": "https://dc.lft.to/lastmile_qr_scan"}, "lon": -77.04508483333333, "fusion_lat": 0.0, "is_disabled": 0, "is_reserved": 0, "lat": 38.89262033333333, "type": "electric_scooter"}, {"fusion_lon": 0.0, "bike_id": "93e650c80606e38f5eda7a04ddc50ef3", "name": "93e650c80606e38f5eda7a04ddc50ef3", "rental_uris": {"android": "https://dc.lft.to/lastmile_qr_scan", "ios": "https://dc.lft.to/lastmile_qr_scan"}, "lon": -76.98567633333333, "fusion_lat": 0.0, "is_disabled": 0, "is_reserved": 0, "lat": 38.91487, "type": "electric_bike"}, {"fusion_lon": 0.0, "bike_id": "ce7973c18e3e30e96e9c56f783cdbb03", "name": "ce7973c18e3e30e96e9c56f783cdbb03", "rental_uris": {"android": "https://dc.lft.to/lastmile_qr_scan", "ios": "https://dc.lft.to/lastmile_qr_scan"}, "lon": -77.0466005, "fusion_lat": 0.0, "is_disabled": 0, "is_reserved": 0, "lat": 38.89736083333333, "type": "electric_scooter"}, {"fusion_lon": 0.0, "bike_id": "b0e50bf5e80fe0702a2938ae3829427c", "name": "b0e50bf5e80fe0702a2938ae3829427c", "rental_uris": {"android": "https://dc.lft.to/lastmile_qr_scan", "ios": "https://dc.lft.to/lastmile_qr_scan"}, "lon": -77.042131, "fusion_lat": 0.0, "is_disabled": 0, "is_reserved": 0, "lat": 38.90705416666667, "type": "electric_scooter"}, {"fusion_lon": 0.0, "bike_id": "e4acfbfc0d25affb6727d78a5b3deac8", "name": "e4acfbfc0d25affb6727d78a5b3deac8", "rental_uris": {"android": "https://dc.lft.to/lastmile_qr_scan", "ios": "https://dc.lft.to/lastmile_qr_scan"}, "lon": -77.02757566666666, "fusion_lat": 0.0, "is_disabled": 0, "is_reserved": 0, "lat": 38.956198, "type": "electric_scooter"}, {"fusion_lon": 0.0, "bike_id": "7ca128fc04b4085a563e54b7478ace62", "name": "7ca128fc04b4085a563e54b7478ace62", "rental_uris": {"android": "https://dc.lft.to/lastmile_qr_scan", "ios": "https://dc.lft.to/lastmile_qr_scan"}, "lon": -77.04431216666667, "fusion_lat": 0.0, "is_disabled": 0, "is_reserved": 0, "lat": 38.90565566666667, "type": "electric_scooter"}, {"fusion_lon": 0.0, "bike_id": "ec4c2545b70a5e3050ce60be8279f2fb", "name": "ec4c2545b70a5e3050ce60be8279f2fb", "rental_uris": {"android": "https://dc.lft.to/lastmile_qr_scan", "ios": "https://dc.lft.to/lastmile_qr_scan"}, "lon": -77.030501, "fusion_lat": 0.0, "is_disabled": 0, "is_reserved": 0, "lat": 38.913443, "type": "electric_scooter"}, {"fusion_lon": 0.0, "bike_id": "9f12ff5dbf5c2f9130a0a729d7cfd859", "name": "9f12ff5dbf5c2f9130a0a729d7cfd859", "rental_uris": {"android": "https://dc.lft.to/lastmile_qr_scan", "ios": "https://dc.lft.to/lastmile_qr_scan"}, "lon": -77.04470716666667, "fusion_lat": 0.0, "is_disabled": 0, "is_reserved": 0, "lat": 38.892269166666665, "type": "electric_scooter"}, {"fusion_lon": 0.0, "bike_id": "50afcb68e361dbac0e7a4c040a86d62e", "name": "50afcb68e361dbac0e7a4c040a86d62e", "rental_uris": {"android": "https://dc.lft.to/lastmile_qr_scan", "ios": "https://dc.lft.to/lastmile_qr_scan"}, "lon": -77.07522683333333, "fusion_lat": 0.0, "is_disabled": 0, "is_reserved": 0, "lat": 38.842849666666666, "type": "electric_bike"}, {"fusion_lon": 0.0, "bike_id": "bf3acc9005fdf034e3e39298900b386b", "name": "bf3acc9005fdf034e3e39298900b386b", "rental_uris": {"android": "https://dc.lft.to/lastmile_qr_scan", "ios": "https://dc.lft.to/lastmile_qr_scan"}, "lon": -77.00479166666666, "fusion_lat": 0.0, "is_disabled": 0, "is_reserved": 0, "lat": 38.87486116666667, "type": "electric_scooter"}, {"fusion_lon": 0.0, "bike_id": "027dcc441e41f1827721f3dd7e52291d", "name": "027dcc441e41f1827721f3dd7e52291d", "rental_uris": {"android": "https://dc.lft.to/lastmile_qr_scan", "ios": "https://dc.lft.to/lastmile_qr_scan"}, "lon": -77.0218455, "fusion_lat": 0.0, "is_disabled": 0, "is_reserved": 0, "lat": 38.9263525, "type": "electric_scooter"}, {"fusion_lon": 0.0, "bike_id": "d5d6173ffef45e98b6505d55a7357d62", "name": "d5d6173ffef45e98b6505d55a7357d62", "rental_uris": {"android": "https://dc.lft.to/lastmile_qr_scan", "ios": "https://dc.lft.to/lastmile_qr_scan"}, "lon": -77.02821866666666, "fusion_lat": 0.0, "is_disabled": 0, "is_reserved": 0, "lat": 38.886661, "type": "electric_scooter"}, {"fusion_lon": 0.0, "bike_id": "95a1fa564a0646959996cd54881a97aa", "name": "95a1fa564a0646959996cd54881a97aa", "rental_uris": {"android": "https://dc.lft.to/lastmile_qr_scan", "ios": "https://dc.lft.to/lastmile_qr_scan"}, "lon": -77.01998666666667, "fusion_lat": 0.0, "is_disabled": 0, "is_reserved": 0, "lat": 38.91573, "type": "electric_scooter"}, {"fusion_lon": 0.0, "bike_id": "34e2f558d399f3c1fd056a1da658a97b", "name": "34e2f558d399f3c1fd056a1da658a97b", "rental_uris": {"android": "https://dc.lft.to/lastmile_qr_scan", "ios": "https://dc.lft.to/lastmile_qr_scan"}, "lon": -77.02841616666667, "fusion_lat": 0.0, "is_disabled": 0, "is_reserved": 0, "lat": 38.88774266666667, "type": "electric_scooter"}, {"fusion_lon": 0.0, "bike_id": "5891dc450cff57530d4ab2e5d90a797e", "name": "5891dc450cff57530d4ab2e5d90a797e", "rental_uris": {"android": "https://dc.lft.to/lastmile_qr_scan", "ios": "https://dc.lft.to/lastmile_qr_scan"}, "lon": -77.04349, "fusion_lat": 0.0, "is_disabled": 0, "is_reserved": 0, "lat": 38.8975545, "type": "electric_scooter"}, {"fusion_lon": 0.0, "bike_id": "be88003d1715acbfd737122ce8311aa0", "name": "be88003d1715acbfd737122ce8311aa0", "rental_uris": {"android": "https://dc.lft.to/lastmile_qr_scan", "ios": "https://dc.lft.to/lastmile_qr_scan"}, "lon": -77.00837283333334, "fusion_lat": 0.0, "is_disabled": 0, "is_reserved": 0, "lat": 38.9140725, "type": "electric_scooter"}, {"fusion_lon": 0.0, "bike_id": "699520d05c46011b675468810052157e", "name": "699520d05c46011b675468810052157e", "rental_uris": {"android": "https://dc.lft.to/lastmile_qr_scan", "ios": "https://dc.lft.to/lastmile_qr_scan"}, "lon": -77.04135233333334, "fusion_lat": 0.0, "is_disabled": 0, "is_reserved": 0, "lat": 38.92651983333333, "type": "electric_scooter"}, {"fusion_lon": 0.0, "bike_id": "86db010a35df51215259dbc391fb3d24", "name": "86db010a35df51215259dbc391fb3d24", "rental_uris": {"android": "https://dc.lft.to/lastmile_qr_scan", "ios": "https://dc.lft.to/lastmile_qr_scan"}, "lon": -77.01374383333334, "fusion_lat": 0.0, "is_disabled": 0, "is_reserved": 0, "lat": 38.928791833333335, "type": "electric_scooter"}, {"fusion_lon": 0.0, "bike_id": "f117db3e535e193f904ea76ee646c44f", "name": "f117db3e535e193f904ea76ee646c44f", "rental_uris": {"android": "https://dc.lft.to/lastmile_qr_scan", "ios": "https://dc.lft.to/lastmile_qr_scan"}, "lon": -77.00344983333333, "fusion_lat": 0.0, "is_disabled": 0, "is_reserved": 0, "lat": 38.89639583333334, "type": "electric_scooter"}, {"fusion_lon": 0.0, "bike_id": "92b2e56c96ea6d48d1a0eb937b71485f", "name": "92b2e56c96ea6d48d1a0eb937b71485f", "rental_uris": {"android": "https://dc.lft.to/lastmile_qr_scan", "ios": "https://dc.lft.to/lastmile_qr_scan"}, "lon": -77.03203933333333, "fusion_lat": 0.0, "is_disabled": 0, "is_reserved": 0, "lat": 38.9182815, "type": "electric_scooter"}, {"fusion_lon": 0.0, "bike_id": "78e709bb2e9a16ceac65c46958507a26", "name": "78e709bb2e9a16ceac65c46958507a26", "rental_uris": {"android": "https://dc.lft.to/lastmile_qr_scan", "ios": "https://dc.lft.to/lastmile_qr_scan"}, "lon": -77.03948583333333, "fusion_lat": 0.0, "is_disabled": 0, "is_reserved": 0, "lat": 38.901654, "type": "electric_scooter"}, {"fusion_lon": 0.0, "bike_id": "424ec4de8916965998985ec685eab884", "name": "424ec4de8916965998985ec685eab884", "rental_uris": {"android": "https://dc.lft.to/lastmile_qr_scan", "ios": "https://dc.lft.to/lastmile_qr_scan"}, "lon": -77.00071833333334, "fusion_lat": 0.0, "is_disabled": 0, "is_reserved": 0, "lat": 38.9240125, "type": "electric_scooter"}, {"fusion_lon": 0.0, "bike_id": "686ae9a8168abf430bf1dc469d765167", "name": "686ae9a8168abf430bf1dc469d765167", "rental_uris": {"android": "https://dc.lft.to/lastmile_qr_scan", "ios": "https://dc.lft.to/lastmile_qr_scan"}, "lon": -77.04160416666667, "fusion_lat": 0.0, "is_disabled": 0, "is_reserved": 0, "lat": 38.906789833333335, "type": "electric_scooter"}, {"fusion_lon": 0.0, "bike_id": "670c813197309b4678ee95b98ae06457", "name": "670c813197309b4678ee95b98ae06457", "rental_uris": {"android": "https://dc.lft.to/lastmile_qr_scan", "ios": "https://dc.lft.to/lastmile_qr_scan"}, "lon": -77.03282, "fusion_lat": 0.0, "is_disabled": 0, "is_reserved": 0, "lat": 38.937975333333334, "type": "electric_scooter"}, {"fusion_lon": 0.0, "bike_id": "f03d7760e0b391b017ce82db569898fa", "name": "f03d7760e0b391b017ce82db569898fa", "rental_uris": {"android": "https://dc.lft.to/lastmile_qr_scan", "ios": "https://dc.lft.to/lastmile_qr_scan"}, "lon": -77.00657716666667, "fusion_lat": 0.0, "is_disabled": 0, "is_reserved": 0, "lat": 38.87930516666667, "type": "electric_scooter"}, {"fusion_lon": 0.0, "bike_id": "8569c022d8dc722e03bf555a106dff5e", "name": "8569c022d8dc722e03bf555a106dff5e", "rental_uris": {"android": "https://dc.lft.to/lastmile_qr_scan", "ios": "https://dc.lft.to/lastmile_qr_scan"}, "lon": -77.01229766666667, "fusion_lat": 0.0, "is_disabled": 0, "is_reserved": 0, "lat": 38.89347083333333, "type": "electric_scooter"}, {"fusion_lon": 0.0, "bike_id": "220c7625785917752ad6616b57ae7acb", "name": "220c7625785917752ad6616b57ae7acb", "rental_uris": {"android": "https://dc.lft.to/lastmile_qr_scan", "ios": "https://dc.lft.to/lastmile_qr_scan"}, "lon": -77.037552, "fusion_lat": 0.0, "is_disabled": 0, "is_reserved": 0, "lat": 38.93595283333333, "type": "electric_bike"}, {"fusion_lon": 0.0, "bike_id": "ed2c2156667acae15a5ef1d6d71f7919", "name": "ed2c2156667acae15a5ef1d6d71f7919", "rental_uris": {"android": "https://dc.lft.to/lastmile_qr_scan", "ios": "https://dc.lft.to/lastmile_qr_scan"}, "lon": -77.03499616666667, "fusion_lat": 0.0, "is_disabled": 0, "is_reserved": 0, "lat": 38.9085735, "type": "electric_scooter"}, {"fusion_lon": 0.0, "bike_id": "6b20c41a8162d2300fd57049a541e705", "name": "6b20c41a8162d2300fd57049a541e705", "rental_uris": {"android": "https://dc.lft.to/lastmile_qr_scan", "ios": "https://dc.lft.to/lastmile_qr_scan"}, "lon": -77.029454, "fusion_lat": 0.0, "is_disabled": 0, "is_reserved": 0, "lat": 38.913574, "type": "electric_scooter"}, {"fusion_lon": 0.0, "bike_id": "216f1ce64fbcce20aaab4764b72ee031", "name": "216f1ce64fbcce20aaab4764b72ee031", "rental_uris": {"android": "https://dc.lft.to/lastmile_qr_scan", "ios": "https://dc.lft.to/lastmile_qr_scan"}, "lon": -77.00543983333333, "fusion_lat": 0.0, "is_disabled": 0, "is_reserved": 0, "lat": 38.900033666666666, "type": "electric_bike"}, {"fusion_lon": 0.0, "bike_id": "3d06db4fbafe3e771880bdb0fda0a53c", "name": "3d06db4fbafe3e771880bdb0fda0a53c", "rental_uris": {"android": "https://dc.lft.to/lastmile_qr_scan", "ios": "https://dc.lft.to/lastmile_qr_scan"}, "lon": -77.02090133333333, "fusion_lat": 0.0, "is_disabled": 0, "is_reserved": 0, "lat": 38.90102183333333, "type": "electric_scooter"}, {"fusion_lon": 0.0, "bike_id": "23b362d4d9b4fcf8d28e40f2db942f48", "name": "23b362d4d9b4fcf8d28e40f2db942f48", "rental_uris": {"android": "https://dc.lft.to/lastmile_qr_scan", "ios": "https://dc.lft.to/lastmile_qr_scan"}, "lon": -77.046232, "fusion_lat": 0.0, "is_disabled": 0, "is_reserved": 0, "lat": 38.90217783333333, "type": "electric_scooter"}, {"fusion_lon": 0.0, "bike_id": "cd01af9b08992276be6e762347ed4b6f", "name": "cd01af9b08992276be6e762347ed4b6f", "rental_uris": {"android": "https://dc.lft.to/lastmile_qr_scan", "ios": "https://dc.lft.to/lastmile_qr_scan"}, "lon": -77.038296, "fusion_lat": 0.0, "is_disabled": 0, "is_reserved": 0, "lat": 38.88819016666667, "type": "electric_bike"}, {"fusion_lon": 0.0, "bike_id": "3c6d858b28d1a1fc53368a08edc070ee", "name": "3c6d858b28d1a1fc53368a08edc070ee", "rental_uris": {"android": "https://dc.lft.to/lastmile_qr_scan", "ios": "https://dc.lft.to/lastmile_qr_scan"}, "lon": -77.0681855, "fusion_lat": 0.0, "is_disabled": 0, "is_reserved": 0, "lat": 38.917437, "type": "electric_scooter"}, {"fusion_lon": 0.0, "bike_id": "f0032feefe9e3a833ecc29e7ce6e054a", "name": "f0032feefe9e3a833ecc29e7ce6e054a", "rental_uris": {"android": "https://dc.lft.to/lastmile_qr_scan", "ios": "https://dc.lft.to/lastmile_qr_scan"}, "lon": -77.04692233333333, "fusion_lat": 0.0, "is_disabled": 0, "is_reserved": 0, "lat": 38.90648766666666, "type": "electric_scooter"}, {"fusion_lon": 0.0, "bike_id": "64399389b4dc6745610ff063103d39dd", "name": "64399389b4dc6745610ff063103d39dd", "rental_uris": {"android": "https://dc.lft.to/lastmile_qr_scan", "ios": "https://dc.lft.to/lastmile_qr_scan"}, "lon": -77.11284033333334, "fusion_lat": 0.0, "is_disabled": 0, "is_reserved": 0, "lat": 38.83108883333333, "type": "electric_bike"}, {"fusion_lon": 0.0, "bike_id": "c8eeec96b808a140cbbf77023a6965d7", "name": "c8eeec96b808a140cbbf77023a6965d7", "rental_uris": {"android": "https://dc.lft.to/lastmile_qr_scan", "ios": "https://dc.lft.to/lastmile_qr_scan"}, "lon": -77.0362795, "fusion_lat": 0.0, "is_disabled": 0, "is_reserved": 0, "lat": 38.9170055, "type": "electric_scooter"}, {"fusion_lon": 0.0, "bike_id": "7506dc948d62e5921f79cb04413e09ad", "name": "7506dc948d62e5921f79cb04413e09ad", "rental_uris": {"android": "https://dc.lft.to/lastmile_qr_scan", "ios": "https://dc.lft.to/lastmile_qr_scan"}, "lon": -77.06321533333333, "fusion_lat": 0.0, "is_disabled": 0, "is_reserved": 0, "lat": 38.91345, "type": "electric_scooter"}, {"fusion_lon": 0.0, "bike_id": "aad04e67677c9c62a01fcdf45731090f", "name": "aad04e67677c9c62a01fcdf45731090f", "rental_uris": {"android": "https://dc.lft.to/lastmile_qr_scan", "ios": "https://dc.lft.to/lastmile_qr_scan"}, "lon": -77.0053755, "fusion_lat": 0.0, "is_disabled": 0, "is_reserved": 0, "lat": 38.874696, "type": "electric_scooter"}, {"fusion_lon": 0.0, "bike_id": "cc2add2a3203afc2b98eb85fc2cf7260", "name": "cc2add2a3203afc2b98eb85fc2cf7260", "rental_uris": {"android": "https://dc.lft.to/lastmile_qr_scan", "ios": "https://dc.lft.to/lastmile_qr_scan"}, "lon": -77.0581335, "fusion_lat": 0.0, "is_disabled": 0, "is_reserved": 0, "lat": 38.929006, "type": "electric_scooter"}, {"fusion_lon": 0.0, "bike_id": "78854b67a562823d06aabda8771fe49f", "name": "78854b67a562823d06aabda8771fe49f", "rental_uris": {"android": "https://dc.lft.to/lastmile_qr_scan", "ios": "https://dc.lft.to/lastmile_qr_scan"}, "lon": -77.03181316666667, "fusion_lat": 0.0, "is_disabled": 0, "is_reserved": 0, "lat": 38.913516666666666, "type": "electric_scooter"}, {"fusion_lon": 0.0, "bike_id": "9c78fe8818543e65a2b9af3d457643e2", "name": "9c78fe8818543e65a2b9af3d457643e2", "rental_uris": {"android": "https://dc.lft.to/lastmile_qr_scan", "ios": "https://dc.lft.to/lastmile_qr_scan"}, "lon": -77.01743066666667, "fusion_lat": 0.0, "is_disabled": 0, "is_reserved": 0, "lat": 38.89228033333333, "type": "electric_scooter"}, {"fusion_lon": 0.0, "bike_id": "82b261905beb9d341a1c4f2000c633b3", "name": "82b261905beb9d341a1c4f2000c633b3", "rental_uris": {"android": "https://dc.lft.to/lastmile_qr_scan", "ios": "https://dc.lft.to/lastmile_qr_scan"}, "lon": -77.04647716666666, "fusion_lat": 0.0, "is_disabled": 0, "is_reserved": 0, "lat": 38.8923265, "type": "electric_scooter"}, {"fusion_lon": 0.0, "bike_id": "45824de9040cd16e30a3216a47968cb7", "name": "45824de9040cd16e30a3216a47968cb7", "rental_uris": {"android": "https://dc.lft.to/lastmile_qr_scan", "ios": "https://dc.lft.to/lastmile_qr_scan"}, "lon": -77.0354225, "fusion_lat": 0.0, "is_disabled": 0, "is_reserved": 0, "lat": 38.926480833333336, "type": "electric_scooter"}, {"fusion_lon": 0.0, "bike_id": "a12dccc6a6a3a0aa83911c6683fe0baf", "name": "a12dccc6a6a3a0aa83911c6683fe0baf", "rental_uris": {"android": "https://dc.lft.to/lastmile_qr_scan", "ios": "https://dc.lft.to/lastmile_qr_scan"}, "lon": -77.21680583333334, "fusion_lat": 0.0, "is_disabled": 0, "is_reserved": 0, "lat": 38.89524733333333, "type": "electric_bike"}, {"fusion_lon": 0.0, "bike_id": "ded8481d227b7307c867223d4254d22e", "name": "ded8481d227b7307c867223d4254d22e", "rental_uris": {"android": "https://dc.lft.to/lastmile_qr_scan", "ios": "https://dc.lft.to/lastmile_qr_scan"}, "lon": -77.09724333333334, "fusion_lat": 0.0, "is_disabled": 0, "is_reserved": 0, "lat": 38.807387, "type": "electric_bike"}, {"fusion_lon": 0.0, "bike_id": "9b7c34cdad5f772d02b5119842f4f956", "name": "9b7c34cdad5f772d02b5119842f4f956", "rental_uris": {"android": "https://dc.lft.to/lastmile_qr_scan", "ios": "https://dc.lft.to/lastmile_qr_scan"}, "lon": -77.00615533333334, "fusion_lat": 0.0, "is_disabled": 0, "is_reserved": 0, "lat": 38.875787833333334, "type": "electric_scooter"}, {"fusion_lon": 0.0, "bike_id": "b24d3b18e4b1549900732fe8ca082d46", "name": "b24d3b18e4b1549900732fe8ca082d46", "rental_uris": {"android": "https://dc.lft.to/lastmile_qr_scan", "ios": "https://dc.lft.to/lastmile_qr_scan"}, "lon": -77.03160583333333, "fusion_lat": 0.0, "is_disabled": 0, "is_reserved": 0, "lat": 38.916352333333336, "type": "electric_scooter"}, {"fusion_lon": 0.0, "bike_id": "9fa5aa850754ee2a84ab148ff602fc00", "name": "9fa5aa850754ee2a84ab148ff602fc00", "rental_uris": {"android": "https://dc.lft.to/lastmile_qr_scan", "ios": "https://dc.lft.to/lastmile_qr_scan"}, "lon": -77.03211283333333, "fusion_lat": 0.0, "is_disabled": 0, "is_reserved": 0, "lat": 38.915384, "type": "electric_scooter"}, {"fusion_lon": 0.0, "bike_id": "bd43621071682608bf8f423478b7db3e", "name": "bd43621071682608bf8f423478b7db3e", "rental_uris": {"android": "https://dc.lft.to/lastmile_qr_scan", "ios": "https://dc.lft.to/lastmile_qr_scan"}, "lon": -77.038378, "fusion_lat": 0.0, "is_disabled": 0, "is_reserved": 0, "lat": 38.91214816666667, "type": "electric_scooter"}, {"fusion_lon": 0.0, "bike_id": "be5b10de03a26155a9db809e694b6fe1", "name": "be5b10de03a26155a9db809e694b6fe1", "rental_uris": {"android": "https://dc.lft.to/lastmile_qr_scan", "ios": "https://dc.lft.to/lastmile_qr_scan"}, "lon": -77.02075366666666, "fusion_lat": 0.0, "is_disabled": 0, "is_reserved": 0, "lat": 38.92124416666667, "type": "electric_scooter"}, {"fusion_lon": 0.0, "bike_id": "ba219de052369f003b9274ffd704b02b", "name": "ba219de052369f003b9274ffd704b02b", "rental_uris": {"android": "https://dc.lft.to/lastmile_qr_scan", "ios": "https://dc.lft.to/lastmile_qr_scan"}, "lon": -76.992203, "fusion_lat": 0.0, "is_disabled": 0, "is_reserved": 0, "lat": 38.89741083333333, "type": "electric_bike"}, {"fusion_lon": 0.0, "bike_id": "aff641e919004398d9631135d50f7aa0", "name": "aff641e919004398d9631135d50f7aa0", "rental_uris": {"android": "https://dc.lft.to/lastmile_qr_scan", "ios": "https://dc.lft.to/lastmile_qr_scan"}, "lon": -77.04555783333333, "fusion_lat": 0.0, "is_disabled": 0, "is_reserved": 0, "lat": 38.91270866666667, "type": "electric_scooter"}, {"fusion_lon": 0.0, "bike_id": "19e164b734ee525c1051647182376d4e", "name": "19e164b734ee525c1051647182376d4e", "rental_uris": {"android": "https://dc.lft.to/lastmile_qr_scan", "ios": "https://dc.lft.to/lastmile_qr_scan"}, "lon": -77.0449545, "fusion_lat": 0.0, "is_disabled": 0, "is_reserved": 0, "lat": 38.899390333333336, "type": "electric_scooter"}, {"fusion_lon": 0.0, "bike_id": "c5383a5d313ba03f48503b26c849be09", "name": "c5383a5d313ba03f48503b26c849be09", "rental_uris": {"android": "https://dc.lft.to/lastmile_qr_scan", "ios": "https://dc.lft.to/lastmile_qr_scan"}, "lon": -77.041229, "fusion_lat": 0.0, "is_disabled": 0, "is_reserved": 0, "lat": 38.934683166666666, "type": "electric_scooter"}, {"fusion_lon": 0.0, "bike_id": "34e11428d92da259f107d594ef9a2aee", "name": "34e11428d92da259f107d594ef9a2aee", "rental_uris": {"android": "https://dc.lft.to/lastmile_qr_scan", "ios": "https://dc.lft.to/lastmile_qr_scan"}, "lon": -77.03383666666667, "fusion_lat": 0.0, "is_disabled": 0, "is_reserved": 0, "lat": 38.90378416666667, "type": "electric_scooter"}, {"fusion_lon": 0.0, "bike_id": "cdbedeca5a1a45c9008fb72d6d784b1b", "name": "cdbedeca5a1a45c9008fb72d6d784b1b", "rental_uris": {"android": "https://dc.lft.to/lastmile_qr_scan", "ios": "https://dc.lft.to/lastmile_qr_scan"}, "lon": -77.04158566666666, "fusion_lat": 0.0, "is_disabled": 0, "is_reserved": 0, "lat": 38.9171735, "type": "electric_scooter"}, {"fusion_lon": 0.0, "bike_id": "6803095e9c80a3140f17df9a511b2b34", "name": "6803095e9c80a3140f17df9a511b2b34", "rental_uris": {"android": "https://dc.lft.to/lastmile_qr_scan", "ios": "https://dc.lft.to/lastmile_qr_scan"}, "lon": -77.03600866666666, "fusion_lat": 0.0, "is_disabled": 0, "is_reserved": 0, "lat": 38.90131433333333, "type": "electric_scooter"},