{"data": {"bikes": [{"fusion_lat": 0.0, "bike_id": "9a23c6bcadd59ae1d6fda2f98a444396", "fusion_lon": 0.0, "lon": -77.0134145, "lat": 38.878159333333336, "is_reserved": 0, "is_disabled": 0, "rental_uris": {"android": "https://dc.lft.to/lastmile_qr_scan", "ios": "https://dc.lft.to/lastmile_qr_scan"}, "name": "9a23c6bcadd59ae1d6fda2f98a444396", "type": "electric_scooter"}, {"fusion_lat": 0.0, "bike_id": "e6b6c034095cfa430e238f4d9ce9a9c6", "fusion_lon": 0.0, "lon": -77.0339715, "lat": 38.90729983333333, "is_reserved": 0, "is_disabled": 0, "rental_uris": {"android": "https://dc.lft.to/lastmile_qr_scan", "ios": "https://dc.lft.to/lastmile_qr_scan"}, "name": "e6b6c034095cfa430e238f4d9ce9a9c6", "type": "electric_scooter"}, {"fusion_lat": 0.0, "bike_id": "8612f4a70a7a3e6f95af0cc547e35630", "fusion_lon": 0.0, "lon": -77.02845133333334, "lat": 38.93420283333333, "is_reserved": 0, "is_disabled": 0, "rental_uris": {"android": "https://dc.lft.to/lastmile_qr_scan", "ios": "https://dc.lft.to/lastmile_qr_scan"}, "name": "8612f4a70a7a3e6f95af0cc547e35630", "type": "electric_scooter"}, {"fusion_lat": 0.0, "bike_id": "a19a0489907bc031dcc78ce85651e0dd", "fusion_lon": 0.0, "lon": -76.99831783333333, "lat": 38.894544833333335, "is_reserved": 0, "is_disabled": 0, "rental_uris": {"android": "https://dc.lft.to/lastmile_qr_scan", "ios": "https://dc.lft.to/lastmile_qr_scan"}, "name": "a19a0489907bc031dcc78ce85651e0dd", "type": "electric_scooter"}, {"fusion_lat": 0.0, "bike_id": "702eec5a164655c2bb5546f89cd6ca21", "fusion_lon": 0.0, "lon": -77.02771883333334, "lat": 38.8920265, "is_reserved": 0, "is_disabled": 0, "rental_uris": {"android": "https://dc.lft.to/lastmile_qr_scan", "ios": "https://dc.lft.to/lastmile_qr_scan"}, "name": "702eec5a164655c2bb5546f89cd6ca21", "type": "electric_scooter"}, {"fusion_lat": 0.0, "bike_id": "89462eefec5252ec6bc588bfae878f01", "fusion_lon": 0.0, "lon": -77.066408, "lat": 38.9059285, "is_reserved": 0, "is_disabled": 0, "rental_uris": {"android": "https://dc.lft.to/lastmile_qr_scan", "ios": "https://dc.lft.to/lastmile_qr_scan"}, "name": "89462eefec5252ec6bc588bfae878f01", "type": "electric_scooter"}, {"fusion_lat": 0.0, "bike_id": "2e6151cd2d8d787a309aca9b1cf4b7ce", "fusion_lon": 0.0, "lon": -77.02091116666666, "lat": 38.88183983333333, "is_reserved": 0, "is_disabled": 0, "rental_uris": {"android": "https://dc.lft.to/lastmile_qr_scan", "ios": "https://dc.lft.to/lastmile_qr_scan"}, "name": "2e6151cd2d8d787a309aca9b1cf4b7ce", "type": "electric_scooter"}, {"fusion_lat": 0.0, "bike_id": "3c816d4bae372f9bbb5d8d8659f5ecc3", "fusion_lon": 0.0, "lon": -76.9819295, "lat": 38.96745283333333, "is_reserved": 0, "is_disabled": 0, "rental_uris": {"android": "https://dc.lft.to/lastmile_qr_scan", "ios": "https://dc.lft.to/lastmile_qr_scan"}, "name": "3c816d4bae372f9bbb5d8d8659f5ecc3", "type": "electric_bike"}, {"fusion_lat": 0.0, "bike_id": "149fc99c96cfe32793322547ee98ffeb", "fusion_lon": 0.0, "lon": -77.02281733333334, "lat": 38.907846, "is_reserved": 0, "is_disabled": 0, "rental_uris": {"android": "https://dc.lft.to/lastmile_qr_scan", "ios": "https://dc.lft.to/lastmile_qr_scan"}, "name": "149fc99c96cfe32793322547ee98ffeb", "type": "electric_scooter"}, {"fusion_lat": 0.0, "bike_id": "a70f0c63ce830813fb48298c2eac4ccd", "fusion_lon": 0.0, "lon": -77.034307, "lat": 38.9331455, "is_reserved": 0, "is_disabled": 0, "rental_uris": {"android": "https://dc.lft.to/lastmile_qr_scan", "ios": "https://dc.lft.to/lastmile_qr_scan"}, "name": "a70f0c63ce830813fb48298c2eac4ccd", "type": "electric_scooter"}, {"fusion_lat": 0.0, "bike_id": "63b6080b5389d4e730aeaf2b9d5eea38", "fusion_lon": 0.0, "lon": -77.0287105, "lat": 38.91705, "is_reserved": 0, "is_disabled": 0, "rental_uris": {"android": "https://dc.lft.to/lastmile_qr_scan", "ios": "https://dc.lft.to/lastmile_qr_scan"}, "name": "63b6080b5389d4e730aeaf2b9d5eea38", "type": "electric_scooter"}, {"fusion_lat": 0.0, "bike_id": "74eb84c03b0740edd57bd81aaca795a1", "fusion_lon": 0.0, "lon": -77.03741366666667, "lat": 38.902602333333334, "is_reserved": 0, "is_disabled": 0, "rental_uris": {"android": "https://dc.lft.to/lastmile_qr_scan", "ios": "https://dc.lft.to/lastmile_qr_scan"}, "name": "74eb84c03b0740edd57bd81aaca795a1", "type": "electric_scooter"}, {"fusion_lat": 0.0, "bike_id": "ee2c28840b5de5ea9b70978dcf393aa4", "fusion_lon": 0.0, "lon": -76.9929055, "lat": 38.898892833333335, "is_reserved": 0, "is_disabled": 0, "rental_uris": {"android": "https://dc.lft.to/lastmile_qr_scan", "ios": "https://dc.lft.to/lastmile_qr_scan"}, "name": "ee2c28840b5de5ea9b70978dcf393aa4", "type": "electric_scooter"}, {"fusion_lat": 0.0, "bike_id": "abb55353bca641d5ba0bb4302031aaa0", "fusion_lon": 0.0, "lon": -77.04152983333333, "lat": 38.905244333333336, "is_reserved": 0, "is_disabled": 0, "rental_uris": {"android": "https://dc.lft.to/lastmile_qr_scan", "ios": "https://dc.lft.to/lastmile_qr_scan"}, "name": "abb55353bca641d5ba0bb4302031aaa0", "type": "electric_scooter"}, {"fusion_lat": 0.0, "bike_id": "7d59f4e7b0a3334afd2eae32f8670116", "fusion_lon": 0.0, "lon": -77.05543816666666, "lat": 38.93010966666667, "is_reserved": 0, "is_disabled": 0, "rental_uris": {"android": "https://dc.lft.to/lastmile_qr_scan", "ios": "https://dc.lft.to/lastmile_qr_scan"}, "name": "7d59f4e7b0a3334afd2eae32f8670116", "type": "electric_scooter"}, {"fusion_lat": 0.0, "bike_id": "92a1e539b83a3cd37579b49ae39c1096", "fusion_lon": 0.0, "lon": -77.079785, "lat": 38.919521833333334, "is_reserved": 0, "is_disabled": 0, "rental_uris": {"android": "https://dc.lft.to/lastmile_qr_scan", "ios": "https://dc.lft.to/lastmile_qr_scan"}, "name": "92a1e539b83a3cd37579b49ae39c1096", "type": "electric_scooter"}, {"fusion_lat": 0.0, "bike_id": "f5030144ae6590ff2a3d1977ddb626e8", "fusion_lon": 0.0, "lon": -77.04693383333333, "lat": 38.92178366666667, "is_reserved": 0, "is_disabled": 0, "rental_uris": {"android": "https://dc.lft.to/lastmile_qr_scan", "ios": "https://dc.lft.to/lastmile_qr_scan"}, "name": "f5030144ae6590ff2a3d1977ddb626e8", "type": "electric_scooter"}, {"fusion_lat": 0.0, "bike_id": "27546c0d8fe85d1a0902aac5e47689a1", "fusion_lon": 0.0, "lon": -77.052029, "lat": 38.92437266666666, "is_reserved": 0, "is_disabled": 0, "rental_uris": {"android": "https://dc.lft.to/lastmile_qr_scan", "ios": "https://dc.lft.to/lastmile_qr_scan"}, "name": "27546c0d8fe85d1a0902aac5e47689a1", "type": "electric_scooter"}, {"fusion_lat": 0.0, "bike_id": "3bf6cb0c1ca91a04617dd609507c65d0", "fusion_lon": 0.0, "lon": -77.0450895, "lat": 38.92324883333333, "is_reserved": 0, "is_disabled": 0, "rental_uris": {"android": "https://dc.lft.to/lastmile_qr_scan", "ios": "https://dc.lft.to/lastmile_qr_scan"}, "name": "3bf6cb0c1ca91a04617dd609507c65d0", "type": "electric_scooter"}, {"fusion_lat": 0.0, "bike_id": "1355b32e75bf2bd01b4c5cc0381842db", "fusion_lon": 0.0, "lon": -77.058901, "lat": 38.903152666666664, "is_reserved": 0, "is_disabled": 0, "rental_uris": {"android": "https://dc.lft.to/lastmile_qr_scan", "ios": "https://dc.lft.to/lastmile_qr_scan"}, "name": "1355b32e75bf2bd01b4c5cc0381842db", "type": "electric_scooter"}, {"fusion_lat": 0.0, "bike_id": "623dfee243f8af01e297ac54f21faf98", "fusion_lon": 0.0, "lon": -77.0326225, "lat": 38.932048333333334, "is_reserved": 0, "is_disabled": 0, "rental_uris": {"android": "https://dc.lft.to/lastmile_qr_scan", "ios": "https://dc.lft.to/lastmile_qr_scan"}, "name": "623dfee243f8af01e297ac54f21faf98", "type": "electric_scooter"}, {"fusion_lat": 0.0, "bike_id": "80550f78c996aee40abb7ee52ca8a5af", "fusion_lon": 0.0, "lon": -77.02094366666667, "lat": 38.93114666666666, "is_reserved": 0, "is_disabled": 0, "rental_uris": {"android": "https://dc.lft.to/lastmile_qr_scan", "ios": "https://dc.lft.to/lastmile_qr_scan"}, "name": "80550f78c996aee40abb7ee52ca8a5af", "type": "electric_scooter"}, {"fusion_lat": 0.0, "bike_id": "89e8853b5c24fb1d175d0b5abe1650a7", "fusion_lon": 0.0, "lon": -77.03480016666667, "lat": 38.93436783333333, "is_reserved": 0, "is_disabled": 0, "rental_uris": {"android": "https://dc.lft.to/lastmile_qr_scan", "ios": "https://dc.lft.to/lastmile_qr_scan"}, "name": "89e8853b5c24fb1d175d0b5abe1650a7", "type": "electric_scooter"}, {"fusion_lat": 0.0, "bike_id": "0b46658b881fd40d74fd913e401fa476", "fusion_lon": 0.0, "lon": -77.0365315, "lat": 38.923425, "is_reserved": 0, "is_disabled": 0, "rental_uris": {"android": "https://dc.lft.to/lastmile_qr_scan", "ios": "https://dc.lft.to/lastmile_qr_scan"}, "name": "0b46658b881fd40d74fd913e401fa476", "type": "electric_scooter"}, {"fusion_lat": 0.0, "bike_id": "1af0ba0a45e249ef35bdefae3ed114d1", "fusion_lon": 0.0, "lon": -77.00376416666667, "lat": 38.836021333333335, "is_reserved": 0, "is_disabled": 0, "rental_uris": {"android": "https://dc.lft.to/lastmile_qr_scan", "ios": "https://dc.lft.to/lastmile_qr_scan"}, "name": "1af0ba0a45e249ef35bdefae3ed114d1", "type": "electric_bike"}, {"fusion_lat": 0.0, "bike_id": "fd53944375dad08c023607da7777f10a", "fusion_lon": 0.0, "lon": -77.026589, "lat": 38.91692316666666, "is_reserved": 0, "is_disabled": 0, "rental_uris": {"android": "https://dc.lft.to/lastmile_qr_scan", "ios": "https://dc.lft.to/lastmile_qr_scan"}, "name": "fd53944375dad08c023607da7777f10a", "type": "electric_scooter"}, {"fusion_lat": 0.0, "bike_id": "7be0d7f28887fa81fd4b1acd23c086ca", "fusion_lon": 0.0, "lon": -77.04695516666666, "lat": 38.921358166666664, "is_reserved": 0, "is_disabled": 0, "rental_uris": {"android": "https://dc.lft.to/lastmile_qr_scan", "ios": "https://dc.lft.to/lastmile_qr_scan"}, "name": "7be0d7f28887fa81fd4b1acd23c086ca", "type": "electric_scooter"}, {"fusion_lat": 0.0, "bike_id": "92d1b27137edd54e786b33ca41581ed6", "fusion_lon": 0.0, "lon": -77.03185133333334, "lat": 38.910446, "is_reserved": 0, "is_disabled": 0, "rental_uris": {"android": "https://dc.lft.to/lastmile_qr_scan", "ios": "https://dc.lft.to/lastmile_qr_scan"}, "name": "92d1b27137edd54e786b33ca41581ed6", "type": "electric_scooter"}, {"fusion_lat": 0.0, "bike_id": "d9a2752e2f3355134b21b6e88b868aeb", "fusion_lon": 0.0, "lon": -77.02273116666667, "lat": 38.898383833333334, "is_reserved": 0, "is_disabled": 0, "rental_uris": {"android": "https://dc.lft.to/lastmile_qr_scan", "ios": "https://dc.lft.to/lastmile_qr_scan"}, "name": "d9a2752e2f3355134b21b6e88b868aeb", "type": "electric_scooter"}, {"fusion_lat": 0.0, "bike_id": "3cfecb8fdf512224259940f333f38ec3", "fusion_lon": 0.0, "lon": -77.05413716666666, "lat": 38.950438, "is_reserved": 0, "is_disabled": 0, "rental_uris": {"android": "https://dc.lft.to/lastmile_qr_scan", "ios": "https://dc.lft.to/lastmile_qr_scan"}, "name": "3cfecb8fdf512224259940f333f38ec3", "type": "electric_scooter"}, {"fusion_lat": 0.0, "bike_id": "d5fea6785ec1829e03e80f861849a06c", "fusion_lon": 0.0, "lon": -77.04350016666666, "lat": 38.92171316666666, "is_reserved": 0, "is_disabled": 0, "rental_uris": {"android": "https://dc.lft.to/lastmile_qr_scan", "ios": "https://dc.lft.to/lastmile_qr_scan"}, "name": "d5fea6785ec1829e03e80f861849a06c", "type": "electric_scooter"}, {"fusion_lat": 0.0, "bike_id": "d46b47a859f423c619d12b6c65222a02", "fusion_lon": 0.0, "lon": -77.04310783333334, "lat": 38.92219766666667, "is_reserved": 0, "is_disabled": 0, "rental_uris": {"android": "https://dc.lft.to/lastmile_qr_scan", "ios": "https://dc.lft.to/lastmile_qr_scan"}, "name": "d46b47a859f423c619d12b6c65222a02", "type": "electric_scooter"}, {"fusion_lat": 0.0, "bike_id": "ac2e07a7f7938de4f369fc8d88f5a25b", "fusion_lon": 0.0, "lon": -77.00529066666667, "lat": 38.92978733333333, "is_reserved": 0, "is_disabled": 0, "rental_uris": {"android": "https://dc.lft.to/lastmile_qr_scan", "ios": "https://dc.lft.to/lastmile_qr_scan"}, "name": "ac2e07a7f7938de4f369fc8d88f5a25b", "type": "electric_scooter"}, {"fusion_lat": 0.0, "bike_id": "35432074448a5b2efd9deb529e8e5d03", "fusion_lon": 0.0, "lon": -77.0265825, "lat": 38.921782666666665, "is_reserved": 0, "is_disabled": 0, "rental_uris": {"android": "https://dc.lft.to/lastmile_qr_scan", "ios": "https://dc.lft.to/lastmile_qr_scan"}, "name": "35432074448a5b2efd9deb529e8e5d03", "type": "electric_scooter"}, {"fusion_lat": 0.0, "bike_id": "ed336421e49a4e31fc8a665489ce26f0", "fusion_lon": 0.0, "lon": -77.03108816666666, "lat": 38.89224133333333, "is_reserved": 0, "is_disabled": 0, "rental_uris": {"android": "https://dc.lft.to/lastmile_qr_scan", "ios": "https://dc.lft.to/lastmile_qr_scan"}, "name": "ed336421e49a4e31fc8a665489ce26f0", "type": "electric_scooter"}, {"fusion_lat": 0.0, "bike_id": "7ea81f1440fdf3360ef1ecb1ca374490", "fusion_lon": 0.0, "lon": -76.98523066666667, "lat": 38.86686533333334, "is_reserved": 0, "is_disabled": 0, "rental_uris": {"android": "https://dc.lft.to/lastmile_qr_scan", "ios": "https://dc.lft.to/lastmile_qr_scan"}, "name": "7ea81f1440fdf3360ef1ecb1ca374490", "type": "electric_scooter"}, {"fusion_lat": 0.0, "bike_id": "4cf0064a0240d657a1b738fbc207e284", "fusion_lon": 0.0, "lon": -77.01875866666667, "lat": 38.937718833333335, "is_reserved": 0, "is_disabled": 0, "rental_uris": {"android": "https://dc.lft.to/lastmile_qr_scan", "ios": "https://dc.lft.to/lastmile_qr_scan"}, "name": "4cf0064a0240d657a1b738fbc207e284", "type": "electric_bike"}, {"fusion_lat": 0.0, "bike_id": "cc9fbc3331cef2a3fae9bf6214b91a00", "fusion_lon": 0.0, "lon": -77.022948, "lat": 38.916042833333336, "is_reserved": 0, "is_disabled": 0, "rental_uris": {"android": "https://dc.lft.to/lastmile_qr_scan", "ios": "https://dc.lft.to/lastmile_qr_scan"}, "name": "cc9fbc3331cef2a3fae9bf6214b91a00", "type": "electric_scooter"}, {"fusion_lat": 0.0, "bike_id": "f1c7bab433b13d76f4d7089932725b64", "fusion_lon": 0.0, "lon": -77.02266483333334, "lat": 38.93768516666667, "is_reserved": 0, "is_disabled": 0, "rental_uris": {"android": "https://dc.lft.to/lastmile_qr_scan", "ios": "https://dc.lft.to/lastmile_qr_scan"}, "name": "f1c7bab433b13d76f4d7089932725b64", "type": "electric_scooter"}, {"fusion_lat": 0.0, "bike_id": "999fc8ceb78a3dd4e2bd9ef14614036b", "fusion_lon": 0.0, "lon": -77.045948, "lat": 38.915554, "is_reserved": 0, "is_disabled": 0, "rental_uris": {"android": "https://dc.lft.to/lastmile_qr_scan", "ios": "https://dc.lft.to/lastmile_qr_scan"}, "name": "999fc8ceb78a3dd4e2bd9ef14614036b", "type": "electric_scooter"}, {"fusion_lat": 0.0, "bike_id": "9a74c5b3c3c9d470a4e0135a5810f6d5", "fusion_lon": 0.0, "lon": -76.93057333333333, "lat": 38.883829, "is_reserved": 0, "is_disabled": 0, "rental_uris": {"android": "https://dc.lft.to/lastmile_qr_scan", "ios": "https://dc.lft.to/lastmile_qr_scan"}, "name": "9a74c5b3c3c9d470a4e0135a5810f6d5", "type": "electric_scooter"}, {"fusion_lat": 0.0, "bike_id": "692b0b6b24d78f76730d8ff987c6c0f8", "fusion_lon": 0.0, "lon": -77.04481966666667, "lat": 38.89225833333333, "is_reserved": 0, "is_disabled": 0, "rental_uris": {"android": "https://dc.lft.to/lastmile_qr_scan", "ios": "https://dc.lft.to/lastmile_qr_scan"}, "name": "692b0b6b24d78f76730d8ff987c6c0f8", "type": "electric_scooter"}, {"fusion_lat": 0.0, "bike_id": "e8fbe0f7e1fc92df63e7db3516cef0b7", "fusion_lon": 0.0, "lon": -77.0230095, "lat": 38.91613616666667, "is_reserved": 0, "is_disabled": 0, "rental_uris": {"android": "https://dc.lft.to/lastmile_qr_scan", "ios": "https://dc.lft.to/lastmile_qr_scan"}, "name": "e8fbe0f7e1fc92df63e7db3516cef0b7", "type": "electric_scooter"}, {"fusion_lat": 0.0, "bike_id": "588e16d559544040c4adbd28c3672faa", "fusion_lon": 0.0, "lon": -77.0266095, "lat": 38.9169915, "is_reserved": 0, "is_disabled": 0, "rental_uris": {"android": "https://dc.lft.to/lastmile_qr_scan", "ios": "https://dc.lft.to/lastmile_qr_scan"}, "name": "588e16d559544040c4adbd28c3672faa", "type": "electric_scooter"}, {"fusion_lat": 0.0, "bike_id": "8775a2814f9f11d0dd1f8afd1ad20c74", "fusion_lon": 0.0, "lon": -77.001073, "lat": 38.8868875, "is_reserved": 0, "is_disabled": 0, "rental_uris": {"android": "https://dc.lft.to/lastmile_qr_scan", "ios": "https://dc.lft.to/lastmile_qr_scan"}, "name": "8775a2814f9f11d0dd1f8afd1ad20c74", "type": "electric_bike"}, {"fusion_lat": 0.0, "bike_id": "2dad7e617e1b68b89aea6af5b4e0f163", "fusion_lon": 0.0, "lon": -77.02557966666667, "lat": 38.941724666666666, "is_reserved": 0, "is_disabled": 0, "rental_uris": {"android": "https://dc.lft.to/lastmile_qr_scan", "ios": "https://dc.lft.to/lastmile_qr_scan"}, "name": "2dad7e617e1b68b89aea6af5b4e0f163", "type": "electric_scooter"}, {"fusion_lat": 0.0, "bike_id": "107c854c5e44022bcd2e659f5d9afdaa", "fusion_lon": 0.0, "lon": -77.008818, "lat": 38.903821666666666, "is_reserved": 0, "is_disabled": 0, "rental_uris": {"android": "https://dc.lft.to/lastmile_qr_scan", "ios": "https://dc.lft.to/lastmile_qr_scan"}, "name": "107c854c5e44022bcd2e659f5d9afdaa", "type": "electric_bike"}, {"fusion_lat": 0.0, "bike_id": "4641030582574678bcee2fcecdf03602", "fusion_lon": 0.0, "lon": -77.02569533333333, "lat": 38.914879166666665, "is_reserved": 0, "is_disabled": 0, "rental_uris": {"android": "https://dc.lft.to/lastmile_qr_scan", "ios": "https://dc.lft.to/lastmile_qr_scan"}, "name": "4641030582574678bcee2fcecdf03602", "type": "electric_scooter"}, {"fusion_lat": 0.0, "bike_id": "a47b3f31a4e822e8e0f1e40ed9140b20", "fusion_lon": 0.0, "lon": -76.99118733333333, "lat": 38.901372, "is_reserved": 0, "is_disabled": 0, "rental_uris": {"android": "https://dc.lft.to/lastmile_qr_scan", "ios": "https://dc.lft.to/lastmile_qr_scan"}, "name": "a47b3f31a4e822e8e0f1e40ed9140b20", "type": "electric_scooter"}, {"fusion_lat": 0.0, "bike_id": "b6dcf92087deac88075ddd63979c6b2d", "fusion_lon": 0.0, "lon": -77.03519683333333, "lat": 38.918797833333336, "is_reserved": 0, "is_disabled": 0, "rental_uris": {"android": "https://dc.lft.to/lastmile_qr_scan", "ios": "https://dc.lft.to/lastmile_qr_scan"}, "name": "b6dcf92087deac88075ddd63979c6b2d", "type": "electric_scooter"}, {"fusion_lat": 0.0, "bike_id": "c7f758748f6f9437a0a12fe1ccc04cc5", "fusion_lon": 0.0, "lon": -76.97806016666667, "lat": 38.906652666666666, "is_reserved": 0, "is_disabled": 0, "rental_uris": {"android": "https://dc.lft.to/lastmile_qr_scan", "ios": "https://dc.lft.to/lastmile_qr_scan"}, "name": "c7f758748f6f9437a0a12fe1ccc04cc5", "type": "electric_scooter"}, {"fusion_lat": 0.0, "bike_id": "f2c105541d4f1fce24cf6faa1aec5605", "fusion_lon": 0.0, "lon": -77.0321875, "lat": 38.90866833333333, "is_reserved": 0, "is_disabled": 0, "rental_uris": {"android": "https://dc.lft.to/lastmile_qr_scan", "ios": "https://dc.lft.to/lastmile_qr_scan"}, "name": "f2c105541d4f1fce24cf6faa1aec5605", "type": "electric_scooter"}, {"fusion_lat": 0.0, "bike_id": "ac45f802c4a3e61f3d06c01338a63cb0", "fusion_lon": 0.0, "lon": -77.050504, "lat": 38.923804833333335, "is_reserved": 0, "is_disabled": 0, "rental_uris": {"android": "https://dc.lft.to/lastmile_qr_scan", "ios": "https://dc.lft.to/lastmile_qr_scan"}, "name": "ac45f802c4a3e61f3d06c01338a63cb0", "type": "electric_scooter"}, {"fusion_lat": 0.0, "bike_id": "1cc7e0677450820a7e325f0def06563a", "fusion_lon": 0.0, "lon": -77.00678983333333, "lat": 38.944982, "is_reserved": 0, "is_disabled": 0, "rental_uris": {"android": "https://dc.lft.to/lastmile_qr_scan", "ios": "https://dc.lft.to/lastmile_qr_scan"}, "name": "1cc7e0677450820a7e325f0def06563a", "type": "electric_bike"}, {"fusion_lat": 0.0, "bike_id": "73606263b053fe875f554d28f2e28081", "fusion_lon": 0.0, "lon": -77.0317935, "lat": 38.918306333333334, "is_reserved": 0, "is_disabled": 0, "rental_uris": {"android": "https://dc.lft.to/lastmile_qr_scan", "ios": "https://dc.lft.to/lastmile_qr_scan"}, "name": "73606263b053fe875f554d28f2e28081", "type": "electric_scooter"}, {"fusion_lat": 0.0, "bike_id": "36f6a7d41e0eeccf214b368dcc2dbb68", "fusion_lon": 0.0, "lon": -77.07115966666667, "lat": 38.919713, "is_reserved": 0, "is_disabled": 0, "rental_uris": {"android": "https://dc.lft.to/lastmile_qr_scan", "ios": "https://dc.lft.to/lastmile_qr_scan"}, "name": "36f6a7d41e0eeccf214b368dcc2dbb68", "type": "electric_scooter"}, {"fusion_lat": 0.0, "bike_id": "d4267e55c4c10e8b6d4ffb74584bf9ff", "fusion_lon": 0.0, "lon": -77.03711216666666, "lat": 38.93069933333334, "is_reserved": 0, "is_disabled": 0, "rental_uris": {"android": "https://dc.lft.to/lastmile_qr_scan", "ios": "https://dc.lft.to/lastmile_qr_scan"}, "name": "d4267e55c4c10e8b6d4ffb74584bf9ff", "type": "electric_scooter"}, {"fusion_lat": 0.0, "bike_id": "5c9db377afee3a401702cc6ec672e995", "fusion_lon": 0.0, "lon": -76.89539033333334, "lat": 38.945569, "is_reserved": 0, "is_disabled": 0, "rental_uris": {"android": "https://dc.lft.to/lastmile_qr_scan", "ios": "https://dc.lft.to/lastmile_qr_scan"}, "name": "5c9db377afee3a401702cc6ec672e995", "type": "electric_bike"}, {"fusion_lat": 0.0, "bike_id": "663ff0fef46d957760f65688f462d1d7", "fusion_lon": 0.0, "lon": -76.99034333333333, "lat": 38.9027715, "is_reserved": 0, "is_disabled": 0, "rental_uris": {"android": "https://dc.lft.to/lastmile_qr_scan", "ios": "https://dc.lft.to/lastmile_qr_scan"}, "name": "663ff0fef46d957760f65688f462d1d7", "type": "electric_scooter"}, {"fusion_lat": 0.0, "bike_id": "8bcfced871609786f0e54ac5d015967e", "fusion_lon": 0.0, "lon": -77.031644, "lat": 38.8922115, "is_reserved": 0, "is_disabled": 0, "rental_uris": {"android": "https://dc.lft.to/lastmile_qr_scan", "ios": "https://dc.lft.to/lastmile_qr_scan"}, "name": "8bcfced871609786f0e54ac5d015967e", "type": "electric_scooter"}, {"fusion_lat": 0.0, "bike_id": "e81e51e6250cea074e40b079270282eb", "fusion_lon": 0.0, "lon": -77.05236566666666, "lat": 38.9254935, "is_reserved": 0, "is_disabled": 0, "rental_uris": {"android": "https://dc.lft.to/lastmile_qr_scan", "ios": "https://dc.lft.to/lastmile_qr_scan"}, "name": "e81e51e6250cea074e40b079270282eb", "type": "electric_scooter"}, {"fusion_lat": 0.0, "bike_id": "05448e9661bc0f0a7c259952b3a9427a", "fusion_lon": 0.0, "lon": -77.02510883333333, "lat": 38.92647083333333, "is_reserved": 0, "is_disabled": 0, "rental_uris": {"android": "https://dc.lft.to/lastmile_qr_scan", "ios": "https://dc.lft.to/lastmile_qr_scan"}, "name": "05448e9661bc0f0a7c259952b3a9427a", "type": "electric_scooter"}, {"fusion_lat": 0.0, "bike_id": "a6e2f4f00263b820486e300302a2f39e", "fusion_lon": 0.0, "lon": -77.04388233333333, "lat": 38.921146666666665, "is_reserved": 0, "is_disabled": 0, "rental_uris": {"android": "https://dc.lft.to/lastmile_qr_scan", "ios": "https://dc.lft.to/lastmile_qr_scan"}, "name": "a6e2f4f00263b820486e300302a2f39e", "type": "electric_scooter"}, {"fusion_lat": 0.0, "bike_id": "d7a1f559562888401e960b611316628c", "fusion_lon": 0.0, "lon": -77.0269855, "lat": 38.906668, "is_reserved": 0, "is_disabled": 0, "rental_uris": {"android": "https://dc.lft.to/lastmile_qr_scan", "ios": "https://dc.lft.to/lastmile_qr_scan"}, "name": "d7a1f559562888401e960b611316628c", "type": "electric_scooter"}, {"fusion_lat": 0.0, "bike_id": "27571759905854d21cf15bf230871f53", "fusion_lon": 0.0, "lon": -77.04878966666666, "lat": 38.9008825, "is_reserved": 0, "is_disabled": 0, "rental_uris": {"android": "https://dc.lft.to/lastmile_qr_scan", "ios": "https://dc.lft.to/lastmile_qr_scan"}, "name": "27571759905854d21cf15bf230871f53", "type": "electric_scooter"}, {"fusion_lat": 0.0, "bike_id": "22d433931d425286ae13ca027a53e860", "fusion_lon": 0.0, "lon": -77.04008766666666, "lat": 38.897825833333336, "is_reserved": 0, "is_disabled": 0, "rental_uris": {"android": "https://dc.lft.to/lastmile_qr_scan", "ios": "https://dc.lft.to/lastmile_qr_scan"}, "name": "22d433931d425286ae13ca027a53e860", "type": "electric_scooter"}, {"fusion_lat": 0.0, "bike_id": "4485238e384a5491382e09a84ee1b671", "fusion_lon": 0.0, "lon": -77.03271266666667, "lat": 38.901473, "is_reserved": 0, "is_disabled": 0, "rental_uris": {"android": "https://dc.lft.to/lastmile_qr_scan", "ios": "https://dc.lft.to/lastmile_qr_scan"}, "name": "4485238e384a5491382e09a84ee1b671", "type": "electric_scooter"}, {"fusion_lat": 0.0, "bike_id": "428a4c296b010cc3b7d681464f157a65", "fusion_lon": 0.0, "lon": -77.005985, "lat": 38.871855333333336, "is_reserved": 0, "is_disabled": 0, "rental_uris": {"android": "https://dc.lft.to/lastmile_qr_scan", "ios": "https://dc.lft.to/lastmile_qr_scan"}, "name": "428a4c296b010cc3b7d681464f157a65", "type": "electric_scooter"}, {"fusion_lat": 0.0, "bike_id": "8b120bb0cc3562c52a692b0d71c5c77b", "fusion_lon": 0.0, "lon": -76.98595916666666, "lat": 38.866845833333336, "is_reserved": 0, "is_disabled": 0, "rental_uris": {"android": "https://dc.lft.to/lastmile_qr_scan", "ios": "https://dc.lft.to/lastmile_qr_scan"}, "name": "8b120bb0cc3562c52a692b0d71c5c77b", "type": "electric_scooter"}, {"fusion_lat": 0.0, "bike_id": "bbc797dfa91b90db3133eb8962ec6410", "fusion_lon": 0.0, "lon": -77.01135416666666, "lat": 38.893649833333335, "is_reserved": 0, "is_disabled": 0, "rental_uris": {"android": "https://dc.lft.to/lastmile_qr_scan", "ios": "https://dc.lft.to/lastmile_qr_scan"}, "name": "bbc797dfa91b90db3133eb8962ec6410", "type": "electric_scooter"}, {"fusion_lat": 0.0, "bike_id": "a7803c743b060d98ea53c0574b32f899", "fusion_lon": 0.0, "lon": -77.03179816666666, "lat": 38.896261333333335, "is_reserved": 0, "is_disabled": 0, "rental_uris": {"android": "https://dc.lft.to/lastmile_qr_scan", "ios": "https://dc.lft.to/lastmile_qr_scan"}, "name": "a7803c743b060d98ea53c0574b32f899", "type": "electric_scooter"}, {"fusion_lat": 0.0, "bike_id": "dc7e5cbdc1ee2d35590c79e5652fe1f3", "fusion_lon": 0.0, "lon": -77.02445916666667, "lat": 38.902510666666664, "is_reserved": 0, "is_disabled": 0, "rental_uris": {"android": "https://dc.lft.to/lastmile_qr_scan", "ios": "https://dc.lft.to/lastmile_qr_scan"}, "name": "dc7e5cbdc1ee2d35590c79e5652fe1f3", "type": "electric_scooter"}, {"fusion_lat": 0.0, "bike_id": "b7d2e2a309348883103120abd83c4555", "fusion_lon": 0.0, "lon": -76.99707933333333, "lat": 38.8454815, "is_reserved": 0, "is_disabled": 0, "rental_uris": {"android": "https://dc.lft.to/lastmile_qr_scan", "ios": "https://dc.lft.to/lastmile_qr_scan"}, "name": "b7d2e2a309348883103120abd83c4555", "type": "electric_scooter"}, {"fusion_lat": 0.0, "bike_id": "fe589403eb1816a25fe85454ba2f24c6", "fusion_lon": 0.0, "lon": -77.04897783333334, "lat": 38.89227833333333, "is_reserved": 0, "is_disabled": 0, "rental_uris": {"android": "https://dc.lft.to/lastmile_qr_scan", "ios": "https://dc.lft.to/lastmile_qr_scan"}, "name": "fe589403eb1816a25fe85454ba2f24c6", "type": "electric_scooter"}, {"fusion_lat": 0.0, "bike_id": "03d66f9498abd960f83c273b0865ab51", "fusion_lon": 0.0, "lon": -77.0059765, "lat": 38.90584316666666, "is_reserved": 0, "is_disabled": 0, "rental_uris": {"android": "https://dc.lft.to/lastmile_qr_scan", "ios": "https://dc.lft.to/lastmile_qr_scan"}, "name": "03d66f9498abd960f83c273b0865ab51", "type": "electric_scooter"}, {"fusion_lat": 0.0, "bike_id": "08fc43556af97dc13480ea1642979231", "fusion_lon": 0.0, "lon": -77.0350465, "lat": 38.92146733333333, "is_reserved": 0, "is_disabled": 0, "rental_uris": {"android": "https://dc.lft.to/lastmile_qr_scan", "ios": "https://dc.lft.to/lastmile_qr_scan"}, "name": "08fc43556af97dc13480ea1642979231", "type": "electric_scooter"}, {"fusion_lat": 0.0, "bike_id": "338d7bc7fb719e974aa32b6730635044", "fusion_lon": 0.0, "lon": -77.050387, "lat": 38.905397, "is_reserved": 0, "is_disabled": 0, "rental_uris": {"android": "https://dc.lft.to/lastmile_qr_scan", "ios": "https://dc.lft.to/lastmile_qr_scan"}, "name": "338d7bc7fb719e974aa32b6730635044", "type": "electric_scooter"}, {"fusion_lat": 0.0, "bike_id": "2dabe6725c573ab7bb17284e29df9c8f", "fusion_lon": 0.0, "lon": -77.0405535, "lat": 38.918592333333336, "is_reserved": 0, "is_disabled": 0, "rental_uris": {"android": "https://dc.lft.to/lastmile_qr_scan", "ios": "https://dc.lft.to/lastmile_qr_scan"}, "name": "2dabe6725c573ab7bb17284e29df9c8f", "type": "electric_scooter"}, {"fusion_lat": 0.0, "bike_id": "6d37100f9bd3e1cc06a3f8fc7c475130", "fusion_lon": 0.0, "lon": -77.02751216666667, "lat": 38.9578, "is_reserved": 0, "is_disabled": 0, "rental_uris": {"android": "https://dc.lft.to/lastmile_qr_scan", "ios": "https://dc.lft.to/lastmile_qr_scan"}, "name": "6d37100f9bd3e1cc06a3f8fc7c475130", "type": "electric_bike"}, {"fusion_lat": 0.0, "bike_id": "1b3c0479c581df734ec438f601394000", "fusion_lon": 0.0, "lon": -77.017651, "lat": 38.8873055, "is_reserved": 0, "is_disabled": 0, "rental_uris": {"android": "https://dc.lft.to/lastmile_qr_scan", "ios": "https://dc.lft.to/lastmile_qr_scan"}, "name": "1b3c0479c581df734ec438f601394000", "type": "electric_scooter"}, {"fusion_lat": 0.0, "bike_id": "8875b21154cd29f529624fb46e1fe9ce", "fusion_lon": 0.0, "lon": -76.99833016666666, "lat": 38.904918, "is_reserved": 0, "is_disabled": 0, "rental_uris": {"android": "https://dc.lft.to/lastmile_qr_scan", "ios": "https://dc.lft.to/lastmile_qr_scan"}, "name": "8875b21154cd29f529624fb46e1fe9ce", "type": "electric_scooter"}, {"fusion_lat": 0.0, "bike_id": "80370ebc278646b32b36546d6c54e25a", "fusion_lon": 0.0, "lon": -77.0651585, "lat": 38.90409983333333, "is_reserved": 0, "is_disabled": 0, "rental_uris": {"android": "https://dc.lft.to/lastmile_qr_scan", "ios": "https://dc.lft.to/lastmile_qr_scan"}, "name": "80370ebc278646b32b36546d6c54e25a", "type": "electric_scooter"}, {"fusion_lat": 0.0, "bike_id": "c1fb931081de2098025f32c25ba39c70", "fusion_lon": 0.0, "lon": -77.032747, "lat": 38.91631833333334, "is_reserved": 0, "is_disabled": 0, "rental_uris": {"android": "https://dc.lft.to/lastmile_qr_scan", "ios": "https://dc.lft.to/lastmile_qr_scan"}, "name": "c1fb931081de2098025f32c25ba39c70", "type": "electric_scooter"}, {"fusion_lat": 0.0, "bike_id": "532e3fbe02dfd5b43af0af1f0313ce25", "fusion_lon": 0.0, "lon": -77.0344875, "lat": 38.90734033333333, "is_reserved": 0, "is_disabled": 0, "rental_uris": {"android": "https://dc.lft.to/lastmile_qr_scan", "ios": "https://dc.lft.to/lastmile_qr_scan"}, "name": "532e3fbe02dfd5b43af0af1f0313ce25", "type": "electric_scooter"}, {"fusion_lat": 0.0, "bike_id": "e685eed9030afe5bc50c69b7ff25766e", "fusion_lon": 0.0, "lon": -77.028425, "lat": 38.887463, "is_reserved": 0, "is_disabled": 0, "rental_uris": {"android": "https://dc.lft.to/lastmile_qr_scan", "ios": "https://dc.lft.to/lastmile_qr_scan"}, "name": "e685eed9030afe5bc50c69b7ff25766e", "type": "electric_scooter"}, {"fusion_lat": 0.0, "bike_id": "99814ac992b8e384107baef6e12b2675", "fusion_lon": 0.0, "lon": -77.04612733333333, "lat": 38.92056316666667, "is_reserved": 0, "is_disabled": 0, "rental_uris": {"android": "https://dc.lft.to/lastmile_qr_scan", "ios": "https://dc.lft.to/lastmile_qr_scan"}, "name": "99814ac992b8e384107baef6e12b2675", "type": "electric_scooter"}, {"fusion_lat": 0.0, "bike_id": "1f24042a6b9d642de00237a4f7d3c9ca", "fusion_lon": 0.0, "lon": -77.02092633333334, "lat": 38.92708366666667, "is_reserved": 0, "is_disabled": 0, "rental_uris": {"android": "https://dc.lft.to/lastmile_qr_scan", "ios": "https://dc.lft.to/lastmile_qr_scan"}, "name": "1f24042a6b9d642de00237a4f7d3c9ca", "type": "electric_scooter"}, {"fusion_lat": 0.0, "bike_id": "91740917af1ec3c3d3a9789f9a121478", "fusion_lon": 0.0, "lon": -77.02414233333333, "lat": 38.92068283333333, "is_reserved": 0, "is_disabled": 0, "rental_uris": {"android": "https://dc.lft.to/lastmile_qr_scan", "ios": "https://dc.lft.to/lastmile_qr_scan"}, "name": "91740917af1ec3c3d3a9789f9a121478", "type": "electric_scooter"}, {"fusion_lat": 0.0, "bike_id": "98c7a42a54ad77aab8aeec72e9892dc9", "fusion_lon": 0.0, "lon": -76.9861195, "lat": 38.88281583333333, "is_reserved": 0, "is_disabled": 0, "rental_uris": {"android": "https://dc.lft.to/lastmile_qr_scan", "ios": "https://dc.lft.to/lastmile_qr_scan"}, "name": "98c7a42a54ad77aab8aeec72e9892dc9", "type": "electric_scooter"}, {"fusion_lat": 0.0, "bike_id": "b10c7ce7896dcc057f1b2f4e0b8b28fa", "fusion_lon": 0.0, "lon": -77.08066683333334, "lat": 39.05282583333333, "is_reserved": 0, "is_disabled": 0, "rental_uris": {"android": "https://dc.lft.to/lastmile_qr_scan", "ios": "https://dc.lft.to/lastmile_qr_scan"}, "name": "b10c7ce7896dcc057f1b2f4e0b8b28fa", "type": "electric_bike"}, {"fusion_lat": 0.0, "bike_id": "aba82ed9afaf8c5829cb98d38d2c8afb", "fusion_lon": 0.0, "lon": -76.990848, "lat": 38.86236916666667, "is_reserved": 0, "is_disabled": 0, "rental_uris": {"android": "https://dc.lft.to/lastmile_qr_scan", "ios": "https://dc.lft.to/lastmile_qr_scan"}, "name": "aba82ed9afaf8c5829cb98d38d2c8afb", "type": "electric_bike"}, {"fusion_lat": 0.0, "bike_id": "1d72a83eaf75cd110b9a59846f86264a", "fusion_lon": 0.0, "lon": -77.03334483333333, "lat": 38.90269266666667, "is_reserved": 0, "is_disabled": 0, "rental_uris": {"android": "https://dc.lft.to/lastmile_qr_scan", "ios": "https://dc.lft.to/lastmile_qr_scan"}, "name": "1d72a83eaf75cd110b9a59846f86264a", "type": "electric_scooter"}, {"fusion_lat": 0.0, "bike_id": "ae62be84d0ffa15f43a6655271c05f22", "fusion_lon": 0.0, "lon": -77.02180466666667, "lat": 38.90976533333333, "is_reserved": 0, "is_disabled": 0, "rental_uris": {"android": "https://dc.lft.to/lastmile_qr_scan", "ios": "https://dc.lft.to/lastmile_qr_scan"}, "name": "ae62be84d0ffa15f43a6655271c05f22", "type": "electric_scooter"}, {"fusion_lat": 0.0, "bike_id": "d427e75a5a31da2fc49e5d392a71dca5", "fusion_lon": 0.0, "lon": -77.03035583333333, "lat": 38.91698133333333, "is_reserved": 0, "is_disabled": 0, "rental_uris": {"android": "https://dc.lft.to/lastmile_qr_scan", "ios": "https://dc.lft.to/lastmile_qr_scan"}, "name": "d427e75a5a31da2fc49e5d392a71dca5", "type": "electric_scooter"}, {"fusion_lat": 0.0, "bike_id": "5a4d46729aae4d630d1879955ab4a550", "fusion_lon": 0.0, "lon": -77.0238585, "lat": 38.91289183333333, "is_reserved": 0, "is_disabled": 0, "rental_uris": {"android": "https://dc.lft.to/lastmile_qr_scan", "ios": "https://dc.lft.to/lastmile_qr_scan"}, "name": "5a4d46729aae4d630d1879955ab4a550", "type": "electric_scooter"}, {"fusion_lat": 0.0, "bike_id": "1b38ecbb5f8abb5caf260144315e9520", "fusion_lon": 0.0, "lon": -77.01996783333334, "lat": 38.966300333333336, "is_reserved": 0, "is_disabled": 0, "rental_uris": {"android": "https://dc.lft.to/lastmile_qr_scan", "ios": "https://dc.lft.to/lastmile_qr_scan"}, "name": "1b38ecbb5f8abb5caf260144315e9520", "type": "electric_scooter"}, {"fusion_lat": 0.0, "bike_id": "de0f4ca123d3070fc58bab44bc54b88f", "fusion_lon": 0.0, "lon": -76.99381216666667, "lat": 38.899052, "is_reserved": 0, "is_disabled": 0, "rental_uris": {"android": "https://dc.lft.to/lastmile_qr_scan", "ios": "https://dc.lft.to/lastmile_qr_scan"}, "name": "de0f4ca123d3070fc58bab44bc54b88f", "type": "electric_scooter"}, {"fusion_lat": 0.0, "bike_id": "0fd249754aefec03c9c1e603be9d3ade", "fusion_lon": 0.0, "lon": -77.032833, "lat": 38.937645833333335, "is_reserved": 0, "is_disabled": 0, "rental_uris": {"android": "https://dc.lft.to/lastmile_qr_scan", "ios": "https://dc.lft.to/lastmile_qr_scan"}, "name": "0fd249754aefec03c9c1e603be9d3ade", "type": "electric_scooter"}, {"fusion_lat": 0.0, "bike_id": "0cfa43a82fad1001b269f2d8adde74fe", "fusion_lon": 0.0, "lon": -76.98524033333334, "lat": 38.8668715, "is_reserved": 0, "is_disabled": 0, "rental_uris": {"android": "https://dc.lft.to/lastmile_qr_scan", "ios": "https://dc.lft.to/lastmile_qr_scan"}, "name": "0cfa43a82fad1001b269f2d8adde74fe", "type": "electric_scooter"}, {"fusion_lat": 0.0, "bike_id": "8a3e0a3846c75c573d8f42d44dd30543", "fusion_lon": 0.0, "lon": -76.977172, "lat": 38.888169, "is_reserved": 0, "is_disabled": 0, "rental_uris": {"android": "https://dc.lft.to/lastmile_qr_scan", "ios": "https://dc.lft.to/lastmile_qr_scan"}, "name": "8a3e0a3846c75c573d8f42d44dd30543", "type": "electric_scooter"}, {"fusion_lat": 0.0, "bike_id": "4ea7150b9344449ec977f17f7b9a8a0b", "fusion_lon": 0.0, "lon": -77.07594616666667, "lat": 38.91217183333333, "is_reserved": 0, "is_disabled": 0, "rental_uris": {"android": "https://dc.lft.to/lastmile_qr_scan", "ios": "https://dc.lft.to/lastmile_qr_scan"}, "name": "4ea7150b9344449ec977f17f7b9a8a0b", "type": "electric_scooter"}, {"fusion_lat": 0.0, "bike_id": "3e037f2fe2e536d0b93ea49a64307d41", "fusion_lon": 0.0, "lon": -76.99671033333334, "lat": 38.838320333333336, "is_reserved": 0, "is_disabled": 0, "rental_uris": {"android": "https://dc.lft.to/lastmile_qr_scan", "ios": "https://dc.lft.to/lastmile_qr_scan"}, "name": "3e037f2fe2e536d0b93ea49a64307d41", "type": "electric_bike"}, {"fusion_lat": 0.0, "bike_id": "8607a8913e0cfac14eea3dff0626196e", "fusion_lon": 0.0, "lon": -77.03942283333333, "lat": 38.90464866666667, "is_reserved": 0, "is_disabled": 0, "rental_uris": {"android": "https://dc.lft.to/lastmile_qr_scan", "ios": "https://dc.lft.to/lastmile_qr_scan"}, "name": "8607a8913e0cfac14eea3dff0626196e", "type": "electric_scooter"}, {"fusion_lat": 0.0, "bike_id": "b2297df4d7d4fa5d004fad1e253de861", "fusion_lon": 0.0, "lon": -76.99457533333333, "lat": 38.90371783333333, "is_reserved": 0, "is_disabled": 0, "rental_uris": {"android": "https://dc.lft.to/lastmile_qr_scan", "ios": "https://dc.lft.to/lastmile_qr_scan"}, "name": "b2297df4d7d4fa5d004fad1e253de861", "type": "electric_scooter"}, {"fusion_lat": 0.0, "bike_id": "f4fbfefdc0fd2cbbfd56fbed8debb0e9", "fusion_lon": 0.0, "lon": -77.0489465, "lat": 38.890032, "is_reserved": 0, "is_disabled": 0, "rental_uris": {"android": "https://dc.lft.to/lastmile_qr_scan", "ios": "https://dc.lft.to/lastmile_qr_scan"}, "name": "f4fbfefdc0fd2cbbfd56fbed8debb0e9", "type": "electric_scooter"}, {"fusion_lat": 0.0, "bike_id": "94b6e3fa3b52f5e9fbf450124c6b3e39", "fusion_lon": 0.0, "lon": -77.04173766666666, "lat": 38.899512, "is_reserved": 0, "is_disabled": 0, "rental_uris": {"android": "https://dc.lft.to/lastmile_qr_scan", "ios": "https://dc.lft.to/lastmile_qr_scan"}, "name": "94b6e3fa3b52f5e9fbf450124c6b3e39", "type": "electric_scooter"}, {"fusion_lat": 0.0, "bike_id": "d02a81f9c8850d5cf668621daed77223", "fusion_lon": 0.0, "lon": -77.0120515, "lat": 38.885518, "is_reserved": 0, "is_disabled": 0, "rental_uris": {"android": "https://dc.lft.to/lastmile_qr_scan", "ios": "https://dc.lft.to/lastmile_qr_scan"}, "name": "d02a81f9c8850d5cf668621daed77223", "type": "electric_scooter"}, {"fusion_lat": 0.0, "bike_id": "40a0c75e36eda72a898c154a435d0ff9", "fusion_lon": 0.0, "lon": -77.01572766666666, "lat": 38.876493833333335, "is_reserved": 0, "is_disabled": 0, "rental_uris": {"android": "https://dc.lft.to/lastmile_qr_scan", "ios": "https://dc.lft.to/lastmile_qr_scan"}, "name": "40a0c75e36eda72a898c154a435d0ff9", "type": "electric_scooter"}, {"fusion_lat": 0.0, "bike_id": "728382591be8d878b57be95d684471b3", "fusion_lon": 0.0, "lon": -77.0497855, "lat": 39.03552883333333, "is_reserved": 0, "is_disabled": 0, "rental_uris": {"android": "https://dc.lft.to/lastmile_qr_scan", "ios": "https://dc.lft.to/lastmile_qr_scan"}, "name": "728382591be8d878b57be95d684471b3", "type": "electric_bike"}, {"fusion_lat": 0.0, "bike_id": "863696fcd1dcc3aa4ef7129aa2a01bcc", "fusion_lon": 0.0, "lon": -77.048804, "lat": 38.90527683333333, "is_reserved": 0, "is_disabled": 0, "rental_uris": {"android": "https://dc.lft.to/lastmile_qr_scan", "ios": "https://dc.lft.to/lastmile_qr_scan"}, "name": "863696fcd1dcc3aa4ef7129aa2a01bcc", "type": "electric_scooter"}, {"fusion_lat": 0.0, "bike_id": "600377edab3c6279bb78c444e6ca4090", "fusion_lon": 0.0, "lon": -77.10716616666667, "lat": 38.96492333333333, "is_reserved": 0, "is_disabled": 0, "rental_uris": {"android": "https://dc.lft.to/lastmile_qr_scan", "ios": "https://dc.lft.to/lastmile_qr_scan"}, "name": "600377edab3c6279bb78c444e6ca4090", "type": "electric_bike"}, {"fusion_lat": 0.0, "bike_id": "99dc3cd9c61e51809360ecc83590d6f2", "fusion_lon": 0.0, "lon": -77.01122333333333, "lat": 38.9002785, "is_reserved": 0, "is_disabled": 0, "rental_uris": {"android": "https://dc.lft.to/lastmile_qr_scan", "ios": "https://dc.lft.to/lastmile_qr_scan"}, "name": "99dc3cd9c61e51809360ecc83590d6f2", "type": "electric_scooter"}, {"fusion_lat": 0.0, "bike_id": "7b14582617e0ee4fd28a7960242a8ada", "fusion_lon": 0.0, "lon": -76.975329, "lat": 38.92229483333333, "is_reserved": 0, "is_disabled": 0, "rental_uris": {"android": "https://dc.lft.to/lastmile_qr_scan", "ios": "https://dc.lft.to/lastmile_qr_scan"}, "name": "7b14582617e0ee4fd28a7960242a8ada", "type": "electric_scooter"}, {"fusion_lat": 0.0, "bike_id": "9f920c7292b8753de395726105429c7f", "fusion_lon": 0.0, "lon": -77.03688366666667, "lat": 38.916766333333335, "is_reserved": 0, "is_disabled": 0, "rental_uris": {"android": "https://dc.lft.to/lastmile_qr_scan", "ios": "https://dc.lft.to/lastmile_qr_scan"}, "name": "9f920c7292b8753de395726105429c7f", "type": "electric_scooter"}, {"fusion_lat": 0.0, "bike_id": "84fed27af963117ca6f408059f2b7f16", "fusion_lon": 0.0, "lon": -77.03077233333333, "lat": 38.88038183333333, "is_reserved": 0, "is_disabled": 0, "rental_uris": {"android": "https://dc.lft.to/lastmile_qr_scan", "ios": "https://dc.lft.to/lastmile_qr_scan"}, "name": "84fed27af963117ca6f408059f2b7f16", "type": "electric_scooter"}, {"fusion_lat": 0.0, "bike_id": "57f2a4176e5f834761ee6f88228883af", "fusion_lon": 0.0, "lon": -77.0133235, "lat": 38.92958616666667, "is_reserved": 0, "is_disabled": 0, "rental_uris": {"android": "https://dc.lft.to/lastmile_qr_scan", "ios": "https://dc.lft.to/lastmile_qr_scan"}, "name": "57f2a4176e5f834761ee6f88228883af", "type": "electric_scooter"}, {"fusion_lat": 0.0, "bike_id": "918acb7effa8e710f52b2a08b1065deb", "fusion_lon": 0.0, "lon": -77.023968, "lat": 38.916657666666666, "is_reserved": 0, "is_disabled": 0, "rental_uris": {"android": "https://dc.lft.to/lastmile_qr_scan", "ios": "https://dc.lft.to/lastmile_qr_scan"}, "name": "918acb7effa8e710f52b2a08b1065deb", "type": "electric_scooter"}, {"fusion_lat": 0.0, "bike_id": "746f6be0723b942d9bd86403256fc81c", "fusion_lon": 0.0, "lon": -77.027334, "lat": 38.943836166666664, "is_reserved": 0, "is_disabled": 0, "rental_uris": {"android": "https://dc.lft.to/lastmile_qr_scan", "ios": "https://dc.lft.to/lastmile_qr_scan"}, "name": "746f6be0723b942d9bd86403256fc81c", "type": "electric_scooter"}, {"fusion_lat": 0.0, "bike_id": "4290543a709a6878ba748f6ee1a3413e", "fusion_lon": 0.0, "lon": -76.989373, "lat": 38.865542166666664, "is_reserved": 0, "is_disabled": 0, "rental_uris": {"android": "https://dc.lft.to/lastmile_qr_scan", "ios": "https://dc.lft.to/lastmile_qr_scan"}, "name": "4290543a709a6878ba748f6ee1a3413e", "type": "electric_scooter"}, {"fusion_lat": 0.0, "bike_id": "c9d20b944abe12046af3ed021b9cccbd", "fusion_lon": 0.0, "lon": -77.00041816666666, "lat": 38.9080805, "is_reserved": 0, "is_disabled": 0, "rental_uris": {"android": "https://dc.lft.to/lastmile_qr_scan", "ios": "https://dc.lft.to/lastmile_qr_scan"}, "name": "c9d20b944abe12046af3ed021b9cccbd", "type": "electric_scooter"}, {"fusion_lat": 0.0, "bike_id": "fd75b85afdd54b99de35097636893344", "fusion_lon": 0.0, "lon": -77.04340433333333, "lat": 38.9333565, "is_reserved": 0, "is_disabled": 0, "rental_uris": {"android": "https://dc.lft.to/lastmile_qr_scan", "ios": "https://dc.lft.to/lastmile_qr_scan"}, "name": "fd75b85afdd54b99de35097636893344", "type": "electric_scooter"}, {"fusion_lat": 0.0, "bike_id": "efd10f5e9e71542fe5af8dfb49b92232", "fusion_lon": 0.0, "lon": -77.032063, "lat": 38.909489666666666, "is_reserved": 0, "is_disabled": 0, "rental_uris": {"android": "https://dc.lft.to/lastmile_qr_scan", "ios": "https://dc.lft.to/lastmile_qr_scan"}, "name": "efd10f5e9e71542fe5af8dfb49b92232", "type": "electric_scooter"}, {"fusion_lat": 0.0, "bike_id": "5fd942f45da108fac5a24d9f13cee453", "fusion_lon": 0.0, "lon": -77.03842916666666, "lat": 38.903823833333334, "is_reserved": 0, "is_disabled": 0, "rental_uris": {"android": "https://dc.lft.to/lastmile_qr_scan", "ios": "https://dc.lft.to/lastmile_qr_scan"}, "name": "5fd942f45da108fac5a24d9f13cee453", "type": "electric_scooter"}, {"fusion_lat": 0.0, "bike_id": "5b534b1d25679b2b600a1b7b938ab9d9", "fusion_lon": 0.0, "lon": -77.03215583333333, "lat": 38.916744333333334, "is_reserved": 0, "is_disabled": 0, "rental_uris": {"android": "https://dc.lft.to/lastmile_qr_scan", "ios": "https://dc.lft.to/lastmile_qr_scan"}, "name": "5b534b1d25679b2b600a1b7b938ab9d9", "type": "electric_scooter"}, {"fusion_lat": 0.0, "bike_id": "8089a6ff64eae82b5bd88f134ad39dc6", "fusion_lon": 0.0, "lon": -77.05041116666666, "lat": 38.925211833333336, "is_reserved": 0, "is_disabled": 0, "rental_uris": {"android": "https://dc.lft.to/lastmile_qr_scan", "ios": "https://dc.lft.to/lastmile_qr_scan"}, "name": "8089a6ff64eae82b5bd88f134ad39dc6", "type": "electric_scooter"}, {"fusion_lat": 0.0, "bike_id": "54bd3b3ec3902b23cd91ca2b68114c26", "fusion_lon": 0.0, "lon": -77.05179066666666, "lat": 38.923846, "is_reserved": 0, "is_disabled": 0, "rental_uris": {"android": "https://dc.lft.to/lastmile_qr_scan", "ios": "https://dc.lft.to/lastmile_qr_scan"}, "name": "54bd3b3ec3902b23cd91ca2b68114c26", "type": "electric_scooter"}, {"fusion_lat": 0.0, "bike_id": "9edf666e66ebbc4aaee7a81cb0d0675f", "fusion_lon": 0.0, "lon": -77.016194, "lat": 38.906885, "is_reserved": 0, "is_disabled": 0, "rental_uris": {"android": "https://dc.lft.to/lastmile_qr_scan", "ios": "https://dc.lft.to/lastmile_qr_scan"}, "name": "9edf666e66ebbc4aaee7a81cb0d0675f", "type": "electric_scooter"}, {"fusion_lat": 0.0, "bike_id": "7288854ad5675c382981f9950f6e2e90", "fusion_lon": 0.0, "lon": -76.98401216666667, "lat": 38.90630683333333, "is_reserved": 0, "is_disabled": 0, "rental_uris": {"android": "https://dc.lft.to/lastmile_qr_scan", "ios": "https://dc.lft.to/lastmile_qr_scan"}, "name": "7288854ad5675c382981f9950f6e2e90", "type": "electric_scooter"}, {"fusion_lat": 0.0, "bike_id": "66370a0fdc1696dfd4d28e33732af8e7", "fusion_lon": 0.0, "lon": -77.00006516666667, "lat": 38.95720883333333, "is_reserved": 0, "is_disabled": 0, "rental_uris": {"android": "https://dc.lft.to/lastmile_qr_scan", "ios": "https://dc.lft.to/lastmile_qr_scan"}, "name": "66370a0fdc1696dfd4d28e33732af8e7", "type": "electric_scooter"}, {"fusion_lat": 0.0, "bike_id": "a80b34fe71522a5a4414500987f8d8b2", "fusion_lon": 0.0, "lon": -76.99030183333333, "lat": 38.89803883333333, "is_reserved": 0, "is_disabled": 0, "rental_uris": {"android": "https://dc.lft.to/lastmile_qr_scan", "ios": "https://dc.lft.to/lastmile_qr_scan"}, "name": "a80b34fe71522a5a4414500987f8d8b2", "type": "electric_scooter"}, {"fusion_lat": 0.0, "bike_id": "e68a73530be980ebb1990bc46c127fc2", "fusion_lon": 0.0, "lon": -77.02796266666667, "lat": 38.942871333333336, "is_reserved": 0, "is_disabled": 0, "rental_uris": {"android": "https://dc.lft.to/lastmile_qr_scan", "ios": "https://dc.lft.to/lastmile_qr_scan"}, "name": "e68a73530be980ebb1990bc46c127fc2", "type": "electric_scooter"}, {"fusion_lat": 0.0, "bike_id": "0b28e5134402519a3949d1cf7a00e6bc", "fusion_lon": 0.0, "lon": -77.039644, "lat": 38.916300666666665, "is_reserved": 0, "is_disabled": 0, "rental_uris": {"android": "https://dc.lft.to/lastmile_qr_scan", "ios": "https://dc.lft.to/lastmile_qr_scan"}, "name": "0b28e5134402519a3949d1cf7a00e6bc", "type": "electric_scooter"}, {"fusion_lat": 0.0, "bike_id": "111294c3349d48d30fb31cc01b85bbed", "fusion_lon": 0.0, "lon": -77.0093855, "lat": 38.8974315, "is_reserved": 0, "is_disabled": 0, "rental_uris": {"android": "https://dc.lft.to/lastmile_qr_scan", "ios": "https://dc.lft.to/lastmile_qr_scan"}, "name": "111294c3349d48d30fb31cc01b85bbed", "type": "electric_scooter"}, {"fusion_lat": 0.0, "bike_id": "3651e67c0cbf6d76eafe1a05abe26b2a", "fusion_lon": 0.0, "lon": -76.99057533333334, "lat": 38.86375183333333, "is_reserved": 0, "is_disabled": 0, "rental_uris": {"android": "https://dc.lft.to/lastmile_qr_scan", "ios": "https://dc.lft.to/lastmile_qr_scan"}, "name": "3651e67c0cbf6d76eafe1a05abe26b2a", "type": "electric_scooter"}, {"fusion_lat": 0.0, "bike_id": "bec53a6496c006f65eba0025e783722d", "fusion_lon": 0.0, "lon": -77.0338405, "lat": 38.902667, "is_reserved": 0, "is_disabled": 0, "rental_uris": {"android": "https://dc.lft.to/lastmile_qr_scan", "ios": "https://dc.lft.to/lastmile_qr_scan"}, "name": "bec53a6496c006f65eba0025e783722d", "type": "electric_scooter"}, {"fusion_lat": 0.0, "bike_id": "00c12b94868f8d4a7abf107f9b460533", "fusion_lon": 0.0, "lon": -77.02720666666667, "lat": 38.8965715, "is_reserved": 0, "is_disabled": 0, "rental_uris": {"android": "https://dc.lft.to/lastmile_qr_scan", "ios": "https://dc.lft.to/lastmile_qr_scan"}, "name": "00c12b94868f8d4a7abf107f9b460533", "type": "electric_scooter"}, {"fusion_lat": 0.0, "bike_id": "2a626d2579e0736bf4a32adf670e16cc", "fusion_lon": 0.0, "lon": -77.02219266666667, "lat": 38.93554233333333, "is_reserved": 0, "is_disabled": 0, "rental_uris": {"android": "https://dc.lft.to/lastmile_qr_scan", "ios": "https://dc.lft.to/lastmile_qr_scan"}, "name": "2a626d2579e0736bf4a32adf670e16cc", "type": "electric_scooter"}, {"fusion_lat": 0.0, "bike_id": "82b38941bc38b41fcd829db951cd69a1", "fusion_lon": 0.0, "lon": -77.03181816666667, "lat": 38.89623733333333, "is_reserved": 0, "is_disabled": 0, "rental_uris": {"android": "https://dc.lft.to/lastmile_qr_scan", "ios": "https://dc.lft.to/lastmile_qr_scan"}, "name": "82b38941bc38b41fcd829db951cd69a1", "type": "electric_scooter"}, {"fusion_lat": 0.0, "bike_id": "b854c1affe8b5668bd6bc1466b968170", "fusion_lon": 0.0, "lon": -77.03669933333333, "lat": 38.922727333333334, "is_reserved": 0, "is_disabled": 0, "rental_uris": {"android": "https://dc.lft.to/lastmile_qr_scan", "ios": "https://dc.lft.to/lastmile_qr_scan"}, "name": "b854c1affe8b5668bd6bc1466b968170", "type": "electric_scooter"}, {"fusion_lat": 0.0, "bike_id": "6b7a19c19f4b99375929911e82012a06", "fusion_lon": 0.0, "lon": -76.99937666666666, "lat": 38.91928333333333, "is_reserved": 0, "is_disabled": 0, "rental_uris": {"android": "https://dc.lft.to/lastmile_qr_scan", "ios": "https://dc.lft.to/lastmile_qr_scan"}, "name": "6b7a19c19f4b99375929911e82012a06", "type": "electric_scooter"}, {"fusion_lat": 0.0, "bike_id": "039bfa0b00835d0f221026cdbf0784a2", "fusion_lon": 0.0, "lon": -77.03412883333333, "lat": 38.92282866666667, "is_reserved": 0, "is_disabled": 0, "rental_uris": {"android": "https://dc.lft.to/lastmile_qr_scan", "ios": "https://dc.lft.to/lastmile_qr_scan"}, "name": "039bfa0b00835d0f221026cdbf0784a2", "type": "electric_scooter"}, {"fusion_lat": 0.0, "bike_id": "59171a36f7421cf9a5d1fd4a27a42703", "fusion_lon": 0.0, "lon": -76.97619866666666, "lat": 38.90383833333333, "is_reserved": 0, "is_disabled": 0, "rental_uris": {"android": "https://dc.lft.to/lastmile_qr_scan", "ios": "https://dc.lft.to/lastmile_qr_scan"}, "name": "59171a36f7421cf9a5d1fd4a27a42703", "type": "electric_scooter"}, {"fusion_lat": 0.0, "bike_id": "e441796d0b67096bb7e18df07cd0ec6d", "fusion_lon": 0.0, "lon": -77.0458855, "lat": 38.902172, "is_reserved": 0, "is_disabled": 0, "rental_uris": {"android": "https://dc.lft.to/lastmile_qr_scan", "ios": "https://dc.lft.to/lastmile_qr_scan"}, "name": "e441796d0b67096bb7e18df07cd0ec6d", "type": "electric_scooter"}, {"fusion_lat": 0.0, "bike_id": "84d7bbc69976b7f940fdad1fc0775f6c", "fusion_lon": 0.0, "lon": -77.01272133333333, "lat": 38.89234016666666, "is_reserved": 0, "is_disabled": 0, "rental_uris": {"android": "https://dc.lft.to/lastmile_qr_scan", "ios": "https://dc.lft.to/lastmile_qr_scan"}, "name": "84d7bbc69976b7f940fdad1fc0775f6c", "type": "electric_scooter"}, {"fusion_lat": 0.0, "bike_id": "8cd24e7630dbc959998b34272c412309", "fusion_lon": 0.0, "lon": -77.04518066666667, "lat": 38.905022, "is_reserved": 0, "is_disabled": 0, "rental_uris": {"android": "https://dc.lft.to/lastmile_qr_scan", "ios": "https://dc.lft.to/lastmile_qr_scan"}, "name": "8cd24e7630dbc959998b34272c412309", "type": "electric_scooter"}, {"fusion_lat": 0.0, "bike_id": "ff52cc67711b5d155cdbfe854cfc67e4", "fusion_lon": 0.0, "lon": -77.02206066666666, "lat": 38.892905, "is_reserved": 0, "is_disabled": 0, "rental_uris": {"android": "https://dc.lft.to/lastmile_qr_scan", "ios": "https://dc.lft.to/lastmile_qr_scan"}, "name": "ff52cc67711b5d155cdbfe854cfc67e4", "type": "electric_scooter"}, {"fusion_lat": 0.0, "bike_id": "263278823be6b12cf3e232561add46fe", "fusion_lon": 0.0, "lon": -77.0217745, "lat": 38.89897933333334, "is_reserved": 0, "is_disabled": 0, "rental_uris": {"android": "https://dc.lft.to/lastmile_qr_scan", "ios": "https://dc.lft.to/lastmile_qr_scan"}, "name": "263278823be6b12cf3e232561add46fe", "type": "electric_scooter"}, {"fusion_lat": 0.0, "bike_id": "7e48aee76f44a49fe6d422c7a27270d0", "fusion_lon": 0.0, "lon": -77.0363745, "lat": 38.92745633333333, "is_reserved": 0, "is_disabled": 0, "rental_uris": {"android": "https://dc.lft.to/lastmile_qr_scan", "ios": "https://dc.lft.to/lastmile_qr_scan"}, "name": "7e48aee76f44a49fe6d422c7a27270d0", "type": "electric_bike"}, {"fusion_lat": 0.0, "bike_id": "d51f2ad47924f916cba8f2728b37d97a", "fusion_lon": 0.0, "lon": -76.97857266666666, "lat": 38.90721833333333, "is_reserved": 0, "is_disabled": 0, "rental_uris": {"android": "https://dc.lft.to/lastmile_qr_scan", "ios": "https://dc.lft.to/lastmile_qr_scan"}, "name": "d51f2ad47924f916cba8f2728b37d97a", "type": "electric_scooter"}, {"fusion_lat": 0.0, "bike_id": "142a645f84b12680a17938ccb3d0cb9c", "fusion_lon": 0.0, "lon": -77.035606, "lat": 38.93379683333333, "is_reserved": 0, "is_disabled": 0, "rental_uris": {"android": "https://dc.lft.to/lastmile_qr_scan", "ios": "https://dc.lft.to/lastmile_qr_scan"}, "name": "142a645f84b12680a17938ccb3d0cb9c", "type": "electric_scooter"}, {"fusion_lat": 0.0, "bike_id": "589ebf90d2164b9e82732104aa57f773", "fusion_lon": 0.0, "lon": -77.017796, "lat": 38.886256, "is_reserved": 0, "is_disabled": 0, "rental_uris": {"android": "https://dc.lft.to/lastmile_qr_scan", "ios": "https://dc.lft.to/lastmile_qr_scan"}, "name": "589ebf90d2164b9e82732104aa57f773", "type": "electric_scooter"}, {"fusion_lat": 0.0, "bike_id": "98636fae2313230c8d6bf420c0578f4a", "fusion_lon": 0.0, "lon": -76.99593566666667, "lat": 38.95071933333333, "is_reserved": 0, "is_disabled": 0, "rental_uris": {"android": "https://dc.lft.to/lastmile_qr_scan", "ios": "https://dc.lft.to/lastmile_qr_scan"}, "name": "98636fae2313230c8d6bf420c0578f4a", "type": "electric_bike"}, {"fusion_lat": 0.0, "bike_id": "a252e1db80284bc6184bdc4750b4585a", "fusion_lon": 0.0, "lon": -76.95048483333333, "lat": 38.89305866666667, "is_reserved": 0, "is_disabled": 0, "rental_uris": {"android": "https://dc.lft.to/lastmile_qr_scan", "ios": "https://dc.lft.to/lastmile_qr_scan"}, "name": "a252e1db80284bc6184bdc4750b4585a", "type": "electric_scooter"}, {"fusion_lat": 0.0, "bike_id": "0cdfecb15bc8f4164fe451e2cdd38a09", "fusion_lon": 0.0, "lon": -77.0208775, "lat": 38.929110666666666, "is_reserved": 0, "is_disabled": 0, "rental_uris": {"android": "https://dc.lft.to/lastmile_qr_scan", "ios": "https://dc.lft.to/lastmile_qr_scan"}, "name": "0cdfecb15bc8f4164fe451e2cdd38a09", "type": "electric_scooter"}, {"fusion_lat": 0.0, "bike_id": "93060de1bece32c53a4073da1eb1017b", "fusion_lon": 0.0, "lon": -77.03724633333333, "lat": 38.92647483333333, "is_reserved": 0, "is_disabled": 0, "rental_uris": {"android": "https://dc.lft.to/lastmile_qr_scan", "ios": "https://dc.lft.to/lastmile_qr_scan"}, "name": "93060de1bece32c53a4073da1eb1017b", "type": "electric_scooter"}, {"fusion_lat": 0.0, "bike_id": "bb61a5f34ebcd216748c0cc127845ef0", "fusion_lon": 0.0, "lon": -77.039299, "lat": 38.899053333333335, "is_reserved": 0, "is_disabled": 0, "rental_uris": {"android": "https://dc.lft.to/lastmile_qr_scan", "ios": "https://dc.lft.to/lastmile_qr_scan"}, "name": "bb61a5f34ebcd216748c0cc127845ef0", "type": "electric_scooter"}, {"fusion_lat": 0.0, "bike_id": "b41d6c77f3465053e277533daf38d571", "fusion_lon": 0.0, "lon": -77.050019, "lat": 38.89197866666667, "is_reserved": 0, "is_disabled": 0, "rental_uris": {"android": "https://dc.lft.to/lastmile_qr_scan", "ios": "https://dc.lft.to/lastmile_qr_scan"}, "name": "b41d6c77f3465053e277533daf38d571", "type": "electric_scooter"}, {"fusion_lat": 0.0, "bike_id": "b29a6020aebefeb00ad3ada6843901f2", "fusion_lon": 0.0, "lon": -77.034533, "lat": 38.909840833333334, "is_reserved": 0, "is_disabled": 0, "rental_uris": {"android": "https://dc.lft.to/lastmile_qr_scan", "ios": "https://dc.lft.to/lastmile_qr_scan"}, "name": "b29a6020aebefeb00ad3ada6843901f2", "type": "electric_scooter"}, {"fusion_lat": 0.0, "bike_id": "4b10a96734f2d0302b0c986256427a71", "fusion_lon": 0.0, "lon": -77.0539535, "lat": 38.9276515, "is_reserved": 0, "is_disabled": 0, "rental_uris": {"android": "https://dc.lft.to/lastmile_qr_scan", "ios": "https://dc.lft.to/lastmile_qr_scan"}, "name": "4b10a96734f2d0302b0c986256427a71", "type": "electric_scooter"}, {"fusion_lat": 0.0, "bike_id": "64bc0c2b649e46f3b6b38b5a3d9b2e2b", "fusion_lon": 0.0, "lon": -77.04673916666667, "lat": 38.89233383333333, "is_reserved": 0, "is_disabled": 0, "rental_uris": {"android": "https://dc.lft.to/lastmile_qr_scan", "ios": "https://dc.lft.to/lastmile_qr_scan"}, "name": "64bc0c2b649e46f3b6b38b5a3d9b2e2b", "type": "electric_scooter"}, {"fusion_lat": 0.0, "bike_id": "807a9382ae0cd07bb611d135d206ce0c", "fusion_lon": 0.0, "lon": -77.0329485, "lat": 38.910430833333336, "is_reserved": 0, "is_disabled": 0, "rental_uris": {"android": "https://dc.lft.to/lastmile_qr_scan", "ios": "https://dc.lft.to/lastmile_qr_scan"}, "name": "807a9382ae0cd07bb611d135d206ce0c", "type": "electric_scooter"}, {"fusion_lat": 0.0, "bike_id": "6a7bbb26b73049a12b1552c052f9d4d2", "fusion_lon": 0.0, "lon": -77.03239833333333, "lat": 38.9298845, "is_reserved": 0, "is_disabled": 0, "rental_uris": {"android": "https://dc.lft.to/lastmile_qr_scan", "ios": "https://dc.lft.to/lastmile_qr_scan"}, "name": "6a7bbb26b73049a12b1552c052f9d4d2", "type": "electric_scooter"}, {"fusion_lat": 0.0, "bike_id": "68761efda89146058abeb7e47de83676", "fusion_lon": 0.0, "lon": -77.0447765, "lat": 38.90550116666667, "is_reserved": 0, "is_disabled": 0, "rental_uris": {"android": "https://dc.lft.to/lastmile_qr_scan", "ios": "https://dc.lft.to/lastmile_qr_scan"}, "name": "68761efda89146058abeb7e47de83676", "type": "electric_scooter"}, {"fusion_lat": 0.0, "bike_id": "6118b20a70ae1d6b3376a787c2d9dc2d", "fusion_lon": 0.0, "lon": -77.05042216666666, "lat": 38.923637166666666, "is_reserved": 0, "is_disabled": 0, "rental_uris": {"android": "https://dc.lft.to/lastmile_qr_scan", "ios": "https://dc.lft.to/lastmile_qr_scan"}, "name": "6118b20a70ae1d6b3376a787c2d9dc2d", "type": "electric_scooter"}, {"fusion_lat": 0.0, "bike_id": "511e46955f1eecc4eedc1d15ada36ceb", "fusion_lon": 0.0, "lon": -77.04429216666666, "lat": 38.92162616666667, "is_reserved": 0, "is_disabled": 0, "rental_uris": {"android": "https://dc.lft.to/lastmile_qr_scan", "ios": "https://dc.lft.to/lastmile_qr_scan"}, "name": "511e46955f1eecc4eedc1d15ada36ceb", "type": "electric_scooter"}, {"fusion_lat": 0.0, "bike_id": "bb69ee95b4c847a7957a87e3f16fb6d8", "fusion_lon": 0.0, "lon": -77.04144633333334, "lat": 38.906419166666666, "is_reserved": 0, "is_disabled": 0, "rental_uris": {"android": "https://dc.lft.to/lastmile_qr_scan", "ios": "https://dc.lft.to/lastmile_qr_scan"}, "name": "bb69ee95b4c847a7957a87e3f16fb6d8", "type": "electric_scooter"}, {"fusion_lat": 0.0, "bike_id": "482ff6e610d9c60759c55f2e8c1e370f", "fusion_lon": 0.0, "lon": -77.03304633333333, "lat": 38.909701166666665, "is_reserved": 0, "is_disabled": 0, "rental_uris": {"android": "https://dc.lft.to/lastmile_qr_scan", "ios": "https://dc.lft.to/lastmile_qr_scan"}, "name": "482ff6e610d9c60759c55f2e8c1e370f", "type": "electric_scooter"}, {"fusion_lat": 0.0, "bike_id": "4902f48199995a66ef1b444b679735cd", "fusion_lon": 0.0, "lon": -76.97860566666667, "lat": 38.8719615, "is_reserved": 0, "is_disabled": 0, "rental_uris": {"android": "https://dc.lft.to/lastmile_qr_scan", "ios": "https://dc.lft.to/lastmile_qr_scan"}, "name": "4902f48199995a66ef1b444b679735cd", "type": "electric_scooter"}, {"fusion_lat": 0.0, "bike_id": "13780b0b1f3d98f95c86324bd8b4cb08", "fusion_lon": 0.0, "lon": -77.05158766666666, "lat": 39.04308783333333, "is_reserved": 0, "is_disabled": 0, "rental_uris": {"android": "https://dc.lft.to/lastmile_qr_scan", "ios": "https://dc.lft.to/lastmile_qr_scan"}, "name": "13780b0b1f3d98f95c86324bd8b4cb08", "type": "electric_bike"}, {"fusion_lat": 0.0, "bike_id": "64f836e2f9895f4b02b047b2dacde541", "fusion_lon": 0.0, "lon": -77.04531566666667, "lat": 38.89198833333333, "is_reserved": 0, "is_disabled": 0, "rental_uris": {"android": "https://dc.lft.to/lastmile_qr_scan", "ios": "https://dc.lft.to/lastmile_qr_scan"}, "name": "64f836e2f9895f4b02b047b2dacde541", "type": "electric_scooter"}, {"fusion_lat": 0.0, "bike_id": "7ad6d171ed2405b20585dd5a5945c2bc", "fusion_lon": 0.0, "lon": -77.04039366666667, "lat": 38.9185595, "is_reserved": 0, "is_disabled": 0, "rental_uris": {"android": "https://dc.lft.to/lastmile_qr_scan", "ios": "https://dc.lft.to/lastmile_qr_scan"}, "name": "7ad6d171ed2405b20585dd5a5945c2bc", "type": "electric_scooter"}, {"fusion_lat": 0.0, "bike_id": "b8709281d331bd28f3c5c469c73cc9da", "fusion_lon": 0.0, "lon": -77.014943, "lat": 38.89223166666667, "is_reserved": 0, "is_disabled": 0, "rental_uris": {"android": "https://dc.lft.to/lastmile_qr_scan", "ios": "https://dc.lft.to/lastmile_qr_scan"}, "name": "b8709281d331bd28f3c5c469c73cc9da", "type": "electric_scooter"}, {"fusion_lat": 0.0, "bike_id": "cac5805b2bd245c02082d9bd64f37d6f", "fusion_lon": 0.0, "lon": -77.02579333333334, "lat": 38.92035033333333, "is_reserved": 0, "is_disabled": 0, "rental_uris": {"android": "https://dc.lft.to/lastmile_qr_scan", "ios": "https://dc.lft.to/lastmile_qr_scan"}, "name": "cac5805b2bd245c02082d9bd64f37d6f", "type": "electric_scooter"}, {"fusion_lat": 0.0, "bike_id": "70378c5d53dcf2c1d769dfd7ca68f6b9", "fusion_lon": 0.0, "lon": -77.0386005, "lat": 38.93240083333333, "is_reserved": 0, "is_disabled": 0, "rental_uris": {"android": "https://dc.lft.to/lastmile_qr_scan", "ios": "https://dc.lft.to/lastmile_qr_scan"}, "name": "70378c5d53dcf2c1d769dfd7ca68f6b9", "type": "electric_scooter"}, {"fusion_lat": 0.0, "bike_id": "59ed5a1451d7a519523707f20213def3", "fusion_lon": 0.0, "lon": -77.05695066666667, "lat": 38.93715983333333, "is_reserved": 0, "is_disabled": 0, "rental_uris": {"android": "https://dc.lft.to/lastmile_qr_scan", "ios": "https://dc.lft.to/lastmile_qr_scan"}, "name": "59ed5a1451d7a519523707f20213def3", "type": "electric_scooter"}, {"fusion_lat": 0.0, "bike_id": "cf7e77f3d3b0eb4bde7f9319a35470dd", "fusion_lon": 0.0, "lon": -77.03245833333334, "lat": 38.92871, "is_reserved": 0, "is_disabled": 0, "rental_uris": {"android": "https://dc.lft.to/lastmile_qr_scan", "ios": "https://dc.lft.to/lastmile_qr_scan"}, "name": "cf7e77f3d3b0eb4bde7f9319a35470dd", "type": "electric_scooter"}, {"fusion_lat": 0.0, "bike_id": "09ab13bda00eb3fd69321b06dc70e560", "fusion_lon": 0.0, "lon": -77.104795, "lat": 38.856076, "is_reserved": 0, "is_disabled": 0, "rental_uris": {"android": "https://dc.lft.to/lastmile_qr_scan", "ios": "https://dc.lft.to/lastmile_qr_scan"}, "name": "09ab13bda00eb3fd69321b06dc70e560", "type": "electric_bike"}, {"fusion_lat": 0.0, "bike_id": "59f35f4cb1495ee0fecab7008460f008", "fusion_lon": 0.0, "lon": -77.0277625, "lat": 38.8922095, "is_reserved": 0, "is_disabled": 0, "rental_uris": {"android": "https://dc.lft.to/lastmile_qr_scan", "ios": "https://dc.lft.to/lastmile_qr_scan"}, "name": "59f35f4cb1495ee0fecab7008460f008", "type": "electric_scooter"}, {"fusion_lat": 0.0, "bike_id": "31708d65958df6afc7cc4288a1703fa6", "fusion_lon": 0.0, "lon": -76.99496866666667, "lat": 38.899247, "is_reserved": 0, "is_disabled": 0, "rental_uris": {"android": "https://dc.lft.to/lastmile_qr_scan", "ios": "https://dc.lft.to/lastmile_qr_scan"}, "name": "31708d65958df6afc7cc4288a1703fa6", "type": "electric_scooter"}, {"fusion_lat": 0.0, "bike_id": "0358f87cbeef1741732e3a89fda8663b", "fusion_lon": 0.0, "lon": -77.06177216666667, "lat": 38.90511166666667, "is_reserved": 0, "is_disabled": 0, "rental_uris": {"android": "https://dc.lft.to/lastmile_qr_scan", "ios": "https://dc.lft.to/lastmile_qr_scan"}, "name": "0358f87cbeef1741732e3a89fda8663b", "type": "electric_scooter"}, {"fusion_lat": 0.0, "bike_id": "6e5399e34391b0552207d6ebdb3ef051", "fusion_lon": 0.0, "lon": -77.0177905, "lat": 38.9187505, "is_reserved": 0, "is_disabled": 0, "rental_uris": {"android": "https://dc.lft.to/lastmile_qr_scan", "ios": "https://dc.lft.to/lastmile_qr_scan"}, "name": "6e5399e34391b0552207d6ebdb3ef051", "type": "electric_scooter"}, {"fusion_lat": 0.0, "bike_id": "8f1ec11f71b4d8e6fb0a55a7ebe78094", "fusion_lon": 0.0, "lon": -76.98581383333334, "lat": 38.90809616666667, "is_reserved": 0, "is_disabled": 0, "rental_uris": {"android": "https://dc.lft.to/lastmile_qr_scan", "ios": "https://dc.lft.to/lastmile_qr_scan"}, "name": "8f1ec11f71b4d8e6fb0a55a7ebe78094", "type": "electric_scooter"}, {"fusion_lat": 0.0, "bike_id": "208e217d1a1da367a8cd1be79e082909", "fusion_lon": 0.0, "lon": -77.043619, "lat": 38.90133216666667, "is_reserved": 0, "is_disabled": 0, "rental_uris": {"android": "https://dc.lft.to/lastmile_qr_scan", "ios": "https://dc.lft.to/lastmile_qr_scan"}, "name": "208e217d1a1da367a8cd1be79e082909", "type": "electric_scooter"}, {"fusion_lat": 0.0, "bike_id": "2031dbbf9303656a5802682a285f8bab", "fusion_lon": 0.0, "lon": -77.03420266666667, "lat": 38.919225833333336, "is_reserved": 0, "is_disabled": 0, "rental_uris": {"android": "https://dc.lft.to/lastmile_qr_scan", "ios": "https://dc.lft.to/lastmile_qr_scan"}, "name": "2031dbbf9303656a5802682a285f8bab", "type": "electric_scooter"}, {"fusion_lat": 0.0, "bike_id": "0945991849d77db94764462fbda39455", "fusion_lon": 0.0, "lon": -77.024287, "lat": 38.89224433333333, "is_reserved": 0, "is_disabled": 0, "rental_uris": {"android": "https://dc.lft.to/lastmile_qr_scan", "ios": "https://dc.lft.to/lastmile_qr_scan"}, "name": "0945991849d77db94764462fbda39455", "type": "electric_scooter"}, {"fusion_lat": 0.0, "bike_id": "9ccfb2f70de864f31ec9fd87d8964fa9", "fusion_lon": 0.0, "lon": -77.043369, "lat": 38.922207, "is_reserved": 0, "is_disabled": 0, "rental_uris": {"android": "https://dc.lft.to/lastmile_qr_scan", "ios": "https://dc.lft.to/lastmile_qr_scan"}, "name": "9ccfb2f70de864f31ec9fd87d8964fa9", "type": "electric_scooter"}, {"fusion_lat": 0.0, "bike_id": "b0cde37be312bc993025d25e6ec7180b", "fusion_lon": 0.0, "lon": -76.933005, "lat": 38.89195133333333, "is_reserved": 0, "is_disabled": 0, "rental_uris": {"android": "https://dc.lft.to/lastmile_qr_scan", "ios": "https://dc.lft.to/lastmile_qr_scan"}, "name": "b0cde37be312bc993025d25e6ec7180b", "type": "electric_scooter"}, {"fusion_lat": 0.0, "bike_id": "978bf7d708de7449713fb3fc28faa2ed", "fusion_lon": 0.0, "lon": -76.93749333333334, "lat": 38.890365833333334, "is_reserved": 0, "is_disabled": 0, "rental_uris": {"android": "https://dc.lft.to/lastmile_qr_scan", "ios": "https://dc.lft.to/lastmile_qr_scan"}, "name": "978bf7d708de7449713fb3fc28faa2ed", "type": "electric_scooter"}, {"fusion_lat": 0.0, "bike_id": "b0158883ec0560fb6ea7d5dbff9b3b25", "fusion_lon": 0.0, "lon": -77.000564, "lat": 38.89496183333333, "is_reserved": 0, "is_disabled": 0, "rental_uris": {"android": "https://dc.lft.to/lastmile_qr_scan", "ios": "https://dc.lft.to/lastmile_qr_scan"}, "name": "b0158883ec0560fb6ea7d5dbff9b3b25", "type": "electric_scooter"}, {"fusion_lat": 0.0, "bike_id": "2ca1adb3ec6b9fd11febebaa6bb4f22e", "fusion_lon": 0.0, "lon": -77.022687, "lat": 38.92480416666667, "is_reserved": 0, "is_disabled": 0, "rental_uris": {"android": "https://dc.lft.to/lastmile_qr_scan", "ios": "https://dc.lft.to/lastmile_qr_scan"}, "name": "2ca1adb3ec6b9fd11febebaa6bb4f22e", "type": "electric_scooter"}, {"fusion_lat": 0.0, "bike_id": "27bdfadd20666b17157231fefd667b02", "fusion_lon": 0.0, "lon": -77.04695066666666, "lat": 38.9213555, "is_reserved": 0, "is_disabled": 0, "rental_uris": {"android": "https://dc.lft.to/lastmile_qr_scan", "ios": "https://dc.lft.to/lastmile_qr_scan"}, "name": "27bdfadd20666b17157231fefd667b02", "type": "electric_scooter"}, {"fusion_lat": 0.0, "bike_id": "3cd5363052db40370856be972be3867b", "fusion_lon": 0.0, "lon": -77.0514625, "lat": 38.92372133333333, "is_reserved": 0, "is_disabled": 0, "rental_uris": {"android": "https://dc.lft.to/lastmile_qr_scan", "ios": "https://dc.lft.to/lastmile_qr_scan"}, "name": "3cd5363052db40370856be972be3867b", "type": "electric_scooter"}, {"fusion_lat": 0.0, "bike_id": "fa0e39ed0b15e3bad0b686e80b354829", "fusion_lon": 0.0, "lon": -77.03171883333333, "lat": 38.89198066666667, "is_reserved": 0, "is_disabled": 0, "rental_uris": {"android": "https://dc.lft.to/lastmile_qr_scan", "ios": "https://dc.lft.to/lastmile_qr_scan"}, "name": "fa0e39ed0b15e3bad0b686e80b354829", "type": "electric_scooter"}, {"fusion_lat": 0.0, "bike_id": "4436994addda9a0bc57fc33f11ca052a", "fusion_lon": 0.0, "lon": -76.99610933333334, "lat": 38.8870185, "is_reserved": 0, "is_disabled": 0, "rental_uris": {"android": "https://dc.lft.to/lastmile_qr_scan", "ios": "https://dc.lft.to/lastmile_qr_scan"}, "name": "4436994addda9a0bc57fc33f11ca052a", "type": "electric_scooter"}, {"fusion_lat": 0.0, "bike_id": "4afa1c0cd253b7c45a37f80e8f608b21", "fusion_lon": 0.0, "lon": -77.03217566666666, "lat": 38.8922345, "is_reserved": 0, "is_disabled": 0, "rental_uris": {"android": "https://dc.lft.to/lastmile_qr_scan", "ios": "https://dc.lft.to/lastmile_qr_scan"}, "name": "4afa1c0cd253b7c45a37f80e8f608b21", "type": "electric_scooter"}, {"fusion_lat": 0.0, "bike_id": "2479f8c9d97f511fde992ac9a6cda7ab", "fusion_lon": 0.0, "lon": -77.04273616666667, "lat": 38.90014266666667, "is_reserved": 0, "is_disabled": 0, "rental_uris": {"android": "https://dc.lft.to/lastmile_qr_scan", "ios": "https://dc.lft.to/lastmile_qr_scan"}, "name": "2479f8c9d97f511fde992ac9a6cda7ab", "type": "electric_scooter"}, {"fusion_lat": 0.0, "bike_id": "2421f5324a363efeb3fbf0184b42e949", "fusion_lon": 0.0, "lon": -77.0332235, "lat": 38.899972, "is_reserved": 0, "is_disabled": 0, "rental_uris": {"android": "https://dc.lft.to/lastmile_qr_scan", "ios": "https://dc.lft.to/lastmile_qr_scan"}, "name": "2421f5324a363efeb3fbf0184b42e949", "type": "electric_scooter"}, {"fusion_lat": 0.0, "bike_id": "36808404e14ffa3a25aa257970e04397", "fusion_lon": 0.0, "lon": -77.0300055, "lat": 39.0419645, "is_reserved": 0, "is_disabled": 0, "rental_uris": {"android": "https://dc.lft.to/lastmile_qr_scan", "ios": "https://dc.lft.to/lastmile_qr_scan"}, "name": "36808404e14ffa3a25aa257970e04397", "type": "electric_bike"}, {"fusion_lat": 0.0, "bike_id": "db0791c25a54fbc651fc6b9604f25553", "fusion_lon": 0.0, "lon": -77.02692933333333, "lat": 38.9186695, "is_reserved": 0, "is_disabled": 0, "rental_uris": {"android": "https://dc.lft.to/lastmile_qr_scan", "ios": "https://dc.lft.to/lastmile_qr_scan"}, "name": "db0791c25a54fbc651fc6b9604f25553", "type": "electric_scooter"}, {"fusion_lat": 0.0, "bike_id": "1caa389536d5348999eaa62879467222", "fusion_lon": 0.0, "lon": -77.04666233333333, "lat": 38.908849000000004, "is_reserved": 0, "is_disabled": 0, "rental_uris": {"android": "https://dc.lft.to/lastmile_qr_scan", "ios": "https://dc.lft.to/lastmile_qr_scan"}, "name": "1caa389536d5348999eaa62879467222", "type": "electric_scooter"}, {"fusion_lat": 0.0, "bike_id": "9897d2c9209818c87d5fad929ed7f498", "fusion_lon": 0.0, "lon": -77.042055, "lat": 38.92128433333333, "is_reserved": 0, "is_disabled": 0, "rental_uris": {"android": "https://dc.lft.to/lastmile_qr_scan", "ios": "https://dc.lft.to/lastmile_qr_scan"}, "name": "9897d2c9209818c87d5fad929ed7f498", "type": "electric_scooter"}, {"fusion_lat": 0.0, "bike_id": "e76568698a51ab457a122062491bb78c", "fusion_lon": 0.0, "lon": -77.0247375, "lat": 38.918145, "is_reserved": 0, "is_disabled": 0, "rental_uris": {"android": "https://dc.lft.to/lastmile_qr_scan", "ios": "https://dc.lft.to/lastmile_qr_scan"}, "name": "e76568698a51ab457a122062491bb78c", "type": "electric_scooter"}, {"fusion_lat": 0.0, "bike_id": "a9656acc21c04f9431fd30c3cdcea1d3", "fusion_lon": 0.0, "lon": -77.041963, "lat": 38.9206015, "is_reserved": 0, "is_disabled": 0, "rental_uris": {"android": "https://dc.lft.to/lastmile_qr_scan", "ios": "https://dc.lft.to/lastmile_qr_scan"}, "name": "a9656acc21c04f9431fd30c3cdcea1d3", "type": "electric_scooter"}, {"fusion_lat": 0.0, "bike_id": "9b66efe68f3031b9bcce60e7e75475d2", "fusion_lon": 0.0, "lon": -76.97654316666667, "lat": 38.89874316666667, "is_reserved": 0, "is_disabled": 0, "rental_uris": {"android": "https://dc.lft.to/lastmile_qr_scan", "ios": "https://dc.lft.to/lastmile_qr_scan"}, "name": "9b66efe68f3031b9bcce60e7e75475d2", "type": "electric_bike"}, {"fusion_lat": 0.0, "bike_id": "5ff1e9c4420950175d812d9ece52f2e3", "fusion_lon": 0.0, "lon": -77.07792666666667, "lat": 38.99604816666667, "is_reserved": 0, "is_disabled": 0, "rental_uris": {"android": "https://dc.lft.to/lastmile_qr_scan", "ios": "https://dc.lft.to/lastmile_qr_scan"}, "name": "5ff1e9c4420950175d812d9ece52f2e3", "type": "electric_bike"}, {"fusion_lat": 0.0, "bike_id": "3048f3f410f9089438f6ebeb994d383e", "fusion_lon": 0.0, "lon": -77.038431, "lat": 38.90386, "is_reserved": 0, "is_disabled": 0, "rental_uris": {"android": "https://dc.lft.to/lastmile_qr_scan", "ios": "https://dc.lft.to/lastmile_qr_scan"}, "name": "3048f3f410f9089438f6ebeb994d383e", "type": "electric_scooter"}, {"fusion_lat": 0.0, "bike_id": "4ce830d50f07d687aff1f2f1bab24458", "fusion_lon": 0.0, "lon": -77.0111085, "lat": 38.8947765, "is_reserved": 0, "is_disabled": 0, "rental_uris": {"android": "https://dc.lft.to/lastmile_qr_scan", "ios": "https://dc.lft.to/lastmile_qr_scan"}, "name": "4ce830d50f07d687aff1f2f1bab24458", "type": "electric_scooter"}, {"fusion_lat": 0.0, "bike_id": "05db673bfd719925c97bfc4220b5674f", "fusion_lon": 0.0, "lon": -76.98838316666667, "lat": 38.842746, "is_reserved": 0, "is_disabled": 0, "rental_uris": {"android": "https://dc.lft.to/lastmile_qr_scan", "ios": "https://dc.lft.to/lastmile_qr_scan"}, "name": "05db673bfd719925c97bfc4220b5674f", "type": "electric_bike"}, {"fusion_lat": 0.0, "bike_id": "39e3066a72c1f1e230890967b4d3aa52", "fusion_lon": 0.0, "lon": -77.03195933333333, "lat": 38.9174215, "is_reserved": 0, "is_disabled": 0, "rental_uris": {"android": "https://dc.lft.to/lastmile_qr_scan", "ios": "https://dc.lft.to/lastmile_qr_scan"}, "name": "39e3066a72c1f1e230890967b4d3aa52", "type": "electric_scooter"}, {"fusion_lat": 0.0, "bike_id": "29d18296ddf8319255e4c061cde1d035", "fusion_lon": 0.0, "lon": -77.0358185, "lat": 38.9922795, "is_reserved": 0, "is_disabled": 0, "rental_uris": {"android": "https://dc.lft.to/lastmile_qr_scan", "ios": "https://dc.lft.to/lastmile_qr_scan"}, "name": "29d18296ddf8319255e4c061cde1d035", "type": "electric_scooter"}, {"fusion_lat": 0.0, "bike_id": "872c9492c14dae40b21d739b5275b6e5", "fusion_lon": 0.0, "lon": -77.01219966666666, "lat": 38.91521616666667, "is_reserved": 0, "is_disabled": 0, "rental_uris": {"android": "https://dc.lft.to/lastmile_qr_scan", "ios": "https://dc.lft.to/lastmile_qr_scan"}, "name": "872c9492c14dae40b21d739b5275b6e5", "type": "electric_scooter"}, {"fusion_lat": 0.0, "bike_id": "f219ba7ca93f6610e9e5319e123014b6", "fusion_lon": 0.0, "lon": -76.97824783333333, "lat": 38.843719666666665, "is_reserved": 0, "is_disabled": 0, "rental_uris": {"android": "https://dc.lft.to/lastmile_qr_scan", "ios": "https://dc.lft.to/lastmile_qr_scan"}, "name": "f219ba7ca93f6610e9e5319e123014b6", "type": "electric_bike"}, {"fusion_lat": 0.0, "bike_id": "b0c0298d69a6f6acf2af0490c4c9c3c6", "fusion_lon": 0.0, "lon": -77.024089, "lat": 38.921091, "is_reserved": 0, "is_disabled": 0, "rental_uris": {"android": "https://dc.lft.to/lastmile_qr_scan", "ios": "https://dc.lft.to/lastmile_qr_scan"}, "name": "b0c0298d69a6f6acf2af0490c4c9c3c6", "type": "electric_scooter"}, {"fusion_lat": 0.0, "bike_id": "853f8449c427d894202c70c9febf1d9d", "fusion_lon": 0.0, "lon": -77.0329725, "lat": 38.90966183333333, "is_reserved": 0, "is_disabled": 0, "rental_uris": {"android": "https://dc.lft.to/lastmile_qr_scan", "ios": "https://dc.lft.to/lastmile_qr_scan"}, "name": "853f8449c427d894202c70c9febf1d9d", "type": "electric_scooter"}, {"fusion_lat": 0.0, "bike_id": "a29652acf29959b59f57853735b305a8", "fusion_lon": 0.0, "lon": -77.08331516666667, "lat": 38.8544055, "is_reserved": 0, "is_disabled": 0, "rental_uris": {"android": "https://dc.lft.to/lastmile_qr_scan", "ios": "https://dc.lft.to/lastmile_qr_scan"}, "name": "a29652acf29959b59f57853735b305a8", "type": "electric_bike"}, {"fusion_lat": 0.0, "bike_id": "37ec14b19cd7ae255645f6cbcb78c850", "fusion_lon": 0.0, "lon": -77.03467233333333, "lat": 38.92634616666667, "is_reserved": 0, "is_disabled": 0, "rental_uris": {"android": "https://dc.lft.to/lastmile_qr_scan", "ios": "https://dc.lft.to/lastmile_qr_scan"}, "name": "37ec14b19cd7ae255645f6cbcb78c850", "type": "electric_scooter"}, {"fusion_lat": 0.0, "bike_id": "a3c059c0a0f3c4e84284642d4e6c7b61", "fusion_lon": 0.0, "lon": -77.043411, "lat": 38.901468666666666, "is_reserved": 0, "is_disabled": 0, "rental_uris": {"android": "https://dc.lft.to/lastmile_qr_scan", "ios": "https://dc.lft.to/lastmile_qr_scan"}, "name": "a3c059c0a0f3c4e84284642d4e6c7b61", "type": "electric_scooter"}, {"fusion_lat": 0.0, "bike_id": "cee48080c3e81e41a5f8f954dc1d51f6", "fusion_lon": 0.0, "lon": -77.0061085, "lat": 38.89473566666667, "is_reserved": 0, "is_disabled": 0, "rental_uris": {"android": "https://dc.lft.to/lastmile_qr_scan", "ios": "https://dc.lft.to/lastmile_qr_scan"}, "name": "cee48080c3e81e41a5f8f954dc1d51f6", "type": "electric_scooter"}, {"fusion_lat": 0.0, "bike_id": "3c80c60d994f2c48dd8a28cc16ffd751", "fusion_lon": 0.0, "lon": -77.03763883333333, "lat": 38.916941, "is_reserved": 0, "is_disabled": 0, "rental_uris": {"android": "https://dc.lft.to/lastmile_qr_scan", "ios": "https://dc.lft.to/lastmile_qr_scan"}, "name": "3c80c60d994f2c48dd8a28cc16ffd751", "type": "electric_scooter"}, {"fusion_lat": 0.0, "bike_id": "a5356f4b69a4fbc81c31f1c6ddc01c97", "fusion_lon": 0.0, "lon": -76.990302, "lat": 38.891783333333336, "is_reserved": 0, "is_disabled": 0, "rental_uris": {"android": "https://dc.lft.to/lastmile_qr_scan", "ios": "https://dc.lft.to/lastmile_qr_scan"}, "name": "a5356f4b69a4fbc81c31f1c6ddc01c97", "type": "electric_scooter"}, {"fusion_lat": 0.0, "bike_id": "cf336acd467a9bdb76e384ab95e52662", "fusion_lon": 0.0, "lon": -77.02865833333334, "lat": 38.93278566666667, "is_reserved": 0, "is_disabled": 0, "rental_uris": {"android": "https://dc.lft.to/lastmile_qr_scan", "ios": "https://dc.lft.to/lastmile_qr_scan"}, "name": "cf336acd467a9bdb76e384ab95e52662", "type": "electric_scooter"}, {"fusion_lat": 0.0, "bike_id": "bec40126508957f338904886d6466984", "fusion_lon": 0.0, "lon": -77.03654133333333, "lat": 38.92342933333333, "is_reserved": 0, "is_disabled": 0, "rental_uris": {"android": "https://dc.lft.to/lastmile_qr_scan", "ios": "https://dc.lft.to/lastmile_qr_scan"}, "name": "bec40126508957f338904886d6466984", "type": "electric_scooter"}, {"fusion_lat": 0.0, "bike_id": "ad6e43584b57ca0a00c231cce1f6b247", "fusion_lon": 0.0, "lon": -77.06250733333333, "lat": 38.944162, "is_reserved": 0, "is_disabled": 0, "rental_uris": {"android": "https://dc.lft.to/lastmile_qr_scan", "ios": "https://dc.lft.to/lastmile_qr_scan"}, "name": "ad6e43584b57ca0a00c231cce1f6b247", "type": "electric_scooter"}, {"fusion_lat": 0.0, "bike_id": "af794b9bdd50d4c5ab39c92875616c25", "fusion_lon": 0.0, "lon": -77.10832616666667, "lat": 38.81206, "is_reserved": 0, "is_disabled": 0, "rental_uris": {"android": "https://dc.lft.to/lastmile_qr_scan", "ios": "https://dc.lft.to/lastmile_qr_scan"}, "name": "af794b9bdd50d4c5ab39c92875616c25", "type": "electric_bike"}, {"fusion_lat": 0.0, "bike_id": "cb756ed41fe0c87f5f432483f42a2d8a", "fusion_lon": 0.0, "lon": -77.02313366666667, "lat": 38.92063183333333, "is_reserved": 0, "is_disabled": 0, "rental_uris": {"android": "https://dc.lft.to/lastmile_qr_scan", "ios": "https://dc.lft.to/lastmile_qr_scan"}, "name": "cb756ed41fe0c87f5f432483f42a2d8a", "type": "electric_scooter"}, {"fusion_lat": 0.0, "bike_id": "cb88dac29ddc48ecc6b44fd59fa5dfc4", "fusion_lon": 0.0, "lon": -77.03439116666667, "lat": 38.906554166666666, "is_reserved": 0, "is_disabled": 0, "rental_uris": {"android": "https://dc.lft.to/lastmile_qr_scan", "ios": "https://dc.lft.to/lastmile_qr_scan"}, "name": "cb88dac29ddc48ecc6b44fd59fa5dfc4", "type": "electric_scooter"}, {"fusion_lat": 0.0, "bike_id": "b9a76f31b950972f2f9450efb9c4d55c", "fusion_lon": 0.0, "lon": -76.98257783333334, "lat": 38.9085585, "is_reserved": 0, "is_disabled": 0, "rental_uris": {"android": "https://dc.lft.to/lastmile_qr_scan", "ios": "https://dc.lft.to/lastmile_qr_scan"}, "name": "b9a76f31b950972f2f9450efb9c4d55c", "type": "electric_scooter"}, {"fusion_lat": 0.0, "bike_id": "1611a7cfbbb84cc621e5f9a0a8fa38cb", "fusion_lon": 0.0, "lon": -77.10093733333333, "lat": 38.959602333333336, "is_reserved": 0, "is_disabled": 0, "rental_uris": {"android": "https://dc.lft.to/lastmile_qr_scan", "ios": "https://dc.lft.to/lastmile_qr_scan"}, "name": "1611a7cfbbb84cc621e5f9a0a8fa38cb", "type": "electric_bike"}, {"fusion_lat": 0.0, "bike_id": "7cf70d28b83e6e910ae84fba5195220c", "fusion_lon": 0.0, "lon": -77.01858533333333, "lat": 38.9025115, "is_reserved": 0, "is_disabled": 0, "rental_uris": {"android": "https://dc.lft.to/lastmile_qr_scan", "ios": "https://dc.lft.to/lastmile_qr_scan"}, "name": "7cf70d28b83e6e910ae84fba5195220c", "type": "electric_scooter"}, {"fusion_lat": 0.0, "bike_id": "672dd55825cb1f11de9fc9c2abdd0795", "fusion_lon": 0.0, "lon": -76.98918616666667, "lat": 38.865601166666664, "is_reserved": 0, "is_disabled": 0, "rental_uris": {"android": "https://dc.lft.to/lastmile_qr_scan", "ios": "https://dc.lft.to/lastmile_qr_scan"}, "name": "672dd55825cb1f11de9fc9c2abdd0795", "type": "electric_scooter"}, {"fusion_lat": 0.0, "bike_id": "ae2ac0270c0401f094e3537ab6fa6263", "fusion_lon": 0.0, "lon": -77.02180883333334, "lat": 38.887234166666666, "is_reserved": 0, "is_disabled": 0, "rental_uris": {"android": "https://dc.lft.to/lastmile_qr_scan", "ios": "https://dc.lft.to/lastmile_qr_scan"}, "name": "ae2ac0270c0401f094e3537ab6fa6263", "type": "electric_scooter"}, {"fusion_lat": 0.0, "bike_id": "8499730be0017d76a2edc7235b2e9035", "fusion_lon": 0.0, "lon": -77.02625666666667, "lat": 38.9622145, "is_reserved": 0, "is_disabled": 0, "rental_uris": {"android": "https://dc.lft.to/lastmile_qr_scan", "ios": "https://dc.lft.to/lastmile_qr_scan"}, "name": "8499730be0017d76a2edc7235b2e9035", "type": "electric_bike"}, {"fusion_lat": 0.0, "bike_id": "142c2286ea8c31509fac2873da10c33f", "fusion_lon": 0.0, "lon": -76.99900883333333, "lat": 38.90729566666667, "is_reserved": 0, "is_disabled": 0, "rental_uris": {"android": "https://dc.lft.to/lastmile_qr_scan", "ios": "https://dc.lft.to/lastmile_qr_scan"}, "name": "142c2286ea8c31509fac2873da10c33f", "type": "electric_scooter"}, {"fusion_lat": 0.0, "bike_id": "97be2f35eaf391d6dc8da16efaeddece", "fusion_lon": 0.0, "lon": -77.04577983333333, "lat": 38.909581, "is_reserved": 0, "is_disabled": 0, "rental_uris": {"android": "https://dc.lft.to/lastmile_qr_scan", "ios": "https://dc.lft.to/lastmile_qr_scan"}, "name": "97be2f35eaf391d6dc8da16efaeddece", "type": "electric_scooter"}, {"fusion_lat": 0.0, "bike_id": "4989c7b1349a9c1df825bc983575ef16", "fusion_lon": 0.0, "lon": -76.99543733333333, "lat": 38.831593166666664, "is_reserved": 0, "is_disabled": 0, "rental_uris": {"android": "https://dc.lft.to/lastmile_qr_scan", "ios": "https://dc.lft.to/lastmile_qr_scan"}, "name": "4989c7b1349a9c1df825bc983575ef16", "type": "electric_bike"}, {"fusion_lat": 0.0, "bike_id": "c2d48f33ab1f5e7224cbdc72b436f10f", "fusion_lon": 0.0, "lon": -76.95517716666667, "lat": 38.884638, "is_reserved": 0, "is_disabled": 0, "rental_uris": {"android": "https://dc.lft.to/lastmile_qr_scan", "ios": "https://dc.lft.to/lastmile_qr_scan"}, "name": "c2d48f33ab1f5e7224cbdc72b436f10f", "type": "electric_scooter"}, {"fusion_lat": 0.0, "bike_id": "af7170823fd95cac4a83e6a10705df09", "fusion_lon": 0.0, "lon": -76.93617116666667, "lat": 38.896842, "is_reserved": 0, "is_disabled": 0, "rental_uris": {"android": "https://dc.lft.to/lastmile_qr_scan", "ios": "https://dc.lft.to/lastmile_qr_scan"}, "name": "af7170823fd95cac4a83e6a10705df09", "type": "electric_scooter"}, {"fusion_lat": 0.0, "bike_id": "c499aa4691c648a64091a50fab88c8c3", "fusion_lon": 0.0, "lon": -76.9428885, "lat": 38.93869133333333, "is_reserved": 0, "is_disabled": 0, "rental_uris": {"android": "https://dc.lft.to/lastmile_qr_scan", "ios": "https://dc.lft.to/lastmile_qr_scan"}, "name": "c499aa4691c648a64091a50fab88c8c3", "type": "electric_bike"}, {"fusion_lat": 0.0, "bike_id": "7c1ae9b69092672203416914b15b86f3", "fusion_lon": 0.0, "lon": -77.03526516666666, "lat": 38.926271, "is_reserved": 0, "is_disabled": 0, "rental_uris": {"android": "https://dc.lft.to/lastmile_qr_scan", "ios": "https://dc.lft.to/lastmile_qr_scan"}, "name": "7c1ae9b69092672203416914b15b86f3", "type": "electric_scooter"}, {"fusion_lat": 0.0, "bike_id": "3302bbeff8e9d3e391daa0befbd27759", "fusion_lon": 0.0, "lon": -77.03808283333333, "lat": 38.90683283333333, "is_reserved": 0, "is_disabled": 0, "rental_uris": {"android": "https://dc.lft.to/lastmile_qr_scan", "ios": "https://dc.lft.to/lastmile_qr_scan"}, "name": "3302bbeff8e9d3e391daa0befbd27759", "type": "electric_scooter"}, {"fusion_lat": 0.0, "bike_id": "0374ceb3e239a8f7130eb08a8acd189a", "fusion_lon": 0.0, "lon": -77.03742716666666, "lat": 38.918064, "is_reserved": 0, "is_disabled": 0, "rental_uris": {"android": "https://dc.lft.to/lastmile_qr_scan", "ios": "https://dc.lft.to/lastmile_qr_scan"}, "name": "0374ceb3e239a8f7130eb08a8acd189a", "type": "electric_scooter"}, {"fusion_lat": 0.0, "bike_id": "37900e1ebab32a71d7f4099047e31107", "fusion_lon": 0.0, "lon": -77.01737416666667, "lat": 38.88742666666667, "is_reserved": 0, "is_disabled": 0, "rental_uris": {"android": "https://dc.lft.to/lastmile_qr_scan", "ios": "https://dc.lft.to/lastmile_qr_scan"}, "name": "37900e1ebab32a71d7f4099047e31107", "type": "electric_scooter"}, {"fusion_lat": 0.0, "bike_id": "928a40013a05bf9bc03c554b4fbcce57", "fusion_lon": 0.0, "lon": -76.98846666666667, "lat": 38.8673475, "is_reserved": 0, "is_disabled": 0, "rental_uris": {"android": "https://dc.lft.to/lastmile_qr_scan", "ios": "https://dc.lft.to/lastmile_qr_scan"}, "name": "928a40013a05bf9bc03c554b4fbcce57", "type": "electric_scooter"}, {"fusion_lat": 0.0, "bike_id": "720c083e6f177296855fb2a102671182", "fusion_lon": 0.0, "lon": -77.0409895, "lat": 38.905277833333336, "is_reserved": 0, "is_disabled": 0, "rental_uris": {"android": "https://dc.lft.to/lastmile_qr_scan", "ios": "https://dc.lft.to/lastmile_qr_scan"}, "name": "720c083e6f177296855fb2a102671182", "type": "electric_scooter"}, {"fusion_lat": 0.0, "bike_id": "fc5f28a8e3e276fc3fb0bf17fd578ce4", "fusion_lon": 0.0, "lon": -77.02233, "lat": 38.892195, "is_reserved": 0, "is_disabled": 0, "rental_uris": {"android": "https://dc.lft.to/lastmile_qr_scan", "ios": "https://dc.lft.to/lastmile_qr_scan"}, "name": "fc5f28a8e3e276fc3fb0bf17fd578ce4", "type": "electric_scooter"}, {"fusion_lat": 0.0, "bike_id": "dacd82e2f52498a58f807a33e0ee259e", "fusion_lon": 0.0, "lon": -77.03307833333334, "lat": 38.8982585, "is_reserved": 0, "is_disabled": 0, "rental_uris": {"android": "https://dc.lft.to/lastmile_qr_scan", "ios": "https://dc.lft.to/lastmile_qr_scan"}, "name": "dacd82e2f52498a58f807a33e0ee259e", "type": "electric_scooter"}, {"fusion_lat": 0.0, "bike_id": "063123c9fe68b0b6491ddd4b1c9a507e", "fusion_lon": 0.0, "lon": -77.02206766666667, "lat": 38.878969166666664, "is_reserved": 0, "is_disabled": 0, "rental_uris": {"android": "https://dc.lft.to/lastmile_qr_scan", "ios": "https://dc.lft.to/lastmile_qr_scan"}, "name": "063123c9fe68b0b6491ddd4b1c9a507e", "type": "electric_scooter"}, {"fusion_lat": 0.0, "bike_id": "5da5b30ec08f98c5b0cbc3c6d0c332eb", "fusion_lon": 0.0, "lon": -76.99005333333334, "lat": 38.865127, "is_reserved": 0, "is_disabled": 0, "rental_uris": {"android": "https://dc.lft.to/lastmile_qr_scan", "ios": "https://dc.lft.to/lastmile_qr_scan"}, "name": "5da5b30ec08f98c5b0cbc3c6d0c332eb", "type": "electric_scooter"}, {"fusion_lat": 0.0, "bike_id": "bfd8d03731ad830ee3446ce265d100db", "fusion_lon": 0.0, "lon": -76.993691, "lat": 38.87978366666667, "is_reserved": 0, "is_disabled": 0, "rental_uris": {"android": "https://dc.lft.to/lastmile_qr_scan", "ios": "https://dc.lft.to/lastmile_qr_scan"}, "name": "bfd8d03731ad830ee3446ce265d100db", "type": "electric_scooter"}, {"fusion_lat": 0.0, "bike_id": "34eaef4e7bc88b98604b29ee62495dfb", "fusion_lon": 0.0, "lon": -77.03343883333334, "lat": 38.89742283333333, "is_reserved": 0, "is_disabled": 0, "rental_uris": {"android": "https://dc.lft.to/lastmile_qr_scan", "ios": "https://dc.lft.to/lastmile_qr_scan"}, "name": "34eaef4e7bc88b98604b29ee62495dfb", "type": "electric_scooter"}, {"fusion_lat": 0.0, "bike_id": "7636f56e14427c20632cdc4397319a35", "fusion_lon": 0.0, "lon": -77.027255, "lat": 38.89710133333333, "is_reserved": 0, "is_disabled": 0, "rental_uris": {"android": "https://dc.lft.to/lastmile_qr_scan", "ios": "https://dc.lft.to/lastmile_qr_scan"}, "name": "7636f56e14427c20632cdc4397319a35", "type": "electric_scooter"}, {"fusion_lat": 0.0, "bike_id": "f3dcb03c8536b753e1342aa61757b0e2", "fusion_lon": 0.0, "lon": -77.032253, "lat": 38.892275166666664, "is_reserved": 0, "is_disabled": 0, "rental_uris": {"android": "https://dc.lft.to/lastmile_qr_scan", "ios": "https://dc.lft.to/lastmile_qr_scan"}, "name": "f3dcb03c8536b753e1342aa61757b0e2", "type": "electric_scooter"}, {"fusion_lat": 0.0, "bike_id": "ee51bfb75c9e1f02b0008715d04e86a7", "fusion_lon": 0.0, "lon": -77.03183533333333, "lat": 38.9174475, "is_reserved": 0, "is_disabled": 0, "rental_uris": {"android": "https://dc.lft.to/lastmile_qr_scan", "ios": "https://dc.lft.to/lastmile_qr_scan"}, "name": "ee51bfb75c9e1f02b0008715d04e86a7", "type": "electric_scooter"}, {"fusion_lat": 0.0, "bike_id": "1129bc75648cba55da0451efd9286a30", "fusion_lon": 0.0, "lon": -77.03880366666667, "lat": 38.94873666666667, "is_reserved": 0, "is_disabled": 0, "rental_uris": {"android": "https://dc.lft.to/lastmile_qr_scan", "ios": "https://dc.lft.to/lastmile_qr_scan"}, "name": "1129bc75648cba55da0451efd9286a30", "type": "electric_scooter"}, {"fusion_lat": 0.0, "bike_id": "a50814411560bcb63f7c9d939ded2e78", "fusion_lon": 0.0, "lon": -76.88397616666667, "lat": 38.931683666666665, "is_reserved": 0, "is_disabled": 0, "rental_uris": {"android": "https://dc.lft.to/lastmile_qr_scan", "ios": "https://dc.lft.to/lastmile_qr_scan"}, "name": "a50814411560bcb63f7c9d939ded2e78", "type": "electric_bike"}, {"fusion_lat": 0.0, "bike_id": "f96c4a3b2bd1003a601e71ac96c4b821", "fusion_lon": 0.0, "lon": -77.0464425, "lat": 39.05499916666667, "is_reserved": 0, "is_disabled": 0, "rental_uris": {"android": "https://dc.lft.to/lastmile_qr_scan", "ios": "https://dc.lft.to/lastmile_qr_scan"}, "name": "f96c4a3b2bd1003a601e71ac96c4b821", "type": "electric_bike"}, {"fusion_lat": 0.0, "bike_id": "22348f342e1525411010aeb284f75879", "fusion_lon": 0.0, "lon": -77.05037983333334, "lat": 39.052010333333335, "is_reserved": 0, "is_disabled": 0, "rental_uris": {"android": "https://dc.lft.to/lastmile_qr_scan", "ios": "https://dc.lft.to/lastmile_qr_scan"}, "name": "22348f342e1525411010aeb284f75879", "type": "electric_bike"}, {"fusion_lat": 0.0, "bike_id": "d596fe448a31f8cea1f50f57ea12f060", "fusion_lon": 0.0, "lon": -76.95655, "lat": 38.89623383333333, "is_reserved": 0, "is_disabled": 0, "rental_uris": {"android": "https://dc.lft.to/lastmile_qr_scan", "ios": "https://dc.lft.to/lastmile_qr_scan"}, "name": "d596fe448a31f8cea1f50f57ea12f060", "type": "electric_scooter"}, {"fusion_lat": 0.0, "bike_id": "3bc4932150bb4b757880893726dba388", "fusion_lon": 0.0, "lon": -77.05125983333333, "lat": 38.90399083333333, "is_reserved": 0, "is_disabled": 0, "rental_uris": {"android": "https://dc.lft.to/lastmile_qr_scan", "ios": "https://dc.lft.to/lastmile_qr_scan"}, "name": "3bc4932150bb4b757880893726dba388", "type": "electric_scooter"}, {"fusion_lat": 0.0, "bike_id": "6d44bd0a0064a351cbd5f06758edc9c8", "fusion_lon": 0.0, "lon": -77.03329366666667, "lat": 38.9037265, "is_reserved": 0, "is_disabled": 0, "rental_uris": {"android": "https://dc.lft.to/lastmile_qr_scan", "ios": "https://dc.lft.to/lastmile_qr_scan"}, "name": "6d44bd0a0064a351cbd5f06758edc9c8", "type": "electric_scooter"}, {"fusion_lat": 0.0, "bike_id": "36834c73a546609dc8015af21a32bb29", "fusion_lon": 0.0, "lon": -77.02464516666667, "lat": 38.941993, "is_reserved": 0, "is_disabled": 0, "rental_uris": {"android": "https://dc.lft.to/lastmile_qr_scan", "ios": "https://dc.lft.to/lastmile_qr_scan"}, "name": "36834c73a546609dc8015af21a32bb29", "type": "electric_scooter"}, {"fusion_lat": 0.0, "bike_id": "b01998d0cdc0956ca73723f55e018bcc", "fusion_lon": 0.0, "lon": -77.02477233333333, "lat": 38.917015166666665, "is_reserved": 0, "is_disabled": 0, "rental_uris": {"android": "https://dc.lft.to/lastmile_qr_scan", "ios": "https://dc.lft.to/lastmile_qr_scan"}, "name": "b01998d0cdc0956ca73723f55e018bcc", "type": "electric_scooter"}, {"fusion_lat": 0.0, "bike_id": "a5fa7494cb196870a861488fb58a1cde", "fusion_lon": 0.0, "lon": -77.04324566666666, "lat": 38.9024045, "is_reserved": 0, "is_disabled": 0, "rental_uris": {"android": "https://dc.lft.to/lastmile_qr_scan", "ios": "https://dc.lft.to/lastmile_qr_scan"}, "name": "a5fa7494cb196870a861488fb58a1cde", "type": "electric_scooter"}, {"fusion_lat": 0.0, "bike_id": "b0133e5dc7eb80c3244298ef480d361f", "fusion_lon": 0.0, "lon": -77.18736933333334, "lat": 38.89353633333333, "is_reserved": 0, "is_disabled": 0, "rental_uris": {"android": "https://dc.lft.to/lastmile_qr_scan", "ios": "https://dc.lft.to/lastmile_qr_scan"}, "name": "b0133e5dc7eb80c3244298ef480d361f", "type": "electric_bike"}, {"fusion_lat": 0.0, "bike_id": "4ec33b191924da0cfebaa371479463f8", "fusion_lon": 0.0, "lon": -76.99847066666666, "lat": 38.96251483333333, "is_reserved": 0, "is_disabled": 0, "rental_uris": {"android": "https://dc.lft.to/lastmile_qr_scan", "ios": "https://dc.lft.to/lastmile_qr_scan"}, "name": "4ec33b191924da0cfebaa371479463f8", "type": "electric_bike"}, {"fusion_lat": 0.0, "bike_id": "39701417d3459763a061de6b80845005", "fusion_lon": 0.0, "lon": -77.052506, "lat": 38.927341, "is_reserved": 0, "is_disabled": 0, "rental_uris": {"android": "https://dc.lft.to/lastmile_qr_scan", "ios": "https://dc.lft.to/lastmile_qr_scan"}, "name": "39701417d3459763a061de6b80845005", "type": "electric_scooter"}, {"fusion_lat": 0.0, "bike_id": "aa538a454b770136c62bf1872ea09c1f", "fusion_lon": 0.0, "lon": -77.060332, "lat": 38.933650666666665, "is_reserved": 0, "is_disabled": 0, "rental_uris": {"android": "https://dc.lft.to/lastmile_qr_scan", "ios": "https://dc.lft.to/lastmile_qr_scan"}, "name": "aa538a454b770136c62bf1872ea09c1f", "type": "electric_scooter"}, {"fusion_lat": 0.0, "bike_id": "f91fe89630a8e03926eb6439d57d9df8", "fusion_lon": 0.0, "lon": -77.029479, "lat": 38.885034, "is_reserved": 0, "is_disabled": 0, "rental_uris": {"android": "https://dc.lft.to/lastmile_qr_scan", "ios": "https://dc.lft.to/lastmile_qr_scan"}, "name": "f91fe89630a8e03926eb6439d57d9df8", "type": "electric_scooter"}, {"fusion_lat": 0.0, "bike_id": "605ecbfa3ae92bbd37b466a6d3842090", "fusion_lon": 0.0, "lon": -77.06098733333333, "lat": 38.90524766666667, "is_reserved": 0, "is_disabled": 0, "rental_uris": {"android": "https://dc.lft.to/lastmile_qr_scan", "ios": "https://dc.lft.to/lastmile_qr_scan"}, "name": "605ecbfa3ae92bbd37b466a6d3842090", "type": "electric_scooter"}, {"fusion_lat": 0.0, "bike_id": "5374eea079d87a776bfebd37e9c10e7e", "fusion_lon": 0.0, "lon": -77.00129433333333, "lat": 38.878161, "is_reserved": 0, "is_disabled": 0, "rental_uris": {"android": "https://dc.lft.to/lastmile_qr_scan", "ios": "https://dc.lft.to/lastmile_qr_scan"}, "name": "5374eea079d87a776bfebd37e9c10e7e", "type": "electric_scooter"}, {"fusion_lat": 0.0, "bike_id": "7dee38f3f23c59838593f622dcb815cd", "fusion_lon": 0.0, "lon": -77.044552, "lat": 38.91873016666667, "is_reserved": 0, "is_disabled": 0, "rental_uris": {"android": "https://dc.lft.to/lastmile_qr_scan", "ios": "https://dc.lft.to/lastmile_qr_scan"}, "name": "7dee38f3f23c59838593f622dcb815cd", "type": "electric_scooter"}, {"fusion_lat": 0.0, "bike_id": "30211fec3301fb0b6e12b1f03dc8b967", "fusion_lon": 0.0, "lon": -77.0167875, "lat": 38.877046166666666, "is_reserved": 0, "is_disabled": 0, "rental_uris": {"android": "https://dc.lft.to/lastmile_qr_scan", "ios": "https://dc.lft.to/lastmile_qr_scan"}, "name": "30211fec3301fb0b6e12b1f03dc8b967", "type": "electric_scooter"}, {"fusion_lat": 0.0, "bike_id": "6d007421a5acba8e5c7d1dcdb5ad044b", "fusion_lon": 0.0, "lon": -77.03448216666666, "lat": 38.907343833333336, "is_reserved": 0, "is_disabled": 0, "rental_uris": {"android": "https://dc.lft.to/lastmile_qr_scan", "ios": "https://dc.lft.to/lastmile_qr_scan"}, "name": "6d007421a5acba8e5c7d1dcdb5ad044b", "type": "electric_scooter"}, {"fusion_lat": 0.0, "bike_id": "aa735b266570d7d8fe84b899f3f3b0f5", "fusion_lon": 0.0, "lon": -76.94628233333333, "lat": 38.832331833333335, "is_reserved": 0, "is_disabled": 0, "rental_uris": {"android": "https://dc.lft.to/lastmile_qr_scan", "ios": "https://dc.lft.to/lastmile_qr_scan"}, "name": "aa735b266570d7d8fe84b899f3f3b0f5", "type": "electric_bike"}, {"fusion_lat": 0.0, "bike_id": "3f7b5a6eabfa859453770fc756d4b56e", "fusion_lon": 0.0, "lon": -77.03338516666666, "lat": 38.89225066666667, "is_reserved": 0, "is_disabled": 0, "rental_uris": {"android": "https://dc.lft.to/lastmile_qr_scan", "ios": "https://dc.lft.to/lastmile_qr_scan"}, "name": "3f7b5a6eabfa859453770fc756d4b56e", "type": "electric_scooter"}, {"fusion_lat": 0.0, "bike_id": "b70423a74faef28588ba45e653bb824f", "fusion_lon": 0.0, "lon": -76.93275033333333, "lat": 38.954215166666664, "is_reserved": 0, "is_disabled": 0, "rental_uris": {"android": "https://dc.lft.to/lastmile_qr_scan", "ios": "https://dc.lft.to/lastmile_qr_scan"}, "name": "b70423a74faef28588ba45e653bb824f", "type": "electric_bike"}, {"fusion_lat": 0.0, "bike_id": "e4132809bef35d801e052e682c9caa24", "fusion_lon": 0.0, "lon": -77.0362625, "lat": 38.915533833333335, "is_reserved": 0, "is_disabled": 0, "rental_uris": {"android": "https://dc.lft.to/lastmile_qr_scan", "ios": "https://dc.lft.to/lastmile_qr_scan"}, "name": "e4132809bef35d801e052e682c9caa24", "type": "electric_scooter"}, {"fusion_lat": 0.0, "bike_id": "51acd5e7243083f8ad8f98eef06b8120", "fusion_lon": 0.0, "lon": -77.02096033333333, "lat": 38.922436, "is_reserved": 0, "is_disabled": 0, "rental_uris": {"android": "https://dc.lft.to/lastmile_qr_scan", "ios": "https://dc.lft.to/lastmile_qr_scan"}, "name": "51acd5e7243083f8ad8f98eef06b8120", "type": "electric_scooter"}, {"fusion_lat": 0.0, "bike_id": "ade534aae6f579bbd3f30263c2ee8021", "fusion_lon": 0.0, "lon": -77.0200265, "lat": 38.8987235, "is_reserved": 0, "is_disabled": 0, "rental_uris": {"android": "https://dc.lft.to/lastmile_qr_scan", "ios": "https://dc.lft.to/lastmile_qr_scan"}, "name": "ade534aae6f579bbd3f30263c2ee8021", "type": "electric_scooter"}, {"fusion_lat": 0.0, "bike_id": "488b80d31e192758933c619e782baa61", "fusion_lon": 0.0, "lon": -77.019665, "lat": 38.90269416666667, "is_reserved": 0, "is_disabled": 0, "rental_uris": {"android": "https://dc.lft.to/lastmile_qr_scan", "ios": "https://dc.lft.to/lastmile_qr_scan"}, "name": "488b80d31e192758933c619e782baa61", "type": "electric_scooter"}, {"fusion_lat": 0.0, "bike_id": "12e2cffabc7bec0cfeb10d7ade834026", "fusion_lon": 0.0, "lon": -77.0620175, "lat": 38.94453933333333, "is_reserved": 0, "is_disabled": 0, "rental_uris": {"android": "https://dc.lft.to/lastmile_qr_scan", "ios": "https://dc.lft.to/lastmile_qr_scan"}, "name": "12e2cffabc7bec0cfeb10d7ade834026", "type": "electric_scooter"}, {"fusion_lat": 0.0, "bike_id": "c327778ed2d4974cc2ed0daf48bd8542", "fusion_lon": 0.0, "lon": -76.99057933333333, "lat": 38.863744833333335, "is_reserved": 0, "is_disabled": 0, "rental_uris": {"android": "https://dc.lft.to/lastmile_qr_scan", "ios": "https://dc.lft.to/lastmile_qr_scan"}, "name": "c327778ed2d4974cc2ed0daf48bd8542", "type": "electric_scooter"}, {"fusion_lat": 0.0, "bike_id": "420211940a16191bb258ad33e13f65bc", "fusion_lon": 0.0, "lon": -77.02359333333334, "lat": 38.89222216666667, "is_reserved": 0, "is_disabled": 0, "rental_uris": {"android": "https://dc.lft.to/lastmile_qr_scan", "ios": "https://dc.lft.to/lastmile_qr_scan"},