{"data": {"bikes": [{"rental_uris": {"ios": "https://dc.lft.to/lastmile_qr_scan", "android": "https://dc.lft.to/lastmile_qr_scan"}, "type": "electric_scooter", "name": "5c472b37a06d9088009cecb0e5b65dc3", "is_reserved": 0, "lon": -77.00800083333333, "is_disabled": 0, "fusion_lat": 0.0, "lat": 38.9126885, "bike_id": "5c472b37a06d9088009cecb0e5b65dc3", "fusion_lon": 0.0}, {"rental_uris": {"ios": "https://dc.lft.to/lastmile_qr_scan", "android": "https://dc.lft.to/lastmile_qr_scan"}, "type": "electric_scooter", "name": "2fb49e325b969ae638bc1c58a5e2bb86", "is_reserved": 0, "lon": -77.00285416666667, "is_disabled": 0, "fusion_lat": 0.0, "lat": 38.846193166666666, "bike_id": "2fb49e325b969ae638bc1c58a5e2bb86", "fusion_lon": 0.0}, {"rental_uris": {"ios": "https://dc.lft.to/lastmile_qr_scan", "android": "https://dc.lft.to/lastmile_qr_scan"}, "type": "electric_scooter", "name": "1b79dd174cd21552991019101a32b911", "is_reserved": 0, "lon": -77.03972716666667, "is_disabled": 0, "fusion_lat": 0.0, "lat": 38.90251133333334, "bike_id": "1b79dd174cd21552991019101a32b911", "fusion_lon": 0.0}, {"rental_uris": {"ios": "https://dc.lft.to/lastmile_qr_scan", "android": "https://dc.lft.to/lastmile_qr_scan"}, "type": "electric_scooter", "name": "e2f47eda0d1af0a8df1c77c16f97914c", "is_reserved": 0, "lon": -77.046533, "is_disabled": 0, "fusion_lat": 0.0, "lat": 38.9179735, "bike_id": "e2f47eda0d1af0a8df1c77c16f97914c", "fusion_lon": 0.0}, {"rental_uris": {"ios": "https://dc.lft.to/lastmile_qr_scan", "android": "https://dc.lft.to/lastmile_qr_scan"}, "type": "electric_scooter", "name": "b899c759e8ba3da14fcbaad48f96e432", "is_reserved": 0, "lon": -77.04607366666667, "is_disabled": 0, "fusion_lat": 0.0, "lat": 38.905833666666666, "bike_id": "b899c759e8ba3da14fcbaad48f96e432", "fusion_lon": 0.0}, {"rental_uris": {"ios": "https://dc.lft.to/lastmile_qr_scan", "android": "https://dc.lft.to/lastmile_qr_scan"}, "type": "electric_scooter", "name": "c394243a6612dde4417521494f9ac062", "is_reserved": 0, "lon": -77.07926666666667, "is_disabled": 0, "fusion_lat": 0.0, "lat": 38.9456405, "bike_id": "c394243a6612dde4417521494f9ac062", "fusion_lon": 0.0}, {"rental_uris": {"ios": "https://dc.lft.to/lastmile_qr_scan", "android": "https://dc.lft.to/lastmile_qr_scan"}, "type": "electric_scooter", "name": "c533e0e1fd466ac6d20d5e16e61108fc", "is_reserved": 0, "lon": -77.0660485, "is_disabled": 0, "fusion_lat": 0.0, "lat": 38.90405483333333, "bike_id": "c533e0e1fd466ac6d20d5e16e61108fc", "fusion_lon": 0.0}, {"rental_uris": {"ios": "https://dc.lft.to/lastmile_qr_scan", "android": "https://dc.lft.to/lastmile_qr_scan"}, "type": "electric_scooter", "name": "d80794a0b7cd1bfb954c14fcdb064559", "is_reserved": 0, "lon": -77.043573, "is_disabled": 0, "fusion_lat": 0.0, "lat": 38.90015016666667, "bike_id": "d80794a0b7cd1bfb954c14fcdb064559", "fusion_lon": 0.0}, {"rental_uris": {"ios": "https://dc.lft.to/lastmile_qr_scan", "android": "https://dc.lft.to/lastmile_qr_scan"}, "type": "electric_scooter", "name": "820a4c6759d1bdbdca6c66aaccc17f3f", "is_reserved": 0, "lon": -77.003133, "is_disabled": 0, "fusion_lat": 0.0, "lat": 38.877323, "bike_id": "820a4c6759d1bdbdca6c66aaccc17f3f", "fusion_lon": 0.0}, {"rental_uris": {"ios": "https://dc.lft.to/lastmile_qr_scan", "android": "https://dc.lft.to/lastmile_qr_scan"}, "type": "electric_scooter", "name": "e1e0ab6525967f3c6ebe3d82f56cc01f", "is_reserved": 0, "lon": -76.996106, "is_disabled": 0, "fusion_lat": 0.0, "lat": 38.9032115, "bike_id": "e1e0ab6525967f3c6ebe3d82f56cc01f", "fusion_lon": 0.0}, {"rental_uris": {"ios": "https://dc.lft.to/lastmile_qr_scan", "android": "https://dc.lft.to/lastmile_qr_scan"}, "type": "electric_scooter", "name": "d1014301aa6c43fb61fe28264fcfb052", "is_reserved": 0, "lon": -77.01887133333334, "is_disabled": 0, "fusion_lat": 0.0, "lat": 38.89750316666667, "bike_id": "d1014301aa6c43fb61fe28264fcfb052", "fusion_lon": 0.0}, {"rental_uris": {"ios": "https://dc.lft.to/lastmile_qr_scan", "android": "https://dc.lft.to/lastmile_qr_scan"}, "type": "electric_scooter", "name": "65df0391aa625802d74bc7523d075db9", "is_reserved": 0, "lon": -77.02501283333334, "is_disabled": 0, "fusion_lat": 0.0, "lat": 38.940524833333335, "bike_id": "65df0391aa625802d74bc7523d075db9", "fusion_lon": 0.0}, {"rental_uris": {"ios": "https://dc.lft.to/lastmile_qr_scan", "android": "https://dc.lft.to/lastmile_qr_scan"}, "type": "electric_scooter", "name": "c3e89e85919cbc58f05f2795474bac66", "is_reserved": 0, "lon": -77.07693666666667, "is_disabled": 0, "fusion_lat": 0.0, "lat": 38.893345833333335, "bike_id": "c3e89e85919cbc58f05f2795474bac66", "fusion_lon": 0.0}, {"rental_uris": {"ios": "https://dc.lft.to/lastmile_qr_scan", "android": "https://dc.lft.to/lastmile_qr_scan"}, "type": "electric_scooter", "name": "b2f8ab5b5162c26d2391237d7aeeab5a", "is_reserved": 0, "lon": -77.01808133333333, "is_disabled": 0, "fusion_lat": 0.0, "lat": 38.921319, "bike_id": "b2f8ab5b5162c26d2391237d7aeeab5a", "fusion_lon": 0.0}, {"rental_uris": {"ios": "https://dc.lft.to/lastmile_qr_scan", "android": "https://dc.lft.to/lastmile_qr_scan"}, "type": "electric_scooter", "name": "5062dc9da692b259fa4c657e08238bc2", "is_reserved": 0, "lon": -77.03345, "is_disabled": 0, "fusion_lat": 0.0, "lat": 38.932203, "bike_id": "5062dc9da692b259fa4c657e08238bc2", "fusion_lon": 0.0}, {"rental_uris": {"ios": "https://dc.lft.to/lastmile_qr_scan", "android": "https://dc.lft.to/lastmile_qr_scan"}, "type": "electric_scooter", "name": "cb90de050a2c13179bedcb757f1e9f29", "is_reserved": 0, "lon": -76.98214533333334, "is_disabled": 0, "fusion_lat": 0.0, "lat": 38.88643316666667, "bike_id": "cb90de050a2c13179bedcb757f1e9f29", "fusion_lon": 0.0}, {"rental_uris": {"ios": "https://dc.lft.to/lastmile_qr_scan", "android": "https://dc.lft.to/lastmile_qr_scan"}, "type": "electric_scooter", "name": "ab8c03315ff025cbede69f264e2aac90", "is_reserved": 0, "lon": -77.0783545, "is_disabled": 0, "fusion_lat": 0.0, "lat": 38.945676666666664, "bike_id": "ab8c03315ff025cbede69f264e2aac90", "fusion_lon": 0.0}, {"rental_uris": {"ios": "https://dc.lft.to/lastmile_qr_scan", "android": "https://dc.lft.to/lastmile_qr_scan"}, "type": "electric_scooter", "name": "f202aab40727d3bdd3c32cd8fe26548c", "is_reserved": 0, "lon": -77.01778083333333, "is_disabled": 0, "fusion_lat": 0.0, "lat": 38.900468000000004, "bike_id": "f202aab40727d3bdd3c32cd8fe26548c", "fusion_lon": 0.0}, {"rental_uris": {"ios": "https://dc.lft.to/lastmile_qr_scan", "android": "https://dc.lft.to/lastmile_qr_scan"}, "type": "electric_scooter", "name": "d5416e5d84078cf555d8671fa95a91ff", "is_reserved": 0, "lon": -77.03672533333334, "is_disabled": 0, "fusion_lat": 0.0, "lat": 38.923633833333334, "bike_id": "d5416e5d84078cf555d8671fa95a91ff", "fusion_lon": 0.0}, {"rental_uris": {"ios": "https://dc.lft.to/lastmile_qr_scan", "android": "https://dc.lft.to/lastmile_qr_scan"}, "type": "electric_scooter", "name": "84313f6112013642ebe24f5faba49a85", "is_reserved": 0, "lon": -77.03290066666666, "is_disabled": 0, "fusion_lat": 0.0, "lat": 38.9045345, "bike_id": "84313f6112013642ebe24f5faba49a85", "fusion_lon": 0.0}, {"rental_uris": {"ios": "https://dc.lft.to/lastmile_qr_scan", "android": "https://dc.lft.to/lastmile_qr_scan"}, "type": "electric_scooter", "name": "6d87be8e35853cd2dc7938bbfe72d02a", "is_reserved": 0, "lon": -77.02354516666666, "is_disabled": 0, "fusion_lat": 0.0, "lat": 38.94201433333333, "bike_id": "6d87be8e35853cd2dc7938bbfe72d02a", "fusion_lon": 0.0}, {"rental_uris": {"ios": "https://dc.lft.to/lastmile_qr_scan", "android": "https://dc.lft.to/lastmile_qr_scan"}, "type": "electric_scooter", "name": "9ed8b54add555bcfed2a14ae940f3972", "is_reserved": 0, "lon": -77.014499, "is_disabled": 0, "fusion_lat": 0.0, "lat": 38.917713, "bike_id": "9ed8b54add555bcfed2a14ae940f3972", "fusion_lon": 0.0}, {"rental_uris": {"ios": "https://dc.lft.to/lastmile_qr_scan", "android": "https://dc.lft.to/lastmile_qr_scan"}, "type": "electric_scooter", "name": "792b97de9a57312f965cd2974ba5a418", "is_reserved": 0, "lon": -77.00573883333334, "is_disabled": 0, "fusion_lat": 0.0, "lat": 38.906928, "bike_id": "792b97de9a57312f965cd2974ba5a418", "fusion_lon": 0.0}, {"rental_uris": {"ios": "https://dc.lft.to/lastmile_qr_scan", "android": "https://dc.lft.to/lastmile_qr_scan"}, "type": "electric_scooter", "name": "c78c3beaed67dd63a3c7f588e9ed1a90", "is_reserved": 0, "lon": -77.0004235, "is_disabled": 0, "fusion_lat": 0.0, "lat": 38.900125, "bike_id": "c78c3beaed67dd63a3c7f588e9ed1a90", "fusion_lon": 0.0}, {"rental_uris": {"ios": "https://dc.lft.to/lastmile_qr_scan", "android": "https://dc.lft.to/lastmile_qr_scan"}, "type": "electric_scooter", "name": "c5627e797c0c30b3b315da8a3098dae5", "is_reserved": 0, "lon": -76.92898033333333, "is_disabled": 0, "fusion_lat": 0.0, "lat": 38.879458, "bike_id": "c5627e797c0c30b3b315da8a3098dae5", "fusion_lon": 0.0}, {"rental_uris": {"ios": "https://dc.lft.to/lastmile_qr_scan", "android": "https://dc.lft.to/lastmile_qr_scan"}, "type": "electric_scooter", "name": "fa840c461c9cb7c2f0a02a4c57705f11", "is_reserved": 0, "lon": -76.98499816666667, "is_disabled": 0, "fusion_lat": 0.0, "lat": 38.903586, "bike_id": "fa840c461c9cb7c2f0a02a4c57705f11", "fusion_lon": 0.0}, {"rental_uris": {"ios": "https://dc.lft.to/lastmile_qr_scan", "android": "https://dc.lft.to/lastmile_qr_scan"}, "type": "electric_scooter", "name": "3ee03a4e611b9fcbc3e3a28a8b91fd71", "is_reserved": 0, "lon": -77.0403155, "is_disabled": 0, "fusion_lat": 0.0, "lat": 38.924549666666664, "bike_id": "3ee03a4e611b9fcbc3e3a28a8b91fd71", "fusion_lon": 0.0}, {"rental_uris": {"ios": "https://dc.lft.to/lastmile_qr_scan", "android": "https://dc.lft.to/lastmile_qr_scan"}, "type": "electric_scooter", "name": "15a05b582625ba89872de5109bb05da8", "is_reserved": 0, "lon": -77.01140766666667, "is_disabled": 0, "fusion_lat": 0.0, "lat": 38.90644416666667, "bike_id": "15a05b582625ba89872de5109bb05da8", "fusion_lon": 0.0}, {"rental_uris": {"ios": "https://dc.lft.to/lastmile_qr_scan", "android": "https://dc.lft.to/lastmile_qr_scan"}, "type": "electric_scooter", "name": "b3e522efbccccd06e7168313c2364a24", "is_reserved": 0, "lon": -76.98505216666666, "is_disabled": 0, "fusion_lat": 0.0, "lat": 38.88001083333333, "bike_id": "b3e522efbccccd06e7168313c2364a24", "fusion_lon": 0.0}, {"rental_uris": {"ios": "https://dc.lft.to/lastmile_qr_scan", "android": "https://dc.lft.to/lastmile_qr_scan"}, "type": "electric_scooter", "name": "741c065fa20988e769b612e2f0aadd0b", "is_reserved": 0, "lon": -77.00549083333334, "is_disabled": 0, "fusion_lat": 0.0, "lat": 38.876399666666664, "bike_id": "741c065fa20988e769b612e2f0aadd0b", "fusion_lon": 0.0}, {"rental_uris": {"ios": "https://dc.lft.to/lastmile_qr_scan", "android": "https://dc.lft.to/lastmile_qr_scan"}, "type": "electric_bike", "name": "7ea415fc60887fe516f9235f1cf18ec0", "is_reserved": 0, "lon": -77.08529783333333, "is_disabled": 0, "fusion_lat": 0.0, "lat": 38.85650316666667, "bike_id": "7ea415fc60887fe516f9235f1cf18ec0", "fusion_lon": 0.0}, {"rental_uris": {"ios": "https://dc.lft.to/lastmile_qr_scan", "android": "https://dc.lft.to/lastmile_qr_scan"}, "type": "electric_scooter", "name": "44fa6fb5d88c393a13c72398c4e0e3fa", "is_reserved": 0, "lon": -77.02512816666666, "is_disabled": 0, "fusion_lat": 0.0, "lat": 38.935523, "bike_id": "44fa6fb5d88c393a13c72398c4e0e3fa", "fusion_lon": 0.0}, {"rental_uris": {"ios": "https://dc.lft.to/lastmile_qr_scan", "android": "https://dc.lft.to/lastmile_qr_scan"}, "type": "electric_scooter", "name": "538e9c17a6c38da46ba62627ad5bd668", "is_reserved": 0, "lon": -77.05918416666667, "is_disabled": 0, "fusion_lat": 0.0, "lat": 38.9027325, "bike_id": "538e9c17a6c38da46ba62627ad5bd668", "fusion_lon": 0.0}, {"rental_uris": {"ios": "https://dc.lft.to/lastmile_qr_scan", "android": "https://dc.lft.to/lastmile_qr_scan"}, "type": "electric_scooter", "name": "f1f03c455bdc514797bc4cc3fa0e9183", "is_reserved": 0, "lon": -77.0516135, "is_disabled": 0, "fusion_lat": 0.0, "lat": 38.906469333333334, "bike_id": "f1f03c455bdc514797bc4cc3fa0e9183", "fusion_lon": 0.0}, {"rental_uris": {"ios": "https://dc.lft.to/lastmile_qr_scan", "android": "https://dc.lft.to/lastmile_qr_scan"}, "type": "electric_bike", "name": "1ed20cc153df49dd4323a389f61da4a3", "is_reserved": 0, "lon": -77.126538, "is_disabled": 0, "fusion_lat": 0.0, "lat": 38.8191585, "bike_id": "1ed20cc153df49dd4323a389f61da4a3", "fusion_lon": 0.0}, {"rental_uris": {"ios": "https://dc.lft.to/lastmile_qr_scan", "android": "https://dc.lft.to/lastmile_qr_scan"}, "type": "electric_scooter", "name": "73abc48d6ad7ad3c0417fa36c0a4a235", "is_reserved": 0, "lon": -77.06630666666666, "is_disabled": 0, "fusion_lat": 0.0, "lat": 38.9052205, "bike_id": "73abc48d6ad7ad3c0417fa36c0a4a235", "fusion_lon": 0.0}, {"rental_uris": {"ios": "https://dc.lft.to/lastmile_qr_scan", "android": "https://dc.lft.to/lastmile_qr_scan"}, "type": "electric_scooter", "name": "a70c8ec8713cccefc9308ded27209f61", "is_reserved": 0, "lon": -77.03419216666667, "is_disabled": 0, "fusion_lat": 0.0, "lat": 38.922078666666664, "bike_id": "a70c8ec8713cccefc9308ded27209f61", "fusion_lon": 0.0}, {"rental_uris": {"ios": "https://dc.lft.to/lastmile_qr_scan", "android": "https://dc.lft.to/lastmile_qr_scan"}, "type": "electric_scooter", "name": "b1cc5ea870a8878e5a1f24c589a7e8be", "is_reserved": 0, "lon": -77.04019566666666, "is_disabled": 0, "fusion_lat": 0.0, "lat": 38.9225085, "bike_id": "b1cc5ea870a8878e5a1f24c589a7e8be", "fusion_lon": 0.0}, {"rental_uris": {"ios": "https://dc.lft.to/lastmile_qr_scan", "android": "https://dc.lft.to/lastmile_qr_scan"}, "type": "electric_scooter", "name": "7820b11860c135ec474ccff0acb51ef8", "is_reserved": 0, "lon": -77.005134, "is_disabled": 0, "fusion_lat": 0.0, "lat": 38.87863083333333, "bike_id": "7820b11860c135ec474ccff0acb51ef8", "fusion_lon": 0.0}, {"rental_uris": {"ios": "https://dc.lft.to/lastmile_qr_scan", "android": "https://dc.lft.to/lastmile_qr_scan"}, "type": "electric_scooter", "name": "fe0632342914c815b10285e7a080b2bb", "is_reserved": 0, "lon": -77.00955116666667, "is_disabled": 0, "fusion_lat": 0.0, "lat": 38.8746605, "bike_id": "fe0632342914c815b10285e7a080b2bb", "fusion_lon": 0.0}, {"rental_uris": {"ios": "https://dc.lft.to/lastmile_qr_scan", "android": "https://dc.lft.to/lastmile_qr_scan"}, "type": "electric_bike", "name": "d30066843d101f280eca57d79d074d25", "is_reserved": 0, "lon": -76.93332466666666, "is_disabled": 0, "fusion_lat": 0.0, "lat": 38.95155583333333, "bike_id": "d30066843d101f280eca57d79d074d25", "fusion_lon": 0.0}, {"rental_uris": {"ios": "https://dc.lft.to/lastmile_qr_scan", "android": "https://dc.lft.to/lastmile_qr_scan"}, "type": "electric_scooter", "name": "811efa9d18e15671cf7552920caeec44", "is_reserved": 0, "lon": -77.07861783333334, "is_disabled": 0, "fusion_lat": 0.0, "lat": 38.93155466666666, "bike_id": "811efa9d18e15671cf7552920caeec44", "fusion_lon": 0.0}, {"rental_uris": {"ios": "https://dc.lft.to/lastmile_qr_scan", "android": "https://dc.lft.to/lastmile_qr_scan"}, "type": "electric_scooter", "name": "762438c0a5ad4ca981b8f197eb771a98", "is_reserved": 0, "lon": -77.02980033333333, "is_disabled": 0, "fusion_lat": 0.0, "lat": 38.92365016666667, "bike_id": "762438c0a5ad4ca981b8f197eb771a98", "fusion_lon": 0.0}, {"rental_uris": {"ios": "https://dc.lft.to/lastmile_qr_scan", "android": "https://dc.lft.to/lastmile_qr_scan"}, "type": "electric_scooter", "name": "3777a229218cf8bde875d9d75c6945f8", "is_reserved": 0, "lon": -77.01904116666667, "is_disabled": 0, "fusion_lat": 0.0, "lat": 38.905741166666665, "bike_id": "3777a229218cf8bde875d9d75c6945f8", "fusion_lon": 0.0}, {"rental_uris": {"ios": "https://dc.lft.to/lastmile_qr_scan", "android": "https://dc.lft.to/lastmile_qr_scan"}, "type": "electric_bike", "name": "5246b6a410500e3dfb2fddd1aa2c5b84", "is_reserved": 0, "lon": -77.0236855, "is_disabled": 0, "fusion_lat": 0.0, "lat": 38.91961166666667, "bike_id": "5246b6a410500e3dfb2fddd1aa2c5b84", "fusion_lon": 0.0}, {"rental_uris": {"ios": "https://dc.lft.to/lastmile_qr_scan", "android": "https://dc.lft.to/lastmile_qr_scan"}, "type": "electric_scooter", "name": "acb44baea9f7d7aea61aa2e615b8463a", "is_reserved": 0, "lon": -77.05743633333333, "is_disabled": 0, "fusion_lat": 0.0, "lat": 38.93033883333333, "bike_id": "acb44baea9f7d7aea61aa2e615b8463a", "fusion_lon": 0.0}, {"rental_uris": {"ios": "https://dc.lft.to/lastmile_qr_scan", "android": "https://dc.lft.to/lastmile_qr_scan"}, "type": "electric_bike", "name": "a908fad64e7bc23eba1638f05571f8e8", "is_reserved": 0, "lon": -77.09626516666667, "is_disabled": 0, "fusion_lat": 0.0, "lat": 38.97439583333333, "bike_id": "a908fad64e7bc23eba1638f05571f8e8", "fusion_lon": 0.0}, {"rental_uris": {"ios": "https://dc.lft.to/lastmile_qr_scan", "android": "https://dc.lft.to/lastmile_qr_scan"}, "type": "electric_scooter", "name": "c84e90d6c9ce5991070924dca50b0a52", "is_reserved": 0, "lon": -77.0227845, "is_disabled": 0, "fusion_lat": 0.0, "lat": 38.92431333333333, "bike_id": "c84e90d6c9ce5991070924dca50b0a52", "fusion_lon": 0.0}, {"rental_uris": {"ios": "https://dc.lft.to/lastmile_qr_scan", "android": "https://dc.lft.to/lastmile_qr_scan"}, "type": "electric_scooter", "name": "096cddbd3083074b3d2701876df5b9e4", "is_reserved": 0, "lon": -77.04190666666666, "is_disabled": 0, "fusion_lat": 0.0, "lat": 38.90380233333333, "bike_id": "096cddbd3083074b3d2701876df5b9e4", "fusion_lon": 0.0}, {"rental_uris": {"ios": "https://dc.lft.to/lastmile_qr_scan", "android": "https://dc.lft.to/lastmile_qr_scan"}, "type": "electric_scooter", "name": "90e5e9a98938a2b938d7275a7f483db0", "is_reserved": 0, "lon": -76.93747016666667, "is_disabled": 0, "fusion_lat": 0.0, "lat": 38.8900905, "bike_id": "90e5e9a98938a2b938d7275a7f483db0", "fusion_lon": 0.0}, {"rental_uris": {"ios": "https://dc.lft.to/lastmile_qr_scan", "android": "https://dc.lft.to/lastmile_qr_scan"}, "type": "electric_scooter", "name": "2a6dbb3106b7c8103e1a18f3d3c1cac4", "is_reserved": 0, "lon": -77.00809616666666, "is_disabled": 0, "fusion_lat": 0.0, "lat": 38.87840116666667, "bike_id": "2a6dbb3106b7c8103e1a18f3d3c1cac4", "fusion_lon": 0.0}, {"rental_uris": {"ios": "https://dc.lft.to/lastmile_qr_scan", "android": "https://dc.lft.to/lastmile_qr_scan"}, "type": "electric_scooter", "name": "96c3f2e7bced683579794436722038ce", "is_reserved": 0, "lon": -77.0436005, "is_disabled": 0, "fusion_lat": 0.0, "lat": 38.90023733333334, "bike_id": "96c3f2e7bced683579794436722038ce", "fusion_lon": 0.0}, {"rental_uris": {"ios": "https://dc.lft.to/lastmile_qr_scan", "android": "https://dc.lft.to/lastmile_qr_scan"}, "type": "electric_bike", "name": "3333518758fe494d5b0ed1f5f56d58df", "is_reserved": 0, "lon": -77.06698583333333, "is_disabled": 0, "fusion_lat": 0.0, "lat": 38.831723, "bike_id": "3333518758fe494d5b0ed1f5f56d58df", "fusion_lon": 0.0}, {"rental_uris": {"ios": "https://dc.lft.to/lastmile_qr_scan", "android": "https://dc.lft.to/lastmile_qr_scan"}, "type": "electric_scooter", "name": "4d3a47bc24b96bff72e5a31e4ec14dc8", "is_reserved": 0, "lon": -77.02797066666666, "is_disabled": 0, "fusion_lat": 0.0, "lat": 38.956085333333334, "bike_id": "4d3a47bc24b96bff72e5a31e4ec14dc8", "fusion_lon": 0.0}, {"rental_uris": {"ios": "https://dc.lft.to/lastmile_qr_scan", "android": "https://dc.lft.to/lastmile_qr_scan"}, "type": "electric_scooter", "name": "1e6cabed7695d911cc164d2f15eb3049", "is_reserved": 0, "lon": -77.017606, "is_disabled": 0, "fusion_lat": 0.0, "lat": 38.87688983333334, "bike_id": "1e6cabed7695d911cc164d2f15eb3049", "fusion_lon": 0.0}, {"rental_uris": {"ios": "https://dc.lft.to/lastmile_qr_scan", "android": "https://dc.lft.to/lastmile_qr_scan"}, "type": "electric_scooter", "name": "313c60d41132cd68709c739cc8ef850d", "is_reserved": 0, "lon": -77.02162583333333, "is_disabled": 0, "fusion_lat": 0.0, "lat": 38.895025, "bike_id": "313c60d41132cd68709c739cc8ef850d", "fusion_lon": 0.0}, {"rental_uris": {"ios": "https://dc.lft.to/lastmile_qr_scan", "android": "https://dc.lft.to/lastmile_qr_scan"}, "type": "electric_scooter", "name": "04f698a7c3e0bc92d8ec0dde0949cdf4", "is_reserved": 0, "lon": -77.03661066666666, "is_disabled": 0, "fusion_lat": 0.0, "lat": 38.922875166666664, "bike_id": "04f698a7c3e0bc92d8ec0dde0949cdf4", "fusion_lon": 0.0}, {"rental_uris": {"ios": "https://dc.lft.to/lastmile_qr_scan", "android": "https://dc.lft.to/lastmile_qr_scan"}, "type": "electric_scooter", "name": "b3cbd0175b41e0c12fafde2802963497", "is_reserved": 0, "lon": -77.035371, "is_disabled": 0, "fusion_lat": 0.0, "lat": 38.923923333333335, "bike_id": "b3cbd0175b41e0c12fafde2802963497", "fusion_lon": 0.0}, {"rental_uris": {"ios": "https://dc.lft.to/lastmile_qr_scan", "android": "https://dc.lft.to/lastmile_qr_scan"}, "type": "electric_scooter", "name": "fc973a26ce5a0553fff4ee0dbc06dd0b", "is_reserved": 0, "lon": -76.9704615, "is_disabled": 0, "fusion_lat": 0.0, "lat": 38.87323816666667, "bike_id": "fc973a26ce5a0553fff4ee0dbc06dd0b", "fusion_lon": 0.0}, {"rental_uris": {"ios": "https://dc.lft.to/lastmile_qr_scan", "android": "https://dc.lft.to/lastmile_qr_scan"}, "type": "electric_scooter", "name": "ac227da3426fec0ffba983a03b94f721", "is_reserved": 0, "lon": -77.02908583333334, "is_disabled": 0, "fusion_lat": 0.0, "lat": 38.9404275, "bike_id": "ac227da3426fec0ffba983a03b94f721", "fusion_lon": 0.0}, {"rental_uris": {"ios": "https://dc.lft.to/lastmile_qr_scan", "android": "https://dc.lft.to/lastmile_qr_scan"}, "type": "electric_scooter", "name": "589d9ee862034483333f0977c666afaf", "is_reserved": 0, "lon": -77.03243133333334, "is_disabled": 0, "fusion_lat": 0.0, "lat": 38.9104855, "bike_id": "589d9ee862034483333f0977c666afaf", "fusion_lon": 0.0}, {"rental_uris": {"ios": "https://dc.lft.to/lastmile_qr_scan", "android": "https://dc.lft.to/lastmile_qr_scan"}, "type": "electric_scooter", "name": "d19cd1e6f711a341a59ec45be6680c01", "is_reserved": 0, "lon": -77.02060916666667, "is_disabled": 0, "fusion_lat": 0.0, "lat": 38.908476666666665, "bike_id": "d19cd1e6f711a341a59ec45be6680c01", "fusion_lon": 0.0}, {"rental_uris": {"ios": "https://dc.lft.to/lastmile_qr_scan", "android": "https://dc.lft.to/lastmile_qr_scan"}, "type": "electric_scooter", "name": "390fe017764e61a4c70809111fb4b54d", "is_reserved": 0, "lon": -77.00879816666666, "is_disabled": 0, "fusion_lat": 0.0, "lat": 38.915481666666665, "bike_id": "390fe017764e61a4c70809111fb4b54d", "fusion_lon": 0.0}, {"rental_uris": {"ios": "https://dc.lft.to/lastmile_qr_scan", "android": "https://dc.lft.to/lastmile_qr_scan"}, "type": "electric_scooter", "name": "17eab19cbd729ef12d3ccc85503918e9", "is_reserved": 0, "lon": -77.01874983333333, "is_disabled": 0, "fusion_lat": 0.0, "lat": 38.93053783333333, "bike_id": "17eab19cbd729ef12d3ccc85503918e9", "fusion_lon": 0.0}, {"rental_uris": {"ios": "https://dc.lft.to/lastmile_qr_scan", "android": "https://dc.lft.to/lastmile_qr_scan"}, "type": "electric_scooter", "name": "02f7262debc0f498706edc617c606627", "is_reserved": 0, "lon": -77.03848816666667, "is_disabled": 0, "fusion_lat": 0.0, "lat": 38.90872366666667, "bike_id": "02f7262debc0f498706edc617c606627", "fusion_lon": 0.0}, {"rental_uris": {"ios": "https://dc.lft.to/lastmile_qr_scan", "android": "https://dc.lft.to/lastmile_qr_scan"}, "type": "electric_scooter", "name": "35cfc6d55e51240e14f1f388b58c4904", "is_reserved": 0, "lon": -77.0533895, "is_disabled": 0, "fusion_lat": 0.0, "lat": 38.90236766666666, "bike_id": "35cfc6d55e51240e14f1f388b58c4904", "fusion_lon": 0.0}, {"rental_uris": {"ios": "https://dc.lft.to/lastmile_qr_scan", "android": "https://dc.lft.to/lastmile_qr_scan"}, "type": "electric_bike", "name": "4a329ed2b6595eaf185b4ba5a6db86eb", "is_reserved": 0, "lon": -76.993507, "is_disabled": 0, "fusion_lat": 0.0, "lat": 38.845083333333335, "bike_id": "4a329ed2b6595eaf185b4ba5a6db86eb", "fusion_lon": 0.0}, {"rental_uris": {"ios": "https://dc.lft.to/lastmile_qr_scan", "android": "https://dc.lft.to/lastmile_qr_scan"}, "type": "electric_scooter", "name": "df0b6c21527e3e13ba4407f64bd8a366", "is_reserved": 0, "lon": -77.0490675, "is_disabled": 0, "fusion_lat": 0.0, "lat": 38.90080833333333, "bike_id": "df0b6c21527e3e13ba4407f64bd8a366", "fusion_lon": 0.0}, {"rental_uris": {"ios": "https://dc.lft.to/lastmile_qr_scan", "android": "https://dc.lft.to/lastmile_qr_scan"}, "type": "electric_scooter", "name": "146324cb810e625be32a60995f5ae268", "is_reserved": 0, "lon": -76.99587883333334, "is_disabled": 0, "fusion_lat": 0.0, "lat": 38.909405666666665, "bike_id": "146324cb810e625be32a60995f5ae268", "fusion_lon": 0.0}, {"rental_uris": {"ios": "https://dc.lft.to/lastmile_qr_scan", "android": "https://dc.lft.to/lastmile_qr_scan"}, "type": "electric_scooter", "name": "c7c319671360a3fe09a51a7745a2e52e", "is_reserved": 0, "lon": -77.06088916666667, "is_disabled": 0, "fusion_lat": 0.0, "lat": 38.939935, "bike_id": "c7c319671360a3fe09a51a7745a2e52e", "fusion_lon": 0.0}, {"rental_uris": {"ios": "https://dc.lft.to/lastmile_qr_scan", "android": "https://dc.lft.to/lastmile_qr_scan"}, "type": "electric_scooter", "name": "35a59186ed58f5ab857cde5eb21e5baf", "is_reserved": 0, "lon": -77.06844883333333, "is_disabled": 0, "fusion_lat": 0.0, "lat": 38.90403033333333, "bike_id": "35a59186ed58f5ab857cde5eb21e5baf", "fusion_lon": 0.0}, {"rental_uris": {"ios": "https://dc.lft.to/lastmile_qr_scan", "android": "https://dc.lft.to/lastmile_qr_scan"}, "type": "electric_scooter", "name": "e93aae09c7b0f002e3a8ff4e1320b635", "is_reserved": 0, "lon": -77.04823183333333, "is_disabled": 0, "fusion_lat": 0.0, "lat": 38.91489133333333, "bike_id": "e93aae09c7b0f002e3a8ff4e1320b635", "fusion_lon": 0.0}, {"rental_uris": {"ios": "https://dc.lft.to/lastmile_qr_scan", "android": "https://dc.lft.to/lastmile_qr_scan"}, "type": "electric_scooter", "name": "a9b80e6e3f36ff7447d42db933b38cc1", "is_reserved": 0, "lon": -77.01505983333334, "is_disabled": 0, "fusion_lat": 0.0, "lat": 38.884926, "bike_id": "a9b80e6e3f36ff7447d42db933b38cc1", "fusion_lon": 0.0}, {"rental_uris": {"ios": "https://dc.lft.to/lastmile_qr_scan", "android": "https://dc.lft.to/lastmile_qr_scan"}, "type": "electric_scooter", "name": "cc7c8b3c1e05f350d7fd7d7f397234d5", "is_reserved": 0, "lon": -76.973302, "is_disabled": 0, "fusion_lat": 0.0, "lat": 38.904113, "bike_id": "cc7c8b3c1e05f350d7fd7d7f397234d5", "fusion_lon": 0.0}, {"rental_uris": {"ios": "https://dc.lft.to/lastmile_qr_scan", "android": "https://dc.lft.to/lastmile_qr_scan"}, "type": "electric_scooter", "name": "458300a55cc3aba131ae942867bd2204", "is_reserved": 0, "lon": -77.039749, "is_disabled": 0, "fusion_lat": 0.0, "lat": 38.9314975, "bike_id": "458300a55cc3aba131ae942867bd2204", "fusion_lon": 0.0}, {"rental_uris": {"ios": "https://dc.lft.to/lastmile_qr_scan", "android": "https://dc.lft.to/lastmile_qr_scan"}, "type": "electric_scooter", "name": "f586149241f066dc24548c80b3d050dd", "is_reserved": 0, "lon": -77.01151833333333, "is_disabled": 0, "fusion_lat": 0.0, "lat": 38.90960466666667, "bike_id": "f586149241f066dc24548c80b3d050dd", "fusion_lon": 0.0}, {"rental_uris": {"ios": "https://dc.lft.to/lastmile_qr_scan", "android": "https://dc.lft.to/lastmile_qr_scan"}, "type": "electric_bike", "name": "3112859b207f7f1bce3ee5082352bc33", "is_reserved": 0, "lon": -77.0694905, "is_disabled": 0, "fusion_lat": 0.0, "lat": 38.836340666666665, "bike_id": "3112859b207f7f1bce3ee5082352bc33", "fusion_lon": 0.0}, {"rental_uris": {"ios": "https://dc.lft.to/lastmile_qr_scan", "android": "https://dc.lft.to/lastmile_qr_scan"}, "type": "electric_bike", "name": "8f64ac79c0809ac551f73f292eaeffeb", "is_reserved": 0, "lon": -76.94976166666666, "is_disabled": 0, "fusion_lat": 0.0, "lat": 38.88306016666667, "bike_id": "8f64ac79c0809ac551f73f292eaeffeb", "fusion_lon": 0.0}, {"rental_uris": {"ios": "https://dc.lft.to/lastmile_qr_scan", "android": "https://dc.lft.to/lastmile_qr_scan"}, "type": "electric_scooter", "name": "72b62f0554bb1aab1f85892afd30a741", "is_reserved": 0, "lon": -77.0290475, "is_disabled": 0, "fusion_lat": 0.0, "lat": 38.940417, "bike_id": "72b62f0554bb1aab1f85892afd30a741", "fusion_lon": 0.0}, {"rental_uris": {"ios": "https://dc.lft.to/lastmile_qr_scan", "android": "https://dc.lft.to/lastmile_qr_scan"}, "type": "electric_scooter", "name": "74d792aec52449e67f425dc2801186f3", "is_reserved": 0, "lon": -77.043746, "is_disabled": 0, "fusion_lat": 0.0, "lat": 38.91652633333333, "bike_id": "74d792aec52449e67f425dc2801186f3", "fusion_lon": 0.0}, {"rental_uris": {"ios": "https://dc.lft.to/lastmile_qr_scan", "android": "https://dc.lft.to/lastmile_qr_scan"}, "type": "electric_scooter", "name": "fefa83e9866c30743571064e932f895a", "is_reserved": 0, "lon": -77.09371816666666, "is_disabled": 0, "fusion_lat": 0.0, "lat": 38.884015166666664, "bike_id": "fefa83e9866c30743571064e932f895a", "fusion_lon": 0.0}, {"rental_uris": {"ios": "https://dc.lft.to/lastmile_qr_scan", "android": "https://dc.lft.to/lastmile_qr_scan"}, "type": "electric_scooter", "name": "3370b8051befdfca178cbffc53889840", "is_reserved": 0, "lon": -77.03458616666667, "is_disabled": 0, "fusion_lat": 0.0, "lat": 38.90802383333333, "bike_id": "3370b8051befdfca178cbffc53889840", "fusion_lon": 0.0}, {"rental_uris": {"ios": "https://dc.lft.to/lastmile_qr_scan", "android": "https://dc.lft.to/lastmile_qr_scan"}, "type": "electric_scooter", "name": "9511e3423c087e2e83519dd175bb50bf", "is_reserved": 0, "lon": -77.02889016666667, "is_disabled": 0, "fusion_lat": 0.0, "lat": 38.907196666666664, "bike_id": "9511e3423c087e2e83519dd175bb50bf", "fusion_lon": 0.0}, {"rental_uris": {"ios": "https://dc.lft.to/lastmile_qr_scan", "android": "https://dc.lft.to/lastmile_qr_scan"}, "type": "electric_scooter", "name": "54ec3932149de51298c9e43a2701768f", "is_reserved": 0, "lon": -77.01886983333333, "is_disabled": 0, "fusion_lat": 0.0, "lat": 38.8975285, "bike_id": "54ec3932149de51298c9e43a2701768f", "fusion_lon": 0.0}, {"rental_uris": {"ios": "https://dc.lft.to/lastmile_qr_scan", "android": "https://dc.lft.to/lastmile_qr_scan"}, "type": "electric_scooter", "name": "5cbc98a019263ad766a21952051b81b1", "is_reserved": 0, "lon": -76.99387216666666, "is_disabled": 0, "fusion_lat": 0.0, "lat": 38.910160833333336, "bike_id": "5cbc98a019263ad766a21952051b81b1", "fusion_lon": 0.0}, {"rental_uris": {"ios": "https://dc.lft.to/lastmile_qr_scan", "android": "https://dc.lft.to/lastmile_qr_scan"}, "type": "electric_scooter", "name": "3776f1ea38a9de86b062a0ea91a1f68f", "is_reserved": 0, "lon": -76.99624066666667, "is_disabled": 0, "fusion_lat": 0.0, "lat": 38.90449233333333, "bike_id": "3776f1ea38a9de86b062a0ea91a1f68f", "fusion_lon": 0.0}, {"rental_uris": {"ios": "https://dc.lft.to/lastmile_qr_scan", "android": "https://dc.lft.to/lastmile_qr_scan"}, "type": "electric_scooter", "name": "9428c041a4da35610aa12f502f82a6d1", "is_reserved": 0, "lon": -77.05009733333333, "is_disabled": 0, "fusion_lat": 0.0, "lat": 38.897863666666666, "bike_id": "9428c041a4da35610aa12f502f82a6d1", "fusion_lon": 0.0}, {"rental_uris": {"ios": "https://dc.lft.to/lastmile_qr_scan", "android": "https://dc.lft.to/lastmile_qr_scan"}, "type": "electric_scooter", "name": "432bd77a72dd53f0ba8de9e119b431a2", "is_reserved": 0, "lon": -76.98186516666667, "is_disabled": 0, "fusion_lat": 0.0, "lat": 38.905840833333336, "bike_id": "432bd77a72dd53f0ba8de9e119b431a2", "fusion_lon": 0.0}, {"rental_uris": {"ios": "https://dc.lft.to/lastmile_qr_scan", "android": "https://dc.lft.to/lastmile_qr_scan"}, "type": "electric_scooter", "name": "483d1aa914c4deb0548f767654b05891", "is_reserved": 0, "lon": -77.0396665, "is_disabled": 0, "fusion_lat": 0.0, "lat": 38.91354583333333, "bike_id": "483d1aa914c4deb0548f767654b05891", "fusion_lon": 0.0}, {"rental_uris": {"ios": "https://dc.lft.to/lastmile_qr_scan", "android": "https://dc.lft.to/lastmile_qr_scan"}, "type": "electric_scooter", "name": "e560a6ab8eb3d4c5eb74c5a857b66798", "is_reserved": 0, "lon": -77.024079, "is_disabled": 0, "fusion_lat": 0.0, "lat": 38.92760333333333, "bike_id": "e560a6ab8eb3d4c5eb74c5a857b66798", "fusion_lon": 0.0}, {"rental_uris": {"ios": "https://dc.lft.to/lastmile_qr_scan", "android": "https://dc.lft.to/lastmile_qr_scan"}, "type": "electric_scooter", "name": "b34a0672266c1368ab8d6f5a756dbf71", "is_reserved": 0, "lon": -77.01993083333333, "is_disabled": 0, "fusion_lat": 0.0, "lat": 38.930551, "bike_id": "b34a0672266c1368ab8d6f5a756dbf71", "fusion_lon": 0.0}, {"rental_uris": {"ios": "https://dc.lft.to/lastmile_qr_scan", "android": "https://dc.lft.to/lastmile_qr_scan"}, "type": "electric_scooter", "name": "58d0fb31bed417728181f026a423e276", "is_reserved": 0, "lon": -77.039959, "is_disabled": 0, "fusion_lat": 0.0, "lat": 38.914192166666666, "bike_id": "58d0fb31bed417728181f026a423e276", "fusion_lon": 0.0}, {"rental_uris": {"ios": "https://dc.lft.to/lastmile_qr_scan", "android": "https://dc.lft.to/lastmile_qr_scan"}, "type": "electric_bike", "name": "7de7186ffc187d281a8da65a6939afdf", "is_reserved": 0, "lon": -76.95061666666666, "is_disabled": 0, "fusion_lat": 0.0, "lat": 39.08510966666667, "bike_id": "7de7186ffc187d281a8da65a6939afdf", "fusion_lon": 0.0}, {"rental_uris": {"ios": "https://dc.lft.to/lastmile_qr_scan", "android": "https://dc.lft.to/lastmile_qr_scan"}, "type": "electric_scooter", "name": "808325a8103dcfda2d5a548056c7aa05", "is_reserved": 0, "lon": -77.03134016666667, "is_disabled": 0, "fusion_lat": 0.0, "lat": 38.92377466666667, "bike_id": "808325a8103dcfda2d5a548056c7aa05", "fusion_lon": 0.0}, {"rental_uris": {"ios": "https://dc.lft.to/lastmile_qr_scan", "android": "https://dc.lft.to/lastmile_qr_scan"}, "type": "electric_scooter", "name": "79977e9a9daa7e44f709372f8afa2ef3", "is_reserved": 0, "lon": -77.02401266666666, "is_disabled": 0, "fusion_lat": 0.0, "lat": 38.91716516666666, "bike_id": "79977e9a9daa7e44f709372f8afa2ef3", "fusion_lon": 0.0}, {"rental_uris": {"ios": "https://dc.lft.to/lastmile_qr_scan", "android": "https://dc.lft.to/lastmile_qr_scan"}, "type": "electric_scooter", "name": "9d5993a5fd346bfc15f2c94c7e20f2df", "is_reserved": 0, "lon": -77.07404383333333, "is_disabled": 0, "fusion_lat": 0.0, "lat": 38.937483, "bike_id": "9d5993a5fd346bfc15f2c94c7e20f2df", "fusion_lon": 0.0}, {"rental_uris": {"ios": "https://dc.lft.to/lastmile_qr_scan", "android": "https://dc.lft.to/lastmile_qr_scan"}, "type": "electric_scooter", "name": "a9d4fd669ed99c3e0e45d014a088da41", "is_reserved": 0, "lon": -77.02357266666667, "is_disabled": 0, "fusion_lat": 0.0, "lat": 38.945243166666664, "bike_id": "a9d4fd669ed99c3e0e45d014a088da41", "fusion_lon": 0.0}, {"rental_uris": {"ios": "https://dc.lft.to/lastmile_qr_scan", "android": "https://dc.lft.to/lastmile_qr_scan"}, "type": "electric_scooter", "name": "ad6857c82a0ef8059b1926d6448fff1c", "is_reserved": 0, "lon": -77.00276433333333, "is_disabled": 0, "fusion_lat": 0.0, "lat": 38.8877035, "bike_id": "ad6857c82a0ef8059b1926d6448fff1c", "fusion_lon": 0.0}, {"rental_uris": {"ios": "https://dc.lft.to/lastmile_qr_scan", "android": "https://dc.lft.to/lastmile_qr_scan"}, "type": "electric_scooter", "name": "50411bff3c6aec4852ab6e9e5e00f5f1", "is_reserved": 0, "lon": -77.034449, "is_disabled": 0, "fusion_lat": 0.0, "lat": 38.90737683333333, "bike_id": "50411bff3c6aec4852ab6e9e5e00f5f1", "fusion_lon": 0.0}, {"rental_uris": {"ios": "https://dc.lft.to/lastmile_qr_scan", "android": "https://dc.lft.to/lastmile_qr_scan"}, "type": "electric_scooter", "name": "0a109584bae841af469fe3bbf8c61e88", "is_reserved": 0, "lon": -77.03374383333333, "is_disabled": 0, "fusion_lat": 0.0, "lat": 38.93869, "bike_id": "0a109584bae841af469fe3bbf8c61e88", "fusion_lon": 0.0}, {"rental_uris": {"ios": "https://dc.lft.to/lastmile_qr_scan", "android": "https://dc.lft.to/lastmile_qr_scan"}, "type": "electric_scooter", "name": "b1aab638475f2ea381fc52f1fe8eb48b", "is_reserved": 0, "lon": -77.04477, "is_disabled": 0, "fusion_lat": 0.0, "lat": 38.91602566666667, "bike_id": "b1aab638475f2ea381fc52f1fe8eb48b", "fusion_lon": 0.0}, {"rental_uris": {"ios": "https://dc.lft.to/lastmile_qr_scan", "android": "https://dc.lft.to/lastmile_qr_scan"}, "type": "electric_bike", "name": "e385a16ecf4b78524192cc90cb7249d5", "is_reserved": 0, "lon": -77.10077916666667, "is_disabled": 0, "fusion_lat": 0.0, "lat": 38.8573745, "bike_id": "e385a16ecf4b78524192cc90cb7249d5", "fusion_lon": 0.0}, {"rental_uris": {"ios": "https://dc.lft.to/lastmile_qr_scan", "android": "https://dc.lft.to/lastmile_qr_scan"}, "type": "electric_scooter", "name": "08695d0dcedb70952df02a074d58561d", "is_reserved": 0, "lon": -76.98536983333334, "is_disabled": 0, "fusion_lat": 0.0, "lat": 38.85858833333333, "bike_id": "08695d0dcedb70952df02a074d58561d", "fusion_lon": 0.0}, {"rental_uris": {"ios": "https://dc.lft.to/lastmile_qr_scan", "android": "https://dc.lft.to/lastmile_qr_scan"}, "type": "electric_scooter", "name": "00985f065f16c35e30721fe7c5d3c74b", "is_reserved": 0, "lon": -77.02287916666667, "is_disabled": 0, "fusion_lat": 0.0, "lat": 38.89856566666667, "bike_id": "00985f065f16c35e30721fe7c5d3c74b", "fusion_lon": 0.0}, {"rental_uris": {"ios": "https://dc.lft.to/lastmile_qr_scan", "android": "https://dc.lft.to/lastmile_qr_scan"}, "type": "electric_scooter", "name": "d798e950d0150c75484e09384d14bc88", "is_reserved": 0, "lon": -77.03152033333333, "is_disabled": 0, "fusion_lat": 0.0, "lat": 38.905911833333334, "bike_id": "d798e950d0150c75484e09384d14bc88", "fusion_lon": 0.0}, {"rental_uris": {"ios": "https://dc.lft.to/lastmile_qr_scan", "android": "https://dc.lft.to/lastmile_qr_scan"}, "type": "electric_scooter", "name": "5534281e1b3cf8077951cf13af6ae63d", "is_reserved": 0, "lon": -77.04536883333333, "is_disabled": 0, "fusion_lat": 0.0, "lat": 38.911139, "bike_id": "5534281e1b3cf8077951cf13af6ae63d", "fusion_lon": 0.0}, {"rental_uris": {"ios": "https://dc.lft.to/lastmile_qr_scan", "android": "https://dc.lft.to/lastmile_qr_scan"}, "type": "electric_scooter", "name": "04db7bdcb91d918b03c953c44aacab71", "is_reserved": 0, "lon": -77.00357466666667, "is_disabled": 0, "fusion_lat": 0.0, "lat": 38.8767795, "bike_id": "04db7bdcb91d918b03c953c44aacab71", "fusion_lon": 0.0}, {"rental_uris": {"ios": "https://dc.lft.to/lastmile_qr_scan", "android": "https://dc.lft.to/lastmile_qr_scan"}, "type": "electric_scooter", "name": "3d8046d9c5ad2af9f4d852c7d21114e5", "is_reserved": 0, "lon": -77.03189183333333, "is_disabled": 0, "fusion_lat": 0.0, "lat": 38.92923, "bike_id": "3d8046d9c5ad2af9f4d852c7d21114e5", "fusion_lon": 0.0}, {"rental_uris": {"ios": "https://dc.lft.to/lastmile_qr_scan", "android": "https://dc.lft.to/lastmile_qr_scan"}, "type": "electric_scooter", "name": "62028d0d6f1604ac2c9b1abd1f16edd1", "is_reserved": 0, "lon": -77.00220883333333, "is_disabled": 0, "fusion_lat": 0.0, "lat": 38.89456366666667, "bike_id": "62028d0d6f1604ac2c9b1abd1f16edd1", "fusion_lon": 0.0}, {"rental_uris": {"ios": "https://dc.lft.to/lastmile_qr_scan", "android": "https://dc.lft.to/lastmile_qr_scan"}, "type": "electric_scooter", "name": "d8642d5573f46c0111d48e8d58ece2ac", "is_reserved": 0, "lon": -77.0333505, "is_disabled": 0, "fusion_lat": 0.0, "lat": 38.919193, "bike_id": "d8642d5573f46c0111d48e8d58ece2ac", "fusion_lon": 0.0}, {"rental_uris": {"ios": "https://dc.lft.to/lastmile_qr_scan", "android": "https://dc.lft.to/lastmile_qr_scan"}, "type": "electric_scooter", "name": "0c93f164b5c7baff66cd7eeb79ecd2da", "is_reserved": 0, "lon": -77.02111866666667, "is_disabled": 0, "fusion_lat": 0.0, "lat": 38.926893166666666, "bike_id": "0c93f164b5c7baff66cd7eeb79ecd2da", "fusion_lon": 0.0}, {"rental_uris": {"ios": "https://dc.lft.to/lastmile_qr_scan", "android": "https://dc.lft.to/lastmile_qr_scan"}, "type": "electric_scooter", "name": "2e69163170dc680b5c4ed0c8e04ef0ba", "is_reserved": 0, "lon": -77.02967933333333, "is_disabled": 0, "fusion_lat": 0.0, "lat": 38.90415483333334, "bike_id": "2e69163170dc680b5c4ed0c8e04ef0ba", "fusion_lon": 0.0}, {"rental_uris": {"ios": "https://dc.lft.to/lastmile_qr_scan", "android": "https://dc.lft.to/lastmile_qr_scan"}, "type": "electric_scooter", "name": "e4063ca7b1bcbbe17b30fc2662c0341f", "is_reserved": 0, "lon": -77.034459, "is_disabled": 0, "fusion_lat": 0.0, "lat": 38.91798383333333, "bike_id": "e4063ca7b1bcbbe17b30fc2662c0341f", "fusion_lon": 0.0}, {"rental_uris": {"ios": "https://dc.lft.to/lastmile_qr_scan", "android": "https://dc.lft.to/lastmile_qr_scan"}, "type": "electric_scooter", "name": "d2ccac56206a19ee617bf5db984e5a3f", "is_reserved": 0, "lon": -76.985481, "is_disabled": 0, "fusion_lat": 0.0, "lat": 38.9129315, "bike_id": "d2ccac56206a19ee617bf5db984e5a3f", "fusion_lon": 0.0}, {"rental_uris": {"ios": "https://dc.lft.to/lastmile_qr_scan", "android": "https://dc.lft.to/lastmile_qr_scan"}, "type": "electric_scooter", "name": "d6f1a70a719ad6649b2262285e13fad7", "is_reserved": 0, "lon": -77.06286933333334, "is_disabled": 0, "fusion_lat": 0.0, "lat": 38.91247933333333, "bike_id": "d6f1a70a719ad6649b2262285e13fad7", "fusion_lon": 0.0}, {"rental_uris": {"ios": "https://dc.lft.to/lastmile_qr_scan", "android": "https://dc.lft.to/lastmile_qr_scan"}, "type": "electric_scooter", "name": "078435c6fa96631544974846d03d3474", "is_reserved": 0, "lon": -77.02608, "is_disabled": 0, "fusion_lat": 0.0, "lat": 38.9241795, "bike_id": "078435c6fa96631544974846d03d3474", "fusion_lon": 0.0}, {"rental_uris": {"ios": "https://dc.lft.to/lastmile_qr_scan", "android": "https://dc.lft.to/lastmile_qr_scan"}, "type": "electric_scooter", "name": "2a27380228d4384b4074eb5d34a12d0c", "is_reserved": 0, "lon": -77.0337175, "is_disabled": 0, "fusion_lat": 0.0, "lat": 38.91112183333333, "bike_id": "2a27380228d4384b4074eb5d34a12d0c", "fusion_lon": 0.0}, {"rental_uris": {"ios": "https://dc.lft.to/lastmile_qr_scan", "android": "https://dc.lft.to/lastmile_qr_scan"}, "type": "electric_scooter", "name": "aa6ed2ef118646768e92bb967c04177d", "is_reserved": 0, "lon": -77.02819716666667, "is_disabled": 0, "fusion_lat": 0.0, "lat": 38.899354333333335, "bike_id": "aa6ed2ef118646768e92bb967c04177d", "fusion_lon": 0.0}, {"rental_uris": {"ios": "https://dc.lft.to/lastmile_qr_scan", "android": "https://dc.lft.to/lastmile_qr_scan"}, "type": "electric_scooter", "name": "4ce7dc666603a526f88f09e0cedbb365", "is_reserved": 0, "lon": -77.04520516666666, "is_disabled": 0, "fusion_lat": 0.0, "lat": 38.92322683333333, "bike_id": "4ce7dc666603a526f88f09e0cedbb365", "fusion_lon": 0.0}, {"rental_uris": {"ios": "https://dc.lft.to/lastmile_qr_scan", "android": "https://dc.lft.to/lastmile_qr_scan"}, "type": "electric_scooter", "name": "b16b4bd6cb37a6f1e843b21caba6b7ea", "is_reserved": 0, "lon": -77.038685, "is_disabled": 0, "fusion_lat": 0.0, "lat": 38.921549166666665, "bike_id": "b16b4bd6cb37a6f1e843b21caba6b7ea", "fusion_lon": 0.0}, {"rental_uris": {"ios": "https://dc.lft.to/lastmile_qr_scan", "android": "https://dc.lft.to/lastmile_qr_scan"}, "type": "electric_scooter", "name": "a3966065c5c50e493d6ef996737e6b43", "is_reserved": 0, "lon": -77.0290865, "is_disabled": 0, "fusion_lat": 0.0, "lat": 38.952970666666666, "bike_id": "a3966065c5c50e493d6ef996737e6b43", "fusion_lon": 0.0}, {"rental_uris": {"ios": "https://dc.lft.to/lastmile_qr_scan", "android": "https://dc.lft.to/lastmile_qr_scan"}, "type": "electric_scooter", "name": "e132cbacf74952a515a838ccc6f84523", "is_reserved": 0, "lon": -76.99707016666666, "is_disabled": 0, "fusion_lat": 0.0, "lat": 38.887674, "bike_id": "e132cbacf74952a515a838ccc6f84523", "fusion_lon": 0.0}, {"rental_uris": {"ios": "https://dc.lft.to/lastmile_qr_scan", "android": "https://dc.lft.to/lastmile_qr_scan"}, "type": "electric_scooter", "name": "48294ce83cd9438a4b9fc10eae4f326d", "is_reserved": 0, "lon": -77.07486316666666, "is_disabled": 0, "fusion_lat": 0.0, "lat": 38.96217433333333, "bike_id": "48294ce83cd9438a4b9fc10eae4f326d", "fusion_lon": 0.0}, {"rental_uris": {"ios": "https://dc.lft.to/lastmile_qr_scan", "android": "https://dc.lft.to/lastmile_qr_scan"}, "type": "electric_scooter", "name": "d819c8feefa244b4a5b4a9fe383067b8", "is_reserved": 0, "lon": -77.03630516666666, "is_disabled": 0, "fusion_lat": 0.0, "lat": 38.903699333333336, "bike_id": "d819c8feefa244b4a5b4a9fe383067b8", "fusion_lon": 0.0}, {"rental_uris": {"ios": "https://dc.lft.to/lastmile_qr_scan", "android": "https://dc.lft.to/lastmile_qr_scan"}, "type": "electric_scooter", "name": "45b1a1ccc7a6d3bc22642df82a03e7e7", "is_reserved": 0, "lon": -77.0199225, "is_disabled": 0, "fusion_lat": 0.0, "lat": 38.899801, "bike_id": "45b1a1ccc7a6d3bc22642df82a03e7e7", "fusion_lon": 0.0}, {"rental_uris": {"ios": "https://dc.lft.to/lastmile_qr_scan", "android": "https://dc.lft.to/lastmile_qr_scan"}, "type": "electric_scooter", "name": "1684c0008dce22661fb6e145a739f928", "is_reserved": 0, "lon": -77.03821016666667, "is_disabled": 0, "fusion_lat": 0.0, "lat": 38.9255875, "bike_id": "1684c0008dce22661fb6e145a739f928", "fusion_lon": 0.0}, {"rental_uris": {"ios": "https://dc.lft.to/lastmile_qr_scan", "android": "https://dc.lft.to/lastmile_qr_scan"}, "type": "electric_scooter", "name": "42e3f480f7fbdd30f8d41463f2ac6fd2", "is_reserved": 0, "lon": -77.02607416666666, "is_disabled": 0, "fusion_lat": 0.0, "lat": 38.90811933333333, "bike_id": "42e3f480f7fbdd30f8d41463f2ac6fd2", "fusion_lon": 0.0}, {"rental_uris": {"ios": "https://dc.lft.to/lastmile_qr_scan", "android": "https://dc.lft.to/lastmile_qr_scan"}, "type": "electric_scooter", "name": "7196e5e1d776faca689de98909956838", "is_reserved": 0, "lon": -77.03638016666666, "is_disabled": 0, "fusion_lat": 0.0, "lat": 38.91852633333333, "bike_id": "7196e5e1d776faca689de98909956838", "fusion_lon": 0.0}, {"rental_uris": {"ios": "https://dc.lft.to/lastmile_qr_scan", "android": "https://dc.lft.to/lastmile_qr_scan"}, "type": "electric_scooter", "name": "e9a98677d7a307838b71ec90b9c08682", "is_reserved": 0, "lon": -77.0345925, "is_disabled": 0, "fusion_lat": 0.0, "lat": 38.908363333333334, "bike_id": "e9a98677d7a307838b71ec90b9c08682", "fusion_lon": 0.0}, {"rental_uris": {"ios": "https://dc.lft.to/lastmile_qr_scan", "android": "https://dc.lft.to/lastmile_qr_scan"}, "type": "electric_scooter", "name": "1600b63fe49ffbc31621ddcbbcce4dbb", "is_reserved": 0, "lon": -77.034636, "is_disabled": 0, "fusion_lat": 0.0, "lat": 38.90927, "bike_id": "1600b63fe49ffbc31621ddcbbcce4dbb", "fusion_lon": 0.0}, {"rental_uris": {"ios": "https://dc.lft.to/lastmile_qr_scan", "android": "https://dc.lft.to/lastmile_qr_scan"}, "type": "electric_bike", "name": "c2624beb37ce6150b5979aa28f22b703", "is_reserved": 0, "lon": -77.010947, "is_disabled": 0, "fusion_lat": 0.0, "lat": 38.87307033333333, "bike_id": "c2624beb37ce6150b5979aa28f22b703", "fusion_lon": 0.0}, {"rental_uris": {"ios": "https://dc.lft.to/lastmile_qr_scan", "android": "https://dc.lft.to/lastmile_qr_scan"}, "type": "electric_scooter", "name": "aa03552289c2e8a4c2214b3cccef1b68", "is_reserved": 0, "lon": -77.0745395, "is_disabled": 0, "fusion_lat": 0.0, "lat": 38.93785233333333, "bike_id": "aa03552289c2e8a4c2214b3cccef1b68", "fusion_lon": 0.0}, {"rental_uris": {"ios": "https://dc.lft.to/lastmile_qr_scan", "android": "https://dc.lft.to/lastmile_qr_scan"}, "type": "electric_scooter", "name": "0b9e7c1a4b76376650fe489c9bad0df9", "is_reserved": 0, "lon": -77.01576366666667, "is_disabled": 0, "fusion_lat": 0.0, "lat": 38.8764655, "bike_id": "0b9e7c1a4b76376650fe489c9bad0df9", "fusion_lon": 0.0}, {"rental_uris": {"ios": "https://dc.lft.to/lastmile_qr_scan", "android": "https://dc.lft.to/lastmile_qr_scan"}, "type": "electric_bike", "name": "d28f180d5c8d1a95f5a340bd97d73633", "is_reserved": 0, "lon": -77.06415033333333, "is_disabled": 0, "fusion_lat": 0.0, "lat": 38.906357166666666, "bike_id": "d28f180d5c8d1a95f5a340bd97d73633", "fusion_lon": 0.0}, {"rental_uris": {"ios": "https://dc.lft.to/lastmile_qr_scan", "android": "https://dc.lft.to/lastmile_qr_scan"}, "type": "electric_scooter", "name": "ed201e773ac3473cec69edd4b6f8755f", "is_reserved": 0, "lon": -77.043421, "is_disabled": 0, "fusion_lat": 0.0, "lat": 38.91375583333333, "bike_id": "ed201e773ac3473cec69edd4b6f8755f", "fusion_lon": 0.0}, {"rental_uris": {"ios": "https://dc.lft.to/lastmile_qr_scan", "android": "https://dc.lft.to/lastmile_qr_scan"}, "type": "electric_scooter", "name": "acbf4bce6e7d86a7ccecb7f37a7c40f3", "is_reserved": 0, "lon": -77.0190345, "is_disabled": 0, "fusion_lat": 0.0, "lat": 38.903720666666665, "bike_id": "acbf4bce6e7d86a7ccecb7f37a7c40f3", "fusion_lon": 0.0}, {"rental_uris": {"ios": "https://dc.lft.to/lastmile_qr_scan", "android": "https://dc.lft.to/lastmile_qr_scan"}, "type": "electric_scooter", "name": "406f67bcce01b0f85808cb1b5f548cb0", "is_reserved": 0, "lon": -77.0400985, "is_disabled": 0, "fusion_lat": 0.0, "lat": 38.888679833333335, "bike_id": "406f67bcce01b0f85808cb1b5f548cb0", "fusion_lon": 0.0}, {"rental_uris": {"ios": "https://dc.lft.to/lastmile_qr_scan", "android": "https://dc.lft.to/lastmile_qr_scan"}, "type": "electric_scooter", "name": "10f9e2e8ae0e7ab2c192b57532b4cdad", "is_reserved": 0, "lon": -77.025802, "is_disabled": 0, "fusion_lat": 0.0, "lat": 38.88497733333333, "bike_id": "10f9e2e8ae0e7ab2c192b57532b4cdad", "fusion_lon": 0.0}, {"rental_uris": {"ios": "https://dc.lft.to/lastmile_qr_scan", "android": "https://dc.lft.to/lastmile_qr_scan"}, "type": "electric_scooter", "name": "5faa791551793c1d2187b172c16d9aa4", "is_reserved": 0, "lon": -77.04530733333333, "is_disabled": 0, "fusion_lat": 0.0, "lat": 38.911085166666666, "bike_id": "5faa791551793c1d2187b172c16d9aa4", "fusion_lon": 0.0}, {"rental_uris": {"ios": "https://dc.lft.to/lastmile_qr_scan", "android": "https://dc.lft.to/lastmile_qr_scan"}, "type": "electric_scooter", "name": "9a7c372a8769633a9ab239a0ee194a8a", "is_reserved": 0, "lon": -77.08339616666666, "is_disabled": 0, "fusion_lat": 0.0, "lat": 38.8942275, "bike_id": "9a7c372a8769633a9ab239a0ee194a8a", "fusion_lon": 0.0}, {"rental_uris": {"ios": "https://dc.lft.to/lastmile_qr_scan", "android": "https://dc.lft.to/lastmile_qr_scan"}, "type": "electric_scooter", "name": "f2abdad621f187db73a11c84ed44c5b0", "is_reserved": 0, "lon": -77.03342516666666, "is_disabled": 0, "fusion_lat": 0.0, "lat": 38.90271633333333, "bike_id": "f2abdad621f187db73a11c84ed44c5b0", "fusion_lon": 0.0}, {"rental_uris": {"ios": "https://dc.lft.to/lastmile_qr_scan", "android": "https://dc.lft.to/lastmile_qr_scan"}, "type": "electric_scooter", "name": "a84e9964d61222beeb8e6cdca85fa760", "is_reserved": 0, "lon": -77.0181855, "is_disabled": 0, "fusion_lat": 0.0, "lat": 38.922251333333335, "bike_id": "a84e9964d61222beeb8e6cdca85fa760", "fusion_lon": 0.0}, {"rental_uris": {"ios": "https://dc.lft.to/lastmile_qr_scan", "android": "https://dc.lft.to/lastmile_qr_scan"}, "type": "electric_scooter", "name": "458f07a14639d736a525f9e47c7b3b55", "is_reserved": 0, "lon": -76.99769733333333, "is_disabled": 0, "fusion_lat": 0.0, "lat": 38.92286583333333, "bike_id": "458f07a14639d736a525f9e47c7b3b55", "fusion_lon": 0.0}, {"rental_uris": {"ios": "https://dc.lft.to/lastmile_qr_scan", "android": "https://dc.lft.to/lastmile_qr_scan"}, "type": "electric_scooter", "name": "cb84afaf31b2a3b2bea9eab7348e4cb8", "is_reserved": 0, "lon": -77.01362883333333, "is_disabled": 0, "fusion_lat": 0.0, "lat": 38.91932933333333, "bike_id": "cb84afaf31b2a3b2bea9eab7348e4cb8", "fusion_lon": 0.0}, {"rental_uris": {"ios": "https://dc.lft.to/lastmile_qr_scan", "android": "https://dc.lft.to/lastmile_qr_scan"}, "type": "electric_scooter", "name": "64b4b47bc8dcb294b645b60e46c74113", "is_reserved": 0, "lon": -76.9464075, "is_disabled": 0, "fusion_lat": 0.0, "lat": 38.898667833333334, "bike_id": "64b4b47bc8dcb294b645b60e46c74113", "fusion_lon": 0.0}, {"rental_uris": {"ios": "https://dc.lft.to/lastmile_qr_scan", "android": "https://dc.lft.to/lastmile_qr_scan"}, "type": "electric_scooter", "name": "a76e6856b9907149409c805998a870b8", "is_reserved": 0, "lon": -77.01630266666666, "is_disabled": 0, "fusion_lat": 0.0, "lat": 38.90370266666667, "bike_id": "a76e6856b9907149409c805998a870b8", "fusion_lon": 0.0}, {"rental_uris": {"ios": "https://dc.lft.to/lastmile_qr_scan", "android": "https://dc.lft.to/lastmile_qr_scan"}, "type": "electric_scooter", "name": "9b297081028769a72403ec64ead75d1b", "is_reserved": 0, "lon": -77.0418945, "is_disabled": 0, "fusion_lat": 0.0, "lat": 38.91854516666667, "bike_id": "9b297081028769a72403ec64ead75d1b", "fusion_lon": 0.0}, {"rental_uris": {"ios": "https://dc.lft.to/lastmile_qr_scan", "android": "https://dc.lft.to/lastmile_qr_scan"}, "type": "electric_scooter", "name": "4e63e3337432436f691c8ebf7d3b00d1", "is_reserved": 0, "lon": -77.0265825, "is_disabled": 0, "fusion_lat": 0.0, "lat": 38.93099266666667, "bike_id": "4e63e3337432436f691c8ebf7d3b00d1", "fusion_lon": 0.0}, {"rental_uris": {"ios": "https://dc.lft.to/lastmile_qr_scan", "android": "https://dc.lft.to/lastmile_qr_scan"}, "type": "electric_bike", "name": "186c98a9c0b3567a2f3bf35eef3c0642", "is_reserved": 0, "lon": -77.02460516666666, "is_disabled": 0, "fusion_lat": 0.0, "lat": 38.933015833333336, "bike_id": "186c98a9c0b3567a2f3bf35eef3c0642", "fusion_lon": 0.0}, {"rental_uris": {"ios": "https://dc.lft.to/lastmile_qr_scan", "android": "https://dc.lft.to/lastmile_qr_scan"}, "type": "electric_scooter", "name": "b6ee247e2abcc35e99e78565661c56eb", "is_reserved": 0, "lon": -77.03200916666667, "is_disabled": 0, "fusion_lat": 0.0, "lat": 38.92190183333334, "bike_id": "b6ee247e2abcc35e99e78565661c56eb", "fusion_lon": 0.0}, {"rental_uris": {"ios": "https://dc.lft.to/lastmile_qr_scan", "android": "https://dc.lft.to/lastmile_qr_scan"}, "type": "electric_scooter", "name": "8382ae1719b361a40336548891206324", "is_reserved": 0, "lon": -77.02007683333333, "is_disabled": 0, "fusion_lat": 0.0, "lat": 38.92810083333333, "bike_id": "8382ae1719b361a40336548891206324", "fusion_lon": 0.0}, {"rental_uris": {"ios": "https://dc.lft.to/lastmile_qr_scan", "android": "https://dc.lft.to/lastmile_qr_scan"}, "type": "electric_bike", "name": "ba53c29e3d0d77c018900c3a3fe966c0", "is_reserved": 0, "lon": -76.97930483333333, "is_disabled": 0, "fusion_lat": 0.0, "lat": 38.920064333333336, "bike_id": "ba53c29e3d0d77c018900c3a3fe966c0", "fusion_lon": 0.0}, {"rental_uris": {"ios": "https://dc.lft.to/lastmile_qr_scan", "android": "https://dc.lft.to/lastmile_qr_scan"}, "type": "electric_bike", "name": "9fc8b20c044fd283cf283b6c92a8b883", "is_reserved": 0, "lon": -77.23177866666667, "is_disabled": 0, "fusion_lat": 0.0, "lat": 38.9289685, "bike_id": "9fc8b20c044fd283cf283b6c92a8b883", "fusion_lon": 0.0}, {"rental_uris": {"ios": "https://dc.lft.to/lastmile_qr_scan", "android": "https://dc.lft.to/lastmile_qr_scan"}, "type": "electric_scooter", "name": "07fd175fc30e56d8ffeda5b37f9cf533", "is_reserved": 0, "lon": -77.0057085, "is_disabled": 0, "fusion_lat": 0.0, "lat": 38.876638166666666, "bike_id": "07fd175fc30e56d8ffeda5b37f9cf533", "fusion_lon": 0.0}, {"rental_uris": {"ios": "https://dc.lft.to/lastmile_qr_scan", "android": "https://dc.lft.to/lastmile_qr_scan"}, "type": "electric_scooter", "name": "8aa7a47edf0289c6c1235cafdb9dfc13", "is_reserved": 0, "lon": -77.01500116666666, "is_disabled": 0, "fusion_lat": 0.0, "lat": 38.90656533333333, "bike_id": "8aa7a47edf0289c6c1235cafdb9dfc13", "fusion_lon": 0.0}, {"rental_uris": {"ios": "https://dc.lft.to/lastmile_qr_scan", "android": "https://dc.lft.to/lastmile_qr_scan"}, "type": "electric_scooter", "name": "4e9b1be93693681b53e9f98658e760bd", "is_reserved": 0, "lon": -77.034171, "is_disabled": 0, "fusion_lat": 0.0, "lat": 38.901340833333336, "bike_id": "4e9b1be93693681b53e9f98658e760bd", "fusion_lon": 0.0}, {"rental_uris": {"ios": "https://dc.lft.to/lastmile_qr_scan", "android": "https://dc.lft.to/lastmile_qr_scan"}, "type": "electric_scooter", "name": "50c0b7338d2ce4ad450135ee174acf78", "is_reserved": 0, "lon": -76.9230535, "is_disabled": 0, "fusion_lat": 0.0, "lat": 38.89388833333334, "bike_id": "50c0b7338d2ce4ad450135ee174acf78", "fusion_lon": 0.0}, {"rental_uris": {"ios": "https://dc.lft.to/lastmile_qr_scan", "android": "https://dc.lft.to/lastmile_qr_scan"}, "type": "electric_scooter", "name": "033c871e138edea1fd773ea33f88f241", "is_reserved": 0, "lon": -77.02575466666667, "is_disabled": 0, "fusion_lat": 0.0, "lat": 38.94851466666667, "bike_id": "033c871e138edea1fd773ea33f88f241", "fusion_lon": 0.0}, {"rental_uris": {"ios": "https://dc.lft.to/lastmile_qr_scan", "android": "https://dc.lft.to/lastmile_qr_scan"}, "type": "electric_bike", "name": "108c6aec2f2259a1d507ef354f02faa8", "is_reserved": 0, "lon": -77.10292333333334, "is_disabled": 0, "fusion_lat": 0.0, "lat": 38.85251433333333, "bike_id": "108c6aec2f2259a1d507ef354f02faa8", "fusion_lon": 0.0}, {"rental_uris": {"ios": "https://dc.lft.to/lastmile_qr_scan", "android": "https://dc.lft.to/lastmile_qr_scan"}, "type": "electric_scooter", "name": "09ecd47a026cb765175997321af32d14", "is_reserved": 0, "lon": -76.98649783333333, "is_disabled": 0, "fusion_lat": 0.0, "lat": 38.90542666666666, "bike_id": "09ecd47a026cb765175997321af32d14", "fusion_lon": 0.0}, {"rental_uris": {"ios": "https://dc.lft.to/lastmile_qr_scan", "android": "https://dc.lft.to/lastmile_qr_scan"}, "type": "electric_scooter", "name": "e53620822262033e554da3ca9d8664c0", "is_reserved": 0, "lon": -77.01994566666667, "is_disabled": 0, "fusion_lat": 0.0, "lat": 38.9305205, "bike_id": "e53620822262033e554da3ca9d8664c0", "fusion_lon": 0.0}, {"rental_uris": {"ios": "https://dc.lft.to/lastmile_qr_scan", "android": "https://dc.lft.to/lastmile_qr_scan"}, "type": "electric_scooter", "name": "a0b1680f49ff81ed6a43da9ea7c8ca56", "is_reserved": 0, "lon": -77.055262, "is_disabled": 0, "fusion_lat": 0.0, "lat": 38.907742666666664, "bike_id": "a0b1680f49ff81ed6a43da9ea7c8ca56", "fusion_lon": 0.0}, {"rental_uris": {"ios": "https://dc.lft.to/lastmile_qr_scan", "android": "https://dc.lft.to/lastmile_qr_scan"}, "type": "electric_scooter", "name": "b481a3eac7d996ff6a3a4851c5fde081", "is_reserved": 0, "lon": -76.9292025, "is_disabled": 0, "fusion_lat": 0.0, "lat": 38.88658016666667, "bike_id": "b481a3eac7d996ff6a3a4851c5fde081", "fusion_lon": 0.0}, {"rental_uris": {"ios": "https://dc.lft.to/lastmile_qr_scan", "android": "https://dc.lft.to/lastmile_qr_scan"}, "type": "electric_scooter", "name": "33782eb7047e00537fcc828835a87b59", "is_reserved": 0, "lon": -76.971351, "is_disabled": 0, "fusion_lat": 0.0, "lat": 38.87865816666667, "bike_id": "33782eb7047e00537fcc828835a87b59", "fusion_lon": 0.0}, {"rental_uris": {"ios": "https://dc.lft.to/lastmile_qr_scan", "android": "https://dc.lft.to/lastmile_qr_scan"}, "type": "electric_scooter", "name": "229a39e40786268def1fedfa7f7bfe5d", "is_reserved": 0, "lon": -77.01994683333334, "is_disabled": 0, "fusion_lat": 0.0, "lat": 38.93075133333333, "bike_id": "229a39e40786268def1fedfa7f7bfe5d", "fusion_lon": 0.0}, {"rental_uris": {"ios": "https://dc.lft.to/lastmile_qr_scan", "android": "https://dc.lft.to/lastmile_qr_scan"}, "type": "electric_scooter", "name": "6cdb7953a480451bd48e5ea1fa44efdf", "is_reserved": 0, "lon": -77.07290516666667, "is_disabled": 0, "fusion_lat": 0.0, "lat": 38.914479166666666, "bike_id": "6cdb7953a480451bd48e5ea1fa44efdf", "fusion_lon": 0.0}, {"rental_uris": {"ios": "https://dc.lft.to/lastmile_qr_scan", "android": "https://dc.lft.to/lastmile_qr_scan"}, "type": "electric_scooter", "name": "74d6cf245be5760129b1021f99467713", "is_reserved": 0, "lon": -77.0433765, "is_disabled": 0, "fusion_lat": 0.0, "lat": 38.92240966666667, "bike_id": "74d6cf245be5760129b1021f99467713", "fusion_lon": 0.0}, {"rental_uris": {"ios": "https://dc.lft.to/lastmile_qr_scan", "android": "https://dc.lft.to/lastmile_qr_scan"}, "type": "electric_scooter", "name": "7f840f6578ce73c07a0e98cb7046c22b", "is_reserved": 0, "lon": -77.07085833333333, "is_disabled": 0, "fusion_lat": 0.0, "lat": 38.953233, "bike_id": "7f840f6578ce73c07a0e98cb7046c22b", "fusion_lon": 0.0}, {"rental_uris": {"ios": "https://dc.lft.to/lastmile_qr_scan", "android": "https://dc.lft.to/lastmile_qr_scan"}, "type": "electric_scooter", "name": "bef44ac64f11c42e12c78524f79e4508", "is_reserved": 0, "lon": -77.02442833333333, "is_disabled": 0, "fusion_lat": 0.0, "lat": 38.956395666666666, "bike_id": "bef44ac64f11c42e12c78524f79e4508", "fusion_lon": 0.0}, {"rental_uris": {"ios": "https://dc.lft.to/lastmile_qr_scan", "android": "https://dc.lft.to/lastmile_qr_scan"}, "type": "electric_scooter", "name": "12a57dad35c4bf061f6ddbddddc3bdef", "is_reserved": 0, "lon": -77.04678283333334, "is_disabled": 0, "fusion_lat": 0.0, "lat": 38.89226583333333, "bike_id": "12a57dad35c4bf061f6ddbddddc3bdef", "fusion_lon": 0.0}, {"rental_uris": {"ios": "https://dc.lft.to/lastmile_qr_scan", "android": "https://dc.lft.to/lastmile_qr_scan"}, "type": "electric_scooter", "name": "a52d7a211328397bd897d20f1a4e5589", "is_reserved": 0, "lon": -77.03653933333334, "is_disabled": 0, "fusion_lat": 0.0, "lat": 38.954641333333335, "bike_id": "a52d7a211328397bd897d20f1a4e5589", "fusion_lon": 0.0}, {"rental_uris": {"ios": "https://dc.lft.to/lastmile_qr_scan", "android": "https://dc.lft.to/lastmile_qr_scan"}, "type": "electric_scooter", "name": "b0811b954896aa402ded4e2c80673e97", "is_reserved": 0, "lon": -77.01996083333333, "is_disabled": 0, "fusion_lat": 0.0, "lat": 38.8761125, "bike_id": "b0811b954896aa402ded4e2c80673e97", "fusion_lon": 0.0}, {"rental_uris": {"ios": "https://dc.lft.to/lastmile_qr_scan", "android": "https://dc.lft.to/lastmile_qr_scan"}, "type": "electric_scooter", "name": "1477b3a32d0010f1fec76b7868ba46c8", "is_reserved": 0, "lon": -76.99563216666667, "is_disabled": 0, "fusion_lat": 0.0, "lat": 38.92681133333333, "bike_id": "1477b3a32d0010f1fec76b7868ba46c8", "fusion_lon": 0.0}, {"rental_uris": {"ios": "https://dc.lft.to/lastmile_qr_scan", "android": "https://dc.lft.to/lastmile_qr_scan"}, "type": "electric_scooter", "name": "bf455db1a97d794bd63e1c1f77dcc15c", "is_reserved": 0, "lon": -77.041941, "is_disabled": 0, "fusion_lat": 0.0, "lat": 38.92213266666667, "bike_id": "bf455db1a97d794bd63e1c1f77dcc15c", "fusion_lon": 0.0}, {"rental_uris": {"ios": "https://dc.lft.to/lastmile_qr_scan", "android": "https://dc.lft.to/lastmile_qr_scan"}, "type": "electric_scooter", "name": "18ec7ab17388e8afcf407bd7e29dace0", "is_reserved": 0, "lon": -76.9873495, "is_disabled": 0, "fusion_lat": 0.0, "lat": 38.84228383333333, "bike_id": "18ec7ab17388e8afcf407bd7e29dace0", "fusion_lon": 0.0}, {"rental_uris": {"ios": "https://dc.lft.to/lastmile_qr_scan", "android": "https://dc.lft.to/lastmile_qr_scan"}, "type": "electric_scooter", "name": "11d7c62380c69b163140c539051fd4d4", "is_reserved": 0, "lon": -77.01061416666667, "is_disabled": 0, "fusion_lat": 0.0, "lat": 38.87407816666666, "bike_id": "11d7c62380c69b163140c539051fd4d4", "fusion_lon": 0.0}, {"rental_uris": {"ios": "https://dc.lft.to/lastmile_qr_scan", "android": "https://dc.lft.to/lastmile_qr_scan"}, "type": "electric_scooter", "name": "29b50cf4dc7c6ccd4843a69d09231d00", "is_reserved": 0, "lon": -77.0266725, "is_disabled": 0, "fusion_lat": 0.0, "lat": 38.884927, "bike_id": "29b50cf4dc7c6ccd4843a69d09231d00", "fusion_lon": 0.0}, {"rental_uris": {"ios": "https://dc.lft.to/lastmile_qr_scan", "android": "https://dc.lft.to/lastmile_qr_scan"}, "type": "electric_scooter", "name": "30ef019df6913e29fb6795629e74d2ca", "is_reserved": 0, "lon": -77.02611733333333, "is_disabled": 0, "fusion_lat": 0.0, "lat": 38.916947, "bike_id": "30ef019df6913e29fb6795629e74d2ca", "fusion_lon": 0.0}, {"rental_uris": {"ios": "https://dc.lft.to/lastmile_qr_scan", "android": "https://dc.lft.to/lastmile_qr_scan"}, "type": "electric_scooter", "name": "83842d10030cc6e78d83d580cb9ec4ea", "is_reserved": 0, "lon": -77.04611816666667, "is_disabled": 0, "fusion_lat": 0.0, "lat": 38.905875333333334, "bike_id": "83842d10030cc6e78d83d580cb9ec4ea", "fusion_lon": 0.0}, {"rental_uris": {"ios": "https://dc.lft.to/lastmile_qr_scan", "android": "https://dc.lft.to/lastmile_qr_scan"}, "type": "electric_scooter", "name": "a8b0f0d0753672a8dc208c4c84b7b8a0", "is_reserved": 0, "lon": -77.0256475, "is_disabled": 0, "fusion_lat": 0.0, "lat": 38.938669, "bike_id": "a8b0f0d0753672a8dc208c4c84b7b8a0", "fusion_lon": 0.0}, {"rental_uris": {"ios": "https://dc.lft.to/lastmile_qr_scan", "android": "https://dc.lft.to/lastmile_qr_scan"}, "type": "electric_bike", "name": "dca5bce804097e87ddcda7c4dcf9034c", "is_reserved": 0, "lon": -77.09021233333333, "is_disabled": 0, "fusion_lat": 0.0, "lat": 38.92652566666667, "bike_id": "dca5bce804097e87ddcda7c4dcf9034c", "fusion_lon": 0.0}, {"rental_uris": {"ios": "https://dc.lft.to/lastmile_qr_scan", "android": "https://dc.lft.to/lastmile_qr_scan"}, "type": "electric_bike", "name": "a51ce88658b3775c20fc1c5c6b07be97", "is_reserved": 0, "lon": -76.95701783333334, "is_disabled": 0, "fusion_lat": 0.0, "lat": 38.850941666666664, "bike_id": "a51ce88658b3775c20fc1c5c6b07be97", "fusion_lon": 0.0}, {"rental_uris": {"ios": "https://dc.lft.to/lastmile_qr_scan", "android": "https://dc.lft.to/lastmile_qr_scan"}, "type": "electric_scooter", "name": "dd811cec7a1fec1ad536a3130b35a580", "is_reserved": 0, "lon": -76.9836255, "is_disabled": 0, "fusion_lat": 0.0, "lat": 38.8874195, "bike_id": "dd811cec7a1fec1ad536a3130b35a580", "fusion_lon": 0.0}, {"rental_uris": {"ios": "https://dc.lft.to/lastmile_qr_scan", "android": "https://dc.lft.to/lastmile_qr_scan"}, "type": "electric_scooter", "name": "b53a223ff86eea074f9c2887abced95f", "is_reserved": 0, "lon": -77.00757616666667, "is_disabled": 0, "fusion_lat": 0.0, "lat": 38.925290333333336, "bike_id": "b53a223ff86eea074f9c2887abced95f", "fusion_lon": 0.0}, {"rental_uris": {"ios": "https://dc.lft.to/lastmile_qr_scan", "android": "https://dc.lft.to/lastmile_qr_scan"}, "type": "electric_bike", "name": "680831e3c758ab063a45eeb2f5605994", "is_reserved": 0, "lon": -77.12700366666667, "is_disabled": 0, "fusion_lat": 0.0, "lat": 38.89578783333333, "bike_id": "680831e3c758ab063a45eeb2f5605994", "fusion_lon": 0.0}, {"rental_uris": {"ios": "https://dc.lft.to/lastmile_qr_scan", "android": "https://dc.lft.to/lastmile_qr_scan"}, "type": "electric_scooter", "name": "67e5b7fac086d39c758b65bb789529ed", "is_reserved": 0, "lon": -76.986164, "is_disabled": 0, "fusion_lat": 0.0, "lat": 38.9035245, "bike_id": "67e5b7fac086d39c758b65bb789529ed", "fusion_lon": 0.0}, {"rental_uris": {"ios": "https://dc.lft.to/lastmile_qr_scan", "android": "https://dc.lft.to/lastmile_qr_scan"}, "type": "electric_scooter", "name": "67b5cf67ef6803fdce8e7bc14539bd5b", "is_reserved": 0, "lon": -77.00252583333334, "is_disabled": 0, "fusion_lat": 0.0, "lat": 38.902597166666666, "bike_id": "67b5cf67ef6803fdce8e7bc14539bd5b", "fusion_lon": 0.0}, {"rental_uris": {"ios": "https://dc.lft.to/lastmile_qr_scan", "android": "https://dc.lft.to/lastmile_qr_scan"}, "type": "electric_scooter", "name": "f326a6f222441d14bd4ddaa6def31bdb", "is_reserved": 0, "lon": -77.02089183333334, "is_disabled": 0, "fusion_lat": 0.0, "lat": 38.9291825, "bike_id": "f326a6f222441d14bd4ddaa6def31bdb", "fusion_lon": 0.0}, {"rental_uris": {"ios": "https://dc.lft.to/lastmile_qr_scan", "android": "https://dc.lft.to/lastmile_qr_scan"}, "type": "electric_scooter", "name": "e8f8b19d7757d2df5f5dae027101121f", "is_reserved": 0, "lon": -77.00299783333334, "is_disabled": 0, "fusion_lat": 0.0, "lat": 38.87667166666667, "bike_id": "e8f8b19d7757d2df5f5dae027101121f", "fusion_lon": 0.0}, {"rental_uris": {"ios": "https://dc.lft.to/lastmile_qr_scan", "android": "https://dc.lft.to/lastmile_qr_scan"}, "type": "electric_scooter", "name": "36ae050fb2259a789851fc348b943d65", "is_reserved": 0, "lon": -77.02724183333333, "is_disabled": 0, "fusion_lat": 0.0, "lat": 38.910651666666666, "bike_id": "36ae050fb2259a789851fc348b943d65", "fusion_lon": 0.0}, {"rental_uris": {"ios": "https://dc.lft.to/lastmile_qr_scan", "android": "https://dc.lft.to/lastmile_qr_scan"}, "type": "electric_scooter", "name": "7859ab16ffc59d4d4fc773b3b1c9e9cb", "is_reserved": 0, "lon": -77.0034395, "is_disabled": 0, "fusion_lat": 0.0, "lat": 38.87728033333333, "bike_id": "7859ab16ffc59d4d4fc773b3b1c9e9cb", "fusion_lon": 0.0}, {"rental_uris": {"ios": "https://dc.lft.to/lastmile_qr_scan", "android": "https://dc.lft.to/lastmile_qr_scan"}, "type": "electric_scooter", "name": "f822eeed1133150fee229a515006d09e", "is_reserved": 0, "lon": -77.061319, "is_disabled": 0, "fusion_lat": 0.0, "lat": 38.9037805, "bike_id": "f822eeed1133150fee229a515006d09e", "fusion_lon": 0.0}, {"rental_uris": {"ios": "https://dc.lft.to/lastmile_qr_scan", "android": "https://dc.lft.to/lastmile_qr_scan"}, "type": "electric_scooter", "name": "a2a92547dc61d23bce05c59fbff55f10", "is_reserved": 0, "lon": -77.06111316666667, "is_disabled": 0, "fusion_lat": 0.0, "lat": 38.912876, "bike_id": "a2a92547dc61d23bce05c59fbff55f10", "fusion_lon": 0.0}, {"rental_uris": {"ios": "https://dc.lft.to/lastmile_qr_scan", "android": "https://dc.lft.to/lastmile_qr_scan"}, "type": "electric_scooter", "name": "b57f263c6929e04d33508373010fa4d0", "is_reserved": 0, "lon": -77.0123975, "is_disabled": 0, "fusion_lat": 0.0, "lat": 38.8810705, "bike_id": "b57f263c6929e04d33508373010fa4d0", "fusion_lon": 0.0}, {"rental_uris": {"ios": "https://dc.lft.to/lastmile_qr_scan", "android": "https://dc.lft.to/lastmile_qr_scan"}, "type": "electric_scooter", "name": "fb4541e5ed012855551b0a9b6195b9c1", "is_reserved": 0, "lon": -77.01467133333334, "is_disabled": 0, "fusion_lat": 0.0, "lat": 38.879408833333336, "bike_id": "fb4541e5ed012855551b0a9b6195b9c1", "fusion_lon": 0.0}, {"rental_uris": {"ios": "https://dc.lft.to/lastmile_qr_scan", "android": "https://dc.lft.to/lastmile_qr_scan"}, "type": "electric_scooter", "name": "d3c6e59afa5a0bf770d3c83419520e4b", "is_reserved": 0, "lon": -77.03921683333333, "is_disabled": 0, "fusion_lat": 0.0, "lat": 38.92467166666667, "bike_id": "d3c6e59afa5a0bf770d3c83419520e4b", "fusion_lon": 0.0}, {"rental_uris": {"ios": "https://dc.lft.to/lastmile_qr_scan", "android": "https://dc.lft.to/lastmile_qr_scan"}, "type": "electric_scooter", "name": "773322ba13eaedc3c4f73ac010fc30ce", "is_reserved": 0, "lon": -77.04350516666666, "is_disabled": 0, "fusion_lat": 0.0, "lat": 38.9073595, "bike_id": "773322ba13eaedc3c4f73ac010fc30ce", "fusion_lon": 0.0}, {"rental_uris": {"ios": "https://dc.lft.to/lastmile_qr_scan", "android": "https://dc.lft.to/lastmile_qr_scan"}, "type": "electric_scooter", "name": "d79e8fc4edcd678749c7bf8a3bd233da", "is_reserved": 0, "lon": -77.04492233333333, "is_disabled": 0, "fusion_lat": 0.0, "lat": 38.914523, "bike_id": "d79e8fc4edcd678749c7bf8a3bd233da", "fusion_lon": 0.0}, {"rental_uris": {"ios": "https://dc.lft.to/lastmile_qr_scan", "android": "https://dc.lft.to/lastmile_qr_scan"}, "type": "electric_scooter", "name": "6c7b7b4fe5d1bbfcc024c42bf48b81b6", "is_reserved": 0, "lon": -77.04664633333333, "is_disabled": 0, "fusion_lat": 0.0, "lat": 38.90023266666667, "bike_id": "6c7b7b4fe5d1bbfcc024c42bf48b81b6", "fusion_lon": 0.0}, {"rental_uris": {"ios": "https://dc.lft.to/lastmile_qr_scan", "android": "https://dc.lft.to/lastmile_qr_scan"}, "type": "electric_bike", "name": "6ec247976b4b49f274660f085b70e18b", "is_reserved": 0, "lon": -77.05274366666667, "is_disabled": 0, "fusion_lat": 0.0, "lat": 38.94092666666667, "bike_id": "6ec247976b4b49f274660f085b70e18b", "fusion_lon": 0.0}, {"rental_uris": {"ios": "https://dc.lft.to/lastmile_qr_scan", "android": "https://dc.lft.to/lastmile_qr_scan"}, "type": "electric_scooter", "name": "1305442d2333e4edf0ea49df94cb10ed", "is_reserved": 0, "lon": -77.03276533333333, "is_disabled": 0, "fusion_lat": 0.0, "lat": 38.932583, "bike_id": "1305442d2333e4edf0ea49df94cb10ed", "fusion_lon": 0.0}, {"rental_uris": {"ios": "https://dc.lft.to/lastmile_qr_scan", "android": "https://dc.lft.to/lastmile_qr_scan"}, "type": "electric_scooter", "name": "7228137fa9807365ae7f22aa7de87ee2", "is_reserved": 0, "lon": -77.03138, "is_disabled": 0, "fusion_lat": 0.0, "lat": 38.923775166666665, "bike_id": "7228137fa9807365ae7f22aa7de87ee2", "fusion_lon": 0.0}, {"rental_uris": {"ios": "https://dc.lft.to/lastmile_qr_scan", "android": "https://dc.lft.to/lastmile_qr_scan"}, "type": "electric_bike", "name": "33d2161db77bd1792f2925d8e947b1e6", "is_reserved": 0, "lon": -77.016883, "is_disabled": 0, "fusion_lat": 0.0, "lat": 38.97517066666666, "bike_id": "33d2161db77bd1792f2925d8e947b1e6", "fusion_lon": 0.0}, {"rental_uris": {"ios": "https://dc.lft.to/lastmile_qr_scan", "android": "https://dc.lft.to/lastmile_qr_scan"}, "type": "electric_scooter", "name": "934a885eaee29378d5b4b97bf4e703e8", "is_reserved": 0, "lon": -77.028399, "is_disabled": 0, "fusion_lat": 0.0, "lat": 38.887374666666666, "bike_id": "934a885eaee29378d5b4b97bf4e703e8", "fusion_lon": 0.0}, {"rental_uris": {"ios": "https://dc.lft.to/lastmile_qr_scan", "android": "https://dc.lft.to/lastmile_qr_scan"}, "type": "electric_scooter", "name": "4069d97aaf2c922f7be8d13642795637", "is_reserved": 0, "lon": -77.03957116666666, "is_disabled": 0, "fusion_lat": 0.0, "lat": 38.89829916666667, "bike_id": "4069d97aaf2c922f7be8d13642795637", "fusion_lon": 0.0}, {"rental_uris": {"ios": "https://dc.lft.to/lastmile_qr_scan", "android": "https://dc.lft.to/lastmile_qr_scan"}, "type": "electric_bike", "name": "7c67469c86bcb0e5e2edad47e06aa465", "is_reserved": 0, "lon": -77.0898455, "is_disabled": 0, "fusion_lat": 0.0, "lat": 38.91175333333333, "bike_id": "7c67469c86bcb0e5e2edad47e06aa465", "fusion_lon": 0.0}, {"rental_uris": {"ios": "https://dc.lft.to/lastmile_qr_scan", "android": "https://dc.lft.to/lastmile_qr_scan"}, "type": "electric_scooter", "name": "95ea90ecf354ec975c183858b351f443", "is_reserved": 0, "lon": -77.038586, "is_disabled": 0, "fusion_lat": 0.0, "lat": 38.90768883333333, "bike_id": "95ea90ecf354ec975c183858b351f443", "fusion_lon": 0.0}, {"rental_uris": {"ios": "https://dc.lft.to/lastmile_qr_scan", "android": "https://dc.lft.to/lastmile_qr_scan"}, "type": "electric_scooter", "name": "497fc6e2d494a8746675f50b735b50e6", "is_reserved": 0, "lon": -77.0248945, "is_disabled": 0, "fusion_lat": 0.0, "lat": 38.901735, "bike_id": "497fc6e2d494a8746675f50b735b50e6", "fusion_lon": 0.0}, {"rental_uris": {"ios": "https://dc.lft.to/lastmile_qr_scan", "android": "https://dc.lft.to/lastmile_qr_scan"}, "type": "electric_scooter", "name": "29566bb74e9c7c579b6c4bad2ec24615", "is_reserved": 0, "lon": -77.04379083333333, "is_disabled": 0, "fusion_lat": 0.0, "lat": 38.908277166666664, "bike_id": "29566bb74e9c7c579b6c4bad2ec24615", "fusion_lon": 0.0}, {"rental_uris": {"ios": "https://dc.lft.to/lastmile_qr_scan", "android": "https://dc.lft.to/lastmile_qr_scan"}, "type": "electric_scooter", "name": "140edea67ee2f6805c82f78d7803af1c", "is_reserved": 0, "lon": -77.048012, "is_disabled": 0, "fusion_lat": 0.0, "lat": 38.89222733333333, "bike_id": "140edea67ee2f6805c82f78d7803af1c", "fusion_lon": 0.0}, {"rental_uris": {"ios": "https://dc.lft.to/lastmile_qr_scan", "android": "https://dc.lft.to/lastmile_qr_scan"}, "type": "electric_scooter", "name": "272fb30056ac42dd29f7fea47733c7e6", "is_reserved": 0, "lon": -77.02393883333333, "is_disabled": 0, "fusion_lat": 0.0, "lat": 38.92601066666667, "bike_id": "272fb30056ac42dd29f7fea47733c7e6", "fusion_lon": 0.0}, {"rental_uris": {"ios": "https://dc.lft.to/lastmile_qr_scan", "android": "https://dc.lft.to/lastmile_qr_scan"}, "type": "electric_scooter", "name": "f1329c31a1d96db7a5ab80f847b808f2", "is_reserved": 0, "lon": -77.0199075, "is_disabled": 0, "fusion_lat": 0.0, "lat": 38.93079566666667, "bike_id": "f1329c31a1d96db7a5ab80f847b808f2", "fusion_lon": 0.0}, {"rental_uris": {"ios": "https://dc.lft.to/lastmile_qr_scan", "android": "https://dc.lft.to/lastmile_qr_scan"}, "type": "electric_scooter", "name": "6c8f93efdb0e0222c3d50d2779b95eb1", "is_reserved": 0, "lon": -77.01120466666667, "is_disabled": 0, "fusion_lat": 0.0, "lat": 38.90005433333333, "bike_id": "6c8f93efdb0e0222c3d50d2779b95eb1", "fusion_lon": 0.0}, {"rental_uris": {"ios": "https://dc.lft.to/lastmile_qr_scan", "android": "https://dc.lft.to/lastmile_qr_scan"}, "type": "electric_scooter", "name": "8be45f7332b1d965e4c9663789245d7b", "is_reserved": 0, "lon": -77.02817183333333, "is_disabled": 0, "fusion_lat": 0.0, "lat": 38.90935666666667, "bike_id": "8be45f7332b1d965e4c9663789245d7b", "fusion_lon": 0.0}, {"rental_uris": {"ios": "https://dc.lft.to/lastmile_qr_scan", "android": "https://dc.lft.to/lastmile_qr_scan"}, "type": "electric_scooter", "name": "638e6856b7b801006699ad8b50c5496c", "is_reserved": 0, "lon": -77.027619, "is_disabled": 0, "fusion_lat": 0.0, "lat": 38.904866, "bike_id": "638e6856b7b801006699ad8b50c5496c", "fusion_lon": 0.0}, {"rental_uris": {"ios": "https://dc.lft.to/lastmile_qr_scan", "android": "https://dc.lft.to/lastmile_qr_scan"}, "type": "electric_scooter", "name": "e32da1e524f989e52c1534be9ca76fca", "is_reserved": 0, "lon": -77.078288, "is_disabled": 0, "fusion_lat": 0.0, "lat": 38.922624166666665, "bike_id": "e32da1e524f989e52c1534be9ca76fca", "fusion_lon": 0.0}, {"rental_uris": {"ios": "https://dc.lft.to/lastmile_qr_scan", "android": "https://dc.lft.to/lastmile_qr_scan"}, "type": "electric_scooter", "name": "fbad88a4fb5f0cf046b26bdc97540410", "is_reserved": 0, "lon": -77.026946, "is_disabled": 0, "fusion_lat": 0.0, "lat": 38.90073666666667, "bike_id": "fbad88a4fb5f0cf046b26bdc97540410", "fusion_lon": 0.0}, {"rental_uris": {"ios": "https://dc.lft.to/lastmile_qr_scan", "android": "https://dc.lft.to/lastmile_qr_scan"}, "type": "electric_scooter", "name": "2ece4c88079af41f718cb0a7ef77cc91", "is_reserved": 0, "lon": -77.001474, "is_disabled": 0, "fusion_lat": 0.0, "lat": 38.87505683333333, "bike_id": "2ece4c88079af41f718cb0a7ef77cc91", "fusion_lon": 0.0}, {"rental_uris": {"ios": "https://dc.lft.to/lastmile_qr_scan", "android": "https://dc.lft.to/lastmile_qr_scan"}, "type": "electric_scooter", "name": "bc37a7ccc37ed3016e02cbe91e6c1162", "is_reserved": 0, "lon": -77.011614, "is_disabled": 0, "fusion_lat": 0.0, "lat": 38.9110715, "bike_id": "bc37a7ccc37ed3016e02cbe91e6c1162", "fusion_lon": 0.0}, {"rental_uris": {"ios": "https://dc.lft.to/lastmile_qr_scan", "android": "https://dc.lft.to/lastmile_qr_scan"}, "type": "electric_scooter", "name": "0c74f49a9a447e0ef9365297562bf8fe", "is_reserved": 0, "lon": -77.01198366666667, "is_disabled": 0, "fusion_lat": 0.0, "lat": 38.900213, "bike_id": "0c74f49a9a447e0ef9365297562bf8fe", "fusion_lon": 0.0}, {"rental_uris": {"ios": "https://dc.lft.to/lastmile_qr_scan", "android": "https://dc.lft.to/lastmile_qr_scan"}, "type": "electric_scooter", "name": "401c1a53151cef4a1e528119b1b85677", "is_reserved": 0, "lon": -77.00690933333334, "is_disabled": 0, "fusion_lat": 0.0, "lat": 38.900165666666666, "bike_id": "401c1a53151cef4a1e528119b1b85677", "fusion_lon": 0.0}, {"rental_uris": {"ios": "https://dc.lft.to/lastmile_qr_scan", "android": "https://dc.lft.to/lastmile_qr_scan"}, "type": "electric_scooter", "name": "c7b8211e055f301070eafcf26b5d62cc", "is_reserved": 0, "lon": -76.99492683333334, "is_disabled": 0, "fusion_lat": 0.0, "lat": 38.89974733333333, "bike_id": "c7b8211e055f301070eafcf26b5d62cc", "fusion_lon": 0.0}, {"rental_uris": {"ios": "https://dc.lft.to/lastmile_qr_scan", "android": "https://dc.lft.to/lastmile_qr_scan"}, "type": "electric_scooter", "name": "5e336b3665aeae5c77c0d7d8a0eb54eb", "is_reserved": 0, "lon": -77.03254616666666, "is_disabled": 0, "fusion_lat": 0.0, "lat": 38.90436433333333, "bike_id": "5e336b3665aeae5c77c0d7d8a0eb54eb", "fusion_lon": 0.0}, {"rental_uris": {"ios": "https://dc.lft.to/lastmile_qr_scan", "android": "https://dc.lft.to/lastmile_qr_scan"}, "type": "electric_scooter", "name": "e6722677bd9702ea606f8ab470a6be3a", "is_reserved": 0, "lon": -77.06604633333333, "is_disabled": 0, "fusion_lat": 0.0, "lat": 38.91115816666667, "bike_id": "e6722677bd9702ea606f8ab470a6be3a", "fusion_lon": 0.0}, {"rental_uris": {"ios": "https://dc.lft.to/lastmile_qr_scan", "android": "https://dc.lft.to/lastmile_qr_scan"}, "type": "electric_scooter", "name": "2ca66ebf89b33ca47ac08c61521a154e", "is_reserved": 0, "lon": -77.047625, "is_disabled": 0, "fusion_lat": 0.0, "lat": 38.89596483333333, "bike_id": "2ca66ebf89b33ca47ac08c61521a154e", "fusion_lon": 0.0}, {"rental_uris": {"ios": "https://dc.lft.to/lastmile_qr_scan", "android": "https://dc.lft.to/lastmile_qr_scan"}, "type": "electric_scooter", "name": "89ef06e52089ca49fa8d3787b1ee3a5d", "is_reserved": 0, "lon": -77.04673383333333, "is_disabled": 0, "fusion_lat": 0.0, "lat": 38.89281066666667, "bike_id": "89ef06e52089ca49fa8d3787b1ee3a5d", "fusion_lon": 0.0}, {"rental_uris": {"ios": "https://dc.lft.to/lastmile_qr_scan", "android": "https://dc.lft.to/lastmile_qr_scan"}, "type": "electric_scooter", "name": "6a2794acb4669c8f8501ba867888542f", "is_reserved": 0, "lon": -77.04600283333333, "is_disabled": 0, "fusion_lat": 0.0, "lat": 38.92335216666667, "bike_id": "6a2794acb4669c8f8501ba867888542f", "fusion_lon": 0.0}, {"rental_uris": {"ios": "https://dc.lft.to/lastmile_qr_scan", "android": "https://dc.lft.to/lastmile_qr_scan"}, "type": "electric_scooter", "name": "756127b4f44c26482e052de1f56b0381", "is_reserved": 0, "lon": -77.04173283333333, "is_disabled": 0, "fusion_lat": 0.0, "lat": 38.910889, "bike_id": "756127b4f44c26482e052de1f56b0381", "fusion_lon": 0.0}, {"rental_uris": {"ios": "https://dc.lft.to/lastmile_qr_scan", "android": "https://dc.lft.to/lastmile_qr_scan"}, "type": "electric_scooter", "name": "2568fc6d8f1b748a9b2bd9a1c34477e9", "is_reserved": 0, "lon": -77.01750883333334, "is_disabled": 0, "fusion_lat": 0.0, "lat": 38.91418633333333, "bike_id": "2568fc6d8f1b748a9b2bd9a1c34477e9", "fusion_lon": 0.0}, {"rental_uris": {"ios": "https://dc.lft.to/lastmile_qr_scan", "android": "https://dc.lft.to/lastmile_qr_scan"}, "type": "electric_scooter", "name": "b536885f32a25a107f02c32326434c40", "is_reserved": 0, "lon": -77.06855066666667, "is_disabled": 0, "fusion_lat": 0.0, "lat": 38.952829666666666, "bike_id": "b536885f32a25a107f02c32326434c40", "fusion_lon": 0.0}, {"rental_uris": {"ios": "https://dc.lft.to/lastmile_qr_scan", "android": "https://dc.lft.to/lastmile_qr_scan"}, "type": "electric_bike", "name": "a26f7c33117177ca95921f161c83be32", "is_reserved": 0, "lon": -76.9992065, "is_disabled": 0, "fusion_lat": 0.0, "lat": 38.994692666666666, "bike_id": "a26f7c33117177ca95921f161c83be32", "fusion_lon": 0.0}, {"rental_uris": {"ios": "https://dc.lft.to/lastmile_qr_scan", "android": "https://dc.lft.to/lastmile_qr_scan"}, "type": "electric_scooter", "name": "e1f152a97b4ff5c62e18b66b51baacf6", "is_reserved": 0, "lon": -76.99478483333333, "is_disabled": 0, "fusion_lat": 0.0, "lat": 38.86215333333333, "bike_id": "e1f152a97b4ff5c62e18b66b51baacf6", "fusion_lon": 0.0}, {"rental_uris": {"ios": "https://dc.lft.to/lastmile_qr_scan", "android": "https://dc.lft.to/lastmile_qr_scan"}, "type": "electric_scooter", "name": "c034eb739e7c495c0babe77929628af2", "is_reserved": 0, "lon": -77.043432, "is_disabled": 0, "fusion_lat": 0.0, "lat": 38.9216815, "bike_id": "c034eb739e7c495c0babe77929628af2", "fusion_lon": 0.0}, {"rental_uris": {"ios": "https://dc.lft.to/lastmile_qr_scan", "android": "https://dc.lft.to/lastmile_qr_scan"}, "type": "electric_scooter", "name": "098ce2cabc4e699791622fd77ef67965", "is_reserved": 0, "lon": -77.0495705, "is_disabled": 0, "fusion_lat": 0.0, "lat": 38.9008615, "bike_id": "098ce2cabc4e699791622fd77ef67965", "fusion_lon": 0.0}, {"rental_uris": {"ios": "https://dc.lft.to/lastmile_qr_scan", "android": "https://dc.lft.to/lastmile_qr_scan"}, "type": "electric_scooter", "name": "57bc3dffed1474d3a718163dc8000e41", "is_reserved": 0, "lon": -77.03335683333333, "is_disabled": 0, "fusion_lat": 0.0, "lat": 38.91413816666667, "bike_id": "57bc3dffed1474d3a718163dc8000e41", "fusion_lon": 0.0}, {"rental_uris": {"ios": "https://dc.lft.to/lastmile_qr_scan", "android": "https://dc.lft.to/lastmile_qr_scan"}, "type": "electric_scooter", "name": "62b738dc6fc659ebd473a5f7b84b2864", "is_reserved": 0, "lon": -77.02297266666666, "is_disabled": 0, "fusion_lat": 0.0, "lat": 38.91843183333334, "bike_id": "62b738dc6fc659ebd473a5f7b84b2864", "fusion_lon": 0.0}, {"rental_uris": {"ios": "https://dc.lft.to/lastmile_qr_scan", "android": "https://dc.lft.to/lastmile_qr_scan"}, "type": "electric_scooter", "name": "478dc8524679c51bbe8e5df1cd8f5769", "is_reserved": 0, "lon": -76.98884516666666, "is_disabled": 0, "fusion_lat": 0.0, "lat": 38.89960083333333, "bike_id": "478dc8524679c51bbe8e5df1cd8f5769", "fusion_lon": 0.0}, {"rental_uris": {"ios": "https://dc.lft.to/lastmile_qr_scan", "android": "https://dc.lft.to/lastmile_qr_scan"}, "type": "electric_scooter", "name": "0cf666356af22d8854e1f483b2bbab8c", "is_reserved": 0, "lon": -77.0449255, "is_disabled": 0, "fusion_lat": 0.0, "lat": 38.892184, "bike_id": "0cf666356af22d8854e1f483b2bbab8c", "fusion_lon": 0.0}, {"rental_uris": {"ios": "https://dc.lft.to/lastmile_qr_scan", "android": "https://dc.lft.to/lastmile_qr_scan"}, "type": "electric_scooter", "name": "f32aa3344c05c74ee9b2103db0f5f1f3", "is_reserved": 0, "lon": -77.0711715, "is_disabled": 0, "fusion_lat": 0.0, "lat": 38.9059065, "bike_id": "f32aa3344c05c74ee9b2103db0f5f1f3", "fusion_lon": 0.0}, {"rental_uris": {"ios": "https://dc.lft.to/lastmile_qr_scan", "android": "https://dc.lft.to/lastmile_qr_scan"}, "type": "electric_scooter", "name": "68eeeb5bb38abfdb493a1d0e06546566", "is_reserved": 0, "lon": -76.9910025, "is_disabled": 0, "fusion_lat": 0.0, "lat": 38.857314333333335, "bike_id": "68eeeb5bb38abfdb493a1d0e06546566", "fusion_lon": 0.0}, {"rental_uris": {"ios": "https://dc.lft.to/lastmile_qr_scan", "android": "https://dc.lft.to/lastmile_qr_scan"}, "type": "electric_scooter", "name": "0552a823baf6615af8d0f08e8a6b605d", "is_reserved": 0, "lon": -77.01327633333334, "is_disabled": 0, "fusion_lat": 0.0, "lat": 38.920288, "bike_id": "0552a823baf6615af8d0f08e8a6b605d", "fusion_lon": 0.0}, {"rental_uris": {"ios": "https://dc.lft.to/lastmile_qr_scan", "android": "https://dc.lft.to/lastmile_qr_scan"}, "type": "electric_scooter", "name": "c9a3d67afffddb60754f219e6438390c", "is_reserved": 0, "lon": -77.04507733333334, "is_disabled": 0, "fusion_lat": 0.0, "lat": 38.89223783333333, "bike_id": "c9a3d67afffddb60754f219e6438390c", "fusion_lon": 0.0}, {"rental_uris": {"ios": "https://dc.lft.to/lastmile_qr_scan", "android": "https://dc.lft.to/lastmile_qr_scan"}, "type": "electric_scooter", "name": "e2fa52bea3f40d87c8692a39ab0f33d0", "is_reserved": 0, "lon": -77.01551316666666, "is_disabled": 0, "fusion_lat": 0.0, "lat": 38.902595, "bike_id": "e2fa52bea3f40d87c8692a39ab0f33d0", "fusion_lon": 0.0}, {"rental_uris": {"ios": "https://dc.lft.to/lastmile_qr_scan", "android": "https://dc.lft.to/lastmile_qr_scan"}, "type": "electric_scooter", "name": "a739b192ba9ddb495f48dcbc1d8575d7", "is_reserved": 0, "lon": -77.01502666666667, "is_disabled": 0, "fusion_lat": 0.0, "lat": 38.926643166666665, "bike_id": "a739b192ba9ddb495f48dcbc1d8575d7", "fusion_lon": 0.0}, {"rental_uris": {"ios": "https://dc.lft.to/lastmile_qr_scan", "android": "https://dc.lft.to/lastmile_qr_scan"}, "type": "electric_scooter", "name": "72696388cd93fcee85811afc856427e8", "is_reserved": 0, "lon": -76.98976783333333, "is_disabled": 0, "fusion_lat": 0.0, "lat": 38.86425333333333, "bike_id": "72696388cd93fcee85811afc856427e8", "fusion_lon": 0.0}, {"rental_uris": {"ios": "https://dc.lft.to/lastmile_qr_scan", "android": "https://dc.lft.to/lastmile_qr_scan"}, "type": "electric_scooter", "name": "4fc29414865f041cae435f0cb1a3e4ad", "is_reserved": 0, "lon": -77.03828016666667, "is_disabled": 0, "fusion_lat": 0.0, "lat": 38.962674166666666, "bike_id": "4fc29414865f041cae435f0cb1a3e4ad", "fusion_lon": 0.0}, {"rental_uris": {"ios": "https://dc.lft.to/lastmile_qr_scan", "android": "https://dc.lft.to/lastmile_qr_scan"}, "type": "electric_bike", "name": "05ca09ab95d778762e8455a0ff152c0b", "is_reserved": 0, "lon": -76.94154666666667, "is_disabled": 0, "fusion_lat": 0.0, "lat": 38.8901955, "bike_id": "05ca09ab95d778762e8455a0ff152c0b", "fusion_lon": 0.0}, {"rental_uris": {"ios": "https://dc.lft.to/lastmile_qr_scan", "android": "https://dc.lft.to/lastmile_qr_scan"}, "type": "electric_scooter", "name": "48d7e1b162e0551cecfdbc99ca5d128b", "is_reserved": 0, "lon": -77.045943, "is_disabled": 0, "fusion_lat": 0.0, "lat": 38.91863216666667, "bike_id": "48d7e1b162e0551cecfdbc99ca5d128b", "fusion_lon": 0.0}, {"rental_uris": {"ios": "https://dc.lft.to/lastmile_qr_scan", "android": "https://dc.lft.to/lastmile_qr_scan"}, "type": "electric_scooter", "name": "5a9f4f2035c2c9fb4dfbbb53aeeb00de", "is_reserved": 0, "lon": -76.9992405, "is_disabled": 0, "fusion_lat": 0.0, "lat": 38.90059483333334, "bike_id": "5a9f4f2035c2c9fb4dfbbb53aeeb00de", "fusion_lon": 0.0}, {"rental_uris": {"ios": "https://dc.lft.to/lastmile_qr_scan", "android": "https://dc.lft.to/lastmile_qr_scan"}, "type": "electric_scooter", "name": "c4974e7b063f45a28e76dbd0694f724b", "is_reserved": 0, "lon": -77.03860133333333, "is_disabled": 0, "fusion_lat": 0.0, "lat": 38.91719466666667, "bike_id": "c4974e7b063f45a28e76dbd0694f724b", "fusion_lon": 0.0}, {"rental_uris": {"ios": "https://dc.lft.to/lastmile_qr_scan", "android": "https://dc.lft.to/lastmile_qr_scan"}, "type": "electric_scooter", "name": "2905faa35c36d9201e6b1d2f920e854f", "is_reserved": 0, "lon": -77.02163, "is_disabled": 0, "fusion_lat": 0.0, "lat": 38.924987, "bike_id": "2905faa35c36d9201e6b1d2f920e854f", "fusion_lon": 0.0}, {"rental_uris": {"ios": "https://dc.lft.to/lastmile_qr_scan", "android": "https://dc.lft.to/lastmile_qr_scan"}, "type": "electric_scooter", "name": "cb5cc3ed03f13ecf0d4fa19eaf9b8f94", "is_reserved": 0, "lon": -77.0437285, "is_disabled": 0, "fusion_lat": 0.0, "lat": 38.892238666666664, "bike_id": "cb5cc3ed03f13ecf0d4fa19eaf9b8f94", "fusion_lon": 0.0}, {"rental_uris": {"ios": "https://dc.lft.to/lastmile_qr_scan", "android": "https://dc.lft.to/lastmile_qr_scan"}, "type": "electric_scooter", "name": "49c7a780a294348aaf465ff3382c5406", "is_reserved": 0, "lon": -77.058157, "is_disabled": 0, "fusion_lat": 0.0, "lat": 38.93522166666666, "bike_id": "49c7a780a294348aaf465ff3382c5406", "fusion_lon": 0.0}, {"rental_uris": {"ios": "https://dc.lft.to/lastmile_qr_scan", "android": "https://dc.lft.to/lastmile_qr_scan"}, "type": "electric_scooter", "name": "6b7856d3040ed7b2225d54ed6a89524b", "is_reserved": 0, "lon": -77.07018533333333, "is_disabled": 0, "fusion_lat": 0.0, "lat": 38.8936955, "bike_id": "6b7856d3040ed7b2225d54ed6a89524b", "fusion_lon": 0.0}, {"rental_uris": {"ios": "https://dc.lft.to/lastmile_qr_scan", "android": "https://dc.lft.to/lastmile_qr_scan"}, "type": "electric_bike", "name": "e747022f1c7ef174794f1ae394151d00", "is_reserved": 0, "lon": -77.1293495, "is_disabled": 0, "fusion_lat": 0.0, "lat": 38.865835833333335, "bike_id": "e747022f1c7ef174794f1ae394151d00", "fusion_lon": 0.0}, {"rental_uris": {"ios": "https://dc.lft.to/lastmile_qr_scan", "android": "https://dc.lft.to/lastmile_qr_scan"}, "type": "electric_scooter", "name": "2d8a8c6e190943d6dbdb81b216daf712", "is_reserved": 0, "lon": -77.00063, "is_disabled": 0, "fusion_lat": 0.0, "lat": 38.8744365, "bike_id": "2d8a8c6e190943d6dbdb81b216daf712", "fusion_lon": 0.0}, {"rental_uris": {"ios": "https://dc.lft.to/lastmile_qr_scan", "android": "https://dc.lft.to/lastmile_qr_scan"}, "type": "electric_scooter", "name": "1f5385cb437563b4e6d36c9a3a86eb41", "is_reserved": 0, "lon": -76.93187983333334, "is_disabled": 0, "fusion_lat": 0.0, "lat": 38.89881233333333, "bike_id": "1f5385cb437563b4e6d36c9a3a86eb41", "fusion_lon": 0.0}, {"rental_uris": {"ios": "https://dc.lft.to/lastmile_qr_scan", "android": "https://dc.lft.to/lastmile_qr_scan"}, "type": "electric_scooter", "name": "5bbf5e54e1747bb87883bdee8112c72b", "is_reserved": 0, "lon": -77.0457235, "is_disabled": 0, "fusion_lat": 0.0, "lat": 38.90967216666667, "bike_id": "5bbf5e54e1747bb87883bdee8112c72b", "fusion_lon": 0.0}, {"rental_uris": {"ios": "https://dc.lft.to/lastmile_qr_scan", "android": "https://dc.lft.to/lastmile_qr_scan"}, "type": "electric_scooter", "name": "2448a0797189206c63233cdafa562d8d", "is_reserved": 0, "lon": -77.02475733333333, "is_disabled": 0, "fusion_lat": 0.0, "lat": 38.918143666666666, "bike_id": "2448a0797189206c63233cdafa562d8d", "fusion_lon": 0.0}, {"rental_uris": {"ios": "https://dc.lft.to/lastmile_qr_scan", "android": "https://dc.lft.to/lastmile_qr_scan"}, "type": "electric_scooter", "name": "0dd896062870b9d37d01f60ff0ed4bad", "is_reserved": 0, "lon": -77.00192366666667, "is_disabled": 0, "fusion_lat": 0.0, "lat": 38.911895333333334, "bike_id": "0dd896062870b9d37d01f60ff0ed4bad", "fusion_lon": 0.0}, {"rental_uris": {"ios": "https://dc.lft.to/lastmile_qr_scan", "android": "https://dc.lft.to/lastmile_qr_scan"}, "type": "electric_scooter", "name": "fb7a6449efcf2860b662f3a8bd3172fd", "is_reserved": 0, "lon": -77.05531066666667, "is_disabled": 0, "fusion_lat": 0.0, "lat": 38.91002483333333, "bike_id": "fb7a6449efcf2860b662f3a8bd3172fd", "fusion_lon": 0.0}, {"rental_uris": {"ios": "https://dc.lft.to/lastmile_qr_scan", "android": "https://dc.lft.to/lastmile_qr_scan"}, "type": "electric_bike", "name": "4fc6cc2914bec562f5de858749cbbec7", "is_reserved": 0, "lon": -77.02010833333334, "is_disabled": 0, "fusion_lat": 0.0, "lat": 38.96441183333334, "bike_id": "4fc6cc2914bec562f5de858749cbbec7", "fusion_lon": 0.0}, {"rental_uris": {"ios": "https://dc.lft.to/lastmile_qr_scan", "android": "https://dc.lft.to/lastmile_qr_scan"}, "type": "electric_scooter", "name": "b9185247db84b2364cfcc6fec6edcf80", "is_reserved": 0, "lon": -77.02314516666667, "is_disabled": 0, "fusion_lat": 0.0, "lat": 38.91618733333333, "bike_id": "b9185247db84b2364cfcc6fec6edcf80", "fusion_lon": 0.0}, {"rental_uris": {"ios": "https://dc.lft.to/lastmile_qr_scan", "android": "https://dc.lft.to/lastmile_qr_scan"}, "type": "electric_scooter", "name": "209f20eee17433df895530e719fff11d", "is_reserved": 0, "lon": -76.98262683333333, "is_disabled": 0, "fusion_lat": 0.0, "lat": 38.866309666666666, "bike_id": "209f20eee17433df895530e719fff11d", "fusion_lon": 0.0}, {"rental_uris": {"ios": "https://dc.lft.to/lastmile_qr_scan", "android": "https://dc.lft.to/lastmile_qr_scan"}, "type": "electric_scooter", "name": "caa14759b01c8623e6c5314e6ccd6ae5", "is_reserved": 0, "lon": -77.02868516666666, "is_disabled": 0, "fusion_lat": 0.0, "lat": 38.932848166666666, "bike_id": "caa14759b01c8623e6c5314e6ccd6ae5", "fusion_lon": 0.0}, {"rental_uris": {"ios": "https://dc.lft.to/lastmile_qr_scan", "android": "https://dc.lft.to/lastmile_qr_scan"}, "type": "electric_scooter", "name": "d65ee288440f91502c9cc2b582246ecd", "is_reserved": 0, "lon": -77.06552416666666, "is_disabled": 0, "fusion_lat": 0.0, "lat": 38.911764, "bike_id": "d65ee288440f91502c9cc2b582246ecd", "fusion_lon": 0.0}, {"rental_uris": {"ios": "https://dc.lft.to/lastmile_qr_scan", "android": "https://dc.lft.to/lastmile_qr_scan"}, "type": "electric_scooter", "name": "4bc5b51b55fb78e8122c2866d8b1d58e", "is_reserved": 0, "lon": -76.98357833333333, "is_disabled": 0, "fusion_lat": 0.0, "lat": 38.887436, "bike_id": "4bc5b51b55fb78e8122c2866d8b1d58e", "fusion_lon": 0.0}, {"rental_uris": {"ios": "https://dc.lft.to/lastmile_qr_scan", "android": "https://dc.lft.to/lastmile_qr_scan"}, "type": "electric_scooter", "name": "8f1f6f0e004f83598f780a0baf3ed789", "is_reserved": 0, "lon": -77.05271966666666, "is_disabled": 0, "fusion_lat": 0.0, "lat": 38.924248, "bike_id": "8f1f6f0e004f83598f780a0baf3ed789", "fusion_lon": 0.0}, {"rental_uris": {"ios": "https://dc.lft.to/lastmile_qr_scan", "android": "https://dc.lft.to/lastmile_qr_scan"}, "type": "electric_scooter", "name": "a2bbdb4e0fbaee4f0781d13ac5a223f8", "is_reserved": 0, "lon": -77.02130233333334, "is_disabled": 0, "fusion_lat": 0.0, "lat": 38.926945833333335, "bike_id": "a2bbdb4e0fbaee4f0781d13ac5a223f8", "fusion_lon": 0.0}, {"rental_uris": {"ios": "https://dc.lft.to/lastmile_qr_scan", "android": "https://dc.lft.to/lastmile_qr_scan"}, "type": "electric_scooter", "name": "64f692b1ba228c8e1b775062a50d4b24", "is_reserved": 0, "lon": -77.0232805, "is_disabled": 0, "fusion_lat": 0.0, "lat": 38.9229735, "bike_id": "64f692b1ba228c8e1b775062a50d4b24", "fusion_lon": 0.0}, {"rental_uris": {"ios": "https://dc.lft.to/lastmile_qr_scan", "android": "https://dc.lft.to/lastmile_qr_scan"}, "type": "electric_scooter", "name": "220d27098d417b9af989489ccdaa6ab9", "is_reserved": 0, "lon": -77.02714833333333, "is_disabled": 0, "fusion_lat": 0.0, "lat": 38.91823, "bike_id": "220d27098d417b9af989489ccdaa6ab9", "fusion_lon": 0.0}, {"rental_uris": {"ios": "https://dc.lft.to/lastmile_qr_scan", "android": "https://dc.lft.to/lastmile_qr_scan"}, "type": "electric_scooter", "name": "0e7fbc050e7e1dd086dcc571ca029017", "is_reserved": 0, "lon": -77.02642616666667, "is_disabled": 0, "fusion_lat": 0.0, "lat": 38.92678466666667, "bike_id": "0e7fbc050e7e1dd086dcc571ca029017", "fusion_lon": 0.0}, {"rental_uris": {"ios": "https://dc.lft.to/lastmile_qr_scan", "android": "https://dc.lft.to/lastmile_qr_scan"}, "type": "electric_scooter", "name": "a3a9da008c55c03e273de170dba7037b", "is_reserved": 0, "lon": -76.9529045, "is_disabled": 0, "fusion_lat": 0.0, "lat": 38.89031333333333, "bike_id": "a3a9da008c55c03e273de170dba7037b", "fusion_lon": 0.0}, {"rental_uris": {"ios": "https://dc.lft.to/lastmile_qr_scan", "android": "https://dc.lft.to/lastmile_qr_scan"}, "type": "electric_scooter", "name": "17c73994c68e2ab3e5a66436531d84c2", "is_reserved": 0, "lon": -76.9793865, "is_disabled": 0, "fusion_lat": 0.0, "lat": 38.9066245, "bike_id": "17c73994c68e2ab3e5a66436531d84c2", "fusion_lon": 0.0}, {"rental_uris": {"ios": "https://dc.lft.to/lastmile_qr_scan", "android": "https://dc.lft.to/lastmile_qr_scan"}, "type": "electric_bike", "name": "bc274fac9d05bbe92e2f86a0398335dd", "is_reserved": 0, "lon": -76.995461, "is_disabled": 0, "fusion_lat": 0.0, "lat": 38.831603, "bike_id": "bc274fac9d05bbe92e2f86a0398335dd", "fusion_lon": 0.0}, {"rental_uris": {"ios": "https://dc.lft.to/lastmile_qr_scan", "android": "https://dc.lft.to/lastmile_qr_scan"}, "type": "electric_scooter", "name": "b3bbf5fb01b8133a43ab9dbf624d0722", "is_reserved": 0, "lon": -77.009025, "is_disabled": 0, "fusion_lat": 0.0, "lat": 38.898861833333335, "bike_id": "b3bbf5fb01b8133a43ab9dbf624d0722", "fusion_lon": 0.0}, {"rental_uris": {"ios": "https://dc.lft.to/lastmile_qr_scan", "android": "https://dc.lft.to/lastmile_qr_scan"}, "type": "electric_scooter", "name": "e30cde4f3952e2862d3352b538e0e705", "is_reserved": 0, "lon": -77.00929083333334, "is_disabled": 0, "fusion_lat": 0.0, "lat": 38.89608066666667, "bike_id": "e30cde4f3952e2862d3352b538e0e705", "fusion_lon": 0.0}, {"rental_uris": {"ios": "https://dc.lft.to/lastmile_qr_scan", "android": "https://dc.lft.to/lastmile_qr_scan"}, "type": "electric_scooter", "name": "01a50cc37b8383c63e656e3e02b9ad8a", "is_reserved": 0, "lon": -77.03508733333334, "is_disabled": 0, "fusion_lat": 0.0, "lat": 38.9215385, "bike_id": "01a50cc37b8383c63e656e3e02b9ad8a", "fusion_lon": 0.0}, {"rental_uris": {"ios": "https://dc.lft.to/lastmile_qr_scan", "android": "https://dc.lft.to/lastmile_qr_scan"}, "type": "electric_scooter", "name": "e77fa132fdb5ada2bbed6c30e661f9ed", "is_reserved": 0, "lon": -77.0579385, "is_disabled": 0, "fusion_lat": 0.0, "lat": 38.90512066666667, "bike_id": "e77fa132fdb5ada2bbed6c30e661f9ed", "fusion_lon": 0.0}, {"rental_uris": {"ios": "https://dc.lft.to/lastmile_qr_scan", "android": "https://dc.lft.to/lastmile_qr_scan"}, "type": "electric_scooter", "name": "17ddf2c14ff9c6e502fe1504baeff8a5", "is_reserved": 0, "lon": -77.0332605, "is_disabled": 0, "fusion_lat": 0.0, "lat": 38.919117666666665, "bike_id": "17ddf2c14ff9c6e502fe1504baeff8a5", "fusion_lon": 0.0}, {"rental_uris": {"ios": "https://dc.lft.to/lastmile_qr_scan", "android": "https://dc.lft.to/lastmile_qr_scan"}, "type": "electric_scooter", "name": "9007cfb2cfb9c692e4e8bfe5552ba41b", "is_reserved": 0, "lon": -76.99639416666666, "is_disabled": 0, "fusion_lat": 0.0, "lat": 38.8876885, "bike_id": "9007cfb2cfb9c692e4e8bfe5552ba41b", "fusion_lon": 0.0}, {"rental_uris": {"ios": "https://dc.lft.to/lastmile_qr_scan", "android": "https://dc.lft.to/lastmile_qr_scan"}, "type": "electric_bike", "name": "baf08a62d8b10b660ed7f58bd8d2d20e", "is_reserved": 0, "lon": -76.98095166666667, "is_disabled": 0, "fusion_lat": 0.0, "lat": 38.953556666666664, "bike_id": "baf08a62d8b10b660ed7f58bd8d2d20e", "fusion_lon": 0.0}, {"rental_uris": {"ios": "https://dc.lft.to/lastmile_qr_scan", "android": "https://dc.lft.to/lastmile_qr_scan"},