{"data": {"bikes": [{"fusion_lat": 0.0, "name": "2a77156e2c6a2fd90c6283262b34e160", "is_disabled": 0, "rental_uris": {"android": "https://dc.lft.to/lastmile_qr_scan", "ios": "https://dc.lft.to/lastmile_qr_scan"}, "fusion_lon": 0.0, "lat": 38.898538333333335, "bike_id": "2a77156e2c6a2fd90c6283262b34e160", "type": "electric_scooter", "is_reserved": 0, "lon": -77.022188}, {"fusion_lat": 0.0, "name": "3e3a50d05de7366fdab50c9f7d729fb7", "is_disabled": 0, "rental_uris": {"android": "https://dc.lft.to/lastmile_qr_scan", "ios": "https://dc.lft.to/lastmile_qr_scan"}, "fusion_lon": 0.0, "lat": 38.90637383333333, "bike_id": "3e3a50d05de7366fdab50c9f7d729fb7", "type": "electric_scooter", "is_reserved": 0, "lon": -77.04883633333333}, {"fusion_lat": 0.0, "name": "08471f3452eb8df6041451addb6c8730", "is_disabled": 0, "rental_uris": {"android": "https://dc.lft.to/lastmile_qr_scan", "ios": "https://dc.lft.to/lastmile_qr_scan"}, "fusion_lon": 0.0, "lat": 38.87882716666667, "bike_id": "08471f3452eb8df6041451addb6c8730", "type": "electric_scooter", "is_reserved": 0, "lon": -76.96540683333333}, {"fusion_lat": 0.0, "name": "2a8af96a17ff0b997d9ab542f0c689d1", "is_disabled": 0, "rental_uris": {"android": "https://dc.lft.to/lastmile_qr_scan", "ios": "https://dc.lft.to/lastmile_qr_scan"}, "fusion_lon": 0.0, "lat": 38.904109166666665, "bike_id": "2a8af96a17ff0b997d9ab542f0c689d1", "type": "electric_scooter", "is_reserved": 0, "lon": -77.03667033333333}, {"fusion_lat": 0.0, "name": "c0ba773cacf0356f6a86f6f974623b0a", "is_disabled": 0, "rental_uris": {"android": "https://dc.lft.to/lastmile_qr_scan", "ios": "https://dc.lft.to/lastmile_qr_scan"}, "fusion_lon": 0.0, "lat": 38.8952105, "bike_id": "c0ba773cacf0356f6a86f6f974623b0a", "type": "electric_scooter", "is_reserved": 0, "lon": -77.0092185}, {"fusion_lat": 0.0, "name": "b646cb7f9ab61e9c594e658c958fc163", "is_disabled": 0, "rental_uris": {"android": "https://dc.lft.to/lastmile_qr_scan", "ios": "https://dc.lft.to/lastmile_qr_scan"}, "fusion_lon": 0.0, "lat": 38.922609333333334, "bike_id": "b646cb7f9ab61e9c594e658c958fc163", "type": "electric_scooter", "is_reserved": 0, "lon": -77.03663066666667}, {"fusion_lat": 0.0, "name": "1070fdf766bbaa507db81102197a489a", "is_disabled": 0, "rental_uris": {"android": "https://dc.lft.to/lastmile_qr_scan", "ios": "https://dc.lft.to/lastmile_qr_scan"}, "fusion_lon": 0.0, "lat": 38.9016415, "bike_id": "1070fdf766bbaa507db81102197a489a", "type": "electric_scooter", "is_reserved": 0, "lon": -77.031792}, {"fusion_lat": 0.0, "name": "f9cab6e9fc566d6cd5f8c31127ab4c7d", "is_disabled": 0, "rental_uris": {"android": "https://dc.lft.to/lastmile_qr_scan", "ios": "https://dc.lft.to/lastmile_qr_scan"}, "fusion_lon": 0.0, "lat": 38.923797, "bike_id": "f9cab6e9fc566d6cd5f8c31127ab4c7d", "type": "electric_scooter", "is_reserved": 0, "lon": -77.02741116666667}, {"fusion_lat": 0.0, "name": "aead487f3c0f76e7b2b31e81bd6f7a94", "is_disabled": 0, "rental_uris": {"android": "https://dc.lft.to/lastmile_qr_scan", "ios": "https://dc.lft.to/lastmile_qr_scan"}, "fusion_lon": 0.0, "lat": 38.91163433333333, "bike_id": "aead487f3c0f76e7b2b31e81bd6f7a94", "type": "electric_scooter", "is_reserved": 0, "lon": -76.98722116666667}, {"fusion_lat": 0.0, "name": "990a0cb22169803cd9266f5716135212", "is_disabled": 0, "rental_uris": {"android": "https://dc.lft.to/lastmile_qr_scan", "ios": "https://dc.lft.to/lastmile_qr_scan"}, "fusion_lon": 0.0, "lat": 38.909630666666665, "bike_id": "990a0cb22169803cd9266f5716135212", "type": "electric_scooter", "is_reserved": 0, "lon": -77.02382633333333}, {"fusion_lat": 0.0, "name": "e1021a0c26b1240c118e165915f9de0c", "is_disabled": 0, "rental_uris": {"android": "https://dc.lft.to/lastmile_qr_scan", "ios": "https://dc.lft.to/lastmile_qr_scan"}, "fusion_lon": 0.0, "lat": 38.89916983333333, "bike_id": "e1021a0c26b1240c118e165915f9de0c", "type": "electric_scooter", "is_reserved": 0, "lon": -76.94550433333333}, {"fusion_lat": 0.0, "name": "2723ea650ffdbe5940c09b6474cd023b", "is_disabled": 0, "rental_uris": {"android": "https://dc.lft.to/lastmile_qr_scan", "ios": "https://dc.lft.to/lastmile_qr_scan"}, "fusion_lon": 0.0, "lat": 38.947409666666665, "bike_id": "2723ea650ffdbe5940c09b6474cd023b", "type": "electric_scooter", "is_reserved": 0, "lon": -77.016168}, {"fusion_lat": 0.0, "name": "79e4404a64f4eb72d5b35cd17a109973", "is_disabled": 0, "rental_uris": {"android": "https://dc.lft.to/lastmile_qr_scan", "ios": "https://dc.lft.to/lastmile_qr_scan"}, "fusion_lon": 0.0, "lat": 38.89220566666667, "bike_id": "79e4404a64f4eb72d5b35cd17a109973", "type": "electric_scooter", "is_reserved": 0, "lon": -77.0321805}, {"fusion_lat": 0.0, "name": "7655850134beaeac2e64befffd0fff0c", "is_disabled": 0, "rental_uris": {"android": "https://dc.lft.to/lastmile_qr_scan", "ios": "https://dc.lft.to/lastmile_qr_scan"}, "fusion_lon": 0.0, "lat": 38.92971683333333, "bike_id": "7655850134beaeac2e64befffd0fff0c", "type": "electric_scooter", "is_reserved": 0, "lon": -77.019739}, {"fusion_lat": 0.0, "name": "7d73c618d4f994667828be8d49a35dc5", "is_disabled": 0, "rental_uris": {"android": "https://dc.lft.to/lastmile_qr_scan", "ios": "https://dc.lft.to/lastmile_qr_scan"}, "fusion_lon": 0.0, "lat": 38.82454633333333, "bike_id": "7d73c618d4f994667828be8d49a35dc5", "type": "electric_bike", "is_reserved": 0, "lon": -77.00789233333333}, {"fusion_lat": 0.0, "name": "56814f8cd760b124f4de041c20c9f463", "is_disabled": 0, "rental_uris": {"android": "https://dc.lft.to/lastmile_qr_scan", "ios": "https://dc.lft.to/lastmile_qr_scan"}, "fusion_lon": 0.0, "lat": 38.91084933333333, "bike_id": "56814f8cd760b124f4de041c20c9f463", "type": "electric_scooter", "is_reserved": 0, "lon": -77.06501}, {"fusion_lat": 0.0, "name": "a0b3d22864ab5a6de729c1d397b03644", "is_disabled": 0, "rental_uris": {"android": "https://dc.lft.to/lastmile_qr_scan", "ios": "https://dc.lft.to/lastmile_qr_scan"}, "fusion_lon": 0.0, "lat": 38.88758266666667, "bike_id": "a0b3d22864ab5a6de729c1d397b03644", "type": "electric_scooter", "is_reserved": 0, "lon": -76.97755}, {"fusion_lat": 0.0, "name": "726c1cec83ddc284264a3a80241d0b25", "is_disabled": 0, "rental_uris": {"android": "https://dc.lft.to/lastmile_qr_scan", "ios": "https://dc.lft.to/lastmile_qr_scan"}, "fusion_lon": 0.0, "lat": 38.892266, "bike_id": "726c1cec83ddc284264a3a80241d0b25", "type": "electric_scooter", "is_reserved": 0, "lon": -77.02410783333333}, {"fusion_lat": 0.0, "name": "e931208d3e4c70f42caaa5615840dcbc", "is_disabled": 0, "rental_uris": {"android": "https://dc.lft.to/lastmile_qr_scan", "ios": "https://dc.lft.to/lastmile_qr_scan"}, "fusion_lon": 0.0, "lat": 38.9095335, "bike_id": "e931208d3e4c70f42caaa5615840dcbc", "type": "electric_scooter", "is_reserved": 0, "lon": -77.0487475}, {"fusion_lat": 0.0, "name": "0a9a8467741819973eb9ab58477b804e", "is_disabled": 0, "rental_uris": {"android": "https://dc.lft.to/lastmile_qr_scan", "ios": "https://dc.lft.to/lastmile_qr_scan"}, "fusion_lon": 0.0, "lat": 38.913988333333336, "bike_id": "0a9a8467741819973eb9ab58477b804e", "type": "electric_scooter", "is_reserved": 0, "lon": -77.00834266666666}, {"fusion_lat": 0.0, "name": "35e4bd0e29af603ed4bc7674fab9f8dd", "is_disabled": 0, "rental_uris": {"android": "https://dc.lft.to/lastmile_qr_scan", "ios": "https://dc.lft.to/lastmile_qr_scan"}, "fusion_lon": 0.0, "lat": 38.90730833333333, "bike_id": "35e4bd0e29af603ed4bc7674fab9f8dd", "type": "electric_scooter", "is_reserved": 0, "lon": -77.0317595}, {"fusion_lat": 0.0, "name": "e956f10a96bc78bc839fe18cbda6aaf0", "is_disabled": 0, "rental_uris": {"android": "https://dc.lft.to/lastmile_qr_scan", "ios": "https://dc.lft.to/lastmile_qr_scan"}, "fusion_lon": 0.0, "lat": 38.90471133333333, "bike_id": "e956f10a96bc78bc839fe18cbda6aaf0", "type": "electric_scooter", "is_reserved": 0, "lon": -77.00714183333334}, {"fusion_lat": 0.0, "name": "f8629a0e0b4eaaa054a059b02d8a51cf", "is_disabled": 0, "rental_uris": {"android": "https://dc.lft.to/lastmile_qr_scan", "ios": "https://dc.lft.to/lastmile_qr_scan"}, "fusion_lon": 0.0, "lat": 38.842965, "bike_id": "f8629a0e0b4eaaa054a059b02d8a51cf", "type": "electric_bike", "is_reserved": 0, "lon": -77.10865616666666}, {"fusion_lat": 0.0, "name": "2d422f783700c436e3978f074856a304", "is_disabled": 0, "rental_uris": {"android": "https://dc.lft.to/lastmile_qr_scan", "ios": "https://dc.lft.to/lastmile_qr_scan"}, "fusion_lon": 0.0, "lat": 38.92548166666667, "bike_id": "2d422f783700c436e3978f074856a304", "type": "electric_scooter", "is_reserved": 0, "lon": -77.033331}, {"fusion_lat": 0.0, "name": "a63b618b8213ebfde0b33a4de8c4d706", "is_disabled": 0, "rental_uris": {"android": "https://dc.lft.to/lastmile_qr_scan", "ios": "https://dc.lft.to/lastmile_qr_scan"}, "fusion_lon": 0.0, "lat": 38.944063, "bike_id": "a63b618b8213ebfde0b33a4de8c4d706", "type": "electric_scooter", "is_reserved": 0, "lon": -77.03864066666667}, {"fusion_lat": 0.0, "name": "6b0ab2db464f6e02be45c617767024fc", "is_disabled": 0, "rental_uris": {"android": "https://dc.lft.to/lastmile_qr_scan", "ios": "https://dc.lft.to/lastmile_qr_scan"}, "fusion_lon": 0.0, "lat": 38.88017833333333, "bike_id": "6b0ab2db464f6e02be45c617767024fc", "type": "electric_scooter", "is_reserved": 0, "lon": -76.9311435}, {"fusion_lat": 0.0, "name": "34ebcccdadd3d38a4b00d23193eb0c49", "is_disabled": 0, "rental_uris": {"android": "https://dc.lft.to/lastmile_qr_scan", "ios": "https://dc.lft.to/lastmile_qr_scan"}, "fusion_lon": 0.0, "lat": 38.90856683333333, "bike_id": "34ebcccdadd3d38a4b00d23193eb0c49", "type": "electric_scooter", "is_reserved": 0, "lon": -77.0234805}, {"fusion_lat": 0.0, "name": "b59e4294501b8edd20fd2b14535a18b4", "is_disabled": 0, "rental_uris": {"android": "https://dc.lft.to/lastmile_qr_scan", "ios": "https://dc.lft.to/lastmile_qr_scan"}, "fusion_lon": 0.0, "lat": 38.950863166666664, "bike_id": "b59e4294501b8edd20fd2b14535a18b4", "type": "electric_bike", "is_reserved": 0, "lon": -77.01229316666667}, {"fusion_lat": 0.0, "name": "a5e189e44317abcc8a52cf7b36b98810", "is_disabled": 0, "rental_uris": {"android": "https://dc.lft.to/lastmile_qr_scan", "ios": "https://dc.lft.to/lastmile_qr_scan"}, "fusion_lon": 0.0, "lat": 38.9023255, "bike_id": "a5e189e44317abcc8a52cf7b36b98810", "type": "electric_scooter", "is_reserved": 0, "lon": -77.03468666666667}, {"fusion_lat": 0.0, "name": "a043912f0c8e04d2a3a234f4c04f56bc", "is_disabled": 0, "rental_uris": {"android": "https://dc.lft.to/lastmile_qr_scan", "ios": "https://dc.lft.to/lastmile_qr_scan"}, "fusion_lon": 0.0, "lat": 38.91845766666667, "bike_id": "a043912f0c8e04d2a3a234f4c04f56bc", "type": "electric_scooter", "is_reserved": 0, "lon": -77.04533783333333}, {"fusion_lat": 0.0, "name": "c9588da74eba5931240669ad5ad8d1a3", "is_disabled": 0, "rental_uris": {"android": "https://dc.lft.to/lastmile_qr_scan", "ios": "https://dc.lft.to/lastmile_qr_scan"}, "fusion_lon": 0.0, "lat": 38.87853966666667, "bike_id": "c9588da74eba5931240669ad5ad8d1a3", "type": "electric_scooter", "is_reserved": 0, "lon": -77.01763166666667}, {"fusion_lat": 0.0, "name": "ad5c009673f2a4a8c26a9cafbdbb4bfb", "is_disabled": 0, "rental_uris": {"android": "https://dc.lft.to/lastmile_qr_scan", "ios": "https://dc.lft.to/lastmile_qr_scan"}, "fusion_lon": 0.0, "lat": 38.92061866666667, "bike_id": "ad5c009673f2a4a8c26a9cafbdbb4bfb", "type": "electric_scooter", "is_reserved": 0, "lon": -77.0236745}, {"fusion_lat": 0.0, "name": "bcdf26644a1ea4109928da3ba71a041b", "is_disabled": 0, "rental_uris": {"android": "https://dc.lft.to/lastmile_qr_scan", "ios": "https://dc.lft.to/lastmile_qr_scan"}, "fusion_lon": 0.0, "lat": 38.90026366666667, "bike_id": "bcdf26644a1ea4109928da3ba71a041b", "type": "electric_scooter", "is_reserved": 0, "lon": -76.99869466666667}, {"fusion_lat": 0.0, "name": "107fe58e067234e674fa295ebcf407b6", "is_disabled": 0, "rental_uris": {"android": "https://dc.lft.to/lastmile_qr_scan", "ios": "https://dc.lft.to/lastmile_qr_scan"}, "fusion_lon": 0.0, "lat": 38.89542383333333, "bike_id": "107fe58e067234e674fa295ebcf407b6", "type": "electric_scooter", "is_reserved": 0, "lon": -76.98335716666666}, {"fusion_lat": 0.0, "name": "857195286af1d1f227ec642e2eb38d25", "is_disabled": 0, "rental_uris": {"android": "https://dc.lft.to/lastmile_qr_scan", "ios": "https://dc.lft.to/lastmile_qr_scan"}, "fusion_lon": 0.0, "lat": 38.92372783333333, "bike_id": "857195286af1d1f227ec642e2eb38d25", "type": "electric_scooter", "is_reserved": 0, "lon": -77.0312915}, {"fusion_lat": 0.0, "name": "f5ebbe11622065aaf0e15b6512c3ffd9", "is_disabled": 0, "rental_uris": {"android": "https://dc.lft.to/lastmile_qr_scan", "ios": "https://dc.lft.to/lastmile_qr_scan"}, "fusion_lon": 0.0, "lat": 38.920928333333336, "bike_id": "f5ebbe11622065aaf0e15b6512c3ffd9", "type": "electric_scooter", "is_reserved": 0, "lon": -77.02519183333334}, {"fusion_lat": 0.0, "name": "a6c50cfa931a28eaee35f59db5a47b6f", "is_disabled": 0, "rental_uris": {"android": "https://dc.lft.to/lastmile_qr_scan", "ios": "https://dc.lft.to/lastmile_qr_scan"}, "fusion_lon": 0.0, "lat": 38.9068545, "bike_id": "a6c50cfa931a28eaee35f59db5a47b6f", "type": "electric_scooter", "is_reserved": 0, "lon": -77.01014516666666}, {"fusion_lat": 0.0, "name": "7446712598f11406ee06c7e423afb07d", "is_disabled": 0, "rental_uris": {"android": "https://dc.lft.to/lastmile_qr_scan", "ios": "https://dc.lft.to/lastmile_qr_scan"}, "fusion_lon": 0.0, "lat": 38.897286666666666, "bike_id": "7446712598f11406ee06c7e423afb07d", "type": "electric_scooter", "is_reserved": 0, "lon": -76.99136016666667}, {"fusion_lat": 0.0, "name": "e5cd92e7ff1f85070eaed9bb6d56d592", "is_disabled": 0, "rental_uris": {"android": "https://dc.lft.to/lastmile_qr_scan", "ios": "https://dc.lft.to/lastmile_qr_scan"}, "fusion_lon": 0.0, "lat": 38.881835333333335, "bike_id": "e5cd92e7ff1f85070eaed9bb6d56d592", "type": "electric_bike", "is_reserved": 0, "lon": -77.0863945}, {"fusion_lat": 0.0, "name": "772541a56d610112af57541eedf5c72c", "is_disabled": 0, "rental_uris": {"android": "https://dc.lft.to/lastmile_qr_scan", "ios": "https://dc.lft.to/lastmile_qr_scan"}, "fusion_lon": 0.0, "lat": 38.92334866666667, "bike_id": "772541a56d610112af57541eedf5c72c", "type": "electric_scooter", "is_reserved": 0, "lon": -77.05303183333334}, {"fusion_lat": 0.0, "name": "dc2702e2cd189f0c9a0a72b65a940a9e", "is_disabled": 0, "rental_uris": {"android": "https://dc.lft.to/lastmile_qr_scan", "ios": "https://dc.lft.to/lastmile_qr_scan"}, "fusion_lon": 0.0, "lat": 38.9045075, "bike_id": "dc2702e2cd189f0c9a0a72b65a940a9e", "type": "electric_scooter", "is_reserved": 0, "lon": -77.0533395}, {"fusion_lat": 0.0, "name": "835a078dfd8597dd0fa0dc1cccef8573", "is_disabled": 0, "rental_uris": {"android": "https://dc.lft.to/lastmile_qr_scan", "ios": "https://dc.lft.to/lastmile_qr_scan"}, "fusion_lon": 0.0, "lat": 38.912576, "bike_id": "835a078dfd8597dd0fa0dc1cccef8573", "type": "electric_scooter", "is_reserved": 0, "lon": -77.00675833333334}, {"fusion_lat": 0.0, "name": "c8025ae84f2bf2269274add01bab9807", "is_disabled": 0, "rental_uris": {"android": "https://dc.lft.to/lastmile_qr_scan", "ios": "https://dc.lft.to/lastmile_qr_scan"}, "fusion_lon": 0.0, "lat": 38.926097, "bike_id": "c8025ae84f2bf2269274add01bab9807", "type": "electric_scooter", "is_reserved": 0, "lon": -77.03955383333333}, {"fusion_lat": 0.0, "name": "efa46acb27f69b105c0e6aafddbf6f77", "is_disabled": 0, "rental_uris": {"android": "https://dc.lft.to/lastmile_qr_scan", "ios": "https://dc.lft.to/lastmile_qr_scan"}, "fusion_lon": 0.0, "lat": 38.9202805, "bike_id": "efa46acb27f69b105c0e6aafddbf6f77", "type": "electric_scooter", "is_reserved": 0, "lon": -77.03171016666667}, {"fusion_lat": 0.0, "name": "af9308ca0d3ed045196980d602fb66ee", "is_disabled": 0, "rental_uris": {"android": "https://dc.lft.to/lastmile_qr_scan", "ios": "https://dc.lft.to/lastmile_qr_scan"}, "fusion_lon": 0.0, "lat": 38.9177605, "bike_id": "af9308ca0d3ed045196980d602fb66ee", "type": "electric_scooter", "is_reserved": 0, "lon": -77.0385285}, {"fusion_lat": 0.0, "name": "609cebde2a1bf216a5834b813e1b1949", "is_disabled": 0, "rental_uris": {"android": "https://dc.lft.to/lastmile_qr_scan", "ios": "https://dc.lft.to/lastmile_qr_scan"}, "fusion_lon": 0.0, "lat": 38.90963133333333, "bike_id": "609cebde2a1bf216a5834b813e1b1949", "type": "electric_scooter", "is_reserved": 0, "lon": -77.03984666666666}, {"fusion_lat": 0.0, "name": "2a8501440021158c2cc9e0aca3f7818e", "is_disabled": 0, "rental_uris": {"android": "https://dc.lft.to/lastmile_qr_scan", "ios": "https://dc.lft.to/lastmile_qr_scan"}, "fusion_lon": 0.0, "lat": 38.84425266666667, "bike_id": "2a8501440021158c2cc9e0aca3f7818e", "type": "electric_scooter", "is_reserved": 0, "lon": -76.99780983333333}, {"fusion_lat": 0.0, "name": "ba061a80a7d64d7c9dda7366c5d77aba", "is_disabled": 0, "rental_uris": {"android": "https://dc.lft.to/lastmile_qr_scan", "ios": "https://dc.lft.to/lastmile_qr_scan"}, "fusion_lon": 0.0, "lat": 38.88893983333333, "bike_id": "ba061a80a7d64d7c9dda7366c5d77aba", "type": "electric_bike", "is_reserved": 0, "lon": -77.11524833333333}, {"fusion_lat": 0.0, "name": "b9435a47cd56c282114325ee89c0afe8", "is_disabled": 0, "rental_uris": {"android": "https://dc.lft.to/lastmile_qr_scan", "ios": "https://dc.lft.to/lastmile_qr_scan"}, "fusion_lon": 0.0, "lat": 38.89528116666666, "bike_id": "b9435a47cd56c282114325ee89c0afe8", "type": "electric_scooter", "is_reserved": 0, "lon": -77.03050433333334}, {"fusion_lat": 0.0, "name": "cd57d73f32b262c94d366022cf04b68f", "is_disabled": 0, "rental_uris": {"android": "https://dc.lft.to/lastmile_qr_scan", "ios": "https://dc.lft.to/lastmile_qr_scan"}, "fusion_lon": 0.0, "lat": 38.877154, "bike_id": "cd57d73f32b262c94d366022cf04b68f", "type": "electric_scooter", "is_reserved": 0, "lon": -77.01755066666666}, {"fusion_lat": 0.0, "name": "1fc4c8ead0ceafcc24d031cec76f77ed", "is_disabled": 0, "rental_uris": {"android": "https://dc.lft.to/lastmile_qr_scan", "ios": "https://dc.lft.to/lastmile_qr_scan"}, "fusion_lon": 0.0, "lat": 38.93596466666666, "bike_id": "1fc4c8ead0ceafcc24d031cec76f77ed", "type": "electric_bike", "is_reserved": 0, "lon": -77.02118633333333}, {"fusion_lat": 0.0, "name": "c5c6611f6ec84dc50397696af4e7ef29", "is_disabled": 0, "rental_uris": {"android": "https://dc.lft.to/lastmile_qr_scan", "ios": "https://dc.lft.to/lastmile_qr_scan"}, "fusion_lon": 0.0, "lat": 38.934165666666665, "bike_id": "c5c6611f6ec84dc50397696af4e7ef29", "type": "electric_scooter", "is_reserved": 0, "lon": -76.97960666666667}, {"fusion_lat": 0.0, "name": "f0aab9879a49756d630df3d422c7177e", "is_disabled": 0, "rental_uris": {"android": "https://dc.lft.to/lastmile_qr_scan", "ios": "https://dc.lft.to/lastmile_qr_scan"}, "fusion_lon": 0.0, "lat": 38.8922655, "bike_id": "f0aab9879a49756d630df3d422c7177e", "type": "electric_scooter", "is_reserved": 0, "lon": -77.02785516666667}, {"fusion_lat": 0.0, "name": "4d2699053f980061273547bc64ad11e3", "is_disabled": 0, "rental_uris": {"android": "https://dc.lft.to/lastmile_qr_scan", "ios": "https://dc.lft.to/lastmile_qr_scan"}, "fusion_lon": 0.0, "lat": 38.936372, "bike_id": "4d2699053f980061273547bc64ad11e3", "type": "electric_scooter", "is_reserved": 0, "lon": -77.03267066666666}, {"fusion_lat": 0.0, "name": "9d42da81cea7112596b034a334dbd3ba", "is_disabled": 0, "rental_uris": {"android": "https://dc.lft.to/lastmile_qr_scan", "ios": "https://dc.lft.to/lastmile_qr_scan"}, "fusion_lon": 0.0, "lat": 38.92671133333333, "bike_id": "9d42da81cea7112596b034a334dbd3ba", "type": "electric_scooter", "is_reserved": 0, "lon": -77.0305035}, {"fusion_lat": 0.0, "name": "6212cda1237efd69013bef2b8cc191a3", "is_disabled": 0, "rental_uris": {"android": "https://dc.lft.to/lastmile_qr_scan", "ios": "https://dc.lft.to/lastmile_qr_scan"}, "fusion_lon": 0.0, "lat": 38.920708, "bike_id": "6212cda1237efd69013bef2b8cc191a3", "type": "electric_scooter", "is_reserved": 0, "lon": -76.99173566666667}, {"fusion_lat": 0.0, "name": "cfd9f2d9ebc30e991f6abd2555138632", "is_disabled": 0, "rental_uris": {"android": "https://dc.lft.to/lastmile_qr_scan", "ios": "https://dc.lft.to/lastmile_qr_scan"}, "fusion_lon": 0.0, "lat": 38.8909675, "bike_id": "cfd9f2d9ebc30e991f6abd2555138632", "type": "electric_scooter", "is_reserved": 0, "lon": -76.91930116666667}, {"fusion_lat": 0.0, "name": "d64ae4c1dc7efd39a92482329d8082da", "is_disabled": 0, "rental_uris": {"android": "https://dc.lft.to/lastmile_qr_scan", "ios": "https://dc.lft.to/lastmile_qr_scan"}, "fusion_lon": 0.0, "lat": 38.90507566666667, "bike_id": "d64ae4c1dc7efd39a92482329d8082da", "type": "electric_scooter", "is_reserved": 0, "lon": -76.98485583333333}, {"fusion_lat": 0.0, "name": "6db9722519a885fe6ed95bb0e47bae42", "is_disabled": 0, "rental_uris": {"android": "https://dc.lft.to/lastmile_qr_scan", "ios": "https://dc.lft.to/lastmile_qr_scan"}, "fusion_lon": 0.0, "lat": 38.944298333333336, "bike_id": "6db9722519a885fe6ed95bb0e47bae42", "type": "electric_bike", "is_reserved": 0, "lon": -77.026019}, {"fusion_lat": 0.0, "name": "55a4b9d1719772cd3d7abb193859c46e", "is_disabled": 0, "rental_uris": {"android": "https://dc.lft.to/lastmile_qr_scan", "ios": "https://dc.lft.to/lastmile_qr_scan"}, "fusion_lon": 0.0, "lat": 38.954600666666664, "bike_id": "55a4b9d1719772cd3d7abb193859c46e", "type": "electric_scooter", "is_reserved": 0, "lon": -77.00784683333333}, {"fusion_lat": 0.0, "name": "8ae2fe6d8460e361bfe0fbec34249320", "is_disabled": 0, "rental_uris": {"android": "https://dc.lft.to/lastmile_qr_scan", "ios": "https://dc.lft.to/lastmile_qr_scan"}, "fusion_lon": 0.0, "lat": 38.92041916666667, "bike_id": "8ae2fe6d8460e361bfe0fbec34249320", "type": "electric_scooter", "is_reserved": 0, "lon": -77.00338683333334}, {"fusion_lat": 0.0, "name": "e067b2371c95135af21299bdb8d5e722", "is_disabled": 0, "rental_uris": {"android": "https://dc.lft.to/lastmile_qr_scan", "ios": "https://dc.lft.to/lastmile_qr_scan"}, "fusion_lon": 0.0, "lat": 38.904937333333336, "bike_id": "e067b2371c95135af21299bdb8d5e722", "type": "electric_scooter", "is_reserved": 0, "lon": -77.02957033333334}, {"fusion_lat": 0.0, "name": "0019c8bdeeb72695965afd7ab33664ca", "is_disabled": 0, "rental_uris": {"android": "https://dc.lft.to/lastmile_qr_scan", "ios": "https://dc.lft.to/lastmile_qr_scan"}, "fusion_lon": 0.0, "lat": 38.9234055, "bike_id": "0019c8bdeeb72695965afd7ab33664ca", "type": "electric_scooter", "is_reserved": 0, "lon": -77.05218}, {"fusion_lat": 0.0, "name": "9e6ffc12108ec414c996ff58a3c4f640", "is_disabled": 0, "rental_uris": {"android": "https://dc.lft.to/lastmile_qr_scan", "ios": "https://dc.lft.to/lastmile_qr_scan"}, "fusion_lon": 0.0, "lat": 38.903528, "bike_id": "9e6ffc12108ec414c996ff58a3c4f640", "type": "electric_scooter", "is_reserved": 0, "lon": -76.97476016666667}, {"fusion_lat": 0.0, "name": "e56e57c8606ed417e3182f77ba06e046", "is_disabled": 0, "rental_uris": {"android": "https://dc.lft.to/lastmile_qr_scan", "ios": "https://dc.lft.to/lastmile_qr_scan"}, "fusion_lon": 0.0, "lat": 38.934618666666665, "bike_id": "e56e57c8606ed417e3182f77ba06e046", "type": "electric_scooter", "is_reserved": 0, "lon": -77.041174}, {"fusion_lat": 0.0, "name": "3e493c4a7ccfe0f336ebff7ffadd7f6e", "is_disabled": 0, "rental_uris": {"android": "https://dc.lft.to/lastmile_qr_scan", "ios": "https://dc.lft.to/lastmile_qr_scan"}, "fusion_lon": 0.0, "lat": 38.9091545, "bike_id": "3e493c4a7ccfe0f336ebff7ffadd7f6e", "type": "electric_scooter", "is_reserved": 0, "lon": -76.99927566666666}, {"fusion_lat": 0.0, "name": "bfd5e7b90a017b90ef6986bf3d7b05a7", "is_disabled": 0, "rental_uris": {"android": "https://dc.lft.to/lastmile_qr_scan", "ios": "https://dc.lft.to/lastmile_qr_scan"}, "fusion_lon": 0.0, "lat": 38.917643166666664, "bike_id": "bfd5e7b90a017b90ef6986bf3d7b05a7", "type": "electric_scooter", "is_reserved": 0, "lon": -77.02313016666666}, {"fusion_lat": 0.0, "name": "e88345f747e1b5085699cd2ee0d7f83f", "is_disabled": 0, "rental_uris": {"android": "https://dc.lft.to/lastmile_qr_scan", "ios": "https://dc.lft.to/lastmile_qr_scan"}, "fusion_lon": 0.0, "lat": 38.928137666666665, "bike_id": "e88345f747e1b5085699cd2ee0d7f83f", "type": "electric_scooter", "is_reserved": 0, "lon": -77.02329366666666}, {"fusion_lat": 0.0, "name": "829824b889d6cf4813c2bb74b853fd5c", "is_disabled": 0, "rental_uris": {"android": "https://dc.lft.to/lastmile_qr_scan", "ios": "https://dc.lft.to/lastmile_qr_scan"}, "fusion_lon": 0.0, "lat": 38.88732183333333, "bike_id": "829824b889d6cf4813c2bb74b853fd5c", "type": "electric_scooter", "is_reserved": 0, "lon": -77.01512183333334}, {"fusion_lat": 0.0, "name": "36413d02cd301a11e05dde1c27057d46", "is_disabled": 0, "rental_uris": {"android": "https://dc.lft.to/lastmile_qr_scan", "ios": "https://dc.lft.to/lastmile_qr_scan"}, "fusion_lon": 0.0, "lat": 38.907926833333335, "bike_id": "36413d02cd301a11e05dde1c27057d46", "type": "electric_scooter", "is_reserved": 0, "lon": -77.04230133333333}, {"fusion_lat": 0.0, "name": "bba4d331ee3a9476cd8eb9b8395ba8cb", "is_disabled": 0, "rental_uris": {"android": "https://dc.lft.to/lastmile_qr_scan", "ios": "https://dc.lft.to/lastmile_qr_scan"}, "fusion_lon": 0.0, "lat": 38.9009925, "bike_id": "bba4d331ee3a9476cd8eb9b8395ba8cb", "type": "electric_scooter", "is_reserved": 0, "lon": -76.93044266666666}, {"fusion_lat": 0.0, "name": "19c3804e3fe3e7a6c217d0cfb6448541", "is_disabled": 0, "rental_uris": {"android": "https://dc.lft.to/lastmile_qr_scan", "ios": "https://dc.lft.to/lastmile_qr_scan"}, "fusion_lon": 0.0, "lat": 38.924577, "bike_id": "19c3804e3fe3e7a6c217d0cfb6448541", "type": "electric_scooter", "is_reserved": 0, "lon": -77.02067383333333}, {"fusion_lat": 0.0, "name": "a1e89feddc5464220bb5ab387e2f127c", "is_disabled": 0, "rental_uris": {"android": "https://dc.lft.to/lastmile_qr_scan", "ios": "https://dc.lft.to/lastmile_qr_scan"}, "fusion_lon": 0.0, "lat": 38.93087966666667, "bike_id": "a1e89feddc5464220bb5ab387e2f127c", "type": "electric_scooter", "is_reserved": 0, "lon": -77.02007816666666}, {"fusion_lat": 0.0, "name": "a7b76cfba9b9c67a60967590c438990b", "is_disabled": 0, "rental_uris": {"android": "https://dc.lft.to/lastmile_qr_scan", "ios": "https://dc.lft.to/lastmile_qr_scan"}, "fusion_lon": 0.0, "lat": 38.91176566666667, "bike_id": "a7b76cfba9b9c67a60967590c438990b", "type": "electric_scooter", "is_reserved": 0, "lon": -77.029562}, {"fusion_lat": 0.0, "name": "3e8c2819d82f29453ba6c3d9da203519", "is_disabled": 0, "rental_uris": {"android": "https://dc.lft.to/lastmile_qr_scan", "ios": "https://dc.lft.to/lastmile_qr_scan"}, "fusion_lon": 0.0, "lat": 38.90389183333333, "bike_id": "3e8c2819d82f29453ba6c3d9da203519", "type": "electric_scooter", "is_reserved": 0, "lon": -77.01780183333334}, {"fusion_lat": 0.0, "name": "2b482f5b3dc920c1ddb1adf34ee6e91e", "is_disabled": 0, "rental_uris": {"android": "https://dc.lft.to/lastmile_qr_scan", "ios": "https://dc.lft.to/lastmile_qr_scan"}, "fusion_lon": 0.0, "lat": 38.897287166666665, "bike_id": "2b482f5b3dc920c1ddb1adf34ee6e91e", "type": "electric_scooter", "is_reserved": 0, "lon": -77.0247495}, {"fusion_lat": 0.0, "name": "babcef45c48134d25ef593fcf9a2d78e", "is_disabled": 0, "rental_uris": {"android": "https://dc.lft.to/lastmile_qr_scan", "ios": "https://dc.lft.to/lastmile_qr_scan"}, "fusion_lon": 0.0, "lat": 38.8997445, "bike_id": "babcef45c48134d25ef593fcf9a2d78e", "type": "electric_scooter", "is_reserved": 0, "lon": -77.05271666666667}, {"fusion_lat": 0.0, "name": "6dc2995837708c07d7d95590cb015976", "is_disabled": 0, "rental_uris": {"android": "https://dc.lft.to/lastmile_qr_scan", "ios": "https://dc.lft.to/lastmile_qr_scan"}, "fusion_lon": 0.0, "lat": 38.93179833333333, "bike_id": "6dc2995837708c07d7d95590cb015976", "type": "electric_scooter", "is_reserved": 0, "lon": -77.02005883333334}, {"fusion_lat": 0.0, "name": "10153e3f09a6554f7cacb9d40e2cc8d2", "is_disabled": 0, "rental_uris": {"android": "https://dc.lft.to/lastmile_qr_scan", "ios": "https://dc.lft.to/lastmile_qr_scan"}, "fusion_lon": 0.0, "lat": 38.90577316666667, "bike_id": "10153e3f09a6554f7cacb9d40e2cc8d2", "type": "electric_scooter", "is_reserved": 0, "lon": -77.02208583333334}, {"fusion_lat": 0.0, "name": "7a947ff2c3519560bf943b2c7674ceed", "is_disabled": 0, "rental_uris": {"android": "https://dc.lft.to/lastmile_qr_scan", "ios": "https://dc.lft.to/lastmile_qr_scan"}, "fusion_lon": 0.0, "lat": 38.918153, "bike_id": "7a947ff2c3519560bf943b2c7674ceed", "type": "electric_scooter", "is_reserved": 0, "lon": -77.04524133333334}, {"fusion_lat": 0.0, "name": "6397fe6ab26b17390833e2dab9eccafb", "is_disabled": 0, "rental_uris": {"android": "https://dc.lft.to/lastmile_qr_scan", "ios": "https://dc.lft.to/lastmile_qr_scan"}, "fusion_lon": 0.0, "lat": 38.92427716666667, "bike_id": "6397fe6ab26b17390833e2dab9eccafb", "type": "electric_scooter", "is_reserved": 0, "lon": -77.020243}, {"fusion_lat": 0.0, "name": "0ac762145fd6cdd2b63114d65013d203", "is_disabled": 0, "rental_uris": {"android": "https://dc.lft.to/lastmile_qr_scan", "ios": "https://dc.lft.to/lastmile_qr_scan"}, "fusion_lon": 0.0, "lat": 38.935301, "bike_id": "0ac762145fd6cdd2b63114d65013d203", "type": "electric_scooter", "is_reserved": 0, "lon": -77.02350416666667}, {"fusion_lat": 0.0, "name": "5b31eb2750c1737b7a8973dee382ab9e", "is_disabled": 0, "rental_uris": {"android": "https://dc.lft.to/lastmile_qr_scan", "ios": "https://dc.lft.to/lastmile_qr_scan"}, "fusion_lon": 0.0, "lat": 38.91110716666667, "bike_id": "5b31eb2750c1737b7a8973dee382ab9e", "type": "electric_scooter", "is_reserved": 0, "lon": -77.0025125}, {"fusion_lat": 0.0, "name": "e3ecde7d4bd77e407d1aecf261d51484", "is_disabled": 0, "rental_uris": {"android": "https://dc.lft.to/lastmile_qr_scan", "ios": "https://dc.lft.to/lastmile_qr_scan"}, "fusion_lon": 0.0, "lat": 38.8974, "bike_id": "e3ecde7d4bd77e407d1aecf261d51484", "type": "electric_scooter", "is_reserved": 0, "lon": -77.04627833333333}, {"fusion_lat": 0.0, "name": "3929cada4b3e4d12d4151a7b990391d2", "is_disabled": 0, "rental_uris": {"android": "https://dc.lft.to/lastmile_qr_scan", "ios": "https://dc.lft.to/lastmile_qr_scan"}, "fusion_lon": 0.0, "lat": 38.88488816666667, "bike_id": "3929cada4b3e4d12d4151a7b990391d2", "type": "electric_scooter", "is_reserved": 0, "lon": -77.00711216666667}, {"fusion_lat": 0.0, "name": "30540a2e99c575c87896de507e3b56ce", "is_disabled": 0, "rental_uris": {"android": "https://dc.lft.to/lastmile_qr_scan", "ios": "https://dc.lft.to/lastmile_qr_scan"}, "fusion_lon": 0.0, "lat": 38.91880583333333, "bike_id": "30540a2e99c575c87896de507e3b56ce", "type": "electric_scooter", "is_reserved": 0, "lon": -77.022903}, {"fusion_lat": 0.0, "name": "0e096e521ef0839dec9de9932d2894df", "is_disabled": 0, "rental_uris": {"android": "https://dc.lft.to/lastmile_qr_scan", "ios": "https://dc.lft.to/lastmile_qr_scan"}, "fusion_lon": 0.0, "lat": 38.87812, "bike_id": "0e096e521ef0839dec9de9932d2894df", "type": "electric_scooter", "is_reserved": 0, "lon": -77.01327016666667}, {"fusion_lat": 0.0, "name": "25b4ece9319c9bb1c113b059ba2e2cf8", "is_disabled": 0, "rental_uris": {"android": "https://dc.lft.to/lastmile_qr_scan", "ios": "https://dc.lft.to/lastmile_qr_scan"}, "fusion_lon": 0.0, "lat": 38.89876816666667, "bike_id": "25b4ece9319c9bb1c113b059ba2e2cf8", "type": "electric_scooter", "is_reserved": 0, "lon": -76.93184833333333}, {"fusion_lat": 0.0, "name": "4dca560e46f77a7c80fcdbe2aadb78d5", "is_disabled": 0, "rental_uris": {"android": "https://dc.lft.to/lastmile_qr_scan", "ios": "https://dc.lft.to/lastmile_qr_scan"}, "fusion_lon": 0.0, "lat": 38.915542, "bike_id": "4dca560e46f77a7c80fcdbe2aadb78d5", "type": "electric_scooter", "is_reserved": 0, "lon": -77.03134533333333}, {"fusion_lat": 0.0, "name": "b664f9331eb07ddf1e04d56a642e7383", "is_disabled": 0, "rental_uris": {"android": "https://dc.lft.to/lastmile_qr_scan", "ios": "https://dc.lft.to/lastmile_qr_scan"}, "fusion_lon": 0.0, "lat": 38.91711733333333, "bike_id": "b664f9331eb07ddf1e04d56a642e7383", "type": "electric_scooter", "is_reserved": 0, "lon": -76.9766345}, {"fusion_lat": 0.0, "name": "f81d0971909c134ccaa576e5bc12a936", "is_disabled": 0, "rental_uris": {"android": "https://dc.lft.to/lastmile_qr_scan", "ios": "https://dc.lft.to/lastmile_qr_scan"}, "fusion_lon": 0.0, "lat": 38.96489416666667, "bike_id": "f81d0971909c134ccaa576e5bc12a936", "type": "electric_bike", "is_reserved": 0, "lon": -77.02203216666666}, {"fusion_lat": 0.0, "name": "07b0eb01729a4722b0d3020dab91776e", "is_disabled": 0, "rental_uris": {"android": "https://dc.lft.to/lastmile_qr_scan", "ios": "https://dc.lft.to/lastmile_qr_scan"}, "fusion_lon": 0.0, "lat": 38.9013745, "bike_id": "07b0eb01729a4722b0d3020dab91776e", "type": "electric_scooter", "is_reserved": 0, "lon": -77.0227885}, {"fusion_lat": 0.0, "name": "f96a1589f160f070b24bdd46c96a59c9", "is_disabled": 0, "rental_uris": {"android": "https://dc.lft.to/lastmile_qr_scan", "ios": "https://dc.lft.to/lastmile_qr_scan"}, "fusion_lon": 0.0, "lat": 38.9223815, "bike_id": "f96a1589f160f070b24bdd46c96a59c9", "type": "electric_scooter", "is_reserved": 0, "lon": -77.02912366666666}, {"fusion_lat": 0.0, "name": "c8ad717694d8ff66b5192fdfe28af931", "is_disabled": 0, "rental_uris": {"android": "https://dc.lft.to/lastmile_qr_scan", "ios": "https://dc.lft.to/lastmile_qr_scan"}, "fusion_lon": 0.0, "lat": 38.8988195, "bike_id": "c8ad717694d8ff66b5192fdfe28af931", "type": "electric_scooter", "is_reserved": 0, "lon": -77.05359883333334}, {"fusion_lat": 0.0, "name": "66122c421aab9204147937e7e515cea7", "is_disabled": 0, "rental_uris": {"android": "https://dc.lft.to/lastmile_qr_scan", "ios": "https://dc.lft.to/lastmile_qr_scan"}, "fusion_lon": 0.0, "lat": 38.92073033333333, "bike_id": "66122c421aab9204147937e7e515cea7", "type": "electric_scooter", "is_reserved": 0, "lon": -77.02370533333334}, {"fusion_lat": 0.0, "name": "adbc77abd0cf6b1628e0477c9352eefc", "is_disabled": 0, "rental_uris": {"android": "https://dc.lft.to/lastmile_qr_scan", "ios": "https://dc.lft.to/lastmile_qr_scan"}, "fusion_lon": 0.0, "lat": 38.90974383333333, "bike_id": "adbc77abd0cf6b1628e0477c9352eefc", "type": "electric_scooter", "is_reserved": 0, "lon": -77.00901983333333}, {"fusion_lat": 0.0, "name": "815d556ad8128e6ebb7b8b4085987ffe", "is_disabled": 0, "rental_uris": {"android": "https://dc.lft.to/lastmile_qr_scan", "ios": "https://dc.lft.to/lastmile_qr_scan"}, "fusion_lon": 0.0, "lat": 38.839364, "bike_id": "815d556ad8128e6ebb7b8b4085987ffe", "type": "electric_bike", "is_reserved": 0, "lon": -77.078992}, {"fusion_lat": 0.0, "name": "2e3ef61580ea8cac4e7d987f0d7bb2c7", "is_disabled": 0, "rental_uris": {"android": "https://dc.lft.to/lastmile_qr_scan", "ios": "https://dc.lft.to/lastmile_qr_scan"}, "fusion_lon": 0.0, "lat": 38.933614, "bike_id": "2e3ef61580ea8cac4e7d987f0d7bb2c7", "type": "electric_scooter", "is_reserved": 0, "lon": -77.03880833333334}, {"fusion_lat": 0.0, "name": "c3eadcf70bb851adb5cbffb941df1439", "is_disabled": 0, "rental_uris": {"android": "https://dc.lft.to/lastmile_qr_scan", "ios": "https://dc.lft.to/lastmile_qr_scan"}, "fusion_lon": 0.0, "lat": 38.9260025, "bike_id": "c3eadcf70bb851adb5cbffb941df1439", "type": "electric_scooter", "is_reserved": 0, "lon": -77.02369166666666}, {"fusion_lat": 0.0, "name": "77e7e39316b0754dba1b5627247ce046", "is_disabled": 0, "rental_uris": {"android": "https://dc.lft.to/lastmile_qr_scan", "ios": "https://dc.lft.to/lastmile_qr_scan"}, "fusion_lon": 0.0, "lat": 38.903378000000004, "bike_id": "77e7e39316b0754dba1b5627247ce046", "type": "electric_scooter", "is_reserved": 0, "lon": -76.97248516666667}, {"fusion_lat": 0.0, "name": "ecbe3432db2e899b28b1d8740631b271", "is_disabled": 0, "rental_uris": {"android": "https://dc.lft.to/lastmile_qr_scan", "ios": "https://dc.lft.to/lastmile_qr_scan"}, "fusion_lon": 0.0, "lat": 38.9362655, "bike_id": "ecbe3432db2e899b28b1d8740631b271", "type": "electric_scooter", "is_reserved": 0, "lon": -77.03659733333333}, {"fusion_lat": 0.0, "name": "0a3151c8af705a6cf7ee6fc310b0f9ae", "is_disabled": 0, "rental_uris": {"android": "https://dc.lft.to/lastmile_qr_scan", "ios": "https://dc.lft.to/lastmile_qr_scan"}, "fusion_lon": 0.0, "lat": 38.90316133333334, "bike_id": "0a3151c8af705a6cf7ee6fc310b0f9ae", "type": "electric_scooter", "is_reserved": 0, "lon": -77.03837383333334}, {"fusion_lat": 0.0, "name": "1de73120200f824be49cbc1a6a6ebbda", "is_disabled": 0, "rental_uris": {"android": "https://dc.lft.to/lastmile_qr_scan", "ios": "https://dc.lft.to/lastmile_qr_scan"}, "fusion_lon": 0.0, "lat": 38.94135716666667, "bike_id": "1de73120200f824be49cbc1a6a6ebbda", "type": "electric_scooter", "is_reserved": 0, "lon": -77.00610066666667}, {"fusion_lat": 0.0, "name": "8e170a378cb87225325fbcbdb12ac093", "is_disabled": 0, "rental_uris": {"android": "https://dc.lft.to/lastmile_qr_scan", "ios": "https://dc.lft.to/lastmile_qr_scan"}, "fusion_lon": 0.0, "lat": 38.956862666666666, "bike_id": "8e170a378cb87225325fbcbdb12ac093", "type": "electric_bike", "is_reserved": 0, "lon": -77.02224183333334}, {"fusion_lat": 0.0, "name": "802bc84a5fd0b5f7de9cc400fb8a7096", "is_disabled": 0, "rental_uris": {"android": "https://dc.lft.to/lastmile_qr_scan", "ios": "https://dc.lft.to/lastmile_qr_scan"}, "fusion_lon": 0.0, "lat": 38.906923166666665, "bike_id": "802bc84a5fd0b5f7de9cc400fb8a7096", "type": "electric_scooter", "is_reserved": 0, "lon": -77.015394}, {"fusion_lat": 0.0, "name": "5365b63b9a301a78bed15b413d74466d", "is_disabled": 0, "rental_uris": {"android": "https://dc.lft.to/lastmile_qr_scan", "ios": "https://dc.lft.to/lastmile_qr_scan"}, "fusion_lon": 0.0, "lat": 38.92615883333333, "bike_id": "5365b63b9a301a78bed15b413d74466d", "type": "electric_scooter", "is_reserved": 0, "lon": -77.04190033333333}, {"fusion_lat": 0.0, "name": "157abfc67038169a8b7d21245eef3df5", "is_disabled": 0, "rental_uris": {"android": "https://dc.lft.to/lastmile_qr_scan", "ios": "https://dc.lft.to/lastmile_qr_scan"}, "fusion_lon": 0.0, "lat": 38.906462833333336, "bike_id": "157abfc67038169a8b7d21245eef3df5", "type": "electric_scooter", "is_reserved": 0, "lon": -77.06288216666667}, {"fusion_lat": 0.0, "name": "621c9fae86c2b95343663f3482fabc5a", "is_disabled": 0, "rental_uris": {"android": "https://dc.lft.to/lastmile_qr_scan", "ios": "https://dc.lft.to/lastmile_qr_scan"}, "fusion_lon": 0.0, "lat": 38.91067283333334, "bike_id": "621c9fae86c2b95343663f3482fabc5a", "type": "electric_scooter", "is_reserved": 0, "lon": -77.0411665}, {"fusion_lat": 0.0, "name": "d4deee61f2503b0f6d83f7b16a9124dc", "is_disabled": 0, "rental_uris": {"android": "https://dc.lft.to/lastmile_qr_scan", "ios": "https://dc.lft.to/lastmile_qr_scan"}, "fusion_lon": 0.0, "lat": 38.945952, "bike_id": "d4deee61f2503b0f6d83f7b16a9124dc", "type": "electric_scooter", "is_reserved": 0, "lon": -77.02980133333334}, {"fusion_lat": 0.0, "name": "dcb704ea67cccb8f5210fc17198c6309", "is_disabled": 0, "rental_uris": {"android": "https://dc.lft.to/lastmile_qr_scan", "ios": "https://dc.lft.to/lastmile_qr_scan"}, "fusion_lon": 0.0, "lat": 38.87152066666667, "bike_id": "dcb704ea67cccb8f5210fc17198c6309", "type": "electric_scooter", "is_reserved": 0, "lon": -77.01192033333334}, {"fusion_lat": 0.0, "name": "b44378023e5ad3d726c02f7876e1100c", "is_disabled": 0, "rental_uris": {"android": "https://dc.lft.to/lastmile_qr_scan", "ios": "https://dc.lft.to/lastmile_qr_scan"}, "fusion_lon": 0.0, "lat": 38.905533, "bike_id": "b44378023e5ad3d726c02f7876e1100c", "type": "electric_scooter", "is_reserved": 0, "lon": -77.05811783333333}, {"fusion_lat": 0.0, "name": "c3d8b0f7c5197ad9f72656eb3e569349", "is_disabled": 0, "rental_uris": {"android": "https://dc.lft.to/lastmile_qr_scan", "ios": "https://dc.lft.to/lastmile_qr_scan"}, "fusion_lon": 0.0, "lat": 38.9193655, "bike_id": "c3d8b0f7c5197ad9f72656eb3e569349", "type": "electric_scooter", "is_reserved": 0, "lon": -77.02442816666667}, {"fusion_lat": 0.0, "name": "abb60536bb1f0f85a876e7bc1f8959e5", "is_disabled": 0, "rental_uris": {"android": "https://dc.lft.to/lastmile_qr_scan", "ios": "https://dc.lft.to/lastmile_qr_scan"}, "fusion_lon": 0.0, "lat": 38.9124775, "bike_id": "abb60536bb1f0f85a876e7bc1f8959e5", "type": "electric_scooter", "is_reserved": 0, "lon": -77.03761583333333}, {"fusion_lat": 0.0, "name": "af04df3c275949d349abc8915497dc64", "is_disabled": 0, "rental_uris": {"android": "https://dc.lft.to/lastmile_qr_scan", "ios": "https://dc.lft.to/lastmile_qr_scan"}, "fusion_lon": 0.0, "lat": 38.92133166666667, "bike_id": "af04df3c275949d349abc8915497dc64", "type": "electric_scooter", "is_reserved": 0, "lon": -77.004023}, {"fusion_lat": 0.0, "name": "5514d4e5cea375745befc8e77e5d5312", "is_disabled": 0, "rental_uris": {"android": "https://dc.lft.to/lastmile_qr_scan", "ios": "https://dc.lft.to/lastmile_qr_scan"}, "fusion_lon": 0.0, "lat": 38.916312166666664, "bike_id": "5514d4e5cea375745befc8e77e5d5312", "type": "electric_scooter", "is_reserved": 0, "lon": -77.00390733333333}, {"fusion_lat": 0.0, "name": "fb08a17152588d47f376084d49a3afdf", "is_disabled": 0, "rental_uris": {"android": "https://dc.lft.to/lastmile_qr_scan", "ios": "https://dc.lft.to/lastmile_qr_scan"}, "fusion_lon": 0.0, "lat": 38.86513016666667, "bike_id": "fb08a17152588d47f376084d49a3afdf", "type": "electric_scooter", "is_reserved": 0, "lon": -76.97342916666666}, {"fusion_lat": 0.0, "name": "75120de5751aacf6c91979b7bba91d83", "is_disabled": 0, "rental_uris": {"android": "https://dc.lft.to/lastmile_qr_scan", "ios": "https://dc.lft.to/lastmile_qr_scan"}, "fusion_lon": 0.0, "lat": 38.978826833333336, "bike_id": "75120de5751aacf6c91979b7bba91d83", "type": "electric_bike", "is_reserved": 0, "lon": -77.06031916666667}, {"fusion_lat": 0.0, "name": "d6509717fd5b86e376ef8c64d1171d73", "is_disabled": 0, "rental_uris": {"android": "https://dc.lft.to/lastmile_qr_scan", "ios": "https://dc.lft.to/lastmile_qr_scan"}, "fusion_lon": 0.0, "lat": 38.83934716666667, "bike_id": "d6509717fd5b86e376ef8c64d1171d73", "type": "electric_bike", "is_reserved": 0, "lon": -77.07903116666667}, {"fusion_lat": 0.0, "name": "ff41e005bfb5ad4f8d1365a747887493", "is_disabled": 0, "rental_uris": {"android": "https://dc.lft.to/lastmile_qr_scan", "ios": "https://dc.lft.to/lastmile_qr_scan"}, "fusion_lon": 0.0, "lat": 38.9003475, "bike_id": "ff41e005bfb5ad4f8d1365a747887493", "type": "electric_bike", "is_reserved": 0, "lon": -77.002271}, {"fusion_lat": 0.0, "name": "ee49da31ee80d4fe4ecc47496712fd44", "is_disabled": 0, "rental_uris": {"android": "https://dc.lft.to/lastmile_qr_scan", "ios": "https://dc.lft.to/lastmile_qr_scan"}, "fusion_lon": 0.0, "lat": 38.932984833333336, "bike_id": "ee49da31ee80d4fe4ecc47496712fd44", "type": "electric_scooter", "is_reserved": 0, "lon": -77.03080316666667}, {"fusion_lat": 0.0, "name": "8d0741d7412ab8ceedee4ae045528b13", "is_disabled": 0, "rental_uris": {"android": "https://dc.lft.to/lastmile_qr_scan", "ios": "https://dc.lft.to/lastmile_qr_scan"}, "fusion_lon": 0.0, "lat": 38.918209166666664, "bike_id": "8d0741d7412ab8ceedee4ae045528b13", "type": "electric_scooter", "is_reserved": 0, "lon": -77.02716516666666}, {"fusion_lat": 0.0, "name": "038de5a47b9b2571dc532202cdd2ff6f", "is_disabled": 0, "rental_uris": {"android": "https://dc.lft.to/lastmile_qr_scan", "ios": "https://dc.lft.to/lastmile_qr_scan"}, "fusion_lon": 0.0, "lat": 38.8998705, "bike_id": "038de5a47b9b2571dc532202cdd2ff6f", "type": "electric_scooter", "is_reserved": 0, "lon": -77.02300933333333}, {"fusion_lat": 0.0, "name": "fe750370328e3c6a91d62d95242fab2c", "is_disabled": 0, "rental_uris": {"android": "https://dc.lft.to/lastmile_qr_scan", "ios": "https://dc.lft.to/lastmile_qr_scan"}, "fusion_lon": 0.0, "lat": 38.94838466666667, "bike_id": "fe750370328e3c6a91d62d95242fab2c", "type": "electric_scooter", "is_reserved": 0, "lon": -77.02573366666667}, {"fusion_lat": 0.0, "name": "b7f9ce3298b94f12944e534681c5ebf9", "is_disabled": 0, "rental_uris": {"android": "https://dc.lft.to/lastmile_qr_scan", "ios": "https://dc.lft.to/lastmile_qr_scan"}, "fusion_lon": 0.0, "lat": 38.91917616666667, "bike_id": "b7f9ce3298b94f12944e534681c5ebf9", "type": "electric_scooter", "is_reserved": 0, "lon": -77.0337385}, {"fusion_lat": 0.0, "name": "742e6fcec1864ce02ff00763a4fb9c8b", "is_disabled": 0, "rental_uris": {"android": "https://dc.lft.to/lastmile_qr_scan", "ios": "https://dc.lft.to/lastmile_qr_scan"}, "fusion_lon": 0.0, "lat": 38.91118983333333, "bike_id": "742e6fcec1864ce02ff00763a4fb9c8b", "type": "electric_scooter", "is_reserved": 0, "lon": -77.038291}, {"fusion_lat": 0.0, "name": "7e4768fd241fc02303cd78102a1f438b", "is_disabled": 0, "rental_uris": {"android": "https://dc.lft.to/lastmile_qr_scan", "ios": "https://dc.lft.to/lastmile_qr_scan"}, "fusion_lon": 0.0, "lat": 38.879562, "bike_id": "7e4768fd241fc02303cd78102a1f438b", "type": "electric_scooter", "is_reserved": 0, "lon": -77.0085105}, {"fusion_lat": 0.0, "name": "dc8eaccb175cfef8a571e34fbef26fa1", "is_disabled": 0, "rental_uris": {"android": "https://dc.lft.to/lastmile_qr_scan", "ios": "https://dc.lft.to/lastmile_qr_scan"}, "fusion_lon": 0.0, "lat": 38.96233466666666, "bike_id": "dc8eaccb175cfef8a571e34fbef26fa1", "type": "electric_bike", "is_reserved": 0, "lon": -76.92798716666667}, {"fusion_lat": 0.0, "name": "f77bdcd6b46d148068a920523fa8bd3e", "is_disabled": 0, "rental_uris": {"android": "https://dc.lft.to/lastmile_qr_scan", "ios": "https://dc.lft.to/lastmile_qr_scan"}, "fusion_lon": 0.0, "lat": 38.903643, "bike_id": "f77bdcd6b46d148068a920523fa8bd3e", "type": "electric_scooter", "is_reserved": 0, "lon": -77.03802833333333}, {"fusion_lat": 0.0, "name": "c84e57649ebd5b1a245e1079228bb857", "is_disabled": 0, "rental_uris": {"android": "https://dc.lft.to/lastmile_qr_scan", "ios": "https://dc.lft.to/lastmile_qr_scan"}, "fusion_lon": 0.0, "lat": 38.901475833333336, "bike_id": "c84e57649ebd5b1a245e1079228bb857", "type": "electric_scooter", "is_reserved": 0, "lon": -77.04181483333333}, {"fusion_lat": 0.0, "name": "9b385cbbfab89dd0d94f86a8ca28c2f3", "is_disabled": 0, "rental_uris": {"android": "https://dc.lft.to/lastmile_qr_scan", "ios": "https://dc.lft.to/lastmile_qr_scan"}, "fusion_lon": 0.0, "lat": 38.906009166666664, "bike_id": "9b385cbbfab89dd0d94f86a8ca28c2f3", "type": "electric_scooter", "is_reserved": 0, "lon": -77.07155083333333}, {"fusion_lat": 0.0, "name": "ea1eb07d43cfdca9bf52c225d8dda7ea", "is_disabled": 0, "rental_uris": {"android": "https://dc.lft.to/lastmile_qr_scan", "ios": "https://dc.lft.to/lastmile_qr_scan"}, "fusion_lon": 0.0, "lat": 38.8964885, "bike_id": "ea1eb07d43cfdca9bf52c225d8dda7ea", "type": "electric_scooter", "is_reserved": 0, "lon": -77.02142333333333}, {"fusion_lat": 0.0, "name": "2f69e6a33bc4a92acd81f1d7856cbfa5", "is_disabled": 0, "rental_uris": {"android": "https://dc.lft.to/lastmile_qr_scan", "ios": "https://dc.lft.to/lastmile_qr_scan"}, "fusion_lon": 0.0, "lat": 38.920535666666666, "bike_id": "2f69e6a33bc4a92acd81f1d7856cbfa5", "type": "electric_scooter", "is_reserved": 0, "lon": -77.03411816666667}, {"fusion_lat": 0.0, "name": "a18f5d1383c07b96fa5ebb139e0ed2eb", "is_disabled": 0, "rental_uris": {"android": "https://dc.lft.to/lastmile_qr_scan", "ios": "https://dc.lft.to/lastmile_qr_scan"}, "fusion_lon": 0.0, "lat": 38.927361833333336, "bike_id": "a18f5d1383c07b96fa5ebb139e0ed2eb", "type": "electric_scooter", "is_reserved": 0, "lon": -77.02279233333333}, {"fusion_lat": 0.0, "name": "4a6750ff8ae43722ac85287bc5747443", "is_disabled": 0, "rental_uris": {"android": "https://dc.lft.to/lastmile_qr_scan", "ios": "https://dc.lft.to/lastmile_qr_scan"}, "fusion_lon": 0.0, "lat": 38.9595555, "bike_id": "4a6750ff8ae43722ac85287bc5747443", "type": "electric_bike", "is_reserved": 0, "lon": -77.03058}, {"fusion_lat": 0.0, "name": "911b6fa9b3cf6056f1ae500340795d8f", "is_disabled": 0, "rental_uris": {"android": "https://dc.lft.to/lastmile_qr_scan", "ios": "https://dc.lft.to/lastmile_qr_scan"}, "fusion_lon": 0.0, "lat": 38.9387305, "bike_id": "911b6fa9b3cf6056f1ae500340795d8f", "type": "electric_scooter", "is_reserved": 0, "lon": -77.02917783333334}, {"fusion_lat": 0.0, "name": "c768e962d2e340661ce80dc4e82330ed", "is_disabled": 0, "rental_uris": {"android": "https://dc.lft.to/lastmile_qr_scan", "ios": "https://dc.lft.to/lastmile_qr_scan"}, "fusion_lon": 0.0, "lat": 38.920318, "bike_id": "c768e962d2e340661ce80dc4e82330ed", "type": "electric_scooter", "is_reserved": 0, "lon": -76.98995083333334}, {"fusion_lat": 0.0, "name": "caa050f6eab6c88fa4bfdc02c2337f94", "is_disabled": 0, "rental_uris": {"android": "https://dc.lft.to/lastmile_qr_scan", "ios": "https://dc.lft.to/lastmile_qr_scan"}, "fusion_lon": 0.0, "lat": 38.95665316666667, "bike_id": "caa050f6eab6c88fa4bfdc02c2337f94", "type": "electric_bike", "is_reserved": 0, "lon": -77.011313}, {"fusion_lat": 0.0, "name": "214c857759689615c8b36e15bcb4a6ad", "is_disabled": 0, "rental_uris": {"android": "https://dc.lft.to/lastmile_qr_scan", "ios": "https://dc.lft.to/lastmile_qr_scan"}, "fusion_lon": 0.0, "lat": 38.90681583333333, "bike_id": "214c857759689615c8b36e15bcb4a6ad", "type": "electric_scooter", "is_reserved": 0, "lon": -77.044673}, {"fusion_lat": 0.0, "name": "b14d09bac8293cf6cbc4f959e096e29e", "is_disabled": 0, "rental_uris": {"android": "https://dc.lft.to/lastmile_qr_scan", "ios": "https://dc.lft.to/lastmile_qr_scan"}, "fusion_lon": 0.0, "lat": 38.892288, "bike_id": "b14d09bac8293cf6cbc4f959e096e29e", "type": "electric_scooter", "is_reserved": 0, "lon": -77.04997216666666}, {"fusion_lat": 0.0, "name": "e06f2689b87578958c0f08733e4cb980", "is_disabled": 0, "rental_uris": {"android": "https://dc.lft.to/lastmile_qr_scan", "ios": "https://dc.lft.to/lastmile_qr_scan"}, "fusion_lon": 0.0, "lat": 38.934487, "bike_id": "e06f2689b87578958c0f08733e4cb980", "type": "electric_scooter", "is_reserved": 0, "lon": -77.0387355}, {"fusion_lat": 0.0, "name": "b72cb546c750e9c0b37a75e30dbb9834", "is_disabled": 0, "rental_uris": {"android": "https://dc.lft.to/lastmile_qr_scan", "ios": "https://dc.lft.to/lastmile_qr_scan"}, "fusion_lon": 0.0, "lat": 38.94975433333333, "bike_id": "b72cb546c750e9c0b37a75e30dbb9834", "type": "electric_scooter", "is_reserved": 0, "lon": -77.0244695}, {"fusion_lat": 0.0, "name": "b3df75d495006f98a5a7d9800a812622", "is_disabled": 0, "rental_uris": {"android": "https://dc.lft.to/lastmile_qr_scan", "ios": "https://dc.lft.to/lastmile_qr_scan"}, "fusion_lon": 0.0, "lat": 38.928887833333334, "bike_id": "b3df75d495006f98a5a7d9800a812622", "type": "electric_scooter", "is_reserved": 0, "lon": -77.0374215}, {"fusion_lat": 0.0, "name": "3aa2e6dee7fa1608a267bb99322da6db", "is_disabled": 0, "rental_uris": {"android": "https://dc.lft.to/lastmile_qr_scan", "ios": "https://dc.lft.to/lastmile_qr_scan"}, "fusion_lon": 0.0, "lat": 38.914694, "bike_id": "3aa2e6dee7fa1608a267bb99322da6db", "type": "electric_scooter", "is_reserved": 0, "lon": -76.983896}, {"fusion_lat": 0.0, "name": "0ec1336414e14e61dd5108211d12c21f", "is_disabled": 0, "rental_uris": {"android": "https://dc.lft.to/lastmile_qr_scan", "ios": "https://dc.lft.to/lastmile_qr_scan"}, "fusion_lon": 0.0, "lat": 38.91822666666667, "bike_id": "0ec1336414e14e61dd5108211d12c21f", "type": "electric_scooter", "is_reserved": 0, "lon": -77.0369005}, {"fusion_lat": 0.0, "name": "f63f994985f9543269304439c9daeed2", "is_disabled": 0, "rental_uris": {"android": "https://dc.lft.to/lastmile_qr_scan", "ios": "https://dc.lft.to/lastmile_qr_scan"}, "fusion_lon": 0.0, "lat": 38.914783666666665, "bike_id": "f63f994985f9543269304439c9daeed2", "type": "electric_scooter", "is_reserved": 0, "lon": -77.02179133333334}, {"fusion_lat": 0.0, "name": "e93851589c3516a137d5b68abdb900db", "is_disabled": 0, "rental_uris": {"android": "https://dc.lft.to/lastmile_qr_scan", "ios": "https://dc.lft.to/lastmile_qr_scan"}, "fusion_lon": 0.0, "lat": 38.95002066666667, "bike_id": "e93851589c3516a137d5b68abdb900db", "type": "electric_scooter", "is_reserved": 0, "lon": -77.019502}, {"fusion_lat": 0.0, "name": "ad99d7aa16021e2ba2467845faff48eb", "is_disabled": 0, "rental_uris": {"android": "https://dc.lft.to/lastmile_qr_scan", "ios": "https://dc.lft.to/lastmile_qr_scan"}, "fusion_lon": 0.0, "lat": 38.918499833333335, "bike_id": "ad99d7aa16021e2ba2467845faff48eb", "type": "electric_scooter", "is_reserved": 0, "lon": -76.96540833333333}, {"fusion_lat": 0.0, "name": "f21cf0e8d5ce9fbd5fccd7e8e0a3ec0c", "is_disabled": 0, "rental_uris": {"android": "https://dc.lft.to/lastmile_qr_scan", "ios": "https://dc.lft.to/lastmile_qr_scan"}, "fusion_lon": 0.0, "lat": 38.92058433333333, "bike_id": "f21cf0e8d5ce9fbd5fccd7e8e0a3ec0c", "type": "electric_scooter", "is_reserved": 0, "lon": -77.02370016666667}, {"fusion_lat": 0.0, "name": "a4d32de9adae1472a0c64c8176afb5c4", "is_disabled": 0, "rental_uris": {"android": "https://dc.lft.to/lastmile_qr_scan", "ios": "https://dc.lft.to/lastmile_qr_scan"}, "fusion_lon": 0.0, "lat": 38.90681716666667, "bike_id": "a4d32de9adae1472a0c64c8176afb5c4", "type": "electric_scooter", "is_reserved": 0, "lon": -77.01098616666667}, {"fusion_lat": 0.0, "name": "aed02e9b33d3d5a416f9a46d94c49494", "is_disabled": 0, "rental_uris": {"android": "https://dc.lft.to/lastmile_qr_scan", "ios": "https://dc.lft.to/lastmile_qr_scan"}, "fusion_lon": 0.0, "lat": 38.921905333333335, "bike_id": "aed02e9b33d3d5a416f9a46d94c49494", "type": "electric_scooter", "is_reserved": 0, "lon": -77.0402725}, {"fusion_lat": 0.0, "name": "7e4af08a3c29a1d199fe8360db4c270c", "is_disabled": 0, "rental_uris": {"android": "https://dc.lft.to/lastmile_qr_scan", "ios": "https://dc.lft.to/lastmile_qr_scan"}, "fusion_lon": 0.0, "lat": 38.91554933333333, "bike_id": "7e4af08a3c29a1d199fe8360db4c270c", "type": "electric_scooter", "is_reserved": 0, "lon": -77.04636983333333}, {"fusion_lat": 0.0, "name": "df5c035308ae1cfe909fb44e35011dff", "is_disabled": 0, "rental_uris": {"android": "https://dc.lft.to/lastmile_qr_scan", "ios": "https://dc.lft.to/lastmile_qr_scan"}, "fusion_lon": 0.0, "lat": 38.908511833333336, "bike_id": "df5c035308ae1cfe909fb44e35011dff", "type": "electric_scooter", "is_reserved": 0, "lon": -77.01013383333333}, {"fusion_lat": 0.0, "name": "a1d361ac67353d7c6033b34b0f99c537", "is_disabled": 0, "rental_uris": {"android": "https://dc.lft.to/lastmile_qr_scan", "ios": "https://dc.lft.to/lastmile_qr_scan"}, "fusion_lon": 0.0, "lat": 38.90037483333333, "bike_id": "a1d361ac67353d7c6033b34b0f99c537", "type": "electric_scooter", "is_reserved": 0, "lon": -77.01689083333333}, {"fusion_lat": 0.0, "name": "775c76e49b0286bc57a770bc14e52c18", "is_disabled": 0, "rental_uris": {"android": "https://dc.lft.to/lastmile_qr_scan", "ios": "https://dc.lft.to/lastmile_qr_scan"}, "fusion_lon": 0.0, "lat": 38.89901066666667, "bike_id": "775c76e49b0286bc57a770bc14e52c18", "type": "electric_scooter", "is_reserved": 0, "lon": -76.93363}, {"fusion_lat": 0.0, "name": "ff7b9e5ae7fc0fc775116a502ae48b61", "is_disabled": 0, "rental_uris": {"android": "https://dc.lft.to/lastmile_qr_scan", "ios": "https://dc.lft.to/lastmile_qr_scan"}, "fusion_lon": 0.0, "lat": 38.8852455, "bike_id": "ff7b9e5ae7fc0fc775116a502ae48b61", "type": "electric_scooter", "is_reserved": 0, "lon": -76.9292305}, {"fusion_lat": 0.0, "name": "4eb7cd0168dcecabc263798566e3f2b4", "is_disabled": 0, "rental_uris": {"android": "https://dc.lft.to/lastmile_qr_scan", "ios": "https://dc.lft.to/lastmile_qr_scan"}, "fusion_lon": 0.0, "lat": 38.90578466666667, "bike_id": "4eb7cd0168dcecabc263798566e3f2b4", "type": "electric_scooter", "is_reserved": 0, "lon": -77.02602166666667}, {"fusion_lat": 0.0, "name": "9305d4afcfe9f5b8a21717f386a75767", "is_disabled": 0, "rental_uris": {"android": "https://dc.lft.to/lastmile_qr_scan", "ios": "https://dc.lft.to/lastmile_qr_scan"}, "fusion_lon": 0.0, "lat": 38.9084225, "bike_id": "9305d4afcfe9f5b8a21717f386a75767", "type": "electric_scooter", "is_reserved": 0, "lon": -77.03299616666666}, {"fusion_lat": 0.0, "name": "5d2c70df8bd9f53d153649b449f2a87c", "is_disabled": 0, "rental_uris": {"android": "https://dc.lft.to/lastmile_qr_scan", "ios": "https://dc.lft.to/lastmile_qr_scan"}, "fusion_lon": 0.0, "lat": 38.8991295, "bike_id": "5d2c70df8bd9f53d153649b449f2a87c", "type": "electric_scooter", "is_reserved": 0, "lon": -76.94588116666667}, {"fusion_lat": 0.0, "name": "a8f8802330e2e803b72e0c7767534961", "is_disabled": 0, "rental_uris": {"android": "https://dc.lft.to/lastmile_qr_scan", "ios": "https://dc.lft.to/lastmile_qr_scan"}, "fusion_lon": 0.0, "lat": 38.9282355, "bike_id": "a8f8802330e2e803b72e0c7767534961", "type": "electric_scooter", "is_reserved": 0, "lon": -77.0160095}, {"fusion_lat": 0.0, "name": "c4ecc2787b41545262294cd16ebdeaab", "is_disabled": 0, "rental_uris": {"android": "https://dc.lft.to/lastmile_qr_scan", "ios": "https://dc.lft.to/lastmile_qr_scan"}, "fusion_lon": 0.0, "lat": 38.93908366666667, "bike_id": "c4ecc2787b41545262294cd16ebdeaab", "type": "electric_scooter", "is_reserved": 0, "lon": -77.07800983333334}, {"fusion_lat": 0.0, "name": "8ca08aa8cd95984dce79ccf04aec9e8a", "is_disabled": 0, "rental_uris": {"android": "https://dc.lft.to/lastmile_qr_scan", "ios": "https://dc.lft.to/lastmile_qr_scan"}, "fusion_lon": 0.0, "lat": 38.87579566666667, "bike_id": "8ca08aa8cd95984dce79ccf04aec9e8a", "type": "electric_bike", "is_reserved": 0, "lon": -77.23410233333334}, {"fusion_lat": 0.0, "name": "95e3c1f3c807bccf8d78730a901a1494", "is_disabled": 0, "rental_uris": {"android": "https://dc.lft.to/lastmile_qr_scan", "ios": "https://dc.lft.to/lastmile_qr_scan"}, "fusion_lon": 0.0, "lat": 38.907914166666664, "bike_id": "95e3c1f3c807bccf8d78730a901a1494", "type": "electric_scooter", "is_reserved": 0, "lon": -77.04227466666667}, {"fusion_lat": 0.0, "name": "c57bb84e083f749686806cbd6e97b42e", "is_disabled": 0, "rental_uris": {"android": "https://dc.lft.to/lastmile_qr_scan", "ios": "https://dc.lft.to/lastmile_qr_scan"}, "fusion_lon": 0.0, "lat": 38.888357, "bike_id": "c57bb84e083f749686806cbd6e97b42e", "type": "electric_scooter", "is_reserved": 0, "lon": -77.04908233333333}, {"fusion_lat": 0.0, "name": "13922607918c85b3ea7dc1cbfe42fb10", "is_disabled": 0, "rental_uris": {"android": "https://dc.lft.to/lastmile_qr_scan", "ios": "https://dc.lft.to/lastmile_qr_scan"}, "fusion_lon": 0.0, "lat": 38.9155175, "bike_id": "13922607918c85b3ea7dc1cbfe42fb10", "type": "electric_scooter", "is_reserved": 0, "lon": -77.00362966666667}, {"fusion_lat": 0.0, "name": "45fb95c14385038c3b7399ca8682e094", "is_disabled": 0, "rental_uris": {"android": "https://dc.lft.to/lastmile_qr_scan", "ios": "https://dc.lft.to/lastmile_qr_scan"}, "fusion_lon": 0.0, "lat": 38.9068885, "bike_id": "45fb95c14385038c3b7399ca8682e094", "type": "electric_scooter", "is_reserved": 0, "lon": -76.95191616666666}, {"fusion_lat": 0.0, "name": "224db26f199d3f1beffc3c837666dee6", "is_disabled": 0, "rental_uris": {"android": "https://dc.lft.to/lastmile_qr_scan", "ios": "https://dc.lft.to/lastmile_qr_scan"}, "fusion_lon": 0.0, "lat": 38.924036666666666, "bike_id": "224db26f199d3f1beffc3c837666dee6", "type": "electric_scooter", "is_reserved": 0, "lon": -77.02542266666667}, {"fusion_lat": 0.0, "name": "b514d9e48018e0149b3b4f3d69624c78", "is_disabled": 0, "rental_uris": {"android": "https://dc.lft.to/lastmile_qr_scan", "ios": "https://dc.lft.to/lastmile_qr_scan"}, "fusion_lon": 0.0, "lat": 38.90255916666667, "bike_id": "b514d9e48018e0149b3b4f3d69624c78", "type": "electric_scooter", "is_reserved": 0, "lon": -77.04614166666667}, {"fusion_lat": 0.0, "name": "6e6abccbd6a31ebc12764d8b2b56b56f", "is_disabled": 0, "rental_uris": {"android": "https://dc.lft.to/lastmile_qr_scan", "ios": "https://dc.lft.to/lastmile_qr_scan"}, "fusion_lon": 0.0, "lat": 38.90969483333333, "bike_id": "6e6abccbd6a31ebc12764d8b2b56b56f", "type": "electric_scooter", "is_reserved": 0, "lon": -77.04701783333333}, {"fusion_lat": 0.0, "name": "6ca38b09372a64c9f40a22860223e17c", "is_disabled": 0, "rental_uris": {"android": "https://dc.lft.to/lastmile_qr_scan", "ios": "https://dc.lft.to/lastmile_qr_scan"}, "fusion_lon": 0.0, "lat": 38.91656966666667, "bike_id": "6ca38b09372a64c9f40a22860223e17c", "type": "electric_scooter", "is_reserved": 0, "lon": -77.038611}, {"fusion_lat": 0.0, "name": "879bd7927894175bcb5d351ec3f15433", "is_disabled": 0, "rental_uris": {"android": "https://dc.lft.to/lastmile_qr_scan", "ios": "https://dc.lft.to/lastmile_qr_scan"}, "fusion_lon": 0.0, "lat": 38.91172266666667, "bike_id": "879bd7927894175bcb5d351ec3f15433", "type": "electric_scooter", "is_reserved": 0, "lon": -77.027212}, {"fusion_lat": 0.0, "name": "e482e646c76479ce96efd16d0916d3cf", "is_disabled": 0, "rental_uris": {"android": "https://dc.lft.to/lastmile_qr_scan", "ios": "https://dc.lft.to/lastmile_qr_scan"}, "fusion_lon": 0.0, "lat": 38.951213833333334, "bike_id": "e482e646c76479ce96efd16d0916d3cf", "type": "electric_bike", "is_reserved": 0, "lon": -77.02780866666667}, {"fusion_lat": 0.0, "name": "9c23b81649557ab9e34e0cad05220fb4", "is_disabled": 0, "rental_uris": {"android": "https://dc.lft.to/lastmile_qr_scan", "ios": "https://dc.lft.to/lastmile_qr_scan"}, "fusion_lon": 0.0, "lat": 38.906508333333335, "bike_id": "9c23b81649557ab9e34e0cad05220fb4", "type": "electric_scooter", "is_reserved": 0, "lon": -77.0095215}, {"fusion_lat": 0.0, "name": "b45d1f1d775446b7e554d4b7ed9afd2e", "is_disabled": 0, "rental_uris": {"android": "https://dc.lft.to/lastmile_qr_scan", "ios": "https://dc.lft.to/lastmile_qr_scan"}, "fusion_lon": 0.0, "lat": 38.836293, "bike_id": "b45d1f1d775446b7e554d4b7ed9afd2e", "type": "electric_bike", "is_reserved": 0, "lon": -77.06948916666667}, {"fusion_lat": 0.0, "name": "93b28b2768d0a0e19d5e0e386aa764ae", "is_disabled": 0, "rental_uris": {"android": "https://dc.lft.to/lastmile_qr_scan", "ios": "https://dc.lft.to/lastmile_qr_scan"}, "fusion_lon": 0.0, "lat": 38.84912416666667, "bike_id": "93b28b2768d0a0e19d5e0e386aa764ae", "type": "electric_bike", "is_reserved": 0, "lon": -77.09979216666666}, {"fusion_lat": 0.0, "name": "492e928c3e4ae74fa4c33e0b647d01cb", "is_disabled": 0, "rental_uris": {"android": "https://dc.lft.to/lastmile_qr_scan", "ios": "https://dc.lft.to/lastmile_qr_scan"}, "fusion_lon": 0.0, "lat": 38.90664366666667, "bike_id": "492e928c3e4ae74fa4c33e0b647d01cb", "type": "electric_scooter", "is_reserved": 0, "lon": -77.03861616666667}, {"fusion_lat": 0.0, "name": "7a62149ead9cc0dfa2fd7c88836b4503", "is_disabled": 0, "rental_uris": {"android": "https://dc.lft.to/lastmile_qr_scan", "ios": "https://dc.lft.to/lastmile_qr_scan"}, "fusion_lon": 0.0, "lat": 38.891053, "bike_id": "7a62149ead9cc0dfa2fd7c88836b4503", "type": "electric_scooter", "is_reserved": 0, "lon": -76.983559}, {"fusion_lat": 0.0, "name": "6eac013fa00495f8dd3b06e2aa65b5c9", "is_disabled": 0, "rental_uris": {"android": "https://dc.lft.to/lastmile_qr_scan", "ios": "https://dc.lft.to/lastmile_qr_scan"}, "fusion_lon": 0.0, "lat": 38.916594333333336, "bike_id": "6eac013fa00495f8dd3b06e2aa65b5c9", "type": "electric_scooter", "is_reserved": 0, "lon": -77.0385505}, {"fusion_lat": 0.0, "name": "99f60bd4614d9b841badca272507aa33", "is_disabled": 0, "rental_uris": {"android": "https://dc.lft.to/lastmile_qr_scan", "ios": "https://dc.lft.to/lastmile_qr_scan"}, "fusion_lon": 0.0, "lat": 38.878117333333336, "bike_id": "99f60bd4614d9b841badca272507aa33", "type": "electric_scooter", "is_reserved": 0, "lon": -77.0012405}, {"fusion_lat": 0.0, "name": "64b354e47dbae77af631319f3d8f803f", "is_disabled": 0, "rental_uris": {"android": "https://dc.lft.to/lastmile_qr_scan", "ios": "https://dc.lft.to/lastmile_qr_scan"}, "fusion_lon": 0.0, "lat": 38.96926933333334, "bike_id": "64b354e47dbae77af631319f3d8f803f", "type": "electric_bike", "is_reserved": 0, "lon": -77.02613033333333}, {"fusion_lat": 0.0, "name": "8d0229df3f15811fcbf67252b38652a0", "is_disabled": 0, "rental_uris": {"android": "https://dc.lft.to/lastmile_qr_scan", "ios": "https://dc.lft.to/lastmile_qr_scan"}, "fusion_lon": 0.0, "lat": 38.86518366666667, "bike_id": "8d0229df3f15811fcbf67252b38652a0", "type": "electric_bike", "is_reserved": 0, "lon": -76.97333416666666}, {"fusion_lat": 0.0, "name": "6d1a9d6cf4901c0deec0c762158cbfac", "is_disabled": 0, "rental_uris": {"android": "https://dc.lft.to/lastmile_qr_scan", "ios": "https://dc.lft.to/lastmile_qr_scan"}, "fusion_lon": 0.0, "lat": 38.928103, "bike_id": "6d1a9d6cf4901c0deec0c762158cbfac", "type": "electric_scooter", "is_reserved": 0, "lon": -77.04353933333333}, {"fusion_lat": 0.0, "name": "001eda894d7e070522c6891dc66d5a2a", "is_disabled": 0, "rental_uris": {"android": "https://dc.lft.to/lastmile_qr_scan", "ios": "https://dc.lft.to/lastmile_qr_scan"}, "fusion_lon": 0.0, "lat": 38.90101533333333, "bike_id": "001eda894d7e070522c6891dc66d5a2a", "type": "electric_scooter", "is_reserved": 0, "lon": -77.0221835}, {"fusion_lat": 0.0, "name": "01bb85c045a27dac87cab8b151c20e2c", "is_disabled": 0, "rental_uris": {"android": "https://dc.lft.to/lastmile_qr_scan", "ios": "https://dc.lft.to/lastmile_qr_scan"}, "fusion_lon": 0.0, "lat": 38.94199033333334, "bike_id": "01bb85c045a27dac87cab8b151c20e2c", "type": "electric_scooter", "is_reserved": 0, "lon": -77.02590383333333}, {"fusion_lat": 0.0, "name": "3d889796dd739aa3b0bd643d27809c4d", "is_disabled": 0, "rental_uris": {"android": "https://dc.lft.to/lastmile_qr_scan", "ios": "https://dc.lft.to/lastmile_qr_scan"}, "fusion_lon": 0.0, "lat": 38.914198166666665, "bike_id": "3d889796dd739aa3b0bd643d27809c4d", "type": "electric_scooter", "is_reserved": 0, "lon": -77.04077216666667}, {"fusion_lat": 0.0, "name": "14d893ced098dc2bbb1f488bc1b6f1ed", "is_disabled": 0, "rental_uris": {"android": "https://dc.lft.to/lastmile_qr_scan", "ios": "https://dc.lft.to/lastmile_qr_scan"}, "fusion_lon": 0.0, "lat": 38.95632833333333, "bike_id": "14d893ced098dc2bbb1f488bc1b6f1ed", "type": "electric_scooter", "is_reserved": 0, "lon": -77.033013}, {"fusion_lat": 0.0, "name": "e1adde72ac3e09442d3ad4f6e83644e5", "is_disabled": 0, "rental_uris": {"android": "https://dc.lft.to/lastmile_qr_scan", "ios": "https://dc.lft.to/lastmile_qr_scan"}, "fusion_lon": 0.0, "lat": 38.90734283333333, "bike_id": "e1adde72ac3e09442d3ad4f6e83644e5", "type": "electric_scooter", "is_reserved": 0, "lon": -77.0280375}, {"fusion_lat": 0.0, "name": "ad4d1c18dbb6355675fcb7cf0448b60a", "is_disabled": 0, "rental_uris": {"android": "https://dc.lft.to/lastmile_qr_scan", "ios": "https://dc.lft.to/lastmile_qr_scan"}, "fusion_lon": 0.0, "lat": 38.9112445, "bike_id": "ad4d1c18dbb6355675fcb7cf0448b60a", "type": "electric_scooter", "is_reserved": 0, "lon": -77.02200033333334}, {"fusion_lat": 0.0, "name": "f890669b847646327b2a5dea5ff8afe3", "is_disabled": 0, "rental_uris": {"android": "https://dc.lft.to/lastmile_qr_scan", "ios": "https://dc.lft.to/lastmile_qr_scan"}, "fusion_lon": 0.0, "lat": 38.90824683333334, "bike_id": "f890669b847646327b2a5dea5ff8afe3", "type": "electric_scooter", "is_reserved": 0, "lon": -77.0182355}, {"fusion_lat": 0.0, "name": "c984ebb0c625b453c201797675170ff9", "is_disabled": 0, "rental_uris": {"android": "https://dc.lft.to/lastmile_qr_scan", "ios": "https://dc.lft.to/lastmile_qr_scan"}, "fusion_lon": 0.0, "lat": 38.931212, "bike_id": "c984ebb0c625b453c201797675170ff9", "type": "electric_scooter", "is_reserved": 0, "lon": -77.0297975}, {"fusion_lat": 0.0, "name": "f0accffd9d208bbcea8056c8683b450a", "is_disabled": 0, "rental_uris": {"android": "https://dc.lft.to/lastmile_qr_scan", "ios": "https://dc.lft.to/lastmile_qr_scan"}, "fusion_lon": 0.0, "lat": 38.91322433333333, "bike_id": "f0accffd9d208bbcea8056c8683b450a", "type": "electric_scooter", "is_reserved": 0, "lon": -77.01500683333333}, {"fusion_lat": 0.0, "name": "92fff2192c6757aaf020daed99abd8d0", "is_disabled": 0, "rental_uris": {"android": "https://dc.lft.to/lastmile_qr_scan", "ios": "https://dc.lft.to/lastmile_qr_scan"}, "fusion_lon": 0.0, "lat": 38.845071833333336, "bike_id": "92fff2192c6757aaf020daed99abd8d0", "type": "electric_bike", "is_reserved": 0, "lon": -76.99351366666667}, {"fusion_lat": 0.0, "name": "d62778ee6d2cb90f47c612390929d4cd", "is_disabled": 0, "rental_uris": {"android": "https://dc.lft.to/lastmile_qr_scan", "ios": "https://dc.lft.to/lastmile_qr_scan"}, "fusion_lon": 0.0, "lat": 38.887207833333335, "bike_id": "d62778ee6d2cb90f47c612390929d4cd", "type": "electric_scooter", "is_reserved": 0, "lon": -77.02580966666666}, {"fusion_lat": 0.0, "name": "e2d7e380127e7e512a5f52feb484b188", "is_disabled": 0, "rental_uris": {"android": "https://dc.lft.to/lastmile_qr_scan", "ios": "https://dc.lft.to/lastmile_qr_scan"}, "fusion_lon": 0.0, "lat": 38.923904666666665, "bike_id": "e2d7e380127e7e512a5f52feb484b188", "type": "electric_scooter", "is_reserved": 0, "lon": -77.035466}, {"fusion_lat": 0.0, "name": "4a20f3f5b31d973713b7b365fbd06f31", "is_disabled": 0, "rental_uris": {"android": "https://dc.lft.to/lastmile_qr_scan", "ios": "https://dc.lft.to/lastmile_qr_scan"}, "fusion_lon": 0.0, "lat": 38.8955585, "bike_id": "4a20f3f5b31d973713b7b365fbd06f31", "type": "electric_scooter", "is_reserved": 0, "lon": -77.02373116666666}, {"fusion_lat": 0.0, "name": "bff8f1228c927937f3a5ecee2d5f4691", "is_disabled": 0, "rental_uris": {"android": "https://dc.lft.to/lastmile_qr_scan", "ios": "https://dc.lft.to/lastmile_qr_scan"}, "fusion_lon": 0.0, "lat": 38.88351333333333, "bike_id": "bff8f1228c927937f3a5ecee2d5f4691", "type": "electric_scooter", "is_reserved": 0, "lon": -77.01952}, {"fusion_lat": 0.0, "name": "426bba29b0b883c08ce1356f63b88e82", "is_disabled": 0, "rental_uris": {"android": "https://dc.lft.to/lastmile_qr_scan", "ios": "https://dc.lft.to/lastmile_qr_scan"}, "fusion_lon": 0.0, "lat": 38.9001805, "bike_id": "426bba29b0b883c08ce1356f63b88e82", "type": "electric_scooter", "is_reserved": 0, "lon": -77.0239435}, {"fusion_lat": 0.0, "name": "cce58f1af0b962604f2015a0d3f2ee68", "is_disabled": 0, "rental_uris": {"android": "https://dc.lft.to/lastmile_qr_scan", "ios": "https://dc.lft.to/lastmile_qr_scan"}, "fusion_lon": 0.0, "lat": 38.987918666666666, "bike_id": "cce58f1af0b962604f2015a0d3f2ee68", "type": "electric_bike", "is_reserved": 0, "lon": -77.1409825}, {"fusion_lat": 0.0, "name": "1d7b15b52e0b9b040dd8c46c823d1bab", "is_disabled": 0, "rental_uris": {"android": "https://dc.lft.to/lastmile_qr_scan", "ios": "https://dc.lft.to/lastmile_qr_scan"}, "fusion_lon": 0.0, "lat": 38.94152, "bike_id": "1d7b15b52e0b9b040dd8c46c823d1bab", "type": "electric_bike", "is_reserved": 0, "lon": -77.001898}, {"fusion_lat": 0.0, "name": "950a5be02fc076bb730ddf92c92e55e0", "is_disabled": 0, "rental_uris": {"android": "https://dc.lft.to/lastmile_qr_scan", "ios": "https://dc.lft.to/lastmile_qr_scan"}, "fusion_lon": 0.0, "lat": 38.8735535, "bike_id": "950a5be02fc076bb730ddf92c92e55e0", "type": "electric_scooter", "is_reserved": 0, "lon": -77.00104216666666}, {"fusion_lat": 0.0, "name": "f28604c4b2c1af98b4b14bb68dabd5c4", "is_disabled": 0, "rental_uris": {"android": "https://dc.lft.to/lastmile_qr_scan", "ios": "https://dc.lft.to/lastmile_qr_scan"}, "fusion_lon": 0.0, "lat": 38.908732, "bike_id": "f28604c4b2c1af98b4b14bb68dabd5c4", "type": "electric_scooter", "is_reserved": 0, "lon": -77.02392633333334}, {"fusion_lat": 0.0, "name": "ef7dc3edf6e515907e3811aba12adcca", "is_disabled": 0, "rental_uris": {"android": "https://dc.lft.to/lastmile_qr_scan", "ios": "https://dc.lft.to/lastmile_qr_scan"}, "fusion_lon": 0.0, "lat": 38.904397333333335, "bike_id": "ef7dc3edf6e515907e3811aba12adcca", "type": "electric_scooter", "is_reserved": 0, "lon": -77.058652}, {"fusion_lat": 0.0, "name": "7b48b1b61f38790711bc15483b097fc4", "is_disabled": 0, "rental_uris": {"android": "https://dc.lft.to/lastmile_qr_scan", "ios": "https://dc.lft.to/lastmile_qr_scan"}, "fusion_lon": 0.0, "lat": 38.94167, "bike_id": "7b48b1b61f38790711bc15483b097fc4", "type": "electric_bike", "is_reserved": 0, "lon": -76.9664835}, {"fusion_lat": 0.0, "name": "b87ded695a77752b81e9bc7e3f66be2d", "is_disabled": 0, "rental_uris": {"android": "https://dc.lft.to/lastmile_qr_scan", "ios": "https://dc.lft.to/lastmile_qr_scan"}, "fusion_lon": 0.0, "lat": 38.921814166666664, "bike_id": "b87ded695a77752b81e9bc7e3f66be2d", "type": "electric_scooter", "is_reserved": 0, "lon": -77.074424}, {"fusion_lat": 0.0, "name": "8d875a771e8c20eebfc0cb5a1a3916f9", "is_disabled": 0, "rental_uris": {"android": "https://dc.lft.to/lastmile_qr_scan", "ios": "https://dc.lft.to/lastmile_qr_scan"}, "fusion_lon": 0.0, "lat": 38.90716283333333, "bike_id": "8d875a771e8c20eebfc0cb5a1a3916f9", "type": "electric_scooter", "is_reserved": 0, "lon": -76.99823783333333}, {"fusion_lat": 0.0, "name": "b95120fefd427fedec0fe3e5ecdd176c", "is_disabled": 0, "rental_uris": {"android": "https://dc.lft.to/lastmile_qr_scan", "ios": "https://dc.lft.to/lastmile_qr_scan"}, "fusion_lon": 0.0, "lat": 38.93584383333334, "bike_id": "b95120fefd427fedec0fe3e5ecdd176c", "type": "electric_scooter", "is_reserved": 0, "lon": -77.02844383333333}, {"fusion_lat": 0.0, "name": "0ebba7d620b61da70a1ac840dcb4c68d", "is_disabled": 0, "rental_uris": {"android": "https://dc.lft.to/lastmile_qr_scan", "ios": "https://dc.lft.to/lastmile_qr_scan"}, "fusion_lon": 0.0, "lat": 38.94120866666667, "bike_id": "0ebba7d620b61da70a1ac840dcb4c68d", "type": "electric_bike", "is_reserved": 0, "lon": -76.99034566666667}, {"fusion_lat": 0.0, "name": "63fc5e7e769b19ebbd864fe9f3fec987", "is_disabled": 0, "rental_uris": {"android": "https://dc.lft.to/lastmile_qr_scan", "ios": "https://dc.lft.to/lastmile_qr_scan"}, "fusion_lon": 0.0, "lat": 38.912742, "bike_id": "63fc5e7e769b19ebbd864fe9f3fec987", "type": "electric_scooter", "is_reserved": 0, "lon": -77.02243366666667}, {"fusion_lat": 0.0, "name": "4d9a47e3cd638adaa7182f025caea61f", "is_disabled": 0, "rental_uris": {"android": "https://dc.lft.to/lastmile_qr_scan", "ios": "https://dc.lft.to/lastmile_qr_scan"}, "fusion_lon": 0.0, "lat": 38.916193166666666, "bike_id": "4d9a47e3cd638adaa7182f025caea61f", "type": "electric_scooter", "is_reserved": 0, "lon": -77.02157483333333}, {"fusion_lat": 0.0, "name": "0c5af4d32d8bfbf7a151709f0e233fd3", "is_disabled": 0, "rental_uris": {"android": "https://dc.lft.to/lastmile_qr_scan", "ios": "https://dc.lft.to/lastmile_qr_scan"}, "fusion_lon": 0.0, "lat": 38.92237566666667, "bike_id": "0c5af4d32d8bfbf7a151709f0e233fd3", "type": "electric_scooter", "is_reserved": 0, "lon": -77.03896166666667}, {"fusion_lat": 0.0, "name": "0750d3e0ad36807039ee7a9d3c9a0d00", "is_disabled": 0, "rental_uris": {"android": "https://dc.lft.to/lastmile_qr_scan", "ios": "https://dc.lft.to/lastmile_qr_scan"}, "fusion_lon": 0.0, "lat": 38.91744966666667, "bike_id": "0750d3e0ad36807039ee7a9d3c9a0d00", "type": "electric_scooter", "is_reserved": 0, "lon": -77.04576866666666}, {"fusion_lat": 0.0, "name": "0a9539411baf50f14bcfe4accdb079d4", "is_disabled": 0, "rental_uris": {"android": "https://dc.lft.to/lastmile_qr_scan", "ios": "https://dc.lft.to/lastmile_qr_scan"}, "fusion_lon": 0.0, "lat": 38.918495666666665, "bike_id": "0a9539411baf50f14bcfe4accdb079d4", "type": "electric_scooter", "is_reserved": 0, "lon": -77.04018466666666}, {"fusion_lat": 0.0, "name": "759777e390fc65d6e25993a78dfeb326", "is_disabled": 0, "rental_uris": {"android": "https://dc.lft.to/lastmile_qr_scan", "ios": "https://dc.lft.to/lastmile_qr_scan"}, "fusion_lon": 0.0, "lat": 38.949193, "bike_id": "759777e390fc65d6e25993a78dfeb326", "type": "electric_bike", "is_reserved": 0, "lon": -77.00798433333334}, {"fusion_lat": 0.0, "name": "72fea98872fa2ed11c0744e8501bb03e", "is_disabled": 0, "rental_uris": {"android": "https://dc.lft.to/lastmile_qr_scan", "ios": "https://dc.lft.to/lastmile_qr_scan"}, "fusion_lon": 0.0, "lat": 38.92686616666667, "bike_id": "72fea98872fa2ed11c0744e8501bb03e", "type": "electric_scooter", "is_reserved": 0, "lon": -77.02964766666666}, {"fusion_lat": 0.0, "name": "5ccf1897c476ad9b4c2770a978525f87", "is_disabled": 0, "rental_uris": {"android": "https://dc.lft.to/lastmile_qr_scan", "ios": "https://dc.lft.to/lastmile_qr_scan"}, "fusion_lon": 0.0, "lat": 38.924305833333335, "bike_id": "5ccf1897c476ad9b4c2770a978525f87", "type": "electric_scooter", "is_reserved": 0, "lon": -77.03544933333333}, {"fusion_lat": 0.0, "name": "64ea87007c0ca57c21acf9e8342234d5", "is_disabled": 0, "rental_uris": {"android": "https://dc.lft.to/lastmile_qr_scan", "ios": "https://dc.lft.to/lastmile_qr_scan"}, "fusion_lon": 0.0, "lat": 38.92052416666667, "bike_id": "64ea87007c0ca57c21acf9e8342234d5", "type": "electric_scooter", "is_reserved": 0, "lon": -77.034709}, {"fusion_lat": 0.0, "name": "2bb62f874c149b32b339019a4ec8c45d", "is_disabled": 0, "rental_uris": {"android": "https://dc.lft.to/lastmile_qr_scan", "ios": "https://dc.lft.to/lastmile_qr_scan"}, "fusion_lon": 0.0, "lat": 38.9736995, "bike_id": "2bb62f874c149b32b339019a4ec8c45d", "type": "electric_scooter", "is_reserved": 0, "lon": -77.02432466666667}, {"fusion_lat": 0.0, "name": "ba356dc7660832bfaad8cc2f4d807241", "is_disabled": 0, "rental_uris": {"android": "https://dc.lft.to/lastmile_qr_scan", "ios": "https://dc.lft.to/lastmile_qr_scan"}, "fusion_lon": 0.0, "lat": 38.90626816666666, "bike_id": "ba356dc7660832bfaad8cc2f4d807241", "type": "electric_scooter", "is_reserved": 0, "lon": -77.026021}, {"fusion_lat": 0.0, "name": "83adba63773925c28f8677d37530e3f7", "is_disabled": 0, "rental_uris": {"android": "https://dc.lft.to/lastmile_qr_scan", "ios": "https://dc.lft.to/lastmile_qr_scan"}, "fusion_lon": 0.0, "lat": 38.90529766666667, "bike_id": "83adba63773925c28f8677d37530e3f7", "type": "electric_scooter", "is_reserved": 0, "lon": -77.0478425}, {"fusion_lat": 0.0, "name": "f21d6012235b52098d24e2478df95ae6", "is_disabled": 0, "rental_uris": {"android": "https://dc.lft.to/lastmile_qr_scan", "ios": "https://dc.lft.to/lastmile_qr_scan"}, "fusion_lon": 0.0, "lat": 38.90061383333333, "bike_id": "f21d6012235b52098d24e2478df95ae6", "type": "electric_scooter", "is_reserved": 0, "lon": -76.93386533333333}, {"fusion_lat": 0.0, "name": "288139f46f03753a8fdc1087c8d74b30", "is_disabled": 0, "rental_uris": {"android": "https://dc.lft.to/lastmile_qr_scan", "ios": "https://dc.lft.to/lastmile_qr_scan"}, "fusion_lon": 0.0, "lat": 38.92375933333334, "bike_id": "288139f46f03753a8fdc1087c8d74b30", "type": "electric_scooter", "is_reserved": 0, "lon": -77.0525625}, {"fusion_lat": 0.0, "name": "e4ee7527baf8736d78a602c6671bca71", "is_disabled": 0, "rental_uris": {"android": "https://dc.lft.to/lastmile_qr_scan", "ios": "https://dc.lft.to/lastmile_qr_scan"}, "fusion_lon": 0.0, "lat": 38.898323500000004, "bike_id": "e4ee7527baf8736d78a602c6671bca71", "type": "electric_scooter", "is_reserved": 0, "lon": -76.94636816666667}, {"fusion_lat": 0.0, "name": "34f37f0148959070a2158040cfa293aa", "is_disabled": 0, "rental_uris": {"android": "https://dc.lft.to/lastmile_qr_scan", "ios": "https://dc.lft.to/lastmile_qr_scan"}, "fusion_lon": 0.0, "lat": 38.905633, "bike_id": "34f37f0148959070a2158040cfa293aa", "type": "electric_scooter", "is_reserved": 0, "lon": -77.005764}, {"fusion_lat": 0.0, "name": "7cd1a35abba629e9eb030f11bd94a1a3", "is_disabled": 0, "rental_uris": {"android": "https://dc.lft.to/lastmile_qr_scan", "ios": "https://dc.lft.to/lastmile_qr_scan"}, "fusion_lon": 0.0, "lat": 38.90396116666667, "bike_id": "7cd1a35abba629e9eb030f11bd94a1a3", "type": "electric_scooter", "is_reserved": 0, "lon": -77.0613955}, {"fusion_lat": 0.0, "name": "9a8ceed40717725ef091e423a3567ca6", "is_disabled": 0, "rental_uris": {"android": "https://dc.lft.to/lastmile_qr_scan", "ios": "https://dc.lft.to/lastmile_qr_scan"}, "fusion_lon": 0.0, "lat": 38.899497333333336, "bike_id": "9a8ceed40717725ef091e423a3567ca6", "type": "electric_scooter", "is_reserved": 0, "lon": -77.05481283333333}, {"fusion_lat": 0.0, "name": "4f7a2f6f60b8aa745f61500e59d20543", "is_disabled": 0, "rental_uris": {"android": "https://dc.lft.to/lastmile_qr_scan", "ios": "https://dc.lft.to/lastmile_qr_scan"}, "fusion_lon": 0.0, "lat": 38.9267955, "bike_id": "4f7a2f6f60b8aa745f61500e59d20543", "type": "electric_scooter", "is_reserved": 0, "lon": -77.03143216666666}, {"fusion_lat": 0.0, "name": "6fb875c0dac7520c0a5519d15cf2619a", "is_disabled": 0, "rental_uris": {"android": "https://dc.lft.to/lastmile_qr_scan", "ios": "https://dc.lft.to/lastmile_qr_scan"}, "fusion_lon": 0.0, "lat": 38.90136483333333, "bike_id": "6fb875c0dac7520c0a5519d15cf2619a", "type": "electric_scooter", "is_reserved": 0, "lon": -76.99118716666666}, {"fusion_lat": 0.0, "name": "5078dbdc50ff388edaa98fd0b37a013c", "is_disabled": 0, "rental_uris": {"android": "https://dc.lft.to/lastmile_qr_scan", "ios": "https://dc.lft.to/lastmile_qr_scan"}, "fusion_lon": 0.0, "lat": 38.90959466666666, "bike_id": "5078dbdc50ff388edaa98fd0b37a013c", "type": "electric_scooter", "is_reserved": 0, "lon": -77.02280433333334}, {"fusion_lat": 0.0, "name": "46af8d817c8d18de7e0703c074189084", "is_disabled": 0, "rental_uris": {"android": "https://dc.lft.to/lastmile_qr_scan", "ios": "https://dc.lft.to/lastmile_qr_scan"}, "fusion_lon": 0.0, "lat": 38.91344866666667, "bike_id": "46af8d817c8d18de7e0703c074189084", "type": "electric_bike", "is_reserved": 0, "lon": -76.98897433333333}, {"fusion_lat": 0.0, "name": "bd842015749222ceb2a000107f9ddfcf", "is_disabled": 0, "rental_uris": {"android": "https://dc.lft.to/lastmile_qr_scan", "ios": "https://dc.lft.to/lastmile_qr_scan"}, "fusion_lon": 0.0, "lat": 38.919866, "bike_id": "bd842015749222ceb2a000107f9ddfcf", "type": "electric_scooter", "is_reserved": 0, "lon": -77.04092}, {"fusion_lat": 0.0, "name": "ab9f923ec3e0ae6d5ae4e9f5562037b4", "is_disabled": 0, "rental_uris": {"android": "https://dc.lft.to/lastmile_qr_scan", "ios": "https://dc.lft.to/lastmile_qr_scan"}, "fusion_lon": 0.0, "lat": 38.878136166666664, "bike_id": "ab9f923ec3e0ae6d5ae4e9f5562037b4", "type": "electric_scooter", "is_reserved": 0, "lon": -77.01531266666667}, {"fusion_lat": 0.0, "name": "bdbd432f1ca331d375b0a8f7b400c1a1", "is_disabled": 0, "rental_uris": {"android": "https://dc.lft.to/lastmile_qr_scan", "ios": "https://dc.lft.to/lastmile_qr_scan"}, "fusion_lon": 0.0, "lat": 38.883884, "bike_id": "bdbd432f1ca331d375b0a8f7b400c1a1", "type": "electric_scooter", "is_reserved": 0, "lon": -76.98557316666667}, {"fusion_lat": 0.0, "name": "756553ae74ed5de2abf470deab2aae71", "is_disabled": 0, "rental_uris": {"android": "https://dc.lft.to/lastmile_qr_scan", "ios": "https://dc.lft.to/lastmile_qr_scan"}, "fusion_lon": 0.0, "lat": 38.87384483333334, "bike_id": "756553ae74ed5de2abf470deab2aae71", "type": "electric_scooter", "is_reserved": 0, "lon": -77.0004465}, {"fusion_lat": 0.0, "name": "9248d0b8d1c87368f361ec26e5d89ad6", "is_disabled": 0, "rental_uris": {"android": "https://dc.lft.to/lastmile_qr_scan", "ios": "https://dc.lft.to/lastmile_qr_scan"}, "fusion_lon": 0.0, "lat": 38.92024833333333, "bike_id": "9248d0b8d1c87368f361ec26e5d89ad6", "type": "electric_scooter", "is_reserved": 0, "lon": -77.027158}, {"fusion_lat": 0.0, "name": "9b3bfe17af8f2a33e40156de6c5109fc", "is_disabled": 0, "rental_uris": {"android": "https://dc.lft.to/lastmile_qr_scan", "ios": "https://dc.lft.to/lastmile_qr_scan"}, "fusion_lon": 0.0, "lat": 38.931864166666664, "bike_id": "9b3bfe17af8f2a33e40156de6c5109fc", "type": "electric_scooter", "is_reserved": 0, "lon": -77.0330155}, {"fusion_lat": 0.0, "name": "f6e0f672c6be53d4b74f53f755c4d1d3", "is_disabled": 0, "rental_uris": {"android": "https://dc.lft.to/lastmile_qr_scan", "ios": "https://dc.lft.to/lastmile_qr_scan"}, "fusion_lon": 0.0, "lat": 38.9305705, "bike_id": "f6e0f672c6be53d4b74f53f755c4d1d3", "type": "electric_scooter", "is_reserved": 0, "lon": -77.039484}, {"fusion_lat": 0.0, "name": "86c58d56f8f644bb24422e15a61f52a9", "is_disabled": 0, "rental_uris": {"android": "https://dc.lft.to/lastmile_qr_scan", "ios": "https://dc.lft.to/lastmile_qr_scan"}, "fusion_lon": 0.0, "lat": 38.90905566666667, "bike_id": "86c58d56f8f644bb24422e15a61f52a9", "type": "electric_scooter", "is_reserved": 0, "lon": -77.02610533333333}, {"fusion_lat": 0.0, "name": "2cbfcf012d681edc98ee3e284541bf03", "is_disabled": 0, "rental_uris": {"android": "https://dc.lft.to/lastmile_qr_scan", "ios": "https://dc.lft.to/lastmile_qr_scan"}, "fusion_lon": 0.0, "lat": 38.90900966666667, "bike_id": "2cbfcf012d681edc98ee3e284541bf03", "type": "electric_scooter", "is_reserved": 0, "lon": -77.04396566666667}, {"fusion_lat": 0.0, "name": "5f047d9b715df49669396780e1f1bd17", "is_disabled": 0, "rental_uris": {"android": "https://dc.lft.to/lastmile_qr_scan", "ios": "https://dc.lft.to/lastmile_qr_scan"}, "fusion_lon": 0.0, "lat": 38.93411533333333, "bike_id": "5f047d9b715df49669396780e1f1bd17", "type": "electric_scooter", "is_reserved": 0, "lon": -77.02208716666667}, {"fusion_lat": 0.0, "name": "1990c786197b2f12ac3e5b2c479849c9", "is_disabled": 0, "rental_uris": {"android": "https://dc.lft.to/lastmile_qr_scan", "ios": "https://dc.lft.to/lastmile_qr_scan"}, "fusion_lon": 0.0, "lat": 38.90135383333333, "bike_id": "1990c786197b2f12ac3e5b2c479849c9", "type": "electric_scooter", "is_reserved": 0, "lon": -77.01832}, {"fusion_lat": 0.0, "name": "c0b68fe7bb3916138648ea15b66534f3", "is_disabled": 0, "rental_uris": {"android": "https://dc.lft.to/lastmile_qr_scan", "ios": "https://dc.lft.to/lastmile_qr_scan"}, "fusion_lon": 0.0, "lat": 38.905189166666666, "bike_id": "c0b68fe7bb3916138648ea15b66534f3", "type": "electric_scooter", "is_reserved": 0, "lon": -77.04814983333333}, {"fusion_lat": 0.0, "name": "fac82cb1cd0092a7aea403866d990c5d", "is_disabled": 0, "rental_uris": {"android": "https://dc.lft.to/lastmile_qr_scan", "ios": "https://dc.lft.to/lastmile_qr_scan"}, "fusion_lon": 0.0, "lat": 38.9048255, "bike_id": "fac82cb1cd0092a7aea403866d990c5d", "type": "electric_scooter", "is_reserved": 0, "lon": -76.94960366666666}, {"fusion_lat": 0.0, "name": "15d6908941d6f0199e89ba8dcb934b2f", "is_disabled": 0, "rental_uris": {"android": "https://dc.lft.to/lastmile_qr_scan", "ios": "https://dc.lft.to/lastmile_qr_scan"}, "fusion_lon": 0.0, "lat": 38.91157033333333, "bike_id": "15d6908941d6f0199e89ba8dcb934b2f", "type": "electric_scooter", "is_reserved": 0, "lon": -77.043477}, {"fusion_lat": 0.0, "name": "db610862aafdbcc500a4db1a4dfbb00a", "is_disabled": 0, "rental_uris": {"android": "https://dc.lft.to/lastmile_qr_scan", "ios": "https://dc.lft.to/lastmile_qr_scan"}, "fusion_lon": 0.0, "lat": 38.9055235, "bike_id": "db610862aafdbcc500a4db1a4dfbb00a", "type": "electric_scooter", "is_reserved": 0, "lon": -77.04659966666667}, {"fusion_lat": 0.0, "name": "8d530101291be15754f241b71de18ca8", "is_disabled": 0, "rental_uris": {"android": "https://dc.lft.to/lastmile_qr_scan", "ios": "https://dc.lft.to/lastmile_qr_scan"}, "fusion_lon": 0.0, "lat": 38.898850833333334, "bike_id": "8d530101291be15754f241b71de18ca8", "type": "electric_scooter", "is_reserved": 0, "lon": -77.0014765}, {"fusion_lat": 0.0, "name": "f0104bd279e19678b9ba0be3e9e13a76", "is_disabled": 0, "rental_uris": {"android": "https://dc.lft.to/lastmile_qr_scan", "ios": "https://dc.lft.to/lastmile_qr_scan"}, "fusion_lon": 0.0, "lat": 38.8934945, "bike_id": "f0104bd279e19678b9ba0be3e9e13a76", "type": "electric_scooter", "is_reserved": 0, "lon": -76.986548}, {"fusion_lat": 0.0, "name": "10d150df08edec8619879ce73b89ff7d", "is_disabled": 0, "rental_uris": {"android": "https://dc.lft.to/lastmile_qr_scan", "ios": "https://dc.lft.to/lastmile_qr_scan"}, "fusion_lon": 0.0, "lat": 38.907198, "bike_id": "10d150df08edec8619879ce73b89ff7d", "type": "electric_scooter", "is_reserved": 0, "lon": -77.04084533333334}, {"fusion_lat": 0.0, "name": "4890b4db8dec36d0a80856349850ccd9", "is_disabled": 0, "rental_uris": {"android": "https://dc.lft.to/lastmile_qr_scan", "ios": "https://dc.lft.to/lastmile_qr_scan"}, "fusion_lon": 0.0, "lat": 38.90266883333334, "bike_id": "4890b4db8dec36d0a80856349850ccd9", "type": "electric_scooter", "is_reserved": 0, "lon": -77.01755616666667}, {"fusion_lat": 0.0, "name": "92766fefd436aee4a7b71c88cff208b7", "is_disabled": 0, "rental_uris": {"android": "https://dc.lft.to/lastmile_qr_scan", "ios": "https://dc.lft.to/lastmile_qr_scan"}, "fusion_lon": 0.0, "lat": 38.924019, "bike_id": "92766fefd436aee4a7b71c88cff208b7", "type": "electric_scooter", "is_reserved": 0, "lon": -77.02543033333333}, {"fusion_lat": 0.0, "name": "4ec9ce13b67388b789eaa37389250470", "is_disabled": 0, "rental_uris": {"android": "https://dc.lft.to/lastmile_qr_scan", "ios": "https://dc.lft.to/lastmile_qr_scan"}, "fusion_lon": 0.0, "lat": 38.895268, "bike_id": "4ec9ce13b67388b789eaa37389250470", "type": "electric_scooter", "is_reserved": 0, "lon": -76.93411483333334}, {"fusion_lat": 0.0, "name": "d94710070cbccdb803cf31d9523c7cdd", "is_disabled": 0, "rental_uris": {"android": "https://dc.lft.to/lastmile_qr_scan", "ios": "https://dc.lft.to/lastmile_qr_scan"}, "fusion_lon": 0.0, "lat": 38.905771, "bike_id": "d94710070cbccdb803cf31d9523c7cdd", "type": "electric_scooter", "is_reserved": 0, "lon": -77.02988766666667}, {"fusion_lat": 0.0, "name": "f507ba69386779a4c232a60bd998a4f6", "is_disabled": 0, "rental_uris": {"android": "https://dc.lft.to/lastmile_qr_scan", "ios": "https://dc.lft.to/lastmile_qr_scan"}, "fusion_lon": 0.0, "lat": 38.91268083333333, "bike_id": "f507ba69386779a4c232a60bd998a4f6", "type": "electric_scooter", "is_reserved": 0, "lon": -77.01931416666666}, {"fusion_lat": 0.0, "name": "d4e959fd4d16e5847a85968eba77af96", "is_disabled": 0, "rental_uris": {"android": "https://dc.lft.to/lastmile_qr_scan", "ios": "https://dc.lft.to/lastmile_qr_scan"}, "fusion_lon": 0.0, "lat": 38.90759116666667, "bike_id": "d4e959fd4d16e5847a85968eba77af96", "type": "electric_scooter", "is_reserved": 0, "lon": -77.035827}, {"fusion_lat": 0.0, "name": "299331202d13de7488976e3bc3793009", "is_disabled": 0, "rental_uris": {"android": "https://dc.lft.to/lastmile_qr_scan", "ios": "https://dc.lft.to/lastmile_qr_scan"}, "fusion_lon": 0.0, "lat": 38.87897366666667, "bike_id": "299331202d13de7488976e3bc3793009", "type": "electric_scooter", "is_reserved": 0, "lon": -77.01367966666666}, {"fusion_lat": 0.0, "name": "249f0c81fceb0881cafb3931ebfb3c95", "is_disabled": 0, "rental_uris": {"android": "https://dc.lft.to/lastmile_qr_scan", "ios": "https://dc.lft.to/lastmile_qr_scan"}, "fusion_lon": 0.0, "lat": 38.90963216666667, "bike_id": "249f0c81fceb0881cafb3931ebfb3c95", "type": "electric_scooter", "is_reserved": 0, "lon": -77.02311}, {"fusion_lat": 0.0, "name": "50bedfa59d33609dc0f14511c107a1c5", "is_disabled": 0, "rental_uris": {"android": "https://dc.lft.to/lastmile_qr_scan", "ios": "https://dc.lft.to/lastmile_qr_scan"}, "fusion_lon": 0.0, "lat": 38.89302816666667, "bike_id": "50bedfa59d33609dc0f14511c107a1c5", "type": "electric_scooter", "is_reserved": 0, "lon": -77.02599766666667}, {"fusion_lat": 0.0, "name": "11f6c4477765c5f672e482281222728c", "is_disabled": 0, "rental_uris": {"android": "https://dc.lft.to/lastmile_qr_scan", "ios": "https://dc.lft.to/lastmile_qr_scan"}, "fusion_lon": 0.0, "lat": 38.901050833333336, "bike_id": "11f6c4477765c5f672e482281222728c", "type": "electric_scooter", "is_reserved": 0, "lon": -77.0590055}, {"fusion_lat": 0.0, "name": "923ca5ab3f22c53047d5a9b494532a8a", "is_disabled": 0, "rental_uris": {"android": "https://dc.lft.to/lastmile_qr_scan", "ios": "https://dc.lft.to/lastmile_qr_scan"}, "fusion_lon": 0.0, "lat": 38.940789, "bike_id": "923ca5ab3f22c53047d5a9b494532a8a", "type": "electric_scooter", "is_reserved": 0, "lon": -77.05215633333333}, {"fusion_lat": 0.0, "name": "c23d0dfcedeb76cb857013dec74643e1", "is_disabled": 0, "rental_uris": {"android": "https://dc.lft.to/lastmile_qr_scan", "ios": "https://dc.lft.to/lastmile_qr_scan"}, "fusion_lon": 0.0, "lat": 38.91987533333333, "bike_id": "c23d0dfcedeb76cb857013dec74643e1", "type": "electric_scooter", "is_reserved": 0, "lon": -77.07180983333333}, {"fusion_lat": 0.0, "name": "bb6a49536d9cd6716be0329b18402fd2", "is_disabled": 0, "rental_uris": {"android": "https://dc.lft.to/lastmile_qr_scan", "ios": "https://dc.lft.to/lastmile_qr_scan"}, "fusion_lon": 0.0, "lat": 38.85417483333333, "bike_id": "bb6a49536d9cd6716be0329b18402fd2", "type": "electric_bike", "is_reserved": 0, "lon": -77.1207355}, {"fusion_lat": 0.0, "name": "082b2fead82fe450cde799243af6e03e", "is_disabled": 0, "rental_uris": {"android": "https://dc.lft.to/lastmile_qr_scan", "ios": "https://dc.lft.to/lastmile_qr_scan"}, "fusion_lon": 0.0, "lat": 38.882980833333335, "bike_id": "082b2fead82fe450cde799243af6e03e", "type": "electric_scooter", "is_reserved": 0, "lon": -76.94853516666667}, {"fusion_lat": 0.0, "name": "aaf1e85d119bc52e8840dd3a9dc27ca2", "is_disabled": 0, "rental_uris": {"android": "https://dc.lft.to/lastmile_qr_scan", "ios": "https://dc.lft.to/lastmile_qr_scan"}, "fusion_lon": 0.0, "lat": 38.80756216666666, "bike_id": "aaf1e85d119bc52e8840dd3a9dc27ca2", "type": "electric_bike", "is_reserved": 0, "lon": -77.09453733333334}, {"fusion_lat": 0.0, "name": "6c55e13c93d23b365301fda0a7fe42b9", "is_disabled": 0, "rental_uris": {"android": "https://dc.lft.to/lastmile_qr_scan", "ios": "https://dc.lft.to/lastmile_qr_scan"}, "fusion_lon": 0.0, "lat": 38.88650483333333, "bike_id": "6c55e13c93d23b365301fda0a7fe42b9", "type": "electric_scooter", "is_reserved": 0, "lon": -77.01983633333333}, {"fusion_lat": 0.0, "name": "997af37e62ce27f9f67abc8d6ae388f1", "is_disabled": 0, "rental_uris": {"android": "https://dc.lft.to/lastmile_qr_scan", "ios": "https://dc.lft.to/lastmile_qr_scan"}, "fusion_lon": 0.0, "lat": 38.905733833333336, "bike_id": "997af37e62ce27f9f67abc8d6ae388f1", "type": "electric_scooter", "is_reserved": 0, "lon": -77.0056305}, {"fusion_lat": 0.0, "name": "5374208b1bd8d91217fa803c2058a2a5", "is_disabled": 0, "rental_uris": {"android": "https://dc.lft.to/lastmile_qr_scan", "ios": "https://dc.lft.to/lastmile_qr_scan"}, "fusion_lon": 0.0, "lat": 38.90618633333333, "bike_id": "5374208b1bd8d91217fa803c2058a2a5", "type": "electric_scooter", "is_reserved": 0, "lon": -77.04175266666667}, {"fusion_lat": 0.0, "name": "609e298ac4a64ed37053cc753ee163df", "is_disabled": 0, "rental_uris": {"android": "https://dc.lft.to/lastmile_qr_scan", "ios": "https://dc.lft.to/lastmile_qr_scan"}, "fusion_lon": 0.0, "lat": 38.93150033333333, "bike_id": "609e298ac4a64ed37053cc753ee163df", "type": "electric_scooter", "is_reserved": 0, "lon": -77.0395605}, {"fusion_lat": 0.0, "name": "0ab606c77c3f4fedb9bb853cce4eb39a", "is_disabled": 0, "rental_uris": {"android": "https://dc.lft.to/lastmile_qr_scan", "ios": "https://dc.lft.to/lastmile_qr_scan"}, "fusion_lon": 0.0, "lat": 38.92691833333333, "bike_id": "0ab606c77c3f4fedb9bb853cce4eb39a", "type": "electric_scooter", "is_reserved": 0, "lon": -77.02543883333334}, {"fusion_lat": 0.0, "name": "cc2ec55706f1c66810c5fff5f39bb149", "is_disabled": 0, "rental_uris": {"android": "https://dc.lft.to/lastmile_qr_scan", "ios": "https://dc.lft.to/lastmile_qr_scan"}, "fusion_lon": 0.0, "lat": 38.92019166666667, "bike_id": "cc2ec55706f1c66810c5fff5f39bb149", "type": "electric_scooter", "is_reserved": 0, "lon": -77.08190066666667}, {"fusion_lat": 0.0, "name": "a46633709e193da7c91181c1faaef78d", "is_disabled": 0, "rental_uris": {"android": "https://dc.lft.to/lastmile_qr_scan", "ios": "https://dc.lft.to/lastmile_qr_scan"}, "fusion_lon": 0.0, "lat": 38.93635416666667, "bike_id": "a46633709e193da7c91181c1faaef78d", "type": "electric_scooter", "is_reserved": 0, "lon": -77.0367365}, {"fusion_lat": 0.0, "name": "aeb00f3321ae4d04f2fb2ad1a84c05cc", "is_disabled": 0, "rental_uris": {"android": "https://dc.lft.to/lastmile_qr_scan", "ios": "https://dc.lft.to/lastmile_qr_scan"}, "fusion_lon": 0.0, "lat": 38.848376, "bike_id": "aeb00f3321ae4d04f2fb2ad1a84c05cc", "type": "electric_bike", "is_reserved": 0, "lon": -77.07914133333334}, {"fusion_lat": 0.0, "name": "e2b14372282188044eb0a91da8bdad0f", "is_disabled": 0, "rental_uris": {"android": "https://dc.lft.to/lastmile_qr_scan", "ios": "https://dc.lft.to/lastmile_qr_scan"}, "fusion_lon": 0.0, "lat": 38.9144255, "bike_id": "e2b14372282188044eb0a91da8bdad0f", "type": "electric_scooter", "is_reserved": 0, "lon": -77.02186566666667}, {"fusion_lat": 0.0, "name": "f25d77b97f7d42f792939b2bee41bd1e", "is_disabled": 0, "rental_uris": {"android": "https://dc.lft.to/lastmile_qr_scan", "ios": "https://dc.lft.to/lastmile_qr_scan"}, "fusion_lon": 0.0, "lat": 38.90835416666667, "bike_id": "f25d77b97f7d42f792939b2bee41bd1e", "type": "electric_scooter", "is_reserved": 0, "lon": -77.03646383333333}, {"fusion_lat": 0.0, "name": "6899671e25f00fe38842cd2bd4a31f5f", "is_disabled": 0, "rental_uris": {"android": "https://dc.lft.to/lastmile_qr_scan", "ios": "https://dc.lft.to/lastmile_qr_scan"}, "fusion_lon": 0.0, "lat": 38.89750166666666, "bike_id": "6899671e25f00fe38842cd2bd4a31f5f", "type": "electric_scooter", "is_reserved": 0, "lon": -77.0489245}, {"fusion_lat": 0.0, "name": "810c837f63bd70b88212e9fb4371d4c2", "is_disabled": 0, "rental_uris": {"android": "https://dc.lft.to/lastmile_qr_scan", "ios": "https://dc.lft.to/lastmile_qr_scan"}, "fusion_lon": 0.0, "lat": 38.964384333333335, "bike_id": "810c837f63bd70b88212e9fb4371d4c2", "type": "electric_bike", "is_reserved": 0, "lon": -77.02070016666667}, {"fusion_lat": 0.0, "name": "b50ceba84b967bec289322e11514dbe4", "is_disabled": 0, "rental_uris": {"android": "https://dc.lft.to/lastmile_qr_scan", "ios": "https://dc.lft.to/lastmile_qr_scan"}, "fusion_lon": 0.0, "lat": 38.927486, "bike_id": "b50ceba84b967bec289322e11514dbe4", "type": "electric_scooter", "is_reserved": 0, "lon": -77.02427666666667}, {"fusion_lat": 0.0, "name": "90592521b48f4c410800fe62fab1c181", "is_disabled": 0, "rental_uris": {"android": "https://dc.lft.to/lastmile_qr_scan", "ios": "https://dc.lft.to/lastmile_qr_scan"}, "fusion_lon": 0.0, "lat": 38.900637333333336, "bike_id": "90592521b48f4c410800fe62fab1c181", "type": "electric_scooter", "is_reserved": 0, "lon": -76.92743783333333}, {"fusion_lat": 0.0, "name": "d24eac12a2472f3137ae7dd64a6fabcc", "is_disabled": 0, "rental_uris": {"android": "https://dc.lft.to/lastmile_qr_scan", "ios": "https://dc.lft.to/lastmile_qr_scan"}, "fusion_lon": 0.0, "lat": 38.896665166666665, "bike_id": "d24eac12a2472f3137ae7dd64a6fabcc", "type": "electric_scooter", "is_reserved": 0, "lon": -77.05119516666667}, {"fusion_lat": 0.0, "name": "debe85a933cefa9b6d463a884cc85be1", "is_disabled": 0, "rental_uris": {"android": "https://dc.lft.to/lastmile_qr_scan", "ios": "https://dc.lft.to/lastmile_qr_scan"}, "fusion_lon": 0.0, "lat": 38.895373, "bike_id": "debe85a933cefa9b6d463a884cc85be1", "type": "electric_scooter", "is_reserved": 0, "lon": -76.94959233333333}, {"fusion_lat": 0.0, "name": "e1c1f0f7450a5e5c5f5e641e88d768ab", "is_disabled": 0, "rental_uris": {"android": "https://dc.lft.to/lastmile_qr_scan", "ios": "https://dc.lft.to/lastmile_qr_scan"}, "fusion_lon": 0.0, "lat": 38.876631833333334, "bike_id": "e1c1f0f7450a5e5c5f5e641e88d768ab", "type": "electric_scooter", "is_reserved": 0, "lon": -76.99625616666667}, {"fusion_lat": 0.0, "name": "553a40f6be007c440d07b4b06e276497", "is_disabled": 0, "rental_uris": {"android": "https://dc.lft.to/lastmile_qr_scan", "ios": "https://dc.lft.to/lastmile_qr_scan"}, "fusion_lon": 0.0, "lat": 38.8738375, "bike_id": "553a40f6be007c440d07b4b06e276497", "type": "electric_scooter", "is_reserved": 0, "lon": -77.00046133333333}, {"fusion_lat": 0.0, "name": "63873d5d0dd3ba218c92bd9874de75c0", "is_disabled": 0, "rental_uris": {"android": "https://dc.lft.to/lastmile_qr_scan", "ios": "https://dc.lft.to/lastmile_qr_scan"}, "fusion_lon": 0.0, "lat": 38.87482116666666, "bike_id": "63873d5d0dd3ba218c92bd9874de75c0", "type": "electric_scooter", "is_reserved": 0, "lon": -77.00116566666667}, {"fusion_lat": 0.0, "name": "b89ae18402e8d473f4ea1c89a49c1323", "is_disabled": 0, "rental_uris": {"android": "https://dc.lft.to/lastmile_qr_scan", "ios": "https://dc.lft.to/lastmile_qr_scan"}, "fusion_lon": 0.0, "lat": 38.957324666666665, "bike_id": "b89ae18402e8d473f4ea1c89a49c1323", "type": "electric_scooter", "is_reserved": 0, "lon": -77.02402516666666}, {"fusion_lat": 0.0, "name": "238b89776a0b0f071eb6a3c9f9c17c1b", "is_disabled": 0, "rental_uris": {"android": "https://dc.lft.to/lastmile_qr_scan", "ios": "https://dc.lft.to/lastmile_qr_scan"}, "fusion_lon": 0.0, "lat": 38.91595616666667, "bike_id": "238b89776a0b0f071eb6a3c9f9c17c1b", "type": "electric_scooter", "is_reserved": 0, "lon": -77.04550533333334},