{"data": {"bikes": [{"rental_uris": {"ios": "https://dc.lft.to/lastmile_qr_scan", "android": "https://dc.lft.to/lastmile_qr_scan"}, "lon": -77.02964733333333, "type": "electric_scooter", "fusion_lat": 0.0, "lat": 38.9077625, "name": "26b23bb87d663c01399fe077ab11b6d7", "fusion_lon": 0.0, "bike_id": "26b23bb87d663c01399fe077ab11b6d7", "is_disabled": 0, "is_reserved": 0}, {"rental_uris": {"ios": "https://dc.lft.to/lastmile_qr_scan", "android": "https://dc.lft.to/lastmile_qr_scan"}, "lon": -77.00595633333333, "type": "electric_scooter", "fusion_lat": 0.0, "lat": 38.91566916666667, "name": "c315b043c7da7ba4469462d4569ced48", "fusion_lon": 0.0, "bike_id": "c315b043c7da7ba4469462d4569ced48", "is_disabled": 0, "is_reserved": 0}, {"rental_uris": {"ios": "https://dc.lft.to/lastmile_qr_scan", "android": "https://dc.lft.to/lastmile_qr_scan"}, "lon": -77.02847266666667, "type": "electric_scooter", "fusion_lat": 0.0, "lat": 38.930738833333336, "name": "50179d28b5fa20668a44e72c3d9c43bd", "fusion_lon": 0.0, "bike_id": "50179d28b5fa20668a44e72c3d9c43bd", "is_disabled": 0, "is_reserved": 0}, {"rental_uris": {"ios": "https://dc.lft.to/lastmile_qr_scan", "android": "https://dc.lft.to/lastmile_qr_scan"}, "lon": -77.042455, "type": "electric_scooter", "fusion_lat": 0.0, "lat": 38.90748383333333, "name": "a402bb1e7b8cb3342ee333c722a4583e", "fusion_lon": 0.0, "bike_id": "a402bb1e7b8cb3342ee333c722a4583e", "is_disabled": 0, "is_reserved": 0}, {"rental_uris": {"ios": "https://dc.lft.to/lastmile_qr_scan", "android": "https://dc.lft.to/lastmile_qr_scan"}, "lon": -77.0438535, "type": "electric_scooter", "fusion_lat": 0.0, "lat": 38.929418, "name": "b1300e897d4d49d912da01a54e706e29", "fusion_lon": 0.0, "bike_id": "b1300e897d4d49d912da01a54e706e29", "is_disabled": 0, "is_reserved": 0}, {"rental_uris": {"ios": "https://dc.lft.to/lastmile_qr_scan", "android": "https://dc.lft.to/lastmile_qr_scan"}, "lon": -77.12499233333334, "type": "electric_bike", "fusion_lat": 0.0, "lat": 39.02413333333333, "name": "d56be3de5830a4c2a1c2dee96bfc0576", "fusion_lon": 0.0, "bike_id": "d56be3de5830a4c2a1c2dee96bfc0576", "is_disabled": 0, "is_reserved": 0}, {"rental_uris": {"ios": "https://dc.lft.to/lastmile_qr_scan", "android": "https://dc.lft.to/lastmile_qr_scan"}, "lon": -77.0307505, "type": "electric_scooter", "fusion_lat": 0.0, "lat": 38.922398666666666, "name": "e9099e40fa7a441c7719d1d50f506485", "fusion_lon": 0.0, "bike_id": "e9099e40fa7a441c7719d1d50f506485", "is_disabled": 0, "is_reserved": 0}, {"rental_uris": {"ios": "https://dc.lft.to/lastmile_qr_scan", "android": "https://dc.lft.to/lastmile_qr_scan"}, "lon": -77.030073, "type": "electric_scooter", "fusion_lat": 0.0, "lat": 38.91925833333333, "name": "0baba367740d30abe3d83c823a2fc01e", "fusion_lon": 0.0, "bike_id": "0baba367740d30abe3d83c823a2fc01e", "is_disabled": 0, "is_reserved": 0}, {"rental_uris": {"ios": "https://dc.lft.to/lastmile_qr_scan", "android": "https://dc.lft.to/lastmile_qr_scan"}, "lon": -77.2221255, "type": "electric_bike", "fusion_lat": 0.0, "lat": 38.920755, "name": "73434d33cf8b95af998bd0b36082e4bd", "fusion_lon": 0.0, "bike_id": "73434d33cf8b95af998bd0b36082e4bd", "is_disabled": 0, "is_reserved": 0}, {"rental_uris": {"ios": "https://dc.lft.to/lastmile_qr_scan", "android": "https://dc.lft.to/lastmile_qr_scan"}, "lon": -77.02289916666666, "type": "electric_scooter", "fusion_lat": 0.0, "lat": 38.915706666666665, "name": "bb3a63a8b113c1cdad200d196fec1455", "fusion_lon": 0.0, "bike_id": "bb3a63a8b113c1cdad200d196fec1455", "is_disabled": 0, "is_reserved": 0}, {"rental_uris": {"ios": "https://dc.lft.to/lastmile_qr_scan", "android": "https://dc.lft.to/lastmile_qr_scan"}, "lon": -77.00691066666667, "type": "electric_scooter", "fusion_lat": 0.0, "lat": 38.905697, "name": "73aa28f8db39c31be48e613e6edcbaa8", "fusion_lon": 0.0, "bike_id": "73aa28f8db39c31be48e613e6edcbaa8", "is_disabled": 0, "is_reserved": 0}, {"rental_uris": {"ios": "https://dc.lft.to/lastmile_qr_scan", "android": "https://dc.lft.to/lastmile_qr_scan"}, "lon": -77.0389425, "type": "electric_scooter", "fusion_lat": 0.0, "lat": 38.923267333333335, "name": "17c3871f6bddd5c67be9c368eb68d09c", "fusion_lon": 0.0, "bike_id": "17c3871f6bddd5c67be9c368eb68d09c", "is_disabled": 0, "is_reserved": 0}, {"rental_uris": {"ios": "https://dc.lft.to/lastmile_qr_scan", "android": "https://dc.lft.to/lastmile_qr_scan"}, "lon": -77.0234535, "type": "electric_scooter", "fusion_lat": 0.0, "lat": 38.96206033333333, "name": "7b5c2fb53405a8d70ae81827500f3e65", "fusion_lon": 0.0, "bike_id": "7b5c2fb53405a8d70ae81827500f3e65", "is_disabled": 0, "is_reserved": 0}, {"rental_uris": {"ios": "https://dc.lft.to/lastmile_qr_scan", "android": "https://dc.lft.to/lastmile_qr_scan"}, "lon": -77.065319, "type": "electric_scooter", "fusion_lat": 0.0, "lat": 38.911266, "name": "822a6538814b925b0213192e3ad853c1", "fusion_lon": 0.0, "bike_id": "822a6538814b925b0213192e3ad853c1", "is_disabled": 0, "is_reserved": 0}, {"rental_uris": {"ios": "https://dc.lft.to/lastmile_qr_scan", "android": "https://dc.lft.to/lastmile_qr_scan"}, "lon": -77.01501533333334, "type": "electric_scooter", "fusion_lat": 0.0, "lat": 38.907207666666665, "name": "f3b73df8480e9ae38252555c77440e7b", "fusion_lon": 0.0, "bike_id": "f3b73df8480e9ae38252555c77440e7b", "is_disabled": 0, "is_reserved": 0}, {"rental_uris": {"ios": "https://dc.lft.to/lastmile_qr_scan", "android": "https://dc.lft.to/lastmile_qr_scan"}, "lon": -76.9951695, "type": "electric_scooter", "fusion_lat": 0.0, "lat": 38.894816166666665, "name": "32a1a7c5ff84bd7bdac15e79a84bf5d3", "fusion_lon": 0.0, "bike_id": "32a1a7c5ff84bd7bdac15e79a84bf5d3", "is_disabled": 0, "is_reserved": 0}, {"rental_uris": {"ios": "https://dc.lft.to/lastmile_qr_scan", "android": "https://dc.lft.to/lastmile_qr_scan"}, "lon": -77.03640516666667, "type": "electric_scooter", "fusion_lat": 0.0, "lat": 38.907909333333336, "name": "0d9044170eaf7655c0224939f043320e", "fusion_lon": 0.0, "bike_id": "0d9044170eaf7655c0224939f043320e", "is_disabled": 0, "is_reserved": 0}, {"rental_uris": {"ios": "https://dc.lft.to/lastmile_qr_scan", "android": "https://dc.lft.to/lastmile_qr_scan"}, "lon": -77.036993, "type": "electric_bike", "fusion_lat": 0.0, "lat": 38.935602, "name": "117cb85d3fb36180357cf21233515fa1", "fusion_lon": 0.0, "bike_id": "117cb85d3fb36180357cf21233515fa1", "is_disabled": 0, "is_reserved": 0}, {"rental_uris": {"ios": "https://dc.lft.to/lastmile_qr_scan", "android": "https://dc.lft.to/lastmile_qr_scan"}, "lon": -76.9483995, "type": "electric_scooter", "fusion_lat": 0.0, "lat": 38.89484083333333, "name": "7a6aeea272fa06b9872bc91ede4620e9", "fusion_lon": 0.0, "bike_id": "7a6aeea272fa06b9872bc91ede4620e9", "is_disabled": 0, "is_reserved": 0}, {"rental_uris": {"ios": "https://dc.lft.to/lastmile_qr_scan", "android": "https://dc.lft.to/lastmile_qr_scan"}, "lon": -76.93172416666667, "type": "electric_scooter", "fusion_lat": 0.0, "lat": 38.89884683333333, "name": "ed8e144c4efc5aa728b061a532781623", "fusion_lon": 0.0, "bike_id": "ed8e144c4efc5aa728b061a532781623", "is_disabled": 0, "is_reserved": 0}, {"rental_uris": {"ios": "https://dc.lft.to/lastmile_qr_scan", "android": "https://dc.lft.to/lastmile_qr_scan"}, "lon": -77.02829116666666, "type": "electric_scooter", "fusion_lat": 0.0, "lat": 38.9125725, "name": "2e6c95cfb02bd8d8f6737c226f6cd4a7", "fusion_lon": 0.0, "bike_id": "2e6c95cfb02bd8d8f6737c226f6cd4a7", "is_disabled": 0, "is_reserved": 0}, {"rental_uris": {"ios": "https://dc.lft.to/lastmile_qr_scan", "android": "https://dc.lft.to/lastmile_qr_scan"}, "lon": -76.94854433333333, "type": "electric_scooter", "fusion_lat": 0.0, "lat": 38.88299116666666, "name": "6d5a6239da2f9278a4fb592a9c404d6d", "fusion_lon": 0.0, "bike_id": "6d5a6239da2f9278a4fb592a9c404d6d", "is_disabled": 0, "is_reserved": 0}, {"rental_uris": {"ios": "https://dc.lft.to/lastmile_qr_scan", "android": "https://dc.lft.to/lastmile_qr_scan"}, "lon": -77.04069983333333, "type": "electric_scooter", "fusion_lat": 0.0, "lat": 38.905267, "name": "1a0747ee15fd86c0eaa80721a530a323", "fusion_lon": 0.0, "bike_id": "1a0747ee15fd86c0eaa80721a530a323", "is_disabled": 0, "is_reserved": 0}, {"rental_uris": {"ios": "https://dc.lft.to/lastmile_qr_scan", "android": "https://dc.lft.to/lastmile_qr_scan"}, "lon": -77.1071015, "type": "electric_bike", "fusion_lat": 0.0, "lat": 38.855273833333335, "name": "020f64354787398900349a679c8373fb", "fusion_lon": 0.0, "bike_id": "020f64354787398900349a679c8373fb", "is_disabled": 0, "is_reserved": 0}, {"rental_uris": {"ios": "https://dc.lft.to/lastmile_qr_scan", "android": "https://dc.lft.to/lastmile_qr_scan"}, "lon": -77.0335565, "type": "electric_scooter", "fusion_lat": 0.0, "lat": 38.885064166666666, "name": "1aad2e2331dcf05cf0955c9c346995f0", "fusion_lon": 0.0, "bike_id": "1aad2e2331dcf05cf0955c9c346995f0", "is_disabled": 0, "is_reserved": 0}, {"rental_uris": {"ios": "https://dc.lft.to/lastmile_qr_scan", "android": "https://dc.lft.to/lastmile_qr_scan"}, "lon": -77.032094, "type": "electric_scooter", "fusion_lat": 0.0, "lat": 38.911568833333334, "name": "79765c4d5039cc84597f36821c0df9a4", "fusion_lon": 0.0, "bike_id": "79765c4d5039cc84597f36821c0df9a4", "is_disabled": 0, "is_reserved": 0}, {"rental_uris": {"ios": "https://dc.lft.to/lastmile_qr_scan", "android": "https://dc.lft.to/lastmile_qr_scan"}, "lon": -76.9927235, "type": "electric_scooter", "fusion_lat": 0.0, "lat": 38.896901666666665, "name": "4e3165fcca1c39e77801984787c4de7b", "fusion_lon": 0.0, "bike_id": "4e3165fcca1c39e77801984787c4de7b", "is_disabled": 0, "is_reserved": 0}, {"rental_uris": {"ios": "https://dc.lft.to/lastmile_qr_scan", "android": "https://dc.lft.to/lastmile_qr_scan"}, "lon": -77.02330966666666, "type": "electric_scooter", "fusion_lat": 0.0, "lat": 38.92889683333333, "name": "9bb754618220f0d23f8ff2f255fa0a9d", "fusion_lon": 0.0, "bike_id": "9bb754618220f0d23f8ff2f255fa0a9d", "is_disabled": 0, "is_reserved": 0}, {"rental_uris": {"ios": "https://dc.lft.to/lastmile_qr_scan", "android": "https://dc.lft.to/lastmile_qr_scan"}, "lon": -77.0258325, "type": "electric_scooter", "fusion_lat": 0.0, "lat": 38.920375, "name": "6aff45241b853629863bf1466e526229", "fusion_lon": 0.0, "bike_id": "6aff45241b853629863bf1466e526229", "is_disabled": 0, "is_reserved": 0}, {"rental_uris": {"ios": "https://dc.lft.to/lastmile_qr_scan", "android": "https://dc.lft.to/lastmile_qr_scan"}, "lon": -77.006731, "type": "electric_bike", "fusion_lat": 0.0, "lat": 38.945152, "name": "f6776381bfed959b79547297aaaf1292", "fusion_lon": 0.0, "bike_id": "f6776381bfed959b79547297aaaf1292", "is_disabled": 0, "is_reserved": 0}, {"rental_uris": {"ios": "https://dc.lft.to/lastmile_qr_scan", "android": "https://dc.lft.to/lastmile_qr_scan"}, "lon": -77.007079, "type": "electric_scooter", "fusion_lat": 0.0, "lat": 38.884888333333336, "name": "0f6aacb644e71225073cdcce9e79bb04", "fusion_lon": 0.0, "bike_id": "0f6aacb644e71225073cdcce9e79bb04", "is_disabled": 0, "is_reserved": 0}, {"rental_uris": {"ios": "https://dc.lft.to/lastmile_qr_scan", "android": "https://dc.lft.to/lastmile_qr_scan"}, "lon": -77.0694745, "type": "electric_bike", "fusion_lat": 0.0, "lat": 38.990427333333336, "name": "ea04716d77365b46b27a08f91666157c", "fusion_lon": 0.0, "bike_id": "ea04716d77365b46b27a08f91666157c", "is_disabled": 0, "is_reserved": 0}, {"rental_uris": {"ios": "https://dc.lft.to/lastmile_qr_scan", "android": "https://dc.lft.to/lastmile_qr_scan"}, "lon": -77.058846, "type": "electric_scooter", "fusion_lat": 0.0, "lat": 38.936344166666665, "name": "ecb932a6ef5957a91b19433441f81c16", "fusion_lon": 0.0, "bike_id": "ecb932a6ef5957a91b19433441f81c16", "is_disabled": 0, "is_reserved": 0}, {"rental_uris": {"ios": "https://dc.lft.to/lastmile_qr_scan", "android": "https://dc.lft.to/lastmile_qr_scan"}, "lon": -77.04738366666666, "type": "electric_scooter", "fusion_lat": 0.0, "lat": 38.9110935, "name": "b63986b0f805f1b5d16002691ea873b9", "fusion_lon": 0.0, "bike_id": "b63986b0f805f1b5d16002691ea873b9", "is_disabled": 0, "is_reserved": 0}, {"rental_uris": {"ios": "https://dc.lft.to/lastmile_qr_scan", "android": "https://dc.lft.to/lastmile_qr_scan"}, "lon": -77.02760783333333, "type": "electric_scooter", "fusion_lat": 0.0, "lat": 38.956106, "name": "eeb3a6a39d69ae3f925bea3acc9e1525", "fusion_lon": 0.0, "bike_id": "eeb3a6a39d69ae3f925bea3acc9e1525", "is_disabled": 0, "is_reserved": 0}, {"rental_uris": {"ios": "https://dc.lft.to/lastmile_qr_scan", "android": "https://dc.lft.to/lastmile_qr_scan"}, "lon": -77.02961666666667, "type": "electric_scooter", "fusion_lat": 0.0, "lat": 38.95423666666667, "name": "500cd80fee1f48f581eefd6a8d787c5f", "fusion_lon": 0.0, "bike_id": "500cd80fee1f48f581eefd6a8d787c5f", "is_disabled": 0, "is_reserved": 0}, {"rental_uris": {"ios": "https://dc.lft.to/lastmile_qr_scan", "android": "https://dc.lft.to/lastmile_qr_scan"}, "lon": -77.035686, "type": "electric_scooter", "fusion_lat": 0.0, "lat": 38.91811666666667, "name": "5bfeca173182038731254b27762ccf98", "fusion_lon": 0.0, "bike_id": "5bfeca173182038731254b27762ccf98", "is_disabled": 0, "is_reserved": 0}, {"rental_uris": {"ios": "https://dc.lft.to/lastmile_qr_scan", "android": "https://dc.lft.to/lastmile_qr_scan"}, "lon": -76.99666183333333, "type": "electric_scooter", "fusion_lat": 0.0, "lat": 38.91017383333333, "name": "f98d96a44782da1f1a12629cfe8e9c37", "fusion_lon": 0.0, "bike_id": "f98d96a44782da1f1a12629cfe8e9c37", "is_disabled": 0, "is_reserved": 0}, {"rental_uris": {"ios": "https://dc.lft.to/lastmile_qr_scan", "android": "https://dc.lft.to/lastmile_qr_scan"}, "lon": -77.02584, "type": "electric_scooter", "fusion_lat": 0.0, "lat": 38.892456333333335, "name": "10c8de0c3645cdc545166685c6ff3ee7", "fusion_lon": 0.0, "bike_id": "10c8de0c3645cdc545166685c6ff3ee7", "is_disabled": 0, "is_reserved": 0}, {"rental_uris": {"ios": "https://dc.lft.to/lastmile_qr_scan", "android": "https://dc.lft.to/lastmile_qr_scan"}, "lon": -76.99565166666666, "type": "electric_scooter", "fusion_lat": 0.0, "lat": 38.9287185, "name": "667d5d20bf7c98f97169a3bcaa66039b", "fusion_lon": 0.0, "bike_id": "667d5d20bf7c98f97169a3bcaa66039b", "is_disabled": 0, "is_reserved": 0}, {"rental_uris": {"ios": "https://dc.lft.to/lastmile_qr_scan", "android": "https://dc.lft.to/lastmile_qr_scan"}, "lon": -76.93867833333333, "type": "electric_scooter", "fusion_lat": 0.0, "lat": 38.900812333333334, "name": "79b7e6de33dc3b24112aa46b8bd2ac4e", "fusion_lon": 0.0, "bike_id": "79b7e6de33dc3b24112aa46b8bd2ac4e", "is_disabled": 0, "is_reserved": 0}, {"rental_uris": {"ios": "https://dc.lft.to/lastmile_qr_scan", "android": "https://dc.lft.to/lastmile_qr_scan"}, "lon": -77.03720383333334, "type": "electric_scooter", "fusion_lat": 0.0, "lat": 38.9110725, "name": "7d4e8b755023c390f9661d7899b90522", "fusion_lon": 0.0, "bike_id": "7d4e8b755023c390f9661d7899b90522", "is_disabled": 0, "is_reserved": 0}, {"rental_uris": {"ios": "https://dc.lft.to/lastmile_qr_scan", "android": "https://dc.lft.to/lastmile_qr_scan"}, "lon": -77.00610333333333, "type": "electric_scooter", "fusion_lat": 0.0, "lat": 38.902524166666666, "name": "7f9aed0c155d6e2433ec78158b1a5d8f", "fusion_lon": 0.0, "bike_id": "7f9aed0c155d6e2433ec78158b1a5d8f", "is_disabled": 0, "is_reserved": 0}, {"rental_uris": {"ios": "https://dc.lft.to/lastmile_qr_scan", "android": "https://dc.lft.to/lastmile_qr_scan"}, "lon": -76.93111383333333, "type": "electric_scooter", "fusion_lat": 0.0, "lat": 38.89830283333333, "name": "42fb0552a46ea716e1faf27ad30b732c", "fusion_lon": 0.0, "bike_id": "42fb0552a46ea716e1faf27ad30b732c", "is_disabled": 0, "is_reserved": 0}, {"rental_uris": {"ios": "https://dc.lft.to/lastmile_qr_scan", "android": "https://dc.lft.to/lastmile_qr_scan"}, "lon": -77.02680366666667, "type": "electric_scooter", "fusion_lat": 0.0, "lat": 38.89215866666667, "name": "f1427c9035bbb216aaddc122be6ed275", "fusion_lon": 0.0, "bike_id": "f1427c9035bbb216aaddc122be6ed275", "is_disabled": 0, "is_reserved": 0}, {"rental_uris": {"ios": "https://dc.lft.to/lastmile_qr_scan", "android": "https://dc.lft.to/lastmile_qr_scan"}, "lon": -77.00763833333333, "type": "electric_scooter", "fusion_lat": 0.0, "lat": 38.90593, "name": "ac88826cc7f777e7e2f45d4c71269208", "fusion_lon": 0.0, "bike_id": "ac88826cc7f777e7e2f45d4c71269208", "is_disabled": 0, "is_reserved": 0}, {"rental_uris": {"ios": "https://dc.lft.to/lastmile_qr_scan", "android": "https://dc.lft.to/lastmile_qr_scan"}, "lon": -76.95242633333334, "type": "electric_bike", "fusion_lat": 0.0, "lat": 38.907053166666664, "name": "b4b64e46f31d53831cc890873a4e6d66", "fusion_lon": 0.0, "bike_id": "b4b64e46f31d53831cc890873a4e6d66", "is_disabled": 0, "is_reserved": 0}, {"rental_uris": {"ios": "https://dc.lft.to/lastmile_qr_scan", "android": "https://dc.lft.to/lastmile_qr_scan"}, "lon": -76.98077283333333, "type": "electric_bike", "fusion_lat": 0.0, "lat": 38.8997395, "name": "b2df8ee06aa47490b1b5781f974ed861", "fusion_lon": 0.0, "bike_id": "b2df8ee06aa47490b1b5781f974ed861", "is_disabled": 0, "is_reserved": 0}, {"rental_uris": {"ios": "https://dc.lft.to/lastmile_qr_scan", "android": "https://dc.lft.to/lastmile_qr_scan"}, "lon": -77.0220745, "type": "electric_scooter", "fusion_lat": 0.0, "lat": 38.88719916666667, "name": "e2d45b47dc516162bd35c6a63175bfb5", "fusion_lon": 0.0, "bike_id": "e2d45b47dc516162bd35c6a63175bfb5", "is_disabled": 0, "is_reserved": 0}, {"rental_uris": {"ios": "https://dc.lft.to/lastmile_qr_scan", "android": "https://dc.lft.to/lastmile_qr_scan"}, "lon": -77.02194933333334, "type": "electric_scooter", "fusion_lat": 0.0, "lat": 38.93129116666667, "name": "3ffc4c1ec665353d7f9dadf9530509d2", "fusion_lon": 0.0, "bike_id": "3ffc4c1ec665353d7f9dadf9530509d2", "is_disabled": 0, "is_reserved": 0}, {"rental_uris": {"ios": "https://dc.lft.to/lastmile_qr_scan", "android": "https://dc.lft.to/lastmile_qr_scan"}, "lon": -77.04146933333334, "type": "electric_scooter", "fusion_lat": 0.0, "lat": 38.9235825, "name": "0ab77be6ca135c3de867e47d42b2b438", "fusion_lon": 0.0, "bike_id": "0ab77be6ca135c3de867e47d42b2b438", "is_disabled": 0, "is_reserved": 0}, {"rental_uris": {"ios": "https://dc.lft.to/lastmile_qr_scan", "android": "https://dc.lft.to/lastmile_qr_scan"}, "lon": -77.0499845, "type": "electric_scooter", "fusion_lat": 0.0, "lat": 38.89229433333333, "name": "b9ce5e6ae6697ae30f391ef86094f040", "fusion_lon": 0.0, "bike_id": "b9ce5e6ae6697ae30f391ef86094f040", "is_disabled": 0, "is_reserved": 0}, {"rental_uris": {"ios": "https://dc.lft.to/lastmile_qr_scan", "android": "https://dc.lft.to/lastmile_qr_scan"}, "lon": -77.013604, "type": "electric_scooter", "fusion_lat": 0.0, "lat": 38.8711605, "name": "b55328b83afbcf36b9c669955a6e114d", "fusion_lon": 0.0, "bike_id": "b55328b83afbcf36b9c669955a6e114d", "is_disabled": 0, "is_reserved": 0}, {"rental_uris": {"ios": "https://dc.lft.to/lastmile_qr_scan", "android": "https://dc.lft.to/lastmile_qr_scan"}, "lon": -76.94925066666667, "type": "electric_scooter", "fusion_lat": 0.0, "lat": 38.8947355, "name": "662b573ee506e017e4dd341cbf91e9cf", "fusion_lon": 0.0, "bike_id": "662b573ee506e017e4dd341cbf91e9cf", "is_disabled": 0, "is_reserved": 0}, {"rental_uris": {"ios": "https://dc.lft.to/lastmile_qr_scan", "android": "https://dc.lft.to/lastmile_qr_scan"}, "lon": -77.03212283333333, "type": "electric_scooter", "fusion_lat": 0.0, "lat": 38.920170666666664, "name": "bd614e5b164df7085a378bf8c183310c", "fusion_lon": 0.0, "bike_id": "bd614e5b164df7085a378bf8c183310c", "is_disabled": 0, "is_reserved": 0}, {"rental_uris": {"ios": "https://dc.lft.to/lastmile_qr_scan", "android": "https://dc.lft.to/lastmile_qr_scan"}, "lon": -77.0281985, "type": "electric_bike", "fusion_lat": 0.0, "lat": 38.965036, "name": "a0f32ae52bbe18ea4b098ae90d1e088c", "fusion_lon": 0.0, "bike_id": "a0f32ae52bbe18ea4b098ae90d1e088c", "is_disabled": 0, "is_reserved": 0}, {"rental_uris": {"ios": "https://dc.lft.to/lastmile_qr_scan", "android": "https://dc.lft.to/lastmile_qr_scan"}, "lon": -77.02325183333333, "type": "electric_scooter", "fusion_lat": 0.0, "lat": 38.893915666666665, "name": "6e6693d34d112b120b2f3f9e341557ec", "fusion_lon": 0.0, "bike_id": "6e6693d34d112b120b2f3f9e341557ec", "is_disabled": 0, "is_reserved": 0}, {"rental_uris": {"ios": "https://dc.lft.to/lastmile_qr_scan", "android": "https://dc.lft.to/lastmile_qr_scan"}, "lon": -77.11230866666666, "type": "electric_bike", "fusion_lat": 0.0, "lat": 38.81231616666667, "name": "e0a0b1c3b91dfa28179140ef85f64e44", "fusion_lon": 0.0, "bike_id": "e0a0b1c3b91dfa28179140ef85f64e44", "is_disabled": 0, "is_reserved": 0}, {"rental_uris": {"ios": "https://dc.lft.to/lastmile_qr_scan", "android": "https://dc.lft.to/lastmile_qr_scan"}, "lon": -77.01314683333334, "type": "electric_scooter", "fusion_lat": 0.0, "lat": 38.89739516666667, "name": "d6f421b34632159e8d195427a5d314e1", "fusion_lon": 0.0, "bike_id": "d6f421b34632159e8d195427a5d314e1", "is_disabled": 0, "is_reserved": 0}, {"rental_uris": {"ios": "https://dc.lft.to/lastmile_qr_scan", "android": "https://dc.lft.to/lastmile_qr_scan"}, "lon": -77.01359283333333, "type": "electric_scooter", "fusion_lat": 0.0, "lat": 38.9198745, "name": "b8eb418d98ea02d885a92732d99b5e45", "fusion_lon": 0.0, "bike_id": "b8eb418d98ea02d885a92732d99b5e45", "is_disabled": 0, "is_reserved": 0}, {"rental_uris": {"ios": "https://dc.lft.to/lastmile_qr_scan", "android": "https://dc.lft.to/lastmile_qr_scan"}, "lon": -77.02208166666667, "type": "electric_scooter", "fusion_lat": 0.0, "lat": 38.90829166666666, "name": "3ae48fb8cac84e56953093d4f2fe0630", "fusion_lon": 0.0, "bike_id": "3ae48fb8cac84e56953093d4f2fe0630", "is_disabled": 0, "is_reserved": 0}, {"rental_uris": {"ios": "https://dc.lft.to/lastmile_qr_scan", "android": "https://dc.lft.to/lastmile_qr_scan"}, "lon": -77.02710916666666, "type": "electric_scooter", "fusion_lat": 0.0, "lat": 38.91820333333333, "name": "9fc101b15b50cc0cb2108cd242a8b7d8", "fusion_lon": 0.0, "bike_id": "9fc101b15b50cc0cb2108cd242a8b7d8", "is_disabled": 0, "is_reserved": 0}, {"rental_uris": {"ios": "https://dc.lft.to/lastmile_qr_scan", "android": "https://dc.lft.to/lastmile_qr_scan"}, "lon": -77.07165416666666, "type": "electric_scooter", "fusion_lat": 0.0, "lat": 38.914563333333334, "name": "244d857eb6bacabf0c3a932409858977", "fusion_lon": 0.0, "bike_id": "244d857eb6bacabf0c3a932409858977", "is_disabled": 0, "is_reserved": 0}, {"rental_uris": {"ios": "https://dc.lft.to/lastmile_qr_scan", "android": "https://dc.lft.to/lastmile_qr_scan"}, "lon": -77.032638, "type": "electric_scooter", "fusion_lat": 0.0, "lat": 38.934462333333336, "name": "b8c237b8e3016003aeb4b4d5236cca9e", "fusion_lon": 0.0, "bike_id": "b8c237b8e3016003aeb4b4d5236cca9e", "is_disabled": 0, "is_reserved": 0}, {"rental_uris": {"ios": "https://dc.lft.to/lastmile_qr_scan", "android": "https://dc.lft.to/lastmile_qr_scan"}, "lon": -76.9962615, "type": "electric_scooter", "fusion_lat": 0.0, "lat": 38.8468085, "name": "44b3983614f20e498606cd604e2b2fde", "fusion_lon": 0.0, "bike_id": "44b3983614f20e498606cd604e2b2fde", "is_disabled": 0, "is_reserved": 0}, {"rental_uris": {"ios": "https://dc.lft.to/lastmile_qr_scan", "android": "https://dc.lft.to/lastmile_qr_scan"}, "lon": -77.05023416666667, "type": "electric_scooter", "fusion_lat": 0.0, "lat": 38.9235625, "name": "5656510e9fae52051b473a77ef36f8ce", "fusion_lon": 0.0, "bike_id": "5656510e9fae52051b473a77ef36f8ce", "is_disabled": 0, "is_reserved": 0}, {"rental_uris": {"ios": "https://dc.lft.to/lastmile_qr_scan", "android": "https://dc.lft.to/lastmile_qr_scan"}, "lon": -77.03501466666667, "type": "electric_scooter", "fusion_lat": 0.0, "lat": 38.923430833333335, "name": "75848855e9a668b801567db662fa4f36", "fusion_lon": 0.0, "bike_id": "75848855e9a668b801567db662fa4f36", "is_disabled": 0, "is_reserved": 0}, {"rental_uris": {"ios": "https://dc.lft.to/lastmile_qr_scan", "android": "https://dc.lft.to/lastmile_qr_scan"}, "lon": -77.03860966666667, "type": "electric_scooter", "fusion_lat": 0.0, "lat": 38.9155535, "name": "b4cc03bf0fa484836846158662494776", "fusion_lon": 0.0, "bike_id": "b4cc03bf0fa484836846158662494776", "is_disabled": 0, "is_reserved": 0}, {"rental_uris": {"ios": "https://dc.lft.to/lastmile_qr_scan", "android": "https://dc.lft.to/lastmile_qr_scan"}, "lon": -77.02605433333333, "type": "electric_scooter", "fusion_lat": 0.0, "lat": 38.90756316666667, "name": "d6dc11a6f6791ff9588205d6080932dc", "fusion_lon": 0.0, "bike_id": "d6dc11a6f6791ff9588205d6080932dc", "is_disabled": 0, "is_reserved": 0}, {"rental_uris": {"ios": "https://dc.lft.to/lastmile_qr_scan", "android": "https://dc.lft.to/lastmile_qr_scan"}, "lon": -76.98090566666667, "type": "electric_bike", "fusion_lat": 0.0, "lat": 38.96359116666667, "name": "ef095242b2db6ba3dd8eb9ca26ed6fd3", "fusion_lon": 0.0, "bike_id": "ef095242b2db6ba3dd8eb9ca26ed6fd3", "is_disabled": 0, "is_reserved": 0}, {"rental_uris": {"ios": "https://dc.lft.to/lastmile_qr_scan", "android": "https://dc.lft.to/lastmile_qr_scan"}, "lon": -77.044407, "type": "electric_scooter", "fusion_lat": 0.0, "lat": 38.91872333333333, "name": "f1cd09ce169f40a164e550235754f1f9", "fusion_lon": 0.0, "bike_id": "f1cd09ce169f40a164e550235754f1f9", "is_disabled": 0, "is_reserved": 0}, {"rental_uris": {"ios": "https://dc.lft.to/lastmile_qr_scan", "android": "https://dc.lft.to/lastmile_qr_scan"}, "lon": -77.04394833333333, "type": "electric_scooter", "fusion_lat": 0.0, "lat": 38.9057355, "name": "8af5d0a7aa86968123ae3869b71c196a", "fusion_lon": 0.0, "bike_id": "8af5d0a7aa86968123ae3869b71c196a", "is_disabled": 0, "is_reserved": 0}, {"rental_uris": {"ios": "https://dc.lft.to/lastmile_qr_scan", "android": "https://dc.lft.to/lastmile_qr_scan"}, "lon": -77.03008, "type": "electric_scooter", "fusion_lat": 0.0, "lat": 38.919270833333336, "name": "e4521d4802dda714097dc0df880ecafe", "fusion_lon": 0.0, "bike_id": "e4521d4802dda714097dc0df880ecafe", "is_disabled": 0, "is_reserved": 0}, {"rental_uris": {"ios": "https://dc.lft.to/lastmile_qr_scan", "android": "https://dc.lft.to/lastmile_qr_scan"}, "lon": -77.05683633333334, "type": "electric_scooter", "fusion_lat": 0.0, "lat": 38.923315, "name": "ab2c995085991e4373e0bea32166f681", "fusion_lon": 0.0, "bike_id": "ab2c995085991e4373e0bea32166f681", "is_disabled": 0, "is_reserved": 0}, {"rental_uris": {"ios": "https://dc.lft.to/lastmile_qr_scan", "android": "https://dc.lft.to/lastmile_qr_scan"}, "lon": -77.08194916666666, "type": "electric_bike", "fusion_lat": 0.0, "lat": 38.922078166666665, "name": "c4ec79f1a8da5fd7444b1b4bb9e7e886", "fusion_lon": 0.0, "bike_id": "c4ec79f1a8da5fd7444b1b4bb9e7e886", "is_disabled": 0, "is_reserved": 0}, {"rental_uris": {"ios": "https://dc.lft.to/lastmile_qr_scan", "android": "https://dc.lft.to/lastmile_qr_scan"}, "lon": -76.97958366666667, "type": "electric_scooter", "fusion_lat": 0.0, "lat": 38.90383766666667, "name": "b8095ea37ee1e6a2d6959f0eeb86a7ee", "fusion_lon": 0.0, "bike_id": "b8095ea37ee1e6a2d6959f0eeb86a7ee", "is_disabled": 0, "is_reserved": 0}, {"rental_uris": {"ios": "https://dc.lft.to/lastmile_qr_scan", "android": "https://dc.lft.to/lastmile_qr_scan"}, "lon": -77.03868216666666, "type": "electric_scooter", "fusion_lat": 0.0, "lat": 38.915549, "name": "0d6788d4df958a1c857da6344f33d143", "fusion_lon": 0.0, "bike_id": "0d6788d4df958a1c857da6344f33d143", "is_disabled": 0, "is_reserved": 0}, {"rental_uris": {"ios": "https://dc.lft.to/lastmile_qr_scan", "android": "https://dc.lft.to/lastmile_qr_scan"}, "lon": -76.98682016666666, "type": "electric_scooter", "fusion_lat": 0.0, "lat": 38.882092, "name": "b2b08da4b46e1ef3a6700e8d8c2f40a9", "fusion_lon": 0.0, "bike_id": "b2b08da4b46e1ef3a6700e8d8c2f40a9", "is_disabled": 0, "is_reserved": 0}, {"rental_uris": {"ios": "https://dc.lft.to/lastmile_qr_scan", "android": "https://dc.lft.to/lastmile_qr_scan"}, "lon": -77.0286035, "type": "electric_scooter", "fusion_lat": 0.0, "lat": 38.9073105, "name": "7ee701e6515500b46919970f8e953040", "fusion_lon": 0.0, "bike_id": "7ee701e6515500b46919970f8e953040", "is_disabled": 0, "is_reserved": 0}, {"rental_uris": {"ios": "https://dc.lft.to/lastmile_qr_scan", "android": "https://dc.lft.to/lastmile_qr_scan"}, "lon": -77.032088, "type": "electric_scooter", "fusion_lat": 0.0, "lat": 38.91603116666667, "name": "4a3f0838adf9908f7a57aee7d5a2df8d", "fusion_lon": 0.0, "bike_id": "4a3f0838adf9908f7a57aee7d5a2df8d", "is_disabled": 0, "is_reserved": 0}, {"rental_uris": {"ios": "https://dc.lft.to/lastmile_qr_scan", "android": "https://dc.lft.to/lastmile_qr_scan"}, "lon": -77.02283966666667, "type": "electric_scooter", "fusion_lat": 0.0, "lat": 38.91669366666667, "name": "f5b8aa31525ce6eca19729d5e24b5ec5", "fusion_lon": 0.0, "bike_id": "f5b8aa31525ce6eca19729d5e24b5ec5", "is_disabled": 0, "is_reserved": 0}, {"rental_uris": {"ios": "https://dc.lft.to/lastmile_qr_scan", "android": "https://dc.lft.to/lastmile_qr_scan"}, "lon": -77.03266533333333, "type": "electric_scooter", "fusion_lat": 0.0, "lat": 38.947901333333334, "name": "05ffe7b5b1585d191a88e9958728b446", "fusion_lon": 0.0, "bike_id": "05ffe7b5b1585d191a88e9958728b446", "is_disabled": 0, "is_reserved": 0}, {"rental_uris": {"ios": "https://dc.lft.to/lastmile_qr_scan", "android": "https://dc.lft.to/lastmile_qr_scan"}, "lon": -77.0328095, "type": "electric_scooter", "fusion_lat": 0.0, "lat": 38.93986866666667, "name": "2330f6fe9b2410d1f10a3a89374bbc74", "fusion_lon": 0.0, "bike_id": "2330f6fe9b2410d1f10a3a89374bbc74", "is_disabled": 0, "is_reserved": 0}, {"rental_uris": {"ios": "https://dc.lft.to/lastmile_qr_scan", "android": "https://dc.lft.to/lastmile_qr_scan"}, "lon": -77.02213833333333, "type": "electric_scooter", "fusion_lat": 0.0, "lat": 38.91268083333333, "name": "6b1aecb5df660fc90d48c0631a8962e0", "fusion_lon": 0.0, "bike_id": "6b1aecb5df660fc90d48c0631a8962e0", "is_disabled": 0, "is_reserved": 0}, {"rental_uris": {"ios": "https://dc.lft.to/lastmile_qr_scan", "android": "https://dc.lft.to/lastmile_qr_scan"}, "lon": -76.99659233333334, "type": "electric_scooter", "fusion_lat": 0.0, "lat": 38.9323135, "name": "abdc17e0a45fe98e9791808e572f90e2", "fusion_lon": 0.0, "bike_id": "abdc17e0a45fe98e9791808e572f90e2", "is_disabled": 0, "is_reserved": 0}, {"rental_uris": {"ios": "https://dc.lft.to/lastmile_qr_scan", "android": "https://dc.lft.to/lastmile_qr_scan"}, "lon": -77.0298165, "type": "electric_scooter", "fusion_lat": 0.0, "lat": 38.90898833333333, "name": "fb54b7d597ad2805c7830ed007bfa17f", "fusion_lon": 0.0, "bike_id": "fb54b7d597ad2805c7830ed007bfa17f", "is_disabled": 0, "is_reserved": 0}, {"rental_uris": {"ios": "https://dc.lft.to/lastmile_qr_scan", "android": "https://dc.lft.to/lastmile_qr_scan"}, "lon": -77.02166866666667, "type": "electric_bike", "fusion_lat": 0.0, "lat": 38.88362566666667, "name": "78a5d26e76be93e0f6c738e2f49c7ed2", "fusion_lon": 0.0, "bike_id": "78a5d26e76be93e0f6c738e2f49c7ed2", "is_disabled": 0, "is_reserved": 0}, {"rental_uris": {"ios": "https://dc.lft.to/lastmile_qr_scan", "android": "https://dc.lft.to/lastmile_qr_scan"}, "lon": -77.01357483333334, "type": "electric_scooter", "fusion_lat": 0.0, "lat": 38.952879333333335, "name": "c899e51d234873152a8aba72b3c4575c", "fusion_lon": 0.0, "bike_id": "c899e51d234873152a8aba72b3c4575c", "is_disabled": 0, "is_reserved": 0}, {"rental_uris": {"ios": "https://dc.lft.to/lastmile_qr_scan", "android": "https://dc.lft.to/lastmile_qr_scan"}, "lon": -77.04414483333333, "type": "electric_scooter", "fusion_lat": 0.0, "lat": 38.926065333333334, "name": "fc1985fa6f1dae550dc6c868224a900d", "fusion_lon": 0.0, "bike_id": "fc1985fa6f1dae550dc6c868224a900d", "is_disabled": 0, "is_reserved": 0}, {"rental_uris": {"ios": "https://dc.lft.to/lastmile_qr_scan", "android": "https://dc.lft.to/lastmile_qr_scan"}, "lon": -77.024231, "type": "electric_scooter", "fusion_lat": 0.0, "lat": 38.8922235, "name": "db10daea7f6533a624bc5fb00c21a030", "fusion_lon": 0.0, "bike_id": "db10daea7f6533a624bc5fb00c21a030", "is_disabled": 0, "is_reserved": 0}, {"rental_uris": {"ios": "https://dc.lft.to/lastmile_qr_scan", "android": "https://dc.lft.to/lastmile_qr_scan"}, "lon": -76.9835665, "type": "electric_scooter", "fusion_lat": 0.0, "lat": 38.915273666666664, "name": "3c1ec42b8b991efd9f671ca6ab80ab3d", "fusion_lon": 0.0, "bike_id": "3c1ec42b8b991efd9f671ca6ab80ab3d", "is_disabled": 0, "is_reserved": 0}, {"rental_uris": {"ios": "https://dc.lft.to/lastmile_qr_scan", "android": "https://dc.lft.to/lastmile_qr_scan"}, "lon": -77.01222583333333, "type": "electric_scooter", "fusion_lat": 0.0, "lat": 38.8642215, "name": "07c036f72eba5de7efea3fba2873f3cb", "fusion_lon": 0.0, "bike_id": "07c036f72eba5de7efea3fba2873f3cb", "is_disabled": 0, "is_reserved": 0}, {"rental_uris": {"ios": "https://dc.lft.to/lastmile_qr_scan", "android": "https://dc.lft.to/lastmile_qr_scan"}, "lon": -77.00955516666667, "type": "electric_scooter", "fusion_lat": 0.0, "lat": 38.907322666666666, "name": "3579d3f9739021a0a936b353767f50e2", "fusion_lon": 0.0, "bike_id": "3579d3f9739021a0a936b353767f50e2", "is_disabled": 0, "is_reserved": 0}, {"rental_uris": {"ios": "https://dc.lft.to/lastmile_qr_scan", "android": "https://dc.lft.to/lastmile_qr_scan"}, "lon": -76.93354816666667, "type": "electric_scooter", "fusion_lat": 0.0, "lat": 38.898998, "name": "ea13d649b3f24f618a3b080b43351273", "fusion_lon": 0.0, "bike_id": "ea13d649b3f24f618a3b080b43351273", "is_disabled": 0, "is_reserved": 0}, {"rental_uris": {"ios": "https://dc.lft.to/lastmile_qr_scan", "android": "https://dc.lft.to/lastmile_qr_scan"}, "lon": -77.04080833333333, "type": "electric_scooter", "fusion_lat": 0.0, "lat": 38.907258666666664, "name": "e8e8279509bb675daf563b817c045134", "fusion_lon": 0.0, "bike_id": "e8e8279509bb675daf563b817c045134", "is_disabled": 0, "is_reserved": 0}, {"rental_uris": {"ios": "https://dc.lft.to/lastmile_qr_scan", "android": "https://dc.lft.to/lastmile_qr_scan"}, "lon": -77.02589483333334, "type": "electric_scooter", "fusion_lat": 0.0, "lat": 38.8950075, "name": "505f09fb49c7e2c66449d7f341ba2911", "fusion_lon": 0.0, "bike_id": "505f09fb49c7e2c66449d7f341ba2911", "is_disabled": 0, "is_reserved": 0}, {"rental_uris": {"ios": "https://dc.lft.to/lastmile_qr_scan", "android": "https://dc.lft.to/lastmile_qr_scan"}, "lon": -77.02701366666666, "type": "electric_scooter", "fusion_lat": 0.0, "lat": 38.9036485, "name": "00ed1a5d20233fc65e7fdcfb6a6e36a4", "fusion_lon": 0.0, "bike_id": "00ed1a5d20233fc65e7fdcfb6a6e36a4", "is_disabled": 0, "is_reserved": 0}, {"rental_uris": {"ios": "https://dc.lft.to/lastmile_qr_scan", "android": "https://dc.lft.to/lastmile_qr_scan"}, "lon": -77.04813033333333, "type": "electric_scooter", "fusion_lat": 0.0, "lat": 38.91329233333333, "name": "dff99b67c7e8bb13c0f747bb2130752e", "fusion_lon": 0.0, "bike_id": "dff99b67c7e8bb13c0f747bb2130752e", "is_disabled": 0, "is_reserved": 0}, {"rental_uris": {"ios": "https://dc.lft.to/lastmile_qr_scan", "android": "https://dc.lft.to/lastmile_qr_scan"}, "lon": -77.06531866666667, "type": "electric_scooter", "fusion_lat": 0.0, "lat": 38.93481466666667, "name": "47c37ae762654f56f030863a9055279b", "fusion_lon": 0.0, "bike_id": "47c37ae762654f56f030863a9055279b", "is_disabled": 0, "is_reserved": 0}, {"rental_uris": {"ios": "https://dc.lft.to/lastmile_qr_scan", "android": "https://dc.lft.to/lastmile_qr_scan"}, "lon": -77.02835233333333, "type": "electric_scooter", "fusion_lat": 0.0, "lat": 38.92474816666667, "name": "e02cec97a8234d5bbb0ca072eb43354c", "fusion_lon": 0.0, "bike_id": "e02cec97a8234d5bbb0ca072eb43354c", "is_disabled": 0, "is_reserved": 0}, {"rental_uris": {"ios": "https://dc.lft.to/lastmile_qr_scan", "android": "https://dc.lft.to/lastmile_qr_scan"}, "lon": -77.09563316666667, "type": "electric_bike", "fusion_lat": 0.0, "lat": 38.91703666666667, "name": "3512e8a15c8ac52a8c69b80409e6e2cd", "fusion_lon": 0.0, "bike_id": "3512e8a15c8ac52a8c69b80409e6e2cd", "is_disabled": 0, "is_reserved": 0}, {"rental_uris": {"ios": "https://dc.lft.to/lastmile_qr_scan", "android": "https://dc.lft.to/lastmile_qr_scan"}, "lon": -76.90815416666666, "type": "electric_bike", "fusion_lat": 0.0, "lat": 38.99455233333333, "name": "f8f91cb1f4e2b262070ade6af3daf5bb", "fusion_lon": 0.0, "bike_id": "f8f91cb1f4e2b262070ade6af3daf5bb", "is_disabled": 0, "is_reserved": 0}, {"rental_uris": {"ios": "https://dc.lft.to/lastmile_qr_scan", "android": "https://dc.lft.to/lastmile_qr_scan"}, "lon": -77.0132885, "type": "electric_scooter", "fusion_lat": 0.0, "lat": 38.892298833333335, "name": "d83cbfe4b6d6af98eb7f7974234da67c", "fusion_lon": 0.0, "bike_id": "d83cbfe4b6d6af98eb7f7974234da67c", "is_disabled": 0, "is_reserved": 0}, {"rental_uris": {"ios": "https://dc.lft.to/lastmile_qr_scan", "android": "https://dc.lft.to/lastmile_qr_scan"}, "lon": -77.0004105, "type": "electric_bike", "fusion_lat": 0.0, "lat": 38.87437633333333, "name": "b3a4ddfef1cc6be0a2a94dd9bb620cef", "fusion_lon": 0.0, "bike_id": "b3a4ddfef1cc6be0a2a94dd9bb620cef", "is_disabled": 0, "is_reserved": 0}, {"rental_uris": {"ios": "https://dc.lft.to/lastmile_qr_scan", "android": "https://dc.lft.to/lastmile_qr_scan"}, "lon": -77.0213655, "type": "electric_scooter", "fusion_lat": 0.0, "lat": 38.899861333333334, "name": "baae4c10de9c71ccb20894d193706774", "fusion_lon": 0.0, "bike_id": "baae4c10de9c71ccb20894d193706774", "is_disabled": 0, "is_reserved": 0}, {"rental_uris": {"ios": "https://dc.lft.to/lastmile_qr_scan", "android": "https://dc.lft.to/lastmile_qr_scan"}, "lon": -77.02533783333334, "type": "electric_scooter", "fusion_lat": 0.0, "lat": 38.918224, "name": "66664abd46c35b8154a902ed9807d0e6", "fusion_lon": 0.0, "bike_id": "66664abd46c35b8154a902ed9807d0e6", "is_disabled": 0, "is_reserved": 0}, {"rental_uris": {"ios": "https://dc.lft.to/lastmile_qr_scan", "android": "https://dc.lft.to/lastmile_qr_scan"}, "lon": -76.98441933333334, "type": "electric_scooter", "fusion_lat": 0.0, "lat": 38.9142965, "name": "002b2985e24dc13b76834f9c5acb7f5d", "fusion_lon": 0.0, "bike_id": "002b2985e24dc13b76834f9c5acb7f5d", "is_disabled": 0, "is_reserved": 0}, {"rental_uris": {"ios": "https://dc.lft.to/lastmile_qr_scan", "android": "https://dc.lft.to/lastmile_qr_scan"}, "lon": -77.03511283333333, "type": "electric_scooter", "fusion_lat": 0.0, "lat": 38.922205, "name": "b6f1b0cd4797387f2104433da611b3f2", "fusion_lon": 0.0, "bike_id": "b6f1b0cd4797387f2104433da611b3f2", "is_disabled": 0, "is_reserved": 0}, {"rental_uris": {"ios": "https://dc.lft.to/lastmile_qr_scan", "android": "https://dc.lft.to/lastmile_qr_scan"}, "lon": -77.04137583333333, "type": "electric_scooter", "fusion_lat": 0.0, "lat": 38.921746166666665, "name": "dc67067ac650c1d7bcce188819b68a44", "fusion_lon": 0.0, "bike_id": "dc67067ac650c1d7bcce188819b68a44", "is_disabled": 0, "is_reserved": 0}, {"rental_uris": {"ios": "https://dc.lft.to/lastmile_qr_scan", "android": "https://dc.lft.to/lastmile_qr_scan"}, "lon": -77.035563, "type": "electric_bike", "fusion_lat": 0.0, "lat": 38.9646735, "name": "557cb8bfc39d52f8e19b701c49f8dc9f", "fusion_lon": 0.0, "bike_id": "557cb8bfc39d52f8e19b701c49f8dc9f", "is_disabled": 0, "is_reserved": 0}, {"rental_uris": {"ios": "https://dc.lft.to/lastmile_qr_scan", "android": "https://dc.lft.to/lastmile_qr_scan"}, "lon": -76.998153, "type": "electric_scooter", "fusion_lat": 0.0, "lat": 38.888712166666664, "name": "448cbd500c6a99f40ff23a11d2d93a9a", "fusion_lon": 0.0, "bike_id": "448cbd500c6a99f40ff23a11d2d93a9a", "is_disabled": 0, "is_reserved": 0}, {"rental_uris": {"ios": "https://dc.lft.to/lastmile_qr_scan", "android": "https://dc.lft.to/lastmile_qr_scan"}, "lon": -77.02563533333333, "type": "electric_scooter", "fusion_lat": 0.0, "lat": 38.884224833333334, "name": "bac92bda1fa1e5a769772f1a0cb265b7", "fusion_lon": 0.0, "bike_id": "bac92bda1fa1e5a769772f1a0cb265b7", "is_disabled": 0, "is_reserved": 0}, {"rental_uris": {"ios": "https://dc.lft.to/lastmile_qr_scan", "android": "https://dc.lft.to/lastmile_qr_scan"}, "lon": -77.01630316666666, "type": "electric_scooter", "fusion_lat": 0.0, "lat": 38.907112833333336, "name": "8fb85bc07672ce655f3535e3005e3dd1", "fusion_lon": 0.0, "bike_id": "8fb85bc07672ce655f3535e3005e3dd1", "is_disabled": 0, "is_reserved": 0}, {"rental_uris": {"ios": "https://dc.lft.to/lastmile_qr_scan", "android": "https://dc.lft.to/lastmile_qr_scan"}, "lon": -77.04347816666667, "type": "electric_scooter", "fusion_lat": 0.0, "lat": 38.89653416666667, "name": "e985c96cdba49079aa2bb70d3ab04e68", "fusion_lon": 0.0, "bike_id": "e985c96cdba49079aa2bb70d3ab04e68", "is_disabled": 0, "is_reserved": 0}, {"rental_uris": {"ios": "https://dc.lft.to/lastmile_qr_scan", "android": "https://dc.lft.to/lastmile_qr_scan"}, "lon": -77.01877466666667, "type": "electric_scooter", "fusion_lat": 0.0, "lat": 38.911914, "name": "b19c3293f0f8453f7999801f80230952", "fusion_lon": 0.0, "bike_id": "b19c3293f0f8453f7999801f80230952", "is_disabled": 0, "is_reserved": 0}, {"rental_uris": {"ios": "https://dc.lft.to/lastmile_qr_scan", "android": "https://dc.lft.to/lastmile_qr_scan"}, "lon": -77.04372866666667, "type": "electric_scooter", "fusion_lat": 0.0, "lat": 38.91780583333333, "name": "362e06d804da15f5a1cec646b9bfb69b", "fusion_lon": 0.0, "bike_id": "362e06d804da15f5a1cec646b9bfb69b", "is_disabled": 0, "is_reserved": 0}, {"rental_uris": {"ios": "https://dc.lft.to/lastmile_qr_scan", "android": "https://dc.lft.to/lastmile_qr_scan"}, "lon": -76.9851045, "type": "electric_scooter", "fusion_lat": 0.0, "lat": 38.906109666666666, "name": "6e04763406182e5d88c4297b18898a24", "fusion_lon": 0.0, "bike_id": "6e04763406182e5d88c4297b18898a24", "is_disabled": 0, "is_reserved": 0}, {"rental_uris": {"ios": "https://dc.lft.to/lastmile_qr_scan", "android": "https://dc.lft.to/lastmile_qr_scan"}, "lon": -76.99965266666666, "type": "electric_scooter", "fusion_lat": 0.0, "lat": 38.909277333333335, "name": "bab7cb708676da17f116fe5fee4bfe4e", "fusion_lon": 0.0, "bike_id": "bab7cb708676da17f116fe5fee4bfe4e", "is_disabled": 0, "is_reserved": 0}, {"rental_uris": {"ios": "https://dc.lft.to/lastmile_qr_scan", "android": "https://dc.lft.to/lastmile_qr_scan"}, "lon": -77.01884816666667, "type": "electric_scooter", "fusion_lat": 0.0, "lat": 38.90609833333333, "name": "42e7c911e050e5c6ec196e0b70884d16", "fusion_lon": 0.0, "bike_id": "42e7c911e050e5c6ec196e0b70884d16", "is_disabled": 0, "is_reserved": 0}, {"rental_uris": {"ios": "https://dc.lft.to/lastmile_qr_scan", "android": "https://dc.lft.to/lastmile_qr_scan"}, "lon": -77.00594066666666, "type": "electric_scooter", "fusion_lat": 0.0, "lat": 38.87698, "name": "03e1628d8ec113ac7be694314e0de13d", "fusion_lon": 0.0, "bike_id": "03e1628d8ec113ac7be694314e0de13d", "is_disabled": 0, "is_reserved": 0}, {"rental_uris": {"ios": "https://dc.lft.to/lastmile_qr_scan", "android": "https://dc.lft.to/lastmile_qr_scan"}, "lon": -77.00193733333333, "type": "electric_scooter", "fusion_lat": 0.0, "lat": 38.90041683333333, "name": "ce3eb25aacf1cdc798977b3f8454af57", "fusion_lon": 0.0, "bike_id": "ce3eb25aacf1cdc798977b3f8454af57", "is_disabled": 0, "is_reserved": 0}, {"rental_uris": {"ios": "https://dc.lft.to/lastmile_qr_scan", "android": "https://dc.lft.to/lastmile_qr_scan"}, "lon": -76.9851695, "type": "electric_scooter", "fusion_lat": 0.0, "lat": 38.91003583333333, "name": "0c8dcb33fa68c00189a8ea33ac082e4c", "fusion_lon": 0.0, "bike_id": "0c8dcb33fa68c00189a8ea33ac082e4c", "is_disabled": 0, "is_reserved": 0}, {"rental_uris": {"ios": "https://dc.lft.to/lastmile_qr_scan", "android": "https://dc.lft.to/lastmile_qr_scan"}, "lon": -76.98603483333333, "type": "electric_scooter", "fusion_lat": 0.0, "lat": 38.878344166666665, "name": "936b3e107759afa15fc1964ec3b0729f", "fusion_lon": 0.0, "bike_id": "936b3e107759afa15fc1964ec3b0729f", "is_disabled": 0, "is_reserved": 0}, {"rental_uris": {"ios": "https://dc.lft.to/lastmile_qr_scan", "android": "https://dc.lft.to/lastmile_qr_scan"}, "lon": -77.03838933333333, "type": "electric_scooter", "fusion_lat": 0.0, "lat": 38.90752883333333, "name": "b104cf8b27d7515503ef855fb33363ac", "fusion_lon": 0.0, "bike_id": "b104cf8b27d7515503ef855fb33363ac", "is_disabled": 0, "is_reserved": 0}, {"rental_uris": {"ios": "https://dc.lft.to/lastmile_qr_scan", "android": "https://dc.lft.to/lastmile_qr_scan"}, "lon": -76.9740995, "type": "electric_scooter", "fusion_lat": 0.0, "lat": 38.902401, "name": "eab431fa5e930e9ff1b51c1f3280e7e4", "fusion_lon": 0.0, "bike_id": "eab431fa5e930e9ff1b51c1f3280e7e4", "is_disabled": 0, "is_reserved": 0}, {"rental_uris": {"ios": "https://dc.lft.to/lastmile_qr_scan", "android": "https://dc.lft.to/lastmile_qr_scan"}, "lon": -77.011098, "type": "electric_scooter", "fusion_lat": 0.0, "lat": 38.87088383333333, "name": "f006c3243d095f1516c4a0528184d1cf", "fusion_lon": 0.0, "bike_id": "f006c3243d095f1516c4a0528184d1cf", "is_disabled": 0, "is_reserved": 0}, {"rental_uris": {"ios": "https://dc.lft.to/lastmile_qr_scan", "android": "https://dc.lft.to/lastmile_qr_scan"}, "lon": -77.03410683333334, "type": "electric_scooter", "fusion_lat": 0.0, "lat": 38.9242485, "name": "b1026ac8d40227bbbc7f62c3865ad6d2", "fusion_lon": 0.0, "bike_id": "b1026ac8d40227bbbc7f62c3865ad6d2", "is_disabled": 0, "is_reserved": 0}, {"rental_uris": {"ios": "https://dc.lft.to/lastmile_qr_scan", "android": "https://dc.lft.to/lastmile_qr_scan"}, "lon": -76.95678266666667, "type": "electric_bike", "fusion_lat": 0.0, "lat": 38.9473135, "name": "cbc0f0618f6c342a70519599936afa83", "fusion_lon": 0.0, "bike_id": "cbc0f0618f6c342a70519599936afa83", "is_disabled": 0, "is_reserved": 0}, {"rental_uris": {"ios": "https://dc.lft.to/lastmile_qr_scan", "android": "https://dc.lft.to/lastmile_qr_scan"}, "lon": -77.0316365, "type": "electric_scooter", "fusion_lat": 0.0, "lat": 38.893566, "name": "45e07ed1ec79108b55ac09c8e8f414bf", "fusion_lon": 0.0, "bike_id": "45e07ed1ec79108b55ac09c8e8f414bf", "is_disabled": 0, "is_reserved": 0}, {"rental_uris": {"ios": "https://dc.lft.to/lastmile_qr_scan", "android": "https://dc.lft.to/lastmile_qr_scan"}, "lon": -76.99459566666667, "type": "electric_scooter", "fusion_lat": 0.0, "lat": 38.85161033333333, "name": "e5459b016494fbfe1cfd8c4e6488af90", "fusion_lon": 0.0, "bike_id": "e5459b016494fbfe1cfd8c4e6488af90", "is_disabled": 0, "is_reserved": 0}, {"rental_uris": {"ios": "https://dc.lft.to/lastmile_qr_scan", "android": "https://dc.lft.to/lastmile_qr_scan"}, "lon": -76.92847916666666, "type": "electric_scooter", "fusion_lat": 0.0, "lat": 38.88357216666667, "name": "5a3836eb817c5a78acd51def86b7cafc", "fusion_lon": 0.0, "bike_id": "5a3836eb817c5a78acd51def86b7cafc", "is_disabled": 0, "is_reserved": 0}, {"rental_uris": {"ios": "https://dc.lft.to/lastmile_qr_scan", "android": "https://dc.lft.to/lastmile_qr_scan"}, "lon": -77.0033225, "type": "electric_bike", "fusion_lat": 0.0, "lat": 38.8765895, "name": "21ef83a971d251b2d8b5aa6592ace3e9", "fusion_lon": 0.0, "bike_id": "21ef83a971d251b2d8b5aa6592ace3e9", "is_disabled": 0, "is_reserved": 0}, {"rental_uris": {"ios": "https://dc.lft.to/lastmile_qr_scan", "android": "https://dc.lft.to/lastmile_qr_scan"}, "lon": -77.03578166666667, "type": "electric_scooter", "fusion_lat": 0.0, "lat": 38.93977733333333, "name": "f2428926325ac9553567da48d4d930bf", "fusion_lon": 0.0, "bike_id": "f2428926325ac9553567da48d4d930bf", "is_disabled": 0, "is_reserved": 0}, {"rental_uris": {"ios": "https://dc.lft.to/lastmile_qr_scan", "android": "https://dc.lft.to/lastmile_qr_scan"}, "lon": -77.03973316666666, "type": "electric_scooter", "fusion_lat": 0.0, "lat": 38.90271383333334, "name": "df516d617a594286d138c1a41993b3a5", "fusion_lon": 0.0, "bike_id": "df516d617a594286d138c1a41993b3a5", "is_disabled": 0, "is_reserved": 0}, {"rental_uris": {"ios": "https://dc.lft.to/lastmile_qr_scan", "android": "https://dc.lft.to/lastmile_qr_scan"}, "lon": -76.93156966666666, "type": "electric_scooter", "fusion_lat": 0.0, "lat": 38.898779, "name": "ea5b9539348742931f0ce5fccccf0c2e", "fusion_lon": 0.0, "bike_id": "ea5b9539348742931f0ce5fccccf0c2e", "is_disabled": 0, "is_reserved": 0}, {"rental_uris": {"ios": "https://dc.lft.to/lastmile_qr_scan", "android": "https://dc.lft.to/lastmile_qr_scan"}, "lon": -77.03893466666666, "type": "electric_scooter", "fusion_lat": 0.0, "lat": 38.92246016666667, "name": "aabe1e772a2e973db4d338f325b84793", "fusion_lon": 0.0, "bike_id": "aabe1e772a2e973db4d338f325b84793", "is_disabled": 0, "is_reserved": 0}, {"rental_uris": {"ios": "https://dc.lft.to/lastmile_qr_scan", "android": "https://dc.lft.to/lastmile_qr_scan"}, "lon": -77.0201755, "type": "electric_bike", "fusion_lat": 0.0, "lat": 38.937288333333335, "name": "a3beb797d3d662690bb033e9f54d186f", "fusion_lon": 0.0, "bike_id": "a3beb797d3d662690bb033e9f54d186f", "is_disabled": 0, "is_reserved": 0}, {"rental_uris": {"ios": "https://dc.lft.to/lastmile_qr_scan", "android": "https://dc.lft.to/lastmile_qr_scan"}, "lon": -77.04566716666666, "type": "electric_scooter", "fusion_lat": 0.0, "lat": 38.9106435, "name": "4c626d0231efc64307de2242dc94efe2", "fusion_lon": 0.0, "bike_id": "4c626d0231efc64307de2242dc94efe2", "is_disabled": 0, "is_reserved": 0}, {"rental_uris": {"ios": "https://dc.lft.to/lastmile_qr_scan", "android": "https://dc.lft.to/lastmile_qr_scan"}, "lon": -76.94843816666666, "type": "electric_scooter", "fusion_lat": 0.0, "lat": 38.884125, "name": "2df1395281e5b73b43905986aa034345", "fusion_lon": 0.0, "bike_id": "2df1395281e5b73b43905986aa034345", "is_disabled": 0, "is_reserved": 0}, {"rental_uris": {"ios": "https://dc.lft.to/lastmile_qr_scan", "android": "https://dc.lft.to/lastmile_qr_scan"}, "lon": -76.92881233333334, "type": "electric_scooter", "fusion_lat": 0.0, "lat": 38.88443266666667, "name": "ad3bd80ff4086cef10b85cf584b26a80", "fusion_lon": 0.0, "bike_id": "ad3bd80ff4086cef10b85cf584b26a80", "is_disabled": 0, "is_reserved": 0}, {"rental_uris": {"ios": "https://dc.lft.to/lastmile_qr_scan", "android": "https://dc.lft.to/lastmile_qr_scan"}, "lon": -77.0482825, "type": "electric_scooter", "fusion_lat": 0.0, "lat": 38.9095245, "name": "0ad8fe7c0e0871dd2efb16182286151a", "fusion_lon": 0.0, "bike_id": "0ad8fe7c0e0871dd2efb16182286151a", "is_disabled": 0, "is_reserved": 0}, {"rental_uris": {"ios": "https://dc.lft.to/lastmile_qr_scan", "android": "https://dc.lft.to/lastmile_qr_scan"}, "lon": -77.08060083333334, "type": "electric_bike", "fusion_lat": 0.0, "lat": 38.8484315, "name": "9e41b5b19f08a908cdad528dfca92aee", "fusion_lon": 0.0, "bike_id": "9e41b5b19f08a908cdad528dfca92aee", "is_disabled": 0, "is_reserved": 0}, {"rental_uris": {"ios": "https://dc.lft.to/lastmile_qr_scan", "android": "https://dc.lft.to/lastmile_qr_scan"}, "lon": -77.03652783333334, "type": "electric_scooter", "fusion_lat": 0.0, "lat": 38.902802333333334, "name": "62a6c0fb177b0f93b220b6d9dbc4f88c", "fusion_lon": 0.0, "bike_id": "62a6c0fb177b0f93b220b6d9dbc4f88c", "is_disabled": 0, "is_reserved": 0}, {"rental_uris": {"ios": "https://dc.lft.to/lastmile_qr_scan", "android": "https://dc.lft.to/lastmile_qr_scan"}, "lon": -76.9463215, "type": "electric_scooter", "fusion_lat": 0.0, "lat": 38.89833866666667, "name": "4f8b6f73279642e16d204b31a6cd554d", "fusion_lon": 0.0, "bike_id": "4f8b6f73279642e16d204b31a6cd554d", "is_disabled": 0, "is_reserved": 0}, {"rental_uris": {"ios": "https://dc.lft.to/lastmile_qr_scan", "android": "https://dc.lft.to/lastmile_qr_scan"}, "lon": -76.95764383333334, "type": "electric_bike", "fusion_lat": 0.0, "lat": 38.88419666666667, "name": "ad50a9832b48da282d03ddd3516f9329", "fusion_lon": 0.0, "bike_id": "ad50a9832b48da282d03ddd3516f9329", "is_disabled": 0, "is_reserved": 0}, {"rental_uris": {"ios": "https://dc.lft.to/lastmile_qr_scan", "android": "https://dc.lft.to/lastmile_qr_scan"}, "lon": -76.87821283333334, "type": "electric_bike", "fusion_lat": 0.0, "lat": 38.992274, "name": "467feb0e22d3eb5fa4aaae6a729bb853", "fusion_lon": 0.0, "bike_id": "467feb0e22d3eb5fa4aaae6a729bb853", "is_disabled": 0, "is_reserved": 0}, {"rental_uris": {"ios": "https://dc.lft.to/lastmile_qr_scan", "android": "https://dc.lft.to/lastmile_qr_scan"}, "lon": -77.02143316666667, "type": "electric_bike", "fusion_lat": 0.0, "lat": 38.94808716666667, "name": "a92d5d0350fce30e480b9af3fc75484e", "fusion_lon": 0.0, "bike_id": "a92d5d0350fce30e480b9af3fc75484e", "is_disabled": 0, "is_reserved": 0}, {"rental_uris": {"ios": "https://dc.lft.to/lastmile_qr_scan", "android": "https://dc.lft.to/lastmile_qr_scan"}, "lon": -77.0379215, "type": "electric_scooter", "fusion_lat": 0.0, "lat": 38.926294, "name": "d6dc5220402b91fbf0bdb8ee61a052bd", "fusion_lon": 0.0, "bike_id": "d6dc5220402b91fbf0bdb8ee61a052bd", "is_disabled": 0, "is_reserved": 0}, {"rental_uris": {"ios": "https://dc.lft.to/lastmile_qr_scan", "android": "https://dc.lft.to/lastmile_qr_scan"}, "lon": -76.97613983333333, "type": "electric_scooter", "fusion_lat": 0.0, "lat": 38.903841666666665, "name": "ca107ddcc72d038eee82a7f02bf6bd1f", "fusion_lon": 0.0, "bike_id": "ca107ddcc72d038eee82a7f02bf6bd1f", "is_disabled": 0, "is_reserved": 0}, {"rental_uris": {"ios": "https://dc.lft.to/lastmile_qr_scan", "android": "https://dc.lft.to/lastmile_qr_scan"}, "lon": -76.977451, "type": "electric_scooter", "fusion_lat": 0.0, "lat": 38.90011583333333, "name": "bc3a33918c892a21be57d8f07ba8ef8c", "fusion_lon": 0.0, "bike_id": "bc3a33918c892a21be57d8f07ba8ef8c", "is_disabled": 0, "is_reserved": 0}, {"rental_uris": {"ios": "https://dc.lft.to/lastmile_qr_scan", "android": "https://dc.lft.to/lastmile_qr_scan"}, "lon": -77.0383355, "type": "electric_scooter", "fusion_lat": 0.0, "lat": 38.92170866666667, "name": "9e8840a6f4d7f1533f3627fbd43b2d98", "fusion_lon": 0.0, "bike_id": "9e8840a6f4d7f1533f3627fbd43b2d98", "is_disabled": 0, "is_reserved": 0}, {"rental_uris": {"ios": "https://dc.lft.to/lastmile_qr_scan", "android": "https://dc.lft.to/lastmile_qr_scan"}, "lon": -77.0247395, "type": "electric_scooter", "fusion_lat": 0.0, "lat": 38.9181615, "name": "f9eada5f40118901225dd68537738e31", "fusion_lon": 0.0, "bike_id": "f9eada5f40118901225dd68537738e31", "is_disabled": 0, "is_reserved": 0}, {"rental_uris": {"ios": "https://dc.lft.to/lastmile_qr_scan", "android": "https://dc.lft.to/lastmile_qr_scan"}, "lon": -77.03075733333333, "type": "electric_scooter", "fusion_lat": 0.0, "lat": 38.899678333333334, "name": "8625ededf86471114129f3d9bdbb7c6d", "fusion_lon": 0.0, "bike_id": "8625ededf86471114129f3d9bdbb7c6d", "is_disabled": 0, "is_reserved": 0}, {"rental_uris": {"ios": "https://dc.lft.to/lastmile_qr_scan", "android": "https://dc.lft.to/lastmile_qr_scan"}, "lon": -77.021948, "type": "electric_scooter", "fusion_lat": 0.0, "lat": 38.90844933333333, "name": "27108e5cf10baeea390fec934758bd3b", "fusion_lon": 0.0, "bike_id": "27108e5cf10baeea390fec934758bd3b", "is_disabled": 0, "is_reserved": 0}, {"rental_uris": {"ios": "https://dc.lft.to/lastmile_qr_scan", "android": "https://dc.lft.to/lastmile_qr_scan"}, "lon": -77.022113, "type": "electric_scooter", "fusion_lat": 0.0, "lat": 38.88769666666666, "name": "27e2ae537993abb976dc86315f6be7d5", "fusion_lon": 0.0, "bike_id": "27e2ae537993abb976dc86315f6be7d5", "is_disabled": 0, "is_reserved": 0}, {"rental_uris": {"ios": "https://dc.lft.to/lastmile_qr_scan", "android": "https://dc.lft.to/lastmile_qr_scan"}, "lon": -77.03206183333333, "type": "electric_scooter", "fusion_lat": 0.0, "lat": 38.9165255, "name": "b0de434f725500b8e99558da52c7a0f3", "fusion_lon": 0.0, "bike_id": "b0de434f725500b8e99558da52c7a0f3", "is_disabled": 0, "is_reserved": 0}, {"rental_uris": {"ios": "https://dc.lft.to/lastmile_qr_scan", "android": "https://dc.lft.to/lastmile_qr_scan"}, "lon": -77.0195255, "type": "electric_scooter", "fusion_lat": 0.0, "lat": 38.90420566666667, "name": "5cc9aa616be53ca541e880a693c80fe0", "fusion_lon": 0.0, "bike_id": "5cc9aa616be53ca541e880a693c80fe0", "is_disabled": 0, "is_reserved": 0}, {"rental_uris": {"ios": "https://dc.lft.to/lastmile_qr_scan", "android": "https://dc.lft.to/lastmile_qr_scan"}, "lon": -77.11426816666666, "type": "electric_bike", "fusion_lat": 0.0, "lat": 38.852474, "name": "6d8cf5d4aa15c47c042ed6d76ec1c541", "fusion_lon": 0.0, "bike_id": "6d8cf5d4aa15c47c042ed6d76ec1c541", "is_disabled": 0, "is_reserved": 0}, {"rental_uris": {"ios": "https://dc.lft.to/lastmile_qr_scan", "android": "https://dc.lft.to/lastmile_qr_scan"}, "lon": -76.967532, "type": "electric_scooter", "fusion_lat": 0.0, "lat": 38.86137866666667, "name": "c8c119fab596469589bf6c42784c4cf7", "fusion_lon": 0.0, "bike_id": "c8c119fab596469589bf6c42784c4cf7", "is_disabled": 0, "is_reserved": 0}, {"rental_uris": {"ios": "https://dc.lft.to/lastmile_qr_scan", "android": "https://dc.lft.to/lastmile_qr_scan"}, "lon": -76.98373183333334, "type": "electric_scooter", "fusion_lat": 0.0, "lat": 38.915384833333334, "name": "3813dec5c795cb18df236b9b78ac25d0", "fusion_lon": 0.0, "bike_id": "3813dec5c795cb18df236b9b78ac25d0", "is_disabled": 0, "is_reserved": 0}, {"rental_uris": {"ios": "https://dc.lft.to/lastmile_qr_scan", "android": "https://dc.lft.to/lastmile_qr_scan"}, "lon": -76.98362066666667, "type": "electric_scooter", "fusion_lat": 0.0, "lat": 38.864815166666666, "name": "d2ef497475f0dda2c6bf274a64c3b31a", "fusion_lon": 0.0, "bike_id": "d2ef497475f0dda2c6bf274a64c3b31a", "is_disabled": 0, "is_reserved": 0}, {"rental_uris": {"ios": "https://dc.lft.to/lastmile_qr_scan", "android": "https://dc.lft.to/lastmile_qr_scan"}, "lon": -77.03214366666667, "type": "electric_scooter", "fusion_lat": 0.0, "lat": 38.89223716666667, "name": "0059b1b8f1900f3d144e82adb7df89ea", "fusion_lon": 0.0, "bike_id": "0059b1b8f1900f3d144e82adb7df89ea", "is_disabled": 0, "is_reserved": 0}, {"rental_uris": {"ios": "https://dc.lft.to/lastmile_qr_scan", "android": "https://dc.lft.to/lastmile_qr_scan"}, "lon": -77.03895333333334, "type": "electric_scooter", "fusion_lat": 0.0, "lat": 38.921866333333334, "name": "9ad096ab8adbff862d37db8499b1c66c", "fusion_lon": 0.0, "bike_id": "9ad096ab8adbff862d37db8499b1c66c", "is_disabled": 0, "is_reserved": 0}, {"rental_uris": {"ios": "https://dc.lft.to/lastmile_qr_scan", "android": "https://dc.lft.to/lastmile_qr_scan"}, "lon": -76.984107, "type": "electric_scooter", "fusion_lat": 0.0, "lat": 38.913873, "name": "f6fe4a28763c5bd0ee6b06d499574b3c", "fusion_lon": 0.0, "bike_id": "f6fe4a28763c5bd0ee6b06d499574b3c", "is_disabled": 0, "is_reserved": 0}, {"rental_uris": {"ios": "https://dc.lft.to/lastmile_qr_scan", "android": "https://dc.lft.to/lastmile_qr_scan"}, "lon": -77.01764816666666, "type": "electric_scooter", "fusion_lat": 0.0, "lat": 38.87738066666667, "name": "42db6d86af15d6b35d86641aba22b406", "fusion_lon": 0.0, "bike_id": "42db6d86af15d6b35d86641aba22b406", "is_disabled": 0, "is_reserved": 0}, {"rental_uris": {"ios": "https://dc.lft.to/lastmile_qr_scan", "android": "https://dc.lft.to/lastmile_qr_scan"}, "lon": -77.05116133333334, "type": "electric_scooter", "fusion_lat": 0.0, "lat": 38.923598166666665, "name": "fd82018d0e9feb41e42705702c7d567a", "fusion_lon": 0.0, "bike_id": "fd82018d0e9feb41e42705702c7d567a", "is_disabled": 0, "is_reserved": 0}, {"rental_uris": {"ios": "https://dc.lft.to/lastmile_qr_scan", "android": "https://dc.lft.to/lastmile_qr_scan"}, "lon": -77.07813833333333, "type": "electric_scooter", "fusion_lat": 0.0, "lat": 38.92628283333333, "name": "23e45e677e9ee4837edf551c10d8c49d", "fusion_lon": 0.0, "bike_id": "23e45e677e9ee4837edf551c10d8c49d", "is_disabled": 0, "is_reserved": 0}, {"rental_uris": {"ios": "https://dc.lft.to/lastmile_qr_scan", "android": "https://dc.lft.to/lastmile_qr_scan"}, "lon": -77.00175733333333, "type": "electric_bike", "fusion_lat": 0.0, "lat": 38.90851683333333, "name": "0bf53dd953f876dee9396568a0a877b0", "fusion_lon": 0.0, "bike_id": "0bf53dd953f876dee9396568a0a877b0", "is_disabled": 0, "is_reserved": 0}, {"rental_uris": {"ios": "https://dc.lft.to/lastmile_qr_scan", "android": "https://dc.lft.to/lastmile_qr_scan"}, "lon": -77.02596816666667, "type": "electric_scooter", "fusion_lat": 0.0, "lat": 38.8874035, "name": "db963a59b58bfc39243ef1507b266c01", "fusion_lon": 0.0, "bike_id": "db963a59b58bfc39243ef1507b266c01", "is_disabled": 0, "is_reserved": 0}, {"rental_uris": {"ios": "https://dc.lft.to/lastmile_qr_scan", "android": "https://dc.lft.to/lastmile_qr_scan"}, "lon": -77.02092433333334, "type": "electric_scooter", "fusion_lat": 0.0, "lat": 38.88507283333333, "name": "a9eddcc19226dd48fcc69037b0c91a7d", "fusion_lon": 0.0, "bike_id": "a9eddcc19226dd48fcc69037b0c91a7d", "is_disabled": 0, "is_reserved": 0}, {"rental_uris": {"ios": "https://dc.lft.to/lastmile_qr_scan", "android": "https://dc.lft.to/lastmile_qr_scan"}, "lon": -77.024028, "type": "electric_scooter", "fusion_lat": 0.0, "lat": 38.915955833333335, "name": "8521d18af1a06370bdcd3b13bb1956e4", "fusion_lon": 0.0, "bike_id": "8521d18af1a06370bdcd3b13bb1956e4", "is_disabled": 0, "is_reserved": 0}, {"rental_uris": {"ios": "https://dc.lft.to/lastmile_qr_scan", "android": "https://dc.lft.to/lastmile_qr_scan"}, "lon": -76.97592133333333, "type": "electric_scooter", "fusion_lat": 0.0, "lat": 38.9033045, "name": "13822e9b0a1aed25196ac57447c90a87", "fusion_lon": 0.0, "bike_id": "13822e9b0a1aed25196ac57447c90a87", "is_disabled": 0, "is_reserved": 0}, {"rental_uris": {"ios": "https://dc.lft.to/lastmile_qr_scan", "android": "https://dc.lft.to/lastmile_qr_scan"}, "lon": -76.94623683333333, "type": "electric_bike", "fusion_lat": 0.0, "lat": 38.832301666666666, "name": "1354dc9b7717e7af57099668d96ca097", "fusion_lon": 0.0, "bike_id": "1354dc9b7717e7af57099668d96ca097", "is_disabled": 0, "is_reserved": 0}, {"rental_uris": {"ios": "https://dc.lft.to/lastmile_qr_scan", "android": "https://dc.lft.to/lastmile_qr_scan"}, "lon": -77.05136933333333, "type": "electric_scooter", "fusion_lat": 0.0, "lat": 38.899169, "name": "f8bd7e9dec49fabba13586c9753433fc", "fusion_lon": 0.0, "bike_id": "f8bd7e9dec49fabba13586c9753433fc", "is_disabled": 0, "is_reserved": 0}, {"rental_uris": {"ios": "https://dc.lft.to/lastmile_qr_scan", "android": "https://dc.lft.to/lastmile_qr_scan"}, "lon": -77.00332566666667, "type": "electric_scooter", "fusion_lat": 0.0, "lat": 38.89356016666667, "name": "d9992c8c65c158de20f05434a747ac2a", "fusion_lon": 0.0, "bike_id": "d9992c8c65c158de20f05434a747ac2a", "is_disabled": 0, "is_reserved": 0}, {"rental_uris": {"ios": "https://dc.lft.to/lastmile_qr_scan", "android": "https://dc.lft.to/lastmile_qr_scan"}, "lon": -77.04181033333333, "type": "electric_scooter", "fusion_lat": 0.0, "lat": 38.911932166666666, "name": "66018fe43f85801a2bc43925a4f51c9f", "fusion_lon": 0.0, "bike_id": "66018fe43f85801a2bc43925a4f51c9f", "is_disabled": 0, "is_reserved": 0}, {"rental_uris": {"ios": "https://dc.lft.to/lastmile_qr_scan", "android": "https://dc.lft.to/lastmile_qr_scan"}, "lon": -77.04367683333334, "type": "electric_scooter", "fusion_lat": 0.0, "lat": 38.933365333333334, "name": "2cb86138a28941266fbb5591bfd74c20", "fusion_lon": 0.0, "bike_id": "2cb86138a28941266fbb5591bfd74c20", "is_disabled": 0, "is_reserved": 0}, {"rental_uris": {"ios": "https://dc.lft.to/lastmile_qr_scan", "android": "https://dc.lft.to/lastmile_qr_scan"}, "lon": -77.04166833333333, "type": "electric_scooter", "fusion_lat": 0.0, "lat": 38.902601833333335, "name": "786957229b41ca63acef628c2c04319e", "fusion_lon": 0.0, "bike_id": "786957229b41ca63acef628c2c04319e", "is_disabled": 0, "is_reserved": 0}, {"rental_uris": {"ios": "https://dc.lft.to/lastmile_qr_scan", "android": "https://dc.lft.to/lastmile_qr_scan"}, "lon": -77.06886116666666, "type": "electric_scooter", "fusion_lat": 0.0, "lat": 38.940328666666666, "name": "0e2e2a8fafc412c9a22d3b5912552102", "fusion_lon": 0.0, "bike_id": "0e2e2a8fafc412c9a22d3b5912552102", "is_disabled": 0, "is_reserved": 0}, {"rental_uris": {"ios": "https://dc.lft.to/lastmile_qr_scan", "android": "https://dc.lft.to/lastmile_qr_scan"}, "lon": -77.12811983333333, "type": "electric_bike", "fusion_lat": 0.0, "lat": 38.865331833333336, "name": "d2e3c033d003aec788e0233a5856882f", "fusion_lon": 0.0, "bike_id": "d2e3c033d003aec788e0233a5856882f", "is_disabled": 0, "is_reserved": 0}, {"rental_uris": {"ios": "https://dc.lft.to/lastmile_qr_scan", "android": "https://dc.lft.to/lastmile_qr_scan"}, "lon": -77.04010333333333, "type": "electric_scooter", "fusion_lat": 0.0, "lat": 38.90999866666667, "name": "f300fa7241245266ab0182575f2831da", "fusion_lon": 0.0, "bike_id": "f300fa7241245266ab0182575f2831da", "is_disabled": 0, "is_reserved": 0}, {"rental_uris": {"ios": "https://dc.lft.to/lastmile_qr_scan", "android": "https://dc.lft.to/lastmile_qr_scan"}, "lon": -76.91600083333333, "type": "electric_bike", "fusion_lat": 0.0, "lat": 38.879811833333335, "name": "55cdcccef8f748c1ff53294180c6070a", "fusion_lon": 0.0, "bike_id": "55cdcccef8f748c1ff53294180c6070a", "is_disabled": 0, "is_reserved": 0}, {"rental_uris": {"ios": "https://dc.lft.to/lastmile_qr_scan", "android": "https://dc.lft.to/lastmile_qr_scan"}, "lon": -77.031052, "type": "electric_scooter", "fusion_lat": 0.0, "lat": 38.9119355, "name": "85522ffc9159c51a40b1d67261e47f2b", "fusion_lon": 0.0, "bike_id": "85522ffc9159c51a40b1d67261e47f2b", "is_disabled": 0, "is_reserved": 0}, {"rental_uris": {"ios": "https://dc.lft.to/lastmile_qr_scan", "android": "https://dc.lft.to/lastmile_qr_scan"}, "lon": -77.129787, "type": "electric_bike", "fusion_lat": 0.0, "lat": 38.799883, "name": "02e571789ad2ce3e1d17ed6745ea9652", "fusion_lon": 0.0, "bike_id": "02e571789ad2ce3e1d17ed6745ea9652", "is_disabled": 0, "is_reserved": 0}, {"rental_uris": {"ios": "https://dc.lft.to/lastmile_qr_scan", "android": "https://dc.lft.to/lastmile_qr_scan"}, "lon": -77.0638905, "type": "electric_scooter", "fusion_lat": 0.0, "lat": 38.92900733333333, "name": "86149874c75f03ded394212971ab4194", "fusion_lon": 0.0, "bike_id": "86149874c75f03ded394212971ab4194", "is_disabled": 0, "is_reserved": 0}, {"rental_uris": {"ios": "https://dc.lft.to/lastmile_qr_scan", "android": "https://dc.lft.to/lastmile_qr_scan"}, "lon": -77.02477016666667, "type": "electric_scooter", "fusion_lat": 0.0, "lat": 38.91816716666666, "name": "9a9767812ef97904010a2bf7a1692e3d", "fusion_lon": 0.0, "bike_id": "9a9767812ef97904010a2bf7a1692e3d", "is_disabled": 0, "is_reserved": 0}, {"rental_uris": {"ios": "https://dc.lft.to/lastmile_qr_scan", "android": "https://dc.lft.to/lastmile_qr_scan"}, "lon": -77.02412466666667, "type": "electric_bike", "fusion_lat": 0.0, "lat": 38.99440166666667, "name": "9e72d826dc29f35bf5df87dae5005365", "fusion_lon": 0.0, "bike_id": "9e72d826dc29f35bf5df87dae5005365", "is_disabled": 0, "is_reserved": 0}, {"rental_uris": {"ios": "https://dc.lft.to/lastmile_qr_scan", "android": "https://dc.lft.to/lastmile_qr_scan"}, "lon": -77.05023066666666, "type": "electric_scooter", "fusion_lat": 0.0, "lat": 38.923553166666665, "name": "72bec0c9057bef4f231c8058d39cfcd8", "fusion_lon": 0.0, "bike_id": "72bec0c9057bef4f231c8058d39cfcd8", "is_disabled": 0, "is_reserved": 0}, {"rental_uris": {"ios": "https://dc.lft.to/lastmile_qr_scan", "android": "https://dc.lft.to/lastmile_qr_scan"}, "lon": -77.07047666666666, "type": "electric_bike", "fusion_lat": 0.0, "lat": 38.824479833333335, "name": "91d90dc03f9a1f2a7b2bf29fd3046635", "fusion_lon": 0.0, "bike_id": "91d90dc03f9a1f2a7b2bf29fd3046635", "is_disabled": 0, "is_reserved": 0}, {"rental_uris": {"ios": "https://dc.lft.to/lastmile_qr_scan", "android": "https://dc.lft.to/lastmile_qr_scan"}, "lon": -77.05754983333334, "type": "electric_bike", "fusion_lat": 0.0, "lat": 38.924814, "name": "be208a59aa522a9fecfb7b1e8b756c0e", "fusion_lon": 0.0, "bike_id": "be208a59aa522a9fecfb7b1e8b756c0e", "is_disabled": 0, "is_reserved": 0}, {"rental_uris": {"ios": "https://dc.lft.to/lastmile_qr_scan", "android": "https://dc.lft.to/lastmile_qr_scan"}, "lon": -77.03973716666667, "type": "electric_scooter", "fusion_lat": 0.0, "lat": 38.90270366666667, "name": "e59e16f9f82e98343be4f8d78ea8c31c", "fusion_lon": 0.0, "bike_id": "e59e16f9f82e98343be4f8d78ea8c31c", "is_disabled": 0, "is_reserved": 0}, {"rental_uris": {"ios": "https://dc.lft.to/lastmile_qr_scan", "android": "https://dc.lft.to/lastmile_qr_scan"}, "lon": -77.02948383333333, "type": "electric_scooter", "fusion_lat": 0.0, "lat": 38.9050215, "name": "53ac755a65e78663301326840452d18c", "fusion_lon": 0.0, "bike_id": "53ac755a65e78663301326840452d18c", "is_disabled": 0, "is_reserved": 0}, {"rental_uris": {"ios": "https://dc.lft.to/lastmile_qr_scan", "android": "https://dc.lft.to/lastmile_qr_scan"}, "lon": -77.01757283333333, "type": "electric_scooter", "fusion_lat": 0.0, "lat": 38.877409, "name": "12db02491361883c6d4f08693cf8d79e", "fusion_lon": 0.0, "bike_id": "12db02491361883c6d4f08693cf8d79e", "is_disabled": 0, "is_reserved": 0}, {"rental_uris": {"ios": "https://dc.lft.to/lastmile_qr_scan", "android": "https://dc.lft.to/lastmile_qr_scan"}, "lon": -77.02654733333334, "type": "electric_scooter", "fusion_lat": 0.0, "lat": 38.88117966666667, "name": "0739d5f292bf32f759bfce9cf73e9cf5", "fusion_lon": 0.0, "bike_id": "0739d5f292bf32f759bfce9cf73e9cf5", "is_disabled": 0, "is_reserved": 0}, {"rental_uris": {"ios": "https://dc.lft.to/lastmile_qr_scan", "android": "https://dc.lft.to/lastmile_qr_scan"}, "lon": -77.02846566666666, "type": "electric_scooter", "fusion_lat": 0.0, "lat": 38.934512166666664, "name": "d0e98358f6c2ed534c0ce16914c502b9", "fusion_lon": 0.0, "bike_id": "d0e98358f6c2ed534c0ce16914c502b9", "is_disabled": 0, "is_reserved": 0}, {"rental_uris": {"ios": "https://dc.lft.to/lastmile_qr_scan", "android": "https://dc.lft.to/lastmile_qr_scan"}, "lon": -77.07306166666666, "type": "electric_scooter", "fusion_lat": 0.0, "lat": 38.936151, "name": "55a87e4d49a0ce14bcc87bd6490f8f0a", "fusion_lon": 0.0, "bike_id": "55a87e4d49a0ce14bcc87bd6490f8f0a", "is_disabled": 0, "is_reserved": 0}, {"rental_uris": {"ios": "https://dc.lft.to/lastmile_qr_scan", "android": "https://dc.lft.to/lastmile_qr_scan"}, "lon": -77.00667083333333, "type": "electric_scooter", "fusion_lat": 0.0, "lat": 38.87634933333333, "name": "b39203673c0121cd040634fd6c625c0a", "fusion_lon": 0.0, "bike_id": "b39203673c0121cd040634fd6c625c0a", "is_disabled": 0, "is_reserved": 0}, {"rental_uris": {"ios": "https://dc.lft.to/lastmile_qr_scan", "android": "https://dc.lft.to/lastmile_qr_scan"}, "lon": -76.99062283333333, "type": "electric_scooter", "fusion_lat": 0.0, "lat": 38.86358416666667, "name": "054bbfe6168c57fc26dc93ff129ca358", "fusion_lon": 0.0, "bike_id": "054bbfe6168c57fc26dc93ff129ca358", "is_disabled": 0, "is_reserved": 0}, {"rental_uris": {"ios": "https://dc.lft.to/lastmile_qr_scan", "android": "https://dc.lft.to/lastmile_qr_scan"}, "lon": -77.03854166666666, "type": "electric_scooter", "fusion_lat": 0.0, "lat": 38.926498, "name": "6cbcb6345fb3ec11950df8066014363e", "fusion_lon": 0.0, "bike_id": "6cbcb6345fb3ec11950df8066014363e", "is_disabled": 0, "is_reserved": 0}, {"rental_uris": {"ios": "https://dc.lft.to/lastmile_qr_scan", "android": "https://dc.lft.to/lastmile_qr_scan"}, "lon": -77.03222533333333, "type": "electric_scooter", "fusion_lat": 0.0, "lat": 38.90035133333333, "name": "7f13be24a69bcbc1715bc611b65378f5", "fusion_lon": 0.0, "bike_id": "7f13be24a69bcbc1715bc611b65378f5", "is_disabled": 0, "is_reserved": 0}, {"rental_uris": {"ios": "https://dc.lft.to/lastmile_qr_scan", "android": "https://dc.lft.to/lastmile_qr_scan"}, "lon": -77.0363955, "type": "electric_scooter", "fusion_lat": 0.0, "lat": 38.913078, "name": "28f0506bb2f49875b7533ad5f63b649c", "fusion_lon": 0.0, "bike_id": "28f0506bb2f49875b7533ad5f63b649c", "is_disabled": 0, "is_reserved": 0}, {"rental_uris": {"ios": "https://dc.lft.to/lastmile_qr_scan", "android": "https://dc.lft.to/lastmile_qr_scan"}, "lon": -77.03303783333334, "type": "electric_scooter", "fusion_lat": 0.0, "lat": 38.90910566666667, "name": "be0a47b2f758c085f4c4816c994ebe23", "fusion_lon": 0.0, "bike_id": "be0a47b2f758c085f4c4816c994ebe23", "is_disabled": 0, "is_reserved": 0}, {"rental_uris": {"ios": "https://dc.lft.to/lastmile_qr_scan", "android": "https://dc.lft.to/lastmile_qr_scan"}, "lon": -77.04540533333333, "type": "electric_scooter", "fusion_lat": 0.0, "lat": 38.89478916666667, "name": "78576e309cbbf56d87679d093ecefb6c", "fusion_lon": 0.0, "bike_id": "78576e309cbbf56d87679d093ecefb6c", "is_disabled": 0, "is_reserved": 0}, {"rental_uris": {"ios": "https://dc.lft.to/lastmile_qr_scan", "android": "https://dc.lft.to/lastmile_qr_scan"}, "lon": -77.05509083333334, "type": "electric_scooter", "fusion_lat": 0.0, "lat": 38.899739333333336, "name": "bb210011a676e236b47cd7f23e010121", "fusion_lon": 0.0, "bike_id": "bb210011a676e236b47cd7f23e010121", "is_disabled": 0, "is_reserved": 0}, {"rental_uris": {"ios": "https://dc.lft.to/lastmile_qr_scan", "android": "https://dc.lft.to/lastmile_qr_scan"}, "lon": -77.02693833333333, "type": "electric_scooter", "fusion_lat": 0.0, "lat": 38.90941633333333, "name": "55ee3585e6762aaad91a98398e8c98d1", "fusion_lon": 0.0, "bike_id": "55ee3585e6762aaad91a98398e8c98d1", "is_disabled": 0, "is_reserved": 0}, {"rental_uris": {"ios": "https://dc.lft.to/lastmile_qr_scan", "android": "https://dc.lft.to/lastmile_qr_scan"}, "lon": -76.98350383333333, "type": "electric_scooter", "fusion_lat": 0.0, "lat": 38.91525683333333, "name": "00a6a045841322b61519294b07028de1", "fusion_lon": 0.0, "bike_id": "00a6a045841322b61519294b07028de1", "is_disabled": 0, "is_reserved": 0}, {"rental_uris": {"ios": "https://dc.lft.to/lastmile_qr_scan", "android": "https://dc.lft.to/lastmile_qr_scan"}, "lon": -77.03184633333333, "type": "electric_scooter", "fusion_lat": 0.0, "lat": 38.89829016666667, "name": "32b0536028b110767818facfda0a2340", "fusion_lon": 0.0, "bike_id": "32b0536028b110767818facfda0a2340", "is_disabled": 0, "is_reserved": 0}, {"rental_uris": {"ios": "https://dc.lft.to/lastmile_qr_scan", "android": "https://dc.lft.to/lastmile_qr_scan"}, "lon": -77.02708466666667, "type": "electric_scooter", "fusion_lat": 0.0, "lat": 38.906684, "name": "1a45a90250d9302bffd3cc87ccf4667a", "fusion_lon": 0.0, "bike_id": "1a45a90250d9302bffd3cc87ccf4667a", "is_disabled": 0, "is_reserved": 0}, {"rental_uris": {"ios": "https://dc.lft.to/lastmile_qr_scan", "android": "https://dc.lft.to/lastmile_qr_scan"}, "lon": -77.051578, "type": "electric_scooter", "fusion_lat": 0.0, "lat": 38.89769533333333, "name": "23ad801840acfa17484b62f01b58c933", "fusion_lon": 0.0, "bike_id": "23ad801840acfa17484b62f01b58c933", "is_disabled": 0, "is_reserved": 0}, {"rental_uris": {"ios": "https://dc.lft.to/lastmile_qr_scan", "android": "https://dc.lft.to/lastmile_qr_scan"}, "lon": -77.013823, "type": "electric_scooter", "fusion_lat": 0.0, "lat": 38.92849266666666, "name": "f7d9483952bc45a45269eac38fe84163", "fusion_lon": 0.0, "bike_id": "f7d9483952bc45a45269eac38fe84163", "is_disabled": 0, "is_reserved": 0}, {"rental_uris": {"ios": "https://dc.lft.to/lastmile_qr_scan", "android": "https://dc.lft.to/lastmile_qr_scan"}, "lon": -77.00260916666667, "type": "electric_scooter", "fusion_lat": 0.0, "lat": 38.87748416666667, "name": "621a94ec9a81cea3cf4ce68a39ce65ef", "fusion_lon": 0.0, "bike_id": "621a94ec9a81cea3cf4ce68a39ce65ef", "is_disabled": 0, "is_reserved": 0}, {"rental_uris": {"ios": "https://dc.lft.to/lastmile_qr_scan", "android": "https://dc.lft.to/lastmile_qr_scan"}, "lon": -77.02194833333333, "type": "electric_scooter", "fusion_lat": 0.0, "lat": 38.88032533333333, "name": "9649dbb26f89859f4af2dea81aba74da", "fusion_lon": 0.0, "bike_id": "9649dbb26f89859f4af2dea81aba74da", "is_disabled": 0, "is_reserved": 0}, {"rental_uris": {"ios": "https://dc.lft.to/lastmile_qr_scan", "android": "https://dc.lft.to/lastmile_qr_scan"}, "lon": -77.00314233333333, "type": "electric_scooter", "fusion_lat": 0.0, "lat": 38.9011645, "name": "cd508dd1f8c3f5af7324c75f36b9c87f", "fusion_lon": 0.0, "bike_id": "cd508dd1f8c3f5af7324c75f36b9c87f", "is_disabled": 0, "is_reserved": 0}, {"rental_uris": {"ios": "https://dc.lft.to/lastmile_qr_scan", "android": "https://dc.lft.to/lastmile_qr_scan"}, "lon": -77.00074133333334, "type": "electric_scooter", "fusion_lat": 0.0, "lat": 38.900497333333334, "name": "e0ec5bc60269bb07f5efeb837b714fe8", "fusion_lon": 0.0, "bike_id": "e0ec5bc60269bb07f5efeb837b714fe8", "is_disabled": 0, "is_reserved": 0}, {"rental_uris": {"ios": "https://dc.lft.to/lastmile_qr_scan", "android": "https://dc.lft.to/lastmile_qr_scan"}, "lon": -76.96550016666667, "type": "electric_bike", "fusion_lat": 0.0, "lat": 38.951038, "name": "cf8d9ea8667ed01ae45ba1af8aec0d18", "fusion_lon": 0.0, "bike_id": "cf8d9ea8667ed01ae45ba1af8aec0d18", "is_disabled": 0, "is_reserved": 0}, {"rental_uris": {"ios": "https://dc.lft.to/lastmile_qr_scan", "android": "https://dc.lft.to/lastmile_qr_scan"}, "lon": -77.00457083333333, "type": "electric_scooter", "fusion_lat": 0.0, "lat": 38.876905, "name": "bc59726ea38e997aab11a5d5328feb1c", "fusion_lon": 0.0, "bike_id": "bc59726ea38e997aab11a5d5328feb1c", "is_disabled": 0, "is_reserved": 0}, {"rental_uris": {"ios": "https://dc.lft.to/lastmile_qr_scan", "android": "https://dc.lft.to/lastmile_qr_scan"}, "lon": -77.04390033333334, "type": "electric_scooter", "fusion_lat": 0.0, "lat": 38.922758333333334, "name": "46714ef520c4940357e0a3a92ce80f9c", "fusion_lon": 0.0, "bike_id": "46714ef520c4940357e0a3a92ce80f9c", "is_disabled": 0, "is_reserved": 0}, {"rental_uris": {"ios": "https://dc.lft.to/lastmile_qr_scan", "android": "https://dc.lft.to/lastmile_qr_scan"}, "lon": -77.02004033333333, "type": "electric_scooter", "fusion_lat": 0.0, "lat": 38.89247983333333, "name": "3d0b026dbe4c30a46dd537d9ed392b33", "fusion_lon": 0.0, "bike_id": "3d0b026dbe4c30a46dd537d9ed392b33", "is_disabled": 0, "is_reserved": 0}, {"rental_uris": {"ios": "https://dc.lft.to/lastmile_qr_scan", "android": "https://dc.lft.to/lastmile_qr_scan"}, "lon": -76.990286, "type": "electric_scooter", "fusion_lat": 0.0, "lat": 38.858629666666666, "name": "2fef411ce3a7a5f14c955b3938f5cd59", "fusion_lon": 0.0, "bike_id": "2fef411ce3a7a5f14c955b3938f5cd59", "is_disabled": 0, "is_reserved": 0}, {"rental_uris": {"ios": "https://dc.lft.to/lastmile_qr_scan", "android": "https://dc.lft.to/lastmile_qr_scan"}, "lon": -77.01523083333333, "type": "electric_scooter", "fusion_lat": 0.0, "lat": 38.918811166666664, "name": "8cd92b93b2dd2a11b648a742b292714e", "fusion_lon": 0.0, "bike_id": "8cd92b93b2dd2a11b648a742b292714e", "is_disabled": 0, "is_reserved": 0}, {"rental_uris": {"ios": "https://dc.lft.to/lastmile_qr_scan", "android": "https://dc.lft.to/lastmile_qr_scan"}, "lon": -77.066902, "type": "electric_scooter", "fusion_lat": 0.0, "lat": 38.9097425, "name": "c785a34507e580a649a124b8dc111b96", "fusion_lon": 0.0, "bike_id": "c785a34507e580a649a124b8dc111b96", "is_disabled": 0, "is_reserved": 0}, {"rental_uris": {"ios": "https://dc.lft.to/lastmile_qr_scan", "android": "https://dc.lft.to/lastmile_qr_scan"}, "lon": -76.97188483333333, "type": "electric_scooter", "fusion_lat": 0.0, "lat": 38.91262416666667, "name": "40057128d2278284792e05bb80199361", "fusion_lon": 0.0, "bike_id": "40057128d2278284792e05bb80199361", "is_disabled": 0, "is_reserved": 0}, {"rental_uris": {"ios": "https://dc.lft.to/lastmile_qr_scan", "android": "https://dc.lft.to/lastmile_qr_scan"}, "lon": -76.9761115, "type": "electric_bike", "fusion_lat": 0.0, "lat": 38.913067166666664, "name": "9fbc3b7559e3c4b3d14d70f6cce59768", "fusion_lon": 0.0, "bike_id": "9fbc3b7559e3c4b3d14d70f6cce59768", "is_disabled": 0, "is_reserved": 0}, {"rental_uris": {"ios": "https://dc.lft.to/lastmile_qr_scan", "android": "https://dc.lft.to/lastmile_qr_scan"}, "lon": -77.0025675, "type": "electric_bike", "fusion_lat": 0.0, "lat": 38.91173283333333, "name": "81e5b6446e7a4f972c1c1c13e459723e", "fusion_lon": 0.0, "bike_id": "81e5b6446e7a4f972c1c1c13e459723e", "is_disabled": 0, "is_reserved": 0}, {"rental_uris": {"ios": "https://dc.lft.to/lastmile_qr_scan", "android": "https://dc.lft.to/lastmile_qr_scan"}, "lon": -77.01815866666666, "type": "electric_scooter", "fusion_lat": 0.0, "lat": 38.9081075, "name": "4361c557168257fc952b97f6f8f779e1", "fusion_lon": 0.0, "bike_id": "4361c557168257fc952b97f6f8f779e1", "is_disabled": 0, "is_reserved": 0}, {"rental_uris": {"ios": "https://dc.lft.to/lastmile_qr_scan", "android": "https://dc.lft.to/lastmile_qr_scan"}, "lon": -77.02317133333334, "type": "electric_scooter", "fusion_lat": 0.0, "lat": 38.88733283333333, "name": "8cebae8be8dd7fa0fd8875a72ee626ec", "fusion_lon": 0.0, "bike_id": "8cebae8be8dd7fa0fd8875a72ee626ec", "is_disabled": 0, "is_reserved": 0}, {"rental_uris": {"ios": "https://dc.lft.to/lastmile_qr_scan", "android": "https://dc.lft.to/lastmile_qr_scan"}, "lon": -77.01255866666666, "type": "electric_scooter", "fusion_lat": 0.0, "lat": 38.89964616666666, "name": "8c7b7ea05d3c9e8170a48f53202b1dab", "fusion_lon": 0.0, "bike_id": "8c7b7ea05d3c9e8170a48f53202b1dab", "is_disabled": 0, "is_reserved": 0}, {"rental_uris": {"ios": "https://dc.lft.to/lastmile_qr_scan", "android": "https://dc.lft.to/lastmile_qr_scan"}, "lon": -77.01441033333333, "type": "electric_scooter", "fusion_lat": 0.0, "lat": 38.87768783333333, "name": "7216b68a4554d7db9715c78fcdf0b098", "fusion_lon": 0.0, "bike_id": "7216b68a4554d7db9715c78fcdf0b098", "is_disabled": 0, "is_reserved": 0}, {"rental_uris": {"ios": "https://dc.lft.to/lastmile_qr_scan", "android": "https://dc.lft.to/lastmile_qr_scan"}, "lon": -77.052561, "type": "electric_scooter", "fusion_lat": 0.0, "lat": 38.92378866666667, "name": "42303d0166f8b609035c4ebbf5ad45dd", "fusion_lon": 0.0, "bike_id": "42303d0166f8b609035c4ebbf5ad45dd", "is_disabled": 0, "is_reserved": 0}, {"rental_uris": {"ios": "https://dc.lft.to/lastmile_qr_scan", "android": "https://dc.lft.to/lastmile_qr_scan"}, "lon": -77.03647283333333, "type": "electric_scooter", "fusion_lat": 0.0, "lat": 38.913163, "name": "61d835923ac00ea10469c52e133f5557", "fusion_lon": 0.0, "bike_id": "61d835923ac00ea10469c52e133f5557", "is_disabled": 0, "is_reserved": 0}, {"rental_uris": {"ios": "https://dc.lft.to/lastmile_qr_scan", "android": "https://dc.lft.to/lastmile_qr_scan"}, "lon": -77.04307183333333, "type": "electric_scooter", "fusion_lat": 0.0, "lat": 38.92251566666667, "name": "9c71e7d5e0b7199c8dbcb23cc42e68d5", "fusion_lon": 0.0, "bike_id": "9c71e7d5e0b7199c8dbcb23cc42e68d5", "is_disabled": 0, "is_reserved": 0}, {"rental_uris": {"ios": "https://dc.lft.to/lastmile_qr_scan", "android": "https://dc.lft.to/lastmile_qr_scan"}, "lon": -76.94888583333334, "type": "electric_scooter", "fusion_lat": 0.0, "lat": 38.89463516666667, "name": "be8a675df8ea05dc84bf6974bf8534d2", "fusion_lon": 0.0, "bike_id": "be8a675df8ea05dc84bf6974bf8534d2", "is_disabled": 0, "is_reserved": 0}, {"rental_uris": {"ios": "https://dc.lft.to/lastmile_qr_scan", "android": "https://dc.lft.to/lastmile_qr_scan"}, "lon": -77.135949, "type": "electric_bike", "fusion_lat": 0.0, "lat": 39.053465, "name": "c5d88c4cf81a3e8e897e788fb6f2e25b", "fusion_lon": 0.0, "bike_id": "c5d88c4cf81a3e8e897e788fb6f2e25b", "is_disabled": 0, "is_reserved": 0}, {"rental_uris": {"ios": "https://dc.lft.to/lastmile_qr_scan", "android": "https://dc.lft.to/lastmile_qr_scan"}, "lon": -76.98611116666666, "type": "electric_scooter", "fusion_lat": 0.0, "lat": 38.868139166666666, "name": "d4803785aa8f0df3ac85ea31fa1bb4b2", "fusion_lon": 0.0, "bike_id": "d4803785aa8f0df3ac85ea31fa1bb4b2", "is_disabled": 0, "is_reserved": 0}, {"rental_uris": {"ios": "https://dc.lft.to/lastmile_qr_scan", "android": "https://dc.lft.to/lastmile_qr_scan"}, "lon": -77.01161033333334, "type": "electric_scooter", "fusion_lat": 0.0, "lat": 38.89706233333333, "name": "41cd2c149d9fd176c3b7626f3f2ca1cc", "fusion_lon": 0.0, "bike_id": "41cd2c149d9fd176c3b7626f3f2ca1cc", "is_disabled": 0, "is_reserved": 0}, {"rental_uris": {"ios": "https://dc.lft.to/lastmile_qr_scan", "android": "https://dc.lft.to/lastmile_qr_scan"}, "lon": -77.03617733333333, "type": "electric_scooter", "fusion_lat": 0.0, "lat": 38.92917583333333, "name": "9c3928f34427089edfd60d96abbeaf6e", "fusion_lon": 0.0, "bike_id": "9c3928f34427089edfd60d96abbeaf6e", "is_disabled": 0, "is_reserved": 0}, {"rental_uris": {"ios": "https://dc.lft.to/lastmile_qr_scan", "android": "https://dc.lft.to/lastmile_qr_scan"}, "lon": -77.0449065, "type": "electric_scooter", "fusion_lat": 0.0, "lat": 38.906511333333334, "name": "38deb36b667dd4c2426b8a84869cb99f", "fusion_lon": 0.0, "bike_id": "38deb36b667dd4c2426b8a84869cb99f", "is_disabled": 0, "is_reserved": 0}, {"rental_uris": {"ios": "https://dc.lft.to/lastmile_qr_scan", "android": "https://dc.lft.to/lastmile_qr_scan"}, "lon": -77.02401183333333, "type": "electric_scooter", "fusion_lat": 0.0, "lat": 38.915935, "name": "2d4298d0c5b22219edfdbc7ecf8925ac", "fusion_lon": 0.0, "bike_id": "2d4298d0c5b22219edfdbc7ecf8925ac", "is_disabled": 0, "is_reserved": 0}, {"rental_uris": {"ios": "https://dc.lft.to/lastmile_qr_scan", "android": "https://dc.lft.to/lastmile_qr_scan"}, "lon": -77.06402266666667, "type": "electric_bike", "fusion_lat": 0.0, "lat": 38.843447833333336, "name": "29f42d7de6f9275faac28b594ea34ab5", "fusion_lon": 0.0, "bike_id": "29f42d7de6f9275faac28b594ea34ab5", "is_disabled": 0, "is_reserved": 0}, {"rental_uris": {"ios": "https://dc.lft.to/lastmile_qr_scan", "android": "https://dc.lft.to/lastmile_qr_scan"}, "lon": -77.03174133333333, "type": "electric_scooter", "fusion_lat": 0.0, "lat": 38.893651, "name": "07507e4bc34fb5153f317f0e76b377df", "fusion_lon": 0.0, "bike_id": "07507e4bc34fb5153f317f0e76b377df", "is_disabled": 0, "is_reserved": 0}, {"rental_uris": {"ios": "https://dc.lft.to/lastmile_qr_scan", "android": "https://dc.lft.to/lastmile_qr_scan"}, "lon": -77.03859566666667, "type": "electric_scooter", "fusion_lat": 0.0, "lat": 38.90377816666667, "name": "34f7d9aa92c1ded3e83daca72254c3bb", "fusion_lon": 0.0, "bike_id": "34f7d9aa92c1ded3e83daca72254c3bb", "is_disabled": 0, "is_reserved": 0}, {"rental_uris": {"ios": "https://dc.lft.to/lastmile_qr_scan", "android": "https://dc.lft.to/lastmile_qr_scan"}, "lon": -77.0300375, "type": "electric_scooter", "fusion_lat": 0.0, "lat": 38.899946, "name": "ef491b0fb2369d219dd3a191f618f924", "fusion_lon": 0.0, "bike_id": "ef491b0fb2369d219dd3a191f618f924", "is_disabled": 0, "is_reserved": 0}, {"rental_uris": {"ios": "https://dc.lft.to/lastmile_qr_scan", "android": "https://dc.lft.to/lastmile_qr_scan"}, "lon": -77.042337, "type": "electric_scooter", "fusion_lat": 0.0, "lat": 38.91106, "name": "6a40c6031bca045b7b032477c90efdb5", "fusion_lon": 0.0, "bike_id": "6a40c6031bca045b7b032477c90efdb5", "is_disabled": 0, "is_reserved": 0}, {"rental_uris": {"ios": "https://dc.lft.to/lastmile_qr_scan", "android": "https://dc.lft.to/lastmile_qr_scan"}, "lon": -77.0301095, "type": "electric_bike", "fusion_lat": 0.0, "lat": 38.93489016666667, "name": "0dcac6b4361d94362f4f4d2af1e3ab16", "fusion_lon": 0.0, "bike_id": "0dcac6b4361d94362f4f4d2af1e3ab16", "is_disabled": 0, "is_reserved": 0}, {"rental_uris": {"ios": "https://dc.lft.to/lastmile_qr_scan", "android": "https://dc.lft.to/lastmile_qr_scan"}, "lon": -77.04032033333333, "type": "electric_scooter", "fusion_lat": 0.0, "lat": 38.9234925, "name": "7c3ca61913c4a821fe730bf13a25ea04", "fusion_lon": 0.0, "bike_id": "7c3ca61913c4a821fe730bf13a25ea04", "is_disabled": 0, "is_reserved": 0}, {"rental_uris": {"ios": "https://dc.lft.to/lastmile_qr_scan", "android": "https://dc.lft.to/lastmile_qr_scan"}, "lon": -77.00648533333333, "type": "electric_scooter", "fusion_lat": 0.0, "lat": 38.9170605, "name": "4335358b6a0fecb6bc7903dc401c37be", "fusion_lon": 0.0, "bike_id": "4335358b6a0fecb6bc7903dc401c37be", "is_disabled": 0, "is_reserved": 0}, {"rental_uris": {"ios": "https://dc.lft.to/lastmile_qr_scan", "android": "https://dc.lft.to/lastmile_qr_scan"}, "lon": -77.06751933333334, "type": "electric_scooter", "fusion_lat": 0.0, "lat": 38.9156555, "name": "9598eb83fc5e2ebc62997dcf433d75b2", "fusion_lon": 0.0, "bike_id": "9598eb83fc5e2ebc62997dcf433d75b2", "is_disabled": 0, "is_reserved": 0}, {"rental_uris": {"ios": "https://dc.lft.to/lastmile_qr_scan", "android": "https://dc.lft.to/lastmile_qr_scan"}, "lon": -77.01108816666667, "type": "electric_scooter", "fusion_lat": 0.0, "lat": 38.90783, "name": "145ec2fc5bd287a85698d0aa61704f3a", "fusion_lon": 0.0, "bike_id": "145ec2fc5bd287a85698d0aa61704f3a", "is_disabled": 0, "is_reserved": 0}, {"rental_uris": {"ios": "https://dc.lft.to/lastmile_qr_scan", "android": "https://dc.lft.to/lastmile_qr_scan"}, "lon": -76.9662705, "type": "electric_bike", "fusion_lat": 0.0, "lat": 38.94206616666666, "name": "54561548d0be1743942ea4bc74baa276", "fusion_lon": 0.0, "bike_id": "54561548d0be1743942ea4bc74baa276", "is_disabled": 0, "is_reserved": 0}, {"rental_uris": {"ios": "https://dc.lft.to/lastmile_qr_scan", "android": "https://dc.lft.to/lastmile_qr_scan"}, "lon": -77.02587933333334, "type": "electric_scooter", "fusion_lat": 0.0, "lat": 38.895982333333336, "name": "90b4e14d9abbee9043fd6f0f53206df1", "fusion_lon": 0.0, "bike_id": "90b4e14d9abbee9043fd6f0f53206df1", "is_disabled": 0, "is_reserved": 0}, {"rental_uris": {"ios": "https://dc.lft.to/lastmile_qr_scan", "android": "https://dc.lft.to/lastmile_qr_scan"}, "lon": -77.02107983333333, "type": "electric_scooter", "fusion_lat": 0.0, "lat": 38.913078166666665, "name": "d4fd69f5cce91e10db0be6d93b8dc35c", "fusion_lon": 0.0, "bike_id": "d4fd69f5cce91e10db0be6d93b8dc35c", "is_disabled": 0, "is_reserved": 0}, {"rental_uris": {"ios": "https://dc.lft.to/lastmile_qr_scan", "android": "https://dc.lft.to/lastmile_qr_scan"}, "lon": -76.93751466666667, "type": "electric_scooter", "fusion_lat": 0.0, "lat": 38.89046866666666, "name": "21f83059bc94fb54c393afa1c4efd8a1", "fusion_lon": 0.0, "bike_id": "21f83059bc94fb54c393afa1c4efd8a1", "is_disabled": 0, "is_reserved": 0}, {"rental_uris": {"ios": "https://dc.lft.to/lastmile_qr_scan", "android": "https://dc.lft.to/lastmile_qr_scan"}, "lon": -77.0203715, "type": "electric_scooter", "fusion_lat": 0.0, "lat": 38.932247833333335, "name": "2d798a59f519c7e5da7f83dee710856e", "fusion_lon": 0.0, "bike_id": "2d798a59f519c7e5da7f83dee710856e", "is_disabled": 0, "is_reserved": 0}, {"rental_uris": {"ios": "https://dc.lft.to/lastmile_qr_scan", "android": "https://dc.lft.to/lastmile_qr_scan"}, "lon": -77.02646266666666, "type": "electric_scooter", "fusion_lat": 0.0, "lat": 38.938587166666665, "name": "2659215ea57cd1c1649a00bd9cf8f642", "fusion_lon": 0.0, "bike_id": "2659215ea57cd1c1649a00bd9cf8f642", "is_disabled": 0, "is_reserved": 0}, {"rental_uris": {"ios": "https://dc.lft.to/lastmile_qr_scan", "android": "https://dc.lft.to/lastmile_qr_scan"}, "lon": -77.00591816666666, "type": "electric_scooter", "fusion_lat": 0.0, "lat": 38.90253466666667, "name": "5403ef5adcfc6fd38481a63b792ae51e", "fusion_lon": 0.0, "bike_id": "5403ef5adcfc6fd38481a63b792ae51e", "is_disabled": 0, "is_reserved": 0}, {"rental_uris": {"ios": "https://dc.lft.to/lastmile_qr_scan", "android": "https://dc.lft.to/lastmile_qr_scan"}, "lon": -77.0239455, "type": "electric_scooter", "fusion_lat": 0.0, "lat": 38.95289133333333, "name": "75ea505ae26cf4516340bfe1ebdc5320", "fusion_lon": 0.0, "bike_id": "75ea505ae26cf4516340bfe1ebdc5320", "is_disabled": 0, "is_reserved": 0}, {"rental_uris": {"ios": "https://dc.lft.to/lastmile_qr_scan", "android": "https://dc.lft.to/lastmile_qr_scan"}, "lon": -77.02589683333333, "type": "electric_scooter", "fusion_lat": 0.0, "lat": 38.914972166666665, "name": "1c1dd932f8de674bbbc8650b441cc2d0", "fusion_lon": 0.0, "bike_id": "1c1dd932f8de674bbbc8650b441cc2d0", "is_disabled": 0, "is_reserved": 0}, {"rental_uris": {"ios": "https://dc.lft.to/lastmile_qr_scan", "android": "https://dc.lft.to/lastmile_qr_scan"}, "lon": -77.0176925, "type": "electric_scooter", "fusion_lat": 0.0, "lat": 38.900375833333335, "name": "7e948de6cd29c1276b77f342a950938a", "fusion_lon": 0.0, "bike_id": "7e948de6cd29c1276b77f342a950938a", "is_disabled": 0, "is_reserved": 0}, {"rental_uris": {"ios": "https://dc.lft.to/lastmile_qr_scan", "android": "https://dc.lft.to/lastmile_qr_scan"}, "lon": -77.00990666666667, "type": "electric_scooter", "fusion_lat": 0.0, "lat": 38.914865166666665, "name": "58d345be003866a34636ffcb7b0bfcfb", "fusion_lon": 0.0, "bike_id": "58d345be003866a34636ffcb7b0bfcfb", "is_disabled": 0, "is_reserved": 0}, {"rental_uris": {"ios": "https://dc.lft.to/lastmile_qr_scan", "android": "https://dc.lft.to/lastmile_qr_scan"}, "lon": -77.03762483333334, "type": "electric_scooter", "fusion_lat": 0.0, "lat": 38.9360465, "name": "64ff6d9dee41824580465dac48a6b7fc", "fusion_lon": 0.0, "bike_id": "64ff6d9dee41824580465dac48a6b7fc", "is_disabled": 0, "is_reserved": 0}, {"rental_uris": {"ios": "https://dc.lft.to/lastmile_qr_scan", "android": "https://dc.lft.to/lastmile_qr_scan"}, "lon": -77.0356735, "type": "electric_scooter", "fusion_lat": 0.0, "lat": 38.90867633333333, "name": "12ec0771930d2cc8e91b9ace72577c16", "fusion_lon": 0.0, "bike_id": "12ec0771930d2cc8e91b9ace72577c16", "is_disabled": 0, "is_reserved": 0}, {"rental_uris": {"ios": "https://dc.lft.to/lastmile_qr_scan", "android": "https://dc.lft.to/lastmile_qr_scan"}, "lon": -77.01049766666667, "type": "electric_scooter", "fusion_lat": 0.0, "lat": 38.87935983333333, "name": "a2b8b55d3484ecf485939f75ab3cd81b", "fusion_lon": 0.0, "bike_id": "a2b8b55d3484ecf485939f75ab3cd81b", "is_disabled": 0, "is_reserved": 0}, {"rental_uris": {"ios": "https://dc.lft.to/lastmile_qr_scan", "android": "https://dc.lft.to/lastmile_qr_scan"}, "lon": -77.02885816666667, "type": "electric_scooter", "fusion_lat": 0.0, "lat": 38.904748833333336, "name": "8ded658823cec1569246313e8a836156", "fusion_lon": 0.0, "bike_id": "8ded658823cec1569246313e8a836156", "is_disabled": 0, "is_reserved": 0}, {"rental_uris": {"ios": "https://dc.lft.to/lastmile_qr_scan", "android": "https://dc.lft.to/lastmile_qr_scan"}, "lon": -76.96177633333333, "type": "electric_bike", "fusion_lat": 0.0, "lat": 38.91859483333333, "name": "b06f73c0e774acf05762da54cd61ea3a", "fusion_lon": 0.0, "bike_id": "b06f73c0e774acf05762da54cd61ea3a", "is_disabled": 0, "is_reserved": 0}, {"rental_uris": {"ios": "https://dc.lft.to/lastmile_qr_scan", "android": "https://dc.lft.to/lastmile_qr_scan"}, "lon": -77.01338883333334, "type": "electric_scooter", "fusion_lat": 0.0, "lat": 38.966082166666666, "name": "6c47618277f76bc7e65d3bed9f9c843e", "fusion_lon": 0.0, "bike_id": "6c47618277f76bc7e65d3bed9f9c843e", "is_disabled": 0, "is_reserved": 0}, {"rental_uris": {"ios": "https://dc.lft.to/lastmile_qr_scan", "android": "https://dc.lft.to/lastmile_qr_scan"}, "lon": -77.09159866666667, "type": "electric_bike", "fusion_lat": 0.0, "lat": 38.967599166666666, "name": "54822b87b1df2f978e3f27c18b3dd934", "fusion_lon": 0.0, "bike_id": "54822b87b1df2f978e3f27c18b3dd934", "is_disabled": 0, "is_reserved": 0}, {"rental_uris": {"ios": "https://dc.lft.to/lastmile_qr_scan", "android": "https://dc.lft.to/lastmile_qr_scan"}, "lon": -77.031222, "type": "electric_scooter", "fusion_lat": 0.0, "lat": 38.9737975, "name": "11a005236f632bbbe5d99cf419236264", "fusion_lon": 0.0, "bike_id": "11a005236f632bbbe5d99cf419236264", "is_disabled": 0, "is_reserved": 0}, {"rental_uris": {"ios": "https://dc.lft.to/lastmile_qr_scan", "android": "https://dc.lft.to/lastmile_qr_scan"}, "lon": -77.03780466666667, "type": "electric_scooter", "fusion_lat": 0.0, "lat": 38.936088833333336, "name": "f9d0ec21580f94a366c9259f33cadb91", "fusion_lon": 0.0, "bike_id": "f9d0ec21580f94a366c9259f33cadb91", "is_disabled": 0, "is_reserved": 0}, {"rental_uris": {"ios": "https://dc.lft.to/lastmile_qr_scan", "android": "https://dc.lft.to/lastmile_qr_scan"}, "lon": -77.04404516666666, "type": "electric_scooter", "fusion_lat": 0.0, "lat": 38.874249166666665, "name": "6a3d964b330c34f7acf4fce82c9f7865", "fusion_lon": 0.0, "bike_id": "6a3d964b330c34f7acf4fce82c9f7865", "is_disabled": 0, "is_reserved": 0}, {"rental_uris": {"ios": "https://dc.lft.to/lastmile_qr_scan", "android": "https://dc.lft.to/lastmile_qr_scan"}, "lon": -77.02325183333333, "type": "electric_scooter", "fusion_lat": 0.0, "lat": 38.883556, "name": "28b58742fceda699ba5c36fd51579869", "fusion_lon": 0.0, "bike_id": "28b58742fceda699ba5c36fd51579869", "is_disabled": 0, "is_reserved": 0}, {"rental_uris": {"ios": "https://dc.lft.to/lastmile_qr_scan", "android": "https://dc.lft.to/lastmile_qr_scan"}, "lon": -77.03974083333334, "type": "electric_scooter", "fusion_lat": 0.0, "lat": 38.902721666666665, "name": "5c6f5031af3df2b5955544fe59e25386", "fusion_lon": 0.0, "bike_id": "5c6f5031af3df2b5955544fe59e25386", "is_disabled": 0, "is_reserved": 0}, {"rental_uris": {"ios": "https://dc.lft.to/lastmile_qr_scan", "android": "https://dc.lft.to/lastmile_qr_scan"}, "lon": -77.0345925, "type": "electric_scooter", "fusion_lat": 0.0, "lat": 38.9214775, "name": "cb60a12fd125da96fd9c5b020abf4b23", "fusion_lon": 0.0, "bike_id": "cb60a12fd125da96fd9c5b020abf4b23", "is_disabled": 0, "is_reserved": 0}, {"rental_uris": {"ios": "https://dc.lft.to/lastmile_qr_scan", "android": "https://dc.lft.to/lastmile_qr_scan"}, "lon": -77.03924816666667, "type": "electric_scooter", "fusion_lat": 0.0, "lat": 38.917547, "name": "74a0c3bd314830a6c9c0360e6963fe64", "fusion_lon": 0.0, "bike_id": "74a0c3bd314830a6c9c0360e6963fe64", "is_disabled": 0, "is_reserved": 0}, {"rental_uris": {"ios": "https://dc.lft.to/lastmile_qr_scan", "android": "https://dc.lft.to/lastmile_qr_scan"}, "lon": -77.041848, "type": "electric_scooter", "fusion_lat": 0.0, "lat": 38.918640833333335, "name": "1657217119c8c55153e5d143981c7f94", "fusion_lon": 0.0, "bike_id": "1657217119c8c55153e5d143981c7f94", "is_disabled": 0, "is_reserved": 0}, {"rental_uris": {"ios": "https://dc.lft.to/lastmile_qr_scan", "android": "https://dc.lft.to/lastmile_qr_scan"}, "lon": -77.04694916666666, "type": "electric_scooter", "fusion_lat": 0.0, "lat": 38.92109583333333, "name": "c040a50020cb894b386431d386e52afe", "fusion_lon": 0.0, "bike_id": "c040a50020cb894b386431d386e52afe", "is_disabled": 0, "is_reserved": 0}, {"rental_uris": {"ios": "https://dc.lft.to/lastmile_qr_scan", "android": "https://dc.lft.to/lastmile_qr_scan"}, "lon": -77.05601666666666, "type": "electric_scooter", "fusion_lat": 0.0, "lat": 38.936985, "name": "3c1172ffd2a908012531a0222db32204", "fusion_lon": 0.0, "bike_id": "3c1172ffd2a908012531a0222db32204", "is_disabled": 0, "is_reserved": 0}, {"rental_uris": {"ios": "https://dc.lft.to/lastmile_qr_scan", "android": "https://dc.lft.to/lastmile_qr_scan"}, "lon": -77.03228, "type": "electric_scooter", "fusion_lat": 0.0, "lat": 38.896469, "name": "c4984bd5def6718144e153caedaffb50", "fusion_lon": 0.0, "bike_id": "c4984bd5def6718144e153caedaffb50", "is_disabled": 0, "is_reserved": 0}, {"rental_uris": {"ios": "https://dc.lft.to/lastmile_qr_scan", "android": "https://dc.lft.to/lastmile_qr_scan"}, "lon": -77.02964116666666, "type": "electric_scooter", "fusion_lat": 0.0, "lat": 38.89213216666667, "name": "ca3627183683fe6e67a7e3d6b8d72d0f", "fusion_lon": 0.0, "bike_id": "ca3627183683fe6e67a7e3d6b8d72d0f", "is_disabled": 0, "is_reserved": 0}, {"rental_uris": {"ios": "https://dc.lft.to/lastmile_qr_scan", "android": "https://dc.lft.to/lastmile_qr_scan"}, "lon": -77.03416466666667, "type": "electric_scooter", "fusion_lat": 0.0, "lat": 38.93534416666667, "name": "3896927cd6ed145a72c7ea6fe0b9ae95", "fusion_lon": 0.0, "bike_id": "3896927cd6ed145a72c7ea6fe0b9ae95", "is_disabled": 0, "is_reserved": 0}, {"rental_uris": {"ios": "https://dc.lft.to/lastmile_qr_scan", "android": "https://dc.lft.to/lastmile_qr_scan"}, "lon": -77.07164283333333, "type": "electric_scooter", "fusion_lat": 0.0, "lat": 38.90780633333333, "name": "98edca6899822f06eae65da533dbbcd9", "fusion_lon": 0.0, "bike_id": "98edca6899822f06eae65da533dbbcd9", "is_disabled": 0, "is_reserved": 0}, {"rental_uris": {"ios": "https://dc.lft.to/lastmile_qr_scan", "android": "https://dc.lft.to/lastmile_qr_scan"}, "lon": -77.03131416666666, "type": "electric_scooter", "fusion_lat": 0.0, "lat": 38.910317, "name": "09e0eeb092d4ead07ad1fc40fb392b7e", "fusion_lon": 0.0, "bike_id": "09e0eeb092d4ead07ad1fc40fb392b7e", "is_disabled": 0, "is_reserved": 0}, {"rental_uris": {"ios": "https://dc.lft.to/lastmile_qr_scan", "android": "https://dc.lft.to/lastmile_qr_scan"}, "lon": -77.03257416666666, "type": "electric_scooter", "fusion_lat": 0.0, "lat": 38.92886583333333, "name": "3a1c08ce88cb76ac42f9178c25e69b6a", "fusion_lon": 0.0, "bike_id": "3a1c08ce88cb76ac42f9178c25e69b6a", "is_disabled": 0, "is_reserved": 0}, {"rental_uris": {"ios": "https://dc.lft.to/lastmile_qr_scan", "android": "https://dc.lft.to/lastmile_qr_scan"},