{"data": {"bikes": [{"name": "fa2a36a4e74c86676cfe2126ce925976", "lon": -76.89544483333333, "lat": 38.945580166666666, "type": "electric_bike", "fusion_lon": 0.0, "is_reserved": 0, "bike_id": "fa2a36a4e74c86676cfe2126ce925976", "fusion_lat": 0.0, "is_disabled": 0, "rental_uris": {"ios": "https://dc.lft.to/lastmile_qr_scan", "android": "https://dc.lft.to/lastmile_qr_scan"}}, {"name": "cec90eb37e94ae93ba5df8063b305749", "lon": -77.03262066666667, "lat": 38.939721166666665, "type": "electric_scooter", "fusion_lon": 0.0, "is_reserved": 0, "bike_id": "cec90eb37e94ae93ba5df8063b305749", "fusion_lat": 0.0, "is_disabled": 0, "rental_uris": {"ios": "https://dc.lft.to/lastmile_qr_scan", "android": "https://dc.lft.to/lastmile_qr_scan"}}, {"name": "cff8b195c8f0b6303fdc5e2175841db8", "lon": -77.01661483333334, "lat": 38.881119166666664, "type": "electric_scooter", "fusion_lon": 0.0, "is_reserved": 0, "bike_id": "cff8b195c8f0b6303fdc5e2175841db8", "fusion_lat": 0.0, "is_disabled": 0, "rental_uris": {"ios": "https://dc.lft.to/lastmile_qr_scan", "android": "https://dc.lft.to/lastmile_qr_scan"}}, {"name": "218fa894f811010f198ea5f4ab72b762", "lon": -77.0396245, "lat": 38.898816333333336, "type": "electric_scooter", "fusion_lon": 0.0, "is_reserved": 0, "bike_id": "218fa894f811010f198ea5f4ab72b762", "fusion_lat": 0.0, "is_disabled": 0, "rental_uris": {"ios": "https://dc.lft.to/lastmile_qr_scan", "android": "https://dc.lft.to/lastmile_qr_scan"}}, {"name": "6444b5f39931454fdb93b15de35deee7", "lon": -76.98439633333334, "lat": 38.855192833333334, "type": "electric_bike", "fusion_lon": 0.0, "is_reserved": 0, "bike_id": "6444b5f39931454fdb93b15de35deee7", "fusion_lat": 0.0, "is_disabled": 0, "rental_uris": {"ios": "https://dc.lft.to/lastmile_qr_scan", "android": "https://dc.lft.to/lastmile_qr_scan"}}, {"name": "fcded8aa23daeccceeefc4a19cc0794d", "lon": -76.98640483333334, "lat": 38.888312666666664, "type": "electric_scooter", "fusion_lon": 0.0, "is_reserved": 0, "bike_id": "fcded8aa23daeccceeefc4a19cc0794d", "fusion_lat": 0.0, "is_disabled": 0, "rental_uris": {"ios": "https://dc.lft.to/lastmile_qr_scan", "android": "https://dc.lft.to/lastmile_qr_scan"}}, {"name": "3c54dc82b8d990c0b0f6defce0e428a8", "lon": -77.02398866666667, "lat": 38.91622916666667, "type": "electric_scooter", "fusion_lon": 0.0, "is_reserved": 0, "bike_id": "3c54dc82b8d990c0b0f6defce0e428a8", "fusion_lat": 0.0, "is_disabled": 0, "rental_uris": {"ios": "https://dc.lft.to/lastmile_qr_scan", "android": "https://dc.lft.to/lastmile_qr_scan"}}, {"name": "7b4910a12724e9f6548044a176a5ae42", "lon": -77.04648433333334, "lat": 38.91946466666667, "type": "electric_scooter", "fusion_lon": 0.0, "is_reserved": 0, "bike_id": "7b4910a12724e9f6548044a176a5ae42", "fusion_lat": 0.0, "is_disabled": 0, "rental_uris": {"ios": "https://dc.lft.to/lastmile_qr_scan", "android": "https://dc.lft.to/lastmile_qr_scan"}}, {"name": "0587a7baf7d9d6e26a9233fa32fb4c8e", "lon": -77.03331783333333, "lat": 38.898411833333334, "type": "electric_scooter", "fusion_lon": 0.0, "is_reserved": 0, "bike_id": "0587a7baf7d9d6e26a9233fa32fb4c8e", "fusion_lat": 0.0, "is_disabled": 0, "rental_uris": {"ios": "https://dc.lft.to/lastmile_qr_scan", "android": "https://dc.lft.to/lastmile_qr_scan"}}, {"name": "7d2db2bca77c04605e8f530df8349bd2", "lon": -77.06864766666666, "lat": 38.80578533333333, "type": "electric_bike", "fusion_lon": 0.0, "is_reserved": 0, "bike_id": "7d2db2bca77c04605e8f530df8349bd2", "fusion_lat": 0.0, "is_disabled": 0, "rental_uris": {"ios": "https://dc.lft.to/lastmile_qr_scan", "android": "https://dc.lft.to/lastmile_qr_scan"}}, {"name": "66181bc31b61a89fd1011b9d309b0dca", "lon": -76.93733516666667, "lat": 38.890176833333335, "type": "electric_scooter", "fusion_lon": 0.0, "is_reserved": 0, "bike_id": "66181bc31b61a89fd1011b9d309b0dca", "fusion_lat": 0.0, "is_disabled": 0, "rental_uris": {"ios": "https://dc.lft.to/lastmile_qr_scan", "android": "https://dc.lft.to/lastmile_qr_scan"}}, {"name": "dbe08ce19c621c0c1963baf51ca2507c", "lon": -77.063319, "lat": 38.9442615, "type": "electric_scooter", "fusion_lon": 0.0, "is_reserved": 0, "bike_id": "dbe08ce19c621c0c1963baf51ca2507c", "fusion_lat": 0.0, "is_disabled": 0, "rental_uris": {"ios": "https://dc.lft.to/lastmile_qr_scan", "android": "https://dc.lft.to/lastmile_qr_scan"}}, {"name": "4e0d2580507bf83e3ce7e5187c9ae510", "lon": -77.04308166666667, "lat": 38.928849666666665, "type": "electric_bike", "fusion_lon": 0.0, "is_reserved": 0, "bike_id": "4e0d2580507bf83e3ce7e5187c9ae510", "fusion_lat": 0.0, "is_disabled": 0, "rental_uris": {"ios": "https://dc.lft.to/lastmile_qr_scan", "android": "https://dc.lft.to/lastmile_qr_scan"}}, {"name": "0fe6ae5f8fe833a00e65324ab44fe994", "lon": -77.01073783333334, "lat": 38.89783, "type": "electric_scooter", "fusion_lon": 0.0, "is_reserved": 0, "bike_id": "0fe6ae5f8fe833a00e65324ab44fe994", "fusion_lat": 0.0, "is_disabled": 0, "rental_uris": {"ios": "https://dc.lft.to/lastmile_qr_scan", "android": "https://dc.lft.to/lastmile_qr_scan"}}, {"name": "816cb0ca7dd9175aa780bc82a1df6c4e", "lon": -77.02734283333334, "lat": 38.940906, "type": "electric_scooter", "fusion_lon": 0.0, "is_reserved": 0, "bike_id": "816cb0ca7dd9175aa780bc82a1df6c4e", "fusion_lat": 0.0, "is_disabled": 0, "rental_uris": {"ios": "https://dc.lft.to/lastmile_qr_scan", "android": "https://dc.lft.to/lastmile_qr_scan"}}, {"name": "53b181991028ffd0c4e42afca65923b7", "lon": -77.0451385, "lat": 38.90259533333333, "type": "electric_scooter", "fusion_lon": 0.0, "is_reserved": 0, "bike_id": "53b181991028ffd0c4e42afca65923b7", "fusion_lat": 0.0, "is_disabled": 0, "rental_uris": {"ios": "https://dc.lft.to/lastmile_qr_scan", "android": "https://dc.lft.to/lastmile_qr_scan"}}, {"name": "8716f97b91267fe2c3098437d09c6fbe", "lon": -76.99268583333334, "lat": 38.8625265, "type": "electric_scooter", "fusion_lon": 0.0, "is_reserved": 0, "bike_id": "8716f97b91267fe2c3098437d09c6fbe", "fusion_lat": 0.0, "is_disabled": 0, "rental_uris": {"ios": "https://dc.lft.to/lastmile_qr_scan", "android": "https://dc.lft.to/lastmile_qr_scan"}}, {"name": "1ce3e8559d1763825f55735793360af4", "lon": -77.04492916666666, "lat": 38.9014685, "type": "electric_scooter", "fusion_lon": 0.0, "is_reserved": 0, "bike_id": "1ce3e8559d1763825f55735793360af4", "fusion_lat": 0.0, "is_disabled": 0, "rental_uris": {"ios": "https://dc.lft.to/lastmile_qr_scan", "android": "https://dc.lft.to/lastmile_qr_scan"}}, {"name": "f66313dc8d7c4abeca50a3569d812619", "lon": -77.04131183333334, "lat": 38.9104305, "type": "electric_bike", "fusion_lon": 0.0, "is_reserved": 0, "bike_id": "f66313dc8d7c4abeca50a3569d812619", "fusion_lat": 0.0, "is_disabled": 0, "rental_uris": {"ios": "https://dc.lft.to/lastmile_qr_scan", "android": "https://dc.lft.to/lastmile_qr_scan"}}, {"name": "022e6fbcd107a69c4b6803e969b24471", "lon": -77.032077, "lat": 38.921591, "type": "electric_scooter", "fusion_lon": 0.0, "is_reserved": 0, "bike_id": "022e6fbcd107a69c4b6803e969b24471", "fusion_lat": 0.0, "is_disabled": 0, "rental_uris": {"ios": "https://dc.lft.to/lastmile_qr_scan", "android": "https://dc.lft.to/lastmile_qr_scan"}}, {"name": "2bc4d80213a21955d99a889593501b86", "lon": -77.06352583333333, "lat": 38.9445295, "type": "electric_scooter", "fusion_lon": 0.0, "is_reserved": 0, "bike_id": "2bc4d80213a21955d99a889593501b86", "fusion_lat": 0.0, "is_disabled": 0, "rental_uris": {"ios": "https://dc.lft.to/lastmile_qr_scan", "android": "https://dc.lft.to/lastmile_qr_scan"}}, {"name": "76b9df864b2b3e9e921c720c3a71efa2", "lon": -77.02298916666666, "lat": 38.91838383333333, "type": "electric_scooter", "fusion_lon": 0.0, "is_reserved": 0, "bike_id": "76b9df864b2b3e9e921c720c3a71efa2", "fusion_lat": 0.0, "is_disabled": 0, "rental_uris": {"ios": "https://dc.lft.to/lastmile_qr_scan", "android": "https://dc.lft.to/lastmile_qr_scan"}}, {"name": "f429aec3439ec44b45b6ed335bcd9e56", "lon": -77.12027866666666, "lat": 38.8551755, "type": "electric_bike", "fusion_lon": 0.0, "is_reserved": 0, "bike_id": "f429aec3439ec44b45b6ed335bcd9e56", "fusion_lat": 0.0, "is_disabled": 0, "rental_uris": {"ios": "https://dc.lft.to/lastmile_qr_scan", "android": "https://dc.lft.to/lastmile_qr_scan"}}, {"name": "eab0ebae01a77926c86c0eb5eefbb698", "lon": -77.02163216666666, "lat": 38.909662833333336, "type": "electric_scooter", "fusion_lon": 0.0, "is_reserved": 0, "bike_id": "eab0ebae01a77926c86c0eb5eefbb698", "fusion_lat": 0.0, "is_disabled": 0, "rental_uris": {"ios": "https://dc.lft.to/lastmile_qr_scan", "android": "https://dc.lft.to/lastmile_qr_scan"}}, {"name": "d063d6e021b7cda602dc9380510b18ea", "lon": -77.027139, "lat": 38.92465933333333, "type": "electric_scooter", "fusion_lon": 0.0, "is_reserved": 0, "bike_id": "d063d6e021b7cda602dc9380510b18ea", "fusion_lat": 0.0, "is_disabled": 0, "rental_uris": {"ios": "https://dc.lft.to/lastmile_qr_scan", "android": "https://dc.lft.to/lastmile_qr_scan"}}, {"name": "911c26b6e1e97278fe63feb08ddb13e2", "lon": -77.03661716666667, "lat": 38.91249116666667, "type": "electric_scooter", "fusion_lon": 0.0, "is_reserved": 0, "bike_id": "911c26b6e1e97278fe63feb08ddb13e2", "fusion_lat": 0.0, "is_disabled": 0, "rental_uris": {"ios": "https://dc.lft.to/lastmile_qr_scan", "android": "https://dc.lft.to/lastmile_qr_scan"}}, {"name": "5a7e97fe7ae1cd57f176f647cdd2ba0b", "lon": -77.044818, "lat": 38.91868783333334, "type": "electric_scooter", "fusion_lon": 0.0, "is_reserved": 0, "bike_id": "5a7e97fe7ae1cd57f176f647cdd2ba0b", "fusion_lat": 0.0, "is_disabled": 0, "rental_uris": {"ios": "https://dc.lft.to/lastmile_qr_scan", "android": "https://dc.lft.to/lastmile_qr_scan"}}, {"name": "f7f3276ecc3236c5c346e7b25bc4894b", "lon": -77.00501916666667, "lat": 38.8969485, "type": "electric_scooter", "fusion_lon": 0.0, "is_reserved": 0, "bike_id": "f7f3276ecc3236c5c346e7b25bc4894b", "fusion_lat": 0.0, "is_disabled": 0, "rental_uris": {"ios": "https://dc.lft.to/lastmile_qr_scan", "android": "https://dc.lft.to/lastmile_qr_scan"}}, {"name": "d4287f179c41020a04ef3f64ace3092c", "lon": -77.017572, "lat": 38.87693483333334, "type": "electric_scooter", "fusion_lon": 0.0, "is_reserved": 0, "bike_id": "d4287f179c41020a04ef3f64ace3092c", "fusion_lat": 0.0, "is_disabled": 0, "rental_uris": {"ios": "https://dc.lft.to/lastmile_qr_scan", "android": "https://dc.lft.to/lastmile_qr_scan"}}, {"name": "21b8dd7256d5b51e94439a04cc0210c5", "lon": -77.00204083333334, "lat": 38.893484, "type": "electric_scooter", "fusion_lon": 0.0, "is_reserved": 0, "bike_id": "21b8dd7256d5b51e94439a04cc0210c5", "fusion_lat": 0.0, "is_disabled": 0, "rental_uris": {"ios": "https://dc.lft.to/lastmile_qr_scan", "android": "https://dc.lft.to/lastmile_qr_scan"}}, {"name": "f812ee830aec2188a4b51ead04d33bb7", "lon": -77.04197316666666, "lat": 38.89355483333333, "type": "electric_scooter", "fusion_lon": 0.0, "is_reserved": 0, "bike_id": "f812ee830aec2188a4b51ead04d33bb7", "fusion_lat": 0.0, "is_disabled": 0, "rental_uris": {"ios": "https://dc.lft.to/lastmile_qr_scan", "android": "https://dc.lft.to/lastmile_qr_scan"}}, {"name": "c4c895b54128bd18b5f9338a2cdc03f4", "lon": -77.0451835, "lat": 38.89222616666667, "type": "electric_scooter", "fusion_lon": 0.0, "is_reserved": 0, "bike_id": "c4c895b54128bd18b5f9338a2cdc03f4", "fusion_lat": 0.0, "is_disabled": 0, "rental_uris": {"ios": "https://dc.lft.to/lastmile_qr_scan", "android": "https://dc.lft.to/lastmile_qr_scan"}}, {"name": "6a3a54b3ec6318bf100dca3b347afc15", "lon": -77.06195666666666, "lat": 38.90510416666667, "type": "electric_scooter", "fusion_lon": 0.0, "is_reserved": 0, "bike_id": "6a3a54b3ec6318bf100dca3b347afc15", "fusion_lat": 0.0, "is_disabled": 0, "rental_uris": {"ios": "https://dc.lft.to/lastmile_qr_scan", "android": "https://dc.lft.to/lastmile_qr_scan"}}, {"name": "6f88ccd0be82edd2d466c77b1836e5c2", "lon": -76.94183466666667, "lat": 38.897566833333336, "type": "electric_scooter", "fusion_lon": 0.0, "is_reserved": 0, "bike_id": "6f88ccd0be82edd2d466c77b1836e5c2", "fusion_lat": 0.0, "is_disabled": 0, "rental_uris": {"ios": "https://dc.lft.to/lastmile_qr_scan", "android": "https://dc.lft.to/lastmile_qr_scan"}}, {"name": "1e5e15b23c0930d327b670e885b7849f", "lon": -77.03905633333333, "lat": 38.91761233333333, "type": "electric_scooter", "fusion_lon": 0.0, "is_reserved": 0, "bike_id": "1e5e15b23c0930d327b670e885b7849f", "fusion_lat": 0.0, "is_disabled": 0, "rental_uris": {"ios": "https://dc.lft.to/lastmile_qr_scan", "android": "https://dc.lft.to/lastmile_qr_scan"}}, {"name": "cec11df2bab1e5c8f087662ed621c958", "lon": -77.00226766666667, "lat": 38.900636, "type": "electric_scooter", "fusion_lon": 0.0, "is_reserved": 0, "bike_id": "cec11df2bab1e5c8f087662ed621c958", "fusion_lat": 0.0, "is_disabled": 0, "rental_uris": {"ios": "https://dc.lft.to/lastmile_qr_scan", "android": "https://dc.lft.to/lastmile_qr_scan"}}, {"name": "9d071bd108a09099ade9f20127d50ca3", "lon": -77.03403833333333, "lat": 38.923134, "type": "electric_scooter", "fusion_lon": 0.0, "is_reserved": 0, "bike_id": "9d071bd108a09099ade9f20127d50ca3", "fusion_lat": 0.0, "is_disabled": 0, "rental_uris": {"ios": "https://dc.lft.to/lastmile_qr_scan", "android": "https://dc.lft.to/lastmile_qr_scan"}}, {"name": "49ba423c01b8ed9b77a3bc2fa98ba1a5", "lon": -76.99948683333334, "lat": 38.842931666666665, "type": "electric_scooter", "fusion_lon": 0.0, "is_reserved": 0, "bike_id": "49ba423c01b8ed9b77a3bc2fa98ba1a5", "fusion_lat": 0.0, "is_disabled": 0, "rental_uris": {"ios": "https://dc.lft.to/lastmile_qr_scan", "android": "https://dc.lft.to/lastmile_qr_scan"}}, {"name": "e8179756d0f2ba43751e4e963d311276", "lon": -76.99396783333333, "lat": 38.897282833333335, "type": "electric_scooter", "fusion_lon": 0.0, "is_reserved": 0, "bike_id": "e8179756d0f2ba43751e4e963d311276", "fusion_lat": 0.0, "is_disabled": 0, "rental_uris": {"ios": "https://dc.lft.to/lastmile_qr_scan", "android": "https://dc.lft.to/lastmile_qr_scan"}}, {"name": "67f0369e30d42f3cba045c4da24ca8a3", "lon": -77.10331316666667, "lat": 38.8741825, "type": "electric_bike", "fusion_lon": 0.0, "is_reserved": 0, "bike_id": "67f0369e30d42f3cba045c4da24ca8a3", "fusion_lat": 0.0, "is_disabled": 0, "rental_uris": {"ios": "https://dc.lft.to/lastmile_qr_scan", "android": "https://dc.lft.to/lastmile_qr_scan"}}, {"name": "a7f0721c5254db9f39c4cbaf1eb0f2bb", "lon": -76.9765975, "lat": 38.89857133333334, "type": "electric_scooter", "fusion_lon": 0.0, "is_reserved": 0, "bike_id": "a7f0721c5254db9f39c4cbaf1eb0f2bb", "fusion_lat": 0.0, "is_disabled": 0, "rental_uris": {"ios": "https://dc.lft.to/lastmile_qr_scan", "android": "https://dc.lft.to/lastmile_qr_scan"}}, {"name": "440acc79e671df5a1073a4bcdabfb34a", "lon": -76.93732716666666, "lat": 38.8901905, "type": "electric_scooter", "fusion_lon": 0.0, "is_reserved": 0, "bike_id": "440acc79e671df5a1073a4bcdabfb34a", "fusion_lat": 0.0, "is_disabled": 0, "rental_uris": {"ios": "https://dc.lft.to/lastmile_qr_scan", "android": "https://dc.lft.to/lastmile_qr_scan"}}, {"name": "8edbf9c0a41d73d7417d40ebcb979bd4", "lon": -77.03763216666667, "lat": 38.916872833333336, "type": "electric_scooter", "fusion_lon": 0.0, "is_reserved": 0, "bike_id": "8edbf9c0a41d73d7417d40ebcb979bd4", "fusion_lat": 0.0, "is_disabled": 0, "rental_uris": {"ios": "https://dc.lft.to/lastmile_qr_scan", "android": "https://dc.lft.to/lastmile_qr_scan"}}, {"name": "697b18f2356bf888701f43c9a5987a60", "lon": -77.02465516666666, "lat": 38.91901133333333, "type": "electric_scooter", "fusion_lon": 0.0, "is_reserved": 0, "bike_id": "697b18f2356bf888701f43c9a5987a60", "fusion_lat": 0.0, "is_disabled": 0, "rental_uris": {"ios": "https://dc.lft.to/lastmile_qr_scan", "android": "https://dc.lft.to/lastmile_qr_scan"}}, {"name": "06115d0a0a6d30a32da1541c6342944f", "lon": -77.05317166666667, "lat": 38.926651166666666, "type": "electric_scooter", "fusion_lon": 0.0, "is_reserved": 0, "bike_id": "06115d0a0a6d30a32da1541c6342944f", "fusion_lat": 0.0, "is_disabled": 0, "rental_uris": {"ios": "https://dc.lft.to/lastmile_qr_scan", "android": "https://dc.lft.to/lastmile_qr_scan"}}, {"name": "d22852b556a3aa4f59819ca2c3649e4c", "lon": -77.03209166666667, "lat": 38.91796433333333, "type": "electric_scooter", "fusion_lon": 0.0, "is_reserved": 0, "bike_id": "d22852b556a3aa4f59819ca2c3649e4c", "fusion_lat": 0.0, "is_disabled": 0, "rental_uris": {"ios": "https://dc.lft.to/lastmile_qr_scan", "android": "https://dc.lft.to/lastmile_qr_scan"}}, {"name": "f549429bf689f5dbee3cd7d6e1eaeefc", "lon": -77.03075583333333, "lat": 38.917582, "type": "electric_scooter", "fusion_lon": 0.0, "is_reserved": 0, "bike_id": "f549429bf689f5dbee3cd7d6e1eaeefc", "fusion_lat": 0.0, "is_disabled": 0, "rental_uris": {"ios": "https://dc.lft.to/lastmile_qr_scan", "android": "https://dc.lft.to/lastmile_qr_scan"}}, {"name": "5fe6c20ac1b4b7ee93471c49e4b4311b", "lon": -77.02614666666666, "lat": 38.901290333333336, "type": "electric_scooter", "fusion_lon": 0.0, "is_reserved": 0, "bike_id": "5fe6c20ac1b4b7ee93471c49e4b4311b", "fusion_lat": 0.0, "is_disabled": 0, "rental_uris": {"ios": "https://dc.lft.to/lastmile_qr_scan", "android": "https://dc.lft.to/lastmile_qr_scan"}}, {"name": "45b7ee6181ee896c9d7dce31a517bcb1", "lon": -77.03093883333334, "lat": 38.91062066666667, "type": "electric_scooter", "fusion_lon": 0.0, "is_reserved": 0, "bike_id": "45b7ee6181ee896c9d7dce31a517bcb1", "fusion_lat": 0.0, "is_disabled": 0, "rental_uris": {"ios": "https://dc.lft.to/lastmile_qr_scan", "android": "https://dc.lft.to/lastmile_qr_scan"}}, {"name": "dabfd5c6b31d872ce11112628f975d34", "lon": -77.01610766666667, "lat": 38.89508633333333, "type": "electric_scooter", "fusion_lon": 0.0, "is_reserved": 0, "bike_id": "dabfd5c6b31d872ce11112628f975d34", "fusion_lat": 0.0, "is_disabled": 0, "rental_uris": {"ios": "https://dc.lft.to/lastmile_qr_scan", "android": "https://dc.lft.to/lastmile_qr_scan"}}, {"name": "f4561ab05a330c508f7ba81e0ed2eb0f", "lon": -77.00370983333333, "lat": 38.88266766666667, "type": "electric_scooter", "fusion_lon": 0.0, "is_reserved": 0, "bike_id": "f4561ab05a330c508f7ba81e0ed2eb0f", "fusion_lat": 0.0, "is_disabled": 0, "rental_uris": {"ios": "https://dc.lft.to/lastmile_qr_scan", "android": "https://dc.lft.to/lastmile_qr_scan"}}, {"name": "2b1cc703f3195f9d90968fe168a08161", "lon": -77.06167916666666, "lat": 38.902447333333335, "type": "electric_scooter", "fusion_lon": 0.0, "is_reserved": 0, "bike_id": "2b1cc703f3195f9d90968fe168a08161", "fusion_lat": 0.0, "is_disabled": 0, "rental_uris": {"ios": "https://dc.lft.to/lastmile_qr_scan", "android": "https://dc.lft.to/lastmile_qr_scan"}}, {"name": "b1a968e609db993ca823a70ffd3da8dc", "lon": -77.00776483333334, "lat": 38.902611, "type": "electric_scooter", "fusion_lon": 0.0, "is_reserved": 0, "bike_id": "b1a968e609db993ca823a70ffd3da8dc", "fusion_lat": 0.0, "is_disabled": 0, "rental_uris": {"ios": "https://dc.lft.to/lastmile_qr_scan", "android": "https://dc.lft.to/lastmile_qr_scan"}}, {"name": "dc8dcf36c807db802aedba00135bae25", "lon": -76.98877116666667, "lat": 38.90025883333333, "type": "electric_scooter", "fusion_lon": 0.0, "is_reserved": 0, "bike_id": "dc8dcf36c807db802aedba00135bae25", "fusion_lat": 0.0, "is_disabled": 0, "rental_uris": {"ios": "https://dc.lft.to/lastmile_qr_scan", "android": "https://dc.lft.to/lastmile_qr_scan"}}, {"name": "2a23e0ee46314be12d294e68ece3e076", "lon": -77.04179866666666, "lat": 38.9155285, "type": "electric_scooter", "fusion_lon": 0.0, "is_reserved": 0, "bike_id": "2a23e0ee46314be12d294e68ece3e076", "fusion_lat": 0.0, "is_disabled": 0, "rental_uris": {"ios": "https://dc.lft.to/lastmile_qr_scan", "android": "https://dc.lft.to/lastmile_qr_scan"}}, {"name": "93feb243c58f5d2e75862e1e5ca1897d", "lon": -77.00206566666667, "lat": 38.81939366666667, "type": "electric_bike", "fusion_lon": 0.0, "is_reserved": 0, "bike_id": "93feb243c58f5d2e75862e1e5ca1897d", "fusion_lat": 0.0, "is_disabled": 0, "rental_uris": {"ios": "https://dc.lft.to/lastmile_qr_scan", "android": "https://dc.lft.to/lastmile_qr_scan"}}, {"name": "fea848653f8cf98cb91e72fe3fb0fc2f", "lon": -77.00575183333333, "lat": 38.876643666666666, "type": "electric_scooter", "fusion_lon": 0.0, "is_reserved": 0, "bike_id": "fea848653f8cf98cb91e72fe3fb0fc2f", "fusion_lat": 0.0, "is_disabled": 0, "rental_uris": {"ios": "https://dc.lft.to/lastmile_qr_scan", "android": "https://dc.lft.to/lastmile_qr_scan"}}, {"name": "1735cd253d53cba3ed001c437ed81143", "lon": -77.11710466666666, "lat": 38.86745916666667, "type": "electric_bike", "fusion_lon": 0.0, "is_reserved": 0, "bike_id": "1735cd253d53cba3ed001c437ed81143", "fusion_lat": 0.0, "is_disabled": 0, "rental_uris": {"ios": "https://dc.lft.to/lastmile_qr_scan", "android": "https://dc.lft.to/lastmile_qr_scan"}}, {"name": "f4e13f7c3ffddf32f77605e5c2523bab", "lon": -77.05132516666667, "lat": 38.923617166666666, "type": "electric_scooter", "fusion_lon": 0.0, "is_reserved": 0, "bike_id": "f4e13f7c3ffddf32f77605e5c2523bab", "fusion_lat": 0.0, "is_disabled": 0, "rental_uris": {"ios": "https://dc.lft.to/lastmile_qr_scan", "android": "https://dc.lft.to/lastmile_qr_scan"}}, {"name": "07a09508c02321eb207628ccefe74208", "lon": -76.98628766666667, "lat": 38.880505666666664, "type": "electric_bike", "fusion_lon": 0.0, "is_reserved": 0, "bike_id": "07a09508c02321eb207628ccefe74208", "fusion_lat": 0.0, "is_disabled": 0, "rental_uris": {"ios": "https://dc.lft.to/lastmile_qr_scan", "android": "https://dc.lft.to/lastmile_qr_scan"}}, {"name": "60fbff49bf714e9a82b84d8816ca2cdc", "lon": -77.06326383333334, "lat": 38.94423883333333, "type": "electric_scooter", "fusion_lon": 0.0, "is_reserved": 0, "bike_id": "60fbff49bf714e9a82b84d8816ca2cdc", "fusion_lat": 0.0, "is_disabled": 0, "rental_uris": {"ios": "https://dc.lft.to/lastmile_qr_scan", "android": "https://dc.lft.to/lastmile_qr_scan"}}, {"name": "d62185a0ce75dfd6da8e7045e958b516", "lon": -77.0307485, "lat": 38.897419666666664, "type": "electric_scooter", "fusion_lon": 0.0, "is_reserved": 0, "bike_id": "d62185a0ce75dfd6da8e7045e958b516", "fusion_lat": 0.0, "is_disabled": 0, "rental_uris": {"ios": "https://dc.lft.to/lastmile_qr_scan", "android": "https://dc.lft.to/lastmile_qr_scan"}}, {"name": "7425622249e3796b965ee306223a8047", "lon": -77.04653916666666, "lat": 38.8922415, "type": "electric_scooter", "fusion_lon": 0.0, "is_reserved": 0, "bike_id": "7425622249e3796b965ee306223a8047", "fusion_lat": 0.0, "is_disabled": 0, "rental_uris": {"ios": "https://dc.lft.to/lastmile_qr_scan", "android": "https://dc.lft.to/lastmile_qr_scan"}}, {"name": "8f7b2da52c299500fe37e791b13d9078", "lon": -77.02310433333334, "lat": 38.91841133333333, "type": "electric_scooter", "fusion_lon": 0.0, "is_reserved": 0, "bike_id": "8f7b2da52c299500fe37e791b13d9078", "fusion_lat": 0.0, "is_disabled": 0, "rental_uris": {"ios": "https://dc.lft.to/lastmile_qr_scan", "android": "https://dc.lft.to/lastmile_qr_scan"}}, {"name": "e68f38362647c07989cff86e57b243a4", "lon": -77.001732, "lat": 38.87644016666667, "type": "electric_scooter", "fusion_lon": 0.0, "is_reserved": 0, "bike_id": "e68f38362647c07989cff86e57b243a4", "fusion_lat": 0.0, "is_disabled": 0, "rental_uris": {"ios": "https://dc.lft.to/lastmile_qr_scan", "android": "https://dc.lft.to/lastmile_qr_scan"}}, {"name": "5739af2819596bcf558e54d36e0c745f", "lon": -77.005964, "lat": 38.906421, "type": "electric_scooter", "fusion_lon": 0.0, "is_reserved": 0, "bike_id": "5739af2819596bcf558e54d36e0c745f", "fusion_lat": 0.0, "is_disabled": 0, "rental_uris": {"ios": "https://dc.lft.to/lastmile_qr_scan", "android": "https://dc.lft.to/lastmile_qr_scan"}}, {"name": "685a6b1c787a358d476dc679c13584ea", "lon": -77.00920233333333, "lat": 38.827849666666665, "type": "electric_scooter", "fusion_lon": 0.0, "is_reserved": 0, "bike_id": "685a6b1c787a358d476dc679c13584ea", "fusion_lat": 0.0, "is_disabled": 0, "rental_uris": {"ios": "https://dc.lft.to/lastmile_qr_scan", "android": "https://dc.lft.to/lastmile_qr_scan"}}, {"name": "1ede0159aeaf7f26a25eebf494d6eb82", "lon": -77.0559655, "lat": 38.9360775, "type": "electric_scooter", "fusion_lon": 0.0, "is_reserved": 0, "bike_id": "1ede0159aeaf7f26a25eebf494d6eb82", "fusion_lat": 0.0, "is_disabled": 0, "rental_uris": {"ios": "https://dc.lft.to/lastmile_qr_scan", "android": "https://dc.lft.to/lastmile_qr_scan"}}, {"name": "65663899ee2c7603f5adc59fbbc233cc", "lon": -76.99220416666667, "lat": 38.89735983333333, "type": "electric_bike", "fusion_lon": 0.0, "is_reserved": 0, "bike_id": "65663899ee2c7603f5adc59fbbc233cc", "fusion_lat": 0.0, "is_disabled": 0, "rental_uris": {"ios": "https://dc.lft.to/lastmile_qr_scan", "android": "https://dc.lft.to/lastmile_qr_scan"}}, {"name": "2de77752776ff21e59e84632496221e5", "lon": -77.017145, "lat": 38.9148815, "type": "electric_scooter", "fusion_lon": 0.0, "is_reserved": 0, "bike_id": "2de77752776ff21e59e84632496221e5", "fusion_lat": 0.0, "is_disabled": 0, "rental_uris": {"ios": "https://dc.lft.to/lastmile_qr_scan", "android": "https://dc.lft.to/lastmile_qr_scan"}}, {"name": "094f554b5eabe2d092b44a5378c7cc46", "lon": -77.04480116666667, "lat": 38.92405866666667, "type": "electric_scooter", "fusion_lon": 0.0, "is_reserved": 0, "bike_id": "094f554b5eabe2d092b44a5378c7cc46", "fusion_lat": 0.0, "is_disabled": 0, "rental_uris": {"ios": "https://dc.lft.to/lastmile_qr_scan", "android": "https://dc.lft.to/lastmile_qr_scan"}}, {"name": "0d89a96cb024e2a1e71dd5bb37b79e68", "lon": -77.05038083333334, "lat": 38.92357766666667, "type": "electric_scooter", "fusion_lon": 0.0, "is_reserved": 0, "bike_id": "0d89a96cb024e2a1e71dd5bb37b79e68", "fusion_lat": 0.0, "is_disabled": 0, "rental_uris": {"ios": "https://dc.lft.to/lastmile_qr_scan", "android": "https://dc.lft.to/lastmile_qr_scan"}}, {"name": "261b9946aa953b979ab0528862bf5931", "lon": -76.99839116666666, "lat": 38.890810333333334, "type": "electric_scooter", "fusion_lon": 0.0, "is_reserved": 0, "bike_id": "261b9946aa953b979ab0528862bf5931", "fusion_lat": 0.0, "is_disabled": 0, "rental_uris": {"ios": "https://dc.lft.to/lastmile_qr_scan", "android": "https://dc.lft.to/lastmile_qr_scan"}}, {"name": "37d82d74207e452c44f55b19b9bc2ae2", "lon": -77.02770266666667, "lat": 38.939620833333336, "type": "electric_scooter", "fusion_lon": 0.0, "is_reserved": 0, "bike_id": "37d82d74207e452c44f55b19b9bc2ae2", "fusion_lat": 0.0, "is_disabled": 0, "rental_uris": {"ios": "https://dc.lft.to/lastmile_qr_scan", "android": "https://dc.lft.to/lastmile_qr_scan"}}, {"name": "8d0fc1bdf5e4231497620a20ad7f3a67", "lon": -77.039303, "lat": 38.92492, "type": "electric_scooter", "fusion_lon": 0.0, "is_reserved": 0, "bike_id": "8d0fc1bdf5e4231497620a20ad7f3a67", "fusion_lat": 0.0, "is_disabled": 0, "rental_uris": {"ios": "https://dc.lft.to/lastmile_qr_scan", "android": "https://dc.lft.to/lastmile_qr_scan"}}, {"name": "857db055c3f6e060b2f0a6912599dfd7", "lon": -77.033703, "lat": 38.90386783333334, "type": "electric_scooter", "fusion_lon": 0.0, "is_reserved": 0, "bike_id": "857db055c3f6e060b2f0a6912599dfd7", "fusion_lat": 0.0, "is_disabled": 0, "rental_uris": {"ios": "https://dc.lft.to/lastmile_qr_scan", "android": "https://dc.lft.to/lastmile_qr_scan"}}, {"name": "5043547f3aef3ce68e6de18ceb639423", "lon": -77.00072633333333, "lat": 38.908139166666665, "type": "electric_scooter", "fusion_lon": 0.0, "is_reserved": 0, "bike_id": "5043547f3aef3ce68e6de18ceb639423", "fusion_lat": 0.0, "is_disabled": 0, "rental_uris": {"ios": "https://dc.lft.to/lastmile_qr_scan", "android": "https://dc.lft.to/lastmile_qr_scan"}}, {"name": "4ae7aec8df2e2044e89bb69a1f99681c", "lon": -77.03834183333333, "lat": 38.907151, "type": "electric_scooter", "fusion_lon": 0.0, "is_reserved": 0, "bike_id": "4ae7aec8df2e2044e89bb69a1f99681c", "fusion_lat": 0.0, "is_disabled": 0, "rental_uris": {"ios": "https://dc.lft.to/lastmile_qr_scan", "android": "https://dc.lft.to/lastmile_qr_scan"}}, {"name": "53abfde346a68e1d133f69a95fe1b7a0", "lon": -77.03193266666666, "lat": 38.918103333333335, "type": "electric_scooter", "fusion_lon": 0.0, "is_reserved": 0, "bike_id": "53abfde346a68e1d133f69a95fe1b7a0", "fusion_lat": 0.0, "is_disabled": 0, "rental_uris": {"ios": "https://dc.lft.to/lastmile_qr_scan", "android": "https://dc.lft.to/lastmile_qr_scan"}}, {"name": "1dce2c5ab38e6be1659a57a4faed3a0a", "lon": -77.0610345, "lat": 38.93705466666667, "type": "electric_scooter", "fusion_lon": 0.0, "is_reserved": 0, "bike_id": "1dce2c5ab38e6be1659a57a4faed3a0a", "fusion_lat": 0.0, "is_disabled": 0, "rental_uris": {"ios": "https://dc.lft.to/lastmile_qr_scan", "android": "https://dc.lft.to/lastmile_qr_scan"}}, {"name": "336f973c97cbf9c338c28d96c6b6f255", "lon": -77.03638483333333, "lat": 38.916920166666664, "type": "electric_scooter", "fusion_lon": 0.0, "is_reserved": 0, "bike_id": "336f973c97cbf9c338c28d96c6b6f255", "fusion_lat": 0.0, "is_disabled": 0, "rental_uris": {"ios": "https://dc.lft.to/lastmile_qr_scan", "android": "https://dc.lft.to/lastmile_qr_scan"}}, {"name": "4a815844cc55b7c5f66d9dd49d722a91", "lon": -76.984802, "lat": 38.910966, "type": "electric_bike", "fusion_lon": 0.0, "is_reserved": 0, "bike_id": "4a815844cc55b7c5f66d9dd49d722a91", "fusion_lat": 0.0, "is_disabled": 0, "rental_uris": {"ios": "https://dc.lft.to/lastmile_qr_scan", "android": "https://dc.lft.to/lastmile_qr_scan"}}, {"name": "81d51d21b5f09e623f1f76524dfc48a4", "lon": -77.03804283333334, "lat": 38.906672666666665, "type": "electric_scooter", "fusion_lon": 0.0, "is_reserved": 0, "bike_id": "81d51d21b5f09e623f1f76524dfc48a4", "fusion_lat": 0.0, "is_disabled": 0, "rental_uris": {"ios": "https://dc.lft.to/lastmile_qr_scan", "android": "https://dc.lft.to/lastmile_qr_scan"}}, {"name": "975ab7037bf8b1cecf58522f54ff1c69", "lon": -77.02449816666666, "lat": 38.92410566666667, "type": "electric_scooter", "fusion_lon": 0.0, "is_reserved": 0, "bike_id": "975ab7037bf8b1cecf58522f54ff1c69", "fusion_lat": 0.0, "is_disabled": 0, "rental_uris": {"ios": "https://dc.lft.to/lastmile_qr_scan", "android": "https://dc.lft.to/lastmile_qr_scan"}}, {"name": "a0c996b5c6087a0ad0ec87ab9b5aa660", "lon": -77.03334416666667, "lat": 38.898435166666665, "type": "electric_scooter", "fusion_lon": 0.0, "is_reserved": 0, "bike_id": "a0c996b5c6087a0ad0ec87ab9b5aa660", "fusion_lat": 0.0, "is_disabled": 0, "rental_uris": {"ios": "https://dc.lft.to/lastmile_qr_scan", "android": "https://dc.lft.to/lastmile_qr_scan"}}, {"name": "c9fd31efe88c0ceb51f7a78d2e6fccf4", "lon": -77.033294, "lat": 38.89839116666667, "type": "electric_scooter", "fusion_lon": 0.0, "is_reserved": 0, "bike_id": "c9fd31efe88c0ceb51f7a78d2e6fccf4", "fusion_lat": 0.0, "is_disabled": 0, "rental_uris": {"ios": "https://dc.lft.to/lastmile_qr_scan", "android": "https://dc.lft.to/lastmile_qr_scan"}}, {"name": "7333be76199c599d5356f406cfa8ce24", "lon": -77.0323065, "lat": 38.914039333333335, "type": "electric_scooter", "fusion_lon": 0.0, "is_reserved": 0, "bike_id": "7333be76199c599d5356f406cfa8ce24", "fusion_lat": 0.0, "is_disabled": 0, "rental_uris": {"ios": "https://dc.lft.to/lastmile_qr_scan", "android": "https://dc.lft.to/lastmile_qr_scan"}}, {"name": "241a74a71c33fe2cd797f5af2198aa7c", "lon": -76.98269633333334, "lat": 38.8853265, "type": "electric_scooter", "fusion_lon": 0.0, "is_reserved": 0, "bike_id": "241a74a71c33fe2cd797f5af2198aa7c", "fusion_lat": 0.0, "is_disabled": 0, "rental_uris": {"ios": "https://dc.lft.to/lastmile_qr_scan", "android": "https://dc.lft.to/lastmile_qr_scan"}}, {"name": "ba87e1962001aaa36e41857d0a4ad040", "lon": -77.017761, "lat": 38.88299116666666, "type": "electric_scooter", "fusion_lon": 0.0, "is_reserved": 0, "bike_id": "ba87e1962001aaa36e41857d0a4ad040", "fusion_lat": 0.0, "is_disabled": 0, "rental_uris": {"ios": "https://dc.lft.to/lastmile_qr_scan", "android": "https://dc.lft.to/lastmile_qr_scan"}}, {"name": "a44d13aee15f0c9ab9f211d91cb22ef6", "lon": -76.9871615, "lat": 38.866308833333335, "type": "electric_scooter", "fusion_lon": 0.0, "is_reserved": 0, "bike_id": "a44d13aee15f0c9ab9f211d91cb22ef6", "fusion_lat": 0.0, "is_disabled": 0, "rental_uris": {"ios": "https://dc.lft.to/lastmile_qr_scan", "android": "https://dc.lft.to/lastmile_qr_scan"}}, {"name": "0cc74bb0cb9e4ee3e26cc9d8b6144e77", "lon": -76.9826955, "lat": 38.9156605, "type": "electric_scooter", "fusion_lon": 0.0, "is_reserved": 0, "bike_id": "0cc74bb0cb9e4ee3e26cc9d8b6144e77", "fusion_lat": 0.0, "is_disabled": 0, "rental_uris": {"ios": "https://dc.lft.to/lastmile_qr_scan", "android": "https://dc.lft.to/lastmile_qr_scan"}}, {"name": "cc26bc334e7a4fc03c32bf7ad5e42f51", "lon": -77.0034975, "lat": 38.88707016666667, "type": "electric_scooter", "fusion_lon": 0.0, "is_reserved": 0, "bike_id": "cc26bc334e7a4fc03c32bf7ad5e42f51", "fusion_lat": 0.0, "is_disabled": 0, "rental_uris": {"ios": "https://dc.lft.to/lastmile_qr_scan", "android": "https://dc.lft.to/lastmile_qr_scan"}}, {"name": "697a763ba11fb91f78a5780d4f26053b", "lon": -76.95187116666666, "lat": 38.90741116666667, "type": "electric_scooter", "fusion_lon": 0.0, "is_reserved": 0, "bike_id": "697a763ba11fb91f78a5780d4f26053b", "fusion_lat": 0.0, "is_disabled": 0, "rental_uris": {"ios": "https://dc.lft.to/lastmile_qr_scan", "android": "https://dc.lft.to/lastmile_qr_scan"}}, {"name": "1e5e7e5a05dbe5aa80eafe3706e6209c", "lon": -77.03189466666667, "lat": 38.907848666666666, "type": "electric_scooter", "fusion_lon": 0.0, "is_reserved": 0, "bike_id": "1e5e7e5a05dbe5aa80eafe3706e6209c", "fusion_lat": 0.0, "is_disabled": 0, "rental_uris": {"ios": "https://dc.lft.to/lastmile_qr_scan", "android": "https://dc.lft.to/lastmile_qr_scan"}}, {"name": "2ded6d6bce331b1a347c5994786a267c", "lon": -77.08188866666667, "lat": 38.85567266666666, "type": "electric_bike", "fusion_lon": 0.0, "is_reserved": 0, "bike_id": "2ded6d6bce331b1a347c5994786a267c", "fusion_lat": 0.0, "is_disabled": 0, "rental_uris": {"ios": "https://dc.lft.to/lastmile_qr_scan", "android": "https://dc.lft.to/lastmile_qr_scan"}}, {"name": "251f4221a76229ea04067a1499cd7b51", "lon": -76.98968766666667, "lat": 38.85696683333333, "type": "electric_scooter", "fusion_lon": 0.0, "is_reserved": 0, "bike_id": "251f4221a76229ea04067a1499cd7b51", "fusion_lat": 0.0, "is_disabled": 0, "rental_uris": {"ios": "https://dc.lft.to/lastmile_qr_scan", "android": "https://dc.lft.to/lastmile_qr_scan"}}, {"name": "be58271d8d2a3cdbc8965711f1a1d9ac", "lon": -77.0512525, "lat": 38.9059285, "type": "electric_scooter", "fusion_lon": 0.0, "is_reserved": 0, "bike_id": "be58271d8d2a3cdbc8965711f1a1d9ac", "fusion_lat": 0.0, "is_disabled": 0, "rental_uris": {"ios": "https://dc.lft.to/lastmile_qr_scan", "android": "https://dc.lft.to/lastmile_qr_scan"}}, {"name": "f1d77c4211b3508fc0ebd8469250d410", "lon": -76.99606633333333, "lat": 38.88570716666667, "type": "electric_scooter", "fusion_lon": 0.0, "is_reserved": 0, "bike_id": "f1d77c4211b3508fc0ebd8469250d410", "fusion_lat": 0.0, "is_disabled": 0, "rental_uris": {"ios": "https://dc.lft.to/lastmile_qr_scan", "android": "https://dc.lft.to/lastmile_qr_scan"}}, {"name": "6d71ae64990c0aa6eb371dbe5040e584", "lon": -77.03589316666667, "lat": 38.9127315, "type": "electric_scooter", "fusion_lon": 0.0, "is_reserved": 0, "bike_id": "6d71ae64990c0aa6eb371dbe5040e584", "fusion_lat": 0.0, "is_disabled": 0, "rental_uris": {"ios": "https://dc.lft.to/lastmile_qr_scan", "android": "https://dc.lft.to/lastmile_qr_scan"}}, {"name": "93938edf5657e62032db80b7b548a3f9", "lon": -76.9981135, "lat": 38.90039083333333, "type": "electric_scooter", "fusion_lon": 0.0, "is_reserved": 0, "bike_id": "93938edf5657e62032db80b7b548a3f9", "fusion_lat": 0.0, "is_disabled": 0, "rental_uris": {"ios": "https://dc.lft.to/lastmile_qr_scan", "android": "https://dc.lft.to/lastmile_qr_scan"}}, {"name": "5b15c53a0ac0fbd2eda538df2b458d07", "lon": -77.0047105, "lat": 38.87662, "type": "electric_scooter", "fusion_lon": 0.0, "is_reserved": 0, "bike_id": "5b15c53a0ac0fbd2eda538df2b458d07", "fusion_lat": 0.0, "is_disabled": 0, "rental_uris": {"ios": "https://dc.lft.to/lastmile_qr_scan", "android": "https://dc.lft.to/lastmile_qr_scan"}}, {"name": "0c61b2b47bb7214110023139cd8a1f63", "lon": -77.02364766666666, "lat": 38.9251245, "type": "electric_scooter", "fusion_lon": 0.0, "is_reserved": 0, "bike_id": "0c61b2b47bb7214110023139cd8a1f63", "fusion_lat": 0.0, "is_disabled": 0, "rental_uris": {"ios": "https://dc.lft.to/lastmile_qr_scan", "android": "https://dc.lft.to/lastmile_qr_scan"}}, {"name": "95db92153d1400474817c93a8c5a3213", "lon": -77.071549, "lat": 38.90783483333333, "type": "electric_bike", "fusion_lon": 0.0, "is_reserved": 0, "bike_id": "95db92153d1400474817c93a8c5a3213", "fusion_lat": 0.0, "is_disabled": 0, "rental_uris": {"ios": "https://dc.lft.to/lastmile_qr_scan", "android": "https://dc.lft.to/lastmile_qr_scan"}}, {"name": "ca38f1656c0597a36e5ccfd62e5052e8", "lon": -77.02682133333333, "lat": 38.91266133333333, "type": "electric_scooter", "fusion_lon": 0.0, "is_reserved": 0, "bike_id": "ca38f1656c0597a36e5ccfd62e5052e8", "fusion_lat": 0.0, "is_disabled": 0, "rental_uris": {"ios": "https://dc.lft.to/lastmile_qr_scan", "android": "https://dc.lft.to/lastmile_qr_scan"}}, {"name": "0a72b144af9adadd450e739c1139fc83", "lon": -77.00395816666666, "lat": 38.9077795, "type": "electric_scooter", "fusion_lon": 0.0, "is_reserved": 0, "bike_id": "0a72b144af9adadd450e739c1139fc83", "fusion_lat": 0.0, "is_disabled": 0, "rental_uris": {"ios": "https://dc.lft.to/lastmile_qr_scan", "android": "https://dc.lft.to/lastmile_qr_scan"}}, {"name": "94dd03a0931f95f02727a01546bd5052", "lon": -77.03100133333334, "lat": 38.95073983333333, "type": "electric_scooter", "fusion_lon": 0.0, "is_reserved": 0, "bike_id": "94dd03a0931f95f02727a01546bd5052", "fusion_lat": 0.0, "is_disabled": 0, "rental_uris": {"ios": "https://dc.lft.to/lastmile_qr_scan", "android": "https://dc.lft.to/lastmile_qr_scan"}}, {"name": "bcc5bf6bd02748eee20307352e641339", "lon": -76.949331, "lat": 38.89350133333333, "type": "electric_scooter", "fusion_lon": 0.0, "is_reserved": 0, "bike_id": "bcc5bf6bd02748eee20307352e641339", "fusion_lat": 0.0, "is_disabled": 0, "rental_uris": {"ios": "https://dc.lft.to/lastmile_qr_scan", "android": "https://dc.lft.to/lastmile_qr_scan"}}, {"name": "a2c735312c4f46558796969387cfe48a", "lon": -76.99843633333333, "lat": 38.884763166666666, "type": "electric_scooter", "fusion_lon": 0.0, "is_reserved": 0, "bike_id": "a2c735312c4f46558796969387cfe48a", "fusion_lat": 0.0, "is_disabled": 0, "rental_uris": {"ios": "https://dc.lft.to/lastmile_qr_scan", "android": "https://dc.lft.to/lastmile_qr_scan"}}, {"name": "576b8fca993e7d3f352fa7b5d237683e", "lon": -77.021772, "lat": 38.91107216666666, "type": "electric_scooter", "fusion_lon": 0.0, "is_reserved": 0, "bike_id": "576b8fca993e7d3f352fa7b5d237683e", "fusion_lat": 0.0, "is_disabled": 0, "rental_uris": {"ios": "https://dc.lft.to/lastmile_qr_scan", "android": "https://dc.lft.to/lastmile_qr_scan"}}, {"name": "7ddfc9421d9a85174b55ce8570fcb270", "lon": -76.99777133333333, "lat": 38.86211766666667, "type": "electric_bike", "fusion_lon": 0.0, "is_reserved": 0, "bike_id": "7ddfc9421d9a85174b55ce8570fcb270", "fusion_lat": 0.0, "is_disabled": 0, "rental_uris": {"ios": "https://dc.lft.to/lastmile_qr_scan", "android": "https://dc.lft.to/lastmile_qr_scan"}}, {"name": "0a4afafb226b522aa5af8517b0b1478c", "lon": -77.04752933333333, "lat": 38.90063716666667, "type": "electric_scooter", "fusion_lon": 0.0, "is_reserved": 0, "bike_id": "0a4afafb226b522aa5af8517b0b1478c", "fusion_lat": 0.0, "is_disabled": 0, "rental_uris": {"ios": "https://dc.lft.to/lastmile_qr_scan", "android": "https://dc.lft.to/lastmile_qr_scan"}}, {"name": "ee5044c21fc85fd32be25afd4e07bd3a", "lon": -77.03478733333333, "lat": 38.906097333333335, "type": "electric_scooter", "fusion_lon": 0.0, "is_reserved": 0, "bike_id": "ee5044c21fc85fd32be25afd4e07bd3a", "fusion_lat": 0.0, "is_disabled": 0, "rental_uris": {"ios": "https://dc.lft.to/lastmile_qr_scan", "android": "https://dc.lft.to/lastmile_qr_scan"}}, {"name": "c208a40d625ba4715690c66821aaaaeb", "lon": -77.02727583333333, "lat": 38.904931, "type": "electric_scooter", "fusion_lon": 0.0, "is_reserved": 0, "bike_id": "c208a40d625ba4715690c66821aaaaeb", "fusion_lat": 0.0, "is_disabled": 0, "rental_uris": {"ios": "https://dc.lft.to/lastmile_qr_scan", "android": "https://dc.lft.to/lastmile_qr_scan"}}, {"name": "423b3290d4bdf949eb08039ebaadafa2", "lon": -76.96910133333333, "lat": 38.84612533333333, "type": "electric_bike", "fusion_lon": 0.0, "is_reserved": 0, "bike_id": "423b3290d4bdf949eb08039ebaadafa2", "fusion_lat": 0.0, "is_disabled": 0, "rental_uris": {"ios": "https://dc.lft.to/lastmile_qr_scan", "android": "https://dc.lft.to/lastmile_qr_scan"}}, {"name": "aff740af787f845a6ee8b69f4d99be7c", "lon": -77.02562633333334, "lat": 38.92130383333333, "type": "electric_scooter", "fusion_lon": 0.0, "is_reserved": 0, "bike_id": "aff740af787f845a6ee8b69f4d99be7c", "fusion_lat": 0.0, "is_disabled": 0, "rental_uris": {"ios": "https://dc.lft.to/lastmile_qr_scan", "android": "https://dc.lft.to/lastmile_qr_scan"}}, {"name": "37ad0f6640e51b179b02c50134489064", "lon": -77.04485866666667, "lat": 38.84289716666667, "type": "electric_bike", "fusion_lon": 0.0, "is_reserved": 0, "bike_id": "37ad0f6640e51b179b02c50134489064", "fusion_lat": 0.0, "is_disabled": 0, "rental_uris": {"ios": "https://dc.lft.to/lastmile_qr_scan", "android": "https://dc.lft.to/lastmile_qr_scan"}}, {"name": "793f3228c270321d7fccea50ea9e3265", "lon": -76.93362566666667, "lat": 38.89918, "type": "electric_scooter", "fusion_lon": 0.0, "is_reserved": 0, "bike_id": "793f3228c270321d7fccea50ea9e3265", "fusion_lat": 0.0, "is_disabled": 0, "rental_uris": {"ios": "https://dc.lft.to/lastmile_qr_scan", "android": "https://dc.lft.to/lastmile_qr_scan"}}, {"name": "a900a62a490959eddc1c23e3c090685c", "lon": -77.08399583333333, "lat": 38.90806383333333, "type": "electric_scooter", "fusion_lon": 0.0, "is_reserved": 0, "bike_id": "a900a62a490959eddc1c23e3c090685c", "fusion_lat": 0.0, "is_disabled": 0, "rental_uris": {"ios": "https://dc.lft.to/lastmile_qr_scan", "android": "https://dc.lft.to/lastmile_qr_scan"}}, {"name": "b00e025ef0259328834eabf38d79a4c5", "lon": -77.04197833333333, "lat": 38.90745316666667, "type": "electric_scooter", "fusion_lon": 0.0, "is_reserved": 0, "bike_id": "b00e025ef0259328834eabf38d79a4c5", "fusion_lat": 0.0, "is_disabled": 0, "rental_uris": {"ios": "https://dc.lft.to/lastmile_qr_scan", "android": "https://dc.lft.to/lastmile_qr_scan"}}, {"name": "1263f171e2f5878d3c8df65284b83e62", "lon": -77.04653033333334, "lat": 39.0549865, "type": "electric_bike", "fusion_lon": 0.0, "is_reserved": 0, "bike_id": "1263f171e2f5878d3c8df65284b83e62", "fusion_lat": 0.0, "is_disabled": 0, "rental_uris": {"ios": "https://dc.lft.to/lastmile_qr_scan", "android": "https://dc.lft.to/lastmile_qr_scan"}}, {"name": "a3bcf09848c30533ca19b215ff2056ca", "lon": -77.02053316666667, "lat": 38.92352416666667, "type": "electric_scooter", "fusion_lon": 0.0, "is_reserved": 0, "bike_id": "a3bcf09848c30533ca19b215ff2056ca", "fusion_lat": 0.0, "is_disabled": 0, "rental_uris": {"ios": "https://dc.lft.to/lastmile_qr_scan", "android": "https://dc.lft.to/lastmile_qr_scan"}}, {"name": "421643b59d9e6347f16a237dae8be5fa", "lon": -77.01757633333334, "lat": 38.87693516666667, "type": "electric_scooter", "fusion_lon": 0.0, "is_reserved": 0, "bike_id": "421643b59d9e6347f16a237dae8be5fa", "fusion_lat": 0.0, "is_disabled": 0, "rental_uris": {"ios": "https://dc.lft.to/lastmile_qr_scan", "android": "https://dc.lft.to/lastmile_qr_scan"}}, {"name": "d10ae00c69454cedc83ae77386630147", "lon": -76.88403066666666, "lat": 38.931673833333335, "type": "electric_bike", "fusion_lon": 0.0, "is_reserved": 0, "bike_id": "d10ae00c69454cedc83ae77386630147", "fusion_lat": 0.0, "is_disabled": 0, "rental_uris": {"ios": "https://dc.lft.to/lastmile_qr_scan", "android": "https://dc.lft.to/lastmile_qr_scan"}}, {"name": "bf107e2bd3274377df1b31f2fef7c48b", "lon": -76.95657933333334, "lat": 38.896103, "type": "electric_scooter", "fusion_lon": 0.0, "is_reserved": 0, "bike_id": "bf107e2bd3274377df1b31f2fef7c48b", "fusion_lat": 0.0, "is_disabled": 0, "rental_uris": {"ios": "https://dc.lft.to/lastmile_qr_scan", "android": "https://dc.lft.to/lastmile_qr_scan"}}, {"name": "cee86db2edfe764205df13bb3f04bfe8", "lon": -77.01692833333334, "lat": 38.974984666666664, "type": "electric_scooter", "fusion_lon": 0.0, "is_reserved": 0, "bike_id": "cee86db2edfe764205df13bb3f04bfe8", "fusion_lat": 0.0, "is_disabled": 0, "rental_uris": {"ios": "https://dc.lft.to/lastmile_qr_scan", "android": "https://dc.lft.to/lastmile_qr_scan"}}, {"name": "0787eac5e0c9c66a2763a78f725f23b6", "lon": -76.97353033333333, "lat": 38.84960816666667, "type": "electric_scooter", "fusion_lon": 0.0, "is_reserved": 0, "bike_id": "0787eac5e0c9c66a2763a78f725f23b6", "fusion_lat": 0.0, "is_disabled": 0, "rental_uris": {"ios": "https://dc.lft.to/lastmile_qr_scan", "android": "https://dc.lft.to/lastmile_qr_scan"}}, {"name": "ca7c9a46c177ef0dd736e142b6af65d9", "lon": -76.96837983333333, "lat": 38.943230666666665, "type": "electric_bike", "fusion_lon": 0.0, "is_reserved": 0, "bike_id": "ca7c9a46c177ef0dd736e142b6af65d9", "fusion_lat": 0.0, "is_disabled": 0, "rental_uris": {"ios": "https://dc.lft.to/lastmile_qr_scan", "android": "https://dc.lft.to/lastmile_qr_scan"}}, {"name": "cdd0c4e25680d50882ef66eb817726e9", "lon": -77.04642166666666, "lat": 38.90383666666666, "type": "electric_scooter", "fusion_lon": 0.0, "is_reserved": 0, "bike_id": "cdd0c4e25680d50882ef66eb817726e9", "fusion_lat": 0.0, "is_disabled": 0, "rental_uris": {"ios": "https://dc.lft.to/lastmile_qr_scan", "android": "https://dc.lft.to/lastmile_qr_scan"}}, {"name": "134064028feae64bf4c2a84dddffe868", "lon": -77.04729416666666, "lat": 38.91338833333333, "type": "electric_scooter", "fusion_lon": 0.0, "is_reserved": 0, "bike_id": "134064028feae64bf4c2a84dddffe868", "fusion_lat": 0.0, "is_disabled": 0, "rental_uris": {"ios": "https://dc.lft.to/lastmile_qr_scan", "android": "https://dc.lft.to/lastmile_qr_scan"}}, {"name": "1bb4052783f4d93739413d7c0e43bedf", "lon": -77.0254985, "lat": 38.94226033333333, "type": "electric_scooter", "fusion_lon": 0.0, "is_reserved": 0, "bike_id": "1bb4052783f4d93739413d7c0e43bedf", "fusion_lat": 0.0, "is_disabled": 0, "rental_uris": {"ios": "https://dc.lft.to/lastmile_qr_scan", "android": "https://dc.lft.to/lastmile_qr_scan"}}, {"name": "d3284aeb4a90e7efd59908670729987d", "lon": -77.04304466666666, "lat": 38.923291, "type": "electric_scooter", "fusion_lon": 0.0, "is_reserved": 0, "bike_id": "d3284aeb4a90e7efd59908670729987d", "fusion_lat": 0.0, "is_disabled": 0, "rental_uris": {"ios": "https://dc.lft.to/lastmile_qr_scan", "android": "https://dc.lft.to/lastmile_qr_scan"}}, {"name": "aa1c8089bf2763a910cc90a24bee4668", "lon": -77.06079316666667, "lat": 38.8858325, "type": "electric_bike", "fusion_lon": 0.0, "is_reserved": 0, "bike_id": "aa1c8089bf2763a910cc90a24bee4668", "fusion_lat": 0.0, "is_disabled": 0, "rental_uris": {"ios": "https://dc.lft.to/lastmile_qr_scan", "android": "https://dc.lft.to/lastmile_qr_scan"}}, {"name": "07f3fc7e0f318a4418481cdc95f7ea2f", "lon": -77.02431866666667, "lat": 38.937186, "type": "electric_scooter", "fusion_lon": 0.0, "is_reserved": 0, "bike_id": "07f3fc7e0f318a4418481cdc95f7ea2f", "fusion_lat": 0.0, "is_disabled": 0, "rental_uris": {"ios": "https://dc.lft.to/lastmile_qr_scan", "android": "https://dc.lft.to/lastmile_qr_scan"}}, {"name": "5f022b4e37115e18e67929f5ac66d69c", "lon": -77.13106583333334, "lat": 39.024352, "type": "electric_bike", "fusion_lon": 0.0, "is_reserved": 0, "bike_id": "5f022b4e37115e18e67929f5ac66d69c", "fusion_lat": 0.0, "is_disabled": 0, "rental_uris": {"ios": "https://dc.lft.to/lastmile_qr_scan", "android": "https://dc.lft.to/lastmile_qr_scan"}}, {"name": "365d9698a9d95c21a391f01306742cc4", "lon": -77.0007285, "lat": 38.90144183333334, "type": "electric_scooter", "fusion_lon": 0.0, "is_reserved": 0, "bike_id": "365d9698a9d95c21a391f01306742cc4", "fusion_lat": 0.0, "is_disabled": 0, "rental_uris": {"ios": "https://dc.lft.to/lastmile_qr_scan", "android": "https://dc.lft.to/lastmile_qr_scan"}}, {"name": "e359c7fc7cd2088ac8c2dedd62217fd7", "lon": -77.01389116666667, "lat": 38.88733533333333, "type": "electric_scooter", "fusion_lon": 0.0, "is_reserved": 0, "bike_id": "e359c7fc7cd2088ac8c2dedd62217fd7", "fusion_lat": 0.0, "is_disabled": 0, "rental_uris": {"ios": "https://dc.lft.to/lastmile_qr_scan", "android": "https://dc.lft.to/lastmile_qr_scan"}}, {"name": "9dace92ae04708d6b03bc2d2edd2ea99", "lon": -77.02510866666667, "lat": 38.9193225, "type": "electric_scooter", "fusion_lon": 0.0, "is_reserved": 0, "bike_id": "9dace92ae04708d6b03bc2d2edd2ea99", "fusion_lat": 0.0, "is_disabled": 0, "rental_uris": {"ios": "https://dc.lft.to/lastmile_qr_scan", "android": "https://dc.lft.to/lastmile_qr_scan"}}, {"name": "91aa051f778df453b4dfefb3b74ec3c8", "lon": -77.0288275, "lat": 38.90128383333333, "type": "electric_scooter", "fusion_lon": 0.0, "is_reserved": 0, "bike_id": "91aa051f778df453b4dfefb3b74ec3c8", "fusion_lat": 0.0, "is_disabled": 0, "rental_uris": {"ios": "https://dc.lft.to/lastmile_qr_scan", "android": "https://dc.lft.to/lastmile_qr_scan"}}, {"name": "2f60eb2fd8bd925f3d89eaeb97b273de", "lon": -77.09600366666666, "lat": 39.028865833333334, "type": "electric_bike", "fusion_lon": 0.0, "is_reserved": 0, "bike_id": "2f60eb2fd8bd925f3d89eaeb97b273de", "fusion_lat": 0.0, "is_disabled": 0, "rental_uris": {"ios": "https://dc.lft.to/lastmile_qr_scan", "android": "https://dc.lft.to/lastmile_qr_scan"}}, {"name": "34b20c19d19ec216174340c3c11a20f9", "lon": -76.997472, "lat": 38.90023166666667, "type": "electric_scooter", "fusion_lon": 0.0, "is_reserved": 0, "bike_id": "34b20c19d19ec216174340c3c11a20f9", "fusion_lat": 0.0, "is_disabled": 0, "rental_uris": {"ios": "https://dc.lft.to/lastmile_qr_scan", "android": "https://dc.lft.to/lastmile_qr_scan"}}, {"name": "6a1f53c20cf9ecc9f8601321b3fcbd5f", "lon": -76.99508233333333, "lat": 38.882616166666665, "type": "electric_scooter", "fusion_lon": 0.0, "is_reserved": 0, "bike_id": "6a1f53c20cf9ecc9f8601321b3fcbd5f", "fusion_lat": 0.0, "is_disabled": 0, "rental_uris": {"ios": "https://dc.lft.to/lastmile_qr_scan", "android": "https://dc.lft.to/lastmile_qr_scan"}}, {"name": "5eaae26442910e365603689111ddc777", "lon": -77.04214516666667, "lat": 38.921464666666665, "type": "electric_scooter", "fusion_lon": 0.0, "is_reserved": 0, "bike_id": "5eaae26442910e365603689111ddc777", "fusion_lat": 0.0, "is_disabled": 0, "rental_uris": {"ios": "https://dc.lft.to/lastmile_qr_scan", "android": "https://dc.lft.to/lastmile_qr_scan"}}, {"name": "5614034df3a5f3a461aac031ce8f00d8", "lon": -77.03264183333333, "lat": 38.9275875, "type": "electric_scooter", "fusion_lon": 0.0, "is_reserved": 0, "bike_id": "5614034df3a5f3a461aac031ce8f00d8", "fusion_lat": 0.0, "is_disabled": 0, "rental_uris": {"ios": "https://dc.lft.to/lastmile_qr_scan", "android": "https://dc.lft.to/lastmile_qr_scan"}}, {"name": "9897eb6dec6a0415af655fdcaacb1d3a", "lon": -76.993071, "lat": 38.90003333333333, "type": "electric_scooter", "fusion_lon": 0.0, "is_reserved": 0, "bike_id": "9897eb6dec6a0415af655fdcaacb1d3a", "fusion_lat": 0.0, "is_disabled": 0, "rental_uris": {"ios": "https://dc.lft.to/lastmile_qr_scan", "android": "https://dc.lft.to/lastmile_qr_scan"}}, {"name": "faecb13afdec5f0dfcd64ed5a817b85a", "lon": -76.93759766666666, "lat": 38.89047216666667, "type": "electric_scooter", "fusion_lon": 0.0, "is_reserved": 0, "bike_id": "faecb13afdec5f0dfcd64ed5a817b85a", "fusion_lat": 0.0, "is_disabled": 0, "rental_uris": {"ios": "https://dc.lft.to/lastmile_qr_scan", "android": "https://dc.lft.to/lastmile_qr_scan"}}, {"name": "6eaadba67417537983dcb8b673294f7e", "lon": -77.02944633333334, "lat": 38.920750166666664, "type": "electric_scooter", "fusion_lon": 0.0, "is_reserved": 0, "bike_id": "6eaadba67417537983dcb8b673294f7e", "fusion_lat": 0.0, "is_disabled": 0, "rental_uris": {"ios": "https://dc.lft.to/lastmile_qr_scan", "android": "https://dc.lft.to/lastmile_qr_scan"}}, {"name": "ca9a8437c2cc13ea8b4b64fb1e8833a5", "lon": -76.948029, "lat": 38.8619315, "type": "electric_bike", "fusion_lon": 0.0, "is_reserved": 0, "bike_id": "ca9a8437c2cc13ea8b4b64fb1e8833a5", "fusion_lat": 0.0, "is_disabled": 0, "rental_uris": {"ios": "https://dc.lft.to/lastmile_qr_scan", "android": "https://dc.lft.to/lastmile_qr_scan"}}, {"name": "3282fbc6d161d49f551eb9c0eae3d148", "lon": -77.00338333333333, "lat": 38.88986516666667, "type": "electric_scooter", "fusion_lon": 0.0, "is_reserved": 0, "bike_id": "3282fbc6d161d49f551eb9c0eae3d148", "fusion_lat": 0.0, "is_disabled": 0, "rental_uris": {"ios": "https://dc.lft.to/lastmile_qr_scan", "android": "https://dc.lft.to/lastmile_qr_scan"}}, {"name": "c4dd6102da07372bd17417aa1bb1261c", "lon": -77.03125066666666, "lat": 38.915625166666665, "type": "electric_scooter", "fusion_lon": 0.0, "is_reserved": 0, "bike_id": "c4dd6102da07372bd17417aa1bb1261c", "fusion_lat": 0.0, "is_disabled": 0, "rental_uris": {"ios": "https://dc.lft.to/lastmile_qr_scan", "android": "https://dc.lft.to/lastmile_qr_scan"}}, {"name": "45027219f4fddd0842fa961516528b56", "lon": -77.021977, "lat": 38.91040533333333, "type": "electric_scooter", "fusion_lon": 0.0, "is_reserved": 0, "bike_id": "45027219f4fddd0842fa961516528b56", "fusion_lat": 0.0, "is_disabled": 0, "rental_uris": {"ios": "https://dc.lft.to/lastmile_qr_scan", "android": "https://dc.lft.to/lastmile_qr_scan"}}, {"name": "8b4a555773bf3d70646fe96a01af4d7f", "lon": -77.017596, "lat": 38.87692216666667, "type": "electric_scooter", "fusion_lon": 0.0, "is_reserved": 0, "bike_id": "8b4a555773bf3d70646fe96a01af4d7f", "fusion_lat": 0.0, "is_disabled": 0, "rental_uris": {"ios": "https://dc.lft.to/lastmile_qr_scan", "android": "https://dc.lft.to/lastmile_qr_scan"}}, {"name": "0fdd3bede0c5efc0e3c814c12f5be369", "lon": -77.046932, "lat": 38.91576883333333, "type": "electric_scooter", "fusion_lon": 0.0, "is_reserved": 0, "bike_id": "0fdd3bede0c5efc0e3c814c12f5be369", "fusion_lat": 0.0, "is_disabled": 0, "rental_uris": {"ios": "https://dc.lft.to/lastmile_qr_scan", "android": "https://dc.lft.to/lastmile_qr_scan"}}, {"name": "4cd432977936e26eb19ca56f3387acf7", "lon": -77.01151416666667, "lat": 38.896472333333335, "type": "electric_scooter", "fusion_lon": 0.0, "is_reserved": 0, "bike_id": "4cd432977936e26eb19ca56f3387acf7", "fusion_lat": 0.0, "is_disabled": 0, "rental_uris": {"ios": "https://dc.lft.to/lastmile_qr_scan", "android": "https://dc.lft.to/lastmile_qr_scan"}}, {"name": "80161b59855046333ad87ab6750727a7", "lon": -77.03439433333334, "lat": 38.90254766666666, "type": "electric_scooter", "fusion_lon": 0.0, "is_reserved": 0, "bike_id": "80161b59855046333ad87ab6750727a7", "fusion_lat": 0.0, "is_disabled": 0, "rental_uris": {"ios": "https://dc.lft.to/lastmile_qr_scan", "android": "https://dc.lft.to/lastmile_qr_scan"}}, {"name": "e5c81ba33d8ab66bd85c5fcb7bef5cf7", "lon": -77.04714466666667, "lat": 38.9220545, "type": "electric_scooter", "fusion_lon": 0.0, "is_reserved": 0, "bike_id": "e5c81ba33d8ab66bd85c5fcb7bef5cf7", "fusion_lat": 0.0, "is_disabled": 0, "rental_uris": {"ios": "https://dc.lft.to/lastmile_qr_scan", "android": "https://dc.lft.to/lastmile_qr_scan"}}, {"name": "64b5ac1e7b3128ae4fb747505d4ec368", "lon": -77.0196695, "lat": 38.898992666666665, "type": "electric_scooter", "fusion_lon": 0.0, "is_reserved": 0, "bike_id": "64b5ac1e7b3128ae4fb747505d4ec368", "fusion_lat": 0.0, "is_disabled": 0, "rental_uris": {"ios": "https://dc.lft.to/lastmile_qr_scan", "android": "https://dc.lft.to/lastmile_qr_scan"}}, {"name": "df74845bceae05f78a99432d1c09e596", "lon": -76.99519283333333, "lat": 38.8960905, "type": "electric_scooter", "fusion_lon": 0.0, "is_reserved": 0, "bike_id": "df74845bceae05f78a99432d1c09e596", "fusion_lat": 0.0, "is_disabled": 0, "rental_uris": {"ios": "https://dc.lft.to/lastmile_qr_scan", "android": "https://dc.lft.to/lastmile_qr_scan"}}, {"name": "b415c5fac05b77bb3ca91dea7ed01cfa", "lon": -77.03546666666666, "lat": 38.907773666666664, "type": "electric_scooter", "fusion_lon": 0.0, "is_reserved": 0, "bike_id": "b415c5fac05b77bb3ca91dea7ed01cfa", "fusion_lat": 0.0, "is_disabled": 0, "rental_uris": {"ios": "https://dc.lft.to/lastmile_qr_scan", "android": "https://dc.lft.to/lastmile_qr_scan"}}, {"name": "dff0d0a5e7c374daeceb82d4754fc1b1", "lon": -77.094682, "lat": 38.886204, "type": "electric_bike", "fusion_lon": 0.0, "is_reserved": 0, "bike_id": "dff0d0a5e7c374daeceb82d4754fc1b1", "fusion_lat": 0.0, "is_disabled": 0, "rental_uris": {"ios": "https://dc.lft.to/lastmile_qr_scan", "android": "https://dc.lft.to/lastmile_qr_scan"}}, {"name": "dffd3b9083b98356bba1136ca92d50ba", "lon": -76.99552466666667, "lat": 38.86261416666667, "type": "electric_scooter", "fusion_lon": 0.0, "is_reserved": 0, "bike_id": "dffd3b9083b98356bba1136ca92d50ba", "fusion_lat": 0.0, "is_disabled": 0, "rental_uris": {"ios": "https://dc.lft.to/lastmile_qr_scan", "android": "https://dc.lft.to/lastmile_qr_scan"}}, {"name": "8b24c78bddc7d6e31e51615e23d91ce0", "lon": -77.03494016666667, "lat": 38.932752666666666, "type": "electric_scooter", "fusion_lon": 0.0, "is_reserved": 0, "bike_id": "8b24c78bddc7d6e31e51615e23d91ce0", "fusion_lat": 0.0, "is_disabled": 0, "rental_uris": {"ios": "https://dc.lft.to/lastmile_qr_scan", "android": "https://dc.lft.to/lastmile_qr_scan"}}, {"name": "bc6a0f272f5bef587989aada3b912e63", "lon": -76.99342883333334, "lat": 38.900095666666665, "type": "electric_scooter", "fusion_lon": 0.0, "is_reserved": 0, "bike_id": "bc6a0f272f5bef587989aada3b912e63", "fusion_lat": 0.0, "is_disabled": 0, "rental_uris": {"ios": "https://dc.lft.to/lastmile_qr_scan", "android": "https://dc.lft.to/lastmile_qr_scan"}}, {"name": "19d6364c20b37cf3d5bf5d5b6eb45514", "lon": -77.03916633333333, "lat": 38.906492, "type": "electric_scooter", "fusion_lon": 0.0, "is_reserved": 0, "bike_id": "19d6364c20b37cf3d5bf5d5b6eb45514", "fusion_lat": 0.0, "is_disabled": 0, "rental_uris": {"ios": "https://dc.lft.to/lastmile_qr_scan", "android": "https://dc.lft.to/lastmile_qr_scan"}}, {"name": "4c5db6d2f872afcf1de772b1ad01f037", "lon": -76.99554916666666, "lat": 38.926635833333336, "type": "electric_scooter", "fusion_lon": 0.0, "is_reserved": 0, "bike_id": "4c5db6d2f872afcf1de772b1ad01f037", "fusion_lat": 0.0, "is_disabled": 0, "rental_uris": {"ios": "https://dc.lft.to/lastmile_qr_scan", "android": "https://dc.lft.to/lastmile_qr_scan"}}, {"name": "9738ef1c17a0bcdb0e1ffa0f1f02ba1e", "lon": -77.042574, "lat": 38.9094835, "type": "electric_scooter", "fusion_lon": 0.0, "is_reserved": 0, "bike_id": "9738ef1c17a0bcdb0e1ffa0f1f02ba1e", "fusion_lat": 0.0, "is_disabled": 0, "rental_uris": {"ios": "https://dc.lft.to/lastmile_qr_scan", "android": "https://dc.lft.to/lastmile_qr_scan"}}, {"name": "e529f23c90039f67e96ac86f450e68cf", "lon": -77.04699383333333, "lat": 38.91571483333333, "type": "electric_scooter", "fusion_lon": 0.0, "is_reserved": 0, "bike_id": "e529f23c90039f67e96ac86f450e68cf", "fusion_lat": 0.0, "is_disabled": 0, "rental_uris": {"ios": "https://dc.lft.to/lastmile_qr_scan", "android": "https://dc.lft.to/lastmile_qr_scan"}}, {"name": "5fb1e1a4ac8701913a07982a1dd70faf", "lon": -77.02203666666666, "lat": 38.91495716666667, "type": "electric_scooter", "fusion_lon": 0.0, "is_reserved": 0, "bike_id": "5fb1e1a4ac8701913a07982a1dd70faf", "fusion_lat": 0.0, "is_disabled": 0, "rental_uris": {"ios": "https://dc.lft.to/lastmile_qr_scan", "android": "https://dc.lft.to/lastmile_qr_scan"}}, {"name": "cf3152e6960f29748759ed53747ebc42", "lon": -77.03137583333333, "lat": 38.90385066666666, "type": "electric_scooter", "fusion_lon": 0.0, "is_reserved": 0, "bike_id": "cf3152e6960f29748759ed53747ebc42", "fusion_lat": 0.0, "is_disabled": 0, "rental_uris": {"ios": "https://dc.lft.to/lastmile_qr_scan", "android": "https://dc.lft.to/lastmile_qr_scan"}}, {"name": "383d08cfbf1b80260bfd8e92671fd795", "lon": -76.9809265, "lat": 38.9535745, "type": "electric_bike", "fusion_lon": 0.0, "is_reserved": 0, "bike_id": "383d08cfbf1b80260bfd8e92671fd795", "fusion_lat": 0.0, "is_disabled": 0, "rental_uris": {"ios": "https://dc.lft.to/lastmile_qr_scan", "android": "https://dc.lft.to/lastmile_qr_scan"}}, {"name": "79554fc428dd218e7842e7a282b90e93", "lon": -77.02322683333334, "lat": 38.90731733333333, "type": "electric_scooter", "fusion_lon": 0.0, "is_reserved": 0, "bike_id": "79554fc428dd218e7842e7a282b90e93", "fusion_lat": 0.0, "is_disabled": 0, "rental_uris": {"ios": "https://dc.lft.to/lastmile_qr_scan", "android": "https://dc.lft.to/lastmile_qr_scan"}}, {"name": "fbdea0c4b2c204377cfd32cd8b5181ab", "lon": -77.02552516666667, "lat": 38.94225016666667, "type": "electric_scooter", "fusion_lon": 0.0, "is_reserved": 0, "bike_id": "fbdea0c4b2c204377cfd32cd8b5181ab", "fusion_lat": 0.0, "is_disabled": 0, "rental_uris": {"ios": "https://dc.lft.to/lastmile_qr_scan", "android": "https://dc.lft.to/lastmile_qr_scan"}}, {"name": "bb40350547eb40c635f18468d502622b", "lon": -77.048568, "lat": 38.8983715, "type": "electric_scooter", "fusion_lon": 0.0, "is_reserved": 0, "bike_id": "bb40350547eb40c635f18468d502622b", "fusion_lat": 0.0, "is_disabled": 0, "rental_uris": {"ios": "https://dc.lft.to/lastmile_qr_scan", "android": "https://dc.lft.to/lastmile_qr_scan"}}, {"name": "eaae1a941ab0e73442b8d81d3097a9be", "lon": -77.0334745, "lat": 38.91711, "type": "electric_scooter", "fusion_lon": 0.0, "is_reserved": 0, "bike_id": "eaae1a941ab0e73442b8d81d3097a9be", "fusion_lat": 0.0, "is_disabled": 0, "rental_uris": {"ios": "https://dc.lft.to/lastmile_qr_scan", "android": "https://dc.lft.to/lastmile_qr_scan"}}, {"name": "57941fbaad9a7159f72de894bee467f9", "lon": -77.098021, "lat": 38.850290666666666, "type": "electric_bike", "fusion_lon": 0.0, "is_reserved": 0, "bike_id": "57941fbaad9a7159f72de894bee467f9", "fusion_lat": 0.0, "is_disabled": 0, "rental_uris": {"ios": "https://dc.lft.to/lastmile_qr_scan", "android": "https://dc.lft.to/lastmile_qr_scan"}}, {"name": "d7ffe6864a7d46d263bc4e9bd5987768", "lon": -76.93129666666667, "lat": 38.87630583333333, "type": "electric_scooter", "fusion_lon": 0.0, "is_reserved": 0, "bike_id": "d7ffe6864a7d46d263bc4e9bd5987768", "fusion_lat": 0.0, "is_disabled": 0, "rental_uris": {"ios": "https://dc.lft.to/lastmile_qr_scan", "android": "https://dc.lft.to/lastmile_qr_scan"}}, {"name": "eb7287a4a0c3e7265506a5a03e05d0f8", "lon": -77.02616533333334, "lat": 38.89687416666666, "type": "electric_scooter", "fusion_lon": 0.0, "is_reserved": 0, "bike_id": "eb7287a4a0c3e7265506a5a03e05d0f8", "fusion_lat": 0.0, "is_disabled": 0, "rental_uris": {"ios": "https://dc.lft.to/lastmile_qr_scan", "android": "https://dc.lft.to/lastmile_qr_scan"}}, {"name": "42cff7c3d2b5eb28daef151ed8a1c12a", "lon": -77.100925, "lat": 38.959573166666665, "type": "electric_bike", "fusion_lon": 0.0, "is_reserved": 0, "bike_id": "42cff7c3d2b5eb28daef151ed8a1c12a", "fusion_lat": 0.0, "is_disabled": 0, "rental_uris": {"ios": "https://dc.lft.to/lastmile_qr_scan", "android": "https://dc.lft.to/lastmile_qr_scan"}}, {"name": "a590d223261e8d1e9bc32b38c10e2e3f", "lon": -77.02263016666667, "lat": 38.894666666666666, "type": "electric_scooter", "fusion_lon": 0.0, "is_reserved": 0, "bike_id": "a590d223261e8d1e9bc32b38c10e2e3f", "fusion_lat": 0.0, "is_disabled": 0, "rental_uris": {"ios": "https://dc.lft.to/lastmile_qr_scan", "android": "https://dc.lft.to/lastmile_qr_scan"}}, {"name": "ca40dc2423ff9c89632f5d9c99363ae1", "lon": -77.021622, "lat": 38.92613816666667, "type": "electric_scooter", "fusion_lon": 0.0, "is_reserved": 0, "bike_id": "ca40dc2423ff9c89632f5d9c99363ae1", "fusion_lat": 0.0, "is_disabled": 0, "rental_uris": {"ios": "https://dc.lft.to/lastmile_qr_scan", "android": "https://dc.lft.to/lastmile_qr_scan"}}, {"name": "93bc3b2c72b457d04702d967ca495121", "lon": -77.01643983333334, "lat": 38.881087666666666, "type": "electric_scooter", "fusion_lon": 0.0, "is_reserved": 0, "bike_id": "93bc3b2c72b457d04702d967ca495121", "fusion_lat": 0.0, "is_disabled": 0, "rental_uris": {"ios": "https://dc.lft.to/lastmile_qr_scan", "android": "https://dc.lft.to/lastmile_qr_scan"}}, {"name": "db5478d2f35d7db4737116d6d0869430", "lon": -77.02722283333334, "lat": 38.9408685, "type": "electric_scooter", "fusion_lon": 0.0, "is_reserved": 0, "bike_id": "db5478d2f35d7db4737116d6d0869430", "fusion_lat": 0.0, "is_disabled": 0, "rental_uris": {"ios": "https://dc.lft.to/lastmile_qr_scan", "android": "https://dc.lft.to/lastmile_qr_scan"}}, {"name": "f15f88e68d257c6ae3b0e7dba61aad25", "lon": -77.03413333333333, "lat": 38.9204335, "type": "electric_scooter", "fusion_lon": 0.0, "is_reserved": 0, "bike_id": "f15f88e68d257c6ae3b0e7dba61aad25", "fusion_lat": 0.0, "is_disabled": 0, "rental_uris": {"ios": "https://dc.lft.to/lastmile_qr_scan", "android": "https://dc.lft.to/lastmile_qr_scan"}}, {"name": "28309af682d74c15fb8b5e9f4451ce4f", "lon": -77.037889, "lat": 38.924802666666665, "type": "electric_scooter", "fusion_lon": 0.0, "is_reserved": 0, "bike_id": "28309af682d74c15fb8b5e9f4451ce4f", "fusion_lat": 0.0, "is_disabled": 0, "rental_uris": {"ios": "https://dc.lft.to/lastmile_qr_scan", "android": "https://dc.lft.to/lastmile_qr_scan"}}, {"name": "d5d8b02eba06d29b58a755a2e366225b", "lon": -76.99716666666667, "lat": 38.9003145, "type": "electric_scooter", "fusion_lon": 0.0, "is_reserved": 0, "bike_id": "d5d8b02eba06d29b58a755a2e366225b", "fusion_lat": 0.0, "is_disabled": 0, "rental_uris": {"ios": "https://dc.lft.to/lastmile_qr_scan", "android": "https://dc.lft.to/lastmile_qr_scan"}}, {"name": "88960b898328bdee6054e360958c58b8", "lon": -76.95721183333333, "lat": 38.888744333333335, "type": "electric_scooter", "fusion_lon": 0.0, "is_reserved": 0, "bike_id": "88960b898328bdee6054e360958c58b8", "fusion_lat": 0.0, "is_disabled": 0, "rental_uris": {"ios": "https://dc.lft.to/lastmile_qr_scan", "android": "https://dc.lft.to/lastmile_qr_scan"}}, {"name": "086c14799a2cdda555060d1babe3c69e", "lon": -77.03215616666667, "lat": 38.936146666666666, "type": "electric_scooter", "fusion_lon": 0.0, "is_reserved": 0, "bike_id": "086c14799a2cdda555060d1babe3c69e", "fusion_lat": 0.0, "is_disabled": 0, "rental_uris": {"ios": "https://dc.lft.to/lastmile_qr_scan", "android": "https://dc.lft.to/lastmile_qr_scan"}}, {"name": "fd142d905611c80593196462eac63211", "lon": -77.03460316666667, "lat": 38.920595166666665, "type": "electric_scooter", "fusion_lon": 0.0, "is_reserved": 0, "bike_id": "fd142d905611c80593196462eac63211", "fusion_lat": 0.0, "is_disabled": 0, "rental_uris": {"ios": "https://dc.lft.to/lastmile_qr_scan", "android": "https://dc.lft.to/lastmile_qr_scan"}}, {"name": "19bb7a5f240ff47f96520088269339d8", "lon": -76.93366316666666, "lat": 38.8991535, "type": "electric_scooter", "fusion_lon": 0.0, "is_reserved": 0, "bike_id": "19bb7a5f240ff47f96520088269339d8", "fusion_lat": 0.0, "is_disabled": 0, "rental_uris": {"ios": "https://dc.lft.to/lastmile_qr_scan", "android": "https://dc.lft.to/lastmile_qr_scan"}}, {"name": "5ef1be6a72145db5b48d03072aca1198", "lon": -77.00600866666667, "lat": 38.89792533333333, "type": "electric_bike", "fusion_lon": 0.0, "is_reserved": 0, "bike_id": "5ef1be6a72145db5b48d03072aca1198", "fusion_lat": 0.0, "is_disabled": 0, "rental_uris": {"ios": "https://dc.lft.to/lastmile_qr_scan", "android": "https://dc.lft.to/lastmile_qr_scan"}}, {"name": "04331ee36004ab3367ebdc59a7046bea", "lon": -77.03320983333333, "lat": 38.903666333333334, "type": "electric_scooter", "fusion_lon": 0.0, "is_reserved": 0, "bike_id": "04331ee36004ab3367ebdc59a7046bea", "fusion_lat": 0.0, "is_disabled": 0, "rental_uris": {"ios": "https://dc.lft.to/lastmile_qr_scan", "android": "https://dc.lft.to/lastmile_qr_scan"}}, {"name": "d5eb810cbea111f8fdd111cacd1eb449", "lon": -77.01394683333334, "lat": 38.92862616666667, "type": "electric_scooter", "fusion_lon": 0.0, "is_reserved": 0, "bike_id": "d5eb810cbea111f8fdd111cacd1eb449", "fusion_lat": 0.0, "is_disabled": 0, "rental_uris": {"ios": "https://dc.lft.to/lastmile_qr_scan", "android": "https://dc.lft.to/lastmile_qr_scan"}}, {"name": "c0ed63be4048b23888005e2aa44e5132", "lon": -77.04003166666666, "lat": 38.90565766666667, "type": "electric_scooter", "fusion_lon": 0.0, "is_reserved": 0, "bike_id": "c0ed63be4048b23888005e2aa44e5132", "fusion_lat": 0.0, "is_disabled": 0, "rental_uris": {"ios": "https://dc.lft.to/lastmile_qr_scan", "android": "https://dc.lft.to/lastmile_qr_scan"}}, {"name": "6c158ffe6733ee16f312e353e92a828a", "lon": -77.02209016666667, "lat": 38.914820166666665, "type": "electric_scooter", "fusion_lon": 0.0, "is_reserved": 0, "bike_id": "6c158ffe6733ee16f312e353e92a828a", "fusion_lat": 0.0, "is_disabled": 0, "rental_uris": {"ios": "https://dc.lft.to/lastmile_qr_scan", "android": "https://dc.lft.to/lastmile_qr_scan"}}, {"name": "0eb91a19d82f0784f02b0eb7571526b7", "lon": -77.043514, "lat": 38.92346333333333, "type": "electric_scooter", "fusion_lon": 0.0, "is_reserved": 0, "bike_id": "0eb91a19d82f0784f02b0eb7571526b7", "fusion_lat": 0.0, "is_disabled": 0, "rental_uris": {"ios": "https://dc.lft.to/lastmile_qr_scan", "android": "https://dc.lft.to/lastmile_qr_scan"}}, {"name": "0bb6c9ad4996e5783df1f7c32daf8d08", "lon": -76.92998983333334, "lat": 38.9018825, "type": "electric_scooter", "fusion_lon": 0.0, "is_reserved": 0, "bike_id": "0bb6c9ad4996e5783df1f7c32daf8d08", "fusion_lat": 0.0, "is_disabled": 0, "rental_uris": {"ios": "https://dc.lft.to/lastmile_qr_scan", "android": "https://dc.lft.to/lastmile_qr_scan"}}, {"name": "0ce69a946c61f78c4969adadbbb39d6c", "lon": -77.03485433333333, "lat": 38.906098666666665, "type": "electric_scooter", "fusion_lon": 0.0, "is_reserved": 0, "bike_id": "0ce69a946c61f78c4969adadbbb39d6c", "fusion_lat": 0.0, "is_disabled": 0, "rental_uris": {"ios": "https://dc.lft.to/lastmile_qr_scan", "android": "https://dc.lft.to/lastmile_qr_scan"}}, {"name": "b173d54b4e6618254a3916b4ac834729", "lon": -77.032985, "lat": 38.9564445, "type": "electric_scooter", "fusion_lon": 0.0, "is_reserved": 0, "bike_id": "b173d54b4e6618254a3916b4ac834729", "fusion_lat": 0.0, "is_disabled": 0, "rental_uris": {"ios": "https://dc.lft.to/lastmile_qr_scan", "android": "https://dc.lft.to/lastmile_qr_scan"}}, {"name": "34527bcdcd21d80c035ff9a67213d472", "lon": -77.109199, "lat": 39.05199016666667, "type": "electric_bike", "fusion_lon": 0.0, "is_reserved": 0, "bike_id": "34527bcdcd21d80c035ff9a67213d472", "fusion_lat": 0.0, "is_disabled": 0, "rental_uris": {"ios": "https://dc.lft.to/lastmile_qr_scan", "android": "https://dc.lft.to/lastmile_qr_scan"}}, {"name": "dcb36c64bf477b5ca8bf58931e1a6e91", "lon": -77.03285, "lat": 38.92873516666667, "type": "electric_scooter", "fusion_lon": 0.0, "is_reserved": 0, "bike_id": "dcb36c64bf477b5ca8bf58931e1a6e91", "fusion_lat": 0.0, "is_disabled": 0, "rental_uris": {"ios": "https://dc.lft.to/lastmile_qr_scan", "android": "https://dc.lft.to/lastmile_qr_scan"}}, {"name": "25cb462a43b60a9b889c93d134328742", "lon": -76.97298583333334, "lat": 38.90323516666667, "type": "electric_scooter", "fusion_lon": 0.0, "is_reserved": 0, "bike_id": "25cb462a43b60a9b889c93d134328742", "fusion_lat": 0.0, "is_disabled": 0, "rental_uris": {"ios": "https://dc.lft.to/lastmile_qr_scan", "android": "https://dc.lft.to/lastmile_qr_scan"}}, {"name": "7ffc266a0046e8c3dae9242c59d4efa4", "lon": -77.04663566666666, "lat": 38.903683666666666, "type": "electric_scooter", "fusion_lon": 0.0, "is_reserved": 0, "bike_id": "7ffc266a0046e8c3dae9242c59d4efa4", "fusion_lat": 0.0, "is_disabled": 0, "rental_uris": {"ios": "https://dc.lft.to/lastmile_qr_scan", "android": "https://dc.lft.to/lastmile_qr_scan"}}, {"name": "a27f2f356397df090191f04342b1187c", "lon": -77.03669866666667, "lat": 38.93169183333333, "type": "electric_scooter", "fusion_lon": 0.0, "is_reserved": 0, "bike_id": "a27f2f356397df090191f04342b1187c", "fusion_lat": 0.0, "is_disabled": 0, "rental_uris": {"ios": "https://dc.lft.to/lastmile_qr_scan", "android": "https://dc.lft.to/lastmile_qr_scan"}}, {"name": "134d060cd379ee711c360951821da4f2", "lon": -77.04754366666667, "lat": 38.90539483333333, "type": "electric_scooter", "fusion_lon": 0.0, "is_reserved": 0, "bike_id": "134d060cd379ee711c360951821da4f2", "fusion_lat": 0.0, "is_disabled": 0, "rental_uris": {"ios": "https://dc.lft.to/lastmile_qr_scan", "android": "https://dc.lft.to/lastmile_qr_scan"}}, {"name": "d9a84dec6bdeaccb493a1d7cc74b5c85", "lon": -77.03040516666667, "lat": 38.898256333333336, "type": "electric_scooter", "fusion_lon": 0.0, "is_reserved": 0, "bike_id": "d9a84dec6bdeaccb493a1d7cc74b5c85", "fusion_lat": 0.0, "is_disabled": 0, "rental_uris": {"ios": "https://dc.lft.to/lastmile_qr_scan", "android": "https://dc.lft.to/lastmile_qr_scan"}}, {"name": "43bd2c2dd09d13510e0fb168c6d1447e", "lon": -77.02122916666667, "lat": 38.903201833333334, "type": "electric_scooter", "fusion_lon": 0.0, "is_reserved": 0, "bike_id": "43bd2c2dd09d13510e0fb168c6d1447e", "fusion_lat": 0.0, "is_disabled": 0, "rental_uris": {"ios": "https://dc.lft.to/lastmile_qr_scan", "android": "https://dc.lft.to/lastmile_qr_scan"}}, {"name": "08ad620f0a324e1b9f27f898a3d6808a", "lon": -77.04333216666667, "lat": 38.892275, "type": "electric_scooter", "fusion_lon": 0.0, "is_reserved": 0, "bike_id": "08ad620f0a324e1b9f27f898a3d6808a", "fusion_lat": 0.0, "is_disabled": 0, "rental_uris": {"ios": "https://dc.lft.to/lastmile_qr_scan", "android": "https://dc.lft.to/lastmile_qr_scan"}}, {"name": "2957d75063c3a358cf0883fc78b00819", "lon": -77.0498025, "lat": 39.06296233333333, "type": "electric_bike", "fusion_lon": 0.0, "is_reserved": 0, "bike_id": "2957d75063c3a358cf0883fc78b00819", "fusion_lat": 0.0, "is_disabled": 0, "rental_uris": {"ios": "https://dc.lft.to/lastmile_qr_scan", "android": "https://dc.lft.to/lastmile_qr_scan"}}, {"name": "65874607df899e6f31350ec891b2cd34", "lon": -77.038031, "lat": 38.905596833333334, "type": "electric_scooter", "fusion_lon": 0.0, "is_reserved": 0, "bike_id": "65874607df899e6f31350ec891b2cd34", "fusion_lat": 0.0, "is_disabled": 0, "rental_uris": {"ios": "https://dc.lft.to/lastmile_qr_scan", "android": "https://dc.lft.to/lastmile_qr_scan"}}, {"name": "7e82e38d538b8ff3465889e5d3cdf3bb", "lon": -76.94247633333333, "lat": 38.8967195, "type": "electric_scooter", "fusion_lon": 0.0, "is_reserved": 0, "bike_id": "7e82e38d538b8ff3465889e5d3cdf3bb", "fusion_lat": 0.0, "is_disabled": 0, "rental_uris": {"ios": "https://dc.lft.to/lastmile_qr_scan", "android": "https://dc.lft.to/lastmile_qr_scan"}}, {"name": "11991a63f689ec777a16255bc3c5b663", "lon": -77.03294616666666, "lat": 38.956318333333336, "type": "electric_scooter", "fusion_lon": 0.0, "is_reserved": 0, "bike_id": "11991a63f689ec777a16255bc3c5b663", "fusion_lat": 0.0, "is_disabled": 0, "rental_uris": {"ios": "https://dc.lft.to/lastmile_qr_scan", "android": "https://dc.lft.to/lastmile_qr_scan"}}, {"name": "cd6c9d3379a7191766fcd61cb76341db", "lon": -76.94624766666666, "lat": 38.832341, "type": "electric_bike", "fusion_lon": 0.0, "is_reserved": 0, "bike_id": "cd6c9d3379a7191766fcd61cb76341db", "fusion_lat": 0.0, "is_disabled": 0, "rental_uris": {"ios": "https://dc.lft.to/lastmile_qr_scan", "android": "https://dc.lft.to/lastmile_qr_scan"}}, {"name": "ba7d397708fc372e4b13f0501842c7cb", "lon": -77.05750133333333, "lat": 38.9249695, "type": "electric_scooter", "fusion_lon": 0.0, "is_reserved": 0, "bike_id": "ba7d397708fc372e4b13f0501842c7cb", "fusion_lat": 0.0, "is_disabled": 0, "rental_uris": {"ios": "https://dc.lft.to/lastmile_qr_scan", "android": "https://dc.lft.to/lastmile_qr_scan"}}, {"name": "e0f08d6264a23fc89e42c488acafae25", "lon": -76.96629783333333, "lat": 38.871117, "type": "electric_scooter", "fusion_lon": 0.0, "is_reserved": 0, "bike_id": "e0f08d6264a23fc89e42c488acafae25", "fusion_lat": 0.0, "is_disabled": 0, "rental_uris": {"ios": "https://dc.lft.to/lastmile_qr_scan", "android": "https://dc.lft.to/lastmile_qr_scan"}}, {"name": "01ae4f3e089c4cafa1c2847279d8d430", "lon": -77.02731916666667, "lat": 38.90346566666667, "type": "electric_scooter", "fusion_lon": 0.0, "is_reserved": 0, "bike_id": "01ae4f3e089c4cafa1c2847279d8d430", "fusion_lat": 0.0, "is_disabled": 0, "rental_uris": {"ios": "https://dc.lft.to/lastmile_qr_scan", "android": "https://dc.lft.to/lastmile_qr_scan"}}, {"name": "5ff48c28d449bb48de5b7265a9009362", "lon": -77.025985, "lat": 38.916964, "type": "electric_scooter", "fusion_lon": 0.0, "is_reserved": 0, "bike_id": "5ff48c28d449bb48de5b7265a9009362", "fusion_lat": 0.0, "is_disabled": 0, "rental_uris": {"ios": "https://dc.lft.to/lastmile_qr_scan", "android": "https://dc.lft.to/lastmile_qr_scan"}}, {"name": "03b86841a374a0e831f417b90b1d8088", "lon": -77.001242, "lat": 38.9050375, "type": "electric_scooter", "fusion_lon": 0.0, "is_reserved": 0, "bike_id": "03b86841a374a0e831f417b90b1d8088", "fusion_lat": 0.0, "is_disabled": 0, "rental_uris": {"ios": "https://dc.lft.to/lastmile_qr_scan", "android": "https://dc.lft.to/lastmile_qr_scan"}}, {"name": "09e67583b70d512480338033c10ba529", "lon": -77.02961733333333, "lat": 38.896463, "type": "electric_scooter", "fusion_lon": 0.0, "is_reserved": 0, "bike_id": "09e67583b70d512480338033c10ba529", "fusion_lat": 0.0, "is_disabled": 0, "rental_uris": {"ios": "https://dc.lft.to/lastmile_qr_scan", "android": "https://dc.lft.to/lastmile_qr_scan"}}, {"name": "43e45c60fa3ae4d75049fef1eea00568", "lon": -77.04204283333333, "lat": 38.90740866666667, "type": "electric_scooter", "fusion_lon": 0.0, "is_reserved": 0, "bike_id": "43e45c60fa3ae4d75049fef1eea00568", "fusion_lat": 0.0, "is_disabled": 0, "rental_uris": {"ios": "https://dc.lft.to/lastmile_qr_scan", "android": "https://dc.lft.to/lastmile_qr_scan"}}, {"name": "8556f003d6ed8dbeaac24e1df96db809", "lon": -77.0218855, "lat": 38.909529666666664, "type": "electric_scooter", "fusion_lon": 0.0, "is_reserved": 0, "bike_id": "8556f003d6ed8dbeaac24e1df96db809", "fusion_lat": 0.0, "is_disabled": 0, "rental_uris": {"ios": "https://dc.lft.to/lastmile_qr_scan", "android": "https://dc.lft.to/lastmile_qr_scan"}}, {"name": "2f340cec8fb58a2a14642c42e3af632d", "lon": -77.02967516666666, "lat": 38.89628716666667, "type": "electric_scooter", "fusion_lon": 0.0, "is_reserved": 0, "bike_id": "2f340cec8fb58a2a14642c42e3af632d", "fusion_lat": 0.0, "is_disabled": 0, "rental_uris": {"ios": "https://dc.lft.to/lastmile_qr_scan", "android": "https://dc.lft.to/lastmile_qr_scan"}}, {"name": "c411f75dbd46ebdfa55ac724641005e6", "lon": -76.93262866666667, "lat": 38.89894183333333, "type": "electric_scooter", "fusion_lon": 0.0, "is_reserved": 0, "bike_id": "c411f75dbd46ebdfa55ac724641005e6", "fusion_lat": 0.0, "is_disabled": 0, "rental_uris": {"ios": "https://dc.lft.to/lastmile_qr_scan", "android": "https://dc.lft.to/lastmile_qr_scan"}}, {"name": "af1146cf486379df329c5bba8182a393", "lon": -77.032129, "lat": 38.908979333333335, "type": "electric_scooter", "fusion_lon": 0.0, "is_reserved": 0, "bike_id": "af1146cf486379df329c5bba8182a393", "fusion_lat": 0.0, "is_disabled": 0, "rental_uris": {"ios": "https://dc.lft.to/lastmile_qr_scan", "android": "https://dc.lft.to/lastmile_qr_scan"}}, {"name": "744704e3683ba93d7a4096e1c5d5f21d", "lon": -77.030501, "lat": 38.8840485, "type": "electric_scooter", "fusion_lon": 0.0, "is_reserved": 0, "bike_id": "744704e3683ba93d7a4096e1c5d5f21d", "fusion_lat": 0.0, "is_disabled": 0, "rental_uris": {"ios": "https://dc.lft.to/lastmile_qr_scan", "android": "https://dc.lft.to/lastmile_qr_scan"}}, {"name": "b2233eb646c7c4efe8099636cb940a84", "lon": -77.0512055, "lat": 38.9234695, "type": "electric_scooter", "fusion_lon": 0.0, "is_reserved": 0, "bike_id": "b2233eb646c7c4efe8099636cb940a84", "fusion_lat": 0.0, "is_disabled": 0, "rental_uris": {"ios": "https://dc.lft.to/lastmile_qr_scan", "android": "https://dc.lft.to/lastmile_qr_scan"}}, {"name": "e7d6a93081fd4d0fb3ea025b0ad5a0e9", "lon": -77.03479233333333, "lat": 38.925417333333336, "type": "electric_scooter", "fusion_lon": 0.0, "is_reserved": 0, "bike_id": "e7d6a93081fd4d0fb3ea025b0ad5a0e9", "fusion_lat": 0.0, "is_disabled": 0, "rental_uris": {"ios": "https://dc.lft.to/lastmile_qr_scan", "android": "https://dc.lft.to/lastmile_qr_scan"}}, {"name": "544955e76a10f18929a9cde4f276b580", "lon": -77.089381, "lat": 38.86260133333333, "type": "electric_bike", "fusion_lon": 0.0, "is_reserved": 0, "bike_id": "544955e76a10f18929a9cde4f276b580", "fusion_lat": 0.0, "is_disabled": 0, "rental_uris": {"ios": "https://dc.lft.to/lastmile_qr_scan", "android": "https://dc.lft.to/lastmile_qr_scan"}}, {"name": "bfa9c941e8b0d14556178feac87a3989", "lon": -77.0324025, "lat": 38.90007383333333, "type": "electric_scooter", "fusion_lon": 0.0, "is_reserved": 0, "bike_id": "bfa9c941e8b0d14556178feac87a3989", "fusion_lat": 0.0, "is_disabled": 0, "rental_uris": {"ios": "https://dc.lft.to/lastmile_qr_scan", "android": "https://dc.lft.to/lastmile_qr_scan"}}, {"name": "7f4e6ee66d59c2d55557d9ea91c3e5b8", "lon": -77.01214783333333, "lat": 38.864211, "type": "electric_scooter", "fusion_lon": 0.0, "is_reserved": 0, "bike_id": "7f4e6ee66d59c2d55557d9ea91c3e5b8", "fusion_lat": 0.0, "is_disabled": 0, "rental_uris": {"ios": "https://dc.lft.to/lastmile_qr_scan", "android": "https://dc.lft.to/lastmile_qr_scan"}}, {"name": "55bbf63c3c426eea8566d44cf13b02b1", "lon": -77.05308483333333, "lat": 38.89850233333333, "type": "electric_scooter", "fusion_lon": 0.0, "is_reserved": 0, "bike_id": "55bbf63c3c426eea8566d44cf13b02b1", "fusion_lat": 0.0, "is_disabled": 0, "rental_uris": {"ios": "https://dc.lft.to/lastmile_qr_scan", "android": "https://dc.lft.to/lastmile_qr_scan"}}, {"name": "282ce0344b1dfd2cdc72fe7058207457", "lon": -76.99548683333333, "lat": 38.862584166666664, "type": "electric_scooter", "fusion_lon": 0.0, "is_reserved": 0, "bike_id": "282ce0344b1dfd2cdc72fe7058207457", "fusion_lat": 0.0, "is_disabled": 0, "rental_uris": {"ios": "https://dc.lft.to/lastmile_qr_scan", "android": "https://dc.lft.to/lastmile_qr_scan"}}, {"name": "c7d0770a3e2859b6381dc67322b80bf0", "lon": -77.028134, "lat": 38.960799, "type": "electric_scooter", "fusion_lon": 0.0, "is_reserved": 0, "bike_id": "c7d0770a3e2859b6381dc67322b80bf0", "fusion_lat": 0.0, "is_disabled": 0, "rental_uris": {"ios": "https://dc.lft.to/lastmile_qr_scan", "android": "https://dc.lft.to/lastmile_qr_scan"}}, {"name": "058648f013818e5e4a6c24038d49eeef", "lon": -77.00368366666666, "lat": 38.90706016666667, "type": "electric_scooter", "fusion_lon": 0.0, "is_reserved": 0, "bike_id": "058648f013818e5e4a6c24038d49eeef", "fusion_lat": 0.0, "is_disabled": 0, "rental_uris": {"ios": "https://dc.lft.to/lastmile_qr_scan", "android": "https://dc.lft.to/lastmile_qr_scan"}}, {"name": "9d838ca2e18e0f90ee9e10b4fe452dba", "lon": -77.04399866666667, "lat": 38.9203635, "type": "electric_scooter", "fusion_lon": 0.0, "is_reserved": 0, "bike_id": "9d838ca2e18e0f90ee9e10b4fe452dba", "fusion_lat": 0.0, "is_disabled": 0, "rental_uris": {"ios": "https://dc.lft.to/lastmile_qr_scan", "android": "https://dc.lft.to/lastmile_qr_scan"}}, {"name": "fd3fa9c35ab61a40ba0cd2aca2a597a5", "lon": -77.00645566666667, "lat": 38.9057035, "type": "electric_scooter", "fusion_lon": 0.0, "is_reserved": 0, "bike_id": "fd3fa9c35ab61a40ba0cd2aca2a597a5", "fusion_lat": 0.0, "is_disabled": 0, "rental_uris": {"ios": "https://dc.lft.to/lastmile_qr_scan", "android": "https://dc.lft.to/lastmile_qr_scan"}}, {"name": "d51b7164fd3c4fea3f80284ceb074a99", "lon": -77.043813, "lat": 38.898594333333335, "type": "electric_scooter", "fusion_lon": 0.0, "is_reserved": 0, "bike_id": "d51b7164fd3c4fea3f80284ceb074a99", "fusion_lat": 0.0, "is_disabled": 0, "rental_uris": {"ios": "https://dc.lft.to/lastmile_qr_scan", "android": "https://dc.lft.to/lastmile_qr_scan"}}, {"name": "433f9c58d35d8a2d4a4d91e3f75061fa", "lon": -77.1294575, "lat": 38.852215, "type": "electric_bike", "fusion_lon": 0.0, "is_reserved": 0, "bike_id": "433f9c58d35d8a2d4a4d91e3f75061fa", "fusion_lat": 0.0, "is_disabled": 0, "rental_uris": {"ios": "https://dc.lft.to/lastmile_qr_scan", "android": "https://dc.lft.to/lastmile_qr_scan"}}, {"name": "93a40bfb7e41442a6539a977ddd89d92", "lon": -76.98336316666666, "lat": 38.91552333333333, "type": "electric_scooter", "fusion_lon": 0.0, "is_reserved": 0, "bike_id": "93a40bfb7e41442a6539a977ddd89d92", "fusion_lat": 0.0, "is_disabled": 0, "rental_uris": {"ios": "https://dc.lft.to/lastmile_qr_scan", "android": "https://dc.lft.to/lastmile_qr_scan"}}, {"name": "7e12a1e571c0ffcbae9e060a3abc449a", "lon": -77.01545816666666, "lat": 38.94418233333333, "type": "electric_bike", "fusion_lon": 0.0, "is_reserved": 0, "bike_id": "7e12a1e571c0ffcbae9e060a3abc449a", "fusion_lat": 0.0, "is_disabled": 0, "rental_uris": {"ios": "https://dc.lft.to/lastmile_qr_scan", "android": "https://dc.lft.to/lastmile_qr_scan"}}, {"name": "fb2e7584ced19cdeeab68728c43da565", "lon": -77.0191625, "lat": 38.92365266666667, "type": "electric_scooter", "fusion_lon": 0.0, "is_reserved": 0, "bike_id": "fb2e7584ced19cdeeab68728c43da565", "fusion_lat": 0.0, "is_disabled": 0, "rental_uris": {"ios": "https://dc.lft.to/lastmile_qr_scan", "android": "https://dc.lft.to/lastmile_qr_scan"}}, {"name": "b8feeb84ea29e7bd097266c4bbca1e33", "lon": -77.00753333333333, "lat": 38.9267145, "type": "electric_scooter", "fusion_lon": 0.0, "is_reserved": 0, "bike_id": "b8feeb84ea29e7bd097266c4bbca1e33", "fusion_lat": 0.0, "is_disabled": 0, "rental_uris": {"ios": "https://dc.lft.to/lastmile_qr_scan", "android": "https://dc.lft.to/lastmile_qr_scan"}}, {"name": "bc8d9af339970ce3e1e90bfe58304fe9", "lon": -77.02794433333334, "lat": 38.9308225, "type": "electric_scooter", "fusion_lon": 0.0, "is_reserved": 0, "bike_id": "bc8d9af339970ce3e1e90bfe58304fe9", "fusion_lat": 0.0, "is_disabled": 0, "rental_uris": {"ios": "https://dc.lft.to/lastmile_qr_scan", "android": "https://dc.lft.to/lastmile_qr_scan"}}, {"name": "d3b17e0265c025032ff75d6372eedb3d", "lon": -77.0435155, "lat": 38.90778183333333, "type": "electric_scooter", "fusion_lon": 0.0, "is_reserved": 0, "bike_id": "d3b17e0265c025032ff75d6372eedb3d", "fusion_lat": 0.0, "is_disabled": 0, "rental_uris": {"ios": "https://dc.lft.to/lastmile_qr_scan", "android": "https://dc.lft.to/lastmile_qr_scan"}}, {"name": "879293b977da6b5e932baf4bd47fbfff", "lon": -77.0762425, "lat": 38.912734, "type": "electric_scooter", "fusion_lon": 0.0, "is_reserved": 0, "bike_id": "879293b977da6b5e932baf4bd47fbfff", "fusion_lat": 0.0, "is_disabled": 0, "rental_uris": {"ios": "https://dc.lft.to/lastmile_qr_scan", "android": "https://dc.lft.to/lastmile_qr_scan"}}, {"name": "9a7c6b49ba27f25aff71feeda8eb7308", "lon": -77.01902783333334, "lat": 38.91386766666667, "type": "electric_scooter", "fusion_lon": 0.0, "is_reserved": 0, "bike_id": "9a7c6b49ba27f25aff71feeda8eb7308", "fusion_lat": 0.0, "is_disabled": 0, "rental_uris": {"ios": "https://dc.lft.to/lastmile_qr_scan", "android": "https://dc.lft.to/lastmile_qr_scan"}}, {"name": "fbb43d4bd94bc35c84aef5ad2bf15a59", "lon": -77.03169283333334, "lat": 38.9163725, "type": "electric_scooter", "fusion_lon": 0.0, "is_reserved": 0, "bike_id": "fbb43d4bd94bc35c84aef5ad2bf15a59", "fusion_lat": 0.0, "is_disabled": 0, "rental_uris": {"ios": "https://dc.lft.to/lastmile_qr_scan", "android": "https://dc.lft.to/lastmile_qr_scan"}}, {"name": "c0e8c124aac763c6321b98bd8843d9a9", "lon": -77.04253066666666, "lat": 38.90645816666667, "type": "electric_scooter", "fusion_lon": 0.0, "is_reserved": 0, "bike_id": "c0e8c124aac763c6321b98bd8843d9a9", "fusion_lat": 0.0, "is_disabled": 0, "rental_uris": {"ios": "https://dc.lft.to/lastmile_qr_scan", "android": "https://dc.lft.to/lastmile_qr_scan"}}, {"name": "d8918a29e4cb7ccc66716c79761f0182", "lon": -77.02733266666667, "lat": 38.9277135, "type": "electric_scooter", "fusion_lon": 0.0, "is_reserved": 0, "bike_id": "d8918a29e4cb7ccc66716c79761f0182", "fusion_lat": 0.0, "is_disabled": 0, "rental_uris": {"ios": "https://dc.lft.to/lastmile_qr_scan", "android": "https://dc.lft.to/lastmile_qr_scan"}}, {"name": "16136bb057b908c41b8c4fbc9dd9c0df", "lon": -77.07168333333334, "lat": 38.907802, "type": "electric_scooter", "fusion_lon": 0.0, "is_reserved": 0, "bike_id": "16136bb057b908c41b8c4fbc9dd9c0df", "fusion_lat": 0.0, "is_disabled": 0, "rental_uris": {"ios": "https://dc.lft.to/lastmile_qr_scan", "android": "https://dc.lft.to/lastmile_qr_scan"}}, {"name": "b45d166f7d8153ae6c8d02cd5060ca1c", "lon": -77.039376, "lat": 38.903506, "type": "electric_scooter", "fusion_lon": 0.0, "is_reserved": 0, "bike_id": "b45d166f7d8153ae6c8d02cd5060ca1c", "fusion_lat": 0.0, "is_disabled": 0, "rental_uris": {"ios": "https://dc.lft.to/lastmile_qr_scan", "android": "https://dc.lft.to/lastmile_qr_scan"}}, {"name": "5d23726f2353c9a286e5848399ddfc48", "lon": -77.0229165, "lat": 38.894983, "type": "electric_scooter", "fusion_lon": 0.0, "is_reserved": 0, "bike_id": "5d23726f2353c9a286e5848399ddfc48", "fusion_lat": 0.0, "is_disabled": 0, "rental_uris": {"ios": "https://dc.lft.to/lastmile_qr_scan", "android": "https://dc.lft.to/lastmile_qr_scan"}}, {"name": "fafbc9838ba495080f6db1d1d022bb57", "lon": -77.04669283333334, "lat": 38.90154833333333, "type": "electric_scooter", "fusion_lon": 0.0, "is_reserved": 0, "bike_id": "fafbc9838ba495080f6db1d1d022bb57", "fusion_lat": 0.0, "is_disabled": 0, "rental_uris": {"ios": "https://dc.lft.to/lastmile_qr_scan", "android": "https://dc.lft.to/lastmile_qr_scan"}}, {"name": "5c8a1cf85f6c58f091852e4ae11ba2db", "lon": -77.02183166666667, "lat": 38.905818, "type": "electric_scooter", "fusion_lon": 0.0, "is_reserved": 0, "bike_id": "5c8a1cf85f6c58f091852e4ae11ba2db", "fusion_lat": 0.0, "is_disabled": 0, "rental_uris": {"ios": "https://dc.lft.to/lastmile_qr_scan", "android": "https://dc.lft.to/lastmile_qr_scan"}}, {"name": "2f89c09b68e68bddadf2a32accde37bd", "lon": -77.03032433333334, "lat": 38.92249983333333, "type": "electric_scooter", "fusion_lon": 0.0, "is_reserved": 0, "bike_id": "2f89c09b68e68bddadf2a32accde37bd", "fusion_lat": 0.0, "is_disabled": 0, "rental_uris": {"ios": "https://dc.lft.to/lastmile_qr_scan", "android": "https://dc.lft.to/lastmile_qr_scan"}}, {"name": "82645e2d03ded5cbe95499a899915756", "lon": -77.0543365, "lat": 38.923541, "type": "electric_scooter", "fusion_lon": 0.0, "is_reserved": 0, "bike_id": "82645e2d03ded5cbe95499a899915756", "fusion_lat": 0.0, "is_disabled": 0, "rental_uris": {"ios": "https://dc.lft.to/lastmile_qr_scan", "android": "https://dc.lft.to/lastmile_qr_scan"}}, {"name": "bf064037a5e71fa57dbc00d93aa6acf5", "lon": -77.03484883333333, "lat": 38.93265516666666, "type": "electric_scooter", "fusion_lon": 0.0, "is_reserved": 0, "bike_id": "bf064037a5e71fa57dbc00d93aa6acf5", "fusion_lat": 0.0, "is_disabled": 0, "rental_uris": {"ios": "https://dc.lft.to/lastmile_qr_scan", "android": "https://dc.lft.to/lastmile_qr_scan"}}, {"name": "ec71b109daadcbf525d850a3f880e909", "lon": -77.034682, "lat": 38.9170505, "type": "electric_scooter", "fusion_lon": 0.0, "is_reserved": 0, "bike_id": "ec71b109daadcbf525d850a3f880e909", "fusion_lat": 0.0, "is_disabled": 0, "rental_uris": {"ios": "https://dc.lft.to/lastmile_qr_scan", "android": "https://dc.lft.to/lastmile_qr_scan"}}, {"name": "e3d7314ad42f20457fa9b4f03ca9c58e", "lon": -77.02748866666667, "lat": 38.924124, "type": "electric_scooter", "fusion_lon": 0.0, "is_reserved": 0, "bike_id": "e3d7314ad42f20457fa9b4f03ca9c58e", "fusion_lat": 0.0, "is_disabled": 0, "rental_uris": {"ios": "https://dc.lft.to/lastmile_qr_scan", "android": "https://dc.lft.to/lastmile_qr_scan"}}, {"name": "05d3699cea3982df0cba70b0855edc9c", "lon": -77.06272916666667, "lat": 38.9055315, "type": "electric_scooter", "fusion_lon": 0.0, "is_reserved": 0, "bike_id": "05d3699cea3982df0cba70b0855edc9c", "fusion_lat": 0.0, "is_disabled": 0, "rental_uris": {"ios": "https://dc.lft.to/lastmile_qr_scan", "android": "https://dc.lft.to/lastmile_qr_scan"}}, {"name": "2422ec19d12aa32b39f43ae9c4ea4edd", "lon": -77.02167966666667, "lat": 38.90563083333333, "type": "electric_scooter", "fusion_lon": 0.0, "is_reserved": 0, "bike_id": "2422ec19d12aa32b39f43ae9c4ea4edd", "fusion_lat": 0.0, "is_disabled": 0, "rental_uris": {"ios": "https://dc.lft.to/lastmile_qr_scan", "android": "https://dc.lft.to/lastmile_qr_scan"}}, {"name": "8e31e83700a43b25135d9cbb847464e6", "lon": -77.0026575, "lat": 38.887571, "type": "electric_scooter", "fusion_lon": 0.0, "is_reserved": 0, "bike_id": "8e31e83700a43b25135d9cbb847464e6", "fusion_lat": 0.0, "is_disabled": 0, "rental_uris": {"ios": "https://dc.lft.to/lastmile_qr_scan", "android": "https://dc.lft.to/lastmile_qr_scan"}}, {"name": "6bcfc581f1271877e921c59baf37620d", "lon": -76.9954845, "lat": 38.86257466666667, "type": "electric_scooter", "fusion_lon": 0.0, "is_reserved": 0, "bike_id": "6bcfc581f1271877e921c59baf37620d", "fusion_lat": 0.0, "is_disabled": 0, "rental_uris": {"ios": "https://dc.lft.to/lastmile_qr_scan", "android": "https://dc.lft.to/lastmile_qr_scan"}}, {"name": "41b497d17d4fb617c254428e3e288817", "lon": -77.07919183333334, "lat": 38.802305833333335, "type": "electric_bike", "fusion_lon": 0.0, "is_reserved": 0, "bike_id": "41b497d17d4fb617c254428e3e288817", "fusion_lat": 0.0, "is_disabled": 0, "rental_uris": {"ios": "https://dc.lft.to/lastmile_qr_scan", "android": "https://dc.lft.to/lastmile_qr_scan"}}, {"name": "619bf2199c3402fad9708f3ce267bb22", "lon": -77.0400695, "lat": 38.9257615, "type": "electric_scooter", "fusion_lon": 0.0, "is_reserved": 0, "bike_id": "619bf2199c3402fad9708f3ce267bb22", "fusion_lat": 0.0, "is_disabled": 0, "rental_uris": {"ios": "https://dc.lft.to/lastmile_qr_scan", "android": "https://dc.lft.to/lastmile_qr_scan"}}, {"name": "ae5a88076aeed8712ac3a4ea6f525d35", "lon": -77.05120466666666, "lat": 38.92347783333334, "type": "electric_scooter", "fusion_lon": 0.0, "is_reserved": 0, "bike_id": "ae5a88076aeed8712ac3a4ea6f525d35", "fusion_lat": 0.0, "is_disabled": 0, "rental_uris": {"ios": "https://dc.lft.to/lastmile_qr_scan", "android": "https://dc.lft.to/lastmile_qr_scan"}}, {"name": "75501650c4232a50e390805d6c5babac", "lon": -77.02445133333333, "lat": 38.89964616666666, "type": "electric_scooter", "fusion_lon": 0.0, "is_reserved": 0, "bike_id": "75501650c4232a50e390805d6c5babac", "fusion_lat": 0.0, "is_disabled": 0, "rental_uris": {"ios": "https://dc.lft.to/lastmile_qr_scan", "android": "https://dc.lft.to/lastmile_qr_scan"}}, {"name": "c985b493410e786862d7f850703d3d1c", "lon": -77.16088316666666, "lat": 38.88682333333333, "type": "electric_bike", "fusion_lon": 0.0, "is_reserved": 0, "bike_id": "c985b493410e786862d7f850703d3d1c", "fusion_lat": 0.0, "is_disabled": 0, "rental_uris": {"ios": "https://dc.lft.to/lastmile_qr_scan", "android": "https://dc.lft.to/lastmile_qr_scan"}}, {"name": "0eaccb9315e58d9c93477f6a87e106e5", "lon": -76.98883833333333, "lat": 38.866563166666666, "type": "electric_scooter", "fusion_lon": 0.0, "is_reserved": 0, "bike_id": "0eaccb9315e58d9c93477f6a87e106e5", "fusion_lat": 0.0, "is_disabled": 0, "rental_uris": {"ios": "https://dc.lft.to/lastmile_qr_scan", "android": "https://dc.lft.to/lastmile_qr_scan"}}, {"name": "70d9e3e188e718019e838b47a4658707", "lon": -77.02645516666666, "lat": 38.89217933333333, "type": "electric_scooter", "fusion_lon": 0.0, "is_reserved": 0, "bike_id": "70d9e3e188e718019e838b47a4658707", "fusion_lat": 0.0, "is_disabled": 0, "rental_uris": {"ios": "https://dc.lft.to/lastmile_qr_scan", "android": "https://dc.lft.to/lastmile_qr_scan"}}, {"name": "d70f0f755a02f596fa2873f96cad61b7", "lon": -77.03474016666667, "lat": 38.91707783333333, "type": "electric_scooter", "fusion_lon": 0.0, "is_reserved": 0, "bike_id": "d70f0f755a02f596fa2873f96cad61b7", "fusion_lat": 0.0, "is_disabled": 0, "rental_uris": {"ios": "https://dc.lft.to/lastmile_qr_scan", "android": "https://dc.lft.to/lastmile_qr_scan"}}, {"name": "3e66c8b8a1df8c83ecea2997ae58abbe", "lon": -77.02002933333333, "lat": 38.9211315, "type": "electric_scooter", "fusion_lon": 0.0, "is_reserved": 0, "bike_id": "3e66c8b8a1df8c83ecea2997ae58abbe", "fusion_lat": 0.0, "is_disabled": 0, "rental_uris": {"ios": "https://dc.lft.to/lastmile_qr_scan", "android": "https://dc.lft.to/lastmile_qr_scan"}}, {"name": "70dc7b3a795710bfff1dc5ddf6dacbdb", "lon": -77.0385085, "lat": 38.902943666666665, "type": "electric_scooter", "fusion_lon": 0.0, "is_reserved": 0, "bike_id": "70dc7b3a795710bfff1dc5ddf6dacbdb", "fusion_lat": 0.0, "is_disabled": 0, "rental_uris": {"ios": "https://dc.lft.to/lastmile_qr_scan", "android": "https://dc.lft.to/lastmile_qr_scan"}}, {"name": "ead3027eb461199563bd35fc80b68612", "lon": -76.99807616666666, "lat": 38.8856565, "type": "electric_scooter", "fusion_lon": 0.0, "is_reserved": 0, "bike_id": "ead3027eb461199563bd35fc80b68612", "fusion_lat": 0.0, "is_disabled": 0, "rental_uris": {"ios": "https://dc.lft.to/lastmile_qr_scan", "android": "https://dc.lft.to/lastmile_qr_scan"}}, {"name": "e56b699d02905981596253b86fb43434", "lon": -77.04820133333334, "lat": 38.910395333333334, "type": "electric_scooter", "fusion_lon": 0.0, "is_reserved": 0, "bike_id": "e56b699d02905981596253b86fb43434", "fusion_lat": 0.0, "is_disabled": 0, "rental_uris": {"ios": "https://dc.lft.to/lastmile_qr_scan", "android": "https://dc.lft.to/lastmile_qr_scan"}}, {"name": "a7251634a023049cd15fdf8d09862f19", "lon": -77.03929766666667, "lat": 38.89917533333333, "type": "electric_bike", "fusion_lon": 0.0, "is_reserved": 0, "bike_id": "a7251634a023049cd15fdf8d09862f19", "fusion_lat": 0.0, "is_disabled": 0, "rental_uris": {"ios": "https://dc.lft.to/lastmile_qr_scan", "android": "https://dc.lft.to/lastmile_qr_scan"}}, {"name": "0aa9071b6c6e60505ac27a123b02573b", "lon": -77.01698366666666, "lat": 38.97497516666667, "type": "electric_scooter", "fusion_lon": 0.0, "is_reserved": 0, "bike_id": "0aa9071b6c6e60505ac27a123b02573b", "fusion_lat": 0.0, "is_disabled": 0, "rental_uris": {"ios": "https://dc.lft.to/lastmile_qr_scan", "android": "https://dc.lft.to/lastmile_qr_scan"}}, {"name": "b585c96fba267f686e6f40e4aedb11fe", "lon": -76.98765133333333, "lat": 38.90027533333333, "type": "electric_scooter", "fusion_lon": 0.0, "is_reserved": 0, "bike_id": "b585c96fba267f686e6f40e4aedb11fe", "fusion_lat": 0.0, "is_disabled": 0, "rental_uris": {"ios": "https://dc.lft.to/lastmile_qr_scan", "android": "https://dc.lft.to/lastmile_qr_scan"}}, {"name": "535601e0d4278ca2276ef051c7022ce0", "lon": -77.0044045, "lat": 38.8766765, "type": "electric_scooter", "fusion_lon": 0.0, "is_reserved": 0, "bike_id": "535601e0d4278ca2276ef051c7022ce0", "fusion_lat": 0.0, "is_disabled": 0, "rental_uris": {"ios": "https://dc.lft.to/lastmile_qr_scan", "android": "https://dc.lft.to/lastmile_qr_scan"}}, {"name": "8d3a5a21f489cdbc2e27db3d320ff826", "lon": -77.00864583333333, "lat": 38.89748566666667, "type": "electric_scooter", "fusion_lon": 0.0, "is_reserved": 0, "bike_id": "8d3a5a21f489cdbc2e27db3d320ff826", "fusion_lat": 0.0, "is_disabled": 0, "rental_uris": {"ios": "https://dc.lft.to/lastmile_qr_scan", "android": "https://dc.lft.to/lastmile_qr_scan"}}, {"name": "b84f53f74592145bb8417f8fa782711d", "lon": -76.9982685, "lat": 38.9013905, "type": "electric_scooter", "fusion_lon": 0.0, "is_reserved": 0, "bike_id": "b84f53f74592145bb8417f8fa782711d", "fusion_lat": 0.0, "is_disabled": 0, "rental_uris": {"ios": "https://dc.lft.to/lastmile_qr_scan", "android": "https://dc.lft.to/lastmile_qr_scan"}}, {"name": "73ecda7e4e12612f5b99262aa9804dad", "lon": -77.0512305, "lat": 38.9234575, "type": "electric_scooter", "fusion_lon": 0.0, "is_reserved": 0, "bike_id": "73ecda7e4e12612f5b99262aa9804dad", "fusion_lat": 0.0, "is_disabled": 0, "rental_uris": {"ios": "https://dc.lft.to/lastmile_qr_scan", "android": "https://dc.lft.to/lastmile_qr_scan"}}, {"name": "fb920551b00f19931a7e38874aa071dd", "lon": -77.01771383333333, "lat": 38.9212285, "type": "electric_scooter", "fusion_lon": 0.0, "is_reserved": 0, "bike_id": "fb920551b00f19931a7e38874aa071dd", "fusion_lat": 0.0, "is_disabled": 0, "rental_uris": {"ios": "https://dc.lft.to/lastmile_qr_scan", "android": "https://dc.lft.to/lastmile_qr_scan"}}, {"name": "b109a86fb4465400c6cc1ec920d38115", "lon": -76.995697, "lat": 38.892138, "type": "electric_scooter", "fusion_lon": 0.0, "is_reserved": 0, "bike_id": "b109a86fb4465400c6cc1ec920d38115", "fusion_lat": 0.0, "is_disabled": 0, "rental_uris": {"ios": "https://dc.lft.to/lastmile_qr_scan", "android": "https://dc.lft.to/lastmile_qr_scan"}},