{"data": {"bikes": [{"lon": -77.0220765, "bike_id": "b3e8008d24eef29e6b2763724b370508", "lat": 38.90123033333333, "fusion_lon": 0.0, "fusion_lat": 0.0, "type": "electric_scooter", "name": "b3e8008d24eef29e6b2763724b370508", "is_disabled": 0, "rental_uris": {"ios": "https://dc.lft.to/lastmile_qr_scan", "android": "https://dc.lft.to/lastmile_qr_scan"}, "is_reserved": 0}, {"lon": -77.0401035, "bike_id": "e8a5d8c64e5c48100006a2e0e63ec298", "lat": 38.91819366666667, "fusion_lon": 0.0, "fusion_lat": 0.0, "type": "electric_scooter", "name": "e8a5d8c64e5c48100006a2e0e63ec298", "is_disabled": 0, "rental_uris": {"ios": "https://dc.lft.to/lastmile_qr_scan", "android": "https://dc.lft.to/lastmile_qr_scan"}, "is_reserved": 0}, {"lon": -77.02312433333333, "bike_id": "4731bd097894dbda7312f920a25a20da", "lat": 38.91789383333333, "fusion_lon": 0.0, "fusion_lat": 0.0, "type": "electric_scooter", "name": "4731bd097894dbda7312f920a25a20da", "is_disabled": 0, "rental_uris": {"ios": "https://dc.lft.to/lastmile_qr_scan", "android": "https://dc.lft.to/lastmile_qr_scan"}, "is_reserved": 0}, {"lon": -77.01759666666666, "bike_id": "4c446d45b00ec40b832e15b2155dc851", "lat": 38.8838835, "fusion_lon": 0.0, "fusion_lat": 0.0, "type": "electric_scooter", "name": "4c446d45b00ec40b832e15b2155dc851", "is_disabled": 0, "rental_uris": {"ios": "https://dc.lft.to/lastmile_qr_scan", "android": "https://dc.lft.to/lastmile_qr_scan"}, "is_reserved": 0}, {"lon": -77.048749, "bike_id": "355d9278b1000eb41e2030b4e4ab2896", "lat": 38.8923005, "fusion_lon": 0.0, "fusion_lat": 0.0, "type": "electric_scooter", "name": "355d9278b1000eb41e2030b4e4ab2896", "is_disabled": 0, "rental_uris": {"ios": "https://dc.lft.to/lastmile_qr_scan", "android": "https://dc.lft.to/lastmile_qr_scan"}, "is_reserved": 0}, {"lon": -77.05660533333334, "bike_id": "3d6d2a088965eaa57c3da1cde07c8b46", "lat": 38.89546766666667, "fusion_lon": 0.0, "fusion_lat": 0.0, "type": "electric_scooter", "name": "3d6d2a088965eaa57c3da1cde07c8b46", "is_disabled": 0, "rental_uris": {"ios": "https://dc.lft.to/lastmile_qr_scan", "android": "https://dc.lft.to/lastmile_qr_scan"}, "is_reserved": 0}, {"lon": -76.991446, "bike_id": "b9b74fde4daf0902da6e69404481393e", "lat": 38.889715833333334, "fusion_lon": 0.0, "fusion_lat": 0.0, "type": "electric_scooter", "name": "b9b74fde4daf0902da6e69404481393e", "is_disabled": 0, "rental_uris": {"ios": "https://dc.lft.to/lastmile_qr_scan", "android": "https://dc.lft.to/lastmile_qr_scan"}, "is_reserved": 0}, {"lon": -76.999404, "bike_id": "b928bd1aa1172d122313199614cfeca3", "lat": 38.906199, "fusion_lon": 0.0, "fusion_lat": 0.0, "type": "electric_scooter", "name": "b928bd1aa1172d122313199614cfeca3", "is_disabled": 0, "rental_uris": {"ios": "https://dc.lft.to/lastmile_qr_scan", "android": "https://dc.lft.to/lastmile_qr_scan"}, "is_reserved": 0}, {"lon": -77.03962083333333, "bike_id": "a597e0f982aad89abf55f814474f4b6a", "lat": 38.906201, "fusion_lon": 0.0, "fusion_lat": 0.0, "type": "electric_scooter", "name": "a597e0f982aad89abf55f814474f4b6a", "is_disabled": 0, "rental_uris": {"ios": "https://dc.lft.to/lastmile_qr_scan", "android": "https://dc.lft.to/lastmile_qr_scan"}, "is_reserved": 0}, {"lon": -77.03857533333333, "bike_id": "d3fc7cd00916ca0539a0cc769a3aa600", "lat": 38.917140333333336, "fusion_lon": 0.0, "fusion_lat": 0.0, "type": "electric_scooter", "name": "d3fc7cd00916ca0539a0cc769a3aa600", "is_disabled": 0, "rental_uris": {"ios": "https://dc.lft.to/lastmile_qr_scan", "android": "https://dc.lft.to/lastmile_qr_scan"}, "is_reserved": 0}, {"lon": -77.02749833333333, "bike_id": "4d8758a9469f422694bdf743a846ac1d", "lat": 38.895067, "fusion_lon": 0.0, "fusion_lat": 0.0, "type": "electric_scooter", "name": "4d8758a9469f422694bdf743a846ac1d", "is_disabled": 0, "rental_uris": {"ios": "https://dc.lft.to/lastmile_qr_scan", "android": "https://dc.lft.to/lastmile_qr_scan"}, "is_reserved": 0}, {"lon": -77.0310955, "bike_id": "ab97587cc0fc9fefd2a5eeeea754bf0b", "lat": 38.887412166666664, "fusion_lon": 0.0, "fusion_lat": 0.0, "type": "electric_scooter", "name": "ab97587cc0fc9fefd2a5eeeea754bf0b", "is_disabled": 0, "rental_uris": {"ios": "https://dc.lft.to/lastmile_qr_scan", "android": "https://dc.lft.to/lastmile_qr_scan"}, "is_reserved": 0}, {"lon": -77.01232333333333, "bike_id": "e351a17aa4d23c4dacd9b08dd4800211", "lat": 38.8929235, "fusion_lon": 0.0, "fusion_lat": 0.0, "type": "electric_scooter", "name": "e351a17aa4d23c4dacd9b08dd4800211", "is_disabled": 0, "rental_uris": {"ios": "https://dc.lft.to/lastmile_qr_scan", "android": "https://dc.lft.to/lastmile_qr_scan"}, "is_reserved": 0}, {"lon": -77.0162365, "bike_id": "49928052f41231034848d88f40cc4417", "lat": 38.90567866666667, "fusion_lon": 0.0, "fusion_lat": 0.0, "type": "electric_scooter", "name": "49928052f41231034848d88f40cc4417", "is_disabled": 0, "rental_uris": {"ios": "https://dc.lft.to/lastmile_qr_scan", "android": "https://dc.lft.to/lastmile_qr_scan"}, "is_reserved": 0}, {"lon": -77.0466225, "bike_id": "79a0d378fa610ee8cba6a71f9a2297b1", "lat": 38.89780583333334, "fusion_lon": 0.0, "fusion_lat": 0.0, "type": "electric_scooter", "name": "79a0d378fa610ee8cba6a71f9a2297b1", "is_disabled": 0, "rental_uris": {"ios": "https://dc.lft.to/lastmile_qr_scan", "android": "https://dc.lft.to/lastmile_qr_scan"}, "is_reserved": 0}, {"lon": -77.03639333333334, "bike_id": "cfeaa7e7cd7f69b9ee26a01b4f5ac4d0", "lat": 38.917639333333334, "fusion_lon": 0.0, "fusion_lat": 0.0, "type": "electric_scooter", "name": "cfeaa7e7cd7f69b9ee26a01b4f5ac4d0", "is_disabled": 0, "rental_uris": {"ios": "https://dc.lft.to/lastmile_qr_scan", "android": "https://dc.lft.to/lastmile_qr_scan"}, "is_reserved": 0}, {"lon": -77.03242116666667, "bike_id": "6e596286ca05cbcd52da1a992745cddb", "lat": 38.928674666666666, "fusion_lon": 0.0, "fusion_lat": 0.0, "type": "electric_scooter", "name": "6e596286ca05cbcd52da1a992745cddb", "is_disabled": 0, "rental_uris": {"ios": "https://dc.lft.to/lastmile_qr_scan", "android": "https://dc.lft.to/lastmile_qr_scan"}, "is_reserved": 0}, {"lon": -77.00339666666666, "bike_id": "fb8b6b277055b59a77e7b704cd68d771", "lat": 38.9162725, "fusion_lon": 0.0, "fusion_lat": 0.0, "type": "electric_scooter", "name": "fb8b6b277055b59a77e7b704cd68d771", "is_disabled": 0, "rental_uris": {"ios": "https://dc.lft.to/lastmile_qr_scan", "android": "https://dc.lft.to/lastmile_qr_scan"}, "is_reserved": 0}, {"lon": -77.0243315, "bike_id": "0c4cc8ec5a4894736150e85ea500f8d8", "lat": 38.923511833333336, "fusion_lon": 0.0, "fusion_lat": 0.0, "type": "electric_scooter", "name": "0c4cc8ec5a4894736150e85ea500f8d8", "is_disabled": 0, "rental_uris": {"ios": "https://dc.lft.to/lastmile_qr_scan", "android": "https://dc.lft.to/lastmile_qr_scan"}, "is_reserved": 0}, {"lon": -77.05060316666666, "bike_id": "474575616c7536377cd1875ca8d0f60e", "lat": 38.9258545, "fusion_lon": 0.0, "fusion_lat": 0.0, "type": "electric_scooter", "name": "474575616c7536377cd1875ca8d0f60e", "is_disabled": 0, "rental_uris": {"ios": "https://dc.lft.to/lastmile_qr_scan", "android": "https://dc.lft.to/lastmile_qr_scan"}, "is_reserved": 0}, {"lon": -76.991721, "bike_id": "919303714b84b524ee1399733837abbd", "lat": 38.8898695, "fusion_lon": 0.0, "fusion_lat": 0.0, "type": "electric_scooter", "name": "919303714b84b524ee1399733837abbd", "is_disabled": 0, "rental_uris": {"ios": "https://dc.lft.to/lastmile_qr_scan", "android": "https://dc.lft.to/lastmile_qr_scan"}, "is_reserved": 0}, {"lon": -77.02716633333333, "bike_id": "f31d2c5cf30601d1165a802e470d581a", "lat": 38.909312666666665, "fusion_lon": 0.0, "fusion_lat": 0.0, "type": "electric_scooter", "name": "f31d2c5cf30601d1165a802e470d581a", "is_disabled": 0, "rental_uris": {"ios": "https://dc.lft.to/lastmile_qr_scan", "android": "https://dc.lft.to/lastmile_qr_scan"}, "is_reserved": 0}, {"lon": -76.98448883333333, "bike_id": "72545a4be42f7cc9659c8457c3fc2154", "lat": 38.9055465, "fusion_lon": 0.0, "fusion_lat": 0.0, "type": "electric_scooter", "name": "72545a4be42f7cc9659c8457c3fc2154", "is_disabled": 0, "rental_uris": {"ios": "https://dc.lft.to/lastmile_qr_scan", "android": "https://dc.lft.to/lastmile_qr_scan"}, "is_reserved": 0}, {"lon": -77.02185516666667, "bike_id": "36cfebf0ce895b2e932f88b22057cfc4", "lat": 38.89997366666667, "fusion_lon": 0.0, "fusion_lat": 0.0, "type": "electric_scooter", "name": "36cfebf0ce895b2e932f88b22057cfc4", "is_disabled": 0, "rental_uris": {"ios": "https://dc.lft.to/lastmile_qr_scan", "android": "https://dc.lft.to/lastmile_qr_scan"}, "is_reserved": 0}, {"lon": -77.04100183333334, "bike_id": "c26c481ab634a993eb76d7917547800f", "lat": 38.9087265, "fusion_lon": 0.0, "fusion_lat": 0.0, "type": "electric_scooter", "name": "c26c481ab634a993eb76d7917547800f", "is_disabled": 0, "rental_uris": {"ios": "https://dc.lft.to/lastmile_qr_scan", "android": "https://dc.lft.to/lastmile_qr_scan"}, "is_reserved": 0}, {"lon": -77.0398385, "bike_id": "213bc769b556145d77ed3f595e79367e", "lat": 38.91629533333333, "fusion_lon": 0.0, "fusion_lat": 0.0, "type": "electric_scooter", "name": "213bc769b556145d77ed3f595e79367e", "is_disabled": 0, "rental_uris": {"ios": "https://dc.lft.to/lastmile_qr_scan", "android": "https://dc.lft.to/lastmile_qr_scan"}, "is_reserved": 0}, {"lon": -77.01056866666667, "bike_id": "fc96c9d5caaeb1ee6be3fde84d1f3439", "lat": 38.963637166666665, "fusion_lon": 0.0, "fusion_lat": 0.0, "type": "electric_scooter", "name": "fc96c9d5caaeb1ee6be3fde84d1f3439", "is_disabled": 0, "rental_uris": {"ios": "https://dc.lft.to/lastmile_qr_scan", "android": "https://dc.lft.to/lastmile_qr_scan"}, "is_reserved": 0}, {"lon": -77.00196533333333, "bike_id": "c26699256b86daf4814a089646dfd0b7", "lat": 38.900373333333334, "fusion_lon": 0.0, "fusion_lat": 0.0, "type": "electric_scooter", "name": "c26699256b86daf4814a089646dfd0b7", "is_disabled": 0, "rental_uris": {"ios": "https://dc.lft.to/lastmile_qr_scan", "android": "https://dc.lft.to/lastmile_qr_scan"}, "is_reserved": 0}, {"lon": -77.03186233333334, "bike_id": "c6414d3cbc7dc3f6fd94ab8893bbf6ca", "lat": 38.905200666666666, "fusion_lon": 0.0, "fusion_lat": 0.0, "type": "electric_scooter", "name": "c6414d3cbc7dc3f6fd94ab8893bbf6ca", "is_disabled": 0, "rental_uris": {"ios": "https://dc.lft.to/lastmile_qr_scan", "android": "https://dc.lft.to/lastmile_qr_scan"}, "is_reserved": 0}, {"lon": -77.0283255, "bike_id": "90b31889b8a93d8ae6fa52f48f02a70f", "lat": 38.9296275, "fusion_lon": 0.0, "fusion_lat": 0.0, "type": "electric_scooter", "name": "90b31889b8a93d8ae6fa52f48f02a70f", "is_disabled": 0, "rental_uris": {"ios": "https://dc.lft.to/lastmile_qr_scan", "android": "https://dc.lft.to/lastmile_qr_scan"}, "is_reserved": 0}, {"lon": -77.0098465, "bike_id": "608362cb7d7b025016aecd1db06dd653", "lat": 38.90364566666667, "fusion_lon": 0.0, "fusion_lat": 0.0, "type": "electric_scooter", "name": "608362cb7d7b025016aecd1db06dd653", "is_disabled": 0, "rental_uris": {"ios": "https://dc.lft.to/lastmile_qr_scan", "android": "https://dc.lft.to/lastmile_qr_scan"}, "is_reserved": 0}, {"lon": -77.1034085, "bike_id": "4ca8e5168f08cfe6f822e5fc1b425d8e", "lat": 38.885452666666666, "fusion_lon": 0.0, "fusion_lat": 0.0, "type": "electric_bike", "name": "4ca8e5168f08cfe6f822e5fc1b425d8e", "is_disabled": 0, "rental_uris": {"ios": "https://dc.lft.to/lastmile_qr_scan", "android": "https://dc.lft.to/lastmile_qr_scan"}, "is_reserved": 0}, {"lon": -77.065789, "bike_id": "f17537d61ecebe339fe4d59bd2fbb86c", "lat": 38.911266166666664, "fusion_lon": 0.0, "fusion_lat": 0.0, "type": "electric_bike", "name": "f17537d61ecebe339fe4d59bd2fbb86c", "is_disabled": 0, "rental_uris": {"ios": "https://dc.lft.to/lastmile_qr_scan", "android": "https://dc.lft.to/lastmile_qr_scan"}, "is_reserved": 0}, {"lon": -77.03572866666667, "bike_id": "baedc4a06da66e3b39be5910caead7d1", "lat": 38.91771383333333, "fusion_lon": 0.0, "fusion_lat": 0.0, "type": "electric_scooter", "name": "baedc4a06da66e3b39be5910caead7d1", "is_disabled": 0, "rental_uris": {"ios": "https://dc.lft.to/lastmile_qr_scan", "android": "https://dc.lft.to/lastmile_qr_scan"}, "is_reserved": 0}, {"lon": -77.04102316666666, "bike_id": "8031822223745fac6688b79359f62399", "lat": 38.908755, "fusion_lon": 0.0, "fusion_lat": 0.0, "type": "electric_scooter", "name": "8031822223745fac6688b79359f62399", "is_disabled": 0, "rental_uris": {"ios": "https://dc.lft.to/lastmile_qr_scan", "android": "https://dc.lft.to/lastmile_qr_scan"}, "is_reserved": 0}, {"lon": -76.99870433333334, "bike_id": "a711a49288e374cb7ba3a225712cfa4a", "lat": 38.90028083333333, "fusion_lon": 0.0, "fusion_lat": 0.0, "type": "electric_scooter", "name": "a711a49288e374cb7ba3a225712cfa4a", "is_disabled": 0, "rental_uris": {"ios": "https://dc.lft.to/lastmile_qr_scan", "android": "https://dc.lft.to/lastmile_qr_scan"}, "is_reserved": 0}, {"lon": -77.0365665, "bike_id": "ff89eccb0f08396ce14963789fcc59af", "lat": 38.932072166666664, "fusion_lon": 0.0, "fusion_lat": 0.0, "type": "electric_scooter", "name": "ff89eccb0f08396ce14963789fcc59af", "is_disabled": 0, "rental_uris": {"ios": "https://dc.lft.to/lastmile_qr_scan", "android": "https://dc.lft.to/lastmile_qr_scan"}, "is_reserved": 0}, {"lon": -77.023017, "bike_id": "b34d33f91ca5aa571d53fe8a6b338fb1", "lat": 38.91758883333333, "fusion_lon": 0.0, "fusion_lat": 0.0, "type": "electric_scooter", "name": "b34d33f91ca5aa571d53fe8a6b338fb1", "is_disabled": 0, "rental_uris": {"ios": "https://dc.lft.to/lastmile_qr_scan", "android": "https://dc.lft.to/lastmile_qr_scan"}, "is_reserved": 0}, {"lon": -77.06707883333333, "bike_id": "b4defe3c9f0dc67792a7ffa4ffba4601", "lat": 38.914411333333334, "fusion_lon": 0.0, "fusion_lat": 0.0, "type": "electric_scooter", "name": "b4defe3c9f0dc67792a7ffa4ffba4601", "is_disabled": 0, "rental_uris": {"ios": "https://dc.lft.to/lastmile_qr_scan", "android": "https://dc.lft.to/lastmile_qr_scan"}, "is_reserved": 0}, {"lon": -77.01514433333334, "bike_id": "26b2325bb4dbfbe6dc169d2a28039e60", "lat": 38.900263, "fusion_lon": 0.0, "fusion_lat": 0.0, "type": "electric_scooter", "name": "26b2325bb4dbfbe6dc169d2a28039e60", "is_disabled": 0, "rental_uris": {"ios": "https://dc.lft.to/lastmile_qr_scan", "android": "https://dc.lft.to/lastmile_qr_scan"}, "is_reserved": 0}, {"lon": -76.95533083333333, "bike_id": "8dc3381619d55c6052f82ff953ba2957", "lat": 38.888745, "fusion_lon": 0.0, "fusion_lat": 0.0, "type": "electric_scooter", "name": "8dc3381619d55c6052f82ff953ba2957", "is_disabled": 0, "rental_uris": {"ios": "https://dc.lft.to/lastmile_qr_scan", "android": "https://dc.lft.to/lastmile_qr_scan"}, "is_reserved": 0}, {"lon": -76.97832716666667, "bike_id": "270fcfdd904af53d198232eba6ed11a0", "lat": 38.89910916666667, "fusion_lon": 0.0, "fusion_lat": 0.0, "type": "electric_scooter", "name": "270fcfdd904af53d198232eba6ed11a0", "is_disabled": 0, "rental_uris": {"ios": "https://dc.lft.to/lastmile_qr_scan", "android": "https://dc.lft.to/lastmile_qr_scan"}, "is_reserved": 0}, {"lon": -77.0369685, "bike_id": "ed650c9254ce15f26ea1c2b101365ad1", "lat": 38.93647133333333, "fusion_lon": 0.0, "fusion_lat": 0.0, "type": "electric_scooter", "name": "ed650c9254ce15f26ea1c2b101365ad1", "is_disabled": 0, "rental_uris": {"ios": "https://dc.lft.to/lastmile_qr_scan", "android": "https://dc.lft.to/lastmile_qr_scan"}, "is_reserved": 0}, {"lon": -77.03249366666667, "bike_id": "84aacd6376af7fdcee195fdf96e4eafc", "lat": 38.90968933333333, "fusion_lon": 0.0, "fusion_lat": 0.0, "type": "electric_scooter", "name": "84aacd6376af7fdcee195fdf96e4eafc", "is_disabled": 0, "rental_uris": {"ios": "https://dc.lft.to/lastmile_qr_scan", "android": "https://dc.lft.to/lastmile_qr_scan"}, "is_reserved": 0}, {"lon": -77.03313966666667, "bike_id": "0c920ad644e50ca4b1a4ddb112c739f9", "lat": 38.901197833333335, "fusion_lon": 0.0, "fusion_lat": 0.0, "type": "electric_scooter", "name": "0c920ad644e50ca4b1a4ddb112c739f9", "is_disabled": 0, "rental_uris": {"ios": "https://dc.lft.to/lastmile_qr_scan", "android": "https://dc.lft.to/lastmile_qr_scan"}, "is_reserved": 0}, {"lon": -77.06061066666666, "bike_id": "6e9721771ffd4f61ca38aaed9d803d1f", "lat": 38.808555166666665, "fusion_lon": 0.0, "fusion_lat": 0.0, "type": "electric_bike", "name": "6e9721771ffd4f61ca38aaed9d803d1f", "is_disabled": 0, "rental_uris": {"ios": "https://dc.lft.to/lastmile_qr_scan", "android": "https://dc.lft.to/lastmile_qr_scan"}, "is_reserved": 0}, {"lon": -77.03248483333333, "bike_id": "1c89f5b2ff10149d1293902b805a09fa", "lat": 38.928625, "fusion_lon": 0.0, "fusion_lat": 0.0, "type": "electric_scooter", "name": "1c89f5b2ff10149d1293902b805a09fa", "is_disabled": 0, "rental_uris": {"ios": "https://dc.lft.to/lastmile_qr_scan", "android": "https://dc.lft.to/lastmile_qr_scan"}, "is_reserved": 0}, {"lon": -77.03796033333333, "bike_id": "70fd1e29bb829b8a0724b88ba5c61f55", "lat": 38.91034833333333, "fusion_lon": 0.0, "fusion_lat": 0.0, "type": "electric_scooter", "name": "70fd1e29bb829b8a0724b88ba5c61f55", "is_disabled": 0, "rental_uris": {"ios": "https://dc.lft.to/lastmile_qr_scan", "android": "https://dc.lft.to/lastmile_qr_scan"}, "is_reserved": 0}, {"lon": -77.03767233333333, "bike_id": "0b02a8013e919940ced997c6127bb4ca", "lat": 38.92941316666667, "fusion_lon": 0.0, "fusion_lat": 0.0, "type": "electric_scooter", "name": "0b02a8013e919940ced997c6127bb4ca", "is_disabled": 0, "rental_uris": {"ios": "https://dc.lft.to/lastmile_qr_scan", "android": "https://dc.lft.to/lastmile_qr_scan"}, "is_reserved": 0}, {"lon": -77.001961, "bike_id": "7928a1d88f21d5b5da031b6b3a373f17", "lat": 38.90235416666667, "fusion_lon": 0.0, "fusion_lat": 0.0, "type": "electric_scooter", "name": "7928a1d88f21d5b5da031b6b3a373f17", "is_disabled": 0, "rental_uris": {"ios": "https://dc.lft.to/lastmile_qr_scan", "android": "https://dc.lft.to/lastmile_qr_scan"}, "is_reserved": 0}, {"lon": -77.03344566666667, "bike_id": "b57529c78b96146c67fd12503a47c943", "lat": 38.909588166666666, "fusion_lon": 0.0, "fusion_lat": 0.0, "type": "electric_scooter", "name": "b57529c78b96146c67fd12503a47c943", "is_disabled": 0, "rental_uris": {"ios": "https://dc.lft.to/lastmile_qr_scan", "android": "https://dc.lft.to/lastmile_qr_scan"}, "is_reserved": 0}, {"lon": -77.02773383333333, "bike_id": "7515847acdad356461e498918bf94f1f", "lat": 38.92776216666667, "fusion_lon": 0.0, "fusion_lat": 0.0, "type": "electric_scooter", "name": "7515847acdad356461e498918bf94f1f", "is_disabled": 0, "rental_uris": {"ios": "https://dc.lft.to/lastmile_qr_scan", "android": "https://dc.lft.to/lastmile_qr_scan"}, "is_reserved": 0}, {"lon": -77.05038433333333, "bike_id": "3d76a2f0b5af555bc1c982a63b0b9bc7", "lat": 38.900567333333335, "fusion_lon": 0.0, "fusion_lat": 0.0, "type": "electric_scooter", "name": "3d76a2f0b5af555bc1c982a63b0b9bc7", "is_disabled": 0, "rental_uris": {"ios": "https://dc.lft.to/lastmile_qr_scan", "android": "https://dc.lft.to/lastmile_qr_scan"}, "is_reserved": 0}, {"lon": -77.03202983333334, "bike_id": "a1d21bcb87ba3d18de1a8d00e58bbf6b", "lat": 38.94406883333333, "fusion_lon": 0.0, "fusion_lat": 0.0, "type": "electric_scooter", "name": "a1d21bcb87ba3d18de1a8d00e58bbf6b", "is_disabled": 0, "rental_uris": {"ios": "https://dc.lft.to/lastmile_qr_scan", "android": "https://dc.lft.to/lastmile_qr_scan"}, "is_reserved": 0}, {"lon": -77.03277683333333, "bike_id": "cf57273508286d195949b02bb7755f4a", "lat": 38.928822833333335, "fusion_lon": 0.0, "fusion_lat": 0.0, "type": "electric_scooter", "name": "cf57273508286d195949b02bb7755f4a", "is_disabled": 0, "rental_uris": {"ios": "https://dc.lft.to/lastmile_qr_scan", "android": "https://dc.lft.to/lastmile_qr_scan"}, "is_reserved": 0}, {"lon": -77.03160966666667, "bike_id": "7dc0f5f9288ae113fe4f07c10d93be25", "lat": 38.9156055, "fusion_lon": 0.0, "fusion_lat": 0.0, "type": "electric_scooter", "name": "7dc0f5f9288ae113fe4f07c10d93be25", "is_disabled": 0, "rental_uris": {"ios": "https://dc.lft.to/lastmile_qr_scan", "android": "https://dc.lft.to/lastmile_qr_scan"}, "is_reserved": 0}, {"lon": -77.00030833333334, "bike_id": "c6dfe950219996df0e932149f5cc6a8f", "lat": 38.96778483333333, "fusion_lon": 0.0, "fusion_lat": 0.0, "type": "electric_bike", "name": "c6dfe950219996df0e932149f5cc6a8f", "is_disabled": 0, "rental_uris": {"ios": "https://dc.lft.to/lastmile_qr_scan", "android": "https://dc.lft.to/lastmile_qr_scan"}, "is_reserved": 0}, {"lon": -77.04561166666667, "bike_id": "c3a470e22b7132e4a0cd732616213530", "lat": 38.89613883333333, "fusion_lon": 0.0, "fusion_lat": 0.0, "type": "electric_scooter", "name": "c3a470e22b7132e4a0cd732616213530", "is_disabled": 0, "rental_uris": {"ios": "https://dc.lft.to/lastmile_qr_scan", "android": "https://dc.lft.to/lastmile_qr_scan"}, "is_reserved": 0}, {"lon": -77.0284085, "bike_id": "1166f41415790a884688cacadf1d2375", "lat": 38.9341885, "fusion_lon": 0.0, "fusion_lat": 0.0, "type": "electric_scooter", "name": "1166f41415790a884688cacadf1d2375", "is_disabled": 0, "rental_uris": {"ios": "https://dc.lft.to/lastmile_qr_scan", "android": "https://dc.lft.to/lastmile_qr_scan"}, "is_reserved": 0}, {"lon": -77.013443, "bike_id": "5bd40a0f6bf696508da5890dd4a1615a", "lat": 38.878137, "fusion_lon": 0.0, "fusion_lat": 0.0, "type": "electric_scooter", "name": "5bd40a0f6bf696508da5890dd4a1615a", "is_disabled": 0, "rental_uris": {"ios": "https://dc.lft.to/lastmile_qr_scan", "android": "https://dc.lft.to/lastmile_qr_scan"}, "is_reserved": 0}, {"lon": -77.00200316666667, "bike_id": "450912e60cf9f7aecbcd2b5f428a3a15", "lat": 38.902396333333336, "fusion_lon": 0.0, "fusion_lat": 0.0, "type": "electric_scooter", "name": "450912e60cf9f7aecbcd2b5f428a3a15", "is_disabled": 0, "rental_uris": {"ios": "https://dc.lft.to/lastmile_qr_scan", "android": "https://dc.lft.to/lastmile_qr_scan"}, "is_reserved": 0}, {"lon": -77.0208655, "bike_id": "46448d47be563978149de9f627130a27", "lat": 38.8818095, "fusion_lon": 0.0, "fusion_lat": 0.0, "type": "electric_scooter", "name": "46448d47be563978149de9f627130a27", "is_disabled": 0, "rental_uris": {"ios": "https://dc.lft.to/lastmile_qr_scan", "android": "https://dc.lft.to/lastmile_qr_scan"}, "is_reserved": 0}, {"lon": -77.02712066666666, "bike_id": "48128b957310e587644e184d8d0a7a8c", "lat": 38.90953366666667, "fusion_lon": 0.0, "fusion_lat": 0.0, "type": "electric_scooter", "name": "48128b957310e587644e184d8d0a7a8c", "is_disabled": 0, "rental_uris": {"ios": "https://dc.lft.to/lastmile_qr_scan", "android": "https://dc.lft.to/lastmile_qr_scan"}, "is_reserved": 0}, {"lon": -77.06639516666667, "bike_id": "981de0c47c25defd7f1d81410751bd1e", "lat": 38.905909333333334, "fusion_lon": 0.0, "fusion_lat": 0.0, "type": "electric_scooter", "name": "981de0c47c25defd7f1d81410751bd1e", "is_disabled": 0, "rental_uris": {"ios": "https://dc.lft.to/lastmile_qr_scan", "android": "https://dc.lft.to/lastmile_qr_scan"}, "is_reserved": 0}, {"lon": -77.02966683333334, "bike_id": "e0f316bce1f9546d59ea533127baaec3", "lat": 38.9145015, "fusion_lon": 0.0, "fusion_lat": 0.0, "type": "electric_scooter", "name": "e0f316bce1f9546d59ea533127baaec3", "is_disabled": 0, "rental_uris": {"ios": "https://dc.lft.to/lastmile_qr_scan", "android": "https://dc.lft.to/lastmile_qr_scan"}, "is_reserved": 0}, {"lon": -76.98505083333333, "bike_id": "4537e3c095ea52962e5d13a92218c97a", "lat": 38.8808025, "fusion_lon": 0.0, "fusion_lat": 0.0, "type": "electric_scooter", "name": "4537e3c095ea52962e5d13a92218c97a", "is_disabled": 0, "rental_uris": {"ios": "https://dc.lft.to/lastmile_qr_scan", "android": "https://dc.lft.to/lastmile_qr_scan"}, "is_reserved": 0}, {"lon": -77.03757716666667, "bike_id": "64eab04522036930dacfd9aa49174b38", "lat": 38.907755333333334, "fusion_lon": 0.0, "fusion_lat": 0.0, "type": "electric_scooter", "name": "64eab04522036930dacfd9aa49174b38", "is_disabled": 0, "rental_uris": {"ios": "https://dc.lft.to/lastmile_qr_scan", "android": "https://dc.lft.to/lastmile_qr_scan"}, "is_reserved": 0}, {"lon": -77.0338145, "bike_id": "2786ecbfb5e75e317b4cc455e57654be", "lat": 38.90965033333333, "fusion_lon": 0.0, "fusion_lat": 0.0, "type": "electric_scooter", "name": "2786ecbfb5e75e317b4cc455e57654be", "is_disabled": 0, "rental_uris": {"ios": "https://dc.lft.to/lastmile_qr_scan", "android": "https://dc.lft.to/lastmile_qr_scan"}, "is_reserved": 0}, {"lon": -77.022813, "bike_id": "174c84a2e803f51b432094dd69538987", "lat": 38.9077335, "fusion_lon": 0.0, "fusion_lat": 0.0, "type": "electric_scooter", "name": "174c84a2e803f51b432094dd69538987", "is_disabled": 0, "rental_uris": {"ios": "https://dc.lft.to/lastmile_qr_scan", "android": "https://dc.lft.to/lastmile_qr_scan"}, "is_reserved": 0}, {"lon": -77.04688466666667, "bike_id": "f9f66b2b47e7e762b895e0cae40e6d95", "lat": 38.8974, "fusion_lon": 0.0, "fusion_lat": 0.0, "type": "electric_scooter", "name": "f9f66b2b47e7e762b895e0cae40e6d95", "is_disabled": 0, "rental_uris": {"ios": "https://dc.lft.to/lastmile_qr_scan", "android": "https://dc.lft.to/lastmile_qr_scan"}, "is_reserved": 0}, {"lon": -77.02872766666667, "bike_id": "b5e08aeb43719e4e403fc4260a7c81b9", "lat": 38.91690883333333, "fusion_lon": 0.0, "fusion_lat": 0.0, "type": "electric_scooter", "name": "b5e08aeb43719e4e403fc4260a7c81b9", "is_disabled": 0, "rental_uris": {"ios": "https://dc.lft.to/lastmile_qr_scan", "android": "https://dc.lft.to/lastmile_qr_scan"}, "is_reserved": 0}, {"lon": -77.02526233333333, "bike_id": "5cbd96a36f35a44b87d685be65e5818a", "lat": 38.9289225, "fusion_lon": 0.0, "fusion_lat": 0.0, "type": "electric_scooter", "name": "5cbd96a36f35a44b87d685be65e5818a", "is_disabled": 0, "rental_uris": {"ios": "https://dc.lft.to/lastmile_qr_scan", "android": "https://dc.lft.to/lastmile_qr_scan"}, "is_reserved": 0}, {"lon": -76.98193183333333, "bike_id": "2329e2fe33310344934f4a4201fcf96b", "lat": 38.96739266666667, "fusion_lon": 0.0, "fusion_lat": 0.0, "type": "electric_bike", "name": "2329e2fe33310344934f4a4201fcf96b", "is_disabled": 0, "rental_uris": {"ios": "https://dc.lft.to/lastmile_qr_scan", "android": "https://dc.lft.to/lastmile_qr_scan"}, "is_reserved": 0}, {"lon": -77.03669283333333, "bike_id": "c14544f18be160acc60886509b5860a3", "lat": 38.9392745, "fusion_lon": 0.0, "fusion_lat": 0.0, "type": "electric_scooter", "name": "c14544f18be160acc60886509b5860a3", "is_disabled": 0, "rental_uris": {"ios": "https://dc.lft.to/lastmile_qr_scan", "android": "https://dc.lft.to/lastmile_qr_scan"}, "is_reserved": 0}, {"lon": -77.04174983333333, "bike_id": "0d4291c15a69c055908b09709b9d2f5c", "lat": 38.91981166666667, "fusion_lon": 0.0, "fusion_lat": 0.0, "type": "electric_scooter", "name": "0d4291c15a69c055908b09709b9d2f5c", "is_disabled": 0, "rental_uris": {"ios": "https://dc.lft.to/lastmile_qr_scan", "android": "https://dc.lft.to/lastmile_qr_scan"}, "is_reserved": 0}, {"lon": -77.02971, "bike_id": "18d79cf3c04bfa5562b66a5ce454dcda", "lat": 38.9166465, "fusion_lon": 0.0, "fusion_lat": 0.0, "type": "electric_scooter", "name": "18d79cf3c04bfa5562b66a5ce454dcda", "is_disabled": 0, "rental_uris": {"ios": "https://dc.lft.to/lastmile_qr_scan", "android": "https://dc.lft.to/lastmile_qr_scan"}, "is_reserved": 0}, {"lon": -77.03866816666667, "bike_id": "00576f18355534d491fd2ac427b41d50", "lat": 38.921465166666664, "fusion_lon": 0.0, "fusion_lat": 0.0, "type": "electric_scooter", "name": "00576f18355534d491fd2ac427b41d50", "is_disabled": 0, "rental_uris": {"ios": "https://dc.lft.to/lastmile_qr_scan", "android": "https://dc.lft.to/lastmile_qr_scan"}, "is_reserved": 0}, {"lon": -77.03330966666667, "bike_id": "04e7d187cfa8cdf5c33221af044aaf0f", "lat": 38.898319666666666, "fusion_lon": 0.0, "fusion_lat": 0.0, "type": "electric_scooter", "name": "04e7d187cfa8cdf5c33221af044aaf0f", "is_disabled": 0, "rental_uris": {"ios": "https://dc.lft.to/lastmile_qr_scan", "android": "https://dc.lft.to/lastmile_qr_scan"}, "is_reserved": 0}, {"lon": -77.06417483333334, "bike_id": "602b31991d2af98aad0127fe0bfb679b", "lat": 38.993324, "fusion_lon": 0.0, "fusion_lat": 0.0, "type": "electric_scooter", "name": "602b31991d2af98aad0127fe0bfb679b", "is_disabled": 0, "rental_uris": {"ios": "https://dc.lft.to/lastmile_qr_scan", "android": "https://dc.lft.to/lastmile_qr_scan"}, "is_reserved": 0}, {"lon": -77.03514283333334, "bike_id": "e86d1dd0f68dbacf2697a8eb6f1fac89", "lat": 38.927359, "fusion_lon": 0.0, "fusion_lat": 0.0, "type": "electric_scooter", "name": "e86d1dd0f68dbacf2697a8eb6f1fac89", "is_disabled": 0, "rental_uris": {"ios": "https://dc.lft.to/lastmile_qr_scan", "android": "https://dc.lft.to/lastmile_qr_scan"}, "is_reserved": 0}, {"lon": -76.94035283333334, "bike_id": "47675618867b5a78219b7b1b5e61e630", "lat": 38.90820433333333, "fusion_lon": 0.0, "fusion_lat": 0.0, "type": "electric_bike", "name": "47675618867b5a78219b7b1b5e61e630", "is_disabled": 0, "rental_uris": {"ios": "https://dc.lft.to/lastmile_qr_scan", "android": "https://dc.lft.to/lastmile_qr_scan"}, "is_reserved": 0}, {"lon": -77.0362785, "bike_id": "a798e43e5f6fd79ad8ceda72eed06241", "lat": 38.94493166666667, "fusion_lon": 0.0, "fusion_lat": 0.0, "type": "electric_scooter", "name": "a798e43e5f6fd79ad8ceda72eed06241", "is_disabled": 0, "rental_uris": {"ios": "https://dc.lft.to/lastmile_qr_scan", "android": "https://dc.lft.to/lastmile_qr_scan"}, "is_reserved": 0}, {"lon": -77.0486745, "bike_id": "cf215976926fbd4651d59e3370a1f7db", "lat": 38.89274783333333, "fusion_lon": 0.0, "fusion_lat": 0.0, "type": "electric_scooter", "name": "cf215976926fbd4651d59e3370a1f7db", "is_disabled": 0, "rental_uris": {"ios": "https://dc.lft.to/lastmile_qr_scan", "android": "https://dc.lft.to/lastmile_qr_scan"}, "is_reserved": 0}, {"lon": -76.96520966666667, "bike_id": "ca5846f5c3bb9bb2f603cea68c9eaf6c", "lat": 38.876275, "fusion_lon": 0.0, "fusion_lat": 0.0, "type": "electric_scooter", "name": "ca5846f5c3bb9bb2f603cea68c9eaf6c", "is_disabled": 0, "rental_uris": {"ios": "https://dc.lft.to/lastmile_qr_scan", "android": "https://dc.lft.to/lastmile_qr_scan"}, "is_reserved": 0}, {"lon": -77.054667, "bike_id": "ce24ca557ccfc28784bb7d30737c30ea", "lat": 38.925758, "fusion_lon": 0.0, "fusion_lat": 0.0, "type": "electric_scooter", "name": "ce24ca557ccfc28784bb7d30737c30ea", "is_disabled": 0, "rental_uris": {"ios": "https://dc.lft.to/lastmile_qr_scan", "android": "https://dc.lft.to/lastmile_qr_scan"}, "is_reserved": 0}, {"lon": -77.02170366666667, "bike_id": "3f1a08c383b6c7eb2a5e5c5c7ac069fb", "lat": 38.94294466666667, "fusion_lon": 0.0, "fusion_lat": 0.0, "type": "electric_scooter", "name": "3f1a08c383b6c7eb2a5e5c5c7ac069fb", "is_disabled": 0, "rental_uris": {"ios": "https://dc.lft.to/lastmile_qr_scan", "android": "https://dc.lft.to/lastmile_qr_scan"}, "is_reserved": 0}, {"lon": -77.04211516666666, "bike_id": "9710c5b16773a16aa78ea85dfacf5d90", "lat": 38.9215165, "fusion_lon": 0.0, "fusion_lat": 0.0, "type": "electric_scooter", "name": "9710c5b16773a16aa78ea85dfacf5d90", "is_disabled": 0, "rental_uris": {"ios": "https://dc.lft.to/lastmile_qr_scan", "android": "https://dc.lft.to/lastmile_qr_scan"}, "is_reserved": 0}, {"lon": -77.023212, "bike_id": "0b59ffcf50d1ce1210309bf5a68c9fb1", "lat": 38.924075333333334, "fusion_lon": 0.0, "fusion_lat": 0.0, "type": "electric_scooter", "name": "0b59ffcf50d1ce1210309bf5a68c9fb1", "is_disabled": 0, "rental_uris": {"ios": "https://dc.lft.to/lastmile_qr_scan", "android": "https://dc.lft.to/lastmile_qr_scan"}, "is_reserved": 0}, {"lon": -77.021043, "bike_id": "af852b2610228384a8eb66040431493b", "lat": 38.9056265, "fusion_lon": 0.0, "fusion_lat": 0.0, "type": "electric_scooter", "name": "af852b2610228384a8eb66040431493b", "is_disabled": 0, "rental_uris": {"ios": "https://dc.lft.to/lastmile_qr_scan", "android": "https://dc.lft.to/lastmile_qr_scan"}, "is_reserved": 0}, {"lon": -76.9834995, "bike_id": "46e2c81eafa7cb01c5025b5a15c7b35e", "lat": 38.887671833333336, "fusion_lon": 0.0, "fusion_lat": 0.0, "type": "electric_scooter", "name": "46e2c81eafa7cb01c5025b5a15c7b35e", "is_disabled": 0, "rental_uris": {"ios": "https://dc.lft.to/lastmile_qr_scan", "android": "https://dc.lft.to/lastmile_qr_scan"}, "is_reserved": 0}, {"lon": -76.94633316666666, "bike_id": "dee22a4b424cf6c72feee5da0322d38d", "lat": 38.8983355, "fusion_lon": 0.0, "fusion_lat": 0.0, "type": "electric_scooter", "name": "dee22a4b424cf6c72feee5da0322d38d", "is_disabled": 0, "rental_uris": {"ios": "https://dc.lft.to/lastmile_qr_scan", "android": "https://dc.lft.to/lastmile_qr_scan"}, "is_reserved": 0}, {"lon": -76.97547933333334, "bike_id": "d23ee8ec1b92a417fd1a31d6dfc2c4cd", "lat": 38.90322066666667, "fusion_lon": 0.0, "fusion_lat": 0.0, "type": "electric_scooter", "name": "d23ee8ec1b92a417fd1a31d6dfc2c4cd", "is_disabled": 0, "rental_uris": {"ios": "https://dc.lft.to/lastmile_qr_scan", "android": "https://dc.lft.to/lastmile_qr_scan"}, "is_reserved": 0}, {"lon": -77.06338966666667, "bike_id": "82ba76b3bd5b7b9a47d84bc557e02d3a", "lat": 38.906834833333335, "fusion_lon": 0.0, "fusion_lat": 0.0, "type": "electric_scooter", "name": "82ba76b3bd5b7b9a47d84bc557e02d3a", "is_disabled": 0, "rental_uris": {"ios": "https://dc.lft.to/lastmile_qr_scan", "android": "https://dc.lft.to/lastmile_qr_scan"}, "is_reserved": 0}, {"lon": -77.03443233333333, "bike_id": "d79d9175e6f62ed50b3e2ac015104750", "lat": 38.90815083333333, "fusion_lon": 0.0, "fusion_lat": 0.0, "type": "electric_scooter", "name": "d79d9175e6f62ed50b3e2ac015104750", "is_disabled": 0, "rental_uris": {"ios": "https://dc.lft.to/lastmile_qr_scan", "android": "https://dc.lft.to/lastmile_qr_scan"}, "is_reserved": 0}, {"lon": -77.05701933333333, "bike_id": "ce05faac28e89b5e3e0f2421e607b9c4", "lat": 38.905476166666666, "fusion_lon": 0.0, "fusion_lat": 0.0, "type": "electric_scooter", "name": "ce05faac28e89b5e3e0f2421e607b9c4", "is_disabled": 0, "rental_uris": {"ios": "https://dc.lft.to/lastmile_qr_scan", "android": "https://dc.lft.to/lastmile_qr_scan"}, "is_reserved": 0}, {"lon": -77.03499183333334, "bike_id": "bc8f714e7e7dd56359c0981f8dc92e67", "lat": 38.9125275, "fusion_lon": 0.0, "fusion_lat": 0.0, "type": "electric_scooter", "name": "bc8f714e7e7dd56359c0981f8dc92e67", "is_disabled": 0, "rental_uris": {"ios": "https://dc.lft.to/lastmile_qr_scan", "android": "https://dc.lft.to/lastmile_qr_scan"}, "is_reserved": 0}, {"lon": -77.08458616666667, "bike_id": "0c9c9002e11d4f4962c4155bd0fc308e", "lat": 38.84818333333333, "fusion_lon": 0.0, "fusion_lat": 0.0, "type": "electric_bike", "name": "0c9c9002e11d4f4962c4155bd0fc308e", "is_disabled": 0, "rental_uris": {"ios": "https://dc.lft.to/lastmile_qr_scan", "android": "https://dc.lft.to/lastmile_qr_scan"}, "is_reserved": 0}, {"lon": -77.0342495, "bike_id": "ea053229a0ccb8e455de443e7c5c7b55", "lat": 38.92242483333333, "fusion_lon": 0.0, "fusion_lat": 0.0, "type": "electric_scooter", "name": "ea053229a0ccb8e455de443e7c5c7b55", "is_disabled": 0, "rental_uris": {"ios": "https://dc.lft.to/lastmile_qr_scan", "android": "https://dc.lft.to/lastmile_qr_scan"}, "is_reserved": 0}, {"lon": -77.03401066666666, "bike_id": "1b062b9258703f39439f225eaed92469", "lat": 38.90967166666667, "fusion_lon": 0.0, "fusion_lat": 0.0, "type": "electric_scooter", "name": "1b062b9258703f39439f225eaed92469", "is_disabled": 0, "rental_uris": {"ios": "https://dc.lft.to/lastmile_qr_scan", "android": "https://dc.lft.to/lastmile_qr_scan"}, "is_reserved": 0}, {"lon": -76.97389683333333, "bike_id": "5a7833d29da1bda1593b84a4bc0d5aea", "lat": 38.905557333333334, "fusion_lon": 0.0, "fusion_lat": 0.0, "type": "electric_scooter", "name": "5a7833d29da1bda1593b84a4bc0d5aea", "is_disabled": 0, "rental_uris": {"ios": "https://dc.lft.to/lastmile_qr_scan", "android": "https://dc.lft.to/lastmile_qr_scan"}, "is_reserved": 0}, {"lon": -77.04561216666667, "bike_id": "ed2d42dc4f7829d67b52a8db193aea5a", "lat": 38.9139645, "fusion_lon": 0.0, "fusion_lat": 0.0, "type": "electric_scooter", "name": "ed2d42dc4f7829d67b52a8db193aea5a", "is_disabled": 0, "rental_uris": {"ios": "https://dc.lft.to/lastmile_qr_scan", "android": "https://dc.lft.to/lastmile_qr_scan"}, "is_reserved": 0}, {"lon": -77.03502266666666, "bike_id": "13e962385e0ead615b86dce7f650c477", "lat": 38.937576, "fusion_lon": 0.0, "fusion_lat": 0.0, "type": "electric_scooter", "name": "13e962385e0ead615b86dce7f650c477", "is_disabled": 0, "rental_uris": {"ios": "https://dc.lft.to/lastmile_qr_scan", "android": "https://dc.lft.to/lastmile_qr_scan"}, "is_reserved": 0}, {"lon": -77.0230645, "bike_id": "0e81160aeeef66e9fa6794594cdf9c95", "lat": 38.94088333333333, "fusion_lon": 0.0, "fusion_lat": 0.0, "type": "electric_scooter", "name": "0e81160aeeef66e9fa6794594cdf9c95", "is_disabled": 0, "rental_uris": {"ios": "https://dc.lft.to/lastmile_qr_scan", "android": "https://dc.lft.to/lastmile_qr_scan"}, "is_reserved": 0}, {"lon": -77.027137, "bike_id": "b2ae42f11e499816a0674485198df1c1", "lat": 38.897178333333336, "fusion_lon": 0.0, "fusion_lat": 0.0, "type": "electric_scooter", "name": "b2ae42f11e499816a0674485198df1c1", "is_disabled": 0, "rental_uris": {"ios": "https://dc.lft.to/lastmile_qr_scan", "android": "https://dc.lft.to/lastmile_qr_scan"}, "is_reserved": 0}, {"lon": -77.04329633333333, "bike_id": "5e99db2acbf181403aa5acefe1b3b740", "lat": 38.916035666666666, "fusion_lon": 0.0, "fusion_lat": 0.0, "type": "electric_scooter", "name": "5e99db2acbf181403aa5acefe1b3b740", "is_disabled": 0, "rental_uris": {"ios": "https://dc.lft.to/lastmile_qr_scan", "android": "https://dc.lft.to/lastmile_qr_scan"}, "is_reserved": 0}, {"lon": -77.04489316666667, "bike_id": "549a7b6006631c92a5aed3d4e8e3bf18", "lat": 38.913562166666665, "fusion_lon": 0.0, "fusion_lat": 0.0, "type": "electric_scooter", "name": "549a7b6006631c92a5aed3d4e8e3bf18", "is_disabled": 0, "rental_uris": {"ios": "https://dc.lft.to/lastmile_qr_scan", "android": "https://dc.lft.to/lastmile_qr_scan"}, "is_reserved": 0}, {"lon": -77.03265283333333, "bike_id": "fbe697698fe05c64f4051ea3b3aa292a", "lat": 38.937810166666665, "fusion_lon": 0.0, "fusion_lat": 0.0, "type": "electric_scooter", "name": "fbe697698fe05c64f4051ea3b3aa292a", "is_disabled": 0, "rental_uris": {"ios": "https://dc.lft.to/lastmile_qr_scan", "android": "https://dc.lft.to/lastmile_qr_scan"}, "is_reserved": 0}, {"lon": -76.965235, "bike_id": "e7e0df48a594226afcb91e571c56d6e2", "lat": 38.87628516666667, "fusion_lon": 0.0, "fusion_lat": 0.0, "type": "electric_scooter", "name": "e7e0df48a594226afcb91e571c56d6e2", "is_disabled": 0, "rental_uris": {"ios": "https://dc.lft.to/lastmile_qr_scan", "android": "https://dc.lft.to/lastmile_qr_scan"}, "is_reserved": 0}, {"lon": -77.02518716666667, "bike_id": "ac88d86cd9d9ce69aeaacc96ad3ac34a", "lat": 38.912601, "fusion_lon": 0.0, "fusion_lat": 0.0, "type": "electric_scooter", "name": "ac88d86cd9d9ce69aeaacc96ad3ac34a", "is_disabled": 0, "rental_uris": {"ios": "https://dc.lft.to/lastmile_qr_scan", "android": "https://dc.lft.to/lastmile_qr_scan"}, "is_reserved": 0}, {"lon": -77.05018266666667, "bike_id": "8a3a084e8f9321a7cba1aba75a3111ae", "lat": 38.91572333333333, "fusion_lon": 0.0, "fusion_lat": 0.0, "type": "electric_scooter", "name": "8a3a084e8f9321a7cba1aba75a3111ae", "is_disabled": 0, "rental_uris": {"ios": "https://dc.lft.to/lastmile_qr_scan", "android": "https://dc.lft.to/lastmile_qr_scan"}, "is_reserved": 0}, {"lon": -76.98489016666667, "bike_id": "6e58093cfe099607dd5578b12ac94c40", "lat": 38.8783785, "fusion_lon": 0.0, "fusion_lat": 0.0, "type": "electric_scooter", "name": "6e58093cfe099607dd5578b12ac94c40", "is_disabled": 0, "rental_uris": {"ios": "https://dc.lft.to/lastmile_qr_scan", "android": "https://dc.lft.to/lastmile_qr_scan"}, "is_reserved": 0}, {"lon": -76.94410083333334, "bike_id": "2270a2730c0c1bec2bd78eb691465551", "lat": 38.88613816666667, "fusion_lon": 0.0, "fusion_lat": 0.0, "type": "electric_scooter", "name": "2270a2730c0c1bec2bd78eb691465551", "is_disabled": 0, "rental_uris": {"ios": "https://dc.lft.to/lastmile_qr_scan", "android": "https://dc.lft.to/lastmile_qr_scan"}, "is_reserved": 0}, {"lon": -77.0240605, "bike_id": "e2b83f4dd59c29950b6a13ed22fb1c83", "lat": 38.898232166666666, "fusion_lon": 0.0, "fusion_lat": 0.0, "type": "electric_scooter", "name": "e2b83f4dd59c29950b6a13ed22fb1c83", "is_disabled": 0, "rental_uris": {"ios": "https://dc.lft.to/lastmile_qr_scan", "android": "https://dc.lft.to/lastmile_qr_scan"}, "is_reserved": 0}, {"lon": -77.0600845, "bike_id": "499c2846d3c465c06b94bd6d18a285d3", "lat": 38.90115933333333, "fusion_lon": 0.0, "fusion_lat": 0.0, "type": "electric_scooter", "name": "499c2846d3c465c06b94bd6d18a285d3", "is_disabled": 0, "rental_uris": {"ios": "https://dc.lft.to/lastmile_qr_scan", "android": "https://dc.lft.to/lastmile_qr_scan"}, "is_reserved": 0}, {"lon": -77.02511083333333, "bike_id": "85b990b066afb9ab05bf6fffd9282fb7", "lat": 38.9167995, "fusion_lon": 0.0, "fusion_lat": 0.0, "type": "electric_scooter", "name": "85b990b066afb9ab05bf6fffd9282fb7", "is_disabled": 0, "rental_uris": {"ios": "https://dc.lft.to/lastmile_qr_scan", "android": "https://dc.lft.to/lastmile_qr_scan"}, "is_reserved": 0}, {"lon": -77.042712, "bike_id": "48c05a4e61a485a3f32ffe663f9c4c09", "lat": 38.907412, "fusion_lon": 0.0, "fusion_lat": 0.0, "type": "electric_scooter", "name": "48c05a4e61a485a3f32ffe663f9c4c09", "is_disabled": 0, "rental_uris": {"ios": "https://dc.lft.to/lastmile_qr_scan", "android": "https://dc.lft.to/lastmile_qr_scan"}, "is_reserved": 0}, {"lon": -77.04332766666667, "bike_id": "58bd8a7ad2864dc5583bc68427e1ef82", "lat": 38.922185666666664, "fusion_lon": 0.0, "fusion_lat": 0.0, "type": "electric_scooter", "name": "58bd8a7ad2864dc5583bc68427e1ef82", "is_disabled": 0, "rental_uris": {"ios": "https://dc.lft.to/lastmile_qr_scan", "android": "https://dc.lft.to/lastmile_qr_scan"}, "is_reserved": 0}, {"lon": -77.05158466666667, "bike_id": "ca5b6adab1a8239795954c345e598969", "lat": 39.04302416666667, "fusion_lon": 0.0, "fusion_lat": 0.0, "type": "electric_bike", "name": "ca5b6adab1a8239795954c345e598969", "is_disabled": 0, "rental_uris": {"ios": "https://dc.lft.to/lastmile_qr_scan", "android": "https://dc.lft.to/lastmile_qr_scan"}, "is_reserved": 0}, {"lon": -77.03988016666666, "bike_id": "e97124f1a42875a976d48e4821ea9601", "lat": 38.914017333333334, "fusion_lon": 0.0, "fusion_lat": 0.0, "type": "electric_scooter", "name": "e97124f1a42875a976d48e4821ea9601", "is_disabled": 0, "rental_uris": {"ios": "https://dc.lft.to/lastmile_qr_scan", "android": "https://dc.lft.to/lastmile_qr_scan"}, "is_reserved": 0}, {"lon": -76.98225183333334, "bike_id": "3a9bf39f665c2850b51b72bcc5634548", "lat": 38.886434, "fusion_lon": 0.0, "fusion_lat": 0.0, "type": "electric_scooter", "name": "3a9bf39f665c2850b51b72bcc5634548", "is_disabled": 0, "rental_uris": {"ios": "https://dc.lft.to/lastmile_qr_scan", "android": "https://dc.lft.to/lastmile_qr_scan"}, "is_reserved": 0}, {"lon": -77.1049225, "bike_id": "91d0d16911dd0f5fa0e296da63db0fc8", "lat": 38.856048666666666, "fusion_lon": 0.0, "fusion_lat": 0.0, "type": "electric_bike", "name": "91d0d16911dd0f5fa0e296da63db0fc8", "is_disabled": 0, "rental_uris": {"ios": "https://dc.lft.to/lastmile_qr_scan", "android": "https://dc.lft.to/lastmile_qr_scan"}, "is_reserved": 0}, {"lon": -77.04356933333334, "bike_id": "0696bbf841b62898e0884f1ec8eb611a", "lat": 38.901206, "fusion_lon": 0.0, "fusion_lat": 0.0, "type": "electric_scooter", "name": "0696bbf841b62898e0884f1ec8eb611a", "is_disabled": 0, "rental_uris": {"ios": "https://dc.lft.to/lastmile_qr_scan", "android": "https://dc.lft.to/lastmile_qr_scan"}, "is_reserved": 0}, {"lon": -76.93007183333333, "bike_id": "74c9f30dea1301a7858926b27f4e5e4b", "lat": 38.8919765, "fusion_lon": 0.0, "fusion_lat": 0.0, "type": "electric_scooter", "name": "74c9f30dea1301a7858926b27f4e5e4b", "is_disabled": 0, "rental_uris": {"ios": "https://dc.lft.to/lastmile_qr_scan", "android": "https://dc.lft.to/lastmile_qr_scan"}, "is_reserved": 0}, {"lon": -76.98215766666667, "bike_id": "59d99eba22cafef78c55e3c499b1ac5b", "lat": 38.8665645, "fusion_lon": 0.0, "fusion_lat": 0.0, "type": "electric_scooter", "name": "59d99eba22cafef78c55e3c499b1ac5b", "is_disabled": 0, "rental_uris": {"ios": "https://dc.lft.to/lastmile_qr_scan", "android": "https://dc.lft.to/lastmile_qr_scan"}, "is_reserved": 0}, {"lon": -77.03825566666667, "bike_id": "a3f0d24c024d64c5013fbbf253e552ca", "lat": 38.91116383333333, "fusion_lon": 0.0, "fusion_lat": 0.0, "type": "electric_scooter", "name": "a3f0d24c024d64c5013fbbf253e552ca", "is_disabled": 0, "rental_uris": {"ios": "https://dc.lft.to/lastmile_qr_scan", "android": "https://dc.lft.to/lastmile_qr_scan"}, "is_reserved": 0}, {"lon": -77.03175216666666, "bike_id": "11b0bd2506aef0af972cb0ba423b249e", "lat": 38.93689066666666, "fusion_lon": 0.0, "fusion_lat": 0.0, "type": "electric_scooter", "name": "11b0bd2506aef0af972cb0ba423b249e", "is_disabled": 0, "rental_uris": {"ios": "https://dc.lft.to/lastmile_qr_scan", "android": "https://dc.lft.to/lastmile_qr_scan"}, "is_reserved": 0}, {"lon": -77.05688183333334, "bike_id": "9ab77e1b31baa54920846f269e5a802a", "lat": 38.93715383333333, "fusion_lon": 0.0, "fusion_lat": 0.0, "type": "electric_scooter", "name": "9ab77e1b31baa54920846f269e5a802a", "is_disabled": 0, "rental_uris": {"ios": "https://dc.lft.to/lastmile_qr_scan", "android": "https://dc.lft.to/lastmile_qr_scan"}, "is_reserved": 0}, {"lon": -76.99528833333333, "bike_id": "75eb422bc9a5063eac162b4b03978745", "lat": 38.883737333333336, "fusion_lon": 0.0, "fusion_lat": 0.0, "type": "electric_scooter", "name": "75eb422bc9a5063eac162b4b03978745", "is_disabled": 0, "rental_uris": {"ios": "https://dc.lft.to/lastmile_qr_scan", "android": "https://dc.lft.to/lastmile_qr_scan"}, "is_reserved": 0}, {"lon": -77.057264, "bike_id": "cc382c16439dda273397b6e024fc5183", "lat": 38.933649833333334, "fusion_lon": 0.0, "fusion_lat": 0.0, "type": "electric_scooter", "name": "cc382c16439dda273397b6e024fc5183", "is_disabled": 0, "rental_uris": {"ios": "https://dc.lft.to/lastmile_qr_scan", "android": "https://dc.lft.to/lastmile_qr_scan"}, "is_reserved": 0}, {"lon": -77.01207233333334, "bike_id": "1cde8f6c2274d8263fad4fe55dde722a", "lat": 38.92121783333333, "fusion_lon": 0.0, "fusion_lat": 0.0, "type": "electric_scooter", "name": "1cde8f6c2274d8263fad4fe55dde722a", "is_disabled": 0, "rental_uris": {"ios": "https://dc.lft.to/lastmile_qr_scan", "android": "https://dc.lft.to/lastmile_qr_scan"}, "is_reserved": 0}, {"lon": -77.11149183333333, "bike_id": "9ab56e848d39353d15e83d8d934f8f42", "lat": 38.85516166666667, "fusion_lon": 0.0, "fusion_lat": 0.0, "type": "electric_bike", "name": "9ab56e848d39353d15e83d8d934f8f42", "is_disabled": 0, "rental_uris": {"ios": "https://dc.lft.to/lastmile_qr_scan", "android": "https://dc.lft.to/lastmile_qr_scan"}, "is_reserved": 0}, {"lon": -76.981087, "bike_id": "85a0890026c38007acda51f36925e770", "lat": 38.9147415, "fusion_lon": 0.0, "fusion_lat": 0.0, "type": "electric_scooter", "name": "85a0890026c38007acda51f36925e770", "is_disabled": 0, "rental_uris": {"ios": "https://dc.lft.to/lastmile_qr_scan", "android": "https://dc.lft.to/lastmile_qr_scan"}, "is_reserved": 0}, {"lon": -77.04157416666666, "bike_id": "ebe3c723865cacd48cd80330d244c929", "lat": 38.91422566666667, "fusion_lon": 0.0, "fusion_lat": 0.0, "type": "electric_scooter", "name": "ebe3c723865cacd48cd80330d244c929", "is_disabled": 0, "rental_uris": {"ios": "https://dc.lft.to/lastmile_qr_scan", "android": "https://dc.lft.to/lastmile_qr_scan"}, "is_reserved": 0}, {"lon": -77.000625, "bike_id": "35b61d853e074979a5e515d039ea89dc", "lat": 38.8949795, "fusion_lon": 0.0, "fusion_lat": 0.0, "type": "electric_scooter", "name": "35b61d853e074979a5e515d039ea89dc", "is_disabled": 0, "rental_uris": {"ios": "https://dc.lft.to/lastmile_qr_scan", "android": "https://dc.lft.to/lastmile_qr_scan"}, "is_reserved": 0}, {"lon": -77.04061066666667, "bike_id": "c589406e3167ad5a49f18f439751aea5", "lat": 38.9176695, "fusion_lon": 0.0, "fusion_lat": 0.0, "type": "electric_scooter", "name": "c589406e3167ad5a49f18f439751aea5", "is_disabled": 0, "rental_uris": {"ios": "https://dc.lft.to/lastmile_qr_scan", "android": "https://dc.lft.to/lastmile_qr_scan"}, "is_reserved": 0}, {"lon": -77.03476766666667, "bike_id": "f74b049b7e632d4e8f23ee174913a472", "lat": 38.907281, "fusion_lon": 0.0, "fusion_lat": 0.0, "type": "electric_scooter", "name": "f74b049b7e632d4e8f23ee174913a472", "is_disabled": 0, "rental_uris": {"ios": "https://dc.lft.to/lastmile_qr_scan", "android": "https://dc.lft.to/lastmile_qr_scan"}, "is_reserved": 0}, {"lon": -77.02953116666667, "bike_id": "954b9df48dbc209678ab6916a310b7ba", "lat": 38.93055116666667, "fusion_lon": 0.0, "fusion_lat": 0.0, "type": "electric_scooter", "name": "954b9df48dbc209678ab6916a310b7ba", "is_disabled": 0, "rental_uris": {"ios": "https://dc.lft.to/lastmile_qr_scan", "android": "https://dc.lft.to/lastmile_qr_scan"}, "is_reserved": 0}, {"lon": -77.000971, "bike_id": "4929e6fd477ddc56bb7f243cf3e498af", "lat": 38.907250833333336, "fusion_lon": 0.0, "fusion_lat": 0.0, "type": "electric_scooter", "name": "4929e6fd477ddc56bb7f243cf3e498af", "is_disabled": 0, "rental_uris": {"ios": "https://dc.lft.to/lastmile_qr_scan", "android": "https://dc.lft.to/lastmile_qr_scan"}, "is_reserved": 0}, {"lon": -77.02590083333334, "bike_id": "9f79d4d5c33b768f5f812bd212eb37d2", "lat": 38.94197066666667, "fusion_lon": 0.0, "fusion_lat": 0.0, "type": "electric_scooter", "name": "9f79d4d5c33b768f5f812bd212eb37d2", "is_disabled": 0, "rental_uris": {"ios": "https://dc.lft.to/lastmile_qr_scan", "android": "https://dc.lft.to/lastmile_qr_scan"}, "is_reserved": 0}, {"lon": -76.98102683333333, "bike_id": "8eab050886d7ce93c08b8a269b683cfa", "lat": 38.90402816666667, "fusion_lon": 0.0, "fusion_lat": 0.0, "type": "electric_scooter", "name": "8eab050886d7ce93c08b8a269b683cfa", "is_disabled": 0, "rental_uris": {"ios": "https://dc.lft.to/lastmile_qr_scan", "android": "https://dc.lft.to/lastmile_qr_scan"}, "is_reserved": 0}, {"lon": -77.0181585, "bike_id": "d3b68b8ed457411ae2711a978a1abe87", "lat": 38.909641666666666, "fusion_lon": 0.0, "fusion_lat": 0.0, "type": "electric_scooter", "name": "d3b68b8ed457411ae2711a978a1abe87", "is_disabled": 0, "rental_uris": {"ios": "https://dc.lft.to/lastmile_qr_scan", "android": "https://dc.lft.to/lastmile_qr_scan"}, "is_reserved": 0}, {"lon": -77.039441, "bike_id": "48a817d6d8452a162b952a78bfa25759", "lat": 38.9306245, "fusion_lon": 0.0, "fusion_lat": 0.0, "type": "electric_scooter", "name": "48a817d6d8452a162b952a78bfa25759", "is_disabled": 0, "rental_uris": {"ios": "https://dc.lft.to/lastmile_qr_scan", "android": "https://dc.lft.to/lastmile_qr_scan"}, "is_reserved": 0}, {"lon": -77.02618283333334, "bike_id": "34a0cd2bfd5832520310f3a491958a0b", "lat": 38.90056966666667, "fusion_lon": 0.0, "fusion_lat": 0.0, "type": "electric_scooter", "name": "34a0cd2bfd5832520310f3a491958a0b", "is_disabled": 0, "rental_uris": {"ios": "https://dc.lft.to/lastmile_qr_scan", "android": "https://dc.lft.to/lastmile_qr_scan"}, "is_reserved": 0}, {"lon": -76.9977015, "bike_id": "bafa9a1a2d8641e1cf2b572e09a46bf5", "lat": 38.8442645, "fusion_lon": 0.0, "fusion_lat": 0.0, "type": "electric_scooter", "name": "bafa9a1a2d8641e1cf2b572e09a46bf5", "is_disabled": 0, "rental_uris": {"ios": "https://dc.lft.to/lastmile_qr_scan", "android": "https://dc.lft.to/lastmile_qr_scan"}, "is_reserved": 0}, {"lon": -77.03864683333333, "bike_id": "2ee763fd273136231fbcf9236f04e89c", "lat": 38.906596, "fusion_lon": 0.0, "fusion_lat": 0.0, "type": "electric_scooter", "name": "2ee763fd273136231fbcf9236f04e89c", "is_disabled": 0, "rental_uris": {"ios": "https://dc.lft.to/lastmile_qr_scan", "android": "https://dc.lft.to/lastmile_qr_scan"}, "is_reserved": 0}, {"lon": -77.0674925, "bike_id": "fc98bb8a4b7f4756826d790035759dc2", "lat": 38.90342233333333, "fusion_lon": 0.0, "fusion_lat": 0.0, "type": "electric_scooter", "name": "fc98bb8a4b7f4756826d790035759dc2", "is_disabled": 0, "rental_uris": {"ios": "https://dc.lft.to/lastmile_qr_scan", "android": "https://dc.lft.to/lastmile_qr_scan"}, "is_reserved": 0}, {"lon": -77.018308, "bike_id": "54caaf2d755aa2ac79706d38cc68382e", "lat": 38.92131783333333, "fusion_lon": 0.0, "fusion_lat": 0.0, "type": "electric_scooter", "name": "54caaf2d755aa2ac79706d38cc68382e", "is_disabled": 0, "rental_uris": {"ios": "https://dc.lft.to/lastmile_qr_scan", "android": "https://dc.lft.to/lastmile_qr_scan"}, "is_reserved": 0}, {"lon": -77.05607016666667, "bike_id": "c881326ba43221d2a93ab2c2048d8120", "lat": 38.931587666666665, "fusion_lon": 0.0, "fusion_lat": 0.0, "type": "electric_scooter", "name": "c881326ba43221d2a93ab2c2048d8120", "is_disabled": 0, "rental_uris": {"ios": "https://dc.lft.to/lastmile_qr_scan", "android": "https://dc.lft.to/lastmile_qr_scan"}, "is_reserved": 0}, {"lon": -77.045092, "bike_id": "94f5bf158c1377cec0053b8eb77055e7", "lat": 38.90737883333333, "fusion_lon": 0.0, "fusion_lat": 0.0, "type": "electric_scooter", "name": "94f5bf158c1377cec0053b8eb77055e7", "is_disabled": 0, "rental_uris": {"ios": "https://dc.lft.to/lastmile_qr_scan", "android": "https://dc.lft.to/lastmile_qr_scan"}, "is_reserved": 0}, {"lon": -77.0236545, "bike_id": "2b19d6c34a4452dfbe05bae53288b635", "lat": 38.88474316666667, "fusion_lon": 0.0, "fusion_lat": 0.0, "type": "electric_scooter", "name": "2b19d6c34a4452dfbe05bae53288b635", "is_disabled": 0, "rental_uris": {"ios": "https://dc.lft.to/lastmile_qr_scan", "android": "https://dc.lft.to/lastmile_qr_scan"}, "is_reserved": 0}, {"lon": -77.0144295, "bike_id": "b799ac58ab12bff366a7c8276acc9dee", "lat": 38.920708166666664, "fusion_lon": 0.0, "fusion_lat": 0.0, "type": "electric_scooter", "name": "b799ac58ab12bff366a7c8276acc9dee", "is_disabled": 0, "rental_uris": {"ios": "https://dc.lft.to/lastmile_qr_scan", "android": "https://dc.lft.to/lastmile_qr_scan"}, "is_reserved": 0}, {"lon": -77.06106133333333, "bike_id": "5a0b01ed45a9db180509d47f6d1701bc", "lat": 38.9436275, "fusion_lon": 0.0, "fusion_lat": 0.0, "type": "electric_scooter", "name": "5a0b01ed45a9db180509d47f6d1701bc", "is_disabled": 0, "rental_uris": {"ios": "https://dc.lft.to/lastmile_qr_scan", "android": "https://dc.lft.to/lastmile_qr_scan"}, "is_reserved": 0}, {"lon": -77.0318415, "bike_id": "9e11248b3884d4a0c31bca29930ce76b", "lat": 38.936135666666665, "fusion_lon": 0.0, "fusion_lat": 0.0, "type": "electric_scooter", "name": "9e11248b3884d4a0c31bca29930ce76b", "is_disabled": 0, "rental_uris": {"ios": "https://dc.lft.to/lastmile_qr_scan", "android": "https://dc.lft.to/lastmile_qr_scan"}, "is_reserved": 0}, {"lon": -77.04215566666667, "bike_id": "e324db4992c2619ca3a8d71eef7854b4", "lat": 38.916419166666664, "fusion_lon": 0.0, "fusion_lat": 0.0, "type": "electric_scooter", "name": "e324db4992c2619ca3a8d71eef7854b4", "is_disabled": 0, "rental_uris": {"ios": "https://dc.lft.to/lastmile_qr_scan", "android": "https://dc.lft.to/lastmile_qr_scan"}, "is_reserved": 0}, {"lon": -77.03338083333334, "bike_id": "d998fd036bf5d522b85d968d7baab46f", "lat": 38.91912216666667, "fusion_lon": 0.0, "fusion_lat": 0.0, "type": "electric_scooter", "name": "d998fd036bf5d522b85d968d7baab46f", "is_disabled": 0, "rental_uris": {"ios": "https://dc.lft.to/lastmile_qr_scan", "android": "https://dc.lft.to/lastmile_qr_scan"}, "is_reserved": 0}, {"lon": -77.02987916666666, "bike_id": "1074c7aeb6145b83b3f1dec3ea6e489b", "lat": 38.9170835, "fusion_lon": 0.0, "fusion_lat": 0.0, "type": "electric_scooter", "name": "1074c7aeb6145b83b3f1dec3ea6e489b", "is_disabled": 0, "rental_uris": {"ios": "https://dc.lft.to/lastmile_qr_scan", "android": "https://dc.lft.to/lastmile_qr_scan"}, "is_reserved": 0}, {"lon": -77.04874566666666, "bike_id": "5bc24a5270a8401037720cfb54b260bf", "lat": 38.90475816666667, "fusion_lon": 0.0, "fusion_lat": 0.0, "type": "electric_scooter", "name": "5bc24a5270a8401037720cfb54b260bf", "is_disabled": 0, "rental_uris": {"ios": "https://dc.lft.to/lastmile_qr_scan", "android": "https://dc.lft.to/lastmile_qr_scan"}, "is_reserved": 0}, {"lon": -76.99469916666666, "bike_id": "c4e8d27c0407efa7eb64be08d494165b", "lat": 38.8621915, "fusion_lon": 0.0, "fusion_lat": 0.0, "type": "electric_scooter", "name": "c4e8d27c0407efa7eb64be08d494165b", "is_disabled": 0, "rental_uris": {"ios": "https://dc.lft.to/lastmile_qr_scan", "android": "https://dc.lft.to/lastmile_qr_scan"}, "is_reserved": 0}, {"lon": -77.0037535, "bike_id": "4499b9968ccf9eae39f7411bb8360bde", "lat": 38.895251333333334, "fusion_lon": 0.0, "fusion_lat": 0.0, "type": "electric_scooter", "name": "4499b9968ccf9eae39f7411bb8360bde", "is_disabled": 0, "rental_uris": {"ios": "https://dc.lft.to/lastmile_qr_scan", "android": "https://dc.lft.to/lastmile_qr_scan"}, "is_reserved": 0}, {"lon": -76.98832633333333, "bike_id": "bb3c9d4d85d060651ca62d308a954e6b", "lat": 38.90069366666667, "fusion_lon": 0.0, "fusion_lat": 0.0, "type": "electric_scooter", "name": "bb3c9d4d85d060651ca62d308a954e6b", "is_disabled": 0, "rental_uris": {"ios": "https://dc.lft.to/lastmile_qr_scan", "android": "https://dc.lft.to/lastmile_qr_scan"}, "is_reserved": 0}, {"lon": -77.037519, "bike_id": "2bca5ca476f842e54a6dbe8ab856eaea", "lat": 38.922144833333334, "fusion_lon": 0.0, "fusion_lat": 0.0, "type": "electric_scooter", "name": "2bca5ca476f842e54a6dbe8ab856eaea", "is_disabled": 0, "rental_uris": {"ios": "https://dc.lft.to/lastmile_qr_scan", "android": "https://dc.lft.to/lastmile_qr_scan"}, "is_reserved": 0}, {"lon": -77.02496366666666, "bike_id": "35d8326682cbbcf6682c4e2068578419", "lat": 38.920599333333335, "fusion_lon": 0.0, "fusion_lat": 0.0, "type": "electric_scooter", "name": "35d8326682cbbcf6682c4e2068578419", "is_disabled": 0, "rental_uris": {"ios": "https://dc.lft.to/lastmile_qr_scan", "android": "https://dc.lft.to/lastmile_qr_scan"}, "is_reserved": 0}, {"lon": -77.03260716666666, "bike_id": "fc619c571b07a58a7d8b4f24e49b5b44", "lat": 38.93777983333333, "fusion_lon": 0.0, "fusion_lat": 0.0, "type": "electric_scooter", "name": "fc619c571b07a58a7d8b4f24e49b5b44", "is_disabled": 0, "rental_uris": {"ios": "https://dc.lft.to/lastmile_qr_scan", "android": "https://dc.lft.to/lastmile_qr_scan"}, "is_reserved": 0}, {"lon": -77.04652866666666, "bike_id": "674caa42f5c4cc50140aa02b042e2f9e", "lat": 38.914270333333334, "fusion_lon": 0.0, "fusion_lat": 0.0, "type": "electric_scooter", "name": "674caa42f5c4cc50140aa02b042e2f9e", "is_disabled": 0, "rental_uris": {"ios": "https://dc.lft.to/lastmile_qr_scan", "android": "https://dc.lft.to/lastmile_qr_scan"}, "is_reserved": 0}, {"lon": -77.03484966666667, "bike_id": "1ec1faf53642daab7e4bbd879e1a3318", "lat": 38.934400333333336, "fusion_lon": 0.0, "fusion_lat": 0.0, "type": "electric_scooter", "name": "1ec1faf53642daab7e4bbd879e1a3318", "is_disabled": 0, "rental_uris": {"ios": "https://dc.lft.to/lastmile_qr_scan", "android": "https://dc.lft.to/lastmile_qr_scan"}, "is_reserved": 0}, {"lon": -77.00381333333333, "bike_id": "e3e29fafe6c43546633c09b2b95bc503", "lat": 38.83604183333333, "fusion_lon": 0.0, "fusion_lat": 0.0, "type": "electric_bike", "name": "e3e29fafe6c43546633c09b2b95bc503", "is_disabled": 0, "rental_uris": {"ios": "https://dc.lft.to/lastmile_qr_scan", "android": "https://dc.lft.to/lastmile_qr_scan"}, "is_reserved": 0}, {"lon": -77.027509, "bike_id": "fd6a5cc75142a8c13800909b4f6cbb92", "lat": 38.916941, "fusion_lon": 0.0, "fusion_lat": 0.0, "type": "electric_scooter", "name": "fd6a5cc75142a8c13800909b4f6cbb92", "is_disabled": 0, "rental_uris": {"ios": "https://dc.lft.to/lastmile_qr_scan", "android": "https://dc.lft.to/lastmile_qr_scan"}, "is_reserved": 0}, {"lon": -76.99288, "bike_id": "0f1d7d609118b6987a3478c2f15d26db", "lat": 38.898841833333336, "fusion_lon": 0.0, "fusion_lat": 0.0, "type": "electric_scooter", "name": "0f1d7d609118b6987a3478c2f15d26db", "is_disabled": 0, "rental_uris": {"ios": "https://dc.lft.to/lastmile_qr_scan", "android": "https://dc.lft.to/lastmile_qr_scan"}, "is_reserved": 0}, {"lon": -77.04219666666667, "bike_id": "540c5002b573160e5294a9f5db926d00", "lat": 38.91340016666667, "fusion_lon": 0.0, "fusion_lat": 0.0, "type": "electric_scooter", "name": "540c5002b573160e5294a9f5db926d00", "is_disabled": 0, "rental_uris": {"ios": "https://dc.lft.to/lastmile_qr_scan", "android": "https://dc.lft.to/lastmile_qr_scan"}, "is_reserved": 0}, {"lon": -77.046985, "bike_id": "3317d64569f63c2a481809be47abb21f", "lat": 38.92173016666667, "fusion_lon": 0.0, "fusion_lat": 0.0, "type": "electric_scooter", "name": "3317d64569f63c2a481809be47abb21f", "is_disabled": 0, "rental_uris": {"ios": "https://dc.lft.to/lastmile_qr_scan", "android": "https://dc.lft.to/lastmile_qr_scan"}, "is_reserved": 0}, {"lon": -77.02169216666667, "bike_id": "07c8262313c5033e146f097d513333c1", "lat": 38.92997616666667, "fusion_lon": 0.0, "fusion_lat": 0.0, "type": "electric_scooter", "name": "07c8262313c5033e146f097d513333c1", "is_disabled": 0, "rental_uris": {"ios": "https://dc.lft.to/lastmile_qr_scan", "android": "https://dc.lft.to/lastmile_qr_scan"}, "is_reserved": 0}, {"lon": -77.03549683333334, "bike_id": "22b7a4ba794be6cb3588f929a3894406", "lat": 38.924824, "fusion_lon": 0.0, "fusion_lat": 0.0, "type": "electric_scooter", "name": "22b7a4ba794be6cb3588f929a3894406", "is_disabled": 0, "rental_uris": {"ios": "https://dc.lft.to/lastmile_qr_scan", "android": "https://dc.lft.to/lastmile_qr_scan"}, "is_reserved": 0}, {"lon": -77.02605416666667, "bike_id": "2581178f0c94ffdf5867b3e8fee6a19d", "lat": 38.934893, "fusion_lon": 0.0, "fusion_lat": 0.0, "type": "electric_scooter", "name": "2581178f0c94ffdf5867b3e8fee6a19d", "is_disabled": 0, "rental_uris": {"ios": "https://dc.lft.to/lastmile_qr_scan", "android": "https://dc.lft.to/lastmile_qr_scan"}, "is_reserved": 0}, {"lon": -77.038293, "bike_id": "d34aea4dfcf2134f5e42cc36752f7444", "lat": 38.90986016666667, "fusion_lon": 0.0, "fusion_lat": 0.0, "type": "electric_scooter", "name": "d34aea4dfcf2134f5e42cc36752f7444", "is_disabled": 0, "rental_uris": {"ios": "https://dc.lft.to/lastmile_qr_scan", "android": "https://dc.lft.to/lastmile_qr_scan"}, "is_reserved": 0}, {"lon": -77.035765, "bike_id": "1862f2a15d4a82e64c1f7a6ddb334ab2", "lat": 38.91041166666667, "fusion_lon": 0.0, "fusion_lat": 0.0, "type": "electric_scooter", "name": "1862f2a15d4a82e64c1f7a6ddb334ab2", "is_disabled": 0, "rental_uris": {"ios": "https://dc.lft.to/lastmile_qr_scan", "android": "https://dc.lft.to/lastmile_qr_scan"}, "is_reserved": 0}, {"lon": -77.0325925, "bike_id": "929d012d39b4a4f883d26d9fc89fdf8a", "lat": 38.932043, "fusion_lon": 0.0, "fusion_lat": 0.0, "type": "electric_scooter", "name": "929d012d39b4a4f883d26d9fc89fdf8a", "is_disabled": 0, "rental_uris": {"ios": "https://dc.lft.to/lastmile_qr_scan", "android": "https://dc.lft.to/lastmile_qr_scan"}, "is_reserved": 0}, {"lon": -77.12492716666667, "bike_id": "a58a698a76c7cee393e8cb35a8eee418", "lat": 38.82784766666666, "fusion_lon": 0.0, "fusion_lat": 0.0, "type": "electric_bike", "name": "a58a698a76c7cee393e8cb35a8eee418", "is_disabled": 0, "rental_uris": {"ios": "https://dc.lft.to/lastmile_qr_scan", "android": "https://dc.lft.to/lastmile_qr_scan"}, "is_reserved": 0}, {"lon": -76.99851666666666, "bike_id": "3ccce5c2082762aa6b55435fd3c5daa7", "lat": 38.841583666666665, "fusion_lon": 0.0, "fusion_lat": 0.0, "type": "electric_scooter", "name": "3ccce5c2082762aa6b55435fd3c5daa7", "is_disabled": 0, "rental_uris": {"ios": "https://dc.lft.to/lastmile_qr_scan", "android": "https://dc.lft.to/lastmile_qr_scan"}, "is_reserved": 0}, {"lon": -77.0028145, "bike_id": "e86996727b60af32ef411c8ea6b620b8", "lat": 38.95710916666667, "fusion_lon": 0.0, "fusion_lat": 0.0, "type": "electric_bike", "name": "e86996727b60af32ef411c8ea6b620b8", "is_disabled": 0, "rental_uris": {"ios": "https://dc.lft.to/lastmile_qr_scan", "android": "https://dc.lft.to/lastmile_qr_scan"}, "is_reserved": 0}, {"lon": -76.9855625, "bike_id": "1766059205a2d3831170709128dbb594", "lat": 38.899552166666666, "fusion_lon": 0.0, "fusion_lat": 0.0, "type": "electric_scooter", "name": "1766059205a2d3831170709128dbb594", "is_disabled": 0, "rental_uris": {"ios": "https://dc.lft.to/lastmile_qr_scan", "android": "https://dc.lft.to/lastmile_qr_scan"}, "is_reserved": 0}, {"lon": -77.04364216666667, "bike_id": "7068fa4418b239abf18c3dbb947ba29f", "lat": 38.92151966666667, "fusion_lon": 0.0, "fusion_lat": 0.0, "type": "electric_scooter", "name": "7068fa4418b239abf18c3dbb947ba29f", "is_disabled": 0, "rental_uris": {"ios": "https://dc.lft.to/lastmile_qr_scan", "android": "https://dc.lft.to/lastmile_qr_scan"}, "is_reserved": 0}, {"lon": -77.0249525, "bike_id": "96946d1c9fc62db869ae1d287a73ab35", "lat": 38.919834333333334, "fusion_lon": 0.0, "fusion_lat": 0.0, "type": "electric_scooter", "name": "96946d1c9fc62db869ae1d287a73ab35", "is_disabled": 0, "rental_uris": {"ios": "https://dc.lft.to/lastmile_qr_scan", "android": "https://dc.lft.to/lastmile_qr_scan"}, "is_reserved": 0}, {"lon": -77.02711933333333, "bike_id": "4469eb705e529680e4bf249a657fabd7", "lat": 38.93468883333333, "fusion_lon": 0.0, "fusion_lat": 0.0, "type": "electric_scooter", "name": "4469eb705e529680e4bf249a657fabd7", "is_disabled": 0, "rental_uris": {"ios": "https://dc.lft.to/lastmile_qr_scan", "android": "https://dc.lft.to/lastmile_qr_scan"}, "is_reserved": 0}, {"lon": -77.04327983333333, "bike_id": "b022683658f276632f371c0c1e08ae6a", "lat": 38.918826833333334, "fusion_lon": 0.0, "fusion_lat": 0.0, "type": "electric_scooter", "name": "b022683658f276632f371c0c1e08ae6a", "is_disabled": 0, "rental_uris": {"ios": "https://dc.lft.to/lastmile_qr_scan", "android": "https://dc.lft.to/lastmile_qr_scan"}, "is_reserved": 0}, {"lon": -77.06427016666666, "bike_id": "36cea20877d7bfc00d0727252da7f656", "lat": 38.908911, "fusion_lon": 0.0, "fusion_lat": 0.0, "type": "electric_scooter", "name": "36cea20877d7bfc00d0727252da7f656", "is_disabled": 0, "rental_uris": {"ios": "https://dc.lft.to/lastmile_qr_scan", "android": "https://dc.lft.to/lastmile_qr_scan"}, "is_reserved": 0}, {"lon": -77.0325875, "bike_id": "d7d2d940db551e24515a1e396cda007a", "lat": 38.935009666666666, "fusion_lon": 0.0, "fusion_lat": 0.0, "type": "electric_scooter", "name": "d7d2d940db551e24515a1e396cda007a", "is_disabled": 0, "rental_uris": {"ios": "https://dc.lft.to/lastmile_qr_scan", "android": "https://dc.lft.to/lastmile_qr_scan"}, "is_reserved": 0}, {"lon": -77.0200275, "bike_id": "b36f405255b4ea7054dd11b99a75b4b9", "lat": 38.902897333333335, "fusion_lon": 0.0, "fusion_lat": 0.0, "type": "electric_scooter", "name": "b36f405255b4ea7054dd11b99a75b4b9", "is_disabled": 0, "rental_uris": {"ios": "https://dc.lft.to/lastmile_qr_scan", "android": "https://dc.lft.to/lastmile_qr_scan"}, "is_reserved": 0}, {"lon": -76.99710733333333, "bike_id": "7d1637ce516b0b42645a0954dcf7c7e5", "lat": 38.91105366666667, "fusion_lon": 0.0, "fusion_lat": 0.0, "type": "electric_scooter", "name": "7d1637ce516b0b42645a0954dcf7c7e5", "is_disabled": 0, "rental_uris": {"ios": "https://dc.lft.to/lastmile_qr_scan", "android": "https://dc.lft.to/lastmile_qr_scan"}, "is_reserved": 0}, {"lon": -77.04248416666667, "bike_id": "cbd6591b75b611afcc83d8f240258867", "lat": 38.922426, "fusion_lon": 0.0, "fusion_lat": 0.0, "type": "electric_scooter", "name": "cbd6591b75b611afcc83d8f240258867", "is_disabled": 0, "rental_uris": {"ios": "https://dc.lft.to/lastmile_qr_scan", "android": "https://dc.lft.to/lastmile_qr_scan"}, "is_reserved": 0}, {"lon": -77.03904066666666, "bike_id": "78066da7cf26057bb385b122ca897378", "lat": 38.91420683333333, "fusion_lon": 0.0, "fusion_lat": 0.0, "type": "electric_scooter", "name": "78066da7cf26057bb385b122ca897378", "is_disabled": 0, "rental_uris": {"ios": "https://dc.lft.to/lastmile_qr_scan", "android": "https://dc.lft.to/lastmile_qr_scan"}, "is_reserved": 0}, {"lon": -77.03406733333334, "bike_id": "bab11540afe47aab9fcdfba708275837", "lat": 38.960274, "fusion_lon": 0.0, "fusion_lat": 0.0, "type": "electric_bike", "name": "bab11540afe47aab9fcdfba708275837", "is_disabled": 0, "rental_uris": {"ios": "https://dc.lft.to/lastmile_qr_scan", "android": "https://dc.lft.to/lastmile_qr_scan"}, "is_reserved": 0}, {"lon": -77.02833483333333, "bike_id": "ee47699bf8cf74fe7bac7974a9a726bb", "lat": 38.902642166666666, "fusion_lon": 0.0, "fusion_lat": 0.0, "type": "electric_scooter", "name": "ee47699bf8cf74fe7bac7974a9a726bb", "is_disabled": 0, "rental_uris": {"ios": "https://dc.lft.to/lastmile_qr_scan", "android": "https://dc.lft.to/lastmile_qr_scan"}, "is_reserved": 0}, {"lon": -77.0338965, "bike_id": "f638e075fae160bc20b2495993e41754", "lat": 38.9026855, "fusion_lon": 0.0, "fusion_lat": 0.0, "type": "electric_scooter", "name": "f638e075fae160bc20b2495993e41754", "is_disabled": 0, "rental_uris": {"ios": "https://dc.lft.to/lastmile_qr_scan", "android": "https://dc.lft.to/lastmile_qr_scan"}, "is_reserved": 0}, {"lon": -77.00838466666667, "bike_id": "776a09037f64e0f2e399764de8931ba5", "lat": 38.916236833333336, "fusion_lon": 0.0, "fusion_lat": 0.0, "type": "electric_scooter", "name": "776a09037f64e0f2e399764de8931ba5", "is_disabled": 0, "rental_uris": {"ios": "https://dc.lft.to/lastmile_qr_scan", "android": "https://dc.lft.to/lastmile_qr_scan"}, "is_reserved": 0}, {"lon": -77.01345633333334, "bike_id": "a0d8199666bb41057511c3c5e828c0de", "lat": 38.912770333333334, "fusion_lon": 0.0, "fusion_lat": 0.0, "type": "electric_scooter", "name": "a0d8199666bb41057511c3c5e828c0de", "is_disabled": 0, "rental_uris": {"ios": "https://dc.lft.to/lastmile_qr_scan", "android": "https://dc.lft.to/lastmile_qr_scan"}, "is_reserved": 0}, {"lon": -77.04258566666667, "bike_id": "39cb834a694e5c8e5e4ad8a28fbe27ac", "lat": 38.90038783333333, "fusion_lon": 0.0, "fusion_lat": 0.0, "type": "electric_scooter", "name": "39cb834a694e5c8e5e4ad8a28fbe27ac", "is_disabled": 0, "rental_uris": {"ios": "https://dc.lft.to/lastmile_qr_scan", "android": "https://dc.lft.to/lastmile_qr_scan"}, "is_reserved": 0}, {"lon": -77.03823766666666, "bike_id": "3a71e447a45502e617647eb28550bd77", "lat": 38.90666266666667, "fusion_lon": 0.0, "fusion_lat": 0.0, "type": "electric_scooter", "name": "3a71e447a45502e617647eb28550bd77", "is_disabled": 0, "rental_uris": {"ios": "https://dc.lft.to/lastmile_qr_scan", "android": "https://dc.lft.to/lastmile_qr_scan"}, "is_reserved": 0}, {"lon": -77.0216455, "bike_id": "d8583435870246b419dc6fe894f266b6", "lat": 38.94292266666667, "fusion_lon": 0.0, "fusion_lat": 0.0, "type": "electric_scooter", "name": "d8583435870246b419dc6fe894f266b6", "is_disabled": 0, "rental_uris": {"ios": "https://dc.lft.to/lastmile_qr_scan", "android": "https://dc.lft.to/lastmile_qr_scan"}, "is_reserved": 0}, {"lon": -77.03661083333333, "bike_id": "3182b664595f2767c627842b67483d70", "lat": 38.936079166666666, "fusion_lon": 0.0, "fusion_lat": 0.0, "type": "electric_scooter", "name": "3182b664595f2767c627842b67483d70", "is_disabled": 0, "rental_uris": {"ios": "https://dc.lft.to/lastmile_qr_scan", "android": "https://dc.lft.to/lastmile_qr_scan"}, "is_reserved": 0}, {"lon": -77.03438716666666, "bike_id": "34151c33f5f9fdb54db16b0209b15da4", "lat": 38.9148795, "fusion_lon": 0.0, "fusion_lat": 0.0, "type": "electric_scooter", "name": "34151c33f5f9fdb54db16b0209b15da4", "is_disabled": 0, "rental_uris": {"ios": "https://dc.lft.to/lastmile_qr_scan", "android": "https://dc.lft.to/lastmile_qr_scan"}, "is_reserved": 0}, {"lon": -77.04090133333334, "bike_id": "98d2e16b09a7585dfa6ede7932241c88", "lat": 38.9156045, "fusion_lon": 0.0, "fusion_lat": 0.0, "type": "electric_scooter", "name": "98d2e16b09a7585dfa6ede7932241c88", "is_disabled": 0, "rental_uris": {"ios": "https://dc.lft.to/lastmile_qr_scan", "android": "https://dc.lft.to/lastmile_qr_scan"}, "is_reserved": 0}, {"lon": -76.98898816666667, "bike_id": "6089796b98e6fe085512a4549e1a2c8f", "lat": 38.9134225, "fusion_lon": 0.0, "fusion_lat": 0.0, "type": "electric_scooter", "name": "6089796b98e6fe085512a4549e1a2c8f", "is_disabled": 0, "rental_uris": {"ios": "https://dc.lft.to/lastmile_qr_scan", "android": "https://dc.lft.to/lastmile_qr_scan"}, "is_reserved": 0}, {"lon": -77.0073495, "bike_id": "982e150f77ab64de9b14af07cac3142b", "lat": 38.9051335, "fusion_lon": 0.0, "fusion_lat": 0.0, "type": "electric_scooter", "name": "982e150f77ab64de9b14af07cac3142b", "is_disabled": 0, "rental_uris": {"ios": "https://dc.lft.to/lastmile_qr_scan", "android": "https://dc.lft.to/lastmile_qr_scan"}, "is_reserved": 0}, {"lon": -77.024421, "bike_id": "67ce7fcadf9c1c1247bbfb27629d83ae", "lat": 38.90256516666667, "fusion_lon": 0.0, "fusion_lat": 0.0, "type": "electric_scooter", "name": "67ce7fcadf9c1c1247bbfb27629d83ae", "is_disabled": 0, "rental_uris": {"ios": "https://dc.lft.to/lastmile_qr_scan", "android": "https://dc.lft.to/lastmile_qr_scan"}, "is_reserved": 0}, {"lon": -76.99919966666667, "bike_id": "069a9c0d729a459a6159aaf0df749df6", "lat": 38.88972616666667, "fusion_lon": 0.0, "fusion_lat": 0.0, "type": "electric_scooter", "name": "069a9c0d729a459a6159aaf0df749df6", "is_disabled": 0, "rental_uris": {"ios": "https://dc.lft.to/lastmile_qr_scan", "android": "https://dc.lft.to/lastmile_qr_scan"}, "is_reserved": 0}, {"lon": -77.03284983333333, "bike_id": "e7a1dcfa314bdc2c456e1e58ffcbb756", "lat": 38.93041766666666, "fusion_lon": 0.0, "fusion_lat": 0.0, "type": "electric_scooter", "name": "e7a1dcfa314bdc2c456e1e58ffcbb756", "is_disabled": 0, "rental_uris": {"ios": "https://dc.lft.to/lastmile_qr_scan", "android": "https://dc.lft.to/lastmile_qr_scan"}, "is_reserved": 0}, {"lon": -76.98106066666666, "bike_id": "b87db84093edaa3ce0775adcb04b8275", "lat": 38.8772935, "fusion_lon": 0.0, "fusion_lat": 0.0, "type": "electric_bike", "name": "b87db84093edaa3ce0775adcb04b8275", "is_disabled": 0, "rental_uris": {"ios": "https://dc.lft.to/lastmile_qr_scan", "android": "https://dc.lft.to/lastmile_qr_scan"}, "is_reserved": 0}, {"lon": -77.03664816666667, "bike_id": "8f27497da17c878a448ff0d86ae93726", "lat": 38.933392166666664, "fusion_lon": 0.0, "fusion_lat": 0.0, "type": "electric_scooter", "name": "8f27497da17c878a448ff0d86ae93726", "is_disabled": 0, "rental_uris": {"ios": "https://dc.lft.to/lastmile_qr_scan", "android": "https://dc.lft.to/lastmile_qr_scan"}, "is_reserved": 0}, {"lon": -77.03325433333333, "bike_id": "1d80b4369d83847cd44e35e883cb9098", "lat": 38.92649616666667, "fusion_lon": 0.0, "fusion_lat": 0.0, "type": "electric_scooter", "name": "1d80b4369d83847cd44e35e883cb9098", "is_disabled": 0, "rental_uris": {"ios": "https://dc.lft.to/lastmile_qr_scan", "android": "https://dc.lft.to/lastmile_qr_scan"}, "is_reserved": 0}, {"lon": -77.03855966666667, "bike_id": "ebbb9cac6cd99c8089af44a47a4372c1", "lat": 38.9171595, "fusion_lon": 0.0, "fusion_lat": 0.0, "type": "electric_scooter", "name": "ebbb9cac6cd99c8089af44a47a4372c1", "is_disabled": 0, "rental_uris": {"ios": "https://dc.lft.to/lastmile_qr_scan", "android": "https://dc.lft.to/lastmile_qr_scan"}, "is_reserved": 0}, {"lon": -77.03120483333333, "bike_id": "d449aee65253ccbcbbec8f65a41ce433", "lat": 38.8972585, "fusion_lon": 0.0, "fusion_lat": 0.0, "type": "electric_scooter", "name": "d449aee65253ccbcbbec8f65a41ce433", "is_disabled": 0, "rental_uris": {"ios": "https://dc.lft.to/lastmile_qr_scan", "android": "https://dc.lft.to/lastmile_qr_scan"}, "is_reserved": 0}, {"lon": -77.00947816666667, "bike_id": "74e69ffb670b14bab07c8b1956efedc9", "lat": 38.921365333333334, "fusion_lon": 0.0, "fusion_lat": 0.0, "type": "electric_scooter", "name": "74e69ffb670b14bab07c8b1956efedc9", "is_disabled": 0, "rental_uris": {"ios": "https://dc.lft.to/lastmile_qr_scan", "android": "https://dc.lft.to/lastmile_qr_scan"}, "is_reserved": 0}, {"lon": -76.9824655, "bike_id": "fc3ddd82f5d3d1c85ff77f2e9383a0f2", "lat": 38.864571833333336, "fusion_lon": 0.0, "fusion_lat": 0.0, "type": "electric_scooter", "name": "fc3ddd82f5d3d1c85ff77f2e9383a0f2", "is_disabled": 0, "rental_uris": {"ios": "https://dc.lft.to/lastmile_qr_scan", "android": "https://dc.lft.to/lastmile_qr_scan"}, "is_reserved": 0}, {"lon": -77.0006275, "bike_id": "6dae87ffaa9747c083ffcfee24884560", "lat": 38.88674016666667, "fusion_lon": 0.0, "fusion_lat": 0.0, "type": "electric_scooter", "name": "6dae87ffaa9747c083ffcfee24884560", "is_disabled": 0, "rental_uris": {"ios": "https://dc.lft.to/lastmile_qr_scan", "android": "https://dc.lft.to/lastmile_qr_scan"}, "is_reserved": 0}, {"lon": -76.99782116666667, "bike_id": "da2f1a5b84c1742f6dce77fcb3b617a8", "lat": 38.89092566666667, "fusion_lon": 0.0, "fusion_lat": 0.0, "type": "electric_scooter", "name": "da2f1a5b84c1742f6dce77fcb3b617a8", "is_disabled": 0, "rental_uris": {"ios": "https://dc.lft.to/lastmile_qr_scan", "android": "https://dc.lft.to/lastmile_qr_scan"}, "is_reserved": 0}, {"lon": -77.020867, "bike_id": "a1e7aaeffa8904fe86e0d443141b4340", "lat": 38.91124383333333, "fusion_lon": 0.0, "fusion_lat": 0.0, "type": "electric_scooter", "name": "a1e7aaeffa8904fe86e0d443141b4340", "is_disabled": 0, "rental_uris": {"ios": "https://dc.lft.to/lastmile_qr_scan", "android": "https://dc.lft.to/lastmile_qr_scan"}, "is_reserved": 0}, {"lon": -77.02294833333333, "bike_id": "2621c84a6213a4612237758ca2cdefc3", "lat": 38.91847383333333, "fusion_lon": 0.0, "fusion_lat": 0.0, "type": "electric_scooter", "name": "2621c84a6213a4612237758ca2cdefc3", "is_disabled": 0, "rental_uris": {"ios": "https://dc.lft.to/lastmile_qr_scan", "android": "https://dc.lft.to/lastmile_qr_scan"}, "is_reserved": 0}, {"lon": -77.02949416666667, "bike_id": "50b825d187ba3f89b883cc7f05238cc0", "lat": 38.89647683333333, "fusion_lon": 0.0, "fusion_lat": 0.0, "type": "electric_scooter", "name": "50b825d187ba3f89b883cc7f05238cc0", "is_disabled": 0, "rental_uris": {"ios": "https://dc.lft.to/lastmile_qr_scan", "android": "https://dc.lft.to/lastmile_qr_scan"}, "is_reserved": 0}, {"lon": -77.032121, "bike_id": "e5c36cec36b67e1257a34b3c21d36ba1", "lat": 38.93615283333333, "fusion_lon": 0.0, "fusion_lat": 0.0, "type": "electric_scooter", "name": "e5c36cec36b67e1257a34b3c21d36ba1", "is_disabled": 0, "rental_uris": {"ios": "https://dc.lft.to/lastmile_qr_scan", "android": "https://dc.lft.to/lastmile_qr_scan"}, "is_reserved": 0}, {"lon": -77.00532666666666, "bike_id": "c9b808026f7a19fb647e1f01b39992d5", "lat": 38.875411166666666, "fusion_lon": 0.0, "fusion_lat": 0.0, "type": "electric_scooter", "name": "c9b808026f7a19fb647e1f01b39992d5", "is_disabled": 0, "rental_uris": {"ios": "https://dc.lft.to/lastmile_qr_scan", "android": "https://dc.lft.to/lastmile_qr_scan"}, "is_reserved": 0}, {"lon": -77.03191083333333, "bike_id": "ed1e5395ce40ba5b431e69e800ed8cb5", "lat": 38.915791, "fusion_lon": 0.0, "fusion_lat": 0.0, "type": "electric_scooter", "name": "ed1e5395ce40ba5b431e69e800ed8cb5", "is_disabled": 0, "rental_uris": {"ios": "https://dc.lft.to/lastmile_qr_scan", "android": "https://dc.lft.to/lastmile_qr_scan"}, "is_reserved": 0}, {"lon": -76.932739, "bike_id": "bd6358685963771227e51d8b700f1ec8", "lat": 38.954187166666664, "fusion_lon": 0.0, "fusion_lat": 0.0, "type": "electric_bike", "name": "bd6358685963771227e51d8b700f1ec8", "is_disabled": 0, "rental_uris": {"ios": "https://dc.lft.to/lastmile_qr_scan", "android": "https://dc.lft.to/lastmile_qr_scan"}, "is_reserved": 0}, {"lon": -77.0559565, "bike_id": "9ba233b5628ca088f02b21770d36c070", "lat": 38.9369955, "fusion_lon": 0.0, "fusion_lat": 0.0, "type": "electric_scooter", "name": "9ba233b5628ca088f02b21770d36c070", "is_disabled": 0, "rental_uris": {"ios": "https://dc.lft.to/lastmile_qr_scan", "android": "https://dc.lft.to/lastmile_qr_scan"}, "is_reserved": 0}, {"lon": -77.06129433333334, "bike_id": "570f9394b9f15150bb8ac942f47d9d1d", "lat": 38.90530283333333, "fusion_lon": 0.0, "fusion_lat": 0.0, "type": "electric_scooter", "name": "570f9394b9f15150bb8ac942f47d9d1d", "is_disabled": 0, "rental_uris": {"ios": "https://dc.lft.to/lastmile_qr_scan", "android": "https://dc.lft.to/lastmile_qr_scan"}, "is_reserved": 0}, {"lon": -77.0296255, "bike_id": "f8645c495f1eb737dbc3627ba52b1960", "lat": 38.91673983333333, "fusion_lon": 0.0, "fusion_lat": 0.0, "type": "electric_scooter", "name": "f8645c495f1eb737dbc3627ba52b1960", "is_disabled": 0, "rental_uris": {"ios": "https://dc.lft.to/lastmile_qr_scan", "android": "https://dc.lft.to/lastmile_qr_scan"}, "is_reserved": 0}, {"lon": -77.03501383333334, "bike_id": "ff8d45308678da747f3851127c108dd0", "lat": 38.91183383333333, "fusion_lon": 0.0, "fusion_lat": 0.0, "type": "electric_scooter", "name": "ff8d45308678da747f3851127c108dd0", "is_disabled": 0, "rental_uris": {"ios": "https://dc.lft.to/lastmile_qr_scan", "android": "https://dc.lft.to/lastmile_qr_scan"}, "is_reserved": 0}, {"lon": -77.0096315, "bike_id": "460a5695bbfcd2fa676c394f8062a34d", "lat": 38.9170655, "fusion_lon": 0.0, "fusion_lat": 0.0, "type": "electric_scooter", "name": "460a5695bbfcd2fa676c394f8062a34d", "is_disabled": 0, "rental_uris": {"ios": "https://dc.lft.to/lastmile_qr_scan", "android": "https://dc.lft.to/lastmile_qr_scan"}, "is_reserved": 0}, {"lon": -77.0362765, "bike_id": "136f243349e1e2f9571960399b7592b8", "lat": 38.9156205, "fusion_lon": 0.0, "fusion_lat": 0.0, "type": "electric_scooter", "name": "136f243349e1e2f9571960399b7592b8", "is_disabled": 0, "rental_uris": {"ios": "https://dc.lft.to/lastmile_qr_scan", "android": "https://dc.lft.to/lastmile_qr_scan"}, "is_reserved": 0}, {"lon": -77.0012635, "bike_id": "34aa4be3a2edeeb1f67530d0888086ee", "lat": 38.87818033333333, "fusion_lon": 0.0, "fusion_lat": 0.0, "type": "electric_scooter", "name": "34aa4be3a2edeeb1f67530d0888086ee", "is_disabled": 0, "rental_uris": {"ios": "https://dc.lft.to/lastmile_qr_scan", "android": "https://dc.lft.to/lastmile_qr_scan"}, "is_reserved": 0}, {"lon": -77.02703483333333, "bike_id": "c68f9636fe9e6476b58934aabf37c654", "lat": 38.94987916666667, "fusion_lon": 0.0, "fusion_lat": 0.0, "type": "electric_scooter", "name": "c68f9636fe9e6476b58934aabf37c654", "is_disabled": 0, "rental_uris": {"ios": "https://dc.lft.to/lastmile_qr_scan", "android": "https://dc.lft.to/lastmile_qr_scan"}, "is_reserved": 0}, {"lon": -76.94617383333333, "bike_id": "9cb7d22f5d16799d97f6ebe3857b7474", "lat": 38.8323245, "fusion_lon": 0.0, "fusion_lat": 0.0, "type": "electric_bike", "name": "9cb7d22f5d16799d97f6ebe3857b7474", "is_disabled": 0, "rental_uris": {"ios": "https://dc.lft.to/lastmile_qr_scan", "android": "https://dc.lft.to/lastmile_qr_scan"}, "is_reserved": 0}, {"lon": -77.02391966666667, "bike_id": "13d63f110444e372a5dade03bd4d02a0", "lat": 38.906281, "fusion_lon": 0.0, "fusion_lat": 0.0, "type": "electric_scooter", "name": "13d63f110444e372a5dade03bd4d02a0", "is_disabled": 0, "rental_uris": {"ios": "https://dc.lft.to/lastmile_qr_scan", "android": "https://dc.lft.to/lastmile_qr_scan"}, "is_reserved": 0}, {"lon": -77.0239145, "bike_id": "65237a60f1c3fa6ef4ecb14e2fdf4006", "lat": 38.88135333333334, "fusion_lon": 0.0, "fusion_lat": 0.0, "type": "electric_scooter", "name": "65237a60f1c3fa6ef4ecb14e2fdf4006", "is_disabled": 0, "rental_uris": {"ios": "https://dc.lft.to/lastmile_qr_scan", "android": "https://dc.lft.to/lastmile_qr_scan"}, "is_reserved": 0}, {"lon": -76.99464133333333, "bike_id": "5cb2308ae5cef75c380ce5a0b68597f4", "lat": 38.8826865, "fusion_lon": 0.0, "fusion_lat": 0.0, "type": "electric_scooter", "name": "5cb2308ae5cef75c380ce5a0b68597f4", "is_disabled": 0, "rental_uris": {"ios": "https://dc.lft.to/lastmile_qr_scan", "android": "https://dc.lft.to/lastmile_qr_scan"}, "is_reserved": 0}, {"lon": -77.01613483333334, "bike_id": "ec60489589cd787f282d0c8d2a8d5ac7", "lat": 38.89963433333333, "fusion_lon": 0.0, "fusion_lat": 0.0, "type": "electric_scooter", "name": "ec60489589cd787f282d0c8d2a8d5ac7", "is_disabled": 0, "rental_uris": {"ios": "https://dc.lft.to/lastmile_qr_scan", "android": "https://dc.lft.to/lastmile_qr_scan"}, "is_reserved": 0}, {"lon": -77.03990216666666, "bike_id": "c4e1a4a6de9fd96bf4bc9b505a66d804", "lat": 38.93340366666666, "fusion_lon": 0.0, "fusion_lat": 0.0, "type": "electric_scooter", "name": "c4e1a4a6de9fd96bf4bc9b505a66d804", "is_disabled": 0, "rental_uris": {"ios": "https://dc.lft.to/lastmile_qr_scan", "android": "https://dc.lft.to/lastmile_qr_scan"}, "is_reserved": 0}, {"lon": -76.97317266666667, "bike_id": "7f7567f55186fe9ec4effa307a307b29", "lat": 38.904783333333334, "fusion_lon": 0.0, "fusion_lat": 0.0, "type": "electric_bike", "name": "7f7567f55186fe9ec4effa307a307b29", "is_disabled": 0, "rental_uris": {"ios": "https://dc.lft.to/lastmile_qr_scan", "android": "https://dc.lft.to/lastmile_qr_scan"}, "is_reserved": 0}, {"lon": -77.034572, "bike_id": "74910b19ce5633315ef8038df7c51ca4", "lat": 38.917118, "fusion_lon": 0.0, "fusion_lat": 0.0, "type": "electric_scooter", "name": "74910b19ce5633315ef8038df7c51ca4", "is_disabled": 0, "rental_uris": {"ios": "https://dc.lft.to/lastmile_qr_scan", "android": "https://dc.lft.to/lastmile_qr_scan"}, "is_reserved": 0}, {"lon": -77.03833733333333, "bike_id": "398a01bad3d7401705dbe973d915e79b", "lat": 38.91036116666667, "fusion_lon": 0.0, "fusion_lat": 0.0, "type": "electric_scooter", "name": "398a01bad3d7401705dbe973d915e79b", "is_disabled": 0, "rental_uris": {"ios": "https://dc.lft.to/lastmile_qr_scan", "android": "https://dc.lft.to/lastmile_qr_scan"}, "is_reserved": 0}, {"lon": -77.05859183333334, "bike_id": "d0d3468dbfc9f1390e566c8e8e5cc31a", "lat": 38.93545666666667, "fusion_lon": 0.0, "fusion_lat": 0.0, "type": "electric_scooter", "name": "d0d3468dbfc9f1390e566c8e8e5cc31a", "is_disabled": 0, "rental_uris": {"ios": "https://dc.lft.to/lastmile_qr_scan", "android": "https://dc.lft.to/lastmile_qr_scan"}, "is_reserved": 0}, {"lon": -77.0484505, "bike_id": "9b7f4fc486519ed46d661904169015e4", "lat": 38.91518883333333, "fusion_lon": 0.0, "fusion_lat": 0.0, "type": "electric_scooter", "name": "9b7f4fc486519ed46d661904169015e4", "is_disabled": 0, "rental_uris": {"ios": "https://dc.lft.to/lastmile_qr_scan", "android": "https://dc.lft.to/lastmile_qr_scan"}, "is_reserved": 0}, {"lon": -77.04184883333333, "bike_id": "45847d38e743793a65393fe350cc92da", "lat": 38.899740333333334, "fusion_lon": 0.0, "fusion_lat": 0.0, "type": "electric_scooter", "name": "45847d38e743793a65393fe350cc92da", "is_disabled": 0, "rental_uris": {"ios": "https://dc.lft.to/lastmile_qr_scan", "android": "https://dc.lft.to/lastmile_qr_scan"}, "is_reserved": 0}, {"lon": -77.0220565, "bike_id": "86c1c54658d991e3a5a9c235f733eac7", "lat": 38.88726833333333, "fusion_lon": 0.0, "fusion_lat": 0.0, "type": "electric_scooter", "name": "86c1c54658d991e3a5a9c235f733eac7", "is_disabled": 0, "rental_uris": {"ios": "https://dc.lft.to/lastmile_qr_scan", "android": "https://dc.lft.to/lastmile_qr_scan"}, "is_reserved": 0}, {"lon": -77.03289166666667, "bike_id": "f655f9b694e89c561094a18a73996824", "lat": 38.95646583333333, "fusion_lon": 0.0, "fusion_lat": 0.0, "type": "electric_scooter", "name": "f655f9b694e89c561094a18a73996824", "is_disabled": 0, "rental_uris": {"ios": "https://dc.lft.to/lastmile_qr_scan", "android": "https://dc.lft.to/lastmile_qr_scan"}, "is_reserved": 0}, {"lon": -76.99791216666667, "bike_id": "0d8a40d5b6b0812aa7cdfa39d50312de", "lat": 38.95643666666667, "fusion_lon": 0.0, "fusion_lat": 0.0, "type": "electric_bike", "name": "0d8a40d5b6b0812aa7cdfa39d50312de", "is_disabled": 0, "rental_uris": {"ios": "https://dc.lft.to/lastmile_qr_scan", "android": "https://dc.lft.to/lastmile_qr_scan"}, "is_reserved": 0}, {"lon": -77.02570433333334, "bike_id": "0415cf7a61744250b3f20ce7fb67ce9a", "lat": 38.882928166666666, "fusion_lon": 0.0, "fusion_lat": 0.0, "type": "electric_scooter", "name": "0415cf7a61744250b3f20ce7fb67ce9a", "is_disabled": 0, "rental_uris": {"ios": "https://dc.lft.to/lastmile_qr_scan", "android": "https://dc.lft.to/lastmile_qr_scan"}, "is_reserved": 0}, {"lon": -77.03586333333334, "bike_id": "010076b790815861a9982ce78c76708d", "lat": 38.992247, "fusion_lon": 0.0, "fusion_lat": 0.0, "type": "electric_scooter", "name": "010076b790815861a9982ce78c76708d", "is_disabled": 0, "rental_uris": {"ios": "https://dc.lft.to/lastmile_qr_scan", "android": "https://dc.lft.to/lastmile_qr_scan"}, "is_reserved": 0}, {"lon": -77.038335, "bike_id": "21438c66b728eb6a82e47ad89d1f30ad", "lat": 38.90410283333333, "fusion_lon": 0.0, "fusion_lat": 0.0, "type": "electric_scooter", "name": "21438c66b728eb6a82e47ad89d1f30ad", "is_disabled": 0, "rental_uris": {"ios": "https://dc.lft.to/lastmile_qr_scan", "android": "https://dc.lft.to/lastmile_qr_scan"}, "is_reserved": 0}, {"lon": -77.02509033333334, "bike_id": "f708983710aed20a2bfcf830a4cfbe96", "lat": 38.904061666666664, "fusion_lon": 0.0, "fusion_lat": 0.0, "type": "electric_scooter", "name": "f708983710aed20a2bfcf830a4cfbe96", "is_disabled": 0, "rental_uris": {"ios": "https://dc.lft.to/lastmile_qr_scan", "android": "https://dc.lft.to/lastmile_qr_scan"}, "is_reserved": 0}, {"lon": -76.978276, "bike_id": "9ded2eff17b0596614ce91d6f53c0d6e", "lat": 38.8437315, "fusion_lon": 0.0, "fusion_lat": 0.0, "type": "electric_bike", "name": "9ded2eff17b0596614ce91d6f53c0d6e", "is_disabled": 0, "rental_uris": {"ios": "https://dc.lft.to/lastmile_qr_scan", "android": "https://dc.lft.to/lastmile_qr_scan"}, "is_reserved": 0}, {"lon": -77.0331695, "bike_id": "aeb9da5036ca5d261b9b374a52a6d513", "lat": 38.921575833333335, "fusion_lon": 0.0, "fusion_lat": 0.0, "type": "electric_scooter", "name": "aeb9da5036ca5d261b9b374a52a6d513", "is_disabled": 0, "rental_uris": {"ios": "https://dc.lft.to/lastmile_qr_scan", "android": "https://dc.lft.to/lastmile_qr_scan"}, "is_reserved": 0}, {"lon": -77.00936783333333, "bike_id": "802b8b5aea11a0dd3ec3f30a747d7163", "lat": 38.89982283333333, "fusion_lon": 0.0, "fusion_lat": 0.0, "type": "electric_scooter", "name": "802b8b5aea11a0dd3ec3f30a747d7163", "is_disabled": 0, "rental_uris": {"ios": "https://dc.lft.to/lastmile_qr_scan", "android": "https://dc.lft.to/lastmile_qr_scan"}, "is_reserved": 0}, {"lon": -77.03195716666667, "bike_id": "0f4dac3cd3b36b73db465518e089ddc2", "lat": 38.9094985, "fusion_lon": 0.0, "fusion_lat": 0.0, "type": "electric_scooter", "name": "0f4dac3cd3b36b73db465518e089ddc2", "is_disabled": 0, "rental_uris": {"ios": "https://dc.lft.to/lastmile_qr_scan", "android": "https://dc.lft.to/lastmile_qr_scan"}, "is_reserved": 0}, {"lon": -77.03908116666666, "bike_id": "b2b0021064ea53b6ca26eb5152b3b210", "lat": 38.91424083333333, "fusion_lon": 0.0, "fusion_lat": 0.0, "type": "electric_scooter", "name": "b2b0021064ea53b6ca26eb5152b3b210", "is_disabled": 0, "rental_uris": {"ios": "https://dc.lft.to/lastmile_qr_scan", "android": "https://dc.lft.to/lastmile_qr_scan"}, "is_reserved": 0}, {"lon": -77.04169466666667, "bike_id": "5d8ee7c2bfecab5805b0107ca6fd85c2", "lat": 38.91391483333334, "fusion_lon": 0.0, "fusion_lat": 0.0, "type": "electric_scooter", "name": "5d8ee7c2bfecab5805b0107ca6fd85c2", "is_disabled": 0, "rental_uris": {"ios": "https://dc.lft.to/lastmile_qr_scan", "android": "https://dc.lft.to/lastmile_qr_scan"}, "is_reserved": 0}, {"lon": -77.03219616666667, "bike_id": "f1b4cf5782b0cfbb135a64337a5a6335", "lat": 38.908647333333334, "fusion_lon": 0.0, "fusion_lat": 0.0, "type": "electric_scooter", "name": "f1b4cf5782b0cfbb135a64337a5a6335", "is_disabled": 0, "rental_uris": {"ios": "https://dc.lft.to/lastmile_qr_scan", "android": "https://dc.lft.to/lastmile_qr_scan"}, "is_reserved": 0}, {"lon": -77.08333133333333, "bike_id": "e0d0eb5d583dfda15d1fc21cd45bec3b", "lat": 38.854398333333336, "fusion_lon": 0.0, "fusion_lat": 0.0, "type": "electric_bike", "name": "e0d0eb5d583dfda15d1fc21cd45bec3b", "is_disabled": 0, "rental_uris": {"ios": "https://dc.lft.to/lastmile_qr_scan", "android": "https://dc.lft.to/lastmile_qr_scan"}, "is_reserved": 0}, {"lon": -77.03835483333333, "bike_id": "eca47f4d1fb6ae393e8f86eebfba8d5c", "lat": 38.91717833333333, "fusion_lon": 0.0, "fusion_lat": 0.0, "type": "electric_scooter", "name": "eca47f4d1fb6ae393e8f86eebfba8d5c", "is_disabled": 0, "rental_uris": {"ios": "https://dc.lft.to/lastmile_qr_scan", "android": "https://dc.lft.to/lastmile_qr_scan"}, "is_reserved": 0}, {"lon": -76.99970116666667, "bike_id": "b69ae90076a7a14b091a009c74c7f812", "lat": 38.9084625, "fusion_lon": 0.0, "fusion_lat": 0.0, "type": "electric_scooter", "name": "b69ae90076a7a14b091a009c74c7f812", "is_disabled": 0, "rental_uris": {"ios": "https://dc.lft.to/lastmile_qr_scan", "android": "https://dc.lft.to/lastmile_qr_scan"}, "is_reserved": 0}, {"lon": -77.0415435, "bike_id": "c00a447e4e6491bf6451ac7e7ebf15c8", "lat": 38.918113, "fusion_lon": 0.0, "fusion_lat": 0.0, "type": "electric_scooter", "name": "c00a447e4e6491bf6451ac7e7ebf15c8", "is_disabled": 0, "rental_uris": {"ios": "https://dc.lft.to/lastmile_qr_scan", "android": "https://dc.lft.to/lastmile_qr_scan"}, "is_reserved": 0}, {"lon": -77.034723, "bike_id": "d98df388eeea27d2e4784f7da0bdc9ea", "lat": 38.907276833333334, "fusion_lon": 0.0, "fusion_lat": 0.0, "type": "electric_scooter", "name": "d98df388eeea27d2e4784f7da0bdc9ea", "is_disabled": 0, "rental_uris": {"ios": "https://dc.lft.to/lastmile_qr_scan", "android": "https://dc.lft.to/lastmile_qr_scan"}, "is_reserved": 0}, {"lon": -77.06106816666667, "bike_id": "9ab773b46172ed1ed06baf4a18acbe3c", "lat": 38.93700316666666, "fusion_lon": 0.0, "fusion_lat": 0.0, "type": "electric_scooter", "name": "9ab773b46172ed1ed06baf4a18acbe3c", "is_disabled": 0, "rental_uris": {"ios": "https://dc.lft.to/lastmile_qr_scan", "android": "https://dc.lft.to/lastmile_qr_scan"}, "is_reserved": 0}, {"lon": -77.029858, "bike_id": "acebc987d757be48216a1b4a3d1c3a00", "lat": 38.907029, "fusion_lon": 0.0, "fusion_lat": 0.0, "type": "electric_scooter", "name": "acebc987d757be48216a1b4a3d1c3a00", "is_disabled": 0, "rental_uris": {"ios": "https://dc.lft.to/lastmile_qr_scan", "android": "https://dc.lft.to/lastmile_qr_scan"}, "is_reserved": 0}, {"lon": -77.02704333333334, "bike_id": "cce0dcd17d000dea5a2e71d50c3994b9", "lat": 38.94988216666667, "fusion_lon": 0.0, "fusion_lat": 0.0, "type": "electric_scooter", "name": "cce0dcd17d000dea5a2e71d50c3994b9", "is_disabled": 0, "rental_uris": {"ios": "https://dc.lft.to/lastmile_qr_scan", "android": "https://dc.lft.to/lastmile_qr_scan"}, "is_reserved": 0}, {"lon": -77.0317565, "bike_id": "98034ba49f2632486cd5742c9178e72e", "lat": 38.912744, "fusion_lon": 0.0, "fusion_lat": 0.0, "type": "electric_scooter", "name": "98034ba49f2632486cd5742c9178e72e", "is_disabled": 0, "rental_uris": {"ios": "https://dc.lft.to/lastmile_qr_scan", "android": "https://dc.lft.to/lastmile_qr_scan"}, "is_reserved": 0}, {"lon": -76.9488335, "bike_id": "5d8f172724d7a99676ba63dea232ed2d", "lat": 38.8951065, "fusion_lon": 0.0, "fusion_lat": 0.0, "type": "electric_scooter", "name": "5d8f172724d7a99676ba63dea232ed2d", "is_disabled": 0, "rental_uris": {"ios": "https://dc.lft.to/lastmile_qr_scan", "android": "https://dc.lft.to/lastmile_qr_scan"}, "is_reserved": 0}, {"lon": -77.040331, "bike_id": "04f12559e05ad3e516630b5538492cda", "lat": 38.925657, "fusion_lon": 0.0, "fusion_lat": 0.0, "type": "electric_scooter", "name": "04f12559e05ad3e516630b5538492cda", "is_disabled": 0, "rental_uris": {"ios": "https://dc.lft.to/lastmile_qr_scan", "android": "https://dc.lft.to/lastmile_qr_scan"}, "is_reserved": 0}, {"lon": -77.03412483333334, "bike_id": "24040bc2781937c21192b280d44736ec", "lat": 38.9341935, "fusion_lon": 0.0, "fusion_lat": 0.0, "type": "electric_scooter", "name": "24040bc2781937c21192b280d44736ec", "is_disabled": 0, "rental_uris": {"ios": "https://dc.lft.to/lastmile_qr_scan", "android": "https://dc.lft.to/lastmile_qr_scan"}, "is_reserved": 0}, {"lon": -77.02711483333333, "bike_id": "6a53ad1459feb4468a1bb4c84bf6b830", "lat": 38.911385, "fusion_lon": 0.0, "fusion_lat": 0.0, "type": "electric_scooter", "name": "6a53ad1459feb4468a1bb4c84bf6b830", "is_disabled": 0, "rental_uris": {"ios": "https://dc.lft.to/lastmile_qr_scan", "android": "https://dc.lft.to/lastmile_qr_scan"}, "is_reserved": 0}, {"lon": -77.02348583333334, "bike_id": "79c162fe9a8dde67c4cba46b9895264a", "lat": 38.93527666666667, "fusion_lon": 0.0, "fusion_lat": 0.0, "type": "electric_scooter", "name": "79c162fe9a8dde67c4cba46b9895264a", "is_disabled": 0, "rental_uris": {"ios": "https://dc.lft.to/lastmile_qr_scan", "android": "https://dc.lft.to/lastmile_qr_scan"}, "is_reserved": 0}, {"lon": -77.06910066666667, "bike_id": "ccdb34479953be8a054ce83ba9a3e80c", "lat": 38.955496333333336, "fusion_lon": 0.0, "fusion_lat": 0.0, "type": "electric_bike", "name": "ccdb34479953be8a054ce83ba9a3e80c", "is_disabled": 0, "rental_uris": {"ios": "https://dc.lft.to/lastmile_qr_scan", "android": "https://dc.lft.to/lastmile_qr_scan"}, "is_reserved": 0}, {"lon": -77.03647266666667, "bike_id": "bd2f7b6d7ab87c91fb85a9e05599ab2b", "lat": 38.90465566666666, "fusion_lon": 0.0, "fusion_lat": 0.0, "type": "electric_scooter", "name": "bd2f7b6d7ab87c91fb85a9e05599ab2b", "is_disabled": 0, "rental_uris": {"ios": "https://dc.lft.to/lastmile_qr_scan", "android": "https://dc.lft.to/lastmile_qr_scan"}, "is_reserved": 0}, {"lon": -77.039086, "bike_id": "03e93a2de7075a85dc988007ee29c98d", "lat": 38.914228, "fusion_lon": 0.0, "fusion_lat": 0.0, "type": "electric_scooter", "name": "03e93a2de7075a85dc988007ee29c98d", "is_disabled": 0, "rental_uris": {"ios": "https://dc.lft.to/lastmile_qr_scan", "android": "https://dc.lft.to/lastmile_qr_scan"}, "is_reserved": 0}, {"lon": -77.0464255, "bike_id": "a49d8be8cdd489462108a06734b6191d", "lat": 38.92114383333333, "fusion_lon": 0.0, "fusion_lat": 0.0, "type": "electric_scooter", "name": "a49d8be8cdd489462108a06734b6191d", "is_disabled": 0, "rental_uris": {"ios": "https://dc.lft.to/lastmile_qr_scan", "android": "https://dc.lft.to/lastmile_qr_scan"}, "is_reserved": 0}, {"lon": -77.04120583333334, "bike_id": "d8d446dd384725ac4205ccd80cd5c2b3", "lat": 38.922983333333335, "fusion_lon": 0.0, "fusion_lat": 0.0, "type": "electric_scooter", "name": "d8d446dd384725ac4205ccd80cd5c2b3", "is_disabled": 0, "rental_uris": {"ios": "https://dc.lft.to/lastmile_qr_scan", "android": "https://dc.lft.to/lastmile_qr_scan"}, "is_reserved": 0}, {"lon": -77.03687583333334, "bike_id": "94aaf188c0c6933adcc0d8986dc7930e", "lat": 38.9364155, "fusion_lon": 0.0, "fusion_lat": 0.0, "type": "electric_bike", "name": "94aaf188c0c6933adcc0d8986dc7930e", "is_disabled": 0, "rental_uris": {"ios": "https://dc.lft.to/lastmile_qr_scan", "android": "https://dc.lft.to/lastmile_qr_scan"}, "is_reserved": 0}, {"lon": -77.0590335, "bike_id": "c3d655759b5ff0f2ebf7d364fd2b48f0", "lat": 38.93621566666667, "fusion_lon": 0.0, "fusion_lat": 0.0, "type": "electric_scooter", "name": "c3d655759b5ff0f2ebf7d364fd2b48f0", "is_disabled": 0, "rental_uris": {"ios": "https://dc.lft.to/lastmile_qr_scan", "android": "https://dc.lft.to/lastmile_qr_scan"}, "is_reserved": 0}, {"lon": -76.87493166666667, "bike_id": "99121d07c04ac765697daff88cc2be35", "lat": 38.99090483333333, "fusion_lon": 0.0, "fusion_lat": 0.0, "type": "electric_bike", "name": "99121d07c04ac765697daff88cc2be35", "is_disabled": 0, "rental_uris": {"ios": "https://dc.lft.to/lastmile_qr_scan", "android": "https://dc.lft.to/lastmile_qr_scan"}, "is_reserved": 0}, {"lon": -77.03443883333334, "bike_id": "2c5000799f20e6ed935f35ba86010727", "lat": 38.90813633333333, "fusion_lon": 0.0, "fusion_lat": 0.0, "type": "electric_scooter", "name": "2c5000799f20e6ed935f35ba86010727", "is_disabled": 0, "rental_uris": {"ios": "https://dc.lft.to/lastmile_qr_scan", "android": "https://dc.lft.to/lastmile_qr_scan"}, "is_reserved": 0}, {"lon": -77.00643516666666, "bike_id": "aa53529cef51e76dc0c861f41286a610", "lat": 38.83892066666667, "fusion_lon": 0.0, "fusion_lat": 0.0, "type": "electric_scooter", "name": "aa53529cef51e76dc0c861f41286a610", "is_disabled": 0, "rental_uris": {"ios": "https://dc.lft.to/lastmile_qr_scan", "android": "https://dc.lft.to/lastmile_qr_scan"}, "is_reserved": 0}, {"lon": -77.03289416666667, "bike_id": "030861afc46f1bef63ff64b3dc12e631", "lat": 38.956526333333336, "fusion_lon": 0.0, "fusion_lat": 0.0, "type": "electric_scooter", "name": "030861afc46f1bef63ff64b3dc12e631", "is_disabled": 0, "rental_uris": {"ios": "https://dc.lft.to/lastmile_qr_scan", "android": "https://dc.lft.to/lastmile_qr_scan"}, "is_reserved": 0}, {"lon": -77.0408555, "bike_id": "5a78123e343ff74b41a7c138f3f861a8", "lat": 38.916932, "fusion_lon": 0.0, "fusion_lat": 0.0, "type": "electric_scooter", "name": "5a78123e343ff74b41a7c138f3f861a8", "is_disabled": 0, "rental_uris": {"ios": "https://dc.lft.to/lastmile_qr_scan", "android": "https://dc.lft.to/lastmile_qr_scan"}, "is_reserved": 0},