{"data": {"bikes": [{"type": "electric_scooter", "bike_id": "dca296d1bb1014c94aadb7eada236dec", "is_disabled": 0, "name": "dca296d1bb1014c94aadb7eada236dec", "lon": -77.03560983333334, "is_reserved": 0, "fusion_lon": 0.0, "lat": 38.91826533333333, "rental_uris": {"android": "https://dc.lft.to/lastmile_qr_scan", "ios": "https://dc.lft.to/lastmile_qr_scan"}, "fusion_lat": 0.0}, {"type": "electric_scooter", "bike_id": "853eea6fc9d3b16117f342e211760e45", "is_disabled": 0, "name": "853eea6fc9d3b16117f342e211760e45", "lon": -77.0363575, "is_reserved": 0, "fusion_lon": 0.0, "lat": 38.926999333333335, "rental_uris": {"android": "https://dc.lft.to/lastmile_qr_scan", "ios": "https://dc.lft.to/lastmile_qr_scan"}, "fusion_lat": 0.0}, {"type": "electric_scooter", "bike_id": "a1ee2b5fe28624380f2f6ceba54e9db9", "is_disabled": 0, "name": "a1ee2b5fe28624380f2f6ceba54e9db9", "lon": -77.0326105, "is_reserved": 0, "fusion_lon": 0.0, "lat": 38.933064333333334, "rental_uris": {"android": "https://dc.lft.to/lastmile_qr_scan", "ios": "https://dc.lft.to/lastmile_qr_scan"}, "fusion_lat": 0.0}, {"type": "electric_scooter", "bike_id": "3f640fc795d65a5e093398b88a12299c", "is_disabled": 0, "name": "3f640fc795d65a5e093398b88a12299c", "lon": -77.01950466666666, "is_reserved": 0, "fusion_lon": 0.0, "lat": 38.92270633333333, "rental_uris": {"android": "https://dc.lft.to/lastmile_qr_scan", "ios": "https://dc.lft.to/lastmile_qr_scan"}, "fusion_lat": 0.0}, {"type": "electric_scooter", "bike_id": "a66e5c84208ba0803854f3ae6815aee1", "is_disabled": 0, "name": "a66e5c84208ba0803854f3ae6815aee1", "lon": -77.025695, "is_reserved": 0, "fusion_lon": 0.0, "lat": 38.9419185, "rental_uris": {"android": "https://dc.lft.to/lastmile_qr_scan", "ios": "https://dc.lft.to/lastmile_qr_scan"}, "fusion_lat": 0.0}, {"type": "electric_scooter", "bike_id": "bf44a890da465b34896d9f7873b6675d", "is_disabled": 0, "name": "bf44a890da465b34896d9f7873b6675d", "lon": -77.04694316666667, "is_reserved": 0, "fusion_lon": 0.0, "lat": 38.9025465, "rental_uris": {"android": "https://dc.lft.to/lastmile_qr_scan", "ios": "https://dc.lft.to/lastmile_qr_scan"}, "fusion_lat": 0.0}, {"type": "electric_bike", "bike_id": "e991eac7369dafdf156326e75bdfbabf", "is_disabled": 0, "name": "e991eac7369dafdf156326e75bdfbabf", "lon": -77.09710583333333, "is_reserved": 0, "fusion_lon": 0.0, "lat": 38.88680466666667, "rental_uris": {"android": "https://dc.lft.to/lastmile_qr_scan", "ios": "https://dc.lft.to/lastmile_qr_scan"}, "fusion_lat": 0.0}, {"type": "electric_scooter", "bike_id": "e545eaeb836b91d8fe245dd52ea9d1c3", "is_disabled": 0, "name": "e545eaeb836b91d8fe245dd52ea9d1c3", "lon": -77.0207025, "is_reserved": 0, "fusion_lon": 0.0, "lat": 38.92368833333333, "rental_uris": {"android": "https://dc.lft.to/lastmile_qr_scan", "ios": "https://dc.lft.to/lastmile_qr_scan"}, "fusion_lat": 0.0}, {"type": "electric_scooter", "bike_id": "bf8c318efb2ed643b802a8b84e87f548", "is_disabled": 0, "name": "bf8c318efb2ed643b802a8b84e87f548", "lon": -77.03503616666667, "is_reserved": 0, "fusion_lon": 0.0, "lat": 38.918811, "rental_uris": {"android": "https://dc.lft.to/lastmile_qr_scan", "ios": "https://dc.lft.to/lastmile_qr_scan"}, "fusion_lat": 0.0}, {"type": "electric_scooter", "bike_id": "f1ad731467cd214f47bcb2d5a420b433", "is_disabled": 0, "name": "f1ad731467cd214f47bcb2d5a420b433", "lon": -77.05321366666666, "is_reserved": 0, "fusion_lon": 0.0, "lat": 38.91553233333333, "rental_uris": {"android": "https://dc.lft.to/lastmile_qr_scan", "ios": "https://dc.lft.to/lastmile_qr_scan"}, "fusion_lat": 0.0}, {"type": "electric_scooter", "bike_id": "6fa2d716d15c7053d4aec54a26a48315", "is_disabled": 0, "name": "6fa2d716d15c7053d4aec54a26a48315", "lon": -77.03967283333333, "is_reserved": 0, "fusion_lon": 0.0, "lat": 38.89896266666667, "rental_uris": {"android": "https://dc.lft.to/lastmile_qr_scan", "ios": "https://dc.lft.to/lastmile_qr_scan"}, "fusion_lat": 0.0}, {"type": "electric_scooter", "bike_id": "e9a61f46869841fc3dd1313c8d4226bc", "is_disabled": 0, "name": "e9a61f46869841fc3dd1313c8d4226bc", "lon": -77.01190716666666, "is_reserved": 0, "fusion_lon": 0.0, "lat": 38.90022416666667, "rental_uris": {"android": "https://dc.lft.to/lastmile_qr_scan", "ios": "https://dc.lft.to/lastmile_qr_scan"}, "fusion_lat": 0.0}, {"type": "electric_bike", "bike_id": "f49daf743f83a2564f51c4945ac17198", "is_disabled": 0, "name": "f49daf743f83a2564f51c4945ac17198", "lon": -76.97703783333333, "is_reserved": 0, "fusion_lon": 0.0, "lat": 38.822088666666666, "rental_uris": {"android": "https://dc.lft.to/lastmile_qr_scan", "ios": "https://dc.lft.to/lastmile_qr_scan"}, "fusion_lat": 0.0}, {"type": "electric_bike", "bike_id": "28f702958ece39146a82d006306d8cc3", "is_disabled": 0, "name": "28f702958ece39146a82d006306d8cc3", "lon": -77.08312533333333, "is_reserved": 0, "fusion_lon": 0.0, "lat": 38.85437233333333, "rental_uris": {"android": "https://dc.lft.to/lastmile_qr_scan", "ios": "https://dc.lft.to/lastmile_qr_scan"}, "fusion_lat": 0.0}, {"type": "electric_scooter", "bike_id": "849cbfd36c0550c9d9b67a774638ce2e", "is_disabled": 0, "name": "849cbfd36c0550c9d9b67a774638ce2e", "lon": -77.04012966666667, "is_reserved": 0, "fusion_lon": 0.0, "lat": 38.907258166666665, "rental_uris": {"android": "https://dc.lft.to/lastmile_qr_scan", "ios": "https://dc.lft.to/lastmile_qr_scan"}, "fusion_lat": 0.0}, {"type": "electric_scooter", "bike_id": "b0b9a7a157ee901901f18e00daf3dabb", "is_disabled": 0, "name": "b0b9a7a157ee901901f18e00daf3dabb", "lon": -77.03590566666666, "is_reserved": 0, "fusion_lon": 0.0, "lat": 38.90817366666667, "rental_uris": {"android": "https://dc.lft.to/lastmile_qr_scan", "ios": "https://dc.lft.to/lastmile_qr_scan"}, "fusion_lat": 0.0}, {"type": "electric_scooter", "bike_id": "24ea8080d63f049c6a89159f5ce5c4ee", "is_disabled": 0, "name": "24ea8080d63f049c6a89159f5ce5c4ee", "lon": -76.99729066666667, "is_reserved": 0, "fusion_lon": 0.0, "lat": 38.920442666666666, "rental_uris": {"android": "https://dc.lft.to/lastmile_qr_scan", "ios": "https://dc.lft.to/lastmile_qr_scan"}, "fusion_lat": 0.0}, {"type": "electric_scooter", "bike_id": "ea71c5e6120ac55e42821e55eeafd119", "is_disabled": 0, "name": "ea71c5e6120ac55e42821e55eeafd119", "lon": -77.04521766666667, "is_reserved": 0, "fusion_lon": 0.0, "lat": 38.90562166666667, "rental_uris": {"android": "https://dc.lft.to/lastmile_qr_scan", "ios": "https://dc.lft.to/lastmile_qr_scan"}, "fusion_lat": 0.0}, {"type": "electric_scooter", "bike_id": "85fb76f94989d1a38a518c139c0f1c15", "is_disabled": 0, "name": "85fb76f94989d1a38a518c139c0f1c15", "lon": -76.93528483333333, "is_reserved": 0, "fusion_lon": 0.0, "lat": 38.87897233333333, "rental_uris": {"android": "https://dc.lft.to/lastmile_qr_scan", "ios": "https://dc.lft.to/lastmile_qr_scan"}, "fusion_lat": 0.0}, {"type": "electric_scooter", "bike_id": "14695e403af4ea73b173c0cb7bfda775", "is_disabled": 0, "name": "14695e403af4ea73b173c0cb7bfda775", "lon": -77.012129, "is_reserved": 0, "fusion_lon": 0.0, "lat": 38.89767966666667, "rental_uris": {"android": "https://dc.lft.to/lastmile_qr_scan", "ios": "https://dc.lft.to/lastmile_qr_scan"}, "fusion_lat": 0.0}, {"type": "electric_scooter", "bike_id": "19d2beb34b289b6b37358d4693226aa7", "is_disabled": 0, "name": "19d2beb34b289b6b37358d4693226aa7", "lon": -77.02396316666666, "is_reserved": 0, "fusion_lon": 0.0, "lat": 38.919557166666664, "rental_uris": {"android": "https://dc.lft.to/lastmile_qr_scan", "ios": "https://dc.lft.to/lastmile_qr_scan"}, "fusion_lat": 0.0}, {"type": "electric_scooter", "bike_id": "cf3a63d545c967514612a93b5c444fcf", "is_disabled": 0, "name": "cf3a63d545c967514612a93b5c444fcf", "lon": -77.04147066666667, "is_reserved": 0, "fusion_lon": 0.0, "lat": 38.922611, "rental_uris": {"android": "https://dc.lft.to/lastmile_qr_scan", "ios": "https://dc.lft.to/lastmile_qr_scan"}, "fusion_lat": 0.0}, {"type": "electric_scooter", "bike_id": "f664b699df895355637c5eddaddf3023", "is_disabled": 0, "name": "f664b699df895355637c5eddaddf3023", "lon": -77.024049, "is_reserved": 0, "fusion_lon": 0.0, "lat": 38.917076333333334, "rental_uris": {"android": "https://dc.lft.to/lastmile_qr_scan", "ios": "https://dc.lft.to/lastmile_qr_scan"}, "fusion_lat": 0.0}, {"type": "electric_scooter", "bike_id": "004cc62c436d112b7356cf069bf2fcfb", "is_disabled": 0, "name": "004cc62c436d112b7356cf069bf2fcfb", "lon": -77.02840983333333, "is_reserved": 0, "fusion_lon": 0.0, "lat": 38.930635, "rental_uris": {"android": "https://dc.lft.to/lastmile_qr_scan", "ios": "https://dc.lft.to/lastmile_qr_scan"}, "fusion_lat": 0.0}, {"type": "electric_scooter", "bike_id": "7ed9a1c799b19f1c6b6590f05b240c00", "is_disabled": 0, "name": "7ed9a1c799b19f1c6b6590f05b240c00", "lon": -77.01528883333333, "is_reserved": 0, "fusion_lon": 0.0, "lat": 38.87272, "rental_uris": {"android": "https://dc.lft.to/lastmile_qr_scan", "ios": "https://dc.lft.to/lastmile_qr_scan"}, "fusion_lat": 0.0}, {"type": "electric_bike", "bike_id": "177db44165b980abc72defa2859ff172", "is_disabled": 0, "name": "177db44165b980abc72defa2859ff172", "lon": -77.0969045, "is_reserved": 0, "fusion_lon": 0.0, "lat": 38.80740466666666, "rental_uris": {"android": "https://dc.lft.to/lastmile_qr_scan", "ios": "https://dc.lft.to/lastmile_qr_scan"}, "fusion_lat": 0.0}, {"type": "electric_scooter", "bike_id": "aba06a38b9bb88ff26f176b36a1392a4", "is_disabled": 0, "name": "aba06a38b9bb88ff26f176b36a1392a4", "lon": -77.01952233333333, "is_reserved": 0, "fusion_lon": 0.0, "lat": 38.924458666666666, "rental_uris": {"android": "https://dc.lft.to/lastmile_qr_scan", "ios": "https://dc.lft.to/lastmile_qr_scan"}, "fusion_lat": 0.0}, {"type": "electric_scooter", "bike_id": "9bf502d41f3db5a642a9c6bd25fe5e9b", "is_disabled": 0, "name": "9bf502d41f3db5a642a9c6bd25fe5e9b", "lon": -77.013092, "is_reserved": 0, "fusion_lon": 0.0, "lat": 38.921074, "rental_uris": {"android": "https://dc.lft.to/lastmile_qr_scan", "ios": "https://dc.lft.to/lastmile_qr_scan"}, "fusion_lat": 0.0}, {"type": "electric_scooter", "bike_id": "be16ac26dd9776fe4aaa551b2f5d2d26", "is_disabled": 0, "name": "be16ac26dd9776fe4aaa551b2f5d2d26", "lon": -77.03500366666667, "is_reserved": 0, "fusion_lon": 0.0, "lat": 38.91873666666667, "rental_uris": {"android": "https://dc.lft.to/lastmile_qr_scan", "ios": "https://dc.lft.to/lastmile_qr_scan"}, "fusion_lat": 0.0}, {"type": "electric_scooter", "bike_id": "f8294aeb21b86700fe2dc6d9f88c4faa", "is_disabled": 0, "name": "f8294aeb21b86700fe2dc6d9f88c4faa", "lon": -77.02966966666666, "is_reserved": 0, "fusion_lon": 0.0, "lat": 38.90716883333333, "rental_uris": {"android": "https://dc.lft.to/lastmile_qr_scan", "ios": "https://dc.lft.to/lastmile_qr_scan"}, "fusion_lat": 0.0}, {"type": "electric_scooter", "bike_id": "3ad72898090aad65d7c58992a8856dd6", "is_disabled": 0, "name": "3ad72898090aad65d7c58992a8856dd6", "lon": -77.038703, "is_reserved": 0, "fusion_lon": 0.0, "lat": 38.917119166666666, "rental_uris": {"android": "https://dc.lft.to/lastmile_qr_scan", "ios": "https://dc.lft.to/lastmile_qr_scan"}, "fusion_lat": 0.0}, {"type": "electric_scooter", "bike_id": "94146cf88bdff259daa1af73bd7b0f65", "is_disabled": 0, "name": "94146cf88bdff259daa1af73bd7b0f65", "lon": -77.0468365, "is_reserved": 0, "fusion_lon": 0.0, "lat": 38.89223033333333, "rental_uris": {"android": "https://dc.lft.to/lastmile_qr_scan", "ios": "https://dc.lft.to/lastmile_qr_scan"}, "fusion_lat": 0.0}, {"type": "electric_scooter", "bike_id": "c103584ee618a45dd9dfe0969115192d", "is_disabled": 0, "name": "c103584ee618a45dd9dfe0969115192d", "lon": -77.02440583333333, "is_reserved": 0, "fusion_lon": 0.0, "lat": 38.9021565, "rental_uris": {"android": "https://dc.lft.to/lastmile_qr_scan", "ios": "https://dc.lft.to/lastmile_qr_scan"}, "fusion_lat": 0.0}, {"type": "electric_scooter", "bike_id": "d152190171c6ebc241a969d9323a1043", "is_disabled": 0, "name": "d152190171c6ebc241a969d9323a1043", "lon": -77.061775, "is_reserved": 0, "fusion_lon": 0.0, "lat": 38.9412745, "rental_uris": {"android": "https://dc.lft.to/lastmile_qr_scan", "ios": "https://dc.lft.to/lastmile_qr_scan"}, "fusion_lat": 0.0}, {"type": "electric_scooter", "bike_id": "ee7ce6a86d905cd4a82903f223eb0763", "is_disabled": 0, "name": "ee7ce6a86d905cd4a82903f223eb0763", "lon": -77.04348283333333, "is_reserved": 0, "fusion_lon": 0.0, "lat": 38.9112855, "rental_uris": {"android": "https://dc.lft.to/lastmile_qr_scan", "ios": "https://dc.lft.to/lastmile_qr_scan"}, "fusion_lat": 0.0}, {"type": "electric_scooter", "bike_id": "2ae85d5c0d9299feecdca4074d702294", "is_disabled": 0, "name": "2ae85d5c0d9299feecdca4074d702294", "lon": -76.9886125, "is_reserved": 0, "fusion_lon": 0.0, "lat": 38.90030183333333, "rental_uris": {"android": "https://dc.lft.to/lastmile_qr_scan", "ios": "https://dc.lft.to/lastmile_qr_scan"}, "fusion_lat": 0.0}, {"type": "electric_scooter", "bike_id": "863476aa6136c7e23a27bdfb2044361d", "is_disabled": 0, "name": "863476aa6136c7e23a27bdfb2044361d", "lon": -77.04383283333334, "is_reserved": 0, "fusion_lon": 0.0, "lat": 38.92057483333333, "rental_uris": {"android": "https://dc.lft.to/lastmile_qr_scan", "ios": "https://dc.lft.to/lastmile_qr_scan"}, "fusion_lat": 0.0}, {"type": "electric_bike", "bike_id": "8b2f752bb6205d24a0d3ad8734853ae7", "is_disabled": 0, "name": "8b2f752bb6205d24a0d3ad8734853ae7", "lon": -77.2340055, "is_reserved": 0, "fusion_lon": 0.0, "lat": 38.871771, "rental_uris": {"android": "https://dc.lft.to/lastmile_qr_scan", "ios": "https://dc.lft.to/lastmile_qr_scan"}, "fusion_lat": 0.0}, {"type": "electric_scooter", "bike_id": "96af9acf49c330ae351f5a0c222cf41a", "is_disabled": 0, "name": "96af9acf49c330ae351f5a0c222cf41a", "lon": -77.04365633333333, "is_reserved": 0, "fusion_lon": 0.0, "lat": 38.922447, "rental_uris": {"android": "https://dc.lft.to/lastmile_qr_scan", "ios": "https://dc.lft.to/lastmile_qr_scan"}, "fusion_lat": 0.0}, {"type": "electric_scooter", "bike_id": "19f4f1334acf78071d0b1890f31226d5", "is_disabled": 0, "name": "19f4f1334acf78071d0b1890f31226d5", "lon": -77.03197166666666, "is_reserved": 0, "fusion_lon": 0.0, "lat": 38.91030583333333, "rental_uris": {"android": "https://dc.lft.to/lastmile_qr_scan", "ios": "https://dc.lft.to/lastmile_qr_scan"}, "fusion_lat": 0.0}, {"type": "electric_bike", "bike_id": "5c1488fd98a9691b917229af110e3d62", "is_disabled": 0, "name": "5c1488fd98a9691b917229af110e3d62", "lon": -77.02252716666666, "is_reserved": 0, "fusion_lon": 0.0, "lat": 38.96685333333333, "rental_uris": {"android": "https://dc.lft.to/lastmile_qr_scan", "ios": "https://dc.lft.to/lastmile_qr_scan"}, "fusion_lat": 0.0}, {"type": "electric_scooter", "bike_id": "5c2faf60de442df08cf7ff55ec91037a", "is_disabled": 0, "name": "5c2faf60de442df08cf7ff55ec91037a", "lon": -77.02814233333334, "is_reserved": 0, "fusion_lon": 0.0, "lat": 38.90465716666667, "rental_uris": {"android": "https://dc.lft.to/lastmile_qr_scan", "ios": "https://dc.lft.to/lastmile_qr_scan"}, "fusion_lat": 0.0}, {"type": "electric_bike", "bike_id": "e525f4518f182339153f5fcad4a82632", "is_disabled": 0, "name": "e525f4518f182339153f5fcad4a82632", "lon": -77.08621133333334, "is_reserved": 0, "fusion_lon": 0.0, "lat": 38.93131866666667, "rental_uris": {"android": "https://dc.lft.to/lastmile_qr_scan", "ios": "https://dc.lft.to/lastmile_qr_scan"}, "fusion_lat": 0.0}, {"type": "electric_scooter", "bike_id": "175d21623b64aea858e8d5bf741fdb0b", "is_disabled": 0, "name": "175d21623b64aea858e8d5bf741fdb0b", "lon": -77.03520566666667, "is_reserved": 0, "fusion_lon": 0.0, "lat": 38.92253566666667, "rental_uris": {"android": "https://dc.lft.to/lastmile_qr_scan", "ios": "https://dc.lft.to/lastmile_qr_scan"}, "fusion_lat": 0.0}, {"type": "electric_bike", "bike_id": "d2a09a6576cf4bb925ffb86139b020b9", "is_disabled": 0, "name": "d2a09a6576cf4bb925ffb86139b020b9", "lon": -76.96267733333333, "is_reserved": 0, "fusion_lon": 0.0, "lat": 38.9678495, "rental_uris": {"android": "https://dc.lft.to/lastmile_qr_scan", "ios": "https://dc.lft.to/lastmile_qr_scan"}, "fusion_lat": 0.0}, {"type": "electric_scooter", "bike_id": "7950662265ae974c8e0a73eed13f98fa", "is_disabled": 0, "name": "7950662265ae974c8e0a73eed13f98fa", "lon": -77.0230985, "is_reserved": 0, "fusion_lon": 0.0, "lat": 38.94560666666667, "rental_uris": {"android": "https://dc.lft.to/lastmile_qr_scan", "ios": "https://dc.lft.to/lastmile_qr_scan"}, "fusion_lat": 0.0}, {"type": "electric_bike", "bike_id": "7bf1f63fa8c43c566e70fe3829a7060b", "is_disabled": 0, "name": "7bf1f63fa8c43c566e70fe3829a7060b", "lon": -77.08410316666667, "is_reserved": 0, "fusion_lon": 0.0, "lat": 38.9130885, "rental_uris": {"android": "https://dc.lft.to/lastmile_qr_scan", "ios": "https://dc.lft.to/lastmile_qr_scan"}, "fusion_lat": 0.0}, {"type": "electric_scooter", "bike_id": "efebd9d543be4500f04e15882bb7d450", "is_disabled": 0, "name": "efebd9d543be4500f04e15882bb7d450", "lon": -77.02172516666667, "is_reserved": 0, "fusion_lon": 0.0, "lat": 38.914647, "rental_uris": {"android": "https://dc.lft.to/lastmile_qr_scan", "ios": "https://dc.lft.to/lastmile_qr_scan"}, "fusion_lat": 0.0}, {"type": "electric_scooter", "bike_id": "d07c7ed98548df1c1e6f5916a6b462ff", "is_disabled": 0, "name": "d07c7ed98548df1c1e6f5916a6b462ff", "lon": -77.001893, "is_reserved": 0, "fusion_lon": 0.0, "lat": 38.900438, "rental_uris": {"android": "https://dc.lft.to/lastmile_qr_scan", "ios": "https://dc.lft.to/lastmile_qr_scan"}, "fusion_lat": 0.0}, {"type": "electric_bike", "bike_id": "c41037475134b41eabc3813b8df801f0", "is_disabled": 0, "name": "c41037475134b41eabc3813b8df801f0", "lon": -77.1021585, "is_reserved": 0, "fusion_lon": 0.0, "lat": 38.91995566666667, "rental_uris": {"android": "https://dc.lft.to/lastmile_qr_scan", "ios": "https://dc.lft.to/lastmile_qr_scan"}, "fusion_lat": 0.0}, {"type": "electric_scooter", "bike_id": "e0057edb54625199eddad2448d073a42", "is_disabled": 0, "name": "e0057edb54625199eddad2448d073a42", "lon": -77.046932, "is_reserved": 0, "fusion_lon": 0.0, "lat": 38.8960975, "rental_uris": {"android": "https://dc.lft.to/lastmile_qr_scan", "ios": "https://dc.lft.to/lastmile_qr_scan"}, "fusion_lat": 0.0}, {"type": "electric_scooter", "bike_id": "54a4fc9cba1e80ac9cd7cd02437f8a64", "is_disabled": 0, "name": "54a4fc9cba1e80ac9cd7cd02437f8a64", "lon": -77.0021365, "is_reserved": 0, "fusion_lon": 0.0, "lat": 38.897911666666666, "rental_uris": {"android": "https://dc.lft.to/lastmile_qr_scan", "ios": "https://dc.lft.to/lastmile_qr_scan"}, "fusion_lat": 0.0}, {"type": "electric_scooter", "bike_id": "28b5a7f96eb3de7649e9dff114a201c3", "is_disabled": 0, "name": "28b5a7f96eb3de7649e9dff114a201c3", "lon": -77.04596583333333, "is_reserved": 0, "fusion_lon": 0.0, "lat": 38.9086635, "rental_uris": {"android": "https://dc.lft.to/lastmile_qr_scan", "ios": "https://dc.lft.to/lastmile_qr_scan"}, "fusion_lat": 0.0}, {"type": "electric_bike", "bike_id": "4a878f95a534a7c2471d596965022bef", "is_disabled": 0, "name": "4a878f95a534a7c2471d596965022bef", "lon": -76.98690716666667, "is_reserved": 0, "fusion_lon": 0.0, "lat": 38.9447335, "rental_uris": {"android": "https://dc.lft.to/lastmile_qr_scan", "ios": "https://dc.lft.to/lastmile_qr_scan"}, "fusion_lat": 0.0}, {"type": "electric_bike", "bike_id": "0db01574f98bb0c6806d80d49d45aa1d", "is_disabled": 0, "name": "0db01574f98bb0c6806d80d49d45aa1d", "lon": -76.960931, "is_reserved": 0, "fusion_lon": 0.0, "lat": 38.918632833333334, "rental_uris": {"android": "https://dc.lft.to/lastmile_qr_scan", "ios": "https://dc.lft.to/lastmile_qr_scan"}, "fusion_lat": 0.0}, {"type": "electric_scooter", "bike_id": "23a5ba57abffee3417d6e6180e81bc08", "is_disabled": 0, "name": "23a5ba57abffee3417d6e6180e81bc08", "lon": -77.00696583333334, "is_reserved": 0, "fusion_lon": 0.0, "lat": 38.900219, "rental_uris": {"android": "https://dc.lft.to/lastmile_qr_scan", "ios": "https://dc.lft.to/lastmile_qr_scan"}, "fusion_lat": 0.0}, {"type": "electric_scooter", "bike_id": "75adf5cd7d1a7f9596fa7b270203a305", "is_disabled": 0, "name": "75adf5cd7d1a7f9596fa7b270203a305", "lon": -77.0386705, "is_reserved": 0, "fusion_lon": 0.0, "lat": 38.912565666666666, "rental_uris": {"android": "https://dc.lft.to/lastmile_qr_scan", "ios": "https://dc.lft.to/lastmile_qr_scan"}, "fusion_lat": 0.0}, {"type": "electric_scooter", "bike_id": "bb79f4e4d3352479e4b92e8937aedd97", "is_disabled": 0, "name": "bb79f4e4d3352479e4b92e8937aedd97", "lon": -77.0355025, "is_reserved": 0, "fusion_lon": 0.0, "lat": 38.91824733333333, "rental_uris": {"android": "https://dc.lft.to/lastmile_qr_scan", "ios": "https://dc.lft.to/lastmile_qr_scan"}, "fusion_lat": 0.0}, {"type": "electric_bike", "bike_id": "f3ad87861b2be0ec2d02736dd7e9cd17", "is_disabled": 0, "name": "f3ad87861b2be0ec2d02736dd7e9cd17", "lon": -77.07889816666666, "is_reserved": 0, "fusion_lon": 0.0, "lat": 38.95028716666667, "rental_uris": {"android": "https://dc.lft.to/lastmile_qr_scan", "ios": "https://dc.lft.to/lastmile_qr_scan"}, "fusion_lat": 0.0}, {"type": "electric_scooter", "bike_id": "f65425d54a3cded9d0fb4fe77de65500", "is_disabled": 0, "name": "f65425d54a3cded9d0fb4fe77de65500", "lon": -77.03441133333334, "is_reserved": 0, "fusion_lon": 0.0, "lat": 38.917980666666665, "rental_uris": {"android": "https://dc.lft.to/lastmile_qr_scan", "ios": "https://dc.lft.to/lastmile_qr_scan"}, "fusion_lat": 0.0}, {"type": "electric_scooter", "bike_id": "998f923016f11e2f91e42b1fc89fd9f9", "is_disabled": 0, "name": "998f923016f11e2f91e42b1fc89fd9f9", "lon": -77.01529016666667, "is_reserved": 0, "fusion_lon": 0.0, "lat": 38.909466333333334, "rental_uris": {"android": "https://dc.lft.to/lastmile_qr_scan", "ios": "https://dc.lft.to/lastmile_qr_scan"}, "fusion_lat": 0.0}, {"type": "electric_scooter", "bike_id": "9814e7d14710630adfd1c937ac0b6a5a", "is_disabled": 0, "name": "9814e7d14710630adfd1c937ac0b6a5a", "lon": -77.0344435, "is_reserved": 0, "fusion_lon": 0.0, "lat": 38.9100935, "rental_uris": {"android": "https://dc.lft.to/lastmile_qr_scan", "ios": "https://dc.lft.to/lastmile_qr_scan"}, "fusion_lat": 0.0}, {"type": "electric_scooter", "bike_id": "cb0bf165cebc63c248ea83299765dabc", "is_disabled": 0, "name": "cb0bf165cebc63c248ea83299765dabc", "lon": -77.0287525, "is_reserved": 0, "fusion_lon": 0.0, "lat": 38.91700516666667, "rental_uris": {"android": "https://dc.lft.to/lastmile_qr_scan", "ios": "https://dc.lft.to/lastmile_qr_scan"}, "fusion_lat": 0.0}, {"type": "electric_scooter", "bike_id": "c4db37fb2e2b79d2fd62b46be5913a63", "is_disabled": 0, "name": "c4db37fb2e2b79d2fd62b46be5913a63", "lon": -77.01897683333334, "is_reserved": 0, "fusion_lon": 0.0, "lat": 38.903535, "rental_uris": {"android": "https://dc.lft.to/lastmile_qr_scan", "ios": "https://dc.lft.to/lastmile_qr_scan"}, "fusion_lat": 0.0}, {"type": "electric_bike", "bike_id": "0ebace867a989903ac45711137e2a989", "is_disabled": 0, "name": "0ebace867a989903ac45711137e2a989", "lon": -76.986907, "is_reserved": 0, "fusion_lon": 0.0, "lat": 38.94477, "rental_uris": {"android": "https://dc.lft.to/lastmile_qr_scan", "ios": "https://dc.lft.to/lastmile_qr_scan"}, "fusion_lat": 0.0}, {"type": "electric_scooter", "bike_id": "2538f0506a02a26bed18a879ea0e3d32", "is_disabled": 0, "name": "2538f0506a02a26bed18a879ea0e3d32", "lon": -77.04693633333333, "is_reserved": 0, "fusion_lon": 0.0, "lat": 38.8960975, "rental_uris": {"android": "https://dc.lft.to/lastmile_qr_scan", "ios": "https://dc.lft.to/lastmile_qr_scan"}, "fusion_lat": 0.0}, {"type": "electric_scooter", "bike_id": "bf59d817c0efa01ac3ab22858fba939e", "is_disabled": 0, "name": "bf59d817c0efa01ac3ab22858fba939e", "lon": -77.040141, "is_reserved": 0, "fusion_lon": 0.0, "lat": 38.9072685, "rental_uris": {"android": "https://dc.lft.to/lastmile_qr_scan", "ios": "https://dc.lft.to/lastmile_qr_scan"}, "fusion_lat": 0.0}, {"type": "electric_scooter", "bike_id": "63254029c600c9f1711c20609d669a48", "is_disabled": 0, "name": "63254029c600c9f1711c20609d669a48", "lon": -77.03384416666667, "is_reserved": 0, "fusion_lon": 0.0, "lat": 38.9013645, "rental_uris": {"android": "https://dc.lft.to/lastmile_qr_scan", "ios": "https://dc.lft.to/lastmile_qr_scan"}, "fusion_lat": 0.0}, {"type": "electric_scooter", "bike_id": "dea9929051f77df5c537a68de6bc68a1", "is_disabled": 0, "name": "dea9929051f77df5c537a68de6bc68a1", "lon": -77.00337983333333, "is_reserved": 0, "fusion_lon": 0.0, "lat": 38.893537333333335, "rental_uris": {"android": "https://dc.lft.to/lastmile_qr_scan", "ios": "https://dc.lft.to/lastmile_qr_scan"}, "fusion_lat": 0.0}, {"type": "electric_scooter", "bike_id": "d16fd44202afb7c4c2fdc6c348e8d343", "is_disabled": 0, "name": "d16fd44202afb7c4c2fdc6c348e8d343", "lon": -77.04016266666666, "is_reserved": 0, "fusion_lon": 0.0, "lat": 38.918488333333336, "rental_uris": {"android": "https://dc.lft.to/lastmile_qr_scan", "ios": "https://dc.lft.to/lastmile_qr_scan"}, "fusion_lat": 0.0}, {"type": "electric_scooter", "bike_id": "659d0548cfb5832ba16eb81e3525e7af", "is_disabled": 0, "name": "659d0548cfb5832ba16eb81e3525e7af", "lon": -77.02020133333333, "is_reserved": 0, "fusion_lon": 0.0, "lat": 38.924413666666666, "rental_uris": {"android": "https://dc.lft.to/lastmile_qr_scan", "ios": "https://dc.lft.to/lastmile_qr_scan"}, "fusion_lat": 0.0}, {"type": "electric_scooter", "bike_id": "d4ea7a95a29a2649b74eb2948cb086ef", "is_disabled": 0, "name": "d4ea7a95a29a2649b74eb2948cb086ef", "lon": -77.0257025, "is_reserved": 0, "fusion_lon": 0.0, "lat": 38.8875095, "rental_uris": {"android": "https://dc.lft.to/lastmile_qr_scan", "ios": "https://dc.lft.to/lastmile_qr_scan"}, "fusion_lat": 0.0}, {"type": "electric_scooter", "bike_id": "c3732d690dd9c1d399d28b7aedb50e11", "is_disabled": 0, "name": "c3732d690dd9c1d399d28b7aedb50e11", "lon": -77.02250016666666, "is_reserved": 0, "fusion_lon": 0.0, "lat": 38.89855516666667, "rental_uris": {"android": "https://dc.lft.to/lastmile_qr_scan", "ios": "https://dc.lft.to/lastmile_qr_scan"}, "fusion_lat": 0.0}, {"type": "electric_scooter", "bike_id": "f604ee7146cd61ec37940c4bf0f5e3fc", "is_disabled": 0, "name": "f604ee7146cd61ec37940c4bf0f5e3fc", "lon": -77.03004883333334, "is_reserved": 0, "fusion_lon": 0.0, "lat": 38.883243666666665, "rental_uris": {"android": "https://dc.lft.to/lastmile_qr_scan", "ios": "https://dc.lft.to/lastmile_qr_scan"}, "fusion_lat": 0.0}, {"type": "electric_scooter", "bike_id": "d2f9a10b719c53a40ff0a00a24f11962", "is_disabled": 0, "name": "d2f9a10b719c53a40ff0a00a24f11962", "lon": -77.00743983333334, "is_reserved": 0, "fusion_lon": 0.0, "lat": 38.906229333333336, "rental_uris": {"android": "https://dc.lft.to/lastmile_qr_scan", "ios": "https://dc.lft.to/lastmile_qr_scan"}, "fusion_lat": 0.0}, {"type": "electric_scooter", "bike_id": "7cc21cb4df38ed652bd5257aae317407", "is_disabled": 0, "name": "7cc21cb4df38ed652bd5257aae317407", "lon": -77.04479616666667, "is_reserved": 0, "fusion_lon": 0.0, "lat": 38.90237616666667, "rental_uris": {"android": "https://dc.lft.to/lastmile_qr_scan", "ios": "https://dc.lft.to/lastmile_qr_scan"}, "fusion_lat": 0.0}, {"type": "electric_bike", "bike_id": "5a8dc5f309de3b0c1347aebf42694409", "is_disabled": 0, "name": "5a8dc5f309de3b0c1347aebf42694409", "lon": -76.9904855, "is_reserved": 0, "fusion_lon": 0.0, "lat": 38.898113333333335, "rental_uris": {"android": "https://dc.lft.to/lastmile_qr_scan", "ios": "https://dc.lft.to/lastmile_qr_scan"}, "fusion_lat": 0.0}, {"type": "electric_scooter", "bike_id": "87d8a45ef145423b26000916b3cb1615", "is_disabled": 0, "name": "87d8a45ef145423b26000916b3cb1615", "lon": -77.03191416666667, "is_reserved": 0, "fusion_lon": 0.0, "lat": 38.90989866666666, "rental_uris": {"android": "https://dc.lft.to/lastmile_qr_scan", "ios": "https://dc.lft.to/lastmile_qr_scan"}, "fusion_lat": 0.0}, {"type": "electric_scooter", "bike_id": "65a8faa52f34ae081575420386e5200a", "is_disabled": 0, "name": "65a8faa52f34ae081575420386e5200a", "lon": -77.05011683333333, "is_reserved": 0, "fusion_lon": 0.0, "lat": 38.905341, "rental_uris": {"android": "https://dc.lft.to/lastmile_qr_scan", "ios": "https://dc.lft.to/lastmile_qr_scan"}, "fusion_lat": 0.0}, {"type": "electric_scooter", "bike_id": "0a40e9fea1eb1f8f63bc93caa8da67ef", "is_disabled": 0, "name": "0a40e9fea1eb1f8f63bc93caa8da67ef", "lon": -77.01879233333334, "is_reserved": 0, "fusion_lon": 0.0, "lat": 38.91416366666667, "rental_uris": {"android": "https://dc.lft.to/lastmile_qr_scan", "ios": "https://dc.lft.to/lastmile_qr_scan"}, "fusion_lat": 0.0}, {"type": "electric_scooter", "bike_id": "b5983565a1119706920d2e6fe43f9808", "is_disabled": 0, "name": "b5983565a1119706920d2e6fe43f9808", "lon": -77.02808816666666, "is_reserved": 0, "fusion_lon": 0.0, "lat": 38.896663, "rental_uris": {"android": "https://dc.lft.to/lastmile_qr_scan", "ios": "https://dc.lft.to/lastmile_qr_scan"}, "fusion_lat": 0.0}, {"type": "electric_scooter", "bike_id": "d41449b08a6332797476743bbe61cddf", "is_disabled": 0, "name": "d41449b08a6332797476743bbe61cddf", "lon": -77.02304, "is_reserved": 0, "fusion_lon": 0.0, "lat": 38.9175975, "rental_uris": {"android": "https://dc.lft.to/lastmile_qr_scan", "ios": "https://dc.lft.to/lastmile_qr_scan"}, "fusion_lat": 0.0}, {"type": "electric_scooter", "bike_id": "93fc71a0753f46192d7141507bb5f009", "is_disabled": 0, "name": "93fc71a0753f46192d7141507bb5f009", "lon": -77.03179583333333, "is_reserved": 0, "fusion_lon": 0.0, "lat": 38.9073215, "rental_uris": {"android": "https://dc.lft.to/lastmile_qr_scan", "ios": "https://dc.lft.to/lastmile_qr_scan"}, "fusion_lat": 0.0}, {"type": "electric_scooter", "bike_id": "d9fb356e8f8c562685c1764559e23fdc", "is_disabled": 0, "name": "d9fb356e8f8c562685c1764559e23fdc", "lon": -77.04498433333333, "is_reserved": 0, "fusion_lon": 0.0, "lat": 38.897491333333335, "rental_uris": {"android": "https://dc.lft.to/lastmile_qr_scan", "ios": "https://dc.lft.to/lastmile_qr_scan"}, "fusion_lat": 0.0}, {"type": "electric_scooter", "bike_id": "12c01a6112f1822cf62d7cf1ed3eeb26", "is_disabled": 0, "name": "12c01a6112f1822cf62d7cf1ed3eeb26", "lon": -77.03190966666666, "is_reserved": 0, "fusion_lon": 0.0, "lat": 38.903699, "rental_uris": {"android": "https://dc.lft.to/lastmile_qr_scan", "ios": "https://dc.lft.to/lastmile_qr_scan"}, "fusion_lat": 0.0}, {"type": "electric_scooter", "bike_id": "d06f0358ee1b8f3cb506a2573c67f013", "is_disabled": 0, "name": "d06f0358ee1b8f3cb506a2573c67f013", "lon": -77.0251445, "is_reserved": 0, "fusion_lon": 0.0, "lat": 38.92095466666667, "rental_uris": {"android": "https://dc.lft.to/lastmile_qr_scan", "ios": "https://dc.lft.to/lastmile_qr_scan"}, "fusion_lat": 0.0}, {"type": "electric_scooter", "bike_id": "8f4a16499da1ceec259bbca0b3a162c6", "is_disabled": 0, "name": "8f4a16499da1ceec259bbca0b3a162c6", "lon": -77.04445366666667, "is_reserved": 0, "fusion_lon": 0.0, "lat": 38.903007, "rental_uris": {"android": "https://dc.lft.to/lastmile_qr_scan", "ios": "https://dc.lft.to/lastmile_qr_scan"}, "fusion_lat": 0.0}, {"type": "electric_bike", "bike_id": "c514333fd488030458300e906e944e4d", "is_disabled": 0, "name": "c514333fd488030458300e906e944e4d", "lon": -77.129354, "is_reserved": 0, "fusion_lon": 0.0, "lat": 38.86583783333333, "rental_uris": {"android": "https://dc.lft.to/lastmile_qr_scan", "ios": "https://dc.lft.to/lastmile_qr_scan"}, "fusion_lat": 0.0}, {"type": "electric_scooter", "bike_id": "43ac7d2ec6d250b7ad63d4352b3c2b53", "is_disabled": 0, "name": "43ac7d2ec6d250b7ad63d4352b3c2b53", "lon": -77.0390125, "is_reserved": 0, "fusion_lon": 0.0, "lat": 38.901343, "rental_uris": {"android": "https://dc.lft.to/lastmile_qr_scan", "ios": "https://dc.lft.to/lastmile_qr_scan"}, "fusion_lat": 0.0}, {"type": "electric_scooter", "bike_id": "1e395a3722b384be8f77e045942eba5c", "is_disabled": 0, "name": "1e395a3722b384be8f77e045942eba5c", "lon": -77.01772933333334, "is_reserved": 0, "fusion_lon": 0.0, "lat": 38.92048066666667, "rental_uris": {"android": "https://dc.lft.to/lastmile_qr_scan", "ios": "https://dc.lft.to/lastmile_qr_scan"}, "fusion_lat": 0.0}, {"type": "electric_scooter", "bike_id": "304a5225b3dac5db74a5c3e73d34c593", "is_disabled": 0, "name": "304a5225b3dac5db74a5c3e73d34c593", "lon": -77.085846, "is_reserved": 0, "fusion_lon": 0.0, "lat": 38.933531333333335, "rental_uris": {"android": "https://dc.lft.to/lastmile_qr_scan", "ios": "https://dc.lft.to/lastmile_qr_scan"}, "fusion_lat": 0.0}, {"type": "electric_scooter", "bike_id": "02f974fcd80768c5bfc31bcf92306ffb", "is_disabled": 0, "name": "02f974fcd80768c5bfc31bcf92306ffb", "lon": -77.02387666666667, "is_reserved": 0, "fusion_lon": 0.0, "lat": 38.90697333333333, "rental_uris": {"android": "https://dc.lft.to/lastmile_qr_scan", "ios": "https://dc.lft.to/lastmile_qr_scan"}, "fusion_lat": 0.0}, {"type": "electric_scooter", "bike_id": "1602d004c6cb1a4e4dc3391b8937a7f7", "is_disabled": 0, "name": "1602d004c6cb1a4e4dc3391b8937a7f7", "lon": -77.03195283333334, "is_reserved": 0, "fusion_lon": 0.0, "lat": 38.89392733333333, "rental_uris": {"android": "https://dc.lft.to/lastmile_qr_scan", "ios": "https://dc.lft.to/lastmile_qr_scan"}, "fusion_lat": 0.0}, {"type": "electric_scooter", "bike_id": "72df7f5160b1330d0c4b2b3305a28b4b", "is_disabled": 0, "name": "72df7f5160b1330d0c4b2b3305a28b4b", "lon": -77.0283605, "is_reserved": 0, "fusion_lon": 0.0, "lat": 38.900620833333335, "rental_uris": {"android": "https://dc.lft.to/lastmile_qr_scan", "ios": "https://dc.lft.to/lastmile_qr_scan"}, "fusion_lat": 0.0}, {"type": "electric_scooter", "bike_id": "3236951f9978399c24d4a2483deda936", "is_disabled": 0, "name": "3236951f9978399c24d4a2483deda936", "lon": -76.92973816666667, "is_reserved": 0, "fusion_lon": 0.0, "lat": 38.89630966666667, "rental_uris": {"android": "https://dc.lft.to/lastmile_qr_scan", "ios": "https://dc.lft.to/lastmile_qr_scan"}, "fusion_lat": 0.0}, {"type": "electric_scooter", "bike_id": "6d4e3e4c78e5c63c98c75524eda370a6", "is_disabled": 0, "name": "6d4e3e4c78e5c63c98c75524eda370a6", "lon": -77.041639, "is_reserved": 0, "fusion_lon": 0.0, "lat": 38.912516833333335, "rental_uris": {"android": "https://dc.lft.to/lastmile_qr_scan", "ios": "https://dc.lft.to/lastmile_qr_scan"}, "fusion_lat": 0.0}, {"type": "electric_scooter", "bike_id": "456943bc56a8d96fffc2988b138b7dfc", "is_disabled": 0, "name": "456943bc56a8d96fffc2988b138b7dfc", "lon": -77.02304583333333, "is_reserved": 0, "fusion_lon": 0.0, "lat": 38.9184165, "rental_uris": {"android": "https://dc.lft.to/lastmile_qr_scan", "ios": "https://dc.lft.to/lastmile_qr_scan"}, "fusion_lat": 0.0}, {"type": "electric_scooter", "bike_id": "5d990e96dec88ba345ef9b09270cceb1", "is_disabled": 0, "name": "5d990e96dec88ba345ef9b09270cceb1", "lon": -77.01499266666667, "is_reserved": 0, "fusion_lon": 0.0, "lat": 38.9266885, "rental_uris": {"android": "https://dc.lft.to/lastmile_qr_scan", "ios": "https://dc.lft.to/lastmile_qr_scan"}, "fusion_lat": 0.0}, {"type": "electric_scooter", "bike_id": "a06c1e9869bac1f3e3586e124c225c0b", "is_disabled": 0, "name": "a06c1e9869bac1f3e3586e124c225c0b", "lon": -76.98988733333333, "is_reserved": 0, "fusion_lon": 0.0, "lat": 38.8643625, "rental_uris": {"android": "https://dc.lft.to/lastmile_qr_scan", "ios": "https://dc.lft.to/lastmile_qr_scan"}, "fusion_lat": 0.0}, {"type": "electric_scooter", "bike_id": "21a9500b288bee14ebfaee39fefb80a6", "is_disabled": 0, "name": "21a9500b288bee14ebfaee39fefb80a6", "lon": -77.0034405, "is_reserved": 0, "fusion_lon": 0.0, "lat": 38.88640783333334, "rental_uris": {"android": "https://dc.lft.to/lastmile_qr_scan", "ios": "https://dc.lft.to/lastmile_qr_scan"}, "fusion_lat": 0.0}, {"type": "electric_scooter", "bike_id": "0e5d269891d0152b437ace7e04748257", "is_disabled": 0, "name": "0e5d269891d0152b437ace7e04748257", "lon": -77.02815033333333, "is_reserved": 0, "fusion_lon": 0.0, "lat": 38.917662, "rental_uris": {"android": "https://dc.lft.to/lastmile_qr_scan", "ios": "https://dc.lft.to/lastmile_qr_scan"}, "fusion_lat": 0.0}, {"type": "electric_scooter", "bike_id": "85b28ae92b347a65bdc5af38497b4506", "is_disabled": 0, "name": "85b28ae92b347a65bdc5af38497b4506", "lon": -77.003365, "is_reserved": 0, "fusion_lon": 0.0, "lat": 38.902663, "rental_uris": {"android": "https://dc.lft.to/lastmile_qr_scan", "ios": "https://dc.lft.to/lastmile_qr_scan"}, "fusion_lat": 0.0}, {"type": "electric_scooter", "bike_id": "3e6e0ce1d14a7af7d5a8040bc08f4682", "is_disabled": 0, "name": "3e6e0ce1d14a7af7d5a8040bc08f4682", "lon": -77.03987166666667, "is_reserved": 0, "fusion_lon": 0.0, "lat": 38.898974833333334, "rental_uris": {"android": "https://dc.lft.to/lastmile_qr_scan", "ios": "https://dc.lft.to/lastmile_qr_scan"}, "fusion_lat": 0.0}, {"type": "electric_scooter", "bike_id": "32ce5d8a732af4894c7e856acfb12a57", "is_disabled": 0, "name": "32ce5d8a732af4894c7e856acfb12a57", "lon": -77.0354235, "is_reserved": 0, "fusion_lon": 0.0, "lat": 38.90757816666667, "rental_uris": {"android": "https://dc.lft.to/lastmile_qr_scan", "ios": "https://dc.lft.to/lastmile_qr_scan"}, "fusion_lat": 0.0}, {"type": "electric_scooter", "bike_id": "6b479534d774697470d3f8a152ddb11b", "is_disabled": 0, "name": "6b479534d774697470d3f8a152ddb11b", "lon": -77.07291466666666, "is_reserved": 0, "fusion_lon": 0.0, "lat": 38.92281033333333, "rental_uris": {"android": "https://dc.lft.to/lastmile_qr_scan", "ios": "https://dc.lft.to/lastmile_qr_scan"}, "fusion_lat": 0.0}, {"type": "electric_scooter", "bike_id": "2ae055e1536f298ca3698f3c42247bc9", "is_disabled": 0, "name": "2ae055e1536f298ca3698f3c42247bc9", "lon": -77.01462733333334, "is_reserved": 0, "fusion_lon": 0.0, "lat": 38.919221, "rental_uris": {"android": "https://dc.lft.to/lastmile_qr_scan", "ios": "https://dc.lft.to/lastmile_qr_scan"}, "fusion_lat": 0.0}, {"type": "electric_scooter", "bike_id": "e82374c64564e2da92f77bff17ba2561", "is_disabled": 0, "name": "e82374c64564e2da92f77bff17ba2561", "lon": -77.01270583333333, "is_reserved": 0, "fusion_lon": 0.0, "lat": 38.8972225, "rental_uris": {"android": "https://dc.lft.to/lastmile_qr_scan", "ios": "https://dc.lft.to/lastmile_qr_scan"}, "fusion_lat": 0.0}, {"type": "electric_scooter", "bike_id": "e0e072df9dc0cef758394871bb8cafcb", "is_disabled": 0, "name": "e0e072df9dc0cef758394871bb8cafcb", "lon": -76.98891083333334, "is_reserved": 0, "fusion_lon": 0.0, "lat": 38.934745666666664, "rental_uris": {"android": "https://dc.lft.to/lastmile_qr_scan", "ios": "https://dc.lft.to/lastmile_qr_scan"}, "fusion_lat": 0.0}, {"type": "electric_scooter", "bike_id": "29155be39016efe26730c71af295705b", "is_disabled": 0, "name": "29155be39016efe26730c71af295705b", "lon": -77.03839316666667, "is_reserved": 0, "fusion_lon": 0.0, "lat": 38.9170675, "rental_uris": {"android": "https://dc.lft.to/lastmile_qr_scan", "ios": "https://dc.lft.to/lastmile_qr_scan"}, "fusion_lat": 0.0}, {"type": "electric_scooter", "bike_id": "5db418672c203c7f6d0b5fdb85e533bf", "is_disabled": 0, "name": "5db418672c203c7f6d0b5fdb85e533bf", "lon": -77.04647133333333, "is_reserved": 0, "fusion_lon": 0.0, "lat": 38.90374, "rental_uris": {"android": "https://dc.lft.to/lastmile_qr_scan", "ios": "https://dc.lft.to/lastmile_qr_scan"}, "fusion_lat": 0.0}, {"type": "electric_scooter", "bike_id": "e8b872b6caec27123f4416712c416e56", "is_disabled": 0, "name": "e8b872b6caec27123f4416712c416e56", "lon": -77.031685, "is_reserved": 0, "fusion_lon": 0.0, "lat": 38.923724, "rental_uris": {"android": "https://dc.lft.to/lastmile_qr_scan", "ios": "https://dc.lft.to/lastmile_qr_scan"}, "fusion_lat": 0.0}, {"type": "electric_scooter", "bike_id": "0d4300cc5e09a869aedc9ac89dacb8b5", "is_disabled": 0, "name": "0d4300cc5e09a869aedc9ac89dacb8b5", "lon": -77.020038, "is_reserved": 0, "fusion_lon": 0.0, "lat": 38.90736016666666, "rental_uris": {"android": "https://dc.lft.to/lastmile_qr_scan", "ios": "https://dc.lft.to/lastmile_qr_scan"}, "fusion_lat": 0.0}, {"type": "electric_scooter", "bike_id": "08ab65b47a1226f4073da3d3e38941f8", "is_disabled": 0, "name": "08ab65b47a1226f4073da3d3e38941f8", "lon": -77.0080695, "is_reserved": 0, "fusion_lon": 0.0, "lat": 38.926632833333336, "rental_uris": {"android": "https://dc.lft.to/lastmile_qr_scan", "ios": "https://dc.lft.to/lastmile_qr_scan"}, "fusion_lat": 0.0}, {"type": "electric_scooter", "bike_id": "5d4706f1ab921a7bf53d4eccf006146e", "is_disabled": 0, "name": "5d4706f1ab921a7bf53d4eccf006146e", "lon": -77.04364733333334, "is_reserved": 0, "fusion_lon": 0.0, "lat": 38.89638816666667, "rental_uris": {"android": "https://dc.lft.to/lastmile_qr_scan", "ios": "https://dc.lft.to/lastmile_qr_scan"}, "fusion_lat": 0.0}, {"type": "electric_scooter", "bike_id": "4427cf6d679a39570cf9bf964cf5a65e", "is_disabled": 0, "name": "4427cf6d679a39570cf9bf964cf5a65e", "lon": -77.0196875, "is_reserved": 0, "fusion_lon": 0.0, "lat": 38.92326683333334, "rental_uris": {"android": "https://dc.lft.to/lastmile_qr_scan", "ios": "https://dc.lft.to/lastmile_qr_scan"}, "fusion_lat": 0.0}, {"type": "electric_scooter", "bike_id": "130451fb993ab9e86c71797a9f9510b8", "is_disabled": 0, "name": "130451fb993ab9e86c71797a9f9510b8", "lon": -77.03262116666667, "is_reserved": 0, "fusion_lon": 0.0, "lat": 38.939778833333335, "rental_uris": {"android": "https://dc.lft.to/lastmile_qr_scan", "ios": "https://dc.lft.to/lastmile_qr_scan"}, "fusion_lat": 0.0}, {"type": "electric_scooter", "bike_id": "fb14d9570dbbdae1004870601e66d907", "is_disabled": 0, "name": "fb14d9570dbbdae1004870601e66d907", "lon": -77.03627433333334, "is_reserved": 0, "fusion_lon": 0.0, "lat": 38.9367885, "rental_uris": {"android": "https://dc.lft.to/lastmile_qr_scan", "ios": "https://dc.lft.to/lastmile_qr_scan"}, "fusion_lat": 0.0}, {"type": "electric_scooter", "bike_id": "b9f5d1005d8222d11082e147154dc55b", "is_disabled": 0, "name": "b9f5d1005d8222d11082e147154dc55b", "lon": -77.02206683333333, "is_reserved": 0, "fusion_lon": 0.0, "lat": 38.910891, "rental_uris": {"android": "https://dc.lft.to/lastmile_qr_scan", "ios": "https://dc.lft.to/lastmile_qr_scan"}, "fusion_lat": 0.0}, {"type": "electric_scooter", "bike_id": "c523fb6813946ffaf409ac26d23cec2c", "is_disabled": 0, "name": "c523fb6813946ffaf409ac26d23cec2c", "lon": -77.03171, "is_reserved": 0, "fusion_lon": 0.0, "lat": 38.91827383333333, "rental_uris": {"android": "https://dc.lft.to/lastmile_qr_scan", "ios": "https://dc.lft.to/lastmile_qr_scan"}, "fusion_lat": 0.0}, {"type": "electric_scooter", "bike_id": "97bdb26c813f8d1280582e1229200802", "is_disabled": 0, "name": "97bdb26c813f8d1280582e1229200802", "lon": -77.03512233333333, "is_reserved": 0, "fusion_lon": 0.0, "lat": 38.921501666666664, "rental_uris": {"android": "https://dc.lft.to/lastmile_qr_scan", "ios": "https://dc.lft.to/lastmile_qr_scan"}, "fusion_lat": 0.0}, {"type": "electric_scooter", "bike_id": "7011a076653bd149014bb02406e9dcd4", "is_disabled": 0, "name": "7011a076653bd149014bb02406e9dcd4", "lon": -77.02814433333333, "is_reserved": 0, "fusion_lon": 0.0, "lat": 38.910430833333336, "rental_uris": {"android": "https://dc.lft.to/lastmile_qr_scan", "ios": "https://dc.lft.to/lastmile_qr_scan"}, "fusion_lat": 0.0}, {"type": "electric_scooter", "bike_id": "eb5f50cc9c21ebebbe879090ffacb7a2", "is_disabled": 0, "name": "eb5f50cc9c21ebebbe879090ffacb7a2", "lon": -77.04338333333334, "is_reserved": 0, "fusion_lon": 0.0, "lat": 38.92319166666667, "rental_uris": {"android": "https://dc.lft.to/lastmile_qr_scan", "ios": "https://dc.lft.to/lastmile_qr_scan"}, "fusion_lat": 0.0}, {"type": "electric_scooter", "bike_id": "c8f680193478e5c61a03e48a1ae4c509", "is_disabled": 0, "name": "c8f680193478e5c61a03e48a1ae4c509", "lon": -77.02746333333333, "is_reserved": 0, "fusion_lon": 0.0, "lat": 38.8947035, "rental_uris": {"android": "https://dc.lft.to/lastmile_qr_scan", "ios": "https://dc.lft.to/lastmile_qr_scan"}, "fusion_lat": 0.0}, {"type": "electric_scooter", "bike_id": "24fdb6a2a3501ac08e613b611a3291ad", "is_disabled": 0, "name": "24fdb6a2a3501ac08e613b611a3291ad", "lon": -77.01959933333333, "is_reserved": 0, "fusion_lon": 0.0, "lat": 38.923293, "rental_uris": {"android": "https://dc.lft.to/lastmile_qr_scan", "ios": "https://dc.lft.to/lastmile_qr_scan"}, "fusion_lat": 0.0}, {"type": "electric_scooter", "bike_id": "48262e5702eaef0ef91037eae6c6629d", "is_disabled": 0, "name": "48262e5702eaef0ef91037eae6c6629d", "lon": -77.01783716666667, "is_reserved": 0, "fusion_lon": 0.0, "lat": 38.92033266666667, "rental_uris": {"android": "https://dc.lft.to/lastmile_qr_scan", "ios": "https://dc.lft.to/lastmile_qr_scan"}, "fusion_lat": 0.0}, {"type": "electric_scooter", "bike_id": "aa4131e3ec6abdf7b5f6ab630358ed97", "is_disabled": 0, "name": "aa4131e3ec6abdf7b5f6ab630358ed97", "lon": -77.00451066666666, "is_reserved": 0, "fusion_lon": 0.0, "lat": 38.911733, "rental_uris": {"android": "https://dc.lft.to/lastmile_qr_scan", "ios": "https://dc.lft.to/lastmile_qr_scan"}, "fusion_lat": 0.0}, {"type": "electric_scooter", "bike_id": "c7055a1ced658c9e9762fe428e770325", "is_disabled": 0, "name": "c7055a1ced658c9e9762fe428e770325", "lon": -77.052848, "is_reserved": 0, "fusion_lon": 0.0, "lat": 38.91017383333333, "rental_uris": {"android": "https://dc.lft.to/lastmile_qr_scan", "ios": "https://dc.lft.to/lastmile_qr_scan"}, "fusion_lat": 0.0}, {"type": "electric_scooter", "bike_id": "67217f387874e5242648ba16bdb77ef8", "is_disabled": 0, "name": "67217f387874e5242648ba16bdb77ef8", "lon": -77.02808233333333, "is_reserved": 0, "fusion_lon": 0.0, "lat": 38.9073675, "rental_uris": {"android": "https://dc.lft.to/lastmile_qr_scan", "ios": "https://dc.lft.to/lastmile_qr_scan"}, "fusion_lat": 0.0}, {"type": "electric_scooter", "bike_id": "f3309eb454f3fc9c3474f59fa400412d", "is_disabled": 0, "name": "f3309eb454f3fc9c3474f59fa400412d", "lon": -77.01916033333333, "is_reserved": 0, "fusion_lon": 0.0, "lat": 38.92022266666667, "rental_uris": {"android": "https://dc.lft.to/lastmile_qr_scan", "ios": "https://dc.lft.to/lastmile_qr_scan"}, "fusion_lat": 0.0}, {"type": "electric_scooter", "bike_id": "10f05bb1f2f3a2861a15a70145d103f6", "is_disabled": 0, "name": "10f05bb1f2f3a2861a15a70145d103f6", "lon": -77.017591, "is_reserved": 0, "fusion_lon": 0.0, "lat": 38.876876333333335, "rental_uris": {"android": "https://dc.lft.to/lastmile_qr_scan", "ios": "https://dc.lft.to/lastmile_qr_scan"}, "fusion_lat": 0.0}, {"type": "electric_scooter", "bike_id": "2b68491a970fa876f6995a023945690e", "is_disabled": 0, "name": "2b68491a970fa876f6995a023945690e", "lon": -77.07453933333333, "is_reserved": 0, "fusion_lon": 0.0, "lat": 38.937831, "rental_uris": {"android": "https://dc.lft.to/lastmile_qr_scan", "ios": "https://dc.lft.to/lastmile_qr_scan"}, "fusion_lat": 0.0}, {"type": "electric_scooter", "bike_id": "901a3ed8790863ad9a8061ca5a11f699", "is_disabled": 0, "name": "901a3ed8790863ad9a8061ca5a11f699", "lon": -76.97307833333333, "is_reserved": 0, "fusion_lon": 0.0, "lat": 38.9199085, "rental_uris": {"android": "https://dc.lft.to/lastmile_qr_scan", "ios": "https://dc.lft.to/lastmile_qr_scan"}, "fusion_lat": 0.0}, {"type": "electric_scooter", "bike_id": "e96c58ebeeb864bb6bac2a214985efc5", "is_disabled": 0, "name": "e96c58ebeeb864bb6bac2a214985efc5", "lon": -77.02954966666667, "is_reserved": 0, "fusion_lon": 0.0, "lat": 38.90503, "rental_uris": {"android": "https://dc.lft.to/lastmile_qr_scan", "ios": "https://dc.lft.to/lastmile_qr_scan"}, "fusion_lat": 0.0}, {"type": "electric_bike", "bike_id": "f59c97db7c6b47ab250ffa23f328af1b", "is_disabled": 0, "name": "f59c97db7c6b47ab250ffa23f328af1b", "lon": -77.04297983333333, "is_reserved": 0, "fusion_lon": 0.0, "lat": 39.034233, "rental_uris": {"android": "https://dc.lft.to/lastmile_qr_scan", "ios": "https://dc.lft.to/lastmile_qr_scan"}, "fusion_lat": 0.0}, {"type": "electric_scooter", "bike_id": "c90bdc6c250d95b5b381757eb7b43330", "is_disabled": 0, "name": "c90bdc6c250d95b5b381757eb7b43330", "lon": -77.00448316666666, "is_reserved": 0, "fusion_lon": 0.0, "lat": 38.911747, "rental_uris": {"android": "https://dc.lft.to/lastmile_qr_scan", "ios": "https://dc.lft.to/lastmile_qr_scan"}, "fusion_lat": 0.0}, {"type": "electric_scooter", "bike_id": "a1fe37c81510291279d9c30f27001bf6", "is_disabled": 0, "name": "a1fe37c81510291279d9c30f27001bf6", "lon": -77.00351066666667, "is_reserved": 0, "fusion_lon": 0.0, "lat": 38.916230166666665, "rental_uris": {"android": "https://dc.lft.to/lastmile_qr_scan", "ios": "https://dc.lft.to/lastmile_qr_scan"}, "fusion_lat": 0.0}, {"type": "electric_scooter", "bike_id": "f4d1d8fd41d5646aae7ec24448e57caa", "is_disabled": 0, "name": "f4d1d8fd41d5646aae7ec24448e57caa", "lon": -76.98333616666666, "is_reserved": 0, "fusion_lon": 0.0, "lat": 38.89544, "rental_uris": {"android": "https://dc.lft.to/lastmile_qr_scan", "ios": "https://dc.lft.to/lastmile_qr_scan"}, "fusion_lat": 0.0}, {"type": "electric_scooter", "bike_id": "8a2b970185955d2e63c8ccb0d6676e12", "is_disabled": 0, "name": "8a2b970185955d2e63c8ccb0d6676e12", "lon": -77.03204433333333, "is_reserved": 0, "fusion_lon": 0.0, "lat": 38.91649683333333, "rental_uris": {"android": "https://dc.lft.to/lastmile_qr_scan", "ios": "https://dc.lft.to/lastmile_qr_scan"}, "fusion_lat": 0.0}, {"type": "electric_scooter", "bike_id": "13cd3244d82642d545768690928e7a91", "is_disabled": 0, "name": "13cd3244d82642d545768690928e7a91", "lon": -77.04857316666667, "is_reserved": 0, "fusion_lon": 0.0, "lat": 38.912705333333335, "rental_uris": {"android": "https://dc.lft.to/lastmile_qr_scan", "ios": "https://dc.lft.to/lastmile_qr_scan"}, "fusion_lat": 0.0}, {"type": "electric_scooter", "bike_id": "2997d76fc355cedf2fca5030a1a0c45e", "is_disabled": 0, "name": "2997d76fc355cedf2fca5030a1a0c45e", "lon": -77.06702933333334, "is_reserved": 0, "fusion_lon": 0.0, "lat": 38.9502385, "rental_uris": {"android": "https://dc.lft.to/lastmile_qr_scan", "ios": "https://dc.lft.to/lastmile_qr_scan"}, "fusion_lat": 0.0}, {"type": "electric_scooter", "bike_id": "7183fd07440dbb952768bfd65e36331e", "is_disabled": 0, "name": "7183fd07440dbb952768bfd65e36331e", "lon": -77.029481, "is_reserved": 0, "fusion_lon": 0.0, "lat": 38.90730216666667, "rental_uris": {"android": "https://dc.lft.to/lastmile_qr_scan", "ios": "https://dc.lft.to/lastmile_qr_scan"}, "fusion_lat": 0.0}, {"type": "electric_scooter", "bike_id": "9af6b19bf59e2d3d88a2eae4b2ea864f", "is_disabled": 0, "name": "9af6b19bf59e2d3d88a2eae4b2ea864f", "lon": -77.04506933333333, "is_reserved": 0, "fusion_lon": 0.0, "lat": 38.892245833333334, "rental_uris": {"android": "https://dc.lft.to/lastmile_qr_scan", "ios": "https://dc.lft.to/lastmile_qr_scan"}, "fusion_lat": 0.0}, {"type": "electric_scooter", "bike_id": "c51eef5abc15bd5dbbeba5bfcdd94052", "is_disabled": 0, "name": "c51eef5abc15bd5dbbeba5bfcdd94052", "lon": -77.0176675, "is_reserved": 0, "fusion_lon": 0.0, "lat": 38.9210875, "rental_uris": {"android": "https://dc.lft.to/lastmile_qr_scan", "ios": "https://dc.lft.to/lastmile_qr_scan"}, "fusion_lat": 0.0}, {"type": "electric_scooter", "bike_id": "6e6877d845414ef7b73e2f381fb96a62", "is_disabled": 0, "name": "6e6877d845414ef7b73e2f381fb96a62", "lon": -77.02954516666667, "is_reserved": 0, "fusion_lon": 0.0, "lat": 38.9064525, "rental_uris": {"android": "https://dc.lft.to/lastmile_qr_scan", "ios": "https://dc.lft.to/lastmile_qr_scan"}, "fusion_lat": 0.0}, {"type": "electric_scooter", "bike_id": "9494ce7dd3fff58cbc7298781ddb50f3", "is_disabled": 0, "name": "9494ce7dd3fff58cbc7298781ddb50f3", "lon": -77.048773, "is_reserved": 0, "fusion_lon": 0.0, "lat": 38.909735833333336, "rental_uris": {"android": "https://dc.lft.to/lastmile_qr_scan", "ios": "https://dc.lft.to/lastmile_qr_scan"}, "fusion_lat": 0.0}, {"type": "electric_scooter", "bike_id": "1e99e265d616bf4702d46e9d74bff57f", "is_disabled": 0, "name": "1e99e265d616bf4702d46e9d74bff57f", "lon": -77.0319005, "is_reserved": 0, "fusion_lon": 0.0, "lat": 38.914606166666665, "rental_uris": {"android": "https://dc.lft.to/lastmile_qr_scan", "ios": "https://dc.lft.to/lastmile_qr_scan"}, "fusion_lat": 0.0}, {"type": "electric_scooter", "bike_id": "d2bd308b8f1e25cbd83fab5bd0168a6e", "is_disabled": 0, "name": "d2bd308b8f1e25cbd83fab5bd0168a6e", "lon": -77.01846083333334, "is_reserved": 0, "fusion_lon": 0.0, "lat": 38.91529216666667, "rental_uris": {"android": "https://dc.lft.to/lastmile_qr_scan", "ios": "https://dc.lft.to/lastmile_qr_scan"}, "fusion_lat": 0.0}, {"type": "electric_scooter", "bike_id": "1d02c7442a3d490bed754392c8536725", "is_disabled": 0, "name": "1d02c7442a3d490bed754392c8536725", "lon": -77.036538, "is_reserved": 0, "fusion_lon": 0.0, "lat": 38.90293833333333, "rental_uris": {"android": "https://dc.lft.to/lastmile_qr_scan", "ios": "https://dc.lft.to/lastmile_qr_scan"}, "fusion_lat": 0.0}, {"type": "electric_scooter", "bike_id": "7d167bdd261c06744d468fb1c768b9da", "is_disabled": 0, "name": "7d167bdd261c06744d468fb1c768b9da", "lon": -77.0075915, "is_reserved": 0, "fusion_lon": 0.0, "lat": 38.871271666666665, "rental_uris": {"android": "https://dc.lft.to/lastmile_qr_scan", "ios": "https://dc.lft.to/lastmile_qr_scan"}, "fusion_lat": 0.0}, {"type": "electric_scooter", "bike_id": "64578a405ca9b8f8aa06418b613de813", "is_disabled": 0, "name": "64578a405ca9b8f8aa06418b613de813", "lon": -77.0433935, "is_reserved": 0, "fusion_lon": 0.0, "lat": 38.923169666666666, "rental_uris": {"android": "https://dc.lft.to/lastmile_qr_scan", "ios": "https://dc.lft.to/lastmile_qr_scan"}, "fusion_lat": 0.0}, {"type": "electric_scooter", "bike_id": "a71d1738d6d85cf9ca8af94183962c13", "is_disabled": 0, "name": "a71d1738d6d85cf9ca8af94183962c13", "lon": -77.01579283333334, "is_reserved": 0, "fusion_lon": 0.0, "lat": 38.9167855, "rental_uris": {"android": "https://dc.lft.to/lastmile_qr_scan", "ios": "https://dc.lft.to/lastmile_qr_scan"}, "fusion_lat": 0.0}, {"type": "electric_scooter", "bike_id": "075052f8ce34605f20979720165bbe25", "is_disabled": 0, "name": "075052f8ce34605f20979720165bbe25", "lon": -77.02381583333333, "is_reserved": 0, "fusion_lon": 0.0, "lat": 38.917785333333335, "rental_uris": {"android": "https://dc.lft.to/lastmile_qr_scan", "ios": "https://dc.lft.to/lastmile_qr_scan"}, "fusion_lat": 0.0}, {"type": "electric_bike", "bike_id": "c4633c80e80e1f6ba070e736b14c01ee", "is_disabled": 0, "name": "c4633c80e80e1f6ba070e736b14c01ee", "lon": -77.114177, "is_reserved": 0, "fusion_lon": 0.0, "lat": 38.87318466666667, "rental_uris": {"android": "https://dc.lft.to/lastmile_qr_scan", "ios": "https://dc.lft.to/lastmile_qr_scan"}, "fusion_lat": 0.0}, {"type": "electric_scooter", "bike_id": "03d0f209c0ca451aba921a9c08367c16", "is_disabled": 0, "name": "03d0f209c0ca451aba921a9c08367c16", "lon": -76.98370883333334, "is_reserved": 0, "fusion_lon": 0.0, "lat": 38.89138533333333, "rental_uris": {"android": "https://dc.lft.to/lastmile_qr_scan", "ios": "https://dc.lft.to/lastmile_qr_scan"}, "fusion_lat": 0.0}, {"type": "electric_scooter", "bike_id": "cffb0ce14deae941f47affddfa79e3e9", "is_disabled": 0, "name": "cffb0ce14deae941f47affddfa79e3e9", "lon": -77.0503105, "is_reserved": 0, "fusion_lon": 0.0, "lat": 38.9063415, "rental_uris": {"android": "https://dc.lft.to/lastmile_qr_scan", "ios": "https://dc.lft.to/lastmile_qr_scan"}, "fusion_lat": 0.0}, {"type": "electric_scooter", "bike_id": "aa10fd63f0239e62cd86f2bcf87273c4", "is_disabled": 0, "name": "aa10fd63f0239e62cd86f2bcf87273c4", "lon": -77.02976583333333, "is_reserved": 0, "fusion_lon": 0.0, "lat": 38.9429335, "rental_uris": {"android": "https://dc.lft.to/lastmile_qr_scan", "ios": "https://dc.lft.to/lastmile_qr_scan"}, "fusion_lat": 0.0}, {"type": "electric_scooter", "bike_id": "091a6e0c75d48d3700cebd1d1f15df86", "is_disabled": 0, "name": "091a6e0c75d48d3700cebd1d1f15df86", "lon": -77.044778, "is_reserved": 0, "fusion_lon": 0.0, "lat": 38.911167166666665, "rental_uris": {"android": "https://dc.lft.to/lastmile_qr_scan", "ios": "https://dc.lft.to/lastmile_qr_scan"}, "fusion_lat": 0.0}, {"type": "electric_scooter", "bike_id": "9d0ecf668512962b362feff6bdd3d2bf", "is_disabled": 0, "name": "9d0ecf668512962b362feff6bdd3d2bf", "lon": -77.02095433333334, "is_reserved": 0, "fusion_lon": 0.0, "lat": 38.923673666666666, "rental_uris": {"android": "https://dc.lft.to/lastmile_qr_scan", "ios": "https://dc.lft.to/lastmile_qr_scan"}, "fusion_lat": 0.0}, {"type": "electric_bike", "bike_id": "bb6a2f01ac3447306bcc2d54efeb6208", "is_disabled": 0, "name": "bb6a2f01ac3447306bcc2d54efeb6208", "lon": -77.01206433333333, "is_reserved": 0, "fusion_lon": 0.0, "lat": 38.9507445, "rental_uris": {"android": "https://dc.lft.to/lastmile_qr_scan", "ios": "https://dc.lft.to/lastmile_qr_scan"}, "fusion_lat": 0.0}, {"type": "electric_scooter", "bike_id": "c4ced18b1aac6cf182db57835c0247e3", "is_disabled": 0, "name": "c4ced18b1aac6cf182db57835c0247e3", "lon": -77.0236635, "is_reserved": 0, "fusion_lon": 0.0, "lat": 38.89219716666667, "rental_uris": {"android": "https://dc.lft.to/lastmile_qr_scan", "ios": "https://dc.lft.to/lastmile_qr_scan"}, "fusion_lat": 0.0}, {"type": "electric_scooter", "bike_id": "02c136a30f89d39158aa89f89ae26158", "is_disabled": 0, "name": "02c136a30f89d39158aa89f89ae26158", "lon": -77.01979033333333, "is_reserved": 0, "fusion_lon": 0.0, "lat": 38.88721233333333, "rental_uris": {"android": "https://dc.lft.to/lastmile_qr_scan", "ios": "https://dc.lft.to/lastmile_qr_scan"}, "fusion_lat": 0.0}, {"type": "electric_scooter", "bike_id": "c895c0627e422d8ecc569cafd6d8709f", "is_disabled": 0, "name": "c895c0627e422d8ecc569cafd6d8709f", "lon": -77.03200966666667, "is_reserved": 0, "fusion_lon": 0.0, "lat": 38.90201016666666, "rental_uris": {"android": "https://dc.lft.to/lastmile_qr_scan", "ios": "https://dc.lft.to/lastmile_qr_scan"}, "fusion_lat": 0.0}, {"type": "electric_scooter", "bike_id": "270dff159d930839103d46097dcbc2dc", "is_disabled": 0, "name": "270dff159d930839103d46097dcbc2dc", "lon": -77.01096183333334, "is_reserved": 0, "fusion_lon": 0.0, "lat": 38.89553866666667, "rental_uris": {"android": "https://dc.lft.to/lastmile_qr_scan", "ios": "https://dc.lft.to/lastmile_qr_scan"}, "fusion_lat": 0.0}, {"type": "electric_scooter", "bike_id": "57b8285f8152ecec8d04086ef5f7b3ef", "is_disabled": 0, "name": "57b8285f8152ecec8d04086ef5f7b3ef", "lon": -77.02813883333333, "is_reserved": 0, "fusion_lon": 0.0, "lat": 38.9175235, "rental_uris": {"android": "https://dc.lft.to/lastmile_qr_scan", "ios": "https://dc.lft.to/lastmile_qr_scan"}, "fusion_lat": 0.0}, {"type": "electric_bike", "bike_id": "7c7e8ab59c5e047712d42a1ed41ddeb4", "is_disabled": 0, "name": "7c7e8ab59c5e047712d42a1ed41ddeb4", "lon": -76.95566816666667, "is_reserved": 0, "fusion_lon": 0.0, "lat": 38.985024333333335, "rental_uris": {"android": "https://dc.lft.to/lastmile_qr_scan", "ios": "https://dc.lft.to/lastmile_qr_scan"}, "fusion_lat": 0.0}, {"type": "electric_scooter", "bike_id": "97fe6dcb24504f1744c5854cc80f8e93", "is_disabled": 0, "name": "97fe6dcb24504f1744c5854cc80f8e93", "lon": -77.017867, "is_reserved": 0, "fusion_lon": 0.0, "lat": 38.919918333333335, "rental_uris": {"android": "https://dc.lft.to/lastmile_qr_scan", "ios": "https://dc.lft.to/lastmile_qr_scan"}, "fusion_lat": 0.0}, {"type": "electric_scooter", "bike_id": "784e6cf038ae33acb359a5083eb7bc2d", "is_disabled": 0, "name": "784e6cf038ae33acb359a5083eb7bc2d", "lon": -77.06304816666666, "is_reserved": 0, "fusion_lon": 0.0, "lat": 38.90399033333333, "rental_uris": {"android": "https://dc.lft.to/lastmile_qr_scan", "ios": "https://dc.lft.to/lastmile_qr_scan"}, "fusion_lat": 0.0}, {"type": "electric_scooter", "bike_id": "04d46758d0a78c43dec5b5cd68b6faf5", "is_disabled": 0, "name": "04d46758d0a78c43dec5b5cd68b6faf5", "lon": -77.03956966666667, "is_reserved": 0, "fusion_lon": 0.0, "lat": 38.902560333333334, "rental_uris": {"android": "https://dc.lft.to/lastmile_qr_scan", "ios": "https://dc.lft.to/lastmile_qr_scan"}, "fusion_lat": 0.0}, {"type": "electric_scooter", "bike_id": "ba09ced38df9790b4e907b6f6ebda467", "is_disabled": 0, "name": "ba09ced38df9790b4e907b6f6ebda467", "lon": -77.04126616666667, "is_reserved": 0, "fusion_lon": 0.0, "lat": 38.91707983333333, "rental_uris": {"android": "https://dc.lft.to/lastmile_qr_scan", "ios": "https://dc.lft.to/lastmile_qr_scan"}, "fusion_lat": 0.0}, {"type": "electric_scooter", "bike_id": "cc4e744e2ccde5d710890f5de90565c9", "is_disabled": 0, "name": "cc4e744e2ccde5d710890f5de90565c9", "lon": -77.044667, "is_reserved": 0, "fusion_lon": 0.0, "lat": 38.9246875, "rental_uris": {"android": "https://dc.lft.to/lastmile_qr_scan", "ios": "https://dc.lft.to/lastmile_qr_scan"}, "fusion_lat": 0.0}, {"type": "electric_scooter", "bike_id": "f9f764e9f2532c231d7bad17a319b89b", "is_disabled": 0, "name": "f9f764e9f2532c231d7bad17a319b89b", "lon": -77.01281066666667, "is_reserved": 0, "fusion_lon": 0.0, "lat": 38.95654733333333, "rental_uris": {"android": "https://dc.lft.to/lastmile_qr_scan", "ios": "https://dc.lft.to/lastmile_qr_scan"}, "fusion_lat": 0.0}, {"type": "electric_scooter", "bike_id": "6ee291a5e0f6c3eb2d859476d554275e", "is_disabled": 0, "name": "6ee291a5e0f6c3eb2d859476d554275e", "lon": -77.01542466666666, "is_reserved": 0, "fusion_lon": 0.0, "lat": 38.89163583333333, "rental_uris": {"android": "https://dc.lft.to/lastmile_qr_scan", "ios": "https://dc.lft.to/lastmile_qr_scan"}, "fusion_lat": 0.0}, {"type": "electric_scooter", "bike_id": "6c5c078b1cbdbedf36a7293ba9d8e7fa", "is_disabled": 0, "name": "6c5c078b1cbdbedf36a7293ba9d8e7fa", "lon": -77.02089766666667, "is_reserved": 0, "fusion_lon": 0.0, "lat": 38.92152683333333, "rental_uris": {"android": "https://dc.lft.to/lastmile_qr_scan", "ios": "https://dc.lft.to/lastmile_qr_scan"}, "fusion_lat": 0.0}, {"type": "electric_scooter", "bike_id": "2b1eb6217a3021892f106ce66ced0dfe", "is_disabled": 0, "name": "2b1eb6217a3021892f106ce66ced0dfe", "lon": -77.03447683333333, "is_reserved": 0, "fusion_lon": 0.0, "lat": 38.913972333333334, "rental_uris": {"android": "https://dc.lft.to/lastmile_qr_scan", "ios": "https://dc.lft.to/lastmile_qr_scan"}, "fusion_lat": 0.0}, {"type": "electric_bike", "bike_id": "8aa2417cbd344151b7150b28a56f16a7", "is_disabled": 0, "name": "8aa2417cbd344151b7150b28a56f16a7", "lon": -77.02144083333333, "is_reserved": 0, "fusion_lon": 0.0, "lat": 38.94810916666667, "rental_uris": {"android": "https://dc.lft.to/lastmile_qr_scan", "ios": "https://dc.lft.to/lastmile_qr_scan"}, "fusion_lat": 0.0}, {"type": "electric_scooter", "bike_id": "556d2838614843edf86e5eeea2525599", "is_disabled": 0, "name": "556d2838614843edf86e5eeea2525599", "lon": -77.02571983333333, "is_reserved": 0, "fusion_lon": 0.0, "lat": 38.88743266666667, "rental_uris": {"android": "https://dc.lft.to/lastmile_qr_scan", "ios": "https://dc.lft.to/lastmile_qr_scan"}, "fusion_lat": 0.0}, {"type": "electric_scooter", "bike_id": "bb570b13786069f6c70a6e2bd6a7652c", "is_disabled": 0, "name": "bb570b13786069f6c70a6e2bd6a7652c", "lon": -77.02408516666667, "is_reserved": 0, "fusion_lon": 0.0, "lat": 38.920688166666665, "rental_uris": {"android": "https://dc.lft.to/lastmile_qr_scan", "ios": "https://dc.lft.to/lastmile_qr_scan"}, "fusion_lat": 0.0}, {"type": "electric_scooter", "bike_id": "15d9ad778d7a53a1fda94edb0c8b7e5c", "is_disabled": 0, "name": "15d9ad778d7a53a1fda94edb0c8b7e5c", "lon": -76.98860383333333, "is_reserved": 0, "fusion_lon": 0.0, "lat": 38.84421966666667, "rental_uris": {"android": "https://dc.lft.to/lastmile_qr_scan", "ios": "https://dc.lft.to/lastmile_qr_scan"}, "fusion_lat": 0.0}, {"type": "electric_bike", "bike_id": "3c4c6a009458f7efe77d61888562205f", "is_disabled": 0, "name": "3c4c6a009458f7efe77d61888562205f", "lon": -76.990302, "is_reserved": 0, "fusion_lon": 0.0, "lat": 38.83583516666667, "rental_uris": {"android": "https://dc.lft.to/lastmile_qr_scan", "ios": "https://dc.lft.to/lastmile_qr_scan"}, "fusion_lat": 0.0}, {"type": "electric_bike", "bike_id": "2457b3169a9e74abe0608ebf7bceee4f", "is_disabled": 0, "name": "2457b3169a9e74abe0608ebf7bceee4f", "lon": -76.97225183333333, "is_reserved": 0, "fusion_lon": 0.0, "lat": 38.900355, "rental_uris": {"android": "https://dc.lft.to/lastmile_qr_scan", "ios": "https://dc.lft.to/lastmile_qr_scan"}, "fusion_lat": 0.0}, {"type": "electric_bike", "bike_id": "0b1377b91261138f3688a3a8dce02a34", "is_disabled": 0, "name": "0b1377b91261138f3688a3a8dce02a34", "lon": -77.02706983333333, "is_reserved": 0, "fusion_lon": 0.0, "lat": 38.93121283333333, "rental_uris": {"android": "https://dc.lft.to/lastmile_qr_scan", "ios": "https://dc.lft.to/lastmile_qr_scan"}, "fusion_lat": 0.0}, {"type": "electric_bike", "bike_id": "8579373ca5e6c188aab85ef6e44c14f6", "is_disabled": 0, "name": "8579373ca5e6c188aab85ef6e44c14f6", "lon": -77.02143383333333, "is_reserved": 0, "fusion_lon": 0.0, "lat": 38.94808316666666, "rental_uris": {"android": "https://dc.lft.to/lastmile_qr_scan", "ios": "https://dc.lft.to/lastmile_qr_scan"}, "fusion_lat": 0.0}, {"type": "electric_scooter", "bike_id": "02f4337ce3eb8309b6f0b7f374751b20", "is_disabled": 0, "name": "02f4337ce3eb8309b6f0b7f374751b20", "lon": -77.0196285, "is_reserved": 0, "fusion_lon": 0.0, "lat": 38.92322516666667, "rental_uris": {"android": "https://dc.lft.to/lastmile_qr_scan", "ios": "https://dc.lft.to/lastmile_qr_scan"}, "fusion_lat": 0.0}, {"type": "electric_scooter", "bike_id": "44b7d475ab27e62df35804adfd85d3e5", "is_disabled": 0, "name": "44b7d475ab27e62df35804adfd85d3e5", "lon": -77.03375866666667, "is_reserved": 0, "fusion_lon": 0.0, "lat": 38.8997195, "rental_uris": {"android": "https://dc.lft.to/lastmile_qr_scan", "ios": "https://dc.lft.to/lastmile_qr_scan"}, "fusion_lat": 0.0}, {"type": "electric_scooter", "bike_id": "04e97711cbeba2a5fb429246befcf990", "is_disabled": 0, "name": "04e97711cbeba2a5fb429246befcf990", "lon": -77.0238025, "is_reserved": 0, "fusion_lon": 0.0, "lat": 38.90962366666667, "rental_uris": {"android": "https://dc.lft.to/lastmile_qr_scan", "ios": "https://dc.lft.to/lastmile_qr_scan"}, "fusion_lat": 0.0}, {"type": "electric_scooter", "bike_id": "9303044b808ce8ec4410fc5239391d04", "is_disabled": 0, "name": "9303044b808ce8ec4410fc5239391d04", "lon": -77.01704433333333, "is_reserved": 0, "fusion_lon": 0.0, "lat": 38.904642, "rental_uris": {"android": "https://dc.lft.to/lastmile_qr_scan", "ios": "https://dc.lft.to/lastmile_qr_scan"}, "fusion_lat": 0.0}, {"type": "electric_scooter", "bike_id": "70a54616537a403016e2b088adc9be27", "is_disabled": 0, "name": "70a54616537a403016e2b088adc9be27", "lon": -77.09098883333333, "is_reserved": 0, "fusion_lon": 0.0, "lat": 38.93102533333333, "rental_uris": {"android": "https://dc.lft.to/lastmile_qr_scan", "ios": "https://dc.lft.to/lastmile_qr_scan"}, "fusion_lat": 0.0}, {"type": "electric_scooter", "bike_id": "6de822bb19bf32c47bed3adcbe6a6fde", "is_disabled": 0, "name": "6de822bb19bf32c47bed3adcbe6a6fde", "lon": -77.05339633333334, "is_reserved": 0, "fusion_lon": 0.0, "lat": 38.90643016666667, "rental_uris": {"android": "https://dc.lft.to/lastmile_qr_scan", "ios": "https://dc.lft.to/lastmile_qr_scan"}, "fusion_lat": 0.0}, {"type": "electric_scooter", "bike_id": "1baab51b887d518341d4fd0719bcb1af", "is_disabled": 0, "name": "1baab51b887d518341d4fd0719bcb1af", "lon": -76.946534, "is_reserved": 0, "fusion_lon": 0.0, "lat": 38.898294166666666, "rental_uris": {"android": "https://dc.lft.to/lastmile_qr_scan", "ios": "https://dc.lft.to/lastmile_qr_scan"}, "fusion_lat": 0.0}, {"type": "electric_scooter", "bike_id": "5670bb90d8cbd18cec3fc5669069ab7d", "is_disabled": 0, "name": "5670bb90d8cbd18cec3fc5669069ab7d", "lon": -77.021642, "is_reserved": 0, "fusion_lon": 0.0, "lat": 38.94132233333333, "rental_uris": {"android": "https://dc.lft.to/lastmile_qr_scan", "ios": "https://dc.lft.to/lastmile_qr_scan"}, "fusion_lat": 0.0}, {"type": "electric_scooter", "bike_id": "9a5ba8ea0e426786d18c1f653dba806e", "is_disabled": 0, "name": "9a5ba8ea0e426786d18c1f653dba806e", "lon": -77.02405966666667, "is_reserved": 0, "fusion_lon": 0.0, "lat": 38.915686, "rental_uris": {"android": "https://dc.lft.to/lastmile_qr_scan", "ios": "https://dc.lft.to/lastmile_qr_scan"}, "fusion_lat": 0.0}, {"type": "electric_scooter", "bike_id": "d42277bfb849701bbfb0a8f8d8d3ddf5", "is_disabled": 0, "name": "d42277bfb849701bbfb0a8f8d8d3ddf5", "lon": -77.0468505, "is_reserved": 0, "fusion_lon": 0.0, "lat": 38.89220383333333, "rental_uris": {"android": "https://dc.lft.to/lastmile_qr_scan", "ios": "https://dc.lft.to/lastmile_qr_scan"}, "fusion_lat": 0.0}, {"type": "electric_scooter", "bike_id": "b81fef6d029efb20a18d4244f750de55", "is_disabled": 0, "name": "b81fef6d029efb20a18d4244f750de55", "lon": -77.046902, "is_reserved": 0, "fusion_lon": 0.0, "lat": 38.89606933333334, "rental_uris": {"android": "https://dc.lft.to/lastmile_qr_scan", "ios": "https://dc.lft.to/lastmile_qr_scan"}, "fusion_lat": 0.0}, {"type": "electric_scooter", "bike_id": "20bb0aa4356d26744ae11b721ad88fff", "is_disabled": 0, "name": "20bb0aa4356d26744ae11b721ad88fff", "lon": -77.00064266666666, "is_reserved": 0, "fusion_lon": 0.0, "lat": 38.90693516666666, "rental_uris": {"android": "https://dc.lft.to/lastmile_qr_scan", "ios": "https://dc.lft.to/lastmile_qr_scan"}, "fusion_lat": 0.0}, {"type": "electric_scooter", "bike_id": "0e8884f1d5df24a4e0a642ad4ab745e0", "is_disabled": 0, "name": "0e8884f1d5df24a4e0a642ad4ab745e0", "lon": -77.0641785, "is_reserved": 0, "fusion_lon": 0.0, "lat": 38.914634166666666, "rental_uris": {"android": "https://dc.lft.to/lastmile_qr_scan", "ios": "https://dc.lft.to/lastmile_qr_scan"}, "fusion_lat": 0.0}, {"type": "electric_scooter", "bike_id": "09d1431c02f1f9a562974866cfb05f10", "is_disabled": 0, "name": "09d1431c02f1f9a562974866cfb05f10", "lon": -77.0644715, "is_reserved": 0, "fusion_lon": 0.0, "lat": 38.948966666666664, "rental_uris": {"android": "https://dc.lft.to/lastmile_qr_scan", "ios": "https://dc.lft.to/lastmile_qr_scan"}, "fusion_lat": 0.0}, {"type": "electric_scooter", "bike_id": "bceeca4d4c27d162c098722850e2bc5b", "is_disabled": 0, "name": "bceeca4d4c27d162c098722850e2bc5b", "lon": -77.0469085, "is_reserved": 0, "fusion_lon": 0.0, "lat": 38.892212, "rental_uris": {"android": "https://dc.lft.to/lastmile_qr_scan", "ios": "https://dc.lft.to/lastmile_qr_scan"}, "fusion_lat": 0.0}, {"type": "electric_scooter", "bike_id": "9317ce90bb86f94745bd4e75836f724b", "is_disabled": 0, "name": "9317ce90bb86f94745bd4e75836f724b", "lon": -76.92498133333333, "is_reserved": 0, "fusion_lon": 0.0, "lat": 38.88604616666667, "rental_uris": {"android": "https://dc.lft.to/lastmile_qr_scan", "ios": "https://dc.lft.to/lastmile_qr_scan"}, "fusion_lat": 0.0}, {"type": "electric_scooter", "bike_id": "3d31f1944a1431ca704bcc7f8dfb73cc", "is_disabled": 0, "name": "3d31f1944a1431ca704bcc7f8dfb73cc", "lon": -77.01691516666666, "is_reserved": 0, "fusion_lon": 0.0, "lat": 38.90646983333333, "rental_uris": {"android": "https://dc.lft.to/lastmile_qr_scan", "ios": "https://dc.lft.to/lastmile_qr_scan"}, "fusion_lat": 0.0}, {"type": "electric_scooter", "bike_id": "023cf0aed631bb61332bf70ceb466c0a", "is_disabled": 0, "name": "023cf0aed631bb61332bf70ceb466c0a", "lon": -77.02310516666667, "is_reserved": 0, "fusion_lon": 0.0, "lat": 38.895097, "rental_uris": {"android": "https://dc.lft.to/lastmile_qr_scan", "ios": "https://dc.lft.to/lastmile_qr_scan"}, "fusion_lat": 0.0}, {"type": "electric_scooter", "bike_id": "ec8c9f63abcadc202a64462fc935cd06", "is_disabled": 0, "name": "ec8c9f63abcadc202a64462fc935cd06", "lon": -77.00205683333333, "is_reserved": 0, "fusion_lon": 0.0, "lat": 38.900345, "rental_uris": {"android": "https://dc.lft.to/lastmile_qr_scan", "ios": "https://dc.lft.to/lastmile_qr_scan"}, "fusion_lat": 0.0}, {"type": "electric_scooter", "bike_id": "3ca439387c0b521abb4e26c427f53725", "is_disabled": 0, "name": "3ca439387c0b521abb4e26c427f53725", "lon": -77.021903, "is_reserved": 0, "fusion_lon": 0.0, "lat": 38.90664616666667, "rental_uris": {"android": "https://dc.lft.to/lastmile_qr_scan", "ios": "https://dc.lft.to/lastmile_qr_scan"}, "fusion_lat": 0.0}, {"type": "electric_scooter", "bike_id": "92932451b060d06182c624926a8001de", "is_disabled": 0, "name": "92932451b060d06182c624926a8001de", "lon": -77.00526983333333, "is_reserved": 0, "fusion_lon": 0.0, "lat": 38.8804605, "rental_uris": {"android": "https://dc.lft.to/lastmile_qr_scan", "ios": "https://dc.lft.to/lastmile_qr_scan"}, "fusion_lat": 0.0}, {"type": "electric_scooter", "bike_id": "ce0c07a354b72a047cccf9042a4d4aaa", "is_disabled": 0, "name": "ce0c07a354b72a047cccf9042a4d4aaa", "lon": -77.03658766666666, "is_reserved": 0, "fusion_lon": 0.0, "lat": 38.90290433333333, "rental_uris": {"android": "https://dc.lft.to/lastmile_qr_scan", "ios": "https://dc.lft.to/lastmile_qr_scan"}, "fusion_lat": 0.0}, {"type": "electric_scooter", "bike_id": "7330fb1193a8e0286cce4a79b79df092", "is_disabled": 0, "name": "7330fb1193a8e0286cce4a79b79df092", "lon": -77.03658633333333, "is_reserved": 0, "fusion_lon": 0.0, "lat": 38.9179555, "rental_uris": {"android": "https://dc.lft.to/lastmile_qr_scan", "ios": "https://dc.lft.to/lastmile_qr_scan"}, "fusion_lat": 0.0}, {"type": "electric_scooter", "bike_id": "26c6bb497004964bb1c60261064c7322", "is_disabled": 0, "name": "26c6bb497004964bb1c60261064c7322", "lon": -77.0245395, "is_reserved": 0, "fusion_lon": 0.0, "lat": 38.915117, "rental_uris": {"android": "https://dc.lft.to/lastmile_qr_scan", "ios": "https://dc.lft.to/lastmile_qr_scan"}, "fusion_lat": 0.0}, {"type": "electric_scooter", "bike_id": "9e68e78c3a02d689523f0420754de335", "is_disabled": 0, "name": "9e68e78c3a02d689523f0420754de335", "lon": -77.05328016666667, "is_reserved": 0, "fusion_lon": 0.0, "lat": 38.904563, "rental_uris": {"android": "https://dc.lft.to/lastmile_qr_scan", "ios": "https://dc.lft.to/lastmile_qr_scan"}, "fusion_lat": 0.0}, {"type": "electric_scooter", "bike_id": "810e551014cd7fc5a4cb20287e6201f7", "is_disabled": 0, "name": "810e551014cd7fc5a4cb20287e6201f7", "lon": -77.02104766666666, "is_reserved": 0, "fusion_lon": 0.0, "lat": 38.9326555, "rental_uris": {"android": "https://dc.lft.to/lastmile_qr_scan", "ios": "https://dc.lft.to/lastmile_qr_scan"}, "fusion_lat": 0.0}, {"type": "electric_scooter", "bike_id": "272e6ed2c02bfb31c454fb5cf28ff31b", "is_disabled": 0, "name": "272e6ed2c02bfb31c454fb5cf28ff31b", "lon": -76.99775466666667, "is_reserved": 0, "fusion_lon": 0.0, "lat": 38.901325666666665, "rental_uris": {"android": "https://dc.lft.to/lastmile_qr_scan", "ios": "https://dc.lft.to/lastmile_qr_scan"}, "fusion_lat": 0.0}, {"type": "electric_scooter", "bike_id": "644e4f0c705a4721906e062f006ccc77", "is_disabled": 0, "name": "644e4f0c705a4721906e062f006ccc77", "lon": -77.01217733333333, "is_reserved": 0, "fusion_lon": 0.0, "lat": 38.9533745, "rental_uris": {"android": "https://dc.lft.to/lastmile_qr_scan", "ios": "https://dc.lft.to/lastmile_qr_scan"}, "fusion_lat": 0.0}, {"type": "electric_scooter", "bike_id": "a345181cdfab65de4dcfc10a341f300b", "is_disabled": 0, "name": "a345181cdfab65de4dcfc10a341f300b", "lon": -77.02182283333333, "is_reserved": 0, "fusion_lon": 0.0, "lat": 38.915123, "rental_uris": {"android": "https://dc.lft.to/lastmile_qr_scan", "ios": "https://dc.lft.to/lastmile_qr_scan"}, "fusion_lat": 0.0}, {"type": "electric_scooter", "bike_id": "0485d6db552d486aac4d5721fd8e239a", "is_disabled": 0, "name": "0485d6db552d486aac4d5721fd8e239a", "lon": -77.0456415, "is_reserved": 0, "fusion_lon": 0.0, "lat": 38.9039395, "rental_uris": {"android": "https://dc.lft.to/lastmile_qr_scan", "ios": "https://dc.lft.to/lastmile_qr_scan"}, "fusion_lat": 0.0}, {"type": "electric_scooter", "bike_id": "4a6a527a6b7a3516e4ee8333538fc4be", "is_disabled": 0, "name": "4a6a527a6b7a3516e4ee8333538fc4be", "lon": -77.0434325, "is_reserved": 0, "fusion_lon": 0.0, "lat": 38.90882416666667, "rental_uris": {"android": "https://dc.lft.to/lastmile_qr_scan", "ios": "https://dc.lft.to/lastmile_qr_scan"}, "fusion_lat": 0.0}, {"type": "electric_scooter", "bike_id": "74a55cc3f1a4051d1d8a55f4847a1678", "is_disabled": 0, "name": "74a55cc3f1a4051d1d8a55f4847a1678", "lon": -77.02108033333333, "is_reserved": 0, "fusion_lon": 0.0, "lat": 38.89602633333333, "rental_uris": {"android": "https://dc.lft.to/lastmile_qr_scan", "ios": "https://dc.lft.to/lastmile_qr_scan"}, "fusion_lat": 0.0}, {"type": "electric_scooter", "bike_id": "5bcfda53350b6f87bd0ef5a645d8a6b9", "is_disabled": 0, "name": "5bcfda53350b6f87bd0ef5a645d8a6b9", "lon": -77.0628325, "is_reserved": 0, "fusion_lon": 0.0, "lat": 38.905666833333335, "rental_uris": {"android": "https://dc.lft.to/lastmile_qr_scan", "ios": "https://dc.lft.to/lastmile_qr_scan"}, "fusion_lat": 0.0}, {"type": "electric_scooter", "bike_id": "8200f11e90ee1bd617a0a1a107bb4e33", "is_disabled": 0, "name": "8200f11e90ee1bd617a0a1a107bb4e33", "lon": -77.019487, "is_reserved": 0, "fusion_lon": 0.0, "lat": 38.92329933333333, "rental_uris": {"android": "https://dc.lft.to/lastmile_qr_scan", "ios": "https://dc.lft.to/lastmile_qr_scan"}, "fusion_lat": 0.0}, {"type": "electric_scooter", "bike_id": "6b4dc5cc550027d46520c8f3d625ed7f", "is_disabled": 0, "name": "6b4dc5cc550027d46520c8f3d625ed7f", "lon": -77.03604066666666, "is_reserved": 0, "fusion_lon": 0.0, "lat": 38.92855266666667, "rental_uris": {"android": "https://dc.lft.to/lastmile_qr_scan", "ios": "https://dc.lft.to/lastmile_qr_scan"}, "fusion_lat": 0.0}, {"type": "electric_scooter", "bike_id": "59bd1def67f02456ae87694d4b0699c9", "is_disabled": 0, "name": "59bd1def67f02456ae87694d4b0699c9", "lon": -77.04460083333333, "is_reserved": 0, "fusion_lon": 0.0, "lat": 38.9028075, "rental_uris": {"android": "https://dc.lft.to/lastmile_qr_scan", "ios": "https://dc.lft.to/lastmile_qr_scan"}, "fusion_lat": 0.0}, {"type": "electric_scooter", "bike_id": "1e926f89c8e953a20315d3594a36d8b6", "is_disabled": 0, "name": "1e926f89c8e953a20315d3594a36d8b6", "lon": -76.99293933333334, "is_reserved": 0, "fusion_lon": 0.0, "lat": 38.900205666666665, "rental_uris": {"android": "https://dc.lft.to/lastmile_qr_scan", "ios": "https://dc.lft.to/lastmile_qr_scan"}, "fusion_lat": 0.0}, {"type": "electric_scooter", "bike_id": "8f9ed3cfbb9fb5b72cf0bc6bfe9b5ca3", "is_disabled": 0, "name": "8f9ed3cfbb9fb5b72cf0bc6bfe9b5ca3", "lon": -77.03445733333334, "is_reserved": 0, "fusion_lon": 0.0, "lat": 38.9139335, "rental_uris": {"android": "https://dc.lft.to/lastmile_qr_scan", "ios": "https://dc.lft.to/lastmile_qr_scan"}, "fusion_lat": 0.0}, {"type": "electric_scooter", "bike_id": "3654c91c347db7c6bef06fa7d2c2b9ec", "is_disabled": 0, "name": "3654c91c347db7c6bef06fa7d2c2b9ec", "lon": -77.01084966666667, "is_reserved": 0, "fusion_lon": 0.0, "lat": 38.9032015, "rental_uris": {"android": "https://dc.lft.to/lastmile_qr_scan", "ios": "https://dc.lft.to/lastmile_qr_scan"}, "fusion_lat": 0.0}, {"type": "electric_scooter", "bike_id": "51f5b17c54e46b556bc768d11f9b272f", "is_disabled": 0, "name": "51f5b17c54e46b556bc768d11f9b272f", "lon": -77.00920433333333, "is_reserved": 0, "fusion_lon": 0.0, "lat": 38.8954845, "rental_uris": {"android": "https://dc.lft.to/lastmile_qr_scan", "ios": "https://dc.lft.to/lastmile_qr_scan"}, "fusion_lat": 0.0}, {"type": "electric_scooter", "bike_id": "7b0409c29029dc7bc80d1da66c21e376", "is_disabled": 0, "name": "7b0409c29029dc7bc80d1da66c21e376", "lon": -77.01633466666667, "is_reserved": 0, "fusion_lon": 0.0, "lat": 38.887469, "rental_uris": {"android": "https://dc.lft.to/lastmile_qr_scan", "ios": "https://dc.lft.to/lastmile_qr_scan"}, "fusion_lat": 0.0}, {"type": "electric_scooter", "bike_id": "8426932d6e43670b5e70f0af8e5207b3", "is_disabled": 0, "name": "8426932d6e43670b5e70f0af8e5207b3", "lon": -77.00730266666666, "is_reserved": 0, "fusion_lon": 0.0, "lat": 38.911942833333335, "rental_uris": {"android": "https://dc.lft.to/lastmile_qr_scan", "ios": "https://dc.lft.to/lastmile_qr_scan"}, "fusion_lat": 0.0}, {"type": "electric_scooter", "bike_id": "1a223f604d77076d987900cccf31afe1", "is_disabled": 0, "name": "1a223f604d77076d987900cccf31afe1", "lon": -77.0420075, "is_reserved": 0, "fusion_lon": 0.0, "lat": 38.918756333333334, "rental_uris": {"android": "https://dc.lft.to/lastmile_qr_scan", "ios": "https://dc.lft.to/lastmile_qr_scan"}, "fusion_lat": 0.0}, {"type": "electric_scooter", "bike_id": "234ca40f2fee620a127a4f64d4d57601", "is_disabled": 0, "name": "234ca40f2fee620a127a4f64d4d57601", "lon": -77.03370733333334, "is_reserved": 0, "fusion_lon": 0.0, "lat": 38.900291, "rental_uris": {"android": "https://dc.lft.to/lastmile_qr_scan", "ios": "https://dc.lft.to/lastmile_qr_scan"}, "fusion_lat": 0.0}, {"type": "electric_scooter", "bike_id": "42d80ecefe546b79db44a1facbe68676", "is_disabled": 0, "name": "42d80ecefe546b79db44a1facbe68676", "lon": -76.98088983333334, "is_reserved": 0, "fusion_lon": 0.0, "lat": 38.894388166666666, "rental_uris": {"android": "https://dc.lft.to/lastmile_qr_scan", "ios": "https://dc.lft.to/lastmile_qr_scan"}, "fusion_lat": 0.0}, {"type": "electric_scooter", "bike_id": "373cbdcdb0aa7ff26f8008574309874c", "is_disabled": 0, "name": "373cbdcdb0aa7ff26f8008574309874c", "lon": -77.05912583333334, "is_reserved": 0, "fusion_lon": 0.0, "lat": 38.90155383333333, "rental_uris": {"android": "https://dc.lft.to/lastmile_qr_scan", "ios": "https://dc.lft.to/lastmile_qr_scan"}, "fusion_lat": 0.0}, {"type": "electric_scooter", "bike_id": "c6be0d76745acc0c8afa327fd937415e", "is_disabled": 0, "name": "c6be0d76745acc0c8afa327fd937415e", "lon": -77.00347916666666, "is_reserved": 0, "fusion_lon": 0.0, "lat": 38.899246166666664, "rental_uris": {"android": "https://dc.lft.to/lastmile_qr_scan", "ios": "https://dc.lft.to/lastmile_qr_scan"}, "fusion_lat": 0.0}, {"type": "electric_scooter", "bike_id": "fbaab57bba08ef46bb467f04b5c14a1d", "is_disabled": 0, "name": "fbaab57bba08ef46bb467f04b5c14a1d", "lon": -77.0423555, "is_reserved": 0, "fusion_lon": 0.0, "lat": 38.911176, "rental_uris": {"android": "https://dc.lft.to/lastmile_qr_scan", "ios": "https://dc.lft.to/lastmile_qr_scan"}, "fusion_lat": 0.0}, {"type": "electric_scooter", "bike_id": "15eabfac718978895173f23f7513590e", "is_disabled": 0, "name": "15eabfac718978895173f23f7513590e", "lon": -77.03140466666666, "is_reserved": 0, "fusion_lon": 0.0, "lat": 38.922402, "rental_uris": {"android": "https://dc.lft.to/lastmile_qr_scan", "ios": "https://dc.lft.to/lastmile_qr_scan"}, "fusion_lat": 0.0}, {"type": "electric_bike", "bike_id": "312f6ae3c340c7178eb3a26b12d51947", "is_disabled": 0, "name": "312f6ae3c340c7178eb3a26b12d51947", "lon": -77.030047, "is_reserved": 0, "fusion_lon": 0.0, "lat": 38.900212, "rental_uris": {"android": "https://dc.lft.to/lastmile_qr_scan", "ios": "https://dc.lft.to/lastmile_qr_scan"}, "fusion_lat": 0.0}, {"type": "electric_scooter", "bike_id": "c0fe85f3b40c5ed0ffa6965e9ba9f594", "is_disabled": 0, "name": "c0fe85f3b40c5ed0ffa6965e9ba9f594", "lon": -77.01814333333333, "is_reserved": 0, "fusion_lon": 0.0, "lat": 38.91400616666667, "rental_uris": {"android": "https://dc.lft.to/lastmile_qr_scan", "ios": "https://dc.lft.to/lastmile_qr_scan"}, "fusion_lat": 0.0}, {"type": "electric_scooter", "bike_id": "c82b3193228f3cd8461d7c51241926c4", "is_disabled": 0, "name": "c82b3193228f3cd8461d7c51241926c4", "lon": -77.025067, "is_reserved": 0, "fusion_lon": 0.0, "lat": 38.92066166666667, "rental_uris": {"android": "https://dc.lft.to/lastmile_qr_scan", "ios": "https://dc.lft.to/lastmile_qr_scan"}, "fusion_lat": 0.0}, {"type": "electric_scooter", "bike_id": "ef1a195b999f2214ad136948e2d5d2b0", "is_disabled": 0, "name": "ef1a195b999f2214ad136948e2d5d2b0", "lon": -77.03641333333333, "is_reserved": 0, "fusion_lon": 0.0, "lat": 38.903202, "rental_uris": {"android": "https://dc.lft.to/lastmile_qr_scan", "ios": "https://dc.lft.to/lastmile_qr_scan"}, "fusion_lat": 0.0}, {"type": "electric_scooter", "bike_id": "2cc1a11fd223e3f089f2376f52b9c72f", "is_disabled": 0, "name": "2cc1a11fd223e3f089f2376f52b9c72f", "lon": -77.02664833333333, "is_reserved": 0, "fusion_lon": 0.0, "lat": 38.921761333333336, "rental_uris": {"android": "https://dc.lft.to/lastmile_qr_scan", "ios": "https://dc.lft.to/lastmile_qr_scan"}, "fusion_lat": 0.0}, {"type": "electric_scooter", "bike_id": "bcd6988b89ba424289d2bb26e3ebc8b1", "is_disabled": 0, "name": "bcd6988b89ba424289d2bb26e3ebc8b1", "lon": -77.03331933333334, "is_reserved": 0, "fusion_lon": 0.0, "lat": 38.898983, "rental_uris": {"android": "https://dc.lft.to/lastmile_qr_scan", "ios": "https://dc.lft.to/lastmile_qr_scan"}, "fusion_lat": 0.0}, {"type": "electric_scooter", "bike_id": "c61808e3064569c17881d013cfac7c2e", "is_disabled": 0, "name": "c61808e3064569c17881d013cfac7c2e", "lon": -77.02615, "is_reserved": 0, "fusion_lon": 0.0, "lat": 38.920352, "rental_uris": {"android": "https://dc.lft.to/lastmile_qr_scan", "ios": "https://dc.lft.to/lastmile_qr_scan"}, "fusion_lat": 0.0}, {"type": "electric_scooter", "bike_id": "63481d83cb6d9c10a905d43ee42b9079", "is_disabled": 0, "name": "63481d83cb6d9c10a905d43ee42b9079", "lon": -77.02697666666667, "is_reserved": 0, "fusion_lon": 0.0, "lat": 38.9497935, "rental_uris": {"android": "https://dc.lft.to/lastmile_qr_scan", "ios": "https://dc.lft.to/lastmile_qr_scan"}, "fusion_lat": 0.0}, {"type": "electric_scooter", "bike_id": "b9b357553a09fb0448347eb7ea94b199", "is_disabled": 0, "name": "b9b357553a09fb0448347eb7ea94b199", "lon": -77.028279, "is_reserved": 0, "fusion_lon": 0.0, "lat": 38.8993125, "rental_uris": {"android": "https://dc.lft.to/lastmile_qr_scan", "ios": "https://dc.lft.to/lastmile_qr_scan"}, "fusion_lat": 0.0}, {"type": "electric_bike", "bike_id": "22f29e8b0b7003150849e067c330ec85", "is_disabled": 0, "name": "22f29e8b0b7003150849e067c330ec85", "lon": -76.99849433333333, "is_reserved": 0, "fusion_lon": 0.0, "lat": 38.918136, "rental_uris": {"android": "https://dc.lft.to/lastmile_qr_scan", "ios": "https://dc.lft.to/lastmile_qr_scan"}, "fusion_lat": 0.0}, {"type": "electric_scooter", "bike_id": "b31195df4a18d4684e4e3a5ae8e51bfa", "is_disabled": 0, "name": "b31195df4a18d4684e4e3a5ae8e51bfa", "lon": -76.9850295, "is_reserved": 0, "fusion_lon": 0.0, "lat": 38.860593, "rental_uris": {"android": "https://dc.lft.to/lastmile_qr_scan", "ios": "https://dc.lft.to/lastmile_qr_scan"}, "fusion_lat": 0.0}, {"type": "electric_scooter", "bike_id": "faf66d5fa25ae7e034d12e7b2f3fe3df", "is_disabled": 0, "name": "faf66d5fa25ae7e034d12e7b2f3fe3df", "lon": -77.02087616666667, "is_reserved": 0, "fusion_lon": 0.0, "lat": 38.927192833333336, "rental_uris": {"android": "https://dc.lft.to/lastmile_qr_scan", "ios": "https://dc.lft.to/lastmile_qr_scan"}, "fusion_lat": 0.0}, {"type": "electric_scooter", "bike_id": "c17a7a78003eed2ab30d2669e7dc5d94", "is_disabled": 0, "name": "c17a7a78003eed2ab30d2669e7dc5d94", "lon": -77.02762333333334, "is_reserved": 0, "fusion_lon": 0.0, "lat": 38.93464933333333, "rental_uris": {"android": "https://dc.lft.to/lastmile_qr_scan", "ios": "https://dc.lft.to/lastmile_qr_scan"}, "fusion_lat": 0.0}, {"type": "electric_scooter", "bike_id": "b53b5811a5f528114eb93976c55c90a4", "is_disabled": 0, "name": "b53b5811a5f528114eb93976c55c90a4", "lon": -77.01228766666667, "is_reserved": 0, "fusion_lon": 0.0, "lat": 38.9154765, "rental_uris": {"android": "https://dc.lft.to/lastmile_qr_scan", "ios": "https://dc.lft.to/lastmile_qr_scan"}, "fusion_lat": 0.0}, {"type": "electric_scooter", "bike_id": "425d1e5846dffe3271dd76870109fc0f", "is_disabled": 0, "name": "425d1e5846dffe3271dd76870109fc0f", "lon": -77.0328545, "is_reserved": 0, "fusion_lon": 0.0, "lat": 38.93643333333333, "rental_uris": {"android": "https://dc.lft.to/lastmile_qr_scan", "ios": "https://dc.lft.to/lastmile_qr_scan"}, "fusion_lat": 0.0}, {"type": "electric_scooter", "bike_id": "b8c75ee93b88510bf4c8340f75f6f85c", "is_disabled": 0, "name": "b8c75ee93b88510bf4c8340f75f6f85c", "lon": -77.04331783333333, "is_reserved": 0, "fusion_lon": 0.0, "lat": 38.9130995, "rental_uris": {"android": "https://dc.lft.to/lastmile_qr_scan", "ios": "https://dc.lft.to/lastmile_qr_scan"}, "fusion_lat": 0.0}, {"type": "electric_scooter", "bike_id": "00b4167f02542764cb8dd2fec9807c24", "is_disabled": 0, "name": "00b4167f02542764cb8dd2fec9807c24", "lon": -77.04873633333334, "is_reserved": 0, "fusion_lon": 0.0, "lat": 38.89237583333333, "rental_uris": {"android": "https://dc.lft.to/lastmile_qr_scan", "ios": "https://dc.lft.to/lastmile_qr_scan"}, "fusion_lat": 0.0}, {"type": "electric_scooter", "bike_id": "bac1b274a477d0fd9d8bad7aecce927a", "is_disabled": 0, "name": "bac1b274a477d0fd9d8bad7aecce927a", "lon": -77.03353366666667, "is_reserved": 0, "fusion_lon": 0.0, "lat": 38.90281933333333, "rental_uris": {"android": "https://dc.lft.to/lastmile_qr_scan", "ios": "https://dc.lft.to/lastmile_qr_scan"}, "fusion_lat": 0.0}, {"type": "electric_scooter", "bike_id": "21ff072424728d1a21a03357448c3a1e", "is_disabled": 0, "name": "21ff072424728d1a21a03357448c3a1e", "lon": -77.01219133333333, "is_reserved": 0, "fusion_lon": 0.0, "lat": 38.91519366666667, "rental_uris": {"android": "https://dc.lft.to/lastmile_qr_scan", "ios": "https://dc.lft.to/lastmile_qr_scan"}, "fusion_lat": 0.0}, {"type": "electric_bike", "bike_id": "7a4cf35eabedbe06484336e81dccc88e", "is_disabled": 0, "name": "7a4cf35eabedbe06484336e81dccc88e", "lon": -76.99099116666666, "is_reserved": 0, "fusion_lon": 0.0, "lat": 38.804794333333334, "rental_uris": {"android": "https://dc.lft.to/lastmile_qr_scan", "ios": "https://dc.lft.to/lastmile_qr_scan"}, "fusion_lat": 0.0}, {"type": "electric_bike", "bike_id": "b0c07e2f245f9f85dc49ef73b007ce40", "is_disabled": 0, "name": "b0c07e2f245f9f85dc49ef73b007ce40", "lon": -77.00409, "is_reserved": 0, "fusion_lon": 0.0, "lat": 38.9854335, "rental_uris": {"android": "https://dc.lft.to/lastmile_qr_scan", "ios": "https://dc.lft.to/lastmile_qr_scan"}, "fusion_lat": 0.0}, {"type": "electric_scooter", "bike_id": "608bab99f90390f66cbed42cc0b56830", "is_disabled": 0, "name": "608bab99f90390f66cbed42cc0b56830", "lon": -77.0240325, "is_reserved": 0, "fusion_lon": 0.0, "lat": 38.9240415, "rental_uris": {"android": "https://dc.lft.to/lastmile_qr_scan", "ios": "https://dc.lft.to/lastmile_qr_scan"}, "fusion_lat": 0.0}, {"type": "electric_scooter", "bike_id": "91d72054e14159dacffe908b9064f4eb", "is_disabled": 0, "name": "91d72054e14159dacffe908b9064f4eb", "lon": -77.03208683333334, "is_reserved": 0, "fusion_lon": 0.0, "lat": 38.9167745, "rental_uris": {"android": "https://dc.lft.to/lastmile_qr_scan", "ios": "https://dc.lft.to/lastmile_qr_scan"}, "fusion_lat": 0.0}, {"type": "electric_scooter", "bike_id": "b2293142b3c7c10bced283d3c1500ec9", "is_disabled": 0, "name": "b2293142b3c7c10bced283d3c1500ec9", "lon": -76.99940483333333, "is_reserved": 0, "fusion_lon": 0.0, "lat": 38.891646, "rental_uris": {"android": "https://dc.lft.to/lastmile_qr_scan", "ios": "https://dc.lft.to/lastmile_qr_scan"}, "fusion_lat": 0.0}, {"type": "electric_scooter", "bike_id": "481780c30e4c589cec8de3025025937f", "is_disabled": 0, "name": "481780c30e4c589cec8de3025025937f", "lon": -76.99626016666667, "is_reserved": 0, "fusion_lon": 0.0, "lat": 38.90049333333333, "rental_uris": {"android": "https://dc.lft.to/lastmile_qr_scan", "ios": "https://dc.lft.to/lastmile_qr_scan"}, "fusion_lat": 0.0}, {"type": "electric_bike", "bike_id": "cc20426380546817ce2e6f5876f07526", "is_disabled": 0, "name": "cc20426380546817ce2e6f5876f07526", "lon": -77.0982155, "is_reserved": 0, "fusion_lon": 0.0, "lat": 38.850244833333335, "rental_uris": {"android": "https://dc.lft.to/lastmile_qr_scan", "ios": "https://dc.lft.to/lastmile_qr_scan"}, "fusion_lat": 0.0}, {"type": "electric_scooter", "bike_id": "2c584c19b270e36825b0a25616e2be5c", "is_disabled": 0, "name": "2c584c19b270e36825b0a25616e2be5c", "lon": -77.0331665, "is_reserved": 0, "fusion_lon": 0.0, "lat": 38.921582, "rental_uris": {"android": "https://dc.lft.to/lastmile_qr_scan", "ios": "https://dc.lft.to/lastmile_qr_scan"}, "fusion_lat": 0.0}, {"type": "electric_scooter", "bike_id": "8fa37859da1cce00ff50470842d61894", "is_disabled": 0, "name": "8fa37859da1cce00ff50470842d61894", "lon": -77.01324366666667, "is_reserved": 0, "fusion_lon": 0.0, "lat": 38.89628716666667, "rental_uris": {"android": "https://dc.lft.to/lastmile_qr_scan", "ios": "https://dc.lft.to/lastmile_qr_scan"}, "fusion_lat": 0.0}, {"type": "electric_scooter", "bike_id": "fad894524472babe148d92e1f4e01b5f", "is_disabled": 0, "name": "fad894524472babe148d92e1f4e01b5f", "lon": -77.03386533333334, "is_reserved": 0, "fusion_lon": 0.0, "lat": 38.921576333333334, "rental_uris": {"android": "https://dc.lft.to/lastmile_qr_scan", "ios": "https://dc.lft.to/lastmile_qr_scan"}, "fusion_lat": 0.0}, {"type": "electric_scooter", "bike_id": "c229fa457d195e1c993a5edf2985bfde", "is_disabled": 0, "name": "c229fa457d195e1c993a5edf2985bfde", "lon": -76.93820383333333, "is_reserved": 0, "fusion_lon": 0.0, "lat": 38.89841666666667, "rental_uris": {"android": "https://dc.lft.to/lastmile_qr_scan", "ios": "https://dc.lft.to/lastmile_qr_scan"}, "fusion_lat": 0.0}, {"type": "electric_scooter", "bike_id": "4ef66a3031737f5cbd4a0bdefa53c0e6", "is_disabled": 0, "name": "4ef66a3031737f5cbd4a0bdefa53c0e6", "lon": -77.045096, "is_reserved": 0, "fusion_lon": 0.0, "lat": 38.899672, "rental_uris": {"android": "https://dc.lft.to/lastmile_qr_scan", "ios": "https://dc.lft.to/lastmile_qr_scan"}, "fusion_lat": 0.0}, {"type": "electric_bike", "bike_id": "b015fc6ffbd0a146bcab2f04943a4f1a", "is_disabled": 0, "name": "b015fc6ffbd0a146bcab2f04943a4f1a", "lon": -77.12743916666666, "is_reserved": 0, "fusion_lon": 0.0, "lat": 38.895689, "rental_uris": {"android": "https://dc.lft.to/lastmile_qr_scan", "ios": "https://dc.lft.to/lastmile_qr_scan"}, "fusion_lat": 0.0}, {"type": "electric_scooter", "bike_id": "d2b7ffacf7e4e65a5c06c0169ed8b8f9", "is_disabled": 0, "name": "d2b7ffacf7e4e65a5c06c0169ed8b8f9", "lon": -76.945816, "is_reserved": 0, "fusion_lon": 0.0, "lat": 38.899249833333336, "rental_uris": {"android": "https://dc.lft.to/lastmile_qr_scan", "ios": "https://dc.lft.to/lastmile_qr_scan"}, "fusion_lat": 0.0}, {"type": "electric_scooter", "bike_id": "5c67d3c75e0a8f641840a7fa578bfe2b", "is_disabled": 0, "name": "5c67d3c75e0a8f641840a7fa578bfe2b", "lon": -77.02387733333333, "is_reserved": 0, "fusion_lon": 0.0, "lat": 38.90680416666667, "rental_uris": {"android": "https://dc.lft.to/lastmile_qr_scan", "ios": "https://dc.lft.to/lastmile_qr_scan"}, "fusion_lat": 0.0}, {"type": "electric_scooter", "bike_id": "6d8dde8c8cbd7767f9dba8a177f718d0", "is_disabled": 0, "name": "6d8dde8c8cbd7767f9dba8a177f718d0", "lon": -77.0238355, "is_reserved": 0, "fusion_lon": 0.0, "lat": 38.891986833333334, "rental_uris": {"android": "https://dc.lft.to/lastmile_qr_scan", "ios": "https://dc.lft.to/lastmile_qr_scan"}, "fusion_lat": 0.0}, {"type": "electric_bike", "bike_id": "fbccb1ccc2bf2ab2efd348e38c86f955", "is_disabled": 0, "name": "fbccb1ccc2bf2ab2efd348e38c86f955", "lon": -77.03877516666667, "is_reserved": 0, "fusion_lon": 0.0, "lat": 39.026221666666665, "rental_uris": {"android": "https://dc.lft.to/lastmile_qr_scan", "ios": "https://dc.lft.to/lastmile_qr_scan"}, "fusion_lat": 0.0}, {"type": "electric_scooter", "bike_id": "feff4a530f4f8ed396f021fa9a496c5c", "is_disabled": 0, "name": "feff4a530f4f8ed396f021fa9a496c5c", "lon": -77.00443783333333, "is_reserved": 0, "fusion_lon": 0.0, "lat": 38.91195316666666, "rental_uris": {"android": "https://dc.lft.to/lastmile_qr_scan", "ios": "https://dc.lft.to/lastmile_qr_scan"}, "fusion_lat": 0.0}, {"type": "electric_scooter", "bike_id": "38f11498169c40173ff8f227b6398f40", "is_disabled": 0, "name": "38f11498169c40173ff8f227b6398f40", "lon": -77.01164233333333, "is_reserved": 0, "fusion_lon": 0.0, "lat": 38.89662116666667, "rental_uris": {"android": "https://dc.lft.to/lastmile_qr_scan", "ios": "https://dc.lft.to/lastmile_qr_scan"}, "fusion_lat": 0.0}, {"type": "electric_scooter", "bike_id": "fc4f30eec20409e98300a0f99df45807", "is_disabled": 0, "name": "fc4f30eec20409e98300a0f99df45807", "lon": -77.0272525, "is_reserved": 0, "fusion_lon": 0.0, "lat": 38.92229783333333, "rental_uris": {"android": "https://dc.lft.to/lastmile_qr_scan", "ios": "https://dc.lft.to/lastmile_qr_scan"}, "fusion_lat": 0.0}, {"type": "electric_scooter", "bike_id": "f53987bcdc5a826eca0e171475091dab", "is_disabled": 0, "name": "f53987bcdc5a826eca0e171475091dab", "lon": -77.0465, "is_reserved": 0, "fusion_lon": 0.0, "lat": 38.897387333333334, "rental_uris": {"android": "https://dc.lft.to/lastmile_qr_scan", "ios": "https://dc.lft.to/lastmile_qr_scan"}, "fusion_lat": 0.0}, {"type": "electric_bike", "bike_id": "1ee4963d171426041cb8f0e7fc06314b", "is_disabled": 0, "name": "1ee4963d171426041cb8f0e7fc06314b", "lon": -76.97918516666667, "is_reserved": 0, "fusion_lon": 0.0, "lat": 38.958544833333335, "rental_uris": {"android": "https://dc.lft.to/lastmile_qr_scan", "ios": "https://dc.lft.to/lastmile_qr_scan"}, "fusion_lat": 0.0}, {"type": "electric_scooter", "bike_id": "8ff56184f98f28d0ca5b478da0e3fd12", "is_disabled": 0, "name": "8ff56184f98f28d0ca5b478da0e3fd12", "lon": -77.02784566666666, "is_reserved": 0, "fusion_lon": 0.0, "lat": 38.961934666666664, "rental_uris": {"android": "https://dc.lft.to/lastmile_qr_scan", "ios": "https://dc.lft.to/lastmile_qr_scan"}, "fusion_lat": 0.0}, {"type": "electric_scooter", "bike_id": "ae003b8c72d29f87d7dbaf6dbce13c79", "is_disabled": 0, "name": "ae003b8c72d29f87d7dbaf6dbce13c79", "lon": -77.0320365, "is_reserved": 0, "fusion_lon": 0.0, "lat": 38.9102345, "rental_uris": {"android": "https://dc.lft.to/lastmile_qr_scan", "ios": "https://dc.lft.to/lastmile_qr_scan"}, "fusion_lat": 0.0}, {"type": "electric_scooter", "bike_id": "1134d8c372928f401cdddd8b2c496b63", "is_disabled": 0, "name": "1134d8c372928f401cdddd8b2c496b63", "lon": -76.93633083333333, "is_reserved": 0, "fusion_lon": 0.0, "lat": 38.88350766666667, "rental_uris": {"android": "https://dc.lft.to/lastmile_qr_scan", "ios": "https://dc.lft.to/lastmile_qr_scan"}, "fusion_lat": 0.0}, {"type": "electric_scooter", "bike_id": "c72c0ef3d7f1f88cf52f9b47b95669ec", "is_disabled": 0, "name": "c72c0ef3d7f1f88cf52f9b47b95669ec", "lon": -76.96558716666667, "is_reserved": 0, "fusion_lon": 0.0, "lat": 38.9185575, "rental_uris": {"android": "https://dc.lft.to/lastmile_qr_scan", "ios": "https://dc.lft.to/lastmile_qr_scan"}, "fusion_lat": 0.0}, {"type": "electric_scooter", "bike_id": "7f851130720766b58e176d1aebe5c28c", "is_disabled": 0, "name": "7f851130720766b58e176d1aebe5c28c", "lon": -77.00790633333334, "is_reserved": 0, "fusion_lon": 0.0, "lat": 38.876289, "rental_uris": {"android": "https://dc.lft.to/lastmile_qr_scan", "ios": "https://dc.lft.to/lastmile_qr_scan"}, "fusion_lat": 0.0}, {"type": "electric_bike", "bike_id": "c30bdedcbe07f0ad4d1b4c5727b3aff6", "is_disabled": 0, "name": "c30bdedcbe07f0ad4d1b4c5727b3aff6", "lon": -76.99387, "is_reserved": 0, "fusion_lon": 0.0, "lat": 38.99096483333334, "rental_uris": {"android": "https://dc.lft.to/lastmile_qr_scan", "ios": "https://dc.lft.to/lastmile_qr_scan"}, "fusion_lat": 0.0}, {"type": "electric_scooter", "bike_id": "9ef68b0dc7ac1e8acd1c8b7ea3857ec3", "is_disabled": 0, "name": "9ef68b0dc7ac1e8acd1c8b7ea3857ec3", "lon": -77.02691283333333, "is_reserved": 0, "fusion_lon": 0.0, "lat": 38.902430833333334, "rental_uris": {"android": "https://dc.lft.to/lastmile_qr_scan", "ios": "https://dc.lft.to/lastmile_qr_scan"}, "fusion_lat": 0.0}, {"type": "electric_scooter", "bike_id": "6c5240d672b1d734161ba13bd78ba6f2", "is_disabled": 0, "name": "6c5240d672b1d734161ba13bd78ba6f2", "lon": -76.997793, "is_reserved": 0, "fusion_lon": 0.0, "lat": 38.92276, "rental_uris": {"android": "https://dc.lft.to/lastmile_qr_scan", "ios": "https://dc.lft.to/lastmile_qr_scan"}, "fusion_lat": 0.0}, {"type": "electric_scooter", "bike_id": "b0503fbe91998d027d731e84be294884", "is_disabled": 0, "name": "b0503fbe91998d027d731e84be294884", "lon": -77.03874816666666, "is_reserved": 0, "fusion_lon": 0.0, "lat": 38.909844166666666, "rental_uris": {"android": "https://dc.lft.to/lastmile_qr_scan", "ios": "https://dc.lft.to/lastmile_qr_scan"}, "fusion_lat": 0.0}, {"type": "electric_scooter", "bike_id": "bdb57804d24f33c2de690a141f56e0cb", "is_disabled": 0, "name": "bdb57804d24f33c2de690a141f56e0cb", "lon": -77.014543, "is_reserved": 0, "fusion_lon": 0.0, "lat": 38.874270333333335, "rental_uris": {"android": "https://dc.lft.to/lastmile_qr_scan", "ios": "https://dc.lft.to/lastmile_qr_scan"}, "fusion_lat": 0.0},