{"data": {"bikes": [{"is_disabled": 0, "fusion_lon": 0.0, "fusion_lat": 0.0, "lat": 38.90123966666667, "type": "electric_scooter", "lon": -77.02482483333333, "bike_id": "eed3022cb64dd6b345dbd320125e47b4", "rental_uris": {"android": "https://dc.lft.to/lastmile_qr_scan", "ios": "https://dc.lft.to/lastmile_qr_scan"}, "name": "eed3022cb64dd6b345dbd320125e47b4", "is_reserved": 0}, {"is_disabled": 0, "fusion_lon": 0.0, "fusion_lat": 0.0, "lat": 38.91553066666667, "type": "electric_scooter", "lon": -77.01234116666667, "bike_id": "1ba2156b3c026ebaf57744032cf50606", "rental_uris": {"android": "https://dc.lft.to/lastmile_qr_scan", "ios": "https://dc.lft.to/lastmile_qr_scan"}, "name": "1ba2156b3c026ebaf57744032cf50606", "is_reserved": 0}, {"is_disabled": 0, "fusion_lon": 0.0, "fusion_lat": 0.0, "lat": 38.95948516666667, "type": "electric_scooter", "lon": -77.0722965, "bike_id": "145365ef20c32e2aa554db1bd30f1327", "rental_uris": {"android": "https://dc.lft.to/lastmile_qr_scan", "ios": "https://dc.lft.to/lastmile_qr_scan"}, "name": "145365ef20c32e2aa554db1bd30f1327", "is_reserved": 0}, {"is_disabled": 0, "fusion_lon": 0.0, "fusion_lat": 0.0, "lat": 38.8896585, "type": "electric_scooter", "lon": -76.92737216666667, "bike_id": "1bdc38779e5d9f5939f416a081ccf960", "rental_uris": {"android": "https://dc.lft.to/lastmile_qr_scan", "ios": "https://dc.lft.to/lastmile_qr_scan"}, "name": "1bdc38779e5d9f5939f416a081ccf960", "is_reserved": 0}, {"is_disabled": 0, "fusion_lon": 0.0, "fusion_lat": 0.0, "lat": 38.88089133333333, "type": "electric_scooter", "lon": -77.02589616666667, "bike_id": "d01ee707247fa8c8821700eece764d45", "rental_uris": {"android": "https://dc.lft.to/lastmile_qr_scan", "ios": "https://dc.lft.to/lastmile_qr_scan"}, "name": "d01ee707247fa8c8821700eece764d45", "is_reserved": 0}, {"is_disabled": 0, "fusion_lon": 0.0, "fusion_lat": 0.0, "lat": 38.84514516666667, "type": "electric_scooter", "lon": -76.9878605, "bike_id": "4e3a9c17e7bc0cc8b864b2a6a7216a47", "rental_uris": {"android": "https://dc.lft.to/lastmile_qr_scan", "ios": "https://dc.lft.to/lastmile_qr_scan"}, "name": "4e3a9c17e7bc0cc8b864b2a6a7216a47", "is_reserved": 0}, {"is_disabled": 0, "fusion_lon": 0.0, "fusion_lat": 0.0, "lat": 38.90061933333333, "type": "electric_scooter", "lon": -77.01321866666666, "bike_id": "f479ce9a11986a7f4a8071331a7379b0", "rental_uris": {"android": "https://dc.lft.to/lastmile_qr_scan", "ios": "https://dc.lft.to/lastmile_qr_scan"}, "name": "f479ce9a11986a7f4a8071331a7379b0", "is_reserved": 0}, {"is_disabled": 0, "fusion_lon": 0.0, "fusion_lat": 0.0, "lat": 38.930930833333335, "type": "electric_scooter", "lon": -77.024759, "bike_id": "f11763677113751299b51269d7576de3", "rental_uris": {"android": "https://dc.lft.to/lastmile_qr_scan", "ios": "https://dc.lft.to/lastmile_qr_scan"}, "name": "f11763677113751299b51269d7576de3", "is_reserved": 0}, {"is_disabled": 0, "fusion_lon": 0.0, "fusion_lat": 0.0, "lat": 38.887241833333334, "type": "electric_scooter", "lon": -77.022043, "bike_id": "0f562c1fdfae2585edbecf7951f43f2a", "rental_uris": {"android": "https://dc.lft.to/lastmile_qr_scan", "ios": "https://dc.lft.to/lastmile_qr_scan"}, "name": "0f562c1fdfae2585edbecf7951f43f2a", "is_reserved": 0}, {"is_disabled": 0, "fusion_lon": 0.0, "fusion_lat": 0.0, "lat": 38.871395, "type": "electric_scooter", "lon": -77.00750983333333, "bike_id": "5c927885cff4b10c38351c72ef8302ee", "rental_uris": {"android": "https://dc.lft.to/lastmile_qr_scan", "ios": "https://dc.lft.to/lastmile_qr_scan"}, "name": "5c927885cff4b10c38351c72ef8302ee", "is_reserved": 0}, {"is_disabled": 0, "fusion_lon": 0.0, "fusion_lat": 0.0, "lat": 38.943039666666664, "type": "electric_scooter", "lon": -77.02761183333334, "bike_id": "a1e126c5d16e93e9fd4a987edc0999fa", "rental_uris": {"android": "https://dc.lft.to/lastmile_qr_scan", "ios": "https://dc.lft.to/lastmile_qr_scan"}, "name": "a1e126c5d16e93e9fd4a987edc0999fa", "is_reserved": 0}, {"is_disabled": 0, "fusion_lon": 0.0, "fusion_lat": 0.0, "lat": 38.9207085, "type": "electric_scooter", "lon": -77.04381416666666, "bike_id": "7823491a1f9314e19bf55632500f3379", "rental_uris": {"android": "https://dc.lft.to/lastmile_qr_scan", "ios": "https://dc.lft.to/lastmile_qr_scan"}, "name": "7823491a1f9314e19bf55632500f3379", "is_reserved": 0}, {"is_disabled": 0, "fusion_lon": 0.0, "fusion_lat": 0.0, "lat": 38.921338666666664, "type": "electric_scooter", "lon": -77.0351505, "bike_id": "f7c5d6de4a85df169b3232c84d668b25", "rental_uris": {"android": "https://dc.lft.to/lastmile_qr_scan", "ios": "https://dc.lft.to/lastmile_qr_scan"}, "name": "f7c5d6de4a85df169b3232c84d668b25", "is_reserved": 0}, {"is_disabled": 0, "fusion_lon": 0.0, "fusion_lat": 0.0, "lat": 38.912856833333336, "type": "electric_scooter", "lon": -77.04531733333333, "bike_id": "716a5380d894c3507d72631312b6cbf5", "rental_uris": {"android": "https://dc.lft.to/lastmile_qr_scan", "ios": "https://dc.lft.to/lastmile_qr_scan"}, "name": "716a5380d894c3507d72631312b6cbf5", "is_reserved": 0}, {"is_disabled": 0, "fusion_lon": 0.0, "fusion_lat": 0.0, "lat": 38.9233275, "type": "electric_scooter", "lon": -77.041876, "bike_id": "cc182f50a850a1e182798f4ae7ca7adc", "rental_uris": {"android": "https://dc.lft.to/lastmile_qr_scan", "ios": "https://dc.lft.to/lastmile_qr_scan"}, "name": "cc182f50a850a1e182798f4ae7ca7adc", "is_reserved": 0}, {"is_disabled": 0, "fusion_lon": 0.0, "fusion_lat": 0.0, "lat": 38.918065166666665, "type": "electric_scooter", "lon": -77.03175083333333, "bike_id": "f5a2102e8e51a0dfdf5f28b36042daa5", "rental_uris": {"android": "https://dc.lft.to/lastmile_qr_scan", "ios": "https://dc.lft.to/lastmile_qr_scan"}, "name": "f5a2102e8e51a0dfdf5f28b36042daa5", "is_reserved": 0}, {"is_disabled": 0, "fusion_lon": 0.0, "fusion_lat": 0.0, "lat": 38.91928883333333, "type": "electric_bike", "lon": -76.9750485, "bike_id": "0ccfd678c3952246762be4ff1bd43951", "rental_uris": {"android": "https://dc.lft.to/lastmile_qr_scan", "ios": "https://dc.lft.to/lastmile_qr_scan"}, "name": "0ccfd678c3952246762be4ff1bd43951", "is_reserved": 0}, {"is_disabled": 0, "fusion_lon": 0.0, "fusion_lat": 0.0, "lat": 38.91899133333333, "type": "electric_scooter", "lon": -77.07114366666667, "bike_id": "ff7aef7b14b1b89b315ce03c8ad95085", "rental_uris": {"android": "https://dc.lft.to/lastmile_qr_scan", "ios": "https://dc.lft.to/lastmile_qr_scan"}, "name": "ff7aef7b14b1b89b315ce03c8ad95085", "is_reserved": 0}, {"is_disabled": 0, "fusion_lon": 0.0, "fusion_lat": 0.0, "lat": 38.8695825, "type": "electric_scooter", "lon": -76.960334, "bike_id": "168d6314170e30d39ce4ee23e452848a", "rental_uris": {"android": "https://dc.lft.to/lastmile_qr_scan", "ios": "https://dc.lft.to/lastmile_qr_scan"}, "name": "168d6314170e30d39ce4ee23e452848a", "is_reserved": 0}, {"is_disabled": 0, "fusion_lon": 0.0, "fusion_lat": 0.0, "lat": 38.934365166666666, "type": "electric_scooter", "lon": -77.0725055, "bike_id": "2d15a001b3e92ddca4dcb06ca4d35ee3", "rental_uris": {"android": "https://dc.lft.to/lastmile_qr_scan", "ios": "https://dc.lft.to/lastmile_qr_scan"}, "name": "2d15a001b3e92ddca4dcb06ca4d35ee3", "is_reserved": 0}, {"is_disabled": 0, "fusion_lon": 0.0, "fusion_lat": 0.0, "lat": 38.928251, "type": "electric_scooter", "lon": -77.05444816666666, "bike_id": "abb96247091fe2b932e612e39ded24da", "rental_uris": {"android": "https://dc.lft.to/lastmile_qr_scan", "ios": "https://dc.lft.to/lastmile_qr_scan"}, "name": "abb96247091fe2b932e612e39ded24da", "is_reserved": 0}, {"is_disabled": 0, "fusion_lon": 0.0, "fusion_lat": 0.0, "lat": 38.918273, "type": "electric_scooter", "lon": -77.02715633333334, "bike_id": "147d57876c03d4d05796ddef8f88eea8", "rental_uris": {"android": "https://dc.lft.to/lastmile_qr_scan", "ios": "https://dc.lft.to/lastmile_qr_scan"}, "name": "147d57876c03d4d05796ddef8f88eea8", "is_reserved": 0}, {"is_disabled": 0, "fusion_lon": 0.0, "fusion_lat": 0.0, "lat": 38.896698666666666, "type": "electric_scooter", "lon": -76.982453, "bike_id": "bc25305e1f637895d36e34d6a004c9ae", "rental_uris": {"android": "https://dc.lft.to/lastmile_qr_scan", "ios": "https://dc.lft.to/lastmile_qr_scan"}, "name": "bc25305e1f637895d36e34d6a004c9ae", "is_reserved": 0}, {"is_disabled": 0, "fusion_lon": 0.0, "fusion_lat": 0.0, "lat": 38.8706585, "type": "electric_bike", "lon": -77.110577, "bike_id": "f59585ae9e3ae0fac8a8b87e5f3e097c", "rental_uris": {"android": "https://dc.lft.to/lastmile_qr_scan", "ios": "https://dc.lft.to/lastmile_qr_scan"}, "name": "f59585ae9e3ae0fac8a8b87e5f3e097c", "is_reserved": 0}, {"is_disabled": 0, "fusion_lon": 0.0, "fusion_lat": 0.0, "lat": 38.897483333333334, "type": "electric_scooter", "lon": -77.04818383333334, "bike_id": "1ad789b7e54b5bf5fd3e8a6bb18b85f6", "rental_uris": {"android": "https://dc.lft.to/lastmile_qr_scan", "ios": "https://dc.lft.to/lastmile_qr_scan"}, "name": "1ad789b7e54b5bf5fd3e8a6bb18b85f6", "is_reserved": 0}, {"is_disabled": 0, "fusion_lon": 0.0, "fusion_lat": 0.0, "lat": 38.93669216666667, "type": "electric_bike", "lon": -76.9520315, "bike_id": "aac8ca42c2139d04f360f4228383d02a", "rental_uris": {"android": "https://dc.lft.to/lastmile_qr_scan", "ios": "https://dc.lft.to/lastmile_qr_scan"}, "name": "aac8ca42c2139d04f360f4228383d02a", "is_reserved": 0}, {"is_disabled": 0, "fusion_lon": 0.0, "fusion_lat": 0.0, "lat": 38.9094255, "type": "electric_scooter", "lon": -77.04726833333334, "bike_id": "1344aec9b6ccf424877df15c9b95758b", "rental_uris": {"android": "https://dc.lft.to/lastmile_qr_scan", "ios": "https://dc.lft.to/lastmile_qr_scan"}, "name": "1344aec9b6ccf424877df15c9b95758b", "is_reserved": 0}, {"is_disabled": 0, "fusion_lon": 0.0, "fusion_lat": 0.0, "lat": 38.953243, "type": "electric_scooter", "lon": -77.06849333333334, "bike_id": "c4dc2f94076b09447c01f24aa8262765", "rental_uris": {"android": "https://dc.lft.to/lastmile_qr_scan", "ios": "https://dc.lft.to/lastmile_qr_scan"}, "name": "c4dc2f94076b09447c01f24aa8262765", "is_reserved": 0}, {"is_disabled": 0, "fusion_lon": 0.0, "fusion_lat": 0.0, "lat": 38.910379666666664, "type": "electric_scooter", "lon": -77.04264466666666, "bike_id": "ac4167cadcfbdaf597aa5b7414f1ab0e", "rental_uris": {"android": "https://dc.lft.to/lastmile_qr_scan", "ios": "https://dc.lft.to/lastmile_qr_scan"}, "name": "ac4167cadcfbdaf597aa5b7414f1ab0e", "is_reserved": 0}, {"is_disabled": 0, "fusion_lon": 0.0, "fusion_lat": 0.0, "lat": 38.92580066666667, "type": "electric_scooter", "lon": -77.0401895, "bike_id": "008ce33879118ef02919b9e175628d39", "rental_uris": {"android": "https://dc.lft.to/lastmile_qr_scan", "ios": "https://dc.lft.to/lastmile_qr_scan"}, "name": "008ce33879118ef02919b9e175628d39", "is_reserved": 0}, {"is_disabled": 0, "fusion_lon": 0.0, "fusion_lat": 0.0, "lat": 38.90537883333333, "type": "electric_scooter", "lon": -77.0570845, "bike_id": "9d3196cf78de43aa76218e29b57a8bbc", "rental_uris": {"android": "https://dc.lft.to/lastmile_qr_scan", "ios": "https://dc.lft.to/lastmile_qr_scan"}, "name": "9d3196cf78de43aa76218e29b57a8bbc", "is_reserved": 0}, {"is_disabled": 0, "fusion_lon": 0.0, "fusion_lat": 0.0, "lat": 39.03883616666667, "type": "electric_bike", "lon": -77.10910316666667, "bike_id": "241cdd8fac434c66e3e04e96e83ff20f", "rental_uris": {"android": "https://dc.lft.to/lastmile_qr_scan", "ios": "https://dc.lft.to/lastmile_qr_scan"}, "name": "241cdd8fac434c66e3e04e96e83ff20f", "is_reserved": 0}, {"is_disabled": 0, "fusion_lon": 0.0, "fusion_lat": 0.0, "lat": 38.885771166666665, "type": "electric_scooter", "lon": -76.9190855, "bike_id": "6fbf9d7c29c594f559cb9a661b468eb5", "rental_uris": {"android": "https://dc.lft.to/lastmile_qr_scan", "ios": "https://dc.lft.to/lastmile_qr_scan"}, "name": "6fbf9d7c29c594f559cb9a661b468eb5", "is_reserved": 0}, {"is_disabled": 0, "fusion_lon": 0.0, "fusion_lat": 0.0, "lat": 38.914803166666665, "type": "electric_scooter", "lon": -77.0119535, "bike_id": "02c80eddaca65ef72bbcbe2829ade146", "rental_uris": {"android": "https://dc.lft.to/lastmile_qr_scan", "ios": "https://dc.lft.to/lastmile_qr_scan"}, "name": "02c80eddaca65ef72bbcbe2829ade146", "is_reserved": 0}, {"is_disabled": 0, "fusion_lon": 0.0, "fusion_lat": 0.0, "lat": 38.91451983333333, "type": "electric_scooter", "lon": -77.03204833333334, "bike_id": "d6644ae1cf680b5cd6ca4d12d4c5380e", "rental_uris": {"android": "https://dc.lft.to/lastmile_qr_scan", "ios": "https://dc.lft.to/lastmile_qr_scan"}, "name": "d6644ae1cf680b5cd6ca4d12d4c5380e", "is_reserved": 0}, {"is_disabled": 0, "fusion_lon": 0.0, "fusion_lat": 0.0, "lat": 38.8972825, "type": "electric_scooter", "lon": -77.02168416666666, "bike_id": "6bf39d9f5894b113efaa51bff1dea52f", "rental_uris": {"android": "https://dc.lft.to/lastmile_qr_scan", "ios": "https://dc.lft.to/lastmile_qr_scan"}, "name": "6bf39d9f5894b113efaa51bff1dea52f", "is_reserved": 0}, {"is_disabled": 0, "fusion_lon": 0.0, "fusion_lat": 0.0, "lat": 38.917002833333335, "type": "electric_scooter", "lon": -77.00114266666667, "bike_id": "411f054c34e8780fc3567010b0dcce41", "rental_uris": {"android": "https://dc.lft.to/lastmile_qr_scan", "ios": "https://dc.lft.to/lastmile_qr_scan"}, "name": "411f054c34e8780fc3567010b0dcce41", "is_reserved": 0}, {"is_disabled": 0, "fusion_lon": 0.0, "fusion_lat": 0.0, "lat": 38.98499866666667, "type": "electric_bike", "lon": -76.98203883333333, "bike_id": "3869fe67e198a5d624bd7773dee23185", "rental_uris": {"android": "https://dc.lft.to/lastmile_qr_scan", "ios": "https://dc.lft.to/lastmile_qr_scan"}, "name": "3869fe67e198a5d624bd7773dee23185", "is_reserved": 0}, {"is_disabled": 0, "fusion_lon": 0.0, "fusion_lat": 0.0, "lat": 38.918891, "type": "electric_scooter", "lon": -77.04475183333334, "bike_id": "b0bddbf3449a42195eeb22c85bf15615", "rental_uris": {"android": "https://dc.lft.to/lastmile_qr_scan", "ios": "https://dc.lft.to/lastmile_qr_scan"}, "name": "b0bddbf3449a42195eeb22c85bf15615", "is_reserved": 0}, {"is_disabled": 0, "fusion_lon": 0.0, "fusion_lat": 0.0, "lat": 38.8922605, "type": "electric_scooter", "lon": -77.04656633333333, "bike_id": "011d8c6e7eb5cdef1c0e8747d62f4b00", "rental_uris": {"android": "https://dc.lft.to/lastmile_qr_scan", "ios": "https://dc.lft.to/lastmile_qr_scan"}, "name": "011d8c6e7eb5cdef1c0e8747d62f4b00", "is_reserved": 0}, {"is_disabled": 0, "fusion_lon": 0.0, "fusion_lat": 0.0, "lat": 38.90477216666667, "type": "electric_scooter", "lon": -77.02522633333334, "bike_id": "7444a43a06f5c0e02a790d559de1724b", "rental_uris": {"android": "https://dc.lft.to/lastmile_qr_scan", "ios": "https://dc.lft.to/lastmile_qr_scan"}, "name": "7444a43a06f5c0e02a790d559de1724b", "is_reserved": 0}, {"is_disabled": 0, "fusion_lon": 0.0, "fusion_lat": 0.0, "lat": 38.87683233333333, "type": "electric_scooter", "lon": -77.00883616666667, "bike_id": "7ee8cd690e917de37ceb94b140c0313f", "rental_uris": {"android": "https://dc.lft.to/lastmile_qr_scan", "ios": "https://dc.lft.to/lastmile_qr_scan"}, "name": "7ee8cd690e917de37ceb94b140c0313f", "is_reserved": 0}, {"is_disabled": 0, "fusion_lon": 0.0, "fusion_lat": 0.0, "lat": 38.90481833333333, "type": "electric_scooter", "lon": -76.97329883333333, "bike_id": "d41cfa39d6c139e98ef598a84f1472dd", "rental_uris": {"android": "https://dc.lft.to/lastmile_qr_scan", "ios": "https://dc.lft.to/lastmile_qr_scan"}, "name": "d41cfa39d6c139e98ef598a84f1472dd", "is_reserved": 0}, {"is_disabled": 0, "fusion_lon": 0.0, "fusion_lat": 0.0, "lat": 38.916272666666664, "type": "electric_scooter", "lon": -77.03844583333333, "bike_id": "0ed70a15f233f9f4adee5e23636bc16a", "rental_uris": {"android": "https://dc.lft.to/lastmile_qr_scan", "ios": "https://dc.lft.to/lastmile_qr_scan"}, "name": "0ed70a15f233f9f4adee5e23636bc16a", "is_reserved": 0}, {"is_disabled": 0, "fusion_lon": 0.0, "fusion_lat": 0.0, "lat": 38.91824, "type": "electric_scooter", "lon": -77.0271095, "bike_id": "7a9ff5bbc1ae6fc48b3ffb4eb54f87a0", "rental_uris": {"android": "https://dc.lft.to/lastmile_qr_scan", "ios": "https://dc.lft.to/lastmile_qr_scan"}, "name": "7a9ff5bbc1ae6fc48b3ffb4eb54f87a0", "is_reserved": 0}, {"is_disabled": 0, "fusion_lon": 0.0, "fusion_lat": 0.0, "lat": 38.93974883333333, "type": "electric_scooter", "lon": -77.03019083333334, "bike_id": "ef9ddd13f9a2590b89220440b74fd7ef", "rental_uris": {"android": "https://dc.lft.to/lastmile_qr_scan", "ios": "https://dc.lft.to/lastmile_qr_scan"}, "name": "ef9ddd13f9a2590b89220440b74fd7ef", "is_reserved": 0}, {"is_disabled": 0, "fusion_lon": 0.0, "fusion_lat": 0.0, "lat": 38.897334, "type": "electric_scooter", "lon": -77.02692983333333, "bike_id": "65f004d793e1efa30e1ac5af823f2ceb", "rental_uris": {"android": "https://dc.lft.to/lastmile_qr_scan", "ios": "https://dc.lft.to/lastmile_qr_scan"}, "name": "65f004d793e1efa30e1ac5af823f2ceb", "is_reserved": 0}, {"is_disabled": 0, "fusion_lon": 0.0, "fusion_lat": 0.0, "lat": 38.930981833333334, "type": "electric_scooter", "lon": -77.03452516666667, "bike_id": "ddf70d6cdeaf530d95b07bb052f19217", "rental_uris": {"android": "https://dc.lft.to/lastmile_qr_scan", "ios": "https://dc.lft.to/lastmile_qr_scan"}, "name": "ddf70d6cdeaf530d95b07bb052f19217", "is_reserved": 0}, {"is_disabled": 0, "fusion_lon": 0.0, "fusion_lat": 0.0, "lat": 38.88372616666667, "type": "electric_scooter", "lon": -76.92376016666667, "bike_id": "9b8fed0d5456f4e98f6fe53696a02563", "rental_uris": {"android": "https://dc.lft.to/lastmile_qr_scan", "ios": "https://dc.lft.to/lastmile_qr_scan"}, "name": "9b8fed0d5456f4e98f6fe53696a02563", "is_reserved": 0}, {"is_disabled": 0, "fusion_lon": 0.0, "fusion_lat": 0.0, "lat": 38.907601166666666, "type": "electric_scooter", "lon": -77.07143016666667, "bike_id": "ff71857cbfc232dbbbe7a5752c0f6183", "rental_uris": {"android": "https://dc.lft.to/lastmile_qr_scan", "ios": "https://dc.lft.to/lastmile_qr_scan"}, "name": "ff71857cbfc232dbbbe7a5752c0f6183", "is_reserved": 0}, {"is_disabled": 0, "fusion_lon": 0.0, "fusion_lat": 0.0, "lat": 38.91037766666667, "type": "electric_scooter", "lon": -77.046617, "bike_id": "d843373f252d2d1a9b43c57397983a4b", "rental_uris": {"android": "https://dc.lft.to/lastmile_qr_scan", "ios": "https://dc.lft.to/lastmile_qr_scan"}, "name": "d843373f252d2d1a9b43c57397983a4b", "is_reserved": 0}, {"is_disabled": 0, "fusion_lon": 0.0, "fusion_lat": 0.0, "lat": 38.915862, "type": "electric_scooter", "lon": -77.01640983333333, "bike_id": "ecb277a7c1ed6e09a0b32037b8b0c711", "rental_uris": {"android": "https://dc.lft.to/lastmile_qr_scan", "ios": "https://dc.lft.to/lastmile_qr_scan"}, "name": "ecb277a7c1ed6e09a0b32037b8b0c711", "is_reserved": 0}, {"is_disabled": 0, "fusion_lon": 0.0, "fusion_lat": 0.0, "lat": 38.87982616666667, "type": "electric_bike", "lon": -76.916006, "bike_id": "ce5c21a47f6bdea7654493ed041d4f20", "rental_uris": {"android": "https://dc.lft.to/lastmile_qr_scan", "ios": "https://dc.lft.to/lastmile_qr_scan"}, "name": "ce5c21a47f6bdea7654493ed041d4f20", "is_reserved": 0}, {"is_disabled": 0, "fusion_lon": 0.0, "fusion_lat": 0.0, "lat": 38.91865033333333, "type": "electric_scooter", "lon": -77.0351585, "bike_id": "b1c8457c389e19647d8a4bf9f32cf853", "rental_uris": {"android": "https://dc.lft.to/lastmile_qr_scan", "ios": "https://dc.lft.to/lastmile_qr_scan"}, "name": "b1c8457c389e19647d8a4bf9f32cf853", "is_reserved": 0}, {"is_disabled": 0, "fusion_lon": 0.0, "fusion_lat": 0.0, "lat": 38.888159, "type": "electric_scooter", "lon": -77.0149185, "bike_id": "542aeda6acfb8ecb3d821015a3ddf2c6", "rental_uris": {"android": "https://dc.lft.to/lastmile_qr_scan", "ios": "https://dc.lft.to/lastmile_qr_scan"}, "name": "542aeda6acfb8ecb3d821015a3ddf2c6", "is_reserved": 0}, {"is_disabled": 0, "fusion_lon": 0.0, "fusion_lat": 0.0, "lat": 38.911142, "type": "electric_scooter", "lon": -76.99767766666666, "bike_id": "870b98d2dff4045f802422e1f11dde47", "rental_uris": {"android": "https://dc.lft.to/lastmile_qr_scan", "ios": "https://dc.lft.to/lastmile_qr_scan"}, "name": "870b98d2dff4045f802422e1f11dde47", "is_reserved": 0}, {"is_disabled": 0, "fusion_lon": 0.0, "fusion_lat": 0.0, "lat": 38.92103733333333, "type": "electric_scooter", "lon": -77.04373333333334, "bike_id": "1dc9007f795e0e547ce5509b5103b4c3", "rental_uris": {"android": "https://dc.lft.to/lastmile_qr_scan", "ios": "https://dc.lft.to/lastmile_qr_scan"}, "name": "1dc9007f795e0e547ce5509b5103b4c3", "is_reserved": 0}, {"is_disabled": 0, "fusion_lon": 0.0, "fusion_lat": 0.0, "lat": 38.973679, "type": "electric_scooter", "lon": -77.01851083333334, "bike_id": "53fc5e263440d221378447a9b6b41e78", "rental_uris": {"android": "https://dc.lft.to/lastmile_qr_scan", "ios": "https://dc.lft.to/lastmile_qr_scan"}, "name": "53fc5e263440d221378447a9b6b41e78", "is_reserved": 0}, {"is_disabled": 0, "fusion_lon": 0.0, "fusion_lat": 0.0, "lat": 38.96643783333333, "type": "electric_bike", "lon": -76.93020233333333, "bike_id": "19928e278934b9262f63e7f74ae35574", "rental_uris": {"android": "https://dc.lft.to/lastmile_qr_scan", "ios": "https://dc.lft.to/lastmile_qr_scan"}, "name": "19928e278934b9262f63e7f74ae35574", "is_reserved": 0}, {"is_disabled": 0, "fusion_lon": 0.0, "fusion_lat": 0.0, "lat": 38.9025725, "type": "electric_scooter", "lon": -77.03435216666666, "bike_id": "f7d00cd28e4baa1d56583349956c186e", "rental_uris": {"android": "https://dc.lft.to/lastmile_qr_scan", "ios": "https://dc.lft.to/lastmile_qr_scan"}, "name": "f7d00cd28e4baa1d56583349956c186e", "is_reserved": 0}, {"is_disabled": 0, "fusion_lon": 0.0, "fusion_lat": 0.0, "lat": 38.89734833333333, "type": "electric_scooter", "lon": -77.027137, "bike_id": "092dea88de1a3fd307de5ca5c099ad12", "rental_uris": {"android": "https://dc.lft.to/lastmile_qr_scan", "ios": "https://dc.lft.to/lastmile_qr_scan"}, "name": "092dea88de1a3fd307de5ca5c099ad12", "is_reserved": 0}, {"is_disabled": 0, "fusion_lon": 0.0, "fusion_lat": 0.0, "lat": 38.906256666666664, "type": "electric_scooter", "lon": -77.051311, "bike_id": "d8f35d6070a95d6dba11d2e883f82cb3", "rental_uris": {"android": "https://dc.lft.to/lastmile_qr_scan", "ios": "https://dc.lft.to/lastmile_qr_scan"}, "name": "d8f35d6070a95d6dba11d2e883f82cb3", "is_reserved": 0}, {"is_disabled": 0, "fusion_lon": 0.0, "fusion_lat": 0.0, "lat": 38.911495333333335, "type": "electric_scooter", "lon": -77.08788083333333, "bike_id": "5dca2bae5210ef33bdd4a8254955a0e6", "rental_uris": {"android": "https://dc.lft.to/lastmile_qr_scan", "ios": "https://dc.lft.to/lastmile_qr_scan"}, "name": "5dca2bae5210ef33bdd4a8254955a0e6", "is_reserved": 0}, {"is_disabled": 0, "fusion_lon": 0.0, "fusion_lat": 0.0, "lat": 38.927619, "type": "electric_scooter", "lon": -77.0291865, "bike_id": "57ff83cbd541e48a7a20d43786cbd814", "rental_uris": {"android": "https://dc.lft.to/lastmile_qr_scan", "ios": "https://dc.lft.to/lastmile_qr_scan"}, "name": "57ff83cbd541e48a7a20d43786cbd814", "is_reserved": 0}, {"is_disabled": 0, "fusion_lon": 0.0, "fusion_lat": 0.0, "lat": 38.91415716666667, "type": "electric_scooter", "lon": -77.02212116666666, "bike_id": "1e2a791dc5ea090a7bb106375cba60fb", "rental_uris": {"android": "https://dc.lft.to/lastmile_qr_scan", "ios": "https://dc.lft.to/lastmile_qr_scan"}, "name": "1e2a791dc5ea090a7bb106375cba60fb", "is_reserved": 0}, {"is_disabled": 0, "fusion_lon": 0.0, "fusion_lat": 0.0, "lat": 38.9383015, "type": "electric_scooter", "lon": -76.99046166666666, "bike_id": "cadab534c852dd342c053864b31c1d9e", "rental_uris": {"android": "https://dc.lft.to/lastmile_qr_scan", "ios": "https://dc.lft.to/lastmile_qr_scan"}, "name": "cadab534c852dd342c053864b31c1d9e", "is_reserved": 0}, {"is_disabled": 0, "fusion_lon": 0.0, "fusion_lat": 0.0, "lat": 38.933506, "type": "electric_scooter", "lon": -77.03371583333333, "bike_id": "7cc40c02a2c2f2898bffd80f789238b3", "rental_uris": {"android": "https://dc.lft.to/lastmile_qr_scan", "ios": "https://dc.lft.to/lastmile_qr_scan"}, "name": "7cc40c02a2c2f2898bffd80f789238b3", "is_reserved": 0}, {"is_disabled": 0, "fusion_lon": 0.0, "fusion_lat": 0.0, "lat": 38.87785133333333, "type": "electric_bike", "lon": -76.9803165, "bike_id": "0c8570d2224bfcbca8fd2b2cf53eacca", "rental_uris": {"android": "https://dc.lft.to/lastmile_qr_scan", "ios": "https://dc.lft.to/lastmile_qr_scan"}, "name": "0c8570d2224bfcbca8fd2b2cf53eacca", "is_reserved": 0}, {"is_disabled": 0, "fusion_lon": 0.0, "fusion_lat": 0.0, "lat": 38.9038005, "type": "electric_scooter", "lon": -77.0435735, "bike_id": "ec60dc53ffd592332a95d41f68836b6f", "rental_uris": {"android": "https://dc.lft.to/lastmile_qr_scan", "ios": "https://dc.lft.to/lastmile_qr_scan"}, "name": "ec60dc53ffd592332a95d41f68836b6f", "is_reserved": 0}, {"is_disabled": 0, "fusion_lon": 0.0, "fusion_lat": 0.0, "lat": 38.884821333333335, "type": "electric_scooter", "lon": -77.02216733333333, "bike_id": "6a73cc425062ec0bd2d972c1428f0bfe", "rental_uris": {"android": "https://dc.lft.to/lastmile_qr_scan", "ios": "https://dc.lft.to/lastmile_qr_scan"}, "name": "6a73cc425062ec0bd2d972c1428f0bfe", "is_reserved": 0}, {"is_disabled": 0, "fusion_lon": 0.0, "fusion_lat": 0.0, "lat": 38.930085166666665, "type": "electric_scooter", "lon": -77.078187, "bike_id": "fc58447cccfa057c9abfe57d343742e2", "rental_uris": {"android": "https://dc.lft.to/lastmile_qr_scan", "ios": "https://dc.lft.to/lastmile_qr_scan"}, "name": "fc58447cccfa057c9abfe57d343742e2", "is_reserved": 0}, {"is_disabled": 0, "fusion_lon": 0.0, "fusion_lat": 0.0, "lat": 38.89231383333333, "type": "electric_scooter", "lon": -77.04997416666667, "bike_id": "ca105c5ce497a04a1d0041b730a28306", "rental_uris": {"android": "https://dc.lft.to/lastmile_qr_scan", "ios": "https://dc.lft.to/lastmile_qr_scan"}, "name": "ca105c5ce497a04a1d0041b730a28306", "is_reserved": 0}, {"is_disabled": 0, "fusion_lon": 0.0, "fusion_lat": 0.0, "lat": 38.93008183333333, "type": "electric_scooter", "lon": -77.032775, "bike_id": "4deb55e3fd4db3703fe0224a2a6bc7e2", "rental_uris": {"android": "https://dc.lft.to/lastmile_qr_scan", "ios": "https://dc.lft.to/lastmile_qr_scan"}, "name": "4deb55e3fd4db3703fe0224a2a6bc7e2", "is_reserved": 0}, {"is_disabled": 0, "fusion_lon": 0.0, "fusion_lat": 0.0, "lat": 38.9208495, "type": "electric_scooter", "lon": -77.0253235, "bike_id": "46769f34de7ec0f534ca03e9555448cb", "rental_uris": {"android": "https://dc.lft.to/lastmile_qr_scan", "ios": "https://dc.lft.to/lastmile_qr_scan"}, "name": "46769f34de7ec0f534ca03e9555448cb", "is_reserved": 0}, {"is_disabled": 0, "fusion_lon": 0.0, "fusion_lat": 0.0, "lat": 38.8840735, "type": "electric_scooter", "lon": -77.02400833333333, "bike_id": "4a5cd4d31ad7cf3c4de1eb9ab83ab3bc", "rental_uris": {"android": "https://dc.lft.to/lastmile_qr_scan", "ios": "https://dc.lft.to/lastmile_qr_scan"}, "name": "4a5cd4d31ad7cf3c4de1eb9ab83ab3bc", "is_reserved": 0}, {"is_disabled": 0, "fusion_lon": 0.0, "fusion_lat": 0.0, "lat": 38.906747333333335, "type": "electric_scooter", "lon": -77.02392016666667, "bike_id": "c43bdc879e25c6cb59113bc75d501eae", "rental_uris": {"android": "https://dc.lft.to/lastmile_qr_scan", "ios": "https://dc.lft.to/lastmile_qr_scan"}, "name": "c43bdc879e25c6cb59113bc75d501eae", "is_reserved": 0}, {"is_disabled": 0, "fusion_lon": 0.0, "fusion_lat": 0.0, "lat": 38.901377, "type": "electric_scooter", "lon": -77.03951966666666, "bike_id": "215b133b0142d2252de2c1def4eca5ca", "rental_uris": {"android": "https://dc.lft.to/lastmile_qr_scan", "ios": "https://dc.lft.to/lastmile_qr_scan"}, "name": "215b133b0142d2252de2c1def4eca5ca", "is_reserved": 0}, {"is_disabled": 0, "fusion_lon": 0.0, "fusion_lat": 0.0, "lat": 38.9308195, "type": "electric_scooter", "lon": -77.0339495, "bike_id": "4047bde20b61544ef11496ee15f69bdc", "rental_uris": {"android": "https://dc.lft.to/lastmile_qr_scan", "ios": "https://dc.lft.to/lastmile_qr_scan"}, "name": "4047bde20b61544ef11496ee15f69bdc", "is_reserved": 0}, {"is_disabled": 0, "fusion_lon": 0.0, "fusion_lat": 0.0, "lat": 38.907328666666665, "type": "electric_scooter", "lon": -77.0451825, "bike_id": "2a33a38039e58a74af1ed2b43c2f9312", "rental_uris": {"android": "https://dc.lft.to/lastmile_qr_scan", "ios": "https://dc.lft.to/lastmile_qr_scan"}, "name": "2a33a38039e58a74af1ed2b43c2f9312", "is_reserved": 0}, {"is_disabled": 0, "fusion_lon": 0.0, "fusion_lat": 0.0, "lat": 38.917326333333335, "type": "electric_scooter", "lon": -77.0230735, "bike_id": "6ced05d87d40690b246e9190fc84fde5", "rental_uris": {"android": "https://dc.lft.to/lastmile_qr_scan", "ios": "https://dc.lft.to/lastmile_qr_scan"}, "name": "6ced05d87d40690b246e9190fc84fde5", "is_reserved": 0}, {"is_disabled": 0, "fusion_lon": 0.0, "fusion_lat": 0.0, "lat": 38.91949783333333, "type": "electric_scooter", "lon": -77.013828, "bike_id": "b059d3e0c40be77b8a32433f37f22086", "rental_uris": {"android": "https://dc.lft.to/lastmile_qr_scan", "ios": "https://dc.lft.to/lastmile_qr_scan"}, "name": "b059d3e0c40be77b8a32433f37f22086", "is_reserved": 0}, {"is_disabled": 0, "fusion_lon": 0.0, "fusion_lat": 0.0, "lat": 38.92225116666667, "type": "electric_scooter", "lon": -77.03323683333333, "bike_id": "4dedfd5bfe357ebd5e74593fe8d5dbf5", "rental_uris": {"android": "https://dc.lft.to/lastmile_qr_scan", "ios": "https://dc.lft.to/lastmile_qr_scan"}, "name": "4dedfd5bfe357ebd5e74593fe8d5dbf5", "is_reserved": 0}, {"is_disabled": 0, "fusion_lon": 0.0, "fusion_lat": 0.0, "lat": 38.91923466666667, "type": "electric_scooter", "lon": -77.03193333333333, "bike_id": "ff4efaf29f606a26463a540c1c84c381", "rental_uris": {"android": "https://dc.lft.to/lastmile_qr_scan", "ios": "https://dc.lft.to/lastmile_qr_scan"}, "name": "ff4efaf29f606a26463a540c1c84c381", "is_reserved": 0}, {"is_disabled": 0, "fusion_lon": 0.0, "fusion_lat": 0.0, "lat": 38.90685366666666, "type": "electric_scooter", "lon": -77.03722083333334, "bike_id": "bcd4bfd7d3bd25ff30b86c07f95d399f", "rental_uris": {"android": "https://dc.lft.to/lastmile_qr_scan", "ios": "https://dc.lft.to/lastmile_qr_scan"}, "name": "bcd4bfd7d3bd25ff30b86c07f95d399f", "is_reserved": 0}, {"is_disabled": 0, "fusion_lon": 0.0, "fusion_lat": 0.0, "lat": 38.88740166666667, "type": "electric_scooter", "lon": -77.015328, "bike_id": "12148eab461739e21a8a034faead53ed", "rental_uris": {"android": "https://dc.lft.to/lastmile_qr_scan", "ios": "https://dc.lft.to/lastmile_qr_scan"}, "name": "12148eab461739e21a8a034faead53ed", "is_reserved": 0}, {"is_disabled": 0, "fusion_lon": 0.0, "fusion_lat": 0.0, "lat": 38.900313, "type": "electric_scooter", "lon": -77.00790983333333, "bike_id": "c9bb35fc3dc1d0775addc8a75b488573", "rental_uris": {"android": "https://dc.lft.to/lastmile_qr_scan", "ios": "https://dc.lft.to/lastmile_qr_scan"}, "name": "c9bb35fc3dc1d0775addc8a75b488573", "is_reserved": 0}, {"is_disabled": 0, "fusion_lon": 0.0, "fusion_lat": 0.0, "lat": 38.907265333333335, "type": "electric_scooter", "lon": -77.0450365, "bike_id": "100e8e1a4b98cc9a8e646b948890de63", "rental_uris": {"android": "https://dc.lft.to/lastmile_qr_scan", "ios": "https://dc.lft.to/lastmile_qr_scan"}, "name": "100e8e1a4b98cc9a8e646b948890de63", "is_reserved": 0}, {"is_disabled": 0, "fusion_lon": 0.0, "fusion_lat": 0.0, "lat": 38.802961, "type": "electric_bike", "lon": -77.0398755, "bike_id": "1b59c3bcedadbebfae6e8ba33789a1f3", "rental_uris": {"android": "https://dc.lft.to/lastmile_qr_scan", "ios": "https://dc.lft.to/lastmile_qr_scan"}, "name": "1b59c3bcedadbebfae6e8ba33789a1f3", "is_reserved": 0}, {"is_disabled": 0, "fusion_lon": 0.0, "fusion_lat": 0.0, "lat": 38.92846616666667, "type": "electric_scooter", "lon": -77.03598783333334, "bike_id": "06d2b77128796109c35542033aca964f", "rental_uris": {"android": "https://dc.lft.to/lastmile_qr_scan", "ios": "https://dc.lft.to/lastmile_qr_scan"}, "name": "06d2b77128796109c35542033aca964f", "is_reserved": 0}, {"is_disabled": 0, "fusion_lon": 0.0, "fusion_lat": 0.0, "lat": 38.91922983333333, "type": "electric_scooter", "lon": -77.03204616666666, "bike_id": "f6da34306886d8e80ea47f6304e4811b", "rental_uris": {"android": "https://dc.lft.to/lastmile_qr_scan", "ios": "https://dc.lft.to/lastmile_qr_scan"}, "name": "f6da34306886d8e80ea47f6304e4811b", "is_reserved": 0}, {"is_disabled": 0, "fusion_lon": 0.0, "fusion_lat": 0.0, "lat": 38.920340333333336, "type": "electric_scooter", "lon": -77.025879, "bike_id": "ef69b5bf221ebca03dab6d1d0ad0247d", "rental_uris": {"android": "https://dc.lft.to/lastmile_qr_scan", "ios": "https://dc.lft.to/lastmile_qr_scan"}, "name": "ef69b5bf221ebca03dab6d1d0ad0247d", "is_reserved": 0}, {"is_disabled": 0, "fusion_lon": 0.0, "fusion_lat": 0.0, "lat": 38.926051, "type": "electric_scooter", "lon": -77.02156666666667, "bike_id": "3aa30c56b7d9e5c232840fba3079377f", "rental_uris": {"android": "https://dc.lft.to/lastmile_qr_scan", "ios": "https://dc.lft.to/lastmile_qr_scan"}, "name": "3aa30c56b7d9e5c232840fba3079377f", "is_reserved": 0}, {"is_disabled": 0, "fusion_lon": 0.0, "fusion_lat": 0.0, "lat": 38.8591835, "type": "electric_scooter", "lon": -76.98781366666667, "bike_id": "7e3ad2395c9551b957bc040b5964051a", "rental_uris": {"android": "https://dc.lft.to/lastmile_qr_scan", "ios": "https://dc.lft.to/lastmile_qr_scan"}, "name": "7e3ad2395c9551b957bc040b5964051a", "is_reserved": 0}, {"is_disabled": 0, "fusion_lon": 0.0, "fusion_lat": 0.0, "lat": 38.915494833333334, "type": "electric_scooter", "lon": -77.0415815, "bike_id": "1bb52b1412f5a725119c5b100c816029", "rental_uris": {"android": "https://dc.lft.to/lastmile_qr_scan", "ios": "https://dc.lft.to/lastmile_qr_scan"}, "name": "1bb52b1412f5a725119c5b100c816029", "is_reserved": 0}, {"is_disabled": 0, "fusion_lon": 0.0, "fusion_lat": 0.0, "lat": 38.9168575, "type": "electric_scooter", "lon": -77.0232495, "bike_id": "cfb41d7e25ecedf7c61af8bf8068b68a", "rental_uris": {"android": "https://dc.lft.to/lastmile_qr_scan", "ios": "https://dc.lft.to/lastmile_qr_scan"}, "name": "cfb41d7e25ecedf7c61af8bf8068b68a", "is_reserved": 0}, {"is_disabled": 0, "fusion_lon": 0.0, "fusion_lat": 0.0, "lat": 38.92978633333333, "type": "electric_scooter", "lon": -77.0346735, "bike_id": "bce46285b48f6ca15fbc71a8a0ce6753", "rental_uris": {"android": "https://dc.lft.to/lastmile_qr_scan", "ios": "https://dc.lft.to/lastmile_qr_scan"}, "name": "bce46285b48f6ca15fbc71a8a0ce6753", "is_reserved": 0}, {"is_disabled": 0, "fusion_lon": 0.0, "fusion_lat": 0.0, "lat": 38.92810083333333, "type": "electric_scooter", "lon": -77.01409516666666, "bike_id": "40a51c621df7d8fda43172bcc189d364", "rental_uris": {"android": "https://dc.lft.to/lastmile_qr_scan", "ios": "https://dc.lft.to/lastmile_qr_scan"}, "name": "40a51c621df7d8fda43172bcc189d364", "is_reserved": 0}, {"is_disabled": 0, "fusion_lon": 0.0, "fusion_lat": 0.0, "lat": 38.91114683333333, "type": "electric_scooter", "lon": -77.0471985, "bike_id": "d7e2c50da62840b2a661fa59e28b8a5c", "rental_uris": {"android": "https://dc.lft.to/lastmile_qr_scan", "ios": "https://dc.lft.to/lastmile_qr_scan"}, "name": "d7e2c50da62840b2a661fa59e28b8a5c", "is_reserved": 0}, {"is_disabled": 0, "fusion_lon": 0.0, "fusion_lat": 0.0, "lat": 38.90633366666667, "type": "electric_scooter", "lon": -77.0345925, "bike_id": "12636aec5fc583993012710926f0e89f", "rental_uris": {"android": "https://dc.lft.to/lastmile_qr_scan", "ios": "https://dc.lft.to/lastmile_qr_scan"}, "name": "12636aec5fc583993012710926f0e89f", "is_reserved": 0}, {"is_disabled": 0, "fusion_lon": 0.0, "fusion_lat": 0.0, "lat": 38.852833333333336, "type": "electric_bike", "lon": -76.9815305, "bike_id": "1a891e61243c934cbea1fc4063b8da88", "rental_uris": {"android": "https://dc.lft.to/lastmile_qr_scan", "ios": "https://dc.lft.to/lastmile_qr_scan"}, "name": "1a891e61243c934cbea1fc4063b8da88", "is_reserved": 0}, {"is_disabled": 0, "fusion_lon": 0.0, "fusion_lat": 0.0, "lat": 38.928535833333335, "type": "electric_scooter", "lon": -76.997642, "bike_id": "4d1023726542bda73a9ab7dd724df8f1", "rental_uris": {"android": "https://dc.lft.to/lastmile_qr_scan", "ios": "https://dc.lft.to/lastmile_qr_scan"}, "name": "4d1023726542bda73a9ab7dd724df8f1", "is_reserved": 0}, {"is_disabled": 0, "fusion_lon": 0.0, "fusion_lat": 0.0, "lat": 38.975253, "type": "electric_bike", "lon": -77.00956266666667, "bike_id": "167772011f5705d5201b162a8008d3ff", "rental_uris": {"android": "https://dc.lft.to/lastmile_qr_scan", "ios": "https://dc.lft.to/lastmile_qr_scan"}, "name": "167772011f5705d5201b162a8008d3ff", "is_reserved": 0}, {"is_disabled": 0, "fusion_lon": 0.0, "fusion_lat": 0.0, "lat": 38.878905333333336, "type": "electric_scooter", "lon": -77.02314416666667, "bike_id": "b25d1ec64632664f864fc83d0929fa8f", "rental_uris": {"android": "https://dc.lft.to/lastmile_qr_scan", "ios": "https://dc.lft.to/lastmile_qr_scan"}, "name": "b25d1ec64632664f864fc83d0929fa8f", "is_reserved": 0}, {"is_disabled": 0, "fusion_lon": 0.0, "fusion_lat": 0.0, "lat": 38.9160845, "type": "electric_scooter", "lon": -77.04522916666667, "bike_id": "aa54118a85afccc6f0a0ff4211fe7687", "rental_uris": {"android": "https://dc.lft.to/lastmile_qr_scan", "ios": "https://dc.lft.to/lastmile_qr_scan"}, "name": "aa54118a85afccc6f0a0ff4211fe7687", "is_reserved": 0}, {"is_disabled": 0, "fusion_lon": 0.0, "fusion_lat": 0.0, "lat": 38.913379166666665, "type": "electric_scooter", "lon": -77.04171766666667, "bike_id": "41846252f040a8c29bacea4b9ba86a85", "rental_uris": {"android": "https://dc.lft.to/lastmile_qr_scan", "ios": "https://dc.lft.to/lastmile_qr_scan"}, "name": "41846252f040a8c29bacea4b9ba86a85", "is_reserved": 0}, {"is_disabled": 0, "fusion_lon": 0.0, "fusion_lat": 0.0, "lat": 38.90474016666667, "type": "electric_bike", "lon": -76.9294795, "bike_id": "8cac2ce1680538dafaa3209fdf44f2b3", "rental_uris": {"android": "https://dc.lft.to/lastmile_qr_scan", "ios": "https://dc.lft.to/lastmile_qr_scan"}, "name": "8cac2ce1680538dafaa3209fdf44f2b3", "is_reserved": 0}, {"is_disabled": 0, "fusion_lon": 0.0, "fusion_lat": 0.0, "lat": 38.902626833333336, "type": "electric_scooter", "lon": -77.0343865, "bike_id": "9fd6acd41d744608c4a1e8cf0a1024fa", "rental_uris": {"android": "https://dc.lft.to/lastmile_qr_scan", "ios": "https://dc.lft.to/lastmile_qr_scan"}, "name": "9fd6acd41d744608c4a1e8cf0a1024fa", "is_reserved": 0}, {"is_disabled": 0, "fusion_lon": 0.0, "fusion_lat": 0.0, "lat": 38.93414583333333, "type": "electric_scooter", "lon": -77.0388925, "bike_id": "0051d680ecb8b01ed5beca6885a5783a", "rental_uris": {"android": "https://dc.lft.to/lastmile_qr_scan", "ios": "https://dc.lft.to/lastmile_qr_scan"}, "name": "0051d680ecb8b01ed5beca6885a5783a", "is_reserved": 0}, {"is_disabled": 0, "fusion_lon": 0.0, "fusion_lat": 0.0, "lat": 38.91416866666667, "type": "electric_scooter", "lon": -77.03995166666667, "bike_id": "f3952a27059fedd907e0c53a32bd0620", "rental_uris": {"android": "https://dc.lft.to/lastmile_qr_scan", "ios": "https://dc.lft.to/lastmile_qr_scan"}, "name": "f3952a27059fedd907e0c53a32bd0620", "is_reserved": 0}, {"is_disabled": 0, "fusion_lon": 0.0, "fusion_lat": 0.0, "lat": 38.90268616666667, "type": "electric_scooter", "lon": -77.062664, "bike_id": "5b1a262ccc454bc3985a256aa7bdee48", "rental_uris": {"android": "https://dc.lft.to/lastmile_qr_scan", "ios": "https://dc.lft.to/lastmile_qr_scan"}, "name": "5b1a262ccc454bc3985a256aa7bdee48", "is_reserved": 0}, {"is_disabled": 0, "fusion_lon": 0.0, "fusion_lat": 0.0, "lat": 38.9043905, "type": "electric_scooter", "lon": -77.02416666666667, "bike_id": "73db773882b077c0afd99ee08a8eef8c", "rental_uris": {"android": "https://dc.lft.to/lastmile_qr_scan", "ios": "https://dc.lft.to/lastmile_qr_scan"}, "name": "73db773882b077c0afd99ee08a8eef8c", "is_reserved": 0}, {"is_disabled": 0, "fusion_lon": 0.0, "fusion_lat": 0.0, "lat": 38.916836333333336, "type": "electric_scooter", "lon": -77.041407, "bike_id": "ddc32fe700f80a6dc4745ae2b4028cf3", "rental_uris": {"android": "https://dc.lft.to/lastmile_qr_scan", "ios": "https://dc.lft.to/lastmile_qr_scan"}, "name": "ddc32fe700f80a6dc4745ae2b4028cf3", "is_reserved": 0}, {"is_disabled": 0, "fusion_lon": 0.0, "fusion_lat": 0.0, "lat": 38.91254166666667, "type": "electric_scooter", "lon": -77.02229216666667, "bike_id": "374a96bfa5938c2ee7c03c9a6fe3cef0", "rental_uris": {"android": "https://dc.lft.to/lastmile_qr_scan", "ios": "https://dc.lft.to/lastmile_qr_scan"}, "name": "374a96bfa5938c2ee7c03c9a6fe3cef0", "is_reserved": 0}, {"is_disabled": 0, "fusion_lon": 0.0, "fusion_lat": 0.0, "lat": 38.897926166666664, "type": "electric_scooter", "lon": -77.02951083333333, "bike_id": "83c12fe29f84c464796c819c9de1ec63", "rental_uris": {"android": "https://dc.lft.to/lastmile_qr_scan", "ios": "https://dc.lft.to/lastmile_qr_scan"}, "name": "83c12fe29f84c464796c819c9de1ec63", "is_reserved": 0}, {"is_disabled": 0, "fusion_lon": 0.0, "fusion_lat": 0.0, "lat": 39.000158, "type": "electric_bike", "lon": -76.8728775, "bike_id": "371beb43da69769606e3f3791adae293", "rental_uris": {"android": "https://dc.lft.to/lastmile_qr_scan", "ios": "https://dc.lft.to/lastmile_qr_scan"}, "name": "371beb43da69769606e3f3791adae293", "is_reserved": 0}, {"is_disabled": 0, "fusion_lon": 0.0, "fusion_lat": 0.0, "lat": 38.904242833333335, "type": "electric_scooter", "lon": -77.02202666666666, "bike_id": "289d997effd75ecf472d21f9b2e6a666", "rental_uris": {"android": "https://dc.lft.to/lastmile_qr_scan", "ios": "https://dc.lft.to/lastmile_qr_scan"}, "name": "289d997effd75ecf472d21f9b2e6a666", "is_reserved": 0}, {"is_disabled": 0, "fusion_lon": 0.0, "fusion_lat": 0.0, "lat": 38.82863916666667, "type": "electric_bike", "lon": -77.11229716666666, "bike_id": "898135220092e5a69fa5469223bb3fd2", "rental_uris": {"android": "https://dc.lft.to/lastmile_qr_scan", "ios": "https://dc.lft.to/lastmile_qr_scan"}, "name": "898135220092e5a69fa5469223bb3fd2", "is_reserved": 0}, {"is_disabled": 0, "fusion_lon": 0.0, "fusion_lat": 0.0, "lat": 38.9096695, "type": "electric_scooter", "lon": -77.011051, "bike_id": "e25a7945047ffce042e107f3c188f931", "rental_uris": {"android": "https://dc.lft.to/lastmile_qr_scan", "ios": "https://dc.lft.to/lastmile_qr_scan"}, "name": "e25a7945047ffce042e107f3c188f931", "is_reserved": 0}, {"is_disabled": 0, "fusion_lon": 0.0, "fusion_lat": 0.0, "lat": 38.85211283333334, "type": "electric_bike", "lon": -77.10132466666667, "bike_id": "8e4e9f1f19e4270e65cfaf58b317aaff", "rental_uris": {"android": "https://dc.lft.to/lastmile_qr_scan", "ios": "https://dc.lft.to/lastmile_qr_scan"}, "name": "8e4e9f1f19e4270e65cfaf58b317aaff", "is_reserved": 0}, {"is_disabled": 0, "fusion_lon": 0.0, "fusion_lat": 0.0, "lat": 38.895977333333335, "type": "electric_scooter", "lon": -77.00918283333333, "bike_id": "abc5256f81b4b5003ac97dd3eb68087b", "rental_uris": {"android": "https://dc.lft.to/lastmile_qr_scan", "ios": "https://dc.lft.to/lastmile_qr_scan"}, "name": "abc5256f81b4b5003ac97dd3eb68087b", "is_reserved": 0}, {"is_disabled": 0, "fusion_lon": 0.0, "fusion_lat": 0.0, "lat": 38.946353, "type": "electric_scooter", "lon": -77.01934183333333, "bike_id": "eae619abc7b1f553be15fdb642802c34", "rental_uris": {"android": "https://dc.lft.to/lastmile_qr_scan", "ios": "https://dc.lft.to/lastmile_qr_scan"}, "name": "eae619abc7b1f553be15fdb642802c34", "is_reserved": 0}, {"is_disabled": 0, "fusion_lon": 0.0, "fusion_lat": 0.0, "lat": 38.927527166666664, "type": "electric_scooter", "lon": -77.005958, "bike_id": "29f60d721b64872eca787fb4fddbc4cf", "rental_uris": {"android": "https://dc.lft.to/lastmile_qr_scan", "ios": "https://dc.lft.to/lastmile_qr_scan"}, "name": "29f60d721b64872eca787fb4fddbc4cf", "is_reserved": 0}, {"is_disabled": 0, "fusion_lon": 0.0, "fusion_lat": 0.0, "lat": 38.9253325, "type": "electric_bike", "lon": -77.032425, "bike_id": "778aa96f2879c4cd1002036cde044602", "rental_uris": {"android": "https://dc.lft.to/lastmile_qr_scan", "ios": "https://dc.lft.to/lastmile_qr_scan"}, "name": "778aa96f2879c4cd1002036cde044602", "is_reserved": 0}, {"is_disabled": 0, "fusion_lon": 0.0, "fusion_lat": 0.0, "lat": 38.9077065, "type": "electric_scooter", "lon": -77.062894, "bike_id": "2f346ed086da4178044d02379fbbec43", "rental_uris": {"android": "https://dc.lft.to/lastmile_qr_scan", "ios": "https://dc.lft.to/lastmile_qr_scan"}, "name": "2f346ed086da4178044d02379fbbec43", "is_reserved": 0}, {"is_disabled": 0, "fusion_lon": 0.0, "fusion_lat": 0.0, "lat": 38.9259995, "type": "electric_scooter", "lon": -77.0234875, "bike_id": "1a312f152c801ef7ff8b030d9bc37571", "rental_uris": {"android": "https://dc.lft.to/lastmile_qr_scan", "ios": "https://dc.lft.to/lastmile_qr_scan"}, "name": "1a312f152c801ef7ff8b030d9bc37571", "is_reserved": 0}, {"is_disabled": 0, "fusion_lon": 0.0, "fusion_lat": 0.0, "lat": 38.931162666666665, "type": "electric_scooter", "lon": -77.02038866666666, "bike_id": "0957ec0cebbc12db2509ba46e42ffb20", "rental_uris": {"android": "https://dc.lft.to/lastmile_qr_scan", "ios": "https://dc.lft.to/lastmile_qr_scan"}, "name": "0957ec0cebbc12db2509ba46e42ffb20", "is_reserved": 0}, {"is_disabled": 0, "fusion_lon": 0.0, "fusion_lat": 0.0, "lat": 38.904192333333334, "type": "electric_scooter", "lon": -76.98550816666666, "bike_id": "789da3b23bd34cdbc37d438a9477eca6", "rental_uris": {"android": "https://dc.lft.to/lastmile_qr_scan", "ios": "https://dc.lft.to/lastmile_qr_scan"}, "name": "789da3b23bd34cdbc37d438a9477eca6", "is_reserved": 0}, {"is_disabled": 0, "fusion_lon": 0.0, "fusion_lat": 0.0, "lat": 39.06065133333333, "type": "electric_bike", "lon": -77.0646655, "bike_id": "68c5147c0f5bfc7d9c14fb072bc45276", "rental_uris": {"android": "https://dc.lft.to/lastmile_qr_scan", "ios": "https://dc.lft.to/lastmile_qr_scan"}, "name": "68c5147c0f5bfc7d9c14fb072bc45276", "is_reserved": 0}, {"is_disabled": 0, "fusion_lon": 0.0, "fusion_lat": 0.0, "lat": 38.887464666666666, "type": "electric_scooter", "lon": -77.01737933333334, "bike_id": "57f86250e31c145bbc251038c0f3ad80", "rental_uris": {"android": "https://dc.lft.to/lastmile_qr_scan", "ios": "https://dc.lft.to/lastmile_qr_scan"}, "name": "57f86250e31c145bbc251038c0f3ad80", "is_reserved": 0}, {"is_disabled": 0, "fusion_lon": 0.0, "fusion_lat": 0.0, "lat": 38.920319166666665, "type": "electric_scooter", "lon": -76.995842, "bike_id": "23d4a661af18f6405580dccf3a263abf", "rental_uris": {"android": "https://dc.lft.to/lastmile_qr_scan", "ios": "https://dc.lft.to/lastmile_qr_scan"}, "name": "23d4a661af18f6405580dccf3a263abf", "is_reserved": 0}, {"is_disabled": 0, "fusion_lon": 0.0, "fusion_lat": 0.0, "lat": 38.91853416666667, "type": "electric_bike", "lon": -76.9608775, "bike_id": "567a0af89d548f9eaad8af522e8cd455", "rental_uris": {"android": "https://dc.lft.to/lastmile_qr_scan", "ios": "https://dc.lft.to/lastmile_qr_scan"}, "name": "567a0af89d548f9eaad8af522e8cd455", "is_reserved": 0}, {"is_disabled": 0, "fusion_lon": 0.0, "fusion_lat": 0.0, "lat": 38.9189295, "type": "electric_scooter", "lon": -77.03199416666666, "bike_id": "b72faef4642e974b5041106381da0c6b", "rental_uris": {"android": "https://dc.lft.to/lastmile_qr_scan", "ios": "https://dc.lft.to/lastmile_qr_scan"}, "name": "b72faef4642e974b5041106381da0c6b", "is_reserved": 0}, {"is_disabled": 0, "fusion_lon": 0.0, "fusion_lat": 0.0, "lat": 38.925769, "type": "electric_scooter", "lon": -77.0323545, "bike_id": "342231d1b3cff3b70897ee2f15411826", "rental_uris": {"android": "https://dc.lft.to/lastmile_qr_scan", "ios": "https://dc.lft.to/lastmile_qr_scan"}, "name": "342231d1b3cff3b70897ee2f15411826", "is_reserved": 0}, {"is_disabled": 0, "fusion_lon": 0.0, "fusion_lat": 0.0, "lat": 38.8920235, "type": "electric_scooter", "lon": -77.002896, "bike_id": "60fa72da78edd96f7e338dde93755efe", "rental_uris": {"android": "https://dc.lft.to/lastmile_qr_scan", "ios": "https://dc.lft.to/lastmile_qr_scan"}, "name": "60fa72da78edd96f7e338dde93755efe", "is_reserved": 0}, {"is_disabled": 0, "fusion_lon": 0.0, "fusion_lat": 0.0, "lat": 38.90568566666666, "type": "electric_scooter", "lon": -77.02977483333333, "bike_id": "00c28d52e04909433670aae3b7d6f664", "rental_uris": {"android": "https://dc.lft.to/lastmile_qr_scan", "ios": "https://dc.lft.to/lastmile_qr_scan"}, "name": "00c28d52e04909433670aae3b7d6f664", "is_reserved": 0}, {"is_disabled": 0, "fusion_lon": 0.0, "fusion_lat": 0.0, "lat": 38.904705666666665, "type": "electric_scooter", "lon": -77.03789533333334, "bike_id": "1db4d810909f67338dfaf48e30610c03", "rental_uris": {"android": "https://dc.lft.to/lastmile_qr_scan", "ios": "https://dc.lft.to/lastmile_qr_scan"}, "name": "1db4d810909f67338dfaf48e30610c03", "is_reserved": 0}, {"is_disabled": 0, "fusion_lon": 0.0, "fusion_lat": 0.0, "lat": 38.957714333333335, "type": "electric_bike", "lon": -76.97944283333334, "bike_id": "cf91629ea09796fbaf33fd040f8a3aba", "rental_uris": {"android": "https://dc.lft.to/lastmile_qr_scan", "ios": "https://dc.lft.to/lastmile_qr_scan"}, "name": "cf91629ea09796fbaf33fd040f8a3aba", "is_reserved": 0}, {"is_disabled": 0, "fusion_lon": 0.0, "fusion_lat": 0.0, "lat": 38.918581, "type": "electric_bike", "lon": -76.96084266666666, "bike_id": "d32f4f0bd33ad65e542d87c124fbc233", "rental_uris": {"android": "https://dc.lft.to/lastmile_qr_scan", "ios": "https://dc.lft.to/lastmile_qr_scan"}, "name": "d32f4f0bd33ad65e542d87c124fbc233", "is_reserved": 0}, {"is_disabled": 0, "fusion_lon": 0.0, "fusion_lat": 0.0, "lat": 38.9135895, "type": "electric_scooter", "lon": -77.01883966666666, "bike_id": "d6f45fe7ac6b97fbffdf15cde5f340ad", "rental_uris": {"android": "https://dc.lft.to/lastmile_qr_scan", "ios": "https://dc.lft.to/lastmile_qr_scan"}, "name": "d6f45fe7ac6b97fbffdf15cde5f340ad", "is_reserved": 0}, {"is_disabled": 0, "fusion_lon": 0.0, "fusion_lat": 0.0, "lat": 38.9170125, "type": "electric_scooter", "lon": -77.024262, "bike_id": "ba7fe0f8686e3e963ec26073de75bf34", "rental_uris": {"android": "https://dc.lft.to/lastmile_qr_scan", "ios": "https://dc.lft.to/lastmile_qr_scan"}, "name": "ba7fe0f8686e3e963ec26073de75bf34", "is_reserved": 0}, {"is_disabled": 0, "fusion_lon": 0.0, "fusion_lat": 0.0, "lat": 38.8684475, "type": "electric_bike", "lon": -77.09732216666667, "bike_id": "efe191875a338c123c7b8ae9d4f1c49b", "rental_uris": {"android": "https://dc.lft.to/lastmile_qr_scan", "ios": "https://dc.lft.to/lastmile_qr_scan"}, "name": "efe191875a338c123c7b8ae9d4f1c49b", "is_reserved": 0}, {"is_disabled": 0, "fusion_lon": 0.0, "fusion_lat": 0.0, "lat": 38.92201083333333, "type": "electric_scooter", "lon": -77.04255833333333, "bike_id": "8583bba4ffe809c1193f46e3b883d5a6", "rental_uris": {"android": "https://dc.lft.to/lastmile_qr_scan", "ios": "https://dc.lft.to/lastmile_qr_scan"}, "name": "8583bba4ffe809c1193f46e3b883d5a6", "is_reserved": 0}, {"is_disabled": 0, "fusion_lon": 0.0, "fusion_lat": 0.0, "lat": 38.9072535, "type": "electric_scooter", "lon": -77.022528, "bike_id": "2d4407d41b2e488146b379247db7b420", "rental_uris": {"android": "https://dc.lft.to/lastmile_qr_scan", "ios": "https://dc.lft.to/lastmile_qr_scan"}, "name": "2d4407d41b2e488146b379247db7b420", "is_reserved": 0}, {"is_disabled": 0, "fusion_lon": 0.0, "fusion_lat": 0.0, "lat": 38.90364133333333, "type": "electric_scooter", "lon": -77.059217, "bike_id": "658d39e9aa2a46d765515e48af65933c", "rental_uris": {"android": "https://dc.lft.to/lastmile_qr_scan", "ios": "https://dc.lft.to/lastmile_qr_scan"}, "name": "658d39e9aa2a46d765515e48af65933c", "is_reserved": 0}, {"is_disabled": 0, "fusion_lon": 0.0, "fusion_lat": 0.0, "lat": 38.917107, "type": "electric_scooter", "lon": -77.02796583333334, "bike_id": "ea3e811f148e5a70211ba9213beebe47", "rental_uris": {"android": "https://dc.lft.to/lastmile_qr_scan", "ios": "https://dc.lft.to/lastmile_qr_scan"}, "name": "ea3e811f148e5a70211ba9213beebe47", "is_reserved": 0}, {"is_disabled": 0, "fusion_lon": 0.0, "fusion_lat": 0.0, "lat": 38.951822, "type": "electric_scooter", "lon": -77.027667, "bike_id": "56ba5e10e2ff17e5952100d0db5854f3", "rental_uris": {"android": "https://dc.lft.to/lastmile_qr_scan", "ios": "https://dc.lft.to/lastmile_qr_scan"}, "name": "56ba5e10e2ff17e5952100d0db5854f3", "is_reserved": 0}, {"is_disabled": 0, "fusion_lon": 0.0, "fusion_lat": 0.0, "lat": 38.87476816666667, "type": "electric_scooter", "lon": -77.02094966666667, "bike_id": "8edd5c20e27c8d5fa10354f16ad67247", "rental_uris": {"android": "https://dc.lft.to/lastmile_qr_scan", "ios": "https://dc.lft.to/lastmile_qr_scan"}, "name": "8edd5c20e27c8d5fa10354f16ad67247", "is_reserved": 0}, {"is_disabled": 0, "fusion_lon": 0.0, "fusion_lat": 0.0, "lat": 38.902728833333335, "type": "electric_scooter", "lon": -77.0218385, "bike_id": "427c07ce9ce11e0d074300bdd5fed258", "rental_uris": {"android": "https://dc.lft.to/lastmile_qr_scan", "ios": "https://dc.lft.to/lastmile_qr_scan"}, "name": "427c07ce9ce11e0d074300bdd5fed258", "is_reserved": 0}, {"is_disabled": 0, "fusion_lon": 0.0, "fusion_lat": 0.0, "lat": 38.88320816666667, "type": "electric_scooter", "lon": -77.01749883333333, "bike_id": "f95de14d4b9ba62a5edcb27f8efbd23d", "rental_uris": {"android": "https://dc.lft.to/lastmile_qr_scan", "ios": "https://dc.lft.to/lastmile_qr_scan"}, "name": "f95de14d4b9ba62a5edcb27f8efbd23d", "is_reserved": 0}, {"is_disabled": 0, "fusion_lon": 0.0, "fusion_lat": 0.0, "lat": 38.9210685, "type": "electric_scooter", "lon": -77.03180783333333, "bike_id": "6d02327a01c06c0248ffd96c186d94a3", "rental_uris": {"android": "https://dc.lft.to/lastmile_qr_scan", "ios": "https://dc.lft.to/lastmile_qr_scan"}, "name": "6d02327a01c06c0248ffd96c186d94a3", "is_reserved": 0}, {"is_disabled": 0, "fusion_lon": 0.0, "fusion_lat": 0.0, "lat": 38.885862, "type": "electric_scooter", "lon": -77.01994733333333, "bike_id": "74698f8a3a07beebb8b6f327a7e9ff93", "rental_uris": {"android": "https://dc.lft.to/lastmile_qr_scan", "ios": "https://dc.lft.to/lastmile_qr_scan"}, "name": "74698f8a3a07beebb8b6f327a7e9ff93", "is_reserved": 0}, {"is_disabled": 0, "fusion_lon": 0.0, "fusion_lat": 0.0, "lat": 38.91183016666667, "type": "electric_scooter", "lon": -77.03829066666667, "bike_id": "209b136fef74cf57f332b30c015c5cf7", "rental_uris": {"android": "https://dc.lft.to/lastmile_qr_scan", "ios": "https://dc.lft.to/lastmile_qr_scan"}, "name": "209b136fef74cf57f332b30c015c5cf7", "is_reserved": 0}, {"is_disabled": 0, "fusion_lon": 0.0, "fusion_lat": 0.0, "lat": 38.99088666666667, "type": "electric_bike", "lon": -76.87494066666666, "bike_id": "08803f5bdc8da11bbd459048b2afa479", "rental_uris": {"android": "https://dc.lft.to/lastmile_qr_scan", "ios": "https://dc.lft.to/lastmile_qr_scan"}, "name": "08803f5bdc8da11bbd459048b2afa479", "is_reserved": 0}, {"is_disabled": 0, "fusion_lon": 0.0, "fusion_lat": 0.0, "lat": 38.909503, "type": "electric_scooter", "lon": -77.0473415, "bike_id": "0a6a30062de25de224ecedcd22773eba", "rental_uris": {"android": "https://dc.lft.to/lastmile_qr_scan", "ios": "https://dc.lft.to/lastmile_qr_scan"}, "name": "0a6a30062de25de224ecedcd22773eba", "is_reserved": 0}, {"is_disabled": 0, "fusion_lon": 0.0, "fusion_lat": 0.0, "lat": 38.896695333333334, "type": "electric_scooter", "lon": -77.05135566666667, "bike_id": "a9254dc5c978985a792a0c7b3c5b714e", "rental_uris": {"android": "https://dc.lft.to/lastmile_qr_scan", "ios": "https://dc.lft.to/lastmile_qr_scan"}, "name": "a9254dc5c978985a792a0c7b3c5b714e", "is_reserved": 0}, {"is_disabled": 0, "fusion_lon": 0.0, "fusion_lat": 0.0, "lat": 38.901735333333335, "type": "electric_scooter", "lon": -77.02613966666667, "bike_id": "a6d0c65ab0a65f5bdcc4c087477ef2ff", "rental_uris": {"android": "https://dc.lft.to/lastmile_qr_scan", "ios": "https://dc.lft.to/lastmile_qr_scan"}, "name": "a6d0c65ab0a65f5bdcc4c087477ef2ff", "is_reserved": 0}, {"is_disabled": 0, "fusion_lon": 0.0, "fusion_lat": 0.0, "lat": 38.909670166666665, "type": "electric_scooter", "lon": -77.06766683333333, "bike_id": "a3bc38e35f6e06227c401c6b1b7a32a6", "rental_uris": {"android": "https://dc.lft.to/lastmile_qr_scan", "ios": "https://dc.lft.to/lastmile_qr_scan"}, "name": "a3bc38e35f6e06227c401c6b1b7a32a6", "is_reserved": 0}, {"is_disabled": 0, "fusion_lon": 0.0, "fusion_lat": 0.0, "lat": 38.929627333333336, "type": "electric_scooter", "lon": -77.055145, "bike_id": "f66910a9a638a4ae28d5a8050ea09e3b", "rental_uris": {"android": "https://dc.lft.to/lastmile_qr_scan", "ios": "https://dc.lft.to/lastmile_qr_scan"}, "name": "f66910a9a638a4ae28d5a8050ea09e3b", "is_reserved": 0}, {"is_disabled": 0, "fusion_lon": 0.0, "fusion_lat": 0.0, "lat": 38.87619016666667, "type": "electric_scooter", "lon": -76.96537216666667, "bike_id": "2c61a211e86afbb5ba86f0ce99d8e888", "rental_uris": {"android": "https://dc.lft.to/lastmile_qr_scan", "ios": "https://dc.lft.to/lastmile_qr_scan"}, "name": "2c61a211e86afbb5ba86f0ce99d8e888", "is_reserved": 0}, {"is_disabled": 0, "fusion_lon": 0.0, "fusion_lat": 0.0, "lat": 38.925742666666665, "type": "electric_bike", "lon": -76.99498933333334, "bike_id": "7b7ea2714837ccf5787ff80c4d722239", "rental_uris": {"android": "https://dc.lft.to/lastmile_qr_scan", "ios": "https://dc.lft.to/lastmile_qr_scan"}, "name": "7b7ea2714837ccf5787ff80c4d722239", "is_reserved": 0}, {"is_disabled": 0, "fusion_lon": 0.0, "fusion_lat": 0.0, "lat": 38.920646, "type": "electric_scooter", "lon": -77.00059016666667, "bike_id": "c6d9d27a473ea0ccbc298410bee5db67", "rental_uris": {"android": "https://dc.lft.to/lastmile_qr_scan", "ios": "https://dc.lft.to/lastmile_qr_scan"}, "name": "c6d9d27a473ea0ccbc298410bee5db67", "is_reserved": 0}, {"is_disabled": 0, "fusion_lon": 0.0, "fusion_lat": 0.0, "lat": 38.9043, "type": "electric_scooter", "lon": -77.02967383333333, "bike_id": "18fbaf878770ef656c6371d7ddbd24db", "rental_uris": {"android": "https://dc.lft.to/lastmile_qr_scan", "ios": "https://dc.lft.to/lastmile_qr_scan"}, "name": "18fbaf878770ef656c6371d7ddbd24db", "is_reserved": 0}, {"is_disabled": 0, "fusion_lon": 0.0, "fusion_lat": 0.0, "lat": 38.901636, "type": "electric_scooter", "lon": -77.05312983333333, "bike_id": "34f244b74f63245cfff4862e1da27e8e", "rental_uris": {"android": "https://dc.lft.to/lastmile_qr_scan", "ios": "https://dc.lft.to/lastmile_qr_scan"}, "name": "34f244b74f63245cfff4862e1da27e8e", "is_reserved": 0}, {"is_disabled": 0, "fusion_lon": 0.0, "fusion_lat": 0.0, "lat": 38.92748616666667, "type": "electric_scooter", "lon": -77.03354416666667, "bike_id": "c1f94af9d0ffc6b41c2ed4fd3dcdc660", "rental_uris": {"android": "https://dc.lft.to/lastmile_qr_scan", "ios": "https://dc.lft.to/lastmile_qr_scan"}, "name": "c1f94af9d0ffc6b41c2ed4fd3dcdc660", "is_reserved": 0}, {"is_disabled": 0, "fusion_lon": 0.0, "fusion_lat": 0.0, "lat": 38.920310666666666, "type": "electric_scooter", "lon": -77.02581716666667, "bike_id": "ff0b32c4edc2303d14c96c232ab79403", "rental_uris": {"android": "https://dc.lft.to/lastmile_qr_scan", "ios": "https://dc.lft.to/lastmile_qr_scan"}, "name": "ff0b32c4edc2303d14c96c232ab79403", "is_reserved": 0}, {"is_disabled": 0, "fusion_lon": 0.0, "fusion_lat": 0.0, "lat": 38.91675683333333, "type": "electric_scooter", "lon": -77.02811516666667, "bike_id": "763fedd2568a8a446dc3cbb9b7051286", "rental_uris": {"android": "https://dc.lft.to/lastmile_qr_scan", "ios": "https://dc.lft.to/lastmile_qr_scan"}, "name": "763fedd2568a8a446dc3cbb9b7051286", "is_reserved": 0}, {"is_disabled": 0, "fusion_lon": 0.0, "fusion_lat": 0.0, "lat": 38.90897733333333, "type": "electric_scooter", "lon": -76.99865733333333, "bike_id": "d7206b5bb54b40de598a50a910b74811", "rental_uris": {"android": "https://dc.lft.to/lastmile_qr_scan", "ios": "https://dc.lft.to/lastmile_qr_scan"}, "name": "d7206b5bb54b40de598a50a910b74811", "is_reserved": 0}, {"is_disabled": 0, "fusion_lon": 0.0, "fusion_lat": 0.0, "lat": 38.92577, "type": "electric_scooter", "lon": -76.9949145, "bike_id": "926d3a15cd622a6d63417e69ab9186ae", "rental_uris": {"android": "https://dc.lft.to/lastmile_qr_scan", "ios": "https://dc.lft.to/lastmile_qr_scan"}, "name": "926d3a15cd622a6d63417e69ab9186ae", "is_reserved": 0}, {"is_disabled": 0, "fusion_lon": 0.0, "fusion_lat": 0.0, "lat": 38.9136525, "type": "electric_scooter", "lon": -77.041711, "bike_id": "a5f063ad25fe41df65683bb939270731", "rental_uris": {"android": "https://dc.lft.to/lastmile_qr_scan", "ios": "https://dc.lft.to/lastmile_qr_scan"}, "name": "a5f063ad25fe41df65683bb939270731", "is_reserved": 0}, {"is_disabled": 0, "fusion_lon": 0.0, "fusion_lat": 0.0, "lat": 38.923412, "type": "electric_scooter", "lon": -77.05096033333334, "bike_id": "1c2f2744b63cd99e52dbb8a8bffd8826", "rental_uris": {"android": "https://dc.lft.to/lastmile_qr_scan", "ios": "https://dc.lft.to/lastmile_qr_scan"}, "name": "1c2f2744b63cd99e52dbb8a8bffd8826", "is_reserved": 0}, {"is_disabled": 0, "fusion_lon": 0.0, "fusion_lat": 0.0, "lat": 38.941966666666666, "type": "electric_scooter", "lon": -77.02577916666667, "bike_id": "46fdd71cf0ee5c8eb59e0d99dfb6ed21", "rental_uris": {"android": "https://dc.lft.to/lastmile_qr_scan", "ios": "https://dc.lft.to/lastmile_qr_scan"}, "name": "46fdd71cf0ee5c8eb59e0d99dfb6ed21", "is_reserved": 0}, {"is_disabled": 0, "fusion_lon": 0.0, "fusion_lat": 0.0, "lat": 38.98824333333334, "type": "electric_bike", "lon": -76.98753433333333, "bike_id": "9f42588f6b3f80786ab545621fe33186", "rental_uris": {"android": "https://dc.lft.to/lastmile_qr_scan", "ios": "https://dc.lft.to/lastmile_qr_scan"}, "name": "9f42588f6b3f80786ab545621fe33186", "is_reserved": 0}, {"is_disabled": 0, "fusion_lon": 0.0, "fusion_lat": 0.0, "lat": 38.88280233333333, "type": "electric_scooter", "lon": -76.9877785, "bike_id": "e3e3c6a00ab5a826397ce5f464cc88ec", "rental_uris": {"android": "https://dc.lft.to/lastmile_qr_scan", "ios": "https://dc.lft.to/lastmile_qr_scan"}, "name": "e3e3c6a00ab5a826397ce5f464cc88ec", "is_reserved": 0}, {"is_disabled": 0, "fusion_lon": 0.0, "fusion_lat": 0.0, "lat": 38.874900333333336, "type": "electric_scooter", "lon": -77.00111066666666, "bike_id": "187fdc23c701b47ab418dfb855dabfd2", "rental_uris": {"android": "https://dc.lft.to/lastmile_qr_scan", "ios": "https://dc.lft.to/lastmile_qr_scan"}, "name": "187fdc23c701b47ab418dfb855dabfd2", "is_reserved": 0}, {"is_disabled": 0, "fusion_lon": 0.0, "fusion_lat": 0.0, "lat": 38.884352, "type": "electric_scooter", "lon": -76.95414833333334, "bike_id": "a7aca561a15bd7f865420f0f7cecfe4e", "rental_uris": {"android": "https://dc.lft.to/lastmile_qr_scan", "ios": "https://dc.lft.to/lastmile_qr_scan"}, "name": "a7aca561a15bd7f865420f0f7cecfe4e", "is_reserved": 0}, {"is_disabled": 0, "fusion_lon": 0.0, "fusion_lat": 0.0, "lat": 39.08839783333333, "type": "electric_bike", "lon": -77.1780075, "bike_id": "e2034730e63674a35ee1082c9a635973", "rental_uris": {"android": "https://dc.lft.to/lastmile_qr_scan", "ios": "https://dc.lft.to/lastmile_qr_scan"}, "name": "e2034730e63674a35ee1082c9a635973", "is_reserved": 0}, {"is_disabled": 0, "fusion_lon": 0.0, "fusion_lat": 0.0, "lat": 38.93089283333333, "type": "electric_scooter", "lon": -77.07266183333333, "bike_id": "0a5950d77509abd1899f038d7039f57a", "rental_uris": {"android": "https://dc.lft.to/lastmile_qr_scan", "ios": "https://dc.lft.to/lastmile_qr_scan"}, "name": "0a5950d77509abd1899f038d7039f57a", "is_reserved": 0}, {"is_disabled": 0, "fusion_lon": 0.0, "fusion_lat": 0.0, "lat": 38.877886, "type": "electric_scooter", "lon": -77.01743166666667, "bike_id": "b85e5836097f9a8b5a3dc8988f6841c9", "rental_uris": {"android": "https://dc.lft.to/lastmile_qr_scan", "ios": "https://dc.lft.to/lastmile_qr_scan"}, "name": "b85e5836097f9a8b5a3dc8988f6841c9", "is_reserved": 0}, {"is_disabled": 0, "fusion_lon": 0.0, "fusion_lat": 0.0, "lat": 38.91494, "type": "electric_scooter", "lon": -77.034621, "bike_id": "9c324638fbc859b3b4a816d74e0b7b60", "rental_uris": {"android": "https://dc.lft.to/lastmile_qr_scan", "ios": "https://dc.lft.to/lastmile_qr_scan"}, "name": "9c324638fbc859b3b4a816d74e0b7b60", "is_reserved": 0}, {"is_disabled": 0, "fusion_lon": 0.0, "fusion_lat": 0.0, "lat": 38.903218333333335, "type": "electric_scooter", "lon": -77.02205, "bike_id": "58fd5eb9b43a5b81908f14c36fc41e84", "rental_uris": {"android": "https://dc.lft.to/lastmile_qr_scan", "ios": "https://dc.lft.to/lastmile_qr_scan"}, "name": "58fd5eb9b43a5b81908f14c36fc41e84", "is_reserved": 0}, {"is_disabled": 0, "fusion_lon": 0.0, "fusion_lat": 0.0, "lat": 38.9054935, "type": "electric_scooter", "lon": -77.05705266666666, "bike_id": "ed88cc108a03a1480e1bd16c11b03633", "rental_uris": {"android": "https://dc.lft.to/lastmile_qr_scan", "ios": "https://dc.lft.to/lastmile_qr_scan"}, "name": "ed88cc108a03a1480e1bd16c11b03633", "is_reserved": 0}, {"is_disabled": 0, "fusion_lon": 0.0, "fusion_lat": 0.0, "lat": 38.9241475, "type": "electric_scooter", "lon": -77.0355815, "bike_id": "ba78af0d0eaeb44340dda562392100cc", "rental_uris": {"android": "https://dc.lft.to/lastmile_qr_scan", "ios": "https://dc.lft.to/lastmile_qr_scan"}, "name": "ba78af0d0eaeb44340dda562392100cc", "is_reserved": 0}, {"is_disabled": 0, "fusion_lon": 0.0, "fusion_lat": 0.0, "lat": 38.88205283333333, "type": "electric_scooter", "lon": -76.92709066666667, "bike_id": "1dc29faaf0f3694f85d6b9090a158815", "rental_uris": {"android": "https://dc.lft.to/lastmile_qr_scan", "ios": "https://dc.lft.to/lastmile_qr_scan"}, "name": "1dc29faaf0f3694f85d6b9090a158815", "is_reserved": 0}, {"is_disabled": 0, "fusion_lon": 0.0, "fusion_lat": 0.0, "lat": 38.90965416666667, "type": "electric_scooter", "lon": -77.02397766666667, "bike_id": "7d36777501512f3617ce5de6af2bd3d1", "rental_uris": {"android": "https://dc.lft.to/lastmile_qr_scan", "ios": "https://dc.lft.to/lastmile_qr_scan"}, "name": "7d36777501512f3617ce5de6af2bd3d1", "is_reserved": 0}, {"is_disabled": 0, "fusion_lon": 0.0, "fusion_lat": 0.0, "lat": 38.922103, "type": "electric_scooter", "lon": -77.0387915, "bike_id": "475124c5ffebf11d9201695e4345657e", "rental_uris": {"android": "https://dc.lft.to/lastmile_qr_scan", "ios": "https://dc.lft.to/lastmile_qr_scan"}, "name": "475124c5ffebf11d9201695e4345657e", "is_reserved": 0}, {"is_disabled": 0, "fusion_lon": 0.0, "fusion_lat": 0.0, "lat": 38.882296833333335, "type": "electric_scooter", "lon": -76.995102, "bike_id": "5092268a11bbf8f12f50fabf5c10f208", "rental_uris": {"android": "https://dc.lft.to/lastmile_qr_scan", "ios": "https://dc.lft.to/lastmile_qr_scan"}, "name": "5092268a11bbf8f12f50fabf5c10f208", "is_reserved": 0}, {"is_disabled": 0, "fusion_lon": 0.0, "fusion_lat": 0.0, "lat": 38.916868, "type": "electric_bike", "lon": -77.09158833333333, "bike_id": "03f087ee891a3c761ec114f45ed83077", "rental_uris": {"android": "https://dc.lft.to/lastmile_qr_scan", "ios": "https://dc.lft.to/lastmile_qr_scan"}, "name": "03f087ee891a3c761ec114f45ed83077", "is_reserved": 0}, {"is_disabled": 0, "fusion_lon": 0.0, "fusion_lat": 0.0, "lat": 38.906456, "type": "electric_scooter", "lon": -77.04537116666667, "bike_id": "db6e20962a8aed069aeb407f42130d5c", "rental_uris": {"android": "https://dc.lft.to/lastmile_qr_scan", "ios": "https://dc.lft.to/lastmile_qr_scan"}, "name": "db6e20962a8aed069aeb407f42130d5c", "is_reserved": 0}, {"is_disabled": 0, "fusion_lon": 0.0, "fusion_lat": 0.0, "lat": 38.90510366666667, "type": "electric_scooter", "lon": -76.98252416666666, "bike_id": "858f620eb6070d67e0ea18f2db889a86", "rental_uris": {"android": "https://dc.lft.to/lastmile_qr_scan", "ios": "https://dc.lft.to/lastmile_qr_scan"}, "name": "858f620eb6070d67e0ea18f2db889a86", "is_reserved": 0}, {"is_disabled": 0, "fusion_lon": 0.0, "fusion_lat": 0.0, "lat": 38.916636833333335, "type": "electric_scooter", "lon": -77.02335233333334, "bike_id": "e1b499b033e3a5c8f27ee83cc1017e9b", "rental_uris": {"android": "https://dc.lft.to/lastmile_qr_scan", "ios": "https://dc.lft.to/lastmile_qr_scan"}, "name": "e1b499b033e3a5c8f27ee83cc1017e9b", "is_reserved": 0}, {"is_disabled": 0, "fusion_lon": 0.0, "fusion_lat": 0.0, "lat": 38.8737515, "type": "electric_scooter", "lon": -77.0009965, "bike_id": "5a808e046695e8dd1076cb9d46b61386", "rental_uris": {"android": "https://dc.lft.to/lastmile_qr_scan", "ios": "https://dc.lft.to/lastmile_qr_scan"}, "name": "5a808e046695e8dd1076cb9d46b61386", "is_reserved": 0}, {"is_disabled": 0, "fusion_lon": 0.0, "fusion_lat": 0.0, "lat": 38.9064645, "type": "electric_bike", "lon": -77.05321516666666, "bike_id": "59c6b7c5b070c66e6b77f9814621804a", "rental_uris": {"android": "https://dc.lft.to/lastmile_qr_scan", "ios": "https://dc.lft.to/lastmile_qr_scan"}, "name": "59c6b7c5b070c66e6b77f9814621804a", "is_reserved": 0}, {"is_disabled": 0, "fusion_lon": 0.0, "fusion_lat": 0.0, "lat": 39.00790166666667, "type": "electric_bike", "lon": -76.99576366666666, "bike_id": "7c174c867bc5be7a1508aed45b809a18", "rental_uris": {"android": "https://dc.lft.to/lastmile_qr_scan", "ios": "https://dc.lft.to/lastmile_qr_scan"}, "name": "7c174c867bc5be7a1508aed45b809a18", "is_reserved": 0}, {"is_disabled": 0, "fusion_lon": 0.0, "fusion_lat": 0.0, "lat": 38.834301333333336, "type": "electric_bike", "lon": -77.10349083333334, "bike_id": "9762aa2c9c680f2a4441c90829d6eef5", "rental_uris": {"android": "https://dc.lft.to/lastmile_qr_scan", "ios": "https://dc.lft.to/lastmile_qr_scan"}, "name": "9762aa2c9c680f2a4441c90829d6eef5", "is_reserved": 0}, {"is_disabled": 0, "fusion_lon": 0.0, "fusion_lat": 0.0, "lat": 38.938853333333334, "type": "electric_scooter", "lon": -77.077668, "bike_id": "51b4fcc3680653cb354af09cb1598d3e", "rental_uris": {"android": "https://dc.lft.to/lastmile_qr_scan", "ios": "https://dc.lft.to/lastmile_qr_scan"}, "name": "51b4fcc3680653cb354af09cb1598d3e", "is_reserved": 0}, {"is_disabled": 0, "fusion_lon": 0.0, "fusion_lat": 0.0, "lat": 38.9113195, "type": "electric_scooter", "lon": -77.04416133333334, "bike_id": "18389cb9ac6f36ab36f6efb846bfe472", "rental_uris": {"android": "https://dc.lft.to/lastmile_qr_scan", "ios": "https://dc.lft.to/lastmile_qr_scan"}, "name": "18389cb9ac6f36ab36f6efb846bfe472", "is_reserved": 0}, {"is_disabled": 0, "fusion_lon": 0.0, "fusion_lat": 0.0, "lat": 38.90658833333333, "type": "electric_scooter", "lon": -77.02960866666666, "bike_id": "22f6bad736aa315890e562b00bf122e2", "rental_uris": {"android": "https://dc.lft.to/lastmile_qr_scan", "ios": "https://dc.lft.to/lastmile_qr_scan"}, "name": "22f6bad736aa315890e562b00bf122e2", "is_reserved": 0}, {"is_disabled": 0, "fusion_lon": 0.0, "fusion_lat": 0.0, "lat": 38.9154035, "type": "electric_scooter", "lon": -77.026373, "bike_id": "0f5b1229f9602e26a64fa9ff70580290", "rental_uris": {"android": "https://dc.lft.to/lastmile_qr_scan", "ios": "https://dc.lft.to/lastmile_qr_scan"}, "name": "0f5b1229f9602e26a64fa9ff70580290", "is_reserved": 0}, {"is_disabled": 0, "fusion_lon": 0.0, "fusion_lat": 0.0, "lat": 38.9185695, "type": "electric_bike", "lon": -76.960852, "bike_id": "9100ee35ab43f78e6a5cc9aa85868bdd", "rental_uris": {"android": "https://dc.lft.to/lastmile_qr_scan", "ios": "https://dc.lft.to/lastmile_qr_scan"}, "name": "9100ee35ab43f78e6a5cc9aa85868bdd", "is_reserved": 0}, {"is_disabled": 0, "fusion_lon": 0.0, "fusion_lat": 0.0, "lat": 38.8843285, "type": "electric_scooter", "lon": -77.0248485, "bike_id": "4b3871ef6b85bfd749d58708c442db92", "rental_uris": {"android": "https://dc.lft.to/lastmile_qr_scan", "ios": "https://dc.lft.to/lastmile_qr_scan"}, "name": "4b3871ef6b85bfd749d58708c442db92", "is_reserved": 0}, {"is_disabled": 0, "fusion_lon": 0.0, "fusion_lat": 0.0, "lat": 38.840992, "type": "electric_bike", "lon": -77.08935666666666, "bike_id": "9847234c1fe99e42f3bfa882dfb0a0ff", "rental_uris": {"android": "https://dc.lft.to/lastmile_qr_scan", "ios": "https://dc.lft.to/lastmile_qr_scan"}, "name": "9847234c1fe99e42f3bfa882dfb0a0ff", "is_reserved": 0}, {"is_disabled": 0, "fusion_lon": 0.0, "fusion_lat": 0.0, "lat": 38.94543183333333, "type": "electric_scooter", "lon": -77.04249216666666, "bike_id": "22d8b5186f99e00cf8c870ce68c88978", "rental_uris": {"android": "https://dc.lft.to/lastmile_qr_scan", "ios": "https://dc.lft.to/lastmile_qr_scan"}, "name": "22d8b5186f99e00cf8c870ce68c88978", "is_reserved": 0}, {"is_disabled": 0, "fusion_lon": 0.0, "fusion_lat": 0.0, "lat": 38.91770916666667, "type": "electric_scooter", "lon": -77.040599, "bike_id": "4a691ac0bb09688d102f61ce408c7045", "rental_uris": {"android": "https://dc.lft.to/lastmile_qr_scan", "ios": "https://dc.lft.to/lastmile_qr_scan"}, "name": "4a691ac0bb09688d102f61ce408c7045", "is_reserved": 0}, {"is_disabled": 0, "fusion_lon": 0.0, "fusion_lat": 0.0, "lat": 38.929585333333335, "type": "electric_scooter", "lon": -77.02329633333333, "bike_id": "f9a2826a4968cebf6a89bd3acd88cf86", "rental_uris": {"android": "https://dc.lft.to/lastmile_qr_scan", "ios": "https://dc.lft.to/lastmile_qr_scan"}, "name": "f9a2826a4968cebf6a89bd3acd88cf86", "is_reserved": 0}, {"is_disabled": 0, "fusion_lon": 0.0, "fusion_lat": 0.0, "lat": 38.871091666666665, "type": "electric_scooter", "lon": -77.00765083333333, "bike_id": "faa88cc136805ee59982a51bf2996426", "rental_uris": {"android": "https://dc.lft.to/lastmile_qr_scan", "ios": "https://dc.lft.to/lastmile_qr_scan"}, "name": "faa88cc136805ee59982a51bf2996426", "is_reserved": 0}, {"is_disabled": 0, "fusion_lon": 0.0, "fusion_lat": 0.0, "lat": 38.92665383333333, "type": "electric_scooter", "lon": -77.04319183333334, "bike_id": "91d94dab93551273865f30b77d7e6bce", "rental_uris": {"android": "https://dc.lft.to/lastmile_qr_scan", "ios": "https://dc.lft.to/lastmile_qr_scan"}, "name": "91d94dab93551273865f30b77d7e6bce", "is_reserved": 0}, {"is_disabled": 0, "fusion_lon": 0.0, "fusion_lat": 0.0, "lat": 38.934782166666665, "type": "electric_scooter", "lon": -77.0727575, "bike_id": "048007de555081a3182a4a21d794ddaf", "rental_uris": {"android": "https://dc.lft.to/lastmile_qr_scan", "ios": "https://dc.lft.to/lastmile_qr_scan"}, "name": "048007de555081a3182a4a21d794ddaf", "is_reserved": 0}, {"is_disabled": 0, "fusion_lon": 0.0, "fusion_lat": 0.0, "lat": 38.940811333333336, "type": "electric_bike", "lon": -77.04657766666666, "bike_id": "4d58c26f0607c4f5c049d5f2fe1fb848", "rental_uris": {"android": "https://dc.lft.to/lastmile_qr_scan", "ios": "https://dc.lft.to/lastmile_qr_scan"}, "name": "4d58c26f0607c4f5c049d5f2fe1fb848", "is_reserved": 0}, {"is_disabled": 0, "fusion_lon": 0.0, "fusion_lat": 0.0, "lat": 38.898319, "type": "electric_scooter", "lon": -76.980793, "bike_id": "49e9d1c30a52f901d895e8ebab3dc52a", "rental_uris": {"android": "https://dc.lft.to/lastmile_qr_scan", "ios": "https://dc.lft.to/lastmile_qr_scan"}, "name": "49e9d1c30a52f901d895e8ebab3dc52a", "is_reserved": 0}, {"is_disabled": 0, "fusion_lon": 0.0, "fusion_lat": 0.0, "lat": 38.9055975, "type": "electric_scooter", "lon": -77.005672, "bike_id": "6a8df7a6a7c695d066f95135522d8cdb", "rental_uris": {"android": "https://dc.lft.to/lastmile_qr_scan", "ios": "https://dc.lft.to/lastmile_qr_scan"}, "name": "6a8df7a6a7c695d066f95135522d8cdb", "is_reserved": 0}, {"is_disabled": 0, "fusion_lon": 0.0, "fusion_lat": 0.0, "lat": 38.8931505, "type": "electric_scooter", "lon": -77.02205833333333, "bike_id": "98737ba5a6dc56a47dbb7936165c3529", "rental_uris": {"android": "https://dc.lft.to/lastmile_qr_scan", "ios": "https://dc.lft.to/lastmile_qr_scan"}, "name": "98737ba5a6dc56a47dbb7936165c3529", "is_reserved": 0}, {"is_disabled": 0, "fusion_lon": 0.0, "fusion_lat": 0.0, "lat": 38.88795416666667, "type": "electric_bike", "lon": -76.92993383333334, "bike_id": "9cb46ea15cd9dbea573e031d3cb5c2aa", "rental_uris": {"android": "https://dc.lft.to/lastmile_qr_scan", "ios": "https://dc.lft.to/lastmile_qr_scan"}, "name": "9cb46ea15cd9dbea573e031d3cb5c2aa", "is_reserved": 0}, {"is_disabled": 0, "fusion_lon": 0.0, "fusion_lat": 0.0, "lat": 38.91639683333333, "type": "electric_scooter", "lon": -77.04667516666666, "bike_id": "fcbafea637b65001a85373f76831ee37", "rental_uris": {"android": "https://dc.lft.to/lastmile_qr_scan", "ios": "https://dc.lft.to/lastmile_qr_scan"}, "name": "fcbafea637b65001a85373f76831ee37", "is_reserved": 0}, {"is_disabled": 0, "fusion_lon": 0.0, "fusion_lat": 0.0, "lat": 39.00873433333334, "type": "electric_bike", "lon": -77.07908783333333, "bike_id": "1be0e1d0f29a183d02bc8591ca11f436", "rental_uris": {"android": "https://dc.lft.to/lastmile_qr_scan", "ios": "https://dc.lft.to/lastmile_qr_scan"}, "name": "1be0e1d0f29a183d02bc8591ca11f436", "is_reserved": 0}, {"is_disabled": 0, "fusion_lon": 0.0, "fusion_lat": 0.0, "lat": 38.91038666666667, "type": "electric_scooter", "lon": -77.04804166666666, "bike_id": "dacefd633dc22c5e4f36203aa84201a1", "rental_uris": {"android": "https://dc.lft.to/lastmile_qr_scan", "ios": "https://dc.lft.to/lastmile_qr_scan"}, "name": "dacefd633dc22c5e4f36203aa84201a1", "is_reserved": 0}, {"is_disabled": 0, "fusion_lon": 0.0, "fusion_lat": 0.0, "lat": 38.82743466666667, "type": "electric_bike", "lon": -77.008521, "bike_id": "8c1408e8f1a13397c261c7c8b4ac6c4d", "rental_uris": {"android": "https://dc.lft.to/lastmile_qr_scan", "ios": "https://dc.lft.to/lastmile_qr_scan"}, "name": "8c1408e8f1a13397c261c7c8b4ac6c4d", "is_reserved": 0}, {"is_disabled": 0, "fusion_lon": 0.0, "fusion_lat": 0.0, "lat": 38.92799266666667, "type": "electric_scooter", "lon": -77.022988, "bike_id": "4cb621c513530ece58be72f724462ce0", "rental_uris": {"android": "https://dc.lft.to/lastmile_qr_scan", "ios": "https://dc.lft.to/lastmile_qr_scan"}, "name": "4cb621c513530ece58be72f724462ce0", "is_reserved": 0}, {"is_disabled": 0, "fusion_lon": 0.0, "fusion_lat": 0.0, "lat": 38.9448735, "type": "electric_scooter", "lon": -77.0637815, "bike_id": "b913b9519e37991c9a9f40b462cb58f6", "rental_uris": {"android": "https://dc.lft.to/lastmile_qr_scan", "ios": "https://dc.lft.to/lastmile_qr_scan"}, "name": "b913b9519e37991c9a9f40b462cb58f6", "is_reserved": 0}, {"is_disabled": 0, "fusion_lon": 0.0, "fusion_lat": 0.0, "lat": 38.902275833333334, "type": "electric_scooter", "lon": -77.024173, "bike_id": "967ad5127b0c28776dcb0d097ecca517", "rental_uris": {"android": "https://dc.lft.to/lastmile_qr_scan", "ios": "https://dc.lft.to/lastmile_qr_scan"}, "name": "967ad5127b0c28776dcb0d097ecca517", "is_reserved": 0}, {"is_disabled": 0, "fusion_lon": 0.0, "fusion_lat": 0.0, "lat": 38.89370183333333, "type": "electric_scooter", "lon": -76.949998, "bike_id": "9b29f7f66896afd23959affcf3e4d49b", "rental_uris": {"android": "https://dc.lft.to/lastmile_qr_scan", "ios": "https://dc.lft.to/lastmile_qr_scan"}, "name": "9b29f7f66896afd23959affcf3e4d49b", "is_reserved": 0}, {"is_disabled": 0, "fusion_lon": 0.0, "fusion_lat": 0.0, "lat": 38.8987865, "type": "electric_scooter", "lon": -76.93156683333333, "bike_id": "17cfec86b23f5d712e0416f1f2d763b3", "rental_uris": {"android": "https://dc.lft.to/lastmile_qr_scan", "ios": "https://dc.lft.to/lastmile_qr_scan"}, "name": "17cfec86b23f5d712e0416f1f2d763b3", "is_reserved": 0}, {"is_disabled": 0, "fusion_lon": 0.0, "fusion_lat": 0.0, "lat": 38.91185883333333, "type": "electric_scooter", "lon": -77.0453455, "bike_id": "ad9cacbb8405e4a93e7b9f1683479395", "rental_uris": {"android": "https://dc.lft.to/lastmile_qr_scan", "ios": "https://dc.lft.to/lastmile_qr_scan"}, "name": "ad9cacbb8405e4a93e7b9f1683479395", "is_reserved": 0}, {"is_disabled": 0, "fusion_lon": 0.0, "fusion_lat": 0.0, "lat": 38.923330666666665, "type": "electric_scooter", "lon": -77.03507566666667, "bike_id": "9101a0aeb3fea49da72ceb76105497f5", "rental_uris": {"android": "https://dc.lft.to/lastmile_qr_scan", "ios": "https://dc.lft.to/lastmile_qr_scan"}, "name": "9101a0aeb3fea49da72ceb76105497f5", "is_reserved": 0}, {"is_disabled": 0, "fusion_lon": 0.0, "fusion_lat": 0.0, "lat": 38.900780833333336, "type": "electric_bike", "lon": -77.05323, "bike_id": "35ffd824153319f74536e1328d149d3c", "rental_uris": {"android": "https://dc.lft.to/lastmile_qr_scan", "ios": "https://dc.lft.to/lastmile_qr_scan"}, "name": "35ffd824153319f74536e1328d149d3c", "is_reserved": 0}, {"is_disabled": 0, "fusion_lon": 0.0, "fusion_lat": 0.0, "lat": 38.92888333333333, "type": "electric_scooter", "lon": -76.984519, "bike_id": "a880201fe2c6080ba7582b69341168a8", "rental_uris": {"android": "https://dc.lft.to/lastmile_qr_scan", "ios": "https://dc.lft.to/lastmile_qr_scan"}, "name": "a880201fe2c6080ba7582b69341168a8", "is_reserved": 0}, {"is_disabled": 0, "fusion_lon": 0.0, "fusion_lat": 0.0, "lat": 38.90192916666667, "type": "electric_scooter", "lon": -77.06122833333333, "bike_id": "4bd4d3f60367da640806593feaf89348", "rental_uris": {"android": "https://dc.lft.to/lastmile_qr_scan", "ios": "https://dc.lft.to/lastmile_qr_scan"}, "name": "4bd4d3f60367da640806593feaf89348", "is_reserved": 0}, {"is_disabled": 0, "fusion_lon": 0.0, "fusion_lat": 0.0, "lat": 39.105667833333335, "type": "electric_bike", "lon": -77.15265716666667, "bike_id": "c5298374a08a4266f22dda1e3172e174", "rental_uris": {"android": "https://dc.lft.to/lastmile_qr_scan", "ios": "https://dc.lft.to/lastmile_qr_scan"}, "name": "c5298374a08a4266f22dda1e3172e174", "is_reserved": 0}, {"is_disabled": 0, "fusion_lon": 0.0, "fusion_lat": 0.0, "lat": 38.9157185, "type": "electric_scooter", "lon": -77.02290716666667, "bike_id": "9905007884ffe766209133b61565dab9", "rental_uris": {"android": "https://dc.lft.to/lastmile_qr_scan", "ios": "https://dc.lft.to/lastmile_qr_scan"}, "name": "9905007884ffe766209133b61565dab9", "is_reserved": 0}, {"is_disabled": 0, "fusion_lon": 0.0, "fusion_lat": 0.0, "lat": 38.9244495, "type": "electric_bike", "lon": -76.968296, "bike_id": "deb221e776edbe498f9e13c7bdd526d9", "rental_uris": {"android": "https://dc.lft.to/lastmile_qr_scan", "ios": "https://dc.lft.to/lastmile_qr_scan"}, "name": "deb221e776edbe498f9e13c7bdd526d9", "is_reserved": 0}, {"is_disabled": 0, "fusion_lon": 0.0, "fusion_lat": 0.0, "lat": 38.92191966666667, "type": "electric_scooter", "lon": -76.99755716666667, "bike_id": "653cf0763c8e714e8c953d7dab6333f4", "rental_uris": {"android": "https://dc.lft.to/lastmile_qr_scan", "ios": "https://dc.lft.to/lastmile_qr_scan"}, "name": "653cf0763c8e714e8c953d7dab6333f4", "is_reserved": 0}, {"is_disabled": 0, "fusion_lon": 0.0, "fusion_lat": 0.0, "lat": 38.92153483333333, "type": "electric_scooter", "lon": -77.03445666666667, "bike_id": "fcdc6c6d569929a6419ceec14467809c", "rental_uris": {"android": "https://dc.lft.to/lastmile_qr_scan", "ios": "https://dc.lft.to/lastmile_qr_scan"}, "name": "fcdc6c6d569929a6419ceec14467809c", "is_reserved": 0}, {"is_disabled": 0, "fusion_lon": 0.0, "fusion_lat": 0.0, "lat": 38.929151, "type": "electric_scooter", "lon": -77.02348833333333, "bike_id": "f82fc240a5e9297f7d2e961f6ba2c79e", "rental_uris": {"android": "https://dc.lft.to/lastmile_qr_scan", "ios": "https://dc.lft.to/lastmile_qr_scan"}, "name": "f82fc240a5e9297f7d2e961f6ba2c79e", "is_reserved": 0}, {"is_disabled": 0, "fusion_lon": 0.0, "fusion_lat": 0.0, "lat": 38.893689, "type": "electric_scooter", "lon": -76.95003533333333, "bike_id": "6230f1aae4e74b622116005be2b6660e", "rental_uris": {"android": "https://dc.lft.to/lastmile_qr_scan", "ios": "https://dc.lft.to/lastmile_qr_scan"}, "name": "6230f1aae4e74b622116005be2b6660e", "is_reserved": 0}, {"is_disabled": 0, "fusion_lon": 0.0, "fusion_lat": 0.0, "lat": 38.89243733333333, "type": "electric_scooter", "lon": -77.03956583333333, "bike_id": "9ea275526ad96d4f2948018328356a2f", "rental_uris": {"android": "https://dc.lft.to/lastmile_qr_scan", "ios": "https://dc.lft.to/lastmile_qr_scan"}, "name": "9ea275526ad96d4f2948018328356a2f", "is_reserved": 0}, {"is_disabled": 0, "fusion_lon": 0.0, "fusion_lat": 0.0, "lat": 38.9363175, "type": "electric_scooter", "lon": -77.03659116666667, "bike_id": "0b125a37e9fe341e13ff56863d2f22ee", "rental_uris": {"android": "https://dc.lft.to/lastmile_qr_scan", "ios": "https://dc.lft.to/lastmile_qr_scan"}, "name": "0b125a37e9fe341e13ff56863d2f22ee", "is_reserved": 0}, {"is_disabled": 0, "fusion_lon": 0.0, "fusion_lat": 0.0, "lat": 38.8419615, "type": "electric_bike", "lon": -77.10681816666667, "bike_id": "5a92c3f02cfd6897d220024b0a6a171f", "rental_uris": {"android": "https://dc.lft.to/lastmile_qr_scan", "ios": "https://dc.lft.to/lastmile_qr_scan"}, "name": "5a92c3f02cfd6897d220024b0a6a171f", "is_reserved": 0}, {"is_disabled": 0, "fusion_lon": 0.0, "fusion_lat": 0.0, "lat": 38.90435333333333, "type": "electric_scooter", "lon": -77.02965466666667, "bike_id": "52d3c411b285dc706acbf5487a7545dc", "rental_uris": {"android": "https://dc.lft.to/lastmile_qr_scan", "ios": "https://dc.lft.to/lastmile_qr_scan"}, "name": "52d3c411b285dc706acbf5487a7545dc", "is_reserved": 0}, {"is_disabled": 0, "fusion_lon": 0.0, "fusion_lat": 0.0, "lat": 38.90547766666667, "type": "electric_scooter", "lon": -77.0570415, "bike_id": "628f19f52eb0b8acd8ce1c3b499e79a7", "rental_uris": {"android": "https://dc.lft.to/lastmile_qr_scan", "ios": "https://dc.lft.to/lastmile_qr_scan"}, "name": "628f19f52eb0b8acd8ce1c3b499e79a7", "is_reserved": 0}, {"is_disabled": 0, "fusion_lon": 0.0, "fusion_lat": 0.0, "lat": 38.836030666666666, "type": "electric_scooter", "lon": -77.00362683333333, "bike_id": "5f6d8654e319541bf4dcc26e97e11588", "rental_uris": {"android": "https://dc.lft.to/lastmile_qr_scan", "ios": "https://dc.lft.to/lastmile_qr_scan"}, "name": "5f6d8654e319541bf4dcc26e97e11588", "is_reserved": 0}, {"is_disabled": 0, "fusion_lon": 0.0, "fusion_lat": 0.0, "lat": 38.9192555, "type": "electric_scooter", "lon": -77.025085, "bike_id": "99bb0864174e578b8cea34b67e582f2d", "rental_uris": {"android": "https://dc.lft.to/lastmile_qr_scan", "ios": "https://dc.lft.to/lastmile_qr_scan"}, "name": "99bb0864174e578b8cea34b67e582f2d", "is_reserved": 0}, {"is_disabled": 0, "fusion_lon": 0.0, "fusion_lat": 0.0, "lat": 38.90465, "type": "electric_scooter", "lon": -77.04170216666667, "bike_id": "05546fdbaeedd7b5d02b90321ac77f5d", "rental_uris": {"android": "https://dc.lft.to/lastmile_qr_scan", "ios": "https://dc.lft.to/lastmile_qr_scan"}, "name": "05546fdbaeedd7b5d02b90321ac77f5d", "is_reserved": 0}, {"is_disabled": 0, "fusion_lon": 0.0, "fusion_lat": 0.0, "lat": 38.998451833333334, "type": "electric_bike", "lon": -77.02899966666666, "bike_id": "c1f5e117c1cb78a46ce0c67adb8b62a9", "rental_uris": {"android": "https://dc.lft.to/lastmile_qr_scan", "ios": "https://dc.lft.to/lastmile_qr_scan"}, "name": "c1f5e117c1cb78a46ce0c67adb8b62a9", "is_reserved": 0}, {"is_disabled": 0, "fusion_lon": 0.0, "fusion_lat": 0.0, "lat": 38.9147965, "type": "electric_scooter", "lon": -76.98362916666666, "bike_id": "96371218660ccff34b5331f0d61d3a23", "rental_uris": {"android": "https://dc.lft.to/lastmile_qr_scan", "ios": "https://dc.lft.to/lastmile_qr_scan"}, "name": "96371218660ccff34b5331f0d61d3a23", "is_reserved": 0}, {"is_disabled": 0, "fusion_lon": 0.0, "fusion_lat": 0.0, "lat": 38.928367, "type": "electric_scooter", "lon": -77.014012, "bike_id": "44eda89243f867c25304ce24ed1f62e3", "rental_uris": {"android": "https://dc.lft.to/lastmile_qr_scan", "ios": "https://dc.lft.to/lastmile_qr_scan"}, "name": "44eda89243f867c25304ce24ed1f62e3", "is_reserved": 0}, {"is_disabled": 0, "fusion_lon": 0.0, "fusion_lat": 0.0, "lat": 38.96758533333333, "type": "electric_bike", "lon": -77.09158016666666, "bike_id": "e54c1e9f2a2f1fe454913d2ef9ff1b83", "rental_uris": {"android": "https://dc.lft.to/lastmile_qr_scan", "ios": "https://dc.lft.to/lastmile_qr_scan"}, "name": "e54c1e9f2a2f1fe454913d2ef9ff1b83", "is_reserved": 0}, {"is_disabled": 0, "fusion_lon": 0.0, "fusion_lat": 0.0, "lat": 38.85805933333333, "type": "electric_scooter", "lon": -76.986566, "bike_id": "7a4cac5869d09dfff8f60af8bdf1eb00", "rental_uris": {"android": "https://dc.lft.to/lastmile_qr_scan", "ios": "https://dc.lft.to/lastmile_qr_scan"}, "name": "7a4cac5869d09dfff8f60af8bdf1eb00", "is_reserved": 0}, {"is_disabled": 0, "fusion_lon": 0.0, "fusion_lat": 0.0, "lat": 38.863203666666664, "type": "electric_scooter", "lon": -76.99056166666666, "bike_id": "bb6b1af3b32a6b97aa10b8c390806f4f", "rental_uris": {"android": "https://dc.lft.to/lastmile_qr_scan", "ios": "https://dc.lft.to/lastmile_qr_scan"}, "name": "bb6b1af3b32a6b97aa10b8c390806f4f", "is_reserved": 0}, {"is_disabled": 0, "fusion_lon": 0.0, "fusion_lat": 0.0, "lat": 38.906478166666666, "type": "electric_scooter", "lon": -77.02489816666667, "bike_id": "8f5178a61b6a3674f2510c3f8fb8cd98", "rental_uris": {"android": "https://dc.lft.to/lastmile_qr_scan", "ios": "https://dc.lft.to/lastmile_qr_scan"}, "name": "8f5178a61b6a3674f2510c3f8fb8cd98", "is_reserved": 0}, {"is_disabled": 0, "fusion_lon": 0.0, "fusion_lat": 0.0, "lat": 38.89365516666667, "type": "electric_scooter", "lon": -77.02264016666666, "bike_id": "994b5a2b7ce6cad6f301ae3f635bb069", "rental_uris": {"android": "https://dc.lft.to/lastmile_qr_scan", "ios": "https://dc.lft.to/lastmile_qr_scan"}, "name": "994b5a2b7ce6cad6f301ae3f635bb069", "is_reserved": 0}, {"is_disabled": 0, "fusion_lon": 0.0, "fusion_lat": 0.0, "lat": 38.91565216666667, "type": "electric_scooter", "lon": -77.03174833333334, "bike_id": "01f459fbf8a40d844d73e3cb1a6313ea", "rental_uris": {"android": "https://dc.lft.to/lastmile_qr_scan", "ios": "https://dc.lft.to/lastmile_qr_scan"}, "name": "01f459fbf8a40d844d73e3cb1a6313ea", "is_reserved": 0}, {"is_disabled": 0, "fusion_lon": 0.0, "fusion_lat": 0.0, "lat": 38.94198033333333, "type": "electric_scooter", "lon": -77.02579333333334, "bike_id": "067a58f1a0a5c371cdb9e083bdf991fc", "rental_uris": {"android": "https://dc.lft.to/lastmile_qr_scan", "ios": "https://dc.lft.to/lastmile_qr_scan"}, "name": "067a58f1a0a5c371cdb9e083bdf991fc", "is_reserved": 0}, {"is_disabled": 0, "fusion_lon": 0.0, "fusion_lat": 0.0, "lat": 38.912935166666664, "type": "electric_scooter", "lon": -77.04661, "bike_id": "03776257e0b4e26bbba125c0d2a92193", "rental_uris": {"android": "https://dc.lft.to/lastmile_qr_scan", "ios": "https://dc.lft.to/lastmile_qr_scan"}, "name": "03776257e0b4e26bbba125c0d2a92193", "is_reserved": 0}, {"is_disabled": 0, "fusion_lon": 0.0, "fusion_lat": 0.0, "lat": 38.90017066666667, "type": "electric_scooter", "lon": -76.985001, "bike_id": "2250ab9b1fa9bb735a55a80aa7aa4067", "rental_uris": {"android": "https://dc.lft.to/lastmile_qr_scan", "ios": "https://dc.lft.to/lastmile_qr_scan"}, "name": "2250ab9b1fa9bb735a55a80aa7aa4067", "is_reserved": 0}, {"is_disabled": 0, "fusion_lon": 0.0, "fusion_lat": 0.0, "lat": 38.84423983333333, "type": "electric_scooter", "lon": -76.99781633333333, "bike_id": "1601b0d4ee4fe1de115f7c6f03886c1a", "rental_uris": {"android": "https://dc.lft.to/lastmile_qr_scan", "ios": "https://dc.lft.to/lastmile_qr_scan"}, "name": "1601b0d4ee4fe1de115f7c6f03886c1a", "is_reserved": 0}, {"is_disabled": 0, "fusion_lon": 0.0, "fusion_lat": 0.0, "lat": 38.8968105, "type": "electric_scooter", "lon": -77.00494616666667, "bike_id": "9219d3dbb8cad65e227b0ea7437d840c", "rental_uris": {"android": "https://dc.lft.to/lastmile_qr_scan", "ios": "https://dc.lft.to/lastmile_qr_scan"}, "name": "9219d3dbb8cad65e227b0ea7437d840c", "is_reserved": 0}, {"is_disabled": 0, "fusion_lon": 0.0, "fusion_lat": 0.0, "lat": 38.89500183333333, "type": "electric_scooter", "lon": -76.94874016666667, "bike_id": "a61875fc5a050b8ecfc926970f461617", "rental_uris": {"android": "https://dc.lft.to/lastmile_qr_scan", "ios": "https://dc.lft.to/lastmile_qr_scan"}, "name": "a61875fc5a050b8ecfc926970f461617", "is_reserved": 0}, {"is_disabled": 0, "fusion_lon": 0.0, "fusion_lat": 0.0, "lat": 38.893624333333335, "type": "electric_scooter", "lon": -77.0226145, "bike_id": "dabaf1b3c5ce4295857b5d63b736ed7f", "rental_uris": {"android": "https://dc.lft.to/lastmile_qr_scan", "ios": "https://dc.lft.to/lastmile_qr_scan"}, "name": "dabaf1b3c5ce4295857b5d63b736ed7f", "is_reserved": 0}, {"is_disabled": 0, "fusion_lon": 0.0, "fusion_lat": 0.0, "lat": 38.909719333333335, "type": "electric_scooter", "lon": -77.0386895, "bike_id": "ab263f0573f50ae19eaa991c326d15ad", "rental_uris": {"android": "https://dc.lft.to/lastmile_qr_scan", "ios": "https://dc.lft.to/lastmile_qr_scan"}, "name": "ab263f0573f50ae19eaa991c326d15ad", "is_reserved": 0}, {"is_disabled": 0, "fusion_lon": 0.0, "fusion_lat": 0.0, "lat": 38.881214, "type": "electric_scooter", "lon": -77.000963, "bike_id": "a5602813557646475ecec0f58aac040e", "rental_uris": {"android": "https://dc.lft.to/lastmile_qr_scan", "ios": "https://dc.lft.to/lastmile_qr_scan"}, "name": "a5602813557646475ecec0f58aac040e", "is_reserved": 0}, {"is_disabled": 0, "fusion_lon": 0.0, "fusion_lat": 0.0, "lat": 38.9257775, "type": "electric_scooter", "lon": -77.032382, "bike_id": "e1c6fdba0bd84019bdc4f319ebc09173", "rental_uris": {"android": "https://dc.lft.to/lastmile_qr_scan", "ios": "https://dc.lft.to/lastmile_qr_scan"}, "name": "e1c6fdba0bd84019bdc4f319ebc09173", "is_reserved": 0}, {"is_disabled": 0, "fusion_lon": 0.0, "fusion_lat": 0.0, "lat": 38.91561683333333, "type": "electric_scooter", "lon": -77.03174766666666, "bike_id": "7de00319ac4a9c490037f18f7f026d4a", "rental_uris": {"android": "https://dc.lft.to/lastmile_qr_scan", "ios": "https://dc.lft.to/lastmile_qr_scan"}, "name": "7de00319ac4a9c490037f18f7f026d4a", "is_reserved": 0}, {"is_disabled": 0, "fusion_lon": 0.0, "fusion_lat": 0.0, "lat": 38.91812616666667, "type": "electric_scooter", "lon": -77.02600166666667, "bike_id": "8544100e27a5ebcb7e723786671d32fb", "rental_uris": {"android": "https://dc.lft.to/lastmile_qr_scan", "ios": "https://dc.lft.to/lastmile_qr_scan"}, "name": "8544100e27a5ebcb7e723786671d32fb", "is_reserved": 0}, {"is_disabled": 0, "fusion_lon": 0.0, "fusion_lat": 0.0, "lat": 38.89756883333333, "type": "electric_scooter", "lon": -77.05124, "bike_id": "8dcf73d2d6a17519139285cee8bca305", "rental_uris": {"android": "https://dc.lft.to/lastmile_qr_scan", "ios": "https://dc.lft.to/lastmile_qr_scan"}, "name": "8dcf73d2d6a17519139285cee8bca305", "is_reserved": 0}, {"is_disabled": 0, "fusion_lon": 0.0, "fusion_lat": 0.0, "lat": 38.924541, "type": "electric_bike", "lon": -76.99951533333333, "bike_id": "de22b2c2df7629bea896ed5705e9a5db", "rental_uris": {"android": "https://dc.lft.to/lastmile_qr_scan", "ios": "https://dc.lft.to/lastmile_qr_scan"}, "name": "de22b2c2df7629bea896ed5705e9a5db", "is_reserved": 0}, {"is_disabled": 0, "fusion_lon": 0.0, "fusion_lat": 0.0, "lat": 38.89537983333334, "type": "electric_scooter", "lon": -76.94926883333333, "bike_id": "d7a9cc79660b48f2d8c35cbe8c19e1c0", "rental_uris": {"android": "https://dc.lft.to/lastmile_qr_scan", "ios": "https://dc.lft.to/lastmile_qr_scan"}, "name": "d7a9cc79660b48f2d8c35cbe8c19e1c0", "is_reserved": 0}, {"is_disabled": 0, "fusion_lon": 0.0, "fusion_lat": 0.0, "lat": 38.93631333333333, "type": "electric_scooter", "lon": -77.02699366666667, "bike_id": "77214c679c2325792afb0f5e26fd48e2", "rental_uris": {"android": "https://dc.lft.to/lastmile_qr_scan", "ios": "https://dc.lft.to/lastmile_qr_scan"}, "name": "77214c679c2325792afb0f5e26fd48e2", "is_reserved": 0}, {"is_disabled": 0, "fusion_lon": 0.0, "fusion_lat": 0.0, "lat": 38.9084865, "type": "electric_scooter", "lon": -77.0608045, "bike_id": "8fdfcd0112cf5c385e76d44e36cecbed", "rental_uris": {"android": "https://dc.lft.to/lastmile_qr_scan", "ios": "https://dc.lft.to/lastmile_qr_scan"}, "name": "8fdfcd0112cf5c385e76d44e36cecbed", "is_reserved": 0}, {"is_disabled": 0, "fusion_lon": 0.0, "fusion_lat": 0.0, "lat": 38.913137, "type": "electric_scooter", "lon": -77.01434466666667, "bike_id": "75ddc176d9b810a08deea7783233c481", "rental_uris": {"android": "https://dc.lft.to/lastmile_qr_scan", "ios": "https://dc.lft.to/lastmile_qr_scan"}, "name": "75ddc176d9b810a08deea7783233c481", "is_reserved": 0}, {"is_disabled": 0, "fusion_lon": 0.0, "fusion_lat": 0.0, "lat": 38.90179416666667, "type": "electric_scooter", "lon": -77.0527025, "bike_id": "4ed51aa20ca9b652d912c640b61c008a", "rental_uris": {"android": "https://dc.lft.to/lastmile_qr_scan", "ios": "https://dc.lft.to/lastmile_qr_scan"}, "name": "4ed51aa20ca9b652d912c640b61c008a", "is_reserved": 0}, {"is_disabled": 0, "fusion_lon": 0.0, "fusion_lat": 0.0, "lat": 38.89749233333333, "type": "electric_scooter", "lon": -77.02787816666667, "bike_id": "01d78b445394b785eeef0733f06e0552", "rental_uris": {"android": "https://dc.lft.to/lastmile_qr_scan", "ios": "https://dc.lft.to/lastmile_qr_scan"}, "name": "01d78b445394b785eeef0733f06e0552", "is_reserved": 0}, {"is_disabled": 0, "fusion_lon": 0.0, "fusion_lat": 0.0, "lat": 38.89735233333333, "type": "electric_scooter", "lon": -77.049026, "bike_id": "960257a21838fded4b4c434187a28b11", "rental_uris": {"android": "https://dc.lft.to/lastmile_qr_scan", "ios": "https://dc.lft.to/lastmile_qr_scan"}, "name": "960257a21838fded4b4c434187a28b11", "is_reserved": 0}, {"is_disabled": 0, "fusion_lon": 0.0, "fusion_lat": 0.0, "lat": 38.903021333333335, "type": "electric_bike", "lon": -77.02368716666666, "bike_id": "c7ae378046e92648cdffff19c2374256", "rental_uris": {"android": "https://dc.lft.to/lastmile_qr_scan", "ios": "https://dc.lft.to/lastmile_qr_scan"}, "name": "c7ae378046e92648cdffff19c2374256", "is_reserved": 0}, {"is_disabled": 0, "fusion_lon": 0.0, "fusion_lat": 0.0, "lat": 38.91981633333333, "type": "electric_scooter", "lon": -77.0417115, "bike_id": "dd205dbb57000c63792523443c188e6d", "rental_uris": {"android": "https://dc.lft.to/lastmile_qr_scan", "ios": "https://dc.lft.to/lastmile_qr_scan"}, "name": "dd205dbb57000c63792523443c188e6d", "is_reserved": 0}, {"is_disabled": 0, "fusion_lon": 0.0, "fusion_lat": 0.0, "lat": 38.94320533333333, "type": "electric_scooter", "lon": -77.08579816666666, "bike_id": "c4824f413962d8d6ebd60cdbc29fe290", "rental_uris": {"android": "https://dc.lft.to/lastmile_qr_scan", "ios": "https://dc.lft.to/lastmile_qr_scan"}, "name": "c4824f413962d8d6ebd60cdbc29fe290", "is_reserved": 0}, {"is_disabled": 0, "fusion_lon": 0.0, "fusion_lat": 0.0, "lat": 38.87288783333333, "type": "electric_scooter", "lon": -77.00983783333334, "bike_id": "e4cd9f844cdee6c49ba3f646b23bbb0f", "rental_uris": {"android": "https://dc.lft.to/lastmile_qr_scan", "ios": "https://dc.lft.to/lastmile_qr_scan"}, "name": "e4cd9f844cdee6c49ba3f646b23bbb0f", "is_reserved": 0}, {"is_disabled": 0, "fusion_lon": 0.0, "fusion_lat": 0.0, "lat": 38.892839333333335, "type": "electric_scooter", "lon": -76.93722066666666, "bike_id": "afbdd407dd4a59c1060b48c53a9740d7", "rental_uris": {"android": "https://dc.lft.to/lastmile_qr_scan", "ios": "https://dc.lft.to/lastmile_qr_scan"}, "name": "afbdd407dd4a59c1060b48c53a9740d7", "is_reserved": 0}, {"is_disabled": 0, "fusion_lon": 0.0, "fusion_lat": 0.0, "lat": 38.88673383333333, "type": "electric_scooter", "lon": -77.01975083333333, "bike_id": "a23fab5970fb1492aa596c0d2d800848", "rental_uris": {"android": "https://dc.lft.to/lastmile_qr_scan", "ios": "https://dc.lft.to/lastmile_qr_scan"}, "name": "a23fab5970fb1492aa596c0d2d800848", "is_reserved": 0}, {"is_disabled": 0, "fusion_lon": 0.0, "fusion_lat": 0.0, "lat": 38.91765933333333, "type": "electric_scooter", "lon": -77.04057433333334, "bike_id": "e6e76249902451c29d4220065e7352e9", "rental_uris": {"android": "https://dc.lft.to/lastmile_qr_scan", "ios": "https://dc.lft.to/lastmile_qr_scan"}, "name": "e6e76249902451c29d4220065e7352e9", "is_reserved": 0}, {"is_disabled": 0, "fusion_lon": 0.0, "fusion_lat": 0.0, "lat": 38.909995333333335, "type": "electric_scooter", "lon": -77.03741233333334, "bike_id": "8471a8d34eb7b30b97025c3879002ad4", "rental_uris": {"android": "https://dc.lft.to/lastmile_qr_scan", "ios": "https://dc.lft.to/lastmile_qr_scan"}, "name": "8471a8d34eb7b30b97025c3879002ad4", "is_reserved": 0}, {"is_disabled": 0, "fusion_lon": 0.0, "fusion_lat": 0.0, "lat": 38.930896, "type": "electric_scooter", "lon": -77.03275016666667, "bike_id": "0062dc387d94f91bc542b2747a90417e", "rental_uris": {"android": "https://dc.lft.to/lastmile_qr_scan", "ios": "https://dc.lft.to/lastmile_qr_scan"}, "name": "0062dc387d94f91bc542b2747a90417e", "is_reserved": 0}, {"is_disabled": 0, "fusion_lon": 0.0, "fusion_lat": 0.0, "lat": 38.903894666666666, "type": "electric_scooter", "lon": -77.043598, "bike_id": "1e2f6a881ff42e4771975864b0647ff5", "rental_uris": {"android": "https://dc.lft.to/lastmile_qr_scan", "ios": "https://dc.lft.to/lastmile_qr_scan"}, "name": "1e2f6a881ff42e4771975864b0647ff5", "is_reserved": 0}, {"is_disabled": 0, "fusion_lon": 0.0, "fusion_lat": 0.0, "lat": 38.91406833333333, "type": "electric_scooter", "lon": -77.0413065, "bike_id": "79180574c33767a700b04e2838822718", "rental_uris": {"android": "https://dc.lft.to/lastmile_qr_scan", "ios": "https://dc.lft.to/lastmile_qr_scan"}, "name": "79180574c33767a700b04e2838822718", "is_reserved": 0}, {"is_disabled": 0, "fusion_lon": 0.0, "fusion_lat": 0.0, "lat": 38.884345, "type": "electric_scooter", "lon": -77.02972733333333, "bike_id": "3a1363c41d67003efcc9193beb2548a4", "rental_uris": {"android": "https://dc.lft.to/lastmile_qr_scan", "ios": "https://dc.lft.to/lastmile_qr_scan"}, "name": "3a1363c41d67003efcc9193beb2548a4", "is_reserved": 0},