{"data": {"bikes": [{"is_disabled": 0, "is_reserved": 0, "fusion_lat": 0.0, "lat": 38.917654166666665, "fusion_lon": 0.0, "rental_uris": {"ios": "https://dc.lft.to/lastmile_qr_scan", "android": "https://dc.lft.to/lastmile_qr_scan"}, "lon": -77.02958766666667, "bike_id": "b14b9244a8fe3047ef26d32a9f9ec8c6", "type": "electric_scooter", "name": "b14b9244a8fe3047ef26d32a9f9ec8c6"}, {"is_disabled": 0, "is_reserved": 0, "fusion_lat": 0.0, "lat": 38.97443633333334, "fusion_lon": 0.0, "rental_uris": {"ios": "https://dc.lft.to/lastmile_qr_scan", "android": "https://dc.lft.to/lastmile_qr_scan"}, "lon": -77.09587666666667, "bike_id": "98c42ed7adcf537a2936bb6d55f6e951", "type": "electric_bike", "name": "98c42ed7adcf537a2936bb6d55f6e951"}, {"is_disabled": 0, "is_reserved": 0, "fusion_lat": 0.0, "lat": 38.92310966666667, "fusion_lon": 0.0, "rental_uris": {"ios": "https://dc.lft.to/lastmile_qr_scan", "android": "https://dc.lft.to/lastmile_qr_scan"}, "lon": -77.03407116666666, "bike_id": "17b495571bbb44bf44c254ba230d303e", "type": "electric_scooter", "name": "17b495571bbb44bf44c254ba230d303e"}, {"is_disabled": 0, "is_reserved": 0, "fusion_lat": 0.0, "lat": 38.9097635, "fusion_lon": 0.0, "rental_uris": {"ios": "https://dc.lft.to/lastmile_qr_scan", "android": "https://dc.lft.to/lastmile_qr_scan"}, "lon": -77.03335766666666, "bike_id": "3e45fe445d9976fcf0e6f0af7adf2243", "type": "electric_scooter", "name": "3e45fe445d9976fcf0e6f0af7adf2243"}, {"is_disabled": 0, "is_reserved": 0, "fusion_lat": 0.0, "lat": 38.87661633333333, "fusion_lon": 0.0, "rental_uris": {"ios": "https://dc.lft.to/lastmile_qr_scan", "android": "https://dc.lft.to/lastmile_qr_scan"}, "lon": -77.008799, "bike_id": "f12e0a9dfb694a3422b2a61470ed3103", "type": "electric_scooter", "name": "f12e0a9dfb694a3422b2a61470ed3103"}, {"is_disabled": 0, "is_reserved": 0, "fusion_lat": 0.0, "lat": 38.922243, "fusion_lon": 0.0, "rental_uris": {"ios": "https://dc.lft.to/lastmile_qr_scan", "android": "https://dc.lft.to/lastmile_qr_scan"}, "lon": -77.04250633333334, "bike_id": "3ec9d12a4344e06d9012a281ecbc2fcb", "type": "electric_scooter", "name": "3ec9d12a4344e06d9012a281ecbc2fcb"}, {"is_disabled": 0, "is_reserved": 0, "fusion_lat": 0.0, "lat": 38.92848433333333, "fusion_lon": 0.0, "rental_uris": {"ios": "https://dc.lft.to/lastmile_qr_scan", "android": "https://dc.lft.to/lastmile_qr_scan"}, "lon": -77.029656, "bike_id": "a1ac961854950fb9b72c853edda53c0e", "type": "electric_scooter", "name": "a1ac961854950fb9b72c853edda53c0e"}, {"is_disabled": 0, "is_reserved": 0, "fusion_lat": 0.0, "lat": 38.917773833333335, "fusion_lon": 0.0, "rental_uris": {"ios": "https://dc.lft.to/lastmile_qr_scan", "android": "https://dc.lft.to/lastmile_qr_scan"}, "lon": -77.04543183333334, "bike_id": "47f23112e72f80413619550c69fd1167", "type": "electric_scooter", "name": "47f23112e72f80413619550c69fd1167"}, {"is_disabled": 0, "is_reserved": 0, "fusion_lat": 0.0, "lat": 38.89670016666667, "fusion_lon": 0.0, "rental_uris": {"ios": "https://dc.lft.to/lastmile_qr_scan", "android": "https://dc.lft.to/lastmile_qr_scan"}, "lon": -76.93212066666666, "bike_id": "5e9942ff20a351609077c3f3d56bae6a", "type": "electric_bike", "name": "5e9942ff20a351609077c3f3d56bae6a"}, {"is_disabled": 0, "is_reserved": 0, "fusion_lat": 0.0, "lat": 38.934128, "fusion_lon": 0.0, "rental_uris": {"ios": "https://dc.lft.to/lastmile_qr_scan", "android": "https://dc.lft.to/lastmile_qr_scan"}, "lon": -77.072262, "bike_id": "d63280ac53ddffb64d9720b6bfe83cfc", "type": "electric_scooter", "name": "d63280ac53ddffb64d9720b6bfe83cfc"}, {"is_disabled": 0, "is_reserved": 0, "fusion_lat": 0.0, "lat": 38.903430666666665, "fusion_lon": 0.0, "rental_uris": {"ios": "https://dc.lft.to/lastmile_qr_scan", "android": "https://dc.lft.to/lastmile_qr_scan"}, "lon": -76.98277266666666, "bike_id": "371cd96911b3e1cfb8c69f2e7fa2bf69", "type": "electric_scooter", "name": "371cd96911b3e1cfb8c69f2e7fa2bf69"}, {"is_disabled": 0, "is_reserved": 0, "fusion_lat": 0.0, "lat": 38.84290033333333, "fusion_lon": 0.0, "rental_uris": {"ios": "https://dc.lft.to/lastmile_qr_scan", "android": "https://dc.lft.to/lastmile_qr_scan"}, "lon": -77.06381716666667, "bike_id": "d630cba9566d406bc6967aa04936aead", "type": "electric_bike", "name": "d630cba9566d406bc6967aa04936aead"}, {"is_disabled": 0, "is_reserved": 0, "fusion_lat": 0.0, "lat": 38.91420183333334, "fusion_lon": 0.0, "rental_uris": {"ios": "https://dc.lft.to/lastmile_qr_scan", "android": "https://dc.lft.to/lastmile_qr_scan"}, "lon": -77.0317765, "bike_id": "e0bcfea554fb52556e94dd488758fcc7", "type": "electric_scooter", "name": "e0bcfea554fb52556e94dd488758fcc7"}, {"is_disabled": 0, "is_reserved": 0, "fusion_lat": 0.0, "lat": 38.987219, "fusion_lon": 0.0, "rental_uris": {"ios": "https://dc.lft.to/lastmile_qr_scan", "android": "https://dc.lft.to/lastmile_qr_scan"}, "lon": -77.037536, "bike_id": "565d8870d32687f0df10432390df3596", "type": "electric_bike", "name": "565d8870d32687f0df10432390df3596"}, {"is_disabled": 0, "is_reserved": 0, "fusion_lat": 0.0, "lat": 38.898424166666665, "fusion_lon": 0.0, "rental_uris": {"ios": "https://dc.lft.to/lastmile_qr_scan", "android": "https://dc.lft.to/lastmile_qr_scan"}, "lon": -77.02231416666666, "bike_id": "1f588559448f6a3809ca07d54963e189", "type": "electric_scooter", "name": "1f588559448f6a3809ca07d54963e189"}, {"is_disabled": 0, "is_reserved": 0, "fusion_lat": 0.0, "lat": 38.888856, "fusion_lon": 0.0, "rental_uris": {"ios": "https://dc.lft.to/lastmile_qr_scan", "android": "https://dc.lft.to/lastmile_qr_scan"}, "lon": -77.0332195, "bike_id": "95dd66b11997a1ee3969ea7ae3e21f1a", "type": "electric_scooter", "name": "95dd66b11997a1ee3969ea7ae3e21f1a"}, {"is_disabled": 0, "is_reserved": 0, "fusion_lat": 0.0, "lat": 38.8813405, "fusion_lon": 0.0, "rental_uris": {"ios": "https://dc.lft.to/lastmile_qr_scan", "android": "https://dc.lft.to/lastmile_qr_scan"}, "lon": -77.02707916666667, "bike_id": "7c733819cfad8ca9ef33fa33026c2c6a", "type": "electric_scooter", "name": "7c733819cfad8ca9ef33fa33026c2c6a"}, {"is_disabled": 0, "is_reserved": 0, "fusion_lat": 0.0, "lat": 38.9760065, "fusion_lon": 0.0, "rental_uris": {"ios": "https://dc.lft.to/lastmile_qr_scan", "android": "https://dc.lft.to/lastmile_qr_scan"}, "lon": -77.0186675, "bike_id": "b38966ba4e2274cb4d8e3ca7c9255e57", "type": "electric_scooter", "name": "b38966ba4e2274cb4d8e3ca7c9255e57"}, {"is_disabled": 0, "is_reserved": 0, "fusion_lat": 0.0, "lat": 38.89537116666666, "fusion_lon": 0.0, "rental_uris": {"ios": "https://dc.lft.to/lastmile_qr_scan", "android": "https://dc.lft.to/lastmile_qr_scan"}, "lon": -76.9837475, "bike_id": "6f57747e502d1d4fead0226256b847c1", "type": "electric_scooter", "name": "6f57747e502d1d4fead0226256b847c1"}, {"is_disabled": 0, "is_reserved": 0, "fusion_lat": 0.0, "lat": 38.8772125, "fusion_lon": 0.0, "rental_uris": {"ios": "https://dc.lft.to/lastmile_qr_scan", "android": "https://dc.lft.to/lastmile_qr_scan"}, "lon": -77.01651366666667, "bike_id": "33e31c029b31af06b1ad87ba760db506", "type": "electric_scooter", "name": "33e31c029b31af06b1ad87ba760db506"}, {"is_disabled": 0, "is_reserved": 0, "fusion_lat": 0.0, "lat": 38.961872666666665, "fusion_lon": 0.0, "rental_uris": {"ios": "https://dc.lft.to/lastmile_qr_scan", "android": "https://dc.lft.to/lastmile_qr_scan"}, "lon": -77.0990145, "bike_id": "dfeb658f7f38a5ee030dd8d7cbdc259d", "type": "electric_bike", "name": "dfeb658f7f38a5ee030dd8d7cbdc259d"}, {"is_disabled": 0, "is_reserved": 0, "fusion_lat": 0.0, "lat": 38.892239000000004, "fusion_lon": 0.0, "rental_uris": {"ios": "https://dc.lft.to/lastmile_qr_scan", "android": "https://dc.lft.to/lastmile_qr_scan"}, "lon": -77.04686983333333, "bike_id": "11d85d30bcbcc03425c0f9477555ce2f", "type": "electric_scooter", "name": "11d85d30bcbcc03425c0f9477555ce2f"}, {"is_disabled": 0, "is_reserved": 0, "fusion_lat": 0.0, "lat": 38.91560783333333, "fusion_lon": 0.0, "rental_uris": {"ios": "https://dc.lft.to/lastmile_qr_scan", "android": "https://dc.lft.to/lastmile_qr_scan"}, "lon": -77.03144666666667, "bike_id": "0b4a2ba8b7eb73c04e9cf7036b8bbd42", "type": "electric_scooter", "name": "0b4a2ba8b7eb73c04e9cf7036b8bbd42"}, {"is_disabled": 0, "is_reserved": 0, "fusion_lat": 0.0, "lat": 38.925210166666666, "fusion_lon": 0.0, "rental_uris": {"ios": "https://dc.lft.to/lastmile_qr_scan", "android": "https://dc.lft.to/lastmile_qr_scan"}, "lon": -77.02966333333333, "bike_id": "0505183c7c996c40c8c51cf26ae04f8e", "type": "electric_scooter", "name": "0505183c7c996c40c8c51cf26ae04f8e"}, {"is_disabled": 0, "is_reserved": 0, "fusion_lat": 0.0, "lat": 38.8976055, "fusion_lon": 0.0, "rental_uris": {"ios": "https://dc.lft.to/lastmile_qr_scan", "android": "https://dc.lft.to/lastmile_qr_scan"}, "lon": -77.01896833333333, "bike_id": "4f7a427c11a7b9436b45a502edf651c5", "type": "electric_scooter", "name": "4f7a427c11a7b9436b45a502edf651c5"}, {"is_disabled": 0, "is_reserved": 0, "fusion_lat": 0.0, "lat": 38.8933775, "fusion_lon": 0.0, "rental_uris": {"ios": "https://dc.lft.to/lastmile_qr_scan", "android": "https://dc.lft.to/lastmile_qr_scan"}, "lon": -76.9288915, "bike_id": "20d9e76a8249afc9d8d708fa8ccd1ee8", "type": "electric_scooter", "name": "20d9e76a8249afc9d8d708fa8ccd1ee8"}, {"is_disabled": 0, "is_reserved": 0, "fusion_lat": 0.0, "lat": 38.89881533333333, "fusion_lon": 0.0, "rental_uris": {"ios": "https://dc.lft.to/lastmile_qr_scan", "android": "https://dc.lft.to/lastmile_qr_scan"}, "lon": -76.98677183333334, "bike_id": "e4b450e86015e8ea6d3f68df15812dda", "type": "electric_scooter", "name": "e4b450e86015e8ea6d3f68df15812dda"}, {"is_disabled": 0, "is_reserved": 0, "fusion_lat": 0.0, "lat": 38.91180716666667, "fusion_lon": 0.0, "rental_uris": {"ios": "https://dc.lft.to/lastmile_qr_scan", "android": "https://dc.lft.to/lastmile_qr_scan"}, "lon": -77.0120985, "bike_id": "618e991680beb5020549bf3e09697c48", "type": "electric_scooter", "name": "618e991680beb5020549bf3e09697c48"}, {"is_disabled": 0, "is_reserved": 0, "fusion_lat": 0.0, "lat": 38.91216766666667, "fusion_lon": 0.0, "rental_uris": {"ios": "https://dc.lft.to/lastmile_qr_scan", "android": "https://dc.lft.to/lastmile_qr_scan"}, "lon": -77.03199316666667, "bike_id": "6f38e684d5e53d2e0f817cb4389e1583", "type": "electric_scooter", "name": "6f38e684d5e53d2e0f817cb4389e1583"}, {"is_disabled": 0, "is_reserved": 0, "fusion_lat": 0.0, "lat": 38.934583, "fusion_lon": 0.0, "rental_uris": {"ios": "https://dc.lft.to/lastmile_qr_scan", "android": "https://dc.lft.to/lastmile_qr_scan"}, "lon": -77.029157, "bike_id": "ad79b92bc2412eb35fb5532107095ab7", "type": "electric_scooter", "name": "ad79b92bc2412eb35fb5532107095ab7"}, {"is_disabled": 0, "is_reserved": 0, "fusion_lat": 0.0, "lat": 38.92840016666667, "fusion_lon": 0.0, "rental_uris": {"ios": "https://dc.lft.to/lastmile_qr_scan", "android": "https://dc.lft.to/lastmile_qr_scan"}, "lon": -77.05954483333333, "bike_id": "09a1de49a0d64e0b456d42be27e09b83", "type": "electric_bike", "name": "09a1de49a0d64e0b456d42be27e09b83"}, {"is_disabled": 0, "is_reserved": 0, "fusion_lat": 0.0, "lat": 38.92052533333333, "fusion_lon": 0.0, "rental_uris": {"ios": "https://dc.lft.to/lastmile_qr_scan", "android": "https://dc.lft.to/lastmile_qr_scan"}, "lon": -77.0242365, "bike_id": "bd949446dd941b38f33b729ff4382df3", "type": "electric_bike", "name": "bd949446dd941b38f33b729ff4382df3"}, {"is_disabled": 0, "is_reserved": 0, "fusion_lat": 0.0, "lat": 38.889762166666664, "fusion_lon": 0.0, "rental_uris": {"ios": "https://dc.lft.to/lastmile_qr_scan", "android": "https://dc.lft.to/lastmile_qr_scan"}, "lon": -76.98179616666667, "bike_id": "042d27bb6e212ce55ab4f8963bb15fe4", "type": "electric_scooter", "name": "042d27bb6e212ce55ab4f8963bb15fe4"}, {"is_disabled": 0, "is_reserved": 0, "fusion_lat": 0.0, "lat": 38.91652966666667, "fusion_lon": 0.0, "rental_uris": {"ios": "https://dc.lft.to/lastmile_qr_scan", "android": "https://dc.lft.to/lastmile_qr_scan"}, "lon": -77.04664716666667, "bike_id": "3cf46e5aee788f66d27c60587b1eec88", "type": "electric_scooter", "name": "3cf46e5aee788f66d27c60587b1eec88"}, {"is_disabled": 0, "is_reserved": 0, "fusion_lat": 0.0, "lat": 38.90175116666666, "fusion_lon": 0.0, "rental_uris": {"ios": "https://dc.lft.to/lastmile_qr_scan", "android": "https://dc.lft.to/lastmile_qr_scan"}, "lon": -77.0248425, "bike_id": "69f75a7e5cb40d12456a97fffc5dc3ae", "type": "electric_scooter", "name": "69f75a7e5cb40d12456a97fffc5dc3ae"}, {"is_disabled": 0, "is_reserved": 0, "fusion_lat": 0.0, "lat": 38.92524733333333, "fusion_lon": 0.0, "rental_uris": {"ios": "https://dc.lft.to/lastmile_qr_scan", "android": "https://dc.lft.to/lastmile_qr_scan"}, "lon": -77.0388345, "bike_id": "ddf39ef85d393496f67fa57bc5a946a2", "type": "electric_scooter", "name": "ddf39ef85d393496f67fa57bc5a946a2"}, {"is_disabled": 0, "is_reserved": 0, "fusion_lat": 0.0, "lat": 38.92347016666667, "fusion_lon": 0.0, "rental_uris": {"ios": "https://dc.lft.to/lastmile_qr_scan", "android": "https://dc.lft.to/lastmile_qr_scan"}, "lon": -77.03528866666667, "bike_id": "4be7b303fc2fea7ee4ac0ebc712f53cc", "type": "electric_scooter", "name": "4be7b303fc2fea7ee4ac0ebc712f53cc"}, {"is_disabled": 0, "is_reserved": 0, "fusion_lat": 0.0, "lat": 38.92873866666667, "fusion_lon": 0.0, "rental_uris": {"ios": "https://dc.lft.to/lastmile_qr_scan", "android": "https://dc.lft.to/lastmile_qr_scan"}, "lon": -77.034419, "bike_id": "3480451215d10058530b4d458b55e281", "type": "electric_scooter", "name": "3480451215d10058530b4d458b55e281"}, {"is_disabled": 0, "is_reserved": 0, "fusion_lat": 0.0, "lat": 38.9132595, "fusion_lon": 0.0, "rental_uris": {"ios": "https://dc.lft.to/lastmile_qr_scan", "android": "https://dc.lft.to/lastmile_qr_scan"}, "lon": -77.0319295, "bike_id": "b7d72b1903b40bc6ae5def0b619b24ce", "type": "electric_scooter", "name": "b7d72b1903b40bc6ae5def0b619b24ce"}, {"is_disabled": 0, "is_reserved": 0, "fusion_lat": 0.0, "lat": 38.87927716666667, "fusion_lon": 0.0, "rental_uris": {"ios": "https://dc.lft.to/lastmile_qr_scan", "android": "https://dc.lft.to/lastmile_qr_scan"}, "lon": -77.02373533333333, "bike_id": "13799e7db704da19bd1a8c35403d849a", "type": "electric_scooter", "name": "13799e7db704da19bd1a8c35403d849a"}, {"is_disabled": 0, "is_reserved": 0, "fusion_lat": 0.0, "lat": 38.91312666666666, "fusion_lon": 0.0, "rental_uris": {"ios": "https://dc.lft.to/lastmile_qr_scan", "android": "https://dc.lft.to/lastmile_qr_scan"}, "lon": -77.008484, "bike_id": "1d49d0b853987f31815f13af09cfdbea", "type": "electric_scooter", "name": "1d49d0b853987f31815f13af09cfdbea"}, {"is_disabled": 0, "is_reserved": 0, "fusion_lat": 0.0, "lat": 38.910028833333335, "fusion_lon": 0.0, "rental_uris": {"ios": "https://dc.lft.to/lastmile_qr_scan", "android": "https://dc.lft.to/lastmile_qr_scan"}, "lon": -76.99408766666667, "bike_id": "cafee6a382a9dc30804b75f75dd2b947", "type": "electric_scooter", "name": "cafee6a382a9dc30804b75f75dd2b947"}, {"is_disabled": 0, "is_reserved": 0, "fusion_lat": 0.0, "lat": 38.8964175, "fusion_lon": 0.0, "rental_uris": {"ios": "https://dc.lft.to/lastmile_qr_scan", "android": "https://dc.lft.to/lastmile_qr_scan"}, "lon": -76.92801583333333, "bike_id": "a14b78f4bbcb92de6192fdc827ea8470", "type": "electric_scooter", "name": "a14b78f4bbcb92de6192fdc827ea8470"}, {"is_disabled": 0, "is_reserved": 0, "fusion_lat": 0.0, "lat": 38.927086, "fusion_lon": 0.0, "rental_uris": {"ios": "https://dc.lft.to/lastmile_qr_scan", "android": "https://dc.lft.to/lastmile_qr_scan"}, "lon": -77.0381725, "bike_id": "cc3fefdb0f0b3972881439e493adb85f", "type": "electric_scooter", "name": "cc3fefdb0f0b3972881439e493adb85f"}, {"is_disabled": 0, "is_reserved": 0, "fusion_lat": 0.0, "lat": 38.95744833333333, "fusion_lon": 0.0, "rental_uris": {"ios": "https://dc.lft.to/lastmile_qr_scan", "android": "https://dc.lft.to/lastmile_qr_scan"}, "lon": -77.02068816666667, "bike_id": "83579b74cab7dbadea78fb6da15ed2b8", "type": "electric_scooter", "name": "83579b74cab7dbadea78fb6da15ed2b8"}, {"is_disabled": 0, "is_reserved": 0, "fusion_lat": 0.0, "lat": 38.922552833333334, "fusion_lon": 0.0, "rental_uris": {"ios": "https://dc.lft.to/lastmile_qr_scan", "android": "https://dc.lft.to/lastmile_qr_scan"}, "lon": -77.03659816666666, "bike_id": "15fe5eaff594d32425b9df9e9c074fa1", "type": "electric_scooter", "name": "15fe5eaff594d32425b9df9e9c074fa1"}, {"is_disabled": 0, "is_reserved": 0, "fusion_lat": 0.0, "lat": 38.983683, "fusion_lon": 0.0, "rental_uris": {"ios": "https://dc.lft.to/lastmile_qr_scan", "android": "https://dc.lft.to/lastmile_qr_scan"}, "lon": -76.98853616666666, "bike_id": "f793ddcd29fff7d85ef934058a2f88dd", "type": "electric_bike", "name": "f793ddcd29fff7d85ef934058a2f88dd"}, {"is_disabled": 0, "is_reserved": 0, "fusion_lat": 0.0, "lat": 38.92331466666667, "fusion_lon": 0.0, "rental_uris": {"ios": "https://dc.lft.to/lastmile_qr_scan", "android": "https://dc.lft.to/lastmile_qr_scan"}, "lon": -77.05680516666666, "bike_id": "7d277d78f1a7411b86a5ba6c6201eb0a", "type": "electric_scooter", "name": "7d277d78f1a7411b86a5ba6c6201eb0a"}, {"is_disabled": 0, "is_reserved": 0, "fusion_lat": 0.0, "lat": 38.84404216666667, "fusion_lon": 0.0, "rental_uris": {"ios": "https://dc.lft.to/lastmile_qr_scan", "android": "https://dc.lft.to/lastmile_qr_scan"}, "lon": -76.99537766666667, "bike_id": "6a0016f3834b6e7bf659a7f5e2bbddb9", "type": "electric_scooter", "name": "6a0016f3834b6e7bf659a7f5e2bbddb9"}, {"is_disabled": 0, "is_reserved": 0, "fusion_lat": 0.0, "lat": 38.894790666666665, "fusion_lon": 0.0, "rental_uris": {"ios": "https://dc.lft.to/lastmile_qr_scan", "android": "https://dc.lft.to/lastmile_qr_scan"}, "lon": -77.04171533333333, "bike_id": "690b322e8dbe119bba52005a318c1ef1", "type": "electric_scooter", "name": "690b322e8dbe119bba52005a318c1ef1"}, {"is_disabled": 0, "is_reserved": 0, "fusion_lat": 0.0, "lat": 38.842253666666664, "fusion_lon": 0.0, "rental_uris": {"ios": "https://dc.lft.to/lastmile_qr_scan", "android": "https://dc.lft.to/lastmile_qr_scan"}, "lon": -76.948911, "bike_id": "17ce4eeb719aa1169d27a1d080064b07", "type": "electric_bike", "name": "17ce4eeb719aa1169d27a1d080064b07"}, {"is_disabled": 0, "is_reserved": 0, "fusion_lat": 0.0, "lat": 38.919236833333336, "fusion_lon": 0.0, "rental_uris": {"ios": "https://dc.lft.to/lastmile_qr_scan", "android": "https://dc.lft.to/lastmile_qr_scan"}, "lon": -77.03423866666667, "bike_id": "bf74e90b2043487a1a70c52b3791df5c", "type": "electric_scooter", "name": "bf74e90b2043487a1a70c52b3791df5c"}, {"is_disabled": 0, "is_reserved": 0, "fusion_lat": 0.0, "lat": 38.85555383333333, "fusion_lon": 0.0, "rental_uris": {"ios": "https://dc.lft.to/lastmile_qr_scan", "android": "https://dc.lft.to/lastmile_qr_scan"}, "lon": -77.06404866666666, "bike_id": "90b2182817c6aaa3fe5e067a4666ca60", "type": "electric_bike", "name": "90b2182817c6aaa3fe5e067a4666ca60"}, {"is_disabled": 0, "is_reserved": 0, "fusion_lat": 0.0, "lat": 38.90265016666667, "fusion_lon": 0.0, "rental_uris": {"ios": "https://dc.lft.to/lastmile_qr_scan", "android": "https://dc.lft.to/lastmile_qr_scan"}, "lon": -77.01759133333333, "bike_id": "5a01af299e5577a585914a6e45983418", "type": "electric_scooter", "name": "5a01af299e5577a585914a6e45983418"}, {"is_disabled": 0, "is_reserved": 0, "fusion_lat": 0.0, "lat": 38.92829416666667, "fusion_lon": 0.0, "rental_uris": {"ios": "https://dc.lft.to/lastmile_qr_scan", "android": "https://dc.lft.to/lastmile_qr_scan"}, "lon": -77.02257166666666, "bike_id": "050403b908b218b5453fc454d1a59269", "type": "electric_scooter", "name": "050403b908b218b5453fc454d1a59269"}, {"is_disabled": 0, "is_reserved": 0, "fusion_lat": 0.0, "lat": 38.914082, "fusion_lon": 0.0, "rental_uris": {"ios": "https://dc.lft.to/lastmile_qr_scan", "android": "https://dc.lft.to/lastmile_qr_scan"}, "lon": -77.03259183333333, "bike_id": "f2eb0dd608694120fccb119b17a9e084", "type": "electric_scooter", "name": "f2eb0dd608694120fccb119b17a9e084"}, {"is_disabled": 0, "is_reserved": 0, "fusion_lat": 0.0, "lat": 38.857894333333334, "fusion_lon": 0.0, "rental_uris": {"ios": "https://dc.lft.to/lastmile_qr_scan", "android": "https://dc.lft.to/lastmile_qr_scan"}, "lon": -77.09961383333334, "bike_id": "7212dd49f0fa3889abcc99f825fd69e1", "type": "electric_bike", "name": "7212dd49f0fa3889abcc99f825fd69e1"}, {"is_disabled": 0, "is_reserved": 0, "fusion_lat": 0.0, "lat": 38.95588516666667, "fusion_lon": 0.0, "rental_uris": {"ios": "https://dc.lft.to/lastmile_qr_scan", "android": "https://dc.lft.to/lastmile_qr_scan"}, "lon": -77.02806633333333, "bike_id": "41640e0256875ec9ff5111151dc02566", "type": "electric_scooter", "name": "41640e0256875ec9ff5111151dc02566"}, {"is_disabled": 0, "is_reserved": 0, "fusion_lat": 0.0, "lat": 38.907321, "fusion_lon": 0.0, "rental_uris": {"ios": "https://dc.lft.to/lastmile_qr_scan", "android": "https://dc.lft.to/lastmile_qr_scan"}, "lon": -77.027254, "bike_id": "f6fef717ecf30a5a3669c412eca3cacb", "type": "electric_scooter", "name": "f6fef717ecf30a5a3669c412eca3cacb"}, {"is_disabled": 0, "is_reserved": 0, "fusion_lat": 0.0, "lat": 38.95139133333333, "fusion_lon": 0.0, "rental_uris": {"ios": "https://dc.lft.to/lastmile_qr_scan", "android": "https://dc.lft.to/lastmile_qr_scan"}, "lon": -76.966295, "bike_id": "55ffe430c48fa9af13f398c140928d1b", "type": "electric_bike", "name": "55ffe430c48fa9af13f398c140928d1b"}, {"is_disabled": 0, "is_reserved": 0, "fusion_lat": 0.0, "lat": 38.906794, "fusion_lon": 0.0, "rental_uris": {"ios": "https://dc.lft.to/lastmile_qr_scan", "android": "https://dc.lft.to/lastmile_qr_scan"}, "lon": -77.02709416666667, "bike_id": "f98e82ca40791f90a0ef49d6c3821b2c", "type": "electric_scooter", "name": "f98e82ca40791f90a0ef49d6c3821b2c"}, {"is_disabled": 0, "is_reserved": 0, "fusion_lat": 0.0, "lat": 38.907895333333336, "fusion_lon": 0.0, "rental_uris": {"ios": "https://dc.lft.to/lastmile_qr_scan", "android": "https://dc.lft.to/lastmile_qr_scan"}, "lon": -77.072547, "bike_id": "b3002cfa168aaab4798ad121776f9be3", "type": "electric_scooter", "name": "b3002cfa168aaab4798ad121776f9be3"}, {"is_disabled": 0, "is_reserved": 0, "fusion_lat": 0.0, "lat": 38.918088833333336, "fusion_lon": 0.0, "rental_uris": {"ios": "https://dc.lft.to/lastmile_qr_scan", "android": "https://dc.lft.to/lastmile_qr_scan"}, "lon": -77.02496816666667, "bike_id": "bbd009f316ce2564fc11ccfff7e94558", "type": "electric_scooter", "name": "bbd009f316ce2564fc11ccfff7e94558"}, {"is_disabled": 0, "is_reserved": 0, "fusion_lat": 0.0, "lat": 38.905674166666664, "fusion_lon": 0.0, "rental_uris": {"ios": "https://dc.lft.to/lastmile_qr_scan", "android": "https://dc.lft.to/lastmile_qr_scan"}, "lon": -77.06283683333334, "bike_id": "575d5ee828d56a7d9c223b54ecbaf1af", "type": "electric_scooter", "name": "575d5ee828d56a7d9c223b54ecbaf1af"}, {"is_disabled": 0, "is_reserved": 0, "fusion_lat": 0.0, "lat": 38.9125605, "fusion_lon": 0.0, "rental_uris": {"ios": "https://dc.lft.to/lastmile_qr_scan", "android": "https://dc.lft.to/lastmile_qr_scan"}, "lon": -77.03829966666666, "bike_id": "26717da1fb8be2327313576d8f848506", "type": "electric_scooter", "name": "26717da1fb8be2327313576d8f848506"}, {"is_disabled": 0, "is_reserved": 0, "fusion_lat": 0.0, "lat": 38.921103, "fusion_lon": 0.0, "rental_uris": {"ios": "https://dc.lft.to/lastmile_qr_scan", "android": "https://dc.lft.to/lastmile_qr_scan"}, "lon": -77.0222325, "bike_id": "f95d9984feb2d7d31e6cf187b44c88f6", "type": "electric_scooter", "name": "f95d9984feb2d7d31e6cf187b44c88f6"}, {"is_disabled": 0, "is_reserved": 0, "fusion_lat": 0.0, "lat": 38.900034166666664, "fusion_lon": 0.0, "rental_uris": {"ios": "https://dc.lft.to/lastmile_qr_scan", "android": "https://dc.lft.to/lastmile_qr_scan"}, "lon": -77.0272375, "bike_id": "fcb4cde9e023bbc36fb32fe013d27a25", "type": "electric_scooter", "name": "fcb4cde9e023bbc36fb32fe013d27a25"}, {"is_disabled": 0, "is_reserved": 0, "fusion_lat": 0.0, "lat": 38.90510833333333, "fusion_lon": 0.0, "rental_uris": {"ios": "https://dc.lft.to/lastmile_qr_scan", "android": "https://dc.lft.to/lastmile_qr_scan"}, "lon": -76.95205216666666, "bike_id": "b55a554bf35f1807ad20668e4975121e", "type": "electric_scooter", "name": "b55a554bf35f1807ad20668e4975121e"}, {"is_disabled": 0, "is_reserved": 0, "fusion_lat": 0.0, "lat": 38.90037, "fusion_lon": 0.0, "rental_uris": {"ios": "https://dc.lft.to/lastmile_qr_scan", "android": "https://dc.lft.to/lastmile_qr_scan"}, "lon": -77.001992, "bike_id": "f6c3cab6eebbef15e6c30ed2765c91dd", "type": "electric_scooter", "name": "f6c3cab6eebbef15e6c30ed2765c91dd"}, {"is_disabled": 0, "is_reserved": 0, "fusion_lat": 0.0, "lat": 38.919616166666664, "fusion_lon": 0.0, "rental_uris": {"ios": "https://dc.lft.to/lastmile_qr_scan", "android": "https://dc.lft.to/lastmile_qr_scan"}, "lon": -77.0424525, "bike_id": "b95ea00c05b839abaf59a69ff6cca812", "type": "electric_scooter", "name": "b95ea00c05b839abaf59a69ff6cca812"}, {"is_disabled": 0, "is_reserved": 0, "fusion_lat": 0.0, "lat": 38.91120033333333, "fusion_lon": 0.0, "rental_uris": {"ios": "https://dc.lft.to/lastmile_qr_scan", "android": "https://dc.lft.to/lastmile_qr_scan"}, "lon": -77.03869666666667, "bike_id": "58e9d865935db7209f4cdfacf8a53efc", "type": "electric_scooter", "name": "58e9d865935db7209f4cdfacf8a53efc"}, {"is_disabled": 0, "is_reserved": 0, "fusion_lat": 0.0, "lat": 38.914530666666664, "fusion_lon": 0.0, "rental_uris": {"ios": "https://dc.lft.to/lastmile_qr_scan", "android": "https://dc.lft.to/lastmile_qr_scan"}, "lon": -77.02183283333333, "bike_id": "3dffafec4d7fc8656b7cd161fbb727c0", "type": "electric_scooter", "name": "3dffafec4d7fc8656b7cd161fbb727c0"}, {"is_disabled": 0, "is_reserved": 0, "fusion_lat": 0.0, "lat": 38.90085783333333, "fusion_lon": 0.0, "rental_uris": {"ios": "https://dc.lft.to/lastmile_qr_scan", "android": "https://dc.lft.to/lastmile_qr_scan"}, "lon": -77.05027983333333, "bike_id": "305adbe4230fdbc069a64874694eb14f", "type": "electric_scooter", "name": "305adbe4230fdbc069a64874694eb14f"}, {"is_disabled": 0, "is_reserved": 0, "fusion_lat": 0.0, "lat": 38.913552, "fusion_lon": 0.0, "rental_uris": {"ios": "https://dc.lft.to/lastmile_qr_scan", "android": "https://dc.lft.to/lastmile_qr_scan"}, "lon": -77.03201366666667, "bike_id": "9fe3b300cb2c2785d3b69aa81d5d6d52", "type": "electric_scooter", "name": "9fe3b300cb2c2785d3b69aa81d5d6d52"}, {"is_disabled": 0, "is_reserved": 0, "fusion_lat": 0.0, "lat": 38.80483866666667, "fusion_lon": 0.0, "rental_uris": {"ios": "https://dc.lft.to/lastmile_qr_scan", "android": "https://dc.lft.to/lastmile_qr_scan"}, "lon": -76.99106683333333, "bike_id": "3e824f6b46a356b43915fdbe6c8e4f9f", "type": "electric_bike", "name": "3e824f6b46a356b43915fdbe6c8e4f9f"}, {"is_disabled": 0, "is_reserved": 0, "fusion_lat": 0.0, "lat": 38.958875666666664, "fusion_lon": 0.0, "rental_uris": {"ios": "https://dc.lft.to/lastmile_qr_scan", "android": "https://dc.lft.to/lastmile_qr_scan"}, "lon": -76.9809785, "bike_id": "792267a54744b4d1ab4378e22b151f40", "type": "electric_bike", "name": "792267a54744b4d1ab4378e22b151f40"}, {"is_disabled": 0, "is_reserved": 0, "fusion_lat": 0.0, "lat": 38.89645016666667, "fusion_lon": 0.0, "rental_uris": {"ios": "https://dc.lft.to/lastmile_qr_scan", "android": "https://dc.lft.to/lastmile_qr_scan"}, "lon": -77.03206883333333, "bike_id": "9a70757262c0a4e3ba3a81e41ea0cae0", "type": "electric_scooter", "name": "9a70757262c0a4e3ba3a81e41ea0cae0"}, {"is_disabled": 0, "is_reserved": 0, "fusion_lat": 0.0, "lat": 38.8756685, "fusion_lon": 0.0, "rental_uris": {"ios": "https://dc.lft.to/lastmile_qr_scan", "android": "https://dc.lft.to/lastmile_qr_scan"}, "lon": -77.005946, "bike_id": "7571e002e11a5f38ceaaabe809f51bf9", "type": "electric_scooter", "name": "7571e002e11a5f38ceaaabe809f51bf9"}, {"is_disabled": 0, "is_reserved": 0, "fusion_lat": 0.0, "lat": 38.941406666666666, "fusion_lon": 0.0, "rental_uris": {"ios": "https://dc.lft.to/lastmile_qr_scan", "android": "https://dc.lft.to/lastmile_qr_scan"}, "lon": -77.0232965, "bike_id": "d122ddc24e9eb33946f68e586612176d", "type": "electric_scooter", "name": "d122ddc24e9eb33946f68e586612176d"}, {"is_disabled": 0, "is_reserved": 0, "fusion_lat": 0.0, "lat": 38.8950775, "fusion_lon": 0.0, "rental_uris": {"ios": "https://dc.lft.to/lastmile_qr_scan", "android": "https://dc.lft.to/lastmile_qr_scan"}, "lon": -77.022868, "bike_id": "e0d3a41b26f6226bcdd3a1f066987297", "type": "electric_scooter", "name": "e0d3a41b26f6226bcdd3a1f066987297"}, {"is_disabled": 0, "is_reserved": 0, "fusion_lat": 0.0, "lat": 38.905019333333335, "fusion_lon": 0.0, "rental_uris": {"ios": "https://dc.lft.to/lastmile_qr_scan", "android": "https://dc.lft.to/lastmile_qr_scan"}, "lon": -77.065717, "bike_id": "189c99d5d4ce500044f4790c97219331", "type": "electric_scooter", "name": "189c99d5d4ce500044f4790c97219331"}, {"is_disabled": 0, "is_reserved": 0, "fusion_lat": 0.0, "lat": 38.92752566666667, "fusion_lon": 0.0, "rental_uris": {"ios": "https://dc.lft.to/lastmile_qr_scan", "android": "https://dc.lft.to/lastmile_qr_scan"}, "lon": -77.02963916666667, "bike_id": "3512a8ca592db9493ea1545242f03f59", "type": "electric_scooter", "name": "3512a8ca592db9493ea1545242f03f59"}, {"is_disabled": 0, "is_reserved": 0, "fusion_lat": 0.0, "lat": 38.902716, "fusion_lon": 0.0, "rental_uris": {"ios": "https://dc.lft.to/lastmile_qr_scan", "android": "https://dc.lft.to/lastmile_qr_scan"}, "lon": -77.05195816666667, "bike_id": "993081bfcbe2bc2c4099c42786714f1f", "type": "electric_scooter", "name": "993081bfcbe2bc2c4099c42786714f1f"}, {"is_disabled": 0, "is_reserved": 0, "fusion_lat": 0.0, "lat": 38.950953, "fusion_lon": 0.0, "rental_uris": {"ios": "https://dc.lft.to/lastmile_qr_scan", "android": "https://dc.lft.to/lastmile_qr_scan"}, "lon": -77.02962083333334, "bike_id": "23b1028313cca204ed0ad27df71e1c8c", "type": "electric_scooter", "name": "23b1028313cca204ed0ad27df71e1c8c"}, {"is_disabled": 0, "is_reserved": 0, "fusion_lat": 0.0, "lat": 38.89088783333333, "fusion_lon": 0.0, "rental_uris": {"ios": "https://dc.lft.to/lastmile_qr_scan", "android": "https://dc.lft.to/lastmile_qr_scan"}, "lon": -76.95465383333334, "bike_id": "be3cbb082bd3ab11cabaf121426ed734", "type": "electric_bike", "name": "be3cbb082bd3ab11cabaf121426ed734"}, {"is_disabled": 0, "is_reserved": 0, "fusion_lat": 0.0, "lat": 38.922818666666664, "fusion_lon": 0.0, "rental_uris": {"ios": "https://dc.lft.to/lastmile_qr_scan", "android": "https://dc.lft.to/lastmile_qr_scan"}, "lon": -77.03407466666667, "bike_id": "0fe8728ca7a7736e1ce744fbe109654c", "type": "electric_scooter", "name": "0fe8728ca7a7736e1ce744fbe109654c"}, {"is_disabled": 0, "is_reserved": 0, "fusion_lat": 0.0, "lat": 38.93193433333333, "fusion_lon": 0.0, "rental_uris": {"ios": "https://dc.lft.to/lastmile_qr_scan", "android": "https://dc.lft.to/lastmile_qr_scan"}, "lon": -77.01864366666666, "bike_id": "15ba7b0e305284524e8076fdfd3c54fe", "type": "electric_scooter", "name": "15ba7b0e305284524e8076fdfd3c54fe"}, {"is_disabled": 0, "is_reserved": 0, "fusion_lat": 0.0, "lat": 38.92600066666667, "fusion_lon": 0.0, "rental_uris": {"ios": "https://dc.lft.to/lastmile_qr_scan", "android": "https://dc.lft.to/lastmile_qr_scan"}, "lon": -76.98242366666666, "bike_id": "088b0283404e7c01698f3b480117ccaa", "type": "electric_bike", "name": "088b0283404e7c01698f3b480117ccaa"}, {"is_disabled": 0, "is_reserved": 0, "fusion_lat": 0.0, "lat": 38.91822483333333, "fusion_lon": 0.0, "rental_uris": {"ios": "https://dc.lft.to/lastmile_qr_scan", "android": "https://dc.lft.to/lastmile_qr_scan"}, "lon": -77.04517916666667, "bike_id": "171d16b3b75aa25e3c6537e5f4d42af0", "type": "electric_scooter", "name": "171d16b3b75aa25e3c6537e5f4d42af0"}, {"is_disabled": 0, "is_reserved": 0, "fusion_lat": 0.0, "lat": 38.917136, "fusion_lon": 0.0, "rental_uris": {"ios": "https://dc.lft.to/lastmile_qr_scan", "android": "https://dc.lft.to/lastmile_qr_scan"}, "lon": -77.031584, "bike_id": "87d3faeaf14aa4624dd83cc2c1afe09c", "type": "electric_scooter", "name": "87d3faeaf14aa4624dd83cc2c1afe09c"}, {"is_disabled": 0, "is_reserved": 0, "fusion_lat": 0.0, "lat": 38.92029516666667, "fusion_lon": 0.0, "rental_uris": {"ios": "https://dc.lft.to/lastmile_qr_scan", "android": "https://dc.lft.to/lastmile_qr_scan"}, "lon": -76.99562983333334, "bike_id": "15c579412c77de50bf792415fa8ed8da", "type": "electric_scooter", "name": "15c579412c77de50bf792415fa8ed8da"}, {"is_disabled": 0, "is_reserved": 0, "fusion_lat": 0.0, "lat": 38.956377, "fusion_lon": 0.0, "rental_uris": {"ios": "https://dc.lft.to/lastmile_qr_scan", "android": "https://dc.lft.to/lastmile_qr_scan"}, "lon": -77.03631716666666, "bike_id": "b1577da947d73b64a0e3ca5c71721082", "type": "electric_scooter", "name": "b1577da947d73b64a0e3ca5c71721082"}, {"is_disabled": 0, "is_reserved": 0, "fusion_lat": 0.0, "lat": 38.88712133333333, "fusion_lon": 0.0, "rental_uris": {"ios": "https://dc.lft.to/lastmile_qr_scan", "android": "https://dc.lft.to/lastmile_qr_scan"}, "lon": -76.99615566666667, "bike_id": "3757e21d8dfb7b1ac95127ebdb98cfb6", "type": "electric_scooter", "name": "3757e21d8dfb7b1ac95127ebdb98cfb6"}, {"is_disabled": 0, "is_reserved": 0, "fusion_lat": 0.0, "lat": 38.92200416666667, "fusion_lon": 0.0, "rental_uris": {"ios": "https://dc.lft.to/lastmile_qr_scan", "android": "https://dc.lft.to/lastmile_qr_scan"}, "lon": -77.04257066666666, "bike_id": "94dbec3a622730aedaf7023199bbfea5", "type": "electric_scooter", "name": "94dbec3a622730aedaf7023199bbfea5"}, {"is_disabled": 0, "is_reserved": 0, "fusion_lat": 0.0, "lat": 38.9086475, "fusion_lon": 0.0, "rental_uris": {"ios": "https://dc.lft.to/lastmile_qr_scan", "android": "https://dc.lft.to/lastmile_qr_scan"}, "lon": -77.04736, "bike_id": "753d8689424bf55bb9b7474625c2f11a", "type": "electric_scooter", "name": "753d8689424bf55bb9b7474625c2f11a"}, {"is_disabled": 0, "is_reserved": 0, "fusion_lat": 0.0, "lat": 38.908587833333335, "fusion_lon": 0.0, "rental_uris": {"ios": "https://dc.lft.to/lastmile_qr_scan", "android": "https://dc.lft.to/lastmile_qr_scan"}, "lon": -77.048301, "bike_id": "cb720defe5367705828dab1361277238", "type": "electric_scooter", "name": "cb720defe5367705828dab1361277238"}, {"is_disabled": 0, "is_reserved": 0, "fusion_lat": 0.0, "lat": 38.89827583333334, "fusion_lon": 0.0, "rental_uris": {"ios": "https://dc.lft.to/lastmile_qr_scan", "android": "https://dc.lft.to/lastmile_qr_scan"}, "lon": -77.02947783333333, "bike_id": "7617061cff98eb302a7ddb5673e65801", "type": "electric_scooter", "name": "7617061cff98eb302a7ddb5673e65801"}, {"is_disabled": 0, "is_reserved": 0, "fusion_lat": 0.0, "lat": 38.974742666666664, "fusion_lon": 0.0, "rental_uris": {"ios": "https://dc.lft.to/lastmile_qr_scan", "android": "https://dc.lft.to/lastmile_qr_scan"}, "lon": -76.98664033333333, "bike_id": "11d5c87c08e73f10743a666df6d0d555", "type": "electric_bike", "name": "11d5c87c08e73f10743a666df6d0d555"}, {"is_disabled": 0, "is_reserved": 0, "fusion_lat": 0.0, "lat": 38.90850866666667, "fusion_lon": 0.0, "rental_uris": {"ios": "https://dc.lft.to/lastmile_qr_scan", "android": "https://dc.lft.to/lastmile_qr_scan"}, "lon": -76.99796816666667, "bike_id": "fb86ecd794c512ef81fa73a8fd821fd8", "type": "electric_scooter", "name": "fb86ecd794c512ef81fa73a8fd821fd8"}, {"is_disabled": 0, "is_reserved": 0, "fusion_lat": 0.0, "lat": 38.905879666666664, "fusion_lon": 0.0, "rental_uris": {"ios": "https://dc.lft.to/lastmile_qr_scan", "android": "https://dc.lft.to/lastmile_qr_scan"}, "lon": -76.98896083333334, "bike_id": "376c81f25406c2ac936ad222c797d608", "type": "electric_scooter", "name": "376c81f25406c2ac936ad222c797d608"}, {"is_disabled": 0, "is_reserved": 0, "fusion_lat": 0.0, "lat": 38.834927666666665, "fusion_lon": 0.0, "rental_uris": {"ios": "https://dc.lft.to/lastmile_qr_scan", "android": "https://dc.lft.to/lastmile_qr_scan"}, "lon": -77.00435066666667, "bike_id": "3cb0683a3822091bab3cb7221bf8300a", "type": "electric_bike", "name": "3cb0683a3822091bab3cb7221bf8300a"}, {"is_disabled": 0, "is_reserved": 0, "fusion_lat": 0.0, "lat": 38.87434733333333, "fusion_lon": 0.0, "rental_uris": {"ios": "https://dc.lft.to/lastmile_qr_scan", "android": "https://dc.lft.to/lastmile_qr_scan"}, "lon": -77.00058916666667, "bike_id": "5a4bdbf7079fa1e823d715946f112789", "type": "electric_scooter", "name": "5a4bdbf7079fa1e823d715946f112789"}, {"is_disabled": 0, "is_reserved": 0, "fusion_lat": 0.0, "lat": 39.029286166666665, "fusion_lon": 0.0, "rental_uris": {"ios": "https://dc.lft.to/lastmile_qr_scan", "android": "https://dc.lft.to/lastmile_qr_scan"}, "lon": -77.01360833333334, "bike_id": "22160f89293e3b5f5a0675c61f4a2551", "type": "electric_bike", "name": "22160f89293e3b5f5a0675c61f4a2551"}, {"is_disabled": 0, "is_reserved": 0, "fusion_lat": 0.0, "lat": 38.84028683333333, "fusion_lon": 0.0, "rental_uris": {"ios": "https://dc.lft.to/lastmile_qr_scan", "android": "https://dc.lft.to/lastmile_qr_scan"}, "lon": -76.97625783333334, "bike_id": "2053288eba493534f70ad0cb300d2264", "type": "electric_bike", "name": "2053288eba493534f70ad0cb300d2264"}, {"is_disabled": 0, "is_reserved": 0, "fusion_lat": 0.0, "lat": 38.92091666666666, "fusion_lon": 0.0, "rental_uris": {"ios": "https://dc.lft.to/lastmile_qr_scan", "android": "https://dc.lft.to/lastmile_qr_scan"}, "lon": -77.02595816666667, "bike_id": "fc5be9a1e95030c0f121a3edab1ad451", "type": "electric_scooter", "name": "fc5be9a1e95030c0f121a3edab1ad451"}, {"is_disabled": 0, "is_reserved": 0, "fusion_lat": 0.0, "lat": 38.87639466666667, "fusion_lon": 0.0, "rental_uris": {"ios": "https://dc.lft.to/lastmile_qr_scan", "android": "https://dc.lft.to/lastmile_qr_scan"}, "lon": -76.99295166666667, "bike_id": "6d6e9949e61cbfd650558d2060c60571", "type": "electric_scooter", "name": "6d6e9949e61cbfd650558d2060c60571"}, {"is_disabled": 0, "is_reserved": 0, "fusion_lat": 0.0, "lat": 38.949248, "fusion_lon": 0.0, "rental_uris": {"ios": "https://dc.lft.to/lastmile_qr_scan", "android": "https://dc.lft.to/lastmile_qr_scan"}, "lon": -77.00799383333333, "bike_id": "551d3d6a5068b03c334ac212f35ba7f8", "type": "electric_bike", "name": "551d3d6a5068b03c334ac212f35ba7f8"}, {"is_disabled": 0, "is_reserved": 0, "fusion_lat": 0.0, "lat": 38.891330333333336, "fusion_lon": 0.0, "rental_uris": {"ios": "https://dc.lft.to/lastmile_qr_scan", "android": "https://dc.lft.to/lastmile_qr_scan"}, "lon": -76.9995235, "bike_id": "fdf102a3c66c754849fea03f4a32db11", "type": "electric_scooter", "name": "fdf102a3c66c754849fea03f4a32db11"}, {"is_disabled": 0, "is_reserved": 0, "fusion_lat": 0.0, "lat": 38.89878383333333, "fusion_lon": 0.0, "rental_uris": {"ios": "https://dc.lft.to/lastmile_qr_scan", "android": "https://dc.lft.to/lastmile_qr_scan"}, "lon": -77.02823916666667, "bike_id": "b27a0020718f21bd9ac64290cdee3177", "type": "electric_scooter", "name": "b27a0020718f21bd9ac64290cdee3177"}, {"is_disabled": 0, "is_reserved": 0, "fusion_lat": 0.0, "lat": 38.9127235, "fusion_lon": 0.0, "rental_uris": {"ios": "https://dc.lft.to/lastmile_qr_scan", "android": "https://dc.lft.to/lastmile_qr_scan"}, "lon": -77.04485966666667, "bike_id": "77e725dd3c4ea7ba9a11f0e287636e1b", "type": "electric_scooter", "name": "77e725dd3c4ea7ba9a11f0e287636e1b"}, {"is_disabled": 0, "is_reserved": 0, "fusion_lat": 0.0, "lat": 38.9065455, "fusion_lon": 0.0, "rental_uris": {"ios": "https://dc.lft.to/lastmile_qr_scan", "android": "https://dc.lft.to/lastmile_qr_scan"}, "lon": -77.01410516666667, "bike_id": "8b9d6f6614d1b294e869f54eeeba581e", "type": "electric_scooter", "name": "8b9d6f6614d1b294e869f54eeeba581e"}, {"is_disabled": 0, "is_reserved": 0, "fusion_lat": 0.0, "lat": 38.90094333333333, "fusion_lon": 0.0, "rental_uris": {"ios": "https://dc.lft.to/lastmile_qr_scan", "android": "https://dc.lft.to/lastmile_qr_scan"}, "lon": -77.04774933333333, "bike_id": "50ee15e206f723313fddc07c6dd42333", "type": "electric_scooter", "name": "50ee15e206f723313fddc07c6dd42333"}, {"is_disabled": 0, "is_reserved": 0, "fusion_lat": 0.0, "lat": 38.905947, "fusion_lon": 0.0, "rental_uris": {"ios": "https://dc.lft.to/lastmile_qr_scan", "android": "https://dc.lft.to/lastmile_qr_scan"}, "lon": -77.06536483333333, "bike_id": "b341b166048364bd4b873322f39317c9", "type": "electric_scooter", "name": "b341b166048364bd4b873322f39317c9"}, {"is_disabled": 0, "is_reserved": 0, "fusion_lat": 0.0, "lat": 38.914168, "fusion_lon": 0.0, "rental_uris": {"ios": "https://dc.lft.to/lastmile_qr_scan", "android": "https://dc.lft.to/lastmile_qr_scan"}, "lon": -77.03175566666667, "bike_id": "40795155f46d8a89a62bb623ce495728", "type": "electric_scooter", "name": "40795155f46d8a89a62bb623ce495728"}, {"is_disabled": 0, "is_reserved": 0, "fusion_lat": 0.0, "lat": 38.91825166666667, "fusion_lon": 0.0, "rental_uris": {"ios": "https://dc.lft.to/lastmile_qr_scan", "android": "https://dc.lft.to/lastmile_qr_scan"}, "lon": -77.0344165, "bike_id": "5be8ba31f8ac23ddd231113d22fa4635", "type": "electric_scooter", "name": "5be8ba31f8ac23ddd231113d22fa4635"}, {"is_disabled": 0, "is_reserved": 0, "fusion_lat": 0.0, "lat": 38.89659366666667, "fusion_lon": 0.0, "rental_uris": {"ios": "https://dc.lft.to/lastmile_qr_scan", "android": "https://dc.lft.to/lastmile_qr_scan"}, "lon": -77.04342683333333, "bike_id": "dcc8b77c90ecb24e7483a38b9719cb92", "type": "electric_scooter", "name": "dcc8b77c90ecb24e7483a38b9719cb92"}, {"is_disabled": 0, "is_reserved": 0, "fusion_lat": 0.0, "lat": 38.91417216666667, "fusion_lon": 0.0, "rental_uris": {"ios": "https://dc.lft.to/lastmile_qr_scan", "android": "https://dc.lft.to/lastmile_qr_scan"}, "lon": -77.02215183333334, "bike_id": "c982544564441c72aa32256f19099973", "type": "electric_scooter", "name": "c982544564441c72aa32256f19099973"}, {"is_disabled": 0, "is_reserved": 0, "fusion_lat": 0.0, "lat": 38.90575366666667, "fusion_lon": 0.0, "rental_uris": {"ios": "https://dc.lft.to/lastmile_qr_scan", "android": "https://dc.lft.to/lastmile_qr_scan"}, "lon": -77.00387833333333, "bike_id": "4bdf7ef3089509aa4251bad4ef055750", "type": "electric_scooter", "name": "4bdf7ef3089509aa4251bad4ef055750"}, {"is_disabled": 0, "is_reserved": 0, "fusion_lat": 0.0, "lat": 38.89926283333333, "fusion_lon": 0.0, "rental_uris": {"ios": "https://dc.lft.to/lastmile_qr_scan", "android": "https://dc.lft.to/lastmile_qr_scan"}, "lon": -77.03220133333333, "bike_id": "b4f475219e34035e5c2c7774a97dabec", "type": "electric_scooter", "name": "b4f475219e34035e5c2c7774a97dabec"}, {"is_disabled": 0, "is_reserved": 0, "fusion_lat": 0.0, "lat": 38.87163966666667, "fusion_lon": 0.0, "rental_uris": {"ios": "https://dc.lft.to/lastmile_qr_scan", "android": "https://dc.lft.to/lastmile_qr_scan"}, "lon": -77.01359816666667, "bike_id": "3d090887bad2ae18200f3fbcfd283a3b", "type": "electric_scooter", "name": "3d090887bad2ae18200f3fbcfd283a3b"}, {"is_disabled": 0, "is_reserved": 0, "fusion_lat": 0.0, "lat": 38.9235525, "fusion_lon": 0.0, "rental_uris": {"ios": "https://dc.lft.to/lastmile_qr_scan", "android": "https://dc.lft.to/lastmile_qr_scan"}, "lon": -77.03370133333334, "bike_id": "5eb2672cb5ebd4c5cd56bdb9978ee7b8", "type": "electric_scooter", "name": "5eb2672cb5ebd4c5cd56bdb9978ee7b8"}, {"is_disabled": 0, "is_reserved": 0, "fusion_lat": 0.0, "lat": 38.88433633333333, "fusion_lon": 0.0, "rental_uris": {"ios": "https://dc.lft.to/lastmile_qr_scan", "android": "https://dc.lft.to/lastmile_qr_scan"}, "lon": -77.02917733333334, "bike_id": "09e66a91a9663c3237bc37edce93ec37", "type": "electric_scooter", "name": "09e66a91a9663c3237bc37edce93ec37"}, {"is_disabled": 0, "is_reserved": 0, "fusion_lat": 0.0, "lat": 38.932552666666666, "fusion_lon": 0.0, "rental_uris": {"ios": "https://dc.lft.to/lastmile_qr_scan", "android": "https://dc.lft.to/lastmile_qr_scan"}, "lon": -77.029679, "bike_id": "922e7ec5528000b1c52fd6cc6df7cb85", "type": "electric_scooter", "name": "922e7ec5528000b1c52fd6cc6df7cb85"}, {"is_disabled": 0, "is_reserved": 0, "fusion_lat": 0.0, "lat": 38.953162166666665, "fusion_lon": 0.0, "rental_uris": {"ios": "https://dc.lft.to/lastmile_qr_scan", "android": "https://dc.lft.to/lastmile_qr_scan"}, "lon": -76.99463, "bike_id": "976ae8d3f80cfb80e1449174f3fd7b4a", "type": "electric_scooter", "name": "976ae8d3f80cfb80e1449174f3fd7b4a"}, {"is_disabled": 0, "is_reserved": 0, "fusion_lat": 0.0, "lat": 38.99989733333334, "fusion_lon": 0.0, "rental_uris": {"ios": "https://dc.lft.to/lastmile_qr_scan", "android": "https://dc.lft.to/lastmile_qr_scan"}, "lon": -76.92493233333333, "bike_id": "ec0e7f61fd343a664bed3cd7bd88deb9", "type": "electric_bike", "name": "ec0e7f61fd343a664bed3cd7bd88deb9"}, {"is_disabled": 0, "is_reserved": 0, "fusion_lat": 0.0, "lat": 38.88522733333333, "fusion_lon": 0.0, "rental_uris": {"ios": "https://dc.lft.to/lastmile_qr_scan", "android": "https://dc.lft.to/lastmile_qr_scan"}, "lon": -76.9771105, "bike_id": "ed50140f0340e6559c0cc93a965fd882", "type": "electric_scooter", "name": "ed50140f0340e6559c0cc93a965fd882"}, {"is_disabled": 0, "is_reserved": 0, "fusion_lat": 0.0, "lat": 38.91822366666667, "fusion_lon": 0.0, "rental_uris": {"ios": "https://dc.lft.to/lastmile_qr_scan", "android": "https://dc.lft.to/lastmile_qr_scan"}, "lon": -77.02703466666667, "bike_id": "a9888f8093f8af7c3d134d3b90cd4b44", "type": "electric_scooter", "name": "a9888f8093f8af7c3d134d3b90cd4b44"}, {"is_disabled": 0, "is_reserved": 0, "fusion_lat": 0.0, "lat": 38.90855416666667, "fusion_lon": 0.0, "rental_uris": {"ios": "https://dc.lft.to/lastmile_qr_scan", "android": "https://dc.lft.to/lastmile_qr_scan"}, "lon": -76.9996645, "bike_id": "7e733fa8b566f4679563d428a1975d8f", "type": "electric_scooter", "name": "7e733fa8b566f4679563d428a1975d8f"}, {"is_disabled": 0, "is_reserved": 0, "fusion_lat": 0.0, "lat": 38.8910255, "fusion_lon": 0.0, "rental_uris": {"ios": "https://dc.lft.to/lastmile_qr_scan", "android": "https://dc.lft.to/lastmile_qr_scan"}, "lon": -76.94298083333334, "bike_id": "70cf065a8afabb82069adc9d5c4c4251", "type": "electric_scooter", "name": "70cf065a8afabb82069adc9d5c4c4251"}, {"is_disabled": 0, "is_reserved": 0, "fusion_lat": 0.0, "lat": 38.924260833333335, "fusion_lon": 0.0, "rental_uris": {"ios": "https://dc.lft.to/lastmile_qr_scan", "android": "https://dc.lft.to/lastmile_qr_scan"}, "lon": -77.02717966666667, "bike_id": "5f1b110b6ccb7818014f0dad568c4020", "type": "electric_scooter", "name": "5f1b110b6ccb7818014f0dad568c4020"}, {"is_disabled": 0, "is_reserved": 0, "fusion_lat": 0.0, "lat": 38.927366, "fusion_lon": 0.0, "rental_uris": {"ios": "https://dc.lft.to/lastmile_qr_scan", "android": "https://dc.lft.to/lastmile_qr_scan"}, "lon": -77.03298616666666, "bike_id": "5f1dc60bdcb0216876289b0c90e3fc74", "type": "electric_scooter", "name": "5f1dc60bdcb0216876289b0c90e3fc74"}, {"is_disabled": 0, "is_reserved": 0, "fusion_lat": 0.0, "lat": 38.9370285, "fusion_lon": 0.0, "rental_uris": {"ios": "https://dc.lft.to/lastmile_qr_scan", "android": "https://dc.lft.to/lastmile_qr_scan"}, "lon": -77.056012, "bike_id": "96b49cd58c085d3165aef94263cdf9c4", "type": "electric_scooter", "name": "96b49cd58c085d3165aef94263cdf9c4"}, {"is_disabled": 0, "is_reserved": 0, "fusion_lat": 0.0, "lat": 38.941818833333336, "fusion_lon": 0.0, "rental_uris": {"ios": "https://dc.lft.to/lastmile_qr_scan", "android": "https://dc.lft.to/lastmile_qr_scan"}, "lon": -77.033939, "bike_id": "767db66c05f219a242f498f683d07856", "type": "electric_scooter", "name": "767db66c05f219a242f498f683d07856"}, {"is_disabled": 0, "is_reserved": 0, "fusion_lat": 0.0, "lat": 38.919147833333334, "fusion_lon": 0.0, "rental_uris": {"ios": "https://dc.lft.to/lastmile_qr_scan", "android": "https://dc.lft.to/lastmile_qr_scan"}, "lon": -77.00988866666667, "bike_id": "371bc9b3d52aadddcadeb8316625d919", "type": "electric_scooter", "name": "371bc9b3d52aadddcadeb8316625d919"}, {"is_disabled": 0, "is_reserved": 0, "fusion_lat": 0.0, "lat": 38.90430583333333, "fusion_lon": 0.0, "rental_uris": {"ios": "https://dc.lft.to/lastmile_qr_scan", "android": "https://dc.lft.to/lastmile_qr_scan"}, "lon": -77.02594766666667, "bike_id": "bf5d287c75661c1902775e6eb72bf87f", "type": "electric_scooter", "name": "bf5d287c75661c1902775e6eb72bf87f"}, {"is_disabled": 0, "is_reserved": 0, "fusion_lat": 0.0, "lat": 38.903857333333335, "fusion_lon": 0.0, "rental_uris": {"ios": "https://dc.lft.to/lastmile_qr_scan", "android": "https://dc.lft.to/lastmile_qr_scan"}, "lon": -77.04837283333333, "bike_id": "56ff8f007da113aafe3c61ad3b604502", "type": "electric_scooter", "name": "56ff8f007da113aafe3c61ad3b604502"}, {"is_disabled": 0, "is_reserved": 0, "fusion_lat": 0.0, "lat": 38.871792666666664, "fusion_lon": 0.0, "rental_uris": {"ios": "https://dc.lft.to/lastmile_qr_scan", "android": "https://dc.lft.to/lastmile_qr_scan"}, "lon": -77.23393783333333, "bike_id": "bf0a37f57526c105f93ab5693b909e53", "type": "electric_bike", "name": "bf0a37f57526c105f93ab5693b909e53"}, {"is_disabled": 0, "is_reserved": 0, "fusion_lat": 0.0, "lat": 38.918067666666666, "fusion_lon": 0.0, "rental_uris": {"ios": "https://dc.lft.to/lastmile_qr_scan", "android": "https://dc.lft.to/lastmile_qr_scan"}, "lon": -77.03435716666667, "bike_id": "482e786c809af45700d75294f6516de9", "type": "electric_scooter", "name": "482e786c809af45700d75294f6516de9"}, {"is_disabled": 0, "is_reserved": 0, "fusion_lat": 0.0, "lat": 38.9190935, "fusion_lon": 0.0, "rental_uris": {"ios": "https://dc.lft.to/lastmile_qr_scan", "android": "https://dc.lft.to/lastmile_qr_scan"}, "lon": -77.021288, "bike_id": "9b47cf9d66e546832a34dcc1e9484f1d", "type": "electric_scooter", "name": "9b47cf9d66e546832a34dcc1e9484f1d"}, {"is_disabled": 0, "is_reserved": 0, "fusion_lat": 0.0, "lat": 38.8923095, "fusion_lon": 0.0, "rental_uris": {"ios": "https://dc.lft.to/lastmile_qr_scan", "android": "https://dc.lft.to/lastmile_qr_scan"}, "lon": -77.03197366666667, "bike_id": "572a4d6bce9e7a68730a53883be69e0f", "type": "electric_scooter", "name": "572a4d6bce9e7a68730a53883be69e0f"}, {"is_disabled": 0, "is_reserved": 0, "fusion_lat": 0.0, "lat": 38.89949983333333, "fusion_lon": 0.0, "rental_uris": {"ios": "https://dc.lft.to/lastmile_qr_scan", "android": "https://dc.lft.to/lastmile_qr_scan"}, "lon": -77.03360533333333, "bike_id": "8217238300c40fde16909e057fa48a9f", "type": "electric_scooter", "name": "8217238300c40fde16909e057fa48a9f"}, {"is_disabled": 0, "is_reserved": 0, "fusion_lat": 0.0, "lat": 38.920775166666665, "fusion_lon": 0.0, "rental_uris": {"ios": "https://dc.lft.to/lastmile_qr_scan", "android": "https://dc.lft.to/lastmile_qr_scan"}, "lon": -77.04201616666667, "bike_id": "1fa00e4d3b5ce4e2b48e959f59fb3cd8", "type": "electric_scooter", "name": "1fa00e4d3b5ce4e2b48e959f59fb3cd8"}, {"is_disabled": 0, "is_reserved": 0, "fusion_lat": 0.0, "lat": 38.912485, "fusion_lon": 0.0, "rental_uris": {"ios": "https://dc.lft.to/lastmile_qr_scan", "android": "https://dc.lft.to/lastmile_qr_scan"}, "lon": -77.01611933333334, "bike_id": "2391d2427a122ce19722de665e7def3f", "type": "electric_scooter", "name": "2391d2427a122ce19722de665e7def3f"}, {"is_disabled": 0, "is_reserved": 0, "fusion_lat": 0.0, "lat": 38.89221516666667, "fusion_lon": 0.0, "rental_uris": {"ios": "https://dc.lft.to/lastmile_qr_scan", "android": "https://dc.lft.to/lastmile_qr_scan"}, "lon": -77.02420666666667, "bike_id": "ddd371655d17b3d5c5f3a8baa1f574be", "type": "electric_scooter", "name": "ddd371655d17b3d5c5f3a8baa1f574be"}, {"is_disabled": 0, "is_reserved": 0, "fusion_lat": 0.0, "lat": 38.89964466666667, "fusion_lon": 0.0, "rental_uris": {"ios": "https://dc.lft.to/lastmile_qr_scan", "android": "https://dc.lft.to/lastmile_qr_scan"}, "lon": -77.04771216666667, "bike_id": "9e0c45a242cff3219990cde503c63ce5", "type": "electric_scooter", "name": "9e0c45a242cff3219990cde503c63ce5"}, {"is_disabled": 0, "is_reserved": 0, "fusion_lat": 0.0, "lat": 38.90532616666667, "fusion_lon": 0.0, "rental_uris": {"ios": "https://dc.lft.to/lastmile_qr_scan", "android": "https://dc.lft.to/lastmile_qr_scan"}, "lon": -77.04115183333333, "bike_id": "426532e87a5779966888115ff1868592", "type": "electric_scooter", "name": "426532e87a5779966888115ff1868592"}, {"is_disabled": 0, "is_reserved": 0, "fusion_lat": 0.0, "lat": 38.923382, "fusion_lon": 0.0, "rental_uris": {"ios": "https://dc.lft.to/lastmile_qr_scan", "android": "https://dc.lft.to/lastmile_qr_scan"}, "lon": -77.056852, "bike_id": "8a3298e612a12352a1dfdd9d594e7846", "type": "electric_scooter", "name": "8a3298e612a12352a1dfdd9d594e7846"}, {"is_disabled": 0, "is_reserved": 0, "fusion_lat": 0.0, "lat": 38.93555683333334, "fusion_lon": 0.0, "rental_uris": {"ios": "https://dc.lft.to/lastmile_qr_scan", "android": "https://dc.lft.to/lastmile_qr_scan"}, "lon": -77.07704516666666, "bike_id": "55145aec7453f8a45f772e1c12c22a68", "type": "electric_scooter", "name": "55145aec7453f8a45f772e1c12c22a68"}, {"is_disabled": 0, "is_reserved": 0, "fusion_lat": 0.0, "lat": 38.8917915, "fusion_lon": 0.0, "rental_uris": {"ios": "https://dc.lft.to/lastmile_qr_scan", "android": "https://dc.lft.to/lastmile_qr_scan"}, "lon": -77.03178433333333, "bike_id": "e9771f3d540857773db3abdfb5b922ff", "type": "electric_scooter", "name": "e9771f3d540857773db3abdfb5b922ff"}, {"is_disabled": 0, "is_reserved": 0, "fusion_lat": 0.0, "lat": 38.92589983333333, "fusion_lon": 0.0, "rental_uris": {"ios": "https://dc.lft.to/lastmile_qr_scan", "android": "https://dc.lft.to/lastmile_qr_scan"}, "lon": -77.04408633333334, "bike_id": "7700d6596f74fa4f2d7bb7bef1c7d26a", "type": "electric_scooter", "name": "7700d6596f74fa4f2d7bb7bef1c7d26a"}, {"is_disabled": 0, "is_reserved": 0, "fusion_lat": 0.0, "lat": 38.89232416666667, "fusion_lon": 0.0, "rental_uris": {"ios": "https://dc.lft.to/lastmile_qr_scan", "android": "https://dc.lft.to/lastmile_qr_scan"}, "lon": -77.03203033333334, "bike_id": "0d415621b578c80e5122749beb206d8f", "type": "electric_scooter", "name": "0d415621b578c80e5122749beb206d8f"}, {"is_disabled": 0, "is_reserved": 0, "fusion_lat": 0.0, "lat": 38.9141995, "fusion_lon": 0.0, "rental_uris": {"ios": "https://dc.lft.to/lastmile_qr_scan", "android": "https://dc.lft.to/lastmile_qr_scan"}, "lon": -77.03173983333333, "bike_id": "725cf5a6ad2594ad5e42fc6ac0cf0241", "type": "electric_scooter", "name": "725cf5a6ad2594ad5e42fc6ac0cf0241"}, {"is_disabled": 0, "is_reserved": 0, "fusion_lat": 0.0, "lat": 38.924786166666664, "fusion_lon": 0.0, "rental_uris": {"ios": "https://dc.lft.to/lastmile_qr_scan", "android": "https://dc.lft.to/lastmile_qr_scan"}, "lon": -77.02837783333334, "bike_id": "3a2e995e93acd105dce11ae1c875af48", "type": "electric_scooter", "name": "3a2e995e93acd105dce11ae1c875af48"}, {"is_disabled": 0, "is_reserved": 0, "fusion_lat": 0.0, "lat": 38.913251833333334, "fusion_lon": 0.0, "rental_uris": {"ios": "https://dc.lft.to/lastmile_qr_scan", "android": "https://dc.lft.to/lastmile_qr_scan"}, "lon": -77.03191466666667, "bike_id": "33c0eb5c9a1d6160d7b606b218d52334", "type": "electric_scooter", "name": "33c0eb5c9a1d6160d7b606b218d52334"}, {"is_disabled": 0, "is_reserved": 0, "fusion_lat": 0.0, "lat": 38.9385685, "fusion_lon": 0.0, "rental_uris": {"ios": "https://dc.lft.to/lastmile_qr_scan", "android": "https://dc.lft.to/lastmile_qr_scan"}, "lon": -76.99434866666667, "bike_id": "003faf46ef9538b938082480298e4c69", "type": "electric_scooter", "name": "003faf46ef9538b938082480298e4c69"}, {"is_disabled": 0, "is_reserved": 0, "fusion_lat": 0.0, "lat": 38.91682616666667, "fusion_lon": 0.0, "rental_uris": {"ios": "https://dc.lft.to/lastmile_qr_scan", "android": "https://dc.lft.to/lastmile_qr_scan"}, "lon": -77.0297345, "bike_id": "de3ec10619a934db1b9641eb274aaafd", "type": "electric_scooter", "name": "de3ec10619a934db1b9641eb274aaafd"}, {"is_disabled": 0, "is_reserved": 0, "fusion_lat": 0.0, "lat": 38.8717245, "fusion_lon": 0.0, "rental_uris": {"ios": "https://dc.lft.to/lastmile_qr_scan", "android": "https://dc.lft.to/lastmile_qr_scan"}, "lon": -77.006261, "bike_id": "190d0f1415805538b89c9b6e9326beb0", "type": "electric_scooter", "name": "190d0f1415805538b89c9b6e9326beb0"}, {"is_disabled": 0, "is_reserved": 0, "fusion_lat": 0.0, "lat": 38.911999333333334, "fusion_lon": 0.0, "rental_uris": {"ios": "https://dc.lft.to/lastmile_qr_scan", "android": "https://dc.lft.to/lastmile_qr_scan"}, "lon": -76.98773733333333, "bike_id": "6dbb3c3a110d7a11af2bb02522c169bc", "type": "electric_scooter", "name": "6dbb3c3a110d7a11af2bb02522c169bc"}, {"is_disabled": 0, "is_reserved": 0, "fusion_lat": 0.0, "lat": 38.9221965, "fusion_lon": 0.0, "rental_uris": {"ios": "https://dc.lft.to/lastmile_qr_scan", "android": "https://dc.lft.to/lastmile_qr_scan"}, "lon": -77.04245466666667, "bike_id": "06429584f09f5a3de9ccf1b28404f5a4", "type": "electric_scooter", "name": "06429584f09f5a3de9ccf1b28404f5a4"}, {"is_disabled": 0, "is_reserved": 0, "fusion_lat": 0.0, "lat": 38.892498333333336, "fusion_lon": 0.0, "rental_uris": {"ios": "https://dc.lft.to/lastmile_qr_scan", "android": "https://dc.lft.to/lastmile_qr_scan"}, "lon": -76.98548483333333, "bike_id": "520f2a14dec689526f4e203682d98300", "type": "electric_bike", "name": "520f2a14dec689526f4e203682d98300"}, {"is_disabled": 0, "is_reserved": 0, "fusion_lat": 0.0, "lat": 38.970326666666665, "fusion_lon": 0.0, "rental_uris": {"ios": "https://dc.lft.to/lastmile_qr_scan", "android": "https://dc.lft.to/lastmile_qr_scan"}, "lon": -77.02236466666666, "bike_id": "1e28d9330a10b55cd3768383ee071d0c", "type": "electric_bike", "name": "1e28d9330a10b55cd3768383ee071d0c"}, {"is_disabled": 0, "is_reserved": 0, "fusion_lat": 0.0, "lat": 38.91619, "fusion_lon": 0.0, "rental_uris": {"ios": "https://dc.lft.to/lastmile_qr_scan", "android": "https://dc.lft.to/lastmile_qr_scan"}, "lon": -77.00290466666667, "bike_id": "3ee420335bebda72bbea61178aefd18b", "type": "electric_bike", "name": "3ee420335bebda72bbea61178aefd18b"}, {"is_disabled": 0, "is_reserved": 0, "fusion_lat": 0.0, "lat": 38.92152166666666, "fusion_lon": 0.0, "rental_uris": {"ios": "https://dc.lft.to/lastmile_qr_scan", "android": "https://dc.lft.to/lastmile_qr_scan"}, "lon": -77.03871583333333, "bike_id": "879b279a2dd79ac26710143b4d906572", "type": "electric_scooter", "name": "879b279a2dd79ac26710143b4d906572"}, {"is_disabled": 0, "is_reserved": 0, "fusion_lat": 0.0, "lat": 38.84195666666667, "fusion_lon": 0.0, "rental_uris": {"ios": "https://dc.lft.to/lastmile_qr_scan", "android": "https://dc.lft.to/lastmile_qr_scan"}, "lon": -77.07751333333333, "bike_id": "36a3e7499bab46108535e80e683a0f85", "type": "electric_bike", "name": "36a3e7499bab46108535e80e683a0f85"}, {"is_disabled": 0, "is_reserved": 0, "fusion_lat": 0.0, "lat": 38.9329105, "fusion_lon": 0.0, "rental_uris": {"ios": "https://dc.lft.to/lastmile_qr_scan", "android": "https://dc.lft.to/lastmile_qr_scan"}, "lon": -77.03615083333334, "bike_id": "8548ff23127700951de358f6c5b624d7", "type": "electric_scooter", "name": "8548ff23127700951de358f6c5b624d7"}, {"is_disabled": 0, "is_reserved": 0, "fusion_lat": 0.0, "lat": 38.905262666666665, "fusion_lon": 0.0, "rental_uris": {"ios": "https://dc.lft.to/lastmile_qr_scan", "android": "https://dc.lft.to/lastmile_qr_scan"}, "lon": -77.06614883333333, "bike_id": "c33e380275e07d72947353431280c0dc", "type": "electric_scooter", "name": "c33e380275e07d72947353431280c0dc"}, {"is_disabled": 0, "is_reserved": 0, "fusion_lat": 0.0, "lat": 38.881397166666666, "fusion_lon": 0.0, "rental_uris": {"ios": "https://dc.lft.to/lastmile_qr_scan", "android": "https://dc.lft.to/lastmile_qr_scan"}, "lon": -77.02277116666667, "bike_id": "0dc0935b52ed3d0e5b6b8f5eb24063f5", "type": "electric_scooter", "name": "0dc0935b52ed3d0e5b6b8f5eb24063f5"}, {"is_disabled": 0, "is_reserved": 0, "fusion_lat": 0.0, "lat": 38.92854166666667, "fusion_lon": 0.0, "rental_uris": {"ios": "https://dc.lft.to/lastmile_qr_scan", "android": "https://dc.lft.to/lastmile_qr_scan"}, "lon": -77.0141035, "bike_id": "a9b483aa4cf621bf740afdc15a086e29", "type": "electric_scooter", "name": "a9b483aa4cf621bf740afdc15a086e29"}, {"is_disabled": 0, "is_reserved": 0, "fusion_lat": 0.0, "lat": 38.899809833333336, "fusion_lon": 0.0, "rental_uris": {"ios": "https://dc.lft.to/lastmile_qr_scan", "android": "https://dc.lft.to/lastmile_qr_scan"}, "lon": -77.029454, "bike_id": "975aa33871e835c250f1db0645b89fb6", "type": "electric_scooter", "name": "975aa33871e835c250f1db0645b89fb6"}, {"is_disabled": 0, "is_reserved": 0, "fusion_lat": 0.0, "lat": 38.88303833333333, "fusion_lon": 0.0, "rental_uris": {"ios": "https://dc.lft.to/lastmile_qr_scan", "android": "https://dc.lft.to/lastmile_qr_scan"}, "lon": -76.94855216666667, "bike_id": "05b0b1849d453cbf7727a8f7c3f3f832", "type": "electric_scooter", "name": "05b0b1849d453cbf7727a8f7c3f3f832"}, {"is_disabled": 0, "is_reserved": 0, "fusion_lat": 0.0, "lat": 38.909581833333334, "fusion_lon": 0.0, "rental_uris": {"ios": "https://dc.lft.to/lastmile_qr_scan", "android": "https://dc.lft.to/lastmile_qr_scan"}, "lon": -77.022812, "bike_id": "bbb737eadd1b6ba71c6a76726558d4fc", "type": "electric_scooter", "name": "bbb737eadd1b6ba71c6a76726558d4fc"}, {"is_disabled": 0, "is_reserved": 0, "fusion_lat": 0.0, "lat": 38.883045833333334, "fusion_lon": 0.0, "rental_uris": {"ios": "https://dc.lft.to/lastmile_qr_scan", "android": "https://dc.lft.to/lastmile_qr_scan"}, "lon": -76.93506433333333, "bike_id": "f592761b7dc58bd08afafb6a2cb7c5cd", "type": "electric_scooter", "name": "f592761b7dc58bd08afafb6a2cb7c5cd"}, {"is_disabled": 0, "is_reserved": 0, "fusion_lat": 0.0, "lat": 38.89236016666667, "fusion_lon": 0.0, "rental_uris": {"ios": "https://dc.lft.to/lastmile_qr_scan", "android": "https://dc.lft.to/lastmile_qr_scan"}, "lon": -77.0487645, "bike_id": "5c559a6b883d870eaab865dab084b0b1", "type": "electric_scooter", "name": "5c559a6b883d870eaab865dab084b0b1"}, {"is_disabled": 0, "is_reserved": 0, "fusion_lat": 0.0, "lat": 38.912581833333334, "fusion_lon": 0.0, "rental_uris": {"ios": "https://dc.lft.to/lastmile_qr_scan", "android": "https://dc.lft.to/lastmile_qr_scan"}, "lon": -77.03863933333334, "bike_id": "770076a3f798849b48cfdd6fcf1b4973", "type": "electric_scooter", "name": "770076a3f798849b48cfdd6fcf1b4973"}, {"is_disabled": 0, "is_reserved": 0, "fusion_lat": 0.0, "lat": 38.915751, "fusion_lon": 0.0, "rental_uris": {"ios": "https://dc.lft.to/lastmile_qr_scan", "android": "https://dc.lft.to/lastmile_qr_scan"}, "lon": -77.0366125, "bike_id": "37ff1eb8644e168f481786e9eebb4efc", "type": "electric_scooter", "name": "37ff1eb8644e168f481786e9eebb4efc"}, {"is_disabled": 0, "is_reserved": 0, "fusion_lat": 0.0, "lat": 38.852488, "fusion_lon": 0.0, "rental_uris": {"ios": "https://dc.lft.to/lastmile_qr_scan", "android": "https://dc.lft.to/lastmile_qr_scan"}, "lon": -77.11409316666666, "bike_id": "bcfcf56f85b124cbb3434e5079616912", "type": "electric_bike", "name": "bcfcf56f85b124cbb3434e5079616912"}, {"is_disabled": 0, "is_reserved": 0, "fusion_lat": 0.0, "lat": 38.946541333333336, "fusion_lon": 0.0, "rental_uris": {"ios": "https://dc.lft.to/lastmile_qr_scan", "android": "https://dc.lft.to/lastmile_qr_scan"}, "lon": -77.06473233333334, "bike_id": "c092f87146fb17b191931b9cb81fa44a", "type": "electric_scooter", "name": "c092f87146fb17b191931b9cb81fa44a"}, {"is_disabled": 0, "is_reserved": 0, "fusion_lat": 0.0, "lat": 38.904701333333335, "fusion_lon": 0.0, "rental_uris": {"ios": "https://dc.lft.to/lastmile_qr_scan", "android": "https://dc.lft.to/lastmile_qr_scan"}, "lon": -77.0660335, "bike_id": "c66462bf27ebbefe8825a4c8034211f1", "type": "electric_scooter", "name": "c66462bf27ebbefe8825a4c8034211f1"}, {"is_disabled": 0, "is_reserved": 0, "fusion_lat": 0.0, "lat": 38.904587, "fusion_lon": 0.0, "rental_uris": {"ios": "https://dc.lft.to/lastmile_qr_scan", "android": "https://dc.lft.to/lastmile_qr_scan"}, "lon": -77.04328733333334, "bike_id": "9e689fec5aa9c1669b9376ba3d6d0af0", "type": "electric_scooter", "name": "9e689fec5aa9c1669b9376ba3d6d0af0"}, {"is_disabled": 0, "is_reserved": 0, "fusion_lat": 0.0, "lat": 38.892119, "fusion_lon": 0.0, "rental_uris": {"ios": "https://dc.lft.to/lastmile_qr_scan", "android": "https://dc.lft.to/lastmile_qr_scan"}, "lon": -76.99928316666667, "bike_id": "bb366f1b7cfda95cf593b4a685ddd31d", "type": "electric_scooter", "name": "bb366f1b7cfda95cf593b4a685ddd31d"}, {"is_disabled": 0, "is_reserved": 0, "fusion_lat": 0.0, "lat": 38.92336866666667, "fusion_lon": 0.0, "rental_uris": {"ios": "https://dc.lft.to/lastmile_qr_scan", "android": "https://dc.lft.to/lastmile_qr_scan"}, "lon": -77.05679966666666, "bike_id": "bee12408543e7ddac8daa83e7e01e251", "type": "electric_scooter", "name": "bee12408543e7ddac8daa83e7e01e251"}, {"is_disabled": 0, "is_reserved": 0, "fusion_lat": 0.0, "lat": 38.92317283333333, "fusion_lon": 0.0, "rental_uris": {"ios": "https://dc.lft.to/lastmile_qr_scan", "android": "https://dc.lft.to/lastmile_qr_scan"}, "lon": -77.0289945, "bike_id": "019a1708f2ac1f958e108f2a32f83fe3", "type": "electric_scooter", "name": "019a1708f2ac1f958e108f2a32f83fe3"}, {"is_disabled": 0, "is_reserved": 0, "fusion_lat": 0.0, "lat": 38.919124, "fusion_lon": 0.0, "rental_uris": {"ios": "https://dc.lft.to/lastmile_qr_scan", "android": "https://dc.lft.to/lastmile_qr_scan"}, "lon": -77.0317865, "bike_id": "ae3d4db9d62cd0304108fb8b5ec80e94", "type": "electric_scooter", "name": "ae3d4db9d62cd0304108fb8b5ec80e94"}, {"is_disabled": 0, "is_reserved": 0, "fusion_lat": 0.0, "lat": 38.93201333333333, "fusion_lon": 0.0, "rental_uris": {"ios": "https://dc.lft.to/lastmile_qr_scan", "android": "https://dc.lft.to/lastmile_qr_scan"}, "lon": -77.0238965, "bike_id": "37bb817d3fc6d56b7b60084adf6521f5", "type": "electric_scooter", "name": "37bb817d3fc6d56b7b60084adf6521f5"}, {"is_disabled": 0, "is_reserved": 0, "fusion_lat": 0.0, "lat": 38.92026766666667, "fusion_lon": 0.0, "rental_uris": {"ios": "https://dc.lft.to/lastmile_qr_scan", "android": "https://dc.lft.to/lastmile_qr_scan"}, "lon": -77.0172705, "bike_id": "9f8d65095549fa42bea7d2d822340530", "type": "electric_scooter", "name": "9f8d65095549fa42bea7d2d822340530"}, {"is_disabled": 0, "is_reserved": 0, "fusion_lat": 0.0, "lat": 38.90249166666667, "fusion_lon": 0.0, "rental_uris": {"ios": "https://dc.lft.to/lastmile_qr_scan", "android": "https://dc.lft.to/lastmile_qr_scan"}, "lon": -77.03253016666666, "bike_id": "c9b1368d5bd311516bb87c08c3c4bf8a", "type": "electric_scooter", "name": "c9b1368d5bd311516bb87c08c3c4bf8a"}, {"is_disabled": 0, "is_reserved": 0, "fusion_lat": 0.0, "lat": 38.91679833333333, "fusion_lon": 0.0, "rental_uris": {"ios": "https://dc.lft.to/lastmile_qr_scan", "android": "https://dc.lft.to/lastmile_qr_scan"}, "lon": -77.02973283333333, "bike_id": "0686848498c0525b88036c718d23ccb8", "type": "electric_scooter", "name": "0686848498c0525b88036c718d23ccb8"}, {"is_disabled": 0, "is_reserved": 0, "fusion_lat": 0.0, "lat": 38.8922585, "fusion_lon": 0.0, "rental_uris": {"ios": "https://dc.lft.to/lastmile_qr_scan", "android": "https://dc.lft.to/lastmile_qr_scan"}, "lon": -77.02416416666667, "bike_id": "7b2aee292048e39ab32de1a7437dcfbe", "type": "electric_scooter", "name": "7b2aee292048e39ab32de1a7437dcfbe"}, {"is_disabled": 0, "is_reserved": 0, "fusion_lat": 0.0, "lat": 38.941018666666665, "fusion_lon": 0.0, "rental_uris": {"ios": "https://dc.lft.to/lastmile_qr_scan", "android": "https://dc.lft.to/lastmile_qr_scan"}, "lon": -77.025086, "bike_id": "ff05672691edb12669c74e79585833f7", "type": "electric_scooter", "name": "ff05672691edb12669c74e79585833f7"}, {"is_disabled": 0, "is_reserved": 0, "fusion_lat": 0.0, "lat": 38.928549, "fusion_lon": 0.0, "rental_uris": {"ios": "https://dc.lft.to/lastmile_qr_scan", "android": "https://dc.lft.to/lastmile_qr_scan"}, "lon": -77.0360745, "bike_id": "059d1fcf67d517d2c204c21bfbf9ee02", "type": "electric_scooter", "name": "059d1fcf67d517d2c204c21bfbf9ee02"}, {"is_disabled": 0, "is_reserved": 0, "fusion_lat": 0.0, "lat": 38.9120565, "fusion_lon": 0.0, "rental_uris": {"ios": "https://dc.lft.to/lastmile_qr_scan", "android": "https://dc.lft.to/lastmile_qr_scan"}, "lon": -77.044803, "bike_id": "29c4cbc9088a2e17be3ab11c9af9e1a1", "type": "electric_scooter", "name": "29c4cbc9088a2e17be3ab11c9af9e1a1"}, {"is_disabled": 0, "is_reserved": 0, "fusion_lat": 0.0, "lat": 38.898643166666666, "fusion_lon": 0.0, "rental_uris": {"ios": "https://dc.lft.to/lastmile_qr_scan", "android": "https://dc.lft.to/lastmile_qr_scan"}, "lon": -77.05139433333333, "bike_id": "7ea7347a797f3d3b4b6d798e52182157", "type": "electric_bike", "name": "7ea7347a797f3d3b4b6d798e52182157"}, {"is_disabled": 0, "is_reserved": 0, "fusion_lat": 0.0, "lat": 38.9286495, "fusion_lon": 0.0, "rental_uris": {"ios": "https://dc.lft.to/lastmile_qr_scan", "android": "https://dc.lft.to/lastmile_qr_scan"}, "lon": -77.0327905, "bike_id": "3a71b6596e2cbf8217005a60b2f8a1f0", "type": "electric_scooter", "name": "3a71b6596e2cbf8217005a60b2f8a1f0"}, {"is_disabled": 0, "is_reserved": 0, "fusion_lat": 0.0, "lat": 38.9535595, "fusion_lon": 0.0, "rental_uris": {"ios": "https://dc.lft.to/lastmile_qr_scan", "android": "https://dc.lft.to/lastmile_qr_scan"}, "lon": -76.980955, "bike_id": "e454801ad659bd77abcfb65d57e1b707", "type": "electric_bike", "name": "e454801ad659bd77abcfb65d57e1b707"}, {"is_disabled": 0, "is_reserved": 0, "fusion_lat": 0.0, "lat": 38.898685, "fusion_lon": 0.0, "rental_uris": {"ios": "https://dc.lft.to/lastmile_qr_scan", "android": "https://dc.lft.to/lastmile_qr_scan"}, "lon": -77.050191, "bike_id": "6a589135fecae8f3da51e710743e7580", "type": "electric_scooter", "name": "6a589135fecae8f3da51e710743e7580"}, {"is_disabled": 0, "is_reserved": 0, "fusion_lat": 0.0, "lat": 38.91319933333333, "fusion_lon": 0.0, "rental_uris": {"ios": "https://dc.lft.to/lastmile_qr_scan", "android": "https://dc.lft.to/lastmile_qr_scan"}, "lon": -77.06243833333333, "bike_id": "df8637baf0fe97fd17faba3a3f3a12d4", "type": "electric_scooter", "name": "df8637baf0fe97fd17faba3a3f3a12d4"}, {"is_disabled": 0, "is_reserved": 0, "fusion_lat": 0.0, "lat": 38.917152333333334, "fusion_lon": 0.0, "rental_uris": {"ios": "https://dc.lft.to/lastmile_qr_scan", "android": "https://dc.lft.to/lastmile_qr_scan"}, "lon": -77.0316165, "bike_id": "b0834f7e8dbb1e31d656203330036a06", "type": "electric_scooter", "name": "b0834f7e8dbb1e31d656203330036a06"}, {"is_disabled": 0, "is_reserved": 0, "fusion_lat": 0.0, "lat": 38.91405066666667, "fusion_lon": 0.0, "rental_uris": {"ios": "https://dc.lft.to/lastmile_qr_scan", "android": "https://dc.lft.to/lastmile_qr_scan"}, "lon": -77.01144283333333, "bike_id": "140984cb699a6d44e2f549562ea8c8d0", "type": "electric_scooter", "name": "140984cb699a6d44e2f549562ea8c8d0"}, {"is_disabled": 0, "is_reserved": 0, "fusion_lat": 0.0, "lat": 38.80982683333333, "fusion_lon": 0.0, "rental_uris": {"ios": "https://dc.lft.to/lastmile_qr_scan", "android": "https://dc.lft.to/lastmile_qr_scan"}, "lon": -77.07660416666667, "bike_id": "451c48f4b4ba08862af13e314a3c7379", "type": "electric_bike", "name": "451c48f4b4ba08862af13e314a3c7379"}, {"is_disabled": 0, "is_reserved": 0, "fusion_lat": 0.0, "lat": 38.921504, "fusion_lon": 0.0, "rental_uris": {"ios": "https://dc.lft.to/lastmile_qr_scan", "android": "https://dc.lft.to/lastmile_qr_scan"}, "lon": -77.038756, "bike_id": "5321d2e37574177c82cf90c37b0af41d", "type": "electric_scooter", "name": "5321d2e37574177c82cf90c37b0af41d"}, {"is_disabled": 0, "is_reserved": 0, "fusion_lat": 0.0, "lat": 38.90732466666667, "fusion_lon": 0.0, "rental_uris": {"ios": "https://dc.lft.to/lastmile_qr_scan", "android": "https://dc.lft.to/lastmile_qr_scan"}, "lon": -77.03208133333334, "bike_id": "32604c54bf19155f1c90e42d4bb4ffd8", "type": "electric_scooter", "name": "32604c54bf19155f1c90e42d4bb4ffd8"}, {"is_disabled": 0, "is_reserved": 0, "fusion_lat": 0.0, "lat": 38.8922325, "fusion_lon": 0.0, "rental_uris": {"ios": "https://dc.lft.to/lastmile_qr_scan", "android": "https://dc.lft.to/lastmile_qr_scan"}, "lon": -77.03342416666666, "bike_id": "45821cafba3e1499efc17238a0c9e0f8", "type": "electric_scooter", "name": "45821cafba3e1499efc17238a0c9e0f8"}, {"is_disabled": 0, "is_reserved": 0, "fusion_lat": 0.0, "lat": 38.91420466666667, "fusion_lon": 0.0, "rental_uris": {"ios": "https://dc.lft.to/lastmile_qr_scan", "android": "https://dc.lft.to/lastmile_qr_scan"}, "lon": -77.0317425, "bike_id": "fd644865949109b2c2d02b81880f966a", "type": "electric_scooter", "name": "fd644865949109b2c2d02b81880f966a"}, {"is_disabled": 0, "is_reserved": 0, "fusion_lat": 0.0, "lat": 38.95734133333333, "fusion_lon": 0.0, "rental_uris": {"ios": "https://dc.lft.to/lastmile_qr_scan", "android": "https://dc.lft.to/lastmile_qr_scan"}, "lon": -77.024047, "bike_id": "b47af4687e14b4e4dcca1229f5ed725d", "type": "electric_scooter", "name": "b47af4687e14b4e4dcca1229f5ed725d"}, {"is_disabled": 0, "is_reserved": 0, "fusion_lat": 0.0, "lat": 38.9569795, "fusion_lon": 0.0, "rental_uris": {"ios": "https://dc.lft.to/lastmile_qr_scan", "android": "https://dc.lft.to/lastmile_qr_scan"}, "lon": -77.02231383333333, "bike_id": "e59e16049a913fe877d5a5388d2e5cb3", "type": "electric_bike", "name": "e59e16049a913fe877d5a5388d2e5cb3"}, {"is_disabled": 0, "is_reserved": 0, "fusion_lat": 0.0, "lat": 38.90735183333334, "fusion_lon": 0.0, "rental_uris": {"ios": "https://dc.lft.to/lastmile_qr_scan", "android": "https://dc.lft.to/lastmile_qr_scan"}, "lon": -77.02800433333333, "bike_id": "8c0b9ed750413e6b2de6b6414de7ead5", "type": "electric_scooter", "name": "8c0b9ed750413e6b2de6b6414de7ead5"}, {"is_disabled": 0, "is_reserved": 0, "fusion_lat": 0.0, "lat": 38.94958316666666, "fusion_lon": 0.0, "rental_uris": {"ios": "https://dc.lft.to/lastmile_qr_scan", "android": "https://dc.lft.to/lastmile_qr_scan"}, "lon": -77.06745316666667, "bike_id": "e09d314372d19ce619a32751ab5b9ee6", "type": "electric_scooter", "name": "e09d314372d19ce619a32751ab5b9ee6"}, {"is_disabled": 0, "is_reserved": 0, "fusion_lat": 0.0, "lat": 38.95172633333333, "fusion_lon": 0.0, "rental_uris": {"ios": "https://dc.lft.to/lastmile_qr_scan", "android": "https://dc.lft.to/lastmile_qr_scan"}, "lon": -77.01851333333333, "bike_id": "6b56894fb01b4ca85247494a9595a3a5", "type": "electric_scooter", "name": "6b56894fb01b4ca85247494a9595a3a5"}, {"is_disabled": 0, "is_reserved": 0, "fusion_lat": 0.0, "lat": 38.91716733333333, "fusion_lon": 0.0, "rental_uris": {"ios": "https://dc.lft.to/lastmile_qr_scan", "android": "https://dc.lft.to/lastmile_qr_scan"}, "lon": -77.0385745, "bike_id": "8ba7ecbc0f22f6232e64943b8e16353a", "type": "electric_scooter", "name": "8ba7ecbc0f22f6232e64943b8e16353a"}, {"is_disabled": 0, "is_reserved": 0, "fusion_lat": 0.0, "lat": 38.82775383333333, "fusion_lon": 0.0, "rental_uris": {"ios": "https://dc.lft.to/lastmile_qr_scan", "android": "https://dc.lft.to/lastmile_qr_scan"}, "lon": -77.06016216666667, "bike_id": "209b8221ec45348bcaf4cd41d7a5ca83", "type": "electric_bike", "name": "209b8221ec45348bcaf4cd41d7a5ca83"}, {"is_disabled": 0, "is_reserved": 0, "fusion_lat": 0.0, "lat": 38.95734133333333, "fusion_lon": 0.0, "rental_uris": {"ios": "https://dc.lft.to/lastmile_qr_scan", "android": "https://dc.lft.to/lastmile_qr_scan"}, "lon": -77.024027, "bike_id": "2731c100c5ef8f89846cbd89ee5252cb", "type": "electric_scooter", "name": "2731c100c5ef8f89846cbd89ee5252cb"}, {"is_disabled": 0, "is_reserved": 0, "fusion_lat": 0.0, "lat": 38.922367666666666, "fusion_lon": 0.0, "rental_uris": {"ios": "https://dc.lft.to/lastmile_qr_scan", "android": "https://dc.lft.to/lastmile_qr_scan"}, "lon": -77.03516783333333, "bike_id": "fa7dcb96b2c98b732f191e4607eec962", "type": "electric_scooter", "name": "fa7dcb96b2c98b732f191e4607eec962"}, {"is_disabled": 0, "is_reserved": 0, "fusion_lat": 0.0, "lat": 38.862173, "fusion_lon": 0.0, "rental_uris": {"ios": "https://dc.lft.to/lastmile_qr_scan", "android": "https://dc.lft.to/lastmile_qr_scan"}, "lon": -76.9947895, "bike_id": "2cdb2dc0471ddec53429fb066d3e9e3c", "type": "electric_scooter", "name": "2cdb2dc0471ddec53429fb066d3e9e3c"}, {"is_disabled": 0, "is_reserved": 0, "fusion_lat": 0.0, "lat": 38.92566383333333, "fusion_lon": 0.0, "rental_uris": {"ios": "https://dc.lft.to/lastmile_qr_scan", "android": "https://dc.lft.to/lastmile_qr_scan"}, "lon": -77.02281233333333, "bike_id": "a1a111ec3d11e261e11d4a07db6a4acf", "type": "electric_scooter", "name": "a1a111ec3d11e261e11d4a07db6a4acf"}, {"is_disabled": 0, "is_reserved": 0, "fusion_lat": 0.0, "lat": 38.912577, "fusion_lon": 0.0, "rental_uris": {"ios": "https://dc.lft.to/lastmile_qr_scan", "android": "https://dc.lft.to/lastmile_qr_scan"}, "lon": -77.019079, "bike_id": "30c977c9c781899354dc04075581bb89", "type": "electric_scooter", "name": "30c977c9c781899354dc04075581bb89"}, {"is_disabled": 0, "is_reserved": 0, "fusion_lat": 0.0, "lat": 38.92064416666667, "fusion_lon": 0.0, "rental_uris": {"ios": "https://dc.lft.to/lastmile_qr_scan", "android": "https://dc.lft.to/lastmile_qr_scan"}, "lon": -77.02845216666667, "bike_id": "8576f3efeea29a44849f29f66f5d99db", "type": "electric_scooter", "name": "8576f3efeea29a44849f29f66f5d99db"}, {"is_disabled": 0, "is_reserved": 0, "fusion_lat": 0.0, "lat": 38.923313666666665, "fusion_lon": 0.0, "rental_uris": {"ios": "https://dc.lft.to/lastmile_qr_scan", "android": "https://dc.lft.to/lastmile_qr_scan"}, "lon": -77.03665433333333, "bike_id": "6f8d7527fa412d18dcdf53f75b46e13c", "type": "electric_scooter", "name": "6f8d7527fa412d18dcdf53f75b46e13c"}, {"is_disabled": 0, "is_reserved": 0, "fusion_lat": 0.0, "lat": 38.91348933333333, "fusion_lon": 0.0, "rental_uris": {"ios": "https://dc.lft.to/lastmile_qr_scan", "android": "https://dc.lft.to/lastmile_qr_scan"}, "lon": -77.03204, "bike_id": "c029150270ea00d009f8bc8589cf94f4", "type": "electric_scooter", "name": "c029150270ea00d009f8bc8589cf94f4"}, {"is_disabled": 0, "is_reserved": 0, "fusion_lat": 0.0, "lat": 38.97158183333333, "fusion_lon": 0.0, "rental_uris": {"ios": "https://dc.lft.to/lastmile_qr_scan", "android": "https://dc.lft.to/lastmile_qr_scan"}, "lon": -76.98362766666666, "bike_id": "f21ce22876f9c13e5dd45d036184ef05", "type": "electric_bike", "name": "f21ce22876f9c13e5dd45d036184ef05"}, {"is_disabled": 0, "is_reserved": 0, "fusion_lat": 0.0, "lat": 38.909931666666665, "fusion_lon": 0.0, "rental_uris": {"ios": "https://dc.lft.to/lastmile_qr_scan", "android": "https://dc.lft.to/lastmile_qr_scan"}, "lon": -77.033833, "bike_id": "52f28ffffbb087ced3ce1a5899a74c41", "type": "electric_scooter", "name": "52f28ffffbb087ced3ce1a5899a74c41"}, {"is_disabled": 0, "is_reserved": 0, "fusion_lat": 0.0, "lat": 38.9116365, "fusion_lon": 0.0, "rental_uris": {"ios": "https://dc.lft.to/lastmile_qr_scan", "android": "https://dc.lft.to/lastmile_qr_scan"}, "lon": -77.0107985, "bike_id": "62405d06d19b8f6f765e591290b321bb", "type": "electric_scooter", "name": "62405d06d19b8f6f765e591290b321bb"}, {"is_disabled": 0, "is_reserved": 0, "fusion_lat": 0.0, "lat": 38.9020395, "fusion_lon": 0.0, "rental_uris": {"ios": "https://dc.lft.to/lastmile_qr_scan", "android": "https://dc.lft.to/lastmile_qr_scan"}, "lon": -77.02179333333333, "bike_id": "4b3c3cd0bda1194820a08c06e1d309ba", "type": "electric_scooter", "name": "4b3c3cd0bda1194820a08c06e1d309ba"}, {"is_disabled": 0, "is_reserved": 0, "fusion_lat": 0.0, "lat": 38.88036566666667, "fusion_lon": 0.0, "rental_uris": {"ios": "https://dc.lft.to/lastmile_qr_scan", "android": "https://dc.lft.to/lastmile_qr_scan"}, "lon": -76.927245, "bike_id": "f07af31ff8ddccf9df7801895794f592", "type": "electric_scooter", "name": "f07af31ff8ddccf9df7801895794f592"}, {"is_disabled": 0, "is_reserved": 0, "fusion_lat": 0.0, "lat": 38.918080333333336, "fusion_lon": 0.0, "rental_uris": {"ios": "https://dc.lft.to/lastmile_qr_scan", "android": "https://dc.lft.to/lastmile_qr_scan"}, "lon": -77.03437166666667, "bike_id": "5cc67980581a36b8e7a746a0c41b1734", "type": "electric_scooter", "name": "5cc67980581a36b8e7a746a0c41b1734"}, {"is_disabled": 0, "is_reserved": 0, "fusion_lat": 0.0, "lat": 38.895654666666665, "fusion_lon": 0.0, "rental_uris": {"ios": "https://dc.lft.to/lastmile_qr_scan", "android": "https://dc.lft.to/lastmile_qr_scan"}, "lon": -77.12736616666666, "bike_id": "a8f7ded5182095933e693eded8e053f7", "type": "electric_bike", "name": "a8f7ded5182095933e693eded8e053f7"}, {"is_disabled": 0, "is_reserved": 0, "fusion_lat": 0.0, "lat": 38.92652433333333, "fusion_lon": 0.0, "rental_uris": {"ios": "https://dc.lft.to/lastmile_qr_scan", "android": "https://dc.lft.to/lastmile_qr_scan"}, "lon": -77.0902585, "bike_id": "346605b9dd58a31ce19ff012d9763581", "type": "electric_bike", "name": "346605b9dd58a31ce19ff012d9763581"}, {"is_disabled": 0, "is_reserved": 0, "fusion_lat": 0.0, "lat": 38.91635516666667, "fusion_lon": 0.0, "rental_uris": {"ios": "https://dc.lft.to/lastmile_qr_scan", "android": "https://dc.lft.to/lastmile_qr_scan"}, "lon": -77.03974416666667, "bike_id": "480e41a232519e0780414a828746b5b9", "type": "electric_scooter", "name": "480e41a232519e0780414a828746b5b9"}, {"is_disabled": 0, "is_reserved": 0, "fusion_lat": 0.0, "lat": 38.92657333333333, "fusion_lon": 0.0, "rental_uris": {"ios": "https://dc.lft.to/lastmile_qr_scan", "android": "https://dc.lft.to/lastmile_qr_scan"}, "lon": -77.03842966666667, "bike_id": "d021d646818df6c984e9cba3cc693895", "type": "electric_scooter", "name": "d021d646818df6c984e9cba3cc693895"}, {"is_disabled": 0, "is_reserved": 0, "fusion_lat": 0.0, "lat": 38.8970735, "fusion_lon": 0.0, "rental_uris": {"ios": "https://dc.lft.to/lastmile_qr_scan", "android": "https://dc.lft.to/lastmile_qr_scan"}, "lon": -76.9391175, "bike_id": "a956b09e04519653389381a0b8849848", "type": "electric_scooter", "name": "a956b09e04519653389381a0b8849848"}, {"is_disabled": 0, "is_reserved": 0, "fusion_lat": 0.0, "lat": 38.949754, "fusion_lon": 0.0, "rental_uris": {"ios": "https://dc.lft.to/lastmile_qr_scan", "android": "https://dc.lft.to/lastmile_qr_scan"}, "lon": -77.02434916666667, "bike_id": "765b3bfd37bea7e5ad6b8480d9341d9a", "type": "electric_scooter", "name": "765b3bfd37bea7e5ad6b8480d9341d9a"}, {"is_disabled": 0, "is_reserved": 0, "fusion_lat": 0.0, "lat": 38.90134716666667, "fusion_lon": 0.0, "rental_uris": {"ios": "https://dc.lft.to/lastmile_qr_scan", "android": "https://dc.lft.to/lastmile_qr_scan"}, "lon": -77.04995366666667, "bike_id": "6ea3f26e1c078b14f004db4f64d7d70a", "type": "electric_scooter", "name": "6ea3f26e1c078b14f004db4f64d7d70a"}, {"is_disabled": 0, "is_reserved": 0, "fusion_lat": 0.0, "lat": 38.89667883333333, "fusion_lon": 0.0, "rental_uris": {"ios": "https://dc.lft.to/lastmile_qr_scan", "android": "https://dc.lft.to/lastmile_qr_scan"}, "lon": -76.94912183333334, "bike_id": "af9d441e3fa94e5d5cead9960fc4bead", "type": "electric_scooter", "name": "af9d441e3fa94e5d5cead9960fc4bead"}, {"is_disabled": 0, "is_reserved": 0, "fusion_lat": 0.0, "lat": 38.909492166666666, "fusion_lon": 0.0, "rental_uris": {"ios": "https://dc.lft.to/lastmile_qr_scan", "android": "https://dc.lft.to/lastmile_qr_scan"}, "lon": -77.0472385, "bike_id": "56b4fc0ffdb16f2de389eedc0cbd473b", "type": "electric_scooter", "name": "56b4fc0ffdb16f2de389eedc0cbd473b"}, {"is_disabled": 0, "is_reserved": 0, "fusion_lat": 0.0, "lat": 38.90973483333333, "fusion_lon": 0.0, "rental_uris": {"ios": "https://dc.lft.to/lastmile_qr_scan", "android": "https://dc.lft.to/lastmile_qr_scan"}, "lon": -77.02415683333334, "bike_id": "e4b1cb41eaaf4fe38a4b0688d16f7121", "type": "electric_scooter", "name": "e4b1cb41eaaf4fe38a4b0688d16f7121"}, {"is_disabled": 0, "is_reserved": 0, "fusion_lat": 0.0, "lat": 38.927933, "fusion_lon": 0.0, "rental_uris": {"ios": "https://dc.lft.to/lastmile_qr_scan", "android": "https://dc.lft.to/lastmile_qr_scan"}, "lon": -77.01410083333333, "bike_id": "6005130cb9719d9a287c5da1a3005a60", "type": "electric_scooter", "name": "6005130cb9719d9a287c5da1a3005a60"}, {"is_disabled": 0, "is_reserved": 0, "fusion_lat": 0.0, "lat": 38.941761166666666, "fusion_lon": 0.0, "rental_uris": {"ios": "https://dc.lft.to/lastmile_qr_scan", "android": "https://dc.lft.to/lastmile_qr_scan"}, "lon": -77.0153305, "bike_id": "f81451ce206269e2cf15ccfbff7a979d", "type": "electric_scooter", "name": "f81451ce206269e2cf15ccfbff7a979d"}, {"is_disabled": 0, "is_reserved": 0, "fusion_lat": 0.0, "lat": 38.94290683333333, "fusion_lon": 0.0, "rental_uris": {"ios": "https://dc.lft.to/lastmile_qr_scan", "android": "https://dc.lft.to/lastmile_qr_scan"}, "lon": -77.02173383333333, "bike_id": "9913d430ead94920de6b2d18551c1076", "type": "electric_scooter", "name": "9913d430ead94920de6b2d18551c1076"}, {"is_disabled": 0, "is_reserved": 0, "fusion_lat": 0.0, "lat": 38.914806, "fusion_lon": 0.0, "rental_uris": {"ios": "https://dc.lft.to/lastmile_qr_scan", "android": "https://dc.lft.to/lastmile_qr_scan"}, "lon": -77.01887383333333, "bike_id": "e36ad3fa7da4542a6ecb554ce162d884", "type": "electric_scooter", "name": "e36ad3fa7da4542a6ecb554ce162d884"}, {"is_disabled": 0, "is_reserved": 0, "fusion_lat": 0.0, "lat": 38.921686, "fusion_lon": 0.0, "rental_uris": {"ios": "https://dc.lft.to/lastmile_qr_scan", "android": "https://dc.lft.to/lastmile_qr_scan"}, "lon": -77.04234183333334, "bike_id": "7aedcb37e62d80630a4e4b27dfa89a3b", "type": "electric_scooter", "name": "7aedcb37e62d80630a4e4b27dfa89a3b"}, {"is_disabled": 0, "is_reserved": 0, "fusion_lat": 0.0, "lat": 38.89472116666666, "fusion_lon": 0.0, "rental_uris": {"ios": "https://dc.lft.to/lastmile_qr_scan", "android": "https://dc.lft.to/lastmile_qr_scan"}, "lon": -76.992601, "bike_id": "90bc17c758aa3203473321f47eeea01d", "type": "electric_scooter", "name": "90bc17c758aa3203473321f47eeea01d"}, {"is_disabled": 0, "is_reserved": 0, "fusion_lat": 0.0, "lat": 38.89624233333333, "fusion_lon": 0.0, "rental_uris": {"ios": "https://dc.lft.to/lastmile_qr_scan", "android": "https://dc.lft.to/lastmile_qr_scan"}, "lon": -77.0405385, "bike_id": "601092966f810e833233936f9162b772", "type": "electric_scooter", "name": "601092966f810e833233936f9162b772"}, {"is_disabled": 0, "is_reserved": 0, "fusion_lat": 0.0, "lat": 38.84278183333333, "fusion_lon": 0.0, "rental_uris": {"ios": "https://dc.lft.to/lastmile_qr_scan", "android": "https://dc.lft.to/lastmile_qr_scan"}, "lon": -76.98842583333334, "bike_id": "d4a91008ecbf49f748871f9bdeea7fe7", "type": "electric_bike", "name": "d4a91008ecbf49f748871f9bdeea7fe7"}, {"is_disabled": 0, "is_reserved": 0, "fusion_lat": 0.0, "lat": 38.89507116666667, "fusion_lon": 0.0, "rental_uris": {"ios": "https://dc.lft.to/lastmile_qr_scan", "android": "https://dc.lft.to/lastmile_qr_scan"}, "lon": -76.97409716666667, "bike_id": "d0f5fb5cfe56b841feed9d62cf98d7bb", "type": "electric_scooter", "name": "d0f5fb5cfe56b841feed9d62cf98d7bb"}, {"is_disabled": 0, "is_reserved": 0, "fusion_lat": 0.0, "lat": 38.925212, "fusion_lon": 0.0, "rental_uris": {"ios": "https://dc.lft.to/lastmile_qr_scan", "android": "https://dc.lft.to/lastmile_qr_scan"}, "lon": -77.03880166666667, "bike_id": "c27475c8cd9c983fac15a9d4d029d47c", "type": "electric_scooter", "name": "c27475c8cd9c983fac15a9d4d029d47c"}, {"is_disabled": 0, "is_reserved": 0, "fusion_lat": 0.0, "lat": 38.89228516666667, "fusion_lon": 0.0, "rental_uris": {"ios": "https://dc.lft.to/lastmile_qr_scan", "android": "https://dc.lft.to/lastmile_qr_scan"}, "lon": -77.04505733333333, "bike_id": "fe5b48b14f0e6f118ab7e5305a3df453", "type": "electric_scooter", "name": "fe5b48b14f0e6f118ab7e5305a3df453"}, {"is_disabled": 0, "is_reserved": 0, "fusion_lat": 0.0, "lat": 38.8855055, "fusion_lon": 0.0, "rental_uris": {"ios": "https://dc.lft.to/lastmile_qr_scan", "android": "https://dc.lft.to/lastmile_qr_scan"}, "lon": -77.11685416666667, "bike_id": "99c272e6cc84ce38b9efbc2fb0a57a05", "type": "electric_bike", "name": "99c272e6cc84ce38b9efbc2fb0a57a05"}, {"is_disabled": 0, "is_reserved": 0, "fusion_lat": 0.0, "lat": 38.840325166666666, "fusion_lon": 0.0, "rental_uris": {"ios": "https://dc.lft.to/lastmile_qr_scan", "android": "https://dc.lft.to/lastmile_qr_scan"}, "lon": -76.9885795, "bike_id": "f21ded5ef10c9d1fedcd8a57fe779ab1", "type": "electric_bike", "name": "f21ded5ef10c9d1fedcd8a57fe779ab1"}, {"is_disabled": 0, "is_reserved": 0, "fusion_lat": 0.0, "lat": 38.91914283333333, "fusion_lon": 0.0, "rental_uris": {"ios": "https://dc.lft.to/lastmile_qr_scan", "android": "https://dc.lft.to/lastmile_qr_scan"}, "lon": -77.03178683333333, "bike_id": "3c013a82c1d408626da3649f0cab6830", "type": "electric_scooter", "name": "3c013a82c1d408626da3649f0cab6830"}, {"is_disabled": 0, "is_reserved": 0, "fusion_lat": 0.0, "lat": 38.91322266666667, "fusion_lon": 0.0, "rental_uris": {"ios": "https://dc.lft.to/lastmile_qr_scan", "android": "https://dc.lft.to/lastmile_qr_scan"}, "lon": -77.02002633333333, "bike_id": "9c1fcaeffb1c1cefe8dfaefe31610fca", "type": "electric_scooter", "name": "9c1fcaeffb1c1cefe8dfaefe31610fca"}, {"is_disabled": 0, "is_reserved": 0, "fusion_lat": 0.0, "lat": 38.86891283333333, "fusion_lon": 0.0, "rental_uris": {"ios": "https://dc.lft.to/lastmile_qr_scan", "android": "https://dc.lft.to/lastmile_qr_scan"}, "lon": -76.99003683333333, "bike_id": "90c7f0c14411a6f630f2294b595bbbd7", "type": "electric_scooter", "name": "90c7f0c14411a6f630f2294b595bbbd7"}, {"is_disabled": 0, "is_reserved": 0, "fusion_lat": 0.0, "lat": 38.8865825, "fusion_lon": 0.0, "rental_uris": {"ios": "https://dc.lft.to/lastmile_qr_scan", "android": "https://dc.lft.to/lastmile_qr_scan"}, "lon": -77.02811883333334, "bike_id": "095f4f9387550e085d07f412d3acf30c", "type": "electric_scooter", "name": "095f4f9387550e085d07f412d3acf30c"}, {"is_disabled": 0, "is_reserved": 0, "fusion_lat": 0.0, "lat": 38.89603116666667, "fusion_lon": 0.0, "rental_uris": {"ios": "https://dc.lft.to/lastmile_qr_scan", "android": "https://dc.lft.to/lastmile_qr_scan"}, "lon": -76.98321966666667, "bike_id": "d66603bb6b60757e8604c2f082f5930c", "type": "electric_scooter", "name": "d66603bb6b60757e8604c2f082f5930c"}, {"is_disabled": 0, "is_reserved": 0, "fusion_lat": 0.0, "lat": 38.916304, "fusion_lon": 0.0, "rental_uris": {"ios": "https://dc.lft.to/lastmile_qr_scan", "android": "https://dc.lft.to/lastmile_qr_scan"}, "lon": -77.03138483333333, "bike_id": "906af838ead982450db4b0565fa94d93", "type": "electric_scooter", "name": "906af838ead982450db4b0565fa94d93"}, {"is_disabled": 0, "is_reserved": 0, "fusion_lat": 0.0, "lat": 38.90451183333333, "fusion_lon": 0.0, "rental_uris": {"ios": "https://dc.lft.to/lastmile_qr_scan", "android": "https://dc.lft.to/lastmile_qr_scan"}, "lon": -77.02690216666667, "bike_id": "869b5e317c77b94d71d0e3d0a6369ff8", "type": "electric_scooter", "name": "869b5e317c77b94d71d0e3d0a6369ff8"}, {"is_disabled": 0, "is_reserved": 0, "fusion_lat": 0.0, "lat": 38.91577066666667, "fusion_lon": 0.0, "rental_uris": {"ios": "https://dc.lft.to/lastmile_qr_scan", "android": "https://dc.lft.to/lastmile_qr_scan"}, "lon": -77.05034133333334, "bike_id": "840dbf15f0d386e375076e53cf43c818", "type": "electric_scooter", "name": "840dbf15f0d386e375076e53cf43c818"}, {"is_disabled": 0, "is_reserved": 0, "fusion_lat": 0.0, "lat": 38.8756385, "fusion_lon": 0.0, "rental_uris": {"ios": "https://dc.lft.to/lastmile_qr_scan", "android": "https://dc.lft.to/lastmile_qr_scan"}, "lon": -77.00592866666666, "bike_id": "5879adf1c91efc7e581d7b2a00145d91", "type": "electric_scooter", "name": "5879adf1c91efc7e581d7b2a00145d91"}, {"is_disabled": 0, "is_reserved": 0, "fusion_lat": 0.0, "lat": 38.9363275, "fusion_lon": 0.0, "rental_uris": {"ios": "https://dc.lft.to/lastmile_qr_scan", "android": "https://dc.lft.to/lastmile_qr_scan"}, "lon": -77.03655883333333, "bike_id": "fa047f9ba1842369bcde9fd795368f1e", "type": "electric_scooter", "name": "fa047f9ba1842369bcde9fd795368f1e"}, {"is_disabled": 0, "is_reserved": 0, "fusion_lat": 0.0, "lat": 38.929894833333336, "fusion_lon": 0.0, "rental_uris": {"ios": "https://dc.lft.to/lastmile_qr_scan", "android": "https://dc.lft.to/lastmile_qr_scan"}, "lon": -77.022148, "bike_id": "8f9cf22401dc848dae52532bb02bdc5d", "type": "electric_scooter", "name": "8f9cf22401dc848dae52532bb02bdc5d"}, {"is_disabled": 0, "is_reserved": 0, "fusion_lat": 0.0, "lat": 38.8925205, "fusion_lon": 0.0, "rental_uris": {"ios": "https://dc.lft.to/lastmile_qr_scan", "android": "https://dc.lft.to/lastmile_qr_scan"}, "lon": -77.04659016666666, "bike_id": "0c4201f29c3a321530d8d4bc0c71217f", "type": "electric_scooter", "name": "0c4201f29c3a321530d8d4bc0c71217f"}, {"is_disabled": 0, "is_reserved": 0, "fusion_lat": 0.0, "lat": 38.9358955, "fusion_lon": 0.0, "rental_uris": {"ios": "https://dc.lft.to/lastmile_qr_scan", "android": "https://dc.lft.to/lastmile_qr_scan"}, "lon": -77.02410616666667, "bike_id": "2816abc0ff673bc082cd8b4e4657c8dd", "type": "electric_scooter", "name": "2816abc0ff673bc082cd8b4e4657c8dd"}, {"is_disabled": 0, "is_reserved": 0, "fusion_lat": 0.0, "lat": 39.074725666666666, "fusion_lon": 0.0, "rental_uris": {"ios": "https://dc.lft.to/lastmile_qr_scan", "android": "https://dc.lft.to/lastmile_qr_scan"}, "lon": -77.11526683333334, "bike_id": "6fe8d01804b19810275d3dbcaf743f42", "type": "electric_bike", "name": "6fe8d01804b19810275d3dbcaf743f42"}, {"is_disabled": 0, "is_reserved": 0, "fusion_lat": 0.0, "lat": 38.92106483333333, "fusion_lon": 0.0, "rental_uris": {"ios": "https://dc.lft.to/lastmile_qr_scan", "android": "https://dc.lft.to/lastmile_qr_scan"}, "lon": -77.04690733333334, "bike_id": "220726d67d2fa552e5c6e1532488ef76", "type": "electric_scooter", "name": "220726d67d2fa552e5c6e1532488ef76"}, {"is_disabled": 0, "is_reserved": 0, "fusion_lat": 0.0, "lat": 38.855942, "fusion_lon": 0.0, "rental_uris": {"ios": "https://dc.lft.to/lastmile_qr_scan", "android": "https://dc.lft.to/lastmile_qr_scan"}, "lon": -76.972773, "bike_id": "97c48bf6390a24749725c3e8c8fce5ce", "type": "electric_bike", "name": "97c48bf6390a24749725c3e8c8fce5ce"}, {"is_disabled": 0, "is_reserved": 0, "fusion_lat": 0.0, "lat": 38.9020155, "fusion_lon": 0.0, "rental_uris": {"ios": "https://dc.lft.to/lastmile_qr_scan", "android": "https://dc.lft.to/lastmile_qr_scan"}, "lon": -77.02197033333333, "bike_id": "01199862254a9fbc14f03b22aa2c0c50", "type": "electric_scooter", "name": "01199862254a9fbc14f03b22aa2c0c50"}, {"is_disabled": 0, "is_reserved": 0, "fusion_lat": 0.0, "lat": 38.947471166666666, "fusion_lon": 0.0, "rental_uris": {"ios": "https://dc.lft.to/lastmile_qr_scan", "android": "https://dc.lft.to/lastmile_qr_scan"}, "lon": -77.02359933333334, "bike_id": "5470e62499a710d9f9ab106f74007a57", "type": "electric_scooter", "name": "5470e62499a710d9f9ab106f74007a57"}, {"is_disabled": 0, "is_reserved": 0, "fusion_lat": 0.0, "lat": 38.804064833333335, "fusion_lon": 0.0, "rental_uris": {"ios": "https://dc.lft.to/lastmile_qr_scan", "android": "https://dc.lft.to/lastmile_qr_scan"}, "lon": -77.11330733333334, "bike_id": "7cda7d91cdcc31efe1c7c2a8bd0ab6f1", "type": "electric_bike", "name": "7cda7d91cdcc31efe1c7c2a8bd0ab6f1"}, {"is_disabled": 0, "is_reserved": 0, "fusion_lat": 0.0, "lat": 38.911253333333335, "fusion_lon": 0.0, "rental_uris": {"ios": "https://dc.lft.to/lastmile_qr_scan", "android": "https://dc.lft.to/lastmile_qr_scan"}, "lon": -77.03827333333334, "bike_id": "d93457ca226ce512ab439e7b8aca8d0e", "type": "electric_scooter", "name": "d93457ca226ce512ab439e7b8aca8d0e"}, {"is_disabled": 0, "is_reserved": 0, "fusion_lat": 0.0, "lat": 38.902650333333334, "fusion_lon": 0.0, "rental_uris": {"ios": "https://dc.lft.to/lastmile_qr_scan", "android": "https://dc.lft.to/lastmile_qr_scan"}, "lon": -77.0275835, "bike_id": "420841c9be035e674ecd50cfd2f959bc", "type": "electric_scooter", "name": "420841c9be035e674ecd50cfd2f959bc"}, {"is_disabled": 0, "is_reserved": 0, "fusion_lat": 0.0, "lat": 38.90755516666667, "fusion_lon": 0.0, "rental_uris": {"ios": "https://dc.lft.to/lastmile_qr_scan", "android": "https://dc.lft.to/lastmile_qr_scan"}, "lon": -77.03661383333333, "bike_id": "67d032badaf5518b73c2f06d8e45792f", "type": "electric_scooter", "name": "67d032badaf5518b73c2f06d8e45792f"}, {"is_disabled": 0, "is_reserved": 0, "fusion_lat": 0.0, "lat": 38.939051666666664, "fusion_lon": 0.0, "rental_uris": {"ios": "https://dc.lft.to/lastmile_qr_scan", "android": "https://dc.lft.to/lastmile_qr_scan"}, "lon": -77.0328465, "bike_id": "ba453ebcf49e34ecf3ae858a8888168a", "type": "electric_scooter", "name": "ba453ebcf49e34ecf3ae858a8888168a"}, {"is_disabled": 0, "is_reserved": 0, "fusion_lat": 0.0, "lat": 38.9678105, "fusion_lon": 0.0, "rental_uris": {"ios": "https://dc.lft.to/lastmile_qr_scan", "android": "https://dc.lft.to/lastmile_qr_scan"}, "lon": -76.99656266666666, "bike_id": "04fae0a2b670ebedcb26129e1d207875", "type": "electric_bike", "name": "04fae0a2b670ebedcb26129e1d207875"}, {"is_disabled": 0, "is_reserved": 0, "fusion_lat": 0.0, "lat": 38.91120733333333, "fusion_lon": 0.0, "rental_uris": {"ios": "https://dc.lft.to/lastmile_qr_scan", "android": "https://dc.lft.to/lastmile_qr_scan"}, "lon": -76.99740616666666, "bike_id": "18e86a32795306bb6280da0670a12737", "type": "electric_scooter", "name": "18e86a32795306bb6280da0670a12737"}, {"is_disabled": 0, "is_reserved": 0, "fusion_lat": 0.0, "lat": 38.938607, "fusion_lon": 0.0, "rental_uris": {"ios": "https://dc.lft.to/lastmile_qr_scan", "android": "https://dc.lft.to/lastmile_qr_scan"}, "lon": -77.02596533333333, "bike_id": "420118d2917b2a891c5d0d92d7598d88", "type": "electric_scooter", "name": "420118d2917b2a891c5d0d92d7598d88"}, {"is_disabled": 0, "is_reserved": 0, "fusion_lat": 0.0, "lat": 38.892253, "fusion_lon": 0.0, "rental_uris": {"ios": "https://dc.lft.to/lastmile_qr_scan", "android": "https://dc.lft.to/lastmile_qr_scan"}, "lon": -77.04686083333333, "bike_id": "c074072c52f6d43546ee1c0a00f7c115", "type": "electric_scooter", "name": "c074072c52f6d43546ee1c0a00f7c115"}, {"is_disabled": 0, "is_reserved": 0, "fusion_lat": 0.0, "lat": 38.8668675, "fusion_lon": 0.0, "rental_uris": {"ios": "https://dc.lft.to/lastmile_qr_scan", "android": "https://dc.lft.to/lastmile_qr_scan"}, "lon": -76.94854716666667, "bike_id": "a38f49ca216326ba80130e6e6c8bfe4d", "type": "electric_scooter", "name": "a38f49ca216326ba80130e6e6c8bfe4d"}, {"is_disabled": 0, "is_reserved": 0, "fusion_lat": 0.0, "lat": 38.924411166666665, "fusion_lon": 0.0, "rental_uris": {"ios": "https://dc.lft.to/lastmile_qr_scan", "android": "https://dc.lft.to/lastmile_qr_scan"}, "lon": -77.03404483333334, "bike_id": "613ffc93c332f130941020a10cc1ffca", "type": "electric_scooter", "name": "613ffc93c332f130941020a10cc1ffca"}, {"is_disabled": 0, "is_reserved": 0, "fusion_lat": 0.0, "lat": 38.80771466666667, "fusion_lon": 0.0, "rental_uris": {"ios": "https://dc.lft.to/lastmile_qr_scan", "android": "https://dc.lft.to/lastmile_qr_scan"}, "lon": -77.05744216666666, "bike_id": "019c0ff4177e321c9549180eafc918f0", "type": "electric_bike", "name": "019c0ff4177e321c9549180eafc918f0"}, {"is_disabled": 0, "is_reserved": 0, "fusion_lat": 0.0, "lat": 38.85720166666667, "fusion_lon": 0.0, "rental_uris": {"ios": "https://dc.lft.to/lastmile_qr_scan", "android": "https://dc.lft.to/lastmile_qr_scan"}, "lon": -76.98097233333333, "bike_id": "60fdf209a8ef994222fd2db8b6e7656d", "type": "electric_scooter", "name": "60fdf209a8ef994222fd2db8b6e7656d"}, {"is_disabled": 0, "is_reserved": 0, "fusion_lat": 0.0, "lat": 38.90780433333333, "fusion_lon": 0.0, "rental_uris": {"ios": "https://dc.lft.to/lastmile_qr_scan", "android": "https://dc.lft.to/lastmile_qr_scan"}, "lon": -77.04245533333334, "bike_id": "60ddd517dcad9a872c535897b04ceff6", "type": "electric_scooter", "name": "60ddd517dcad9a872c535897b04ceff6"}, {"is_disabled": 0, "is_reserved": 0, "fusion_lat": 0.0, "lat": 38.871737833333334, "fusion_lon": 0.0, "rental_uris": {"ios": "https://dc.lft.to/lastmile_qr_scan", "android": "https://dc.lft.to/lastmile_qr_scan"}, "lon": -77.00626816666667, "bike_id": "ad1abf36c91b549671b54dd7a0a1ead4", "type": "electric_scooter", "name": "ad1abf36c91b549671b54dd7a0a1ead4"}, {"is_disabled": 0, "is_reserved": 0, "fusion_lat": 0.0, "lat": 38.884925333333335, "fusion_lon": 0.0, "rental_uris": {"ios": "https://dc.lft.to/lastmile_qr_scan", "android": "https://dc.lft.to/lastmile_qr_scan"}, "lon": -77.02663316666667, "bike_id": "1811090b1b051d68f7f4b00e9fea66c3", "type": "electric_scooter", "name": "1811090b1b051d68f7f4b00e9fea66c3"}, {"is_disabled": 0, "is_reserved": 0, "fusion_lat": 0.0, "lat": 38.90263516666667, "fusion_lon": 0.0, "rental_uris": {"ios": "https://dc.lft.to/lastmile_qr_scan", "android": "https://dc.lft.to/lastmile_qr_scan"}, "lon": -77.01759066666666, "bike_id": "952aa52a60c72635f335ab89dcf61ece", "type": "electric_scooter", "name": "952aa52a60c72635f335ab89dcf61ece"},