{"data": {"bikes": [{"rental_uris": {"ios": "https://dc.lft.to/lastmile_qr_scan", "android": "https://dc.lft.to/lastmile_qr_scan"}, "type": "electric_scooter", "name": "fa0d3aabd44ed62c9ac7d0076526fa8b", "is_reserved": 0, "lon": -77.01776216666667, "is_disabled": 0, "fusion_lat": 0.0, "lat": 38.90385766666667, "bike_id": "fa0d3aabd44ed62c9ac7d0076526fa8b", "fusion_lon": 0.0}, {"rental_uris": {"ios": "https://dc.lft.to/lastmile_qr_scan", "android": "https://dc.lft.to/lastmile_qr_scan"}, "type": "electric_scooter", "name": "76a8758cb3143579bc6cceb94c8baedf", "is_reserved": 0, "lon": -77.000819, "is_disabled": 0, "fusion_lat": 0.0, "lat": 38.876918, "bike_id": "76a8758cb3143579bc6cceb94c8baedf", "fusion_lon": 0.0}, {"rental_uris": {"ios": "https://dc.lft.to/lastmile_qr_scan", "android": "https://dc.lft.to/lastmile_qr_scan"}, "type": "electric_scooter", "name": "fefe50d862692864d4a0a540d0ede87b", "is_reserved": 0, "lon": -76.94896566666667, "is_disabled": 0, "fusion_lat": 0.0, "lat": 38.89525783333333, "bike_id": "fefe50d862692864d4a0a540d0ede87b", "fusion_lon": 0.0}, {"rental_uris": {"ios": "https://dc.lft.to/lastmile_qr_scan", "android": "https://dc.lft.to/lastmile_qr_scan"}, "type": "electric_scooter", "name": "8b57087b0de86bfd01a52631a46c8c27", "is_reserved": 0, "lon": -77.057251, "is_disabled": 0, "fusion_lat": 0.0, "lat": 38.93353616666667, "bike_id": "8b57087b0de86bfd01a52631a46c8c27", "fusion_lon": 0.0}, {"rental_uris": {"ios": "https://dc.lft.to/lastmile_qr_scan", "android": "https://dc.lft.to/lastmile_qr_scan"}, "type": "electric_scooter", "name": "61843405d4ccc066ce92dc5619712383", "is_reserved": 0, "lon": -77.03453066666667, "is_disabled": 0, "fusion_lat": 0.0, "lat": 38.907308, "bike_id": "61843405d4ccc066ce92dc5619712383", "fusion_lon": 0.0}, {"rental_uris": {"ios": "https://dc.lft.to/lastmile_qr_scan", "android": "https://dc.lft.to/lastmile_qr_scan"}, "type": "electric_scooter", "name": "4be790717f0f6ef40efcb2e27cc1b440", "is_reserved": 0, "lon": -77.04145233333334, "is_disabled": 0, "fusion_lat": 0.0, "lat": 38.89352316666667, "bike_id": "4be790717f0f6ef40efcb2e27cc1b440", "fusion_lon": 0.0}, {"rental_uris": {"ios": "https://dc.lft.to/lastmile_qr_scan", "android": "https://dc.lft.to/lastmile_qr_scan"}, "type": "electric_scooter", "name": "640c050788297301c21644084dc7d448", "is_reserved": 0, "lon": -77.03809566666666, "is_disabled": 0, "fusion_lat": 0.0, "lat": 38.93599866666667, "bike_id": "640c050788297301c21644084dc7d448", "fusion_lon": 0.0}, {"rental_uris": {"ios": "https://dc.lft.to/lastmile_qr_scan", "android": "https://dc.lft.to/lastmile_qr_scan"}, "type": "electric_bike", "name": "61e46a0720ec7e6c939fb24d957c3965", "is_reserved": 0, "lon": -77.04356666666666, "is_disabled": 0, "fusion_lat": 0.0, "lat": 38.8972305, "bike_id": "61e46a0720ec7e6c939fb24d957c3965", "fusion_lon": 0.0}, {"rental_uris": {"ios": "https://dc.lft.to/lastmile_qr_scan", "android": "https://dc.lft.to/lastmile_qr_scan"}, "type": "electric_scooter", "name": "7f1a5274f2f567463fa373b3a76759ef", "is_reserved": 0, "lon": -77.0347655, "is_disabled": 0, "fusion_lat": 0.0, "lat": 38.930352166666665, "bike_id": "7f1a5274f2f567463fa373b3a76759ef", "fusion_lon": 0.0}, {"rental_uris": {"ios": "https://dc.lft.to/lastmile_qr_scan", "android": "https://dc.lft.to/lastmile_qr_scan"}, "type": "electric_scooter", "name": "8318ce8c3f1a3b59c6fe38f0a6594326", "is_reserved": 0, "lon": -77.05420966666667, "is_disabled": 0, "fusion_lat": 0.0, "lat": 38.9283205, "bike_id": "8318ce8c3f1a3b59c6fe38f0a6594326", "fusion_lon": 0.0}, {"rental_uris": {"ios": "https://dc.lft.to/lastmile_qr_scan", "android": "https://dc.lft.to/lastmile_qr_scan"}, "type": "electric_scooter", "name": "92c603fc977d7455f6657eba0310f302", "is_reserved": 0, "lon": -77.0219515, "is_disabled": 0, "fusion_lat": 0.0, "lat": 38.87900883333333, "bike_id": "92c603fc977d7455f6657eba0310f302", "fusion_lon": 0.0}, {"rental_uris": {"ios": "https://dc.lft.to/lastmile_qr_scan", "android": "https://dc.lft.to/lastmile_qr_scan"}, "type": "electric_scooter", "name": "b6d9b651e359ac147a3493bd886b910e", "is_reserved": 0, "lon": -77.021605, "is_disabled": 0, "fusion_lat": 0.0, "lat": 38.9250585, "bike_id": "b6d9b651e359ac147a3493bd886b910e", "fusion_lon": 0.0}, {"rental_uris": {"ios": "https://dc.lft.to/lastmile_qr_scan", "android": "https://dc.lft.to/lastmile_qr_scan"}, "type": "electric_scooter", "name": "a934d0afbb30f8e41161456dff00a3a4", "is_reserved": 0, "lon": -77.039705, "is_disabled": 0, "fusion_lat": 0.0, "lat": 38.931526833333336, "bike_id": "a934d0afbb30f8e41161456dff00a3a4", "fusion_lon": 0.0}, {"rental_uris": {"ios": "https://dc.lft.to/lastmile_qr_scan", "android": "https://dc.lft.to/lastmile_qr_scan"}, "type": "electric_scooter", "name": "fb231821214753dee9e295d0b7a2be37", "is_reserved": 0, "lon": -77.04243783333334, "is_disabled": 0, "fusion_lat": 0.0, "lat": 38.92436216666667, "bike_id": "fb231821214753dee9e295d0b7a2be37", "fusion_lon": 0.0}, {"rental_uris": {"ios": "https://dc.lft.to/lastmile_qr_scan", "android": "https://dc.lft.to/lastmile_qr_scan"}, "type": "electric_scooter", "name": "3c1a61e0d90eb627592c308563ee3e6e", "is_reserved": 0, "lon": -77.00701316666667, "is_disabled": 0, "fusion_lat": 0.0, "lat": 38.878469333333335, "bike_id": "3c1a61e0d90eb627592c308563ee3e6e", "fusion_lon": 0.0}, {"rental_uris": {"ios": "https://dc.lft.to/lastmile_qr_scan", "android": "https://dc.lft.to/lastmile_qr_scan"}, "type": "electric_scooter", "name": "739f45961643602e3574f5656a2ebfcf", "is_reserved": 0, "lon": -77.02725683333334, "is_disabled": 0, "fusion_lat": 0.0, "lat": 38.92481983333333, "bike_id": "739f45961643602e3574f5656a2ebfcf", "fusion_lon": 0.0}, {"rental_uris": {"ios": "https://dc.lft.to/lastmile_qr_scan", "android": "https://dc.lft.to/lastmile_qr_scan"}, "type": "electric_scooter", "name": "ff541c9797b77a342dfcd15df2e5bbce", "is_reserved": 0, "lon": -76.98085683333333, "is_disabled": 0, "fusion_lat": 0.0, "lat": 38.9041235, "bike_id": "ff541c9797b77a342dfcd15df2e5bbce", "fusion_lon": 0.0}, {"rental_uris": {"ios": "https://dc.lft.to/lastmile_qr_scan", "android": "https://dc.lft.to/lastmile_qr_scan"}, "type": "electric_scooter", "name": "837d0c2deacb30b42ba3c07a60c69555", "is_reserved": 0, "lon": -77.0227845, "is_disabled": 0, "fusion_lat": 0.0, "lat": 38.92667316666667, "bike_id": "837d0c2deacb30b42ba3c07a60c69555", "fusion_lon": 0.0}, {"rental_uris": {"ios": "https://dc.lft.to/lastmile_qr_scan", "android": "https://dc.lft.to/lastmile_qr_scan"}, "type": "electric_scooter", "name": "0bd075273b2689bdd6f977d0db018ecd", "is_reserved": 0, "lon": -77.02083733333333, "is_disabled": 0, "fusion_lat": 0.0, "lat": 38.924173, "bike_id": "0bd075273b2689bdd6f977d0db018ecd", "fusion_lon": 0.0}, {"rental_uris": {"ios": "https://dc.lft.to/lastmile_qr_scan", "android": "https://dc.lft.to/lastmile_qr_scan"}, "type": "electric_scooter", "name": "55114b7b17ed0dd5c5e77bc1d1ba56e0", "is_reserved": 0, "lon": -77.02454166666666, "is_disabled": 0, "fusion_lat": 0.0, "lat": 38.917817166666666, "bike_id": "55114b7b17ed0dd5c5e77bc1d1ba56e0", "fusion_lon": 0.0}, {"rental_uris": {"ios": "https://dc.lft.to/lastmile_qr_scan", "android": "https://dc.lft.to/lastmile_qr_scan"}, "type": "electric_scooter", "name": "0b5c02eee272f7bb85637e2b76bd20bf", "is_reserved": 0, "lon": -77.03775883333333, "is_disabled": 0, "fusion_lat": 0.0, "lat": 38.923338333333334, "bike_id": "0b5c02eee272f7bb85637e2b76bd20bf", "fusion_lon": 0.0}, {"rental_uris": {"ios": "https://dc.lft.to/lastmile_qr_scan", "android": "https://dc.lft.to/lastmile_qr_scan"}, "type": "electric_scooter", "name": "e8c9241b5083e021205b723d77f10861", "is_reserved": 0, "lon": -77.00918183333333, "is_disabled": 0, "fusion_lat": 0.0, "lat": 38.912379, "bike_id": "e8c9241b5083e021205b723d77f10861", "fusion_lon": 0.0}, {"rental_uris": {"ios": "https://dc.lft.to/lastmile_qr_scan", "android": "https://dc.lft.to/lastmile_qr_scan"}, "type": "electric_scooter", "name": "8b91e102d6a70bcfe77aaf59a473d727", "is_reserved": 0, "lon": -77.03662183333333, "is_disabled": 0, "fusion_lat": 0.0, "lat": 38.922868, "bike_id": "8b91e102d6a70bcfe77aaf59a473d727", "fusion_lon": 0.0}, {"rental_uris": {"ios": "https://dc.lft.to/lastmile_qr_scan", "android": "https://dc.lft.to/lastmile_qr_scan"}, "type": "electric_scooter", "name": "bb51811d2bb213a2195289bd74c6fabe", "is_reserved": 0, "lon": -77.03200133333333, "is_disabled": 0, "fusion_lat": 0.0, "lat": 38.90692833333333, "bike_id": "bb51811d2bb213a2195289bd74c6fabe", "fusion_lon": 0.0}, {"rental_uris": {"ios": "https://dc.lft.to/lastmile_qr_scan", "android": "https://dc.lft.to/lastmile_qr_scan"}, "type": "electric_scooter", "name": "f6ae812b87fa5d8b2436d81bd3b62d4c", "is_reserved": 0, "lon": -77.0269545, "is_disabled": 0, "fusion_lat": 0.0, "lat": 38.908416833333334, "bike_id": "f6ae812b87fa5d8b2436d81bd3b62d4c", "fusion_lon": 0.0}, {"rental_uris": {"ios": "https://dc.lft.to/lastmile_qr_scan", "android": "https://dc.lft.to/lastmile_qr_scan"}, "type": "electric_scooter", "name": "2801e59fe92fc1ec3b61fb0bf044edbd", "is_reserved": 0, "lon": -77.0122925, "is_disabled": 0, "fusion_lat": 0.0, "lat": 38.91576233333333, "bike_id": "2801e59fe92fc1ec3b61fb0bf044edbd", "fusion_lon": 0.0}, {"rental_uris": {"ios": "https://dc.lft.to/lastmile_qr_scan", "android": "https://dc.lft.to/lastmile_qr_scan"}, "type": "electric_scooter", "name": "073007f7350281e918e23737e1d6c0f7", "is_reserved": 0, "lon": -77.03431066666667, "is_disabled": 0, "fusion_lat": 0.0, "lat": 38.91912666666666, "bike_id": "073007f7350281e918e23737e1d6c0f7", "fusion_lon": 0.0}, {"rental_uris": {"ios": "https://dc.lft.to/lastmile_qr_scan", "android": "https://dc.lft.to/lastmile_qr_scan"}, "type": "electric_scooter", "name": "b0e2bfe39a144317653932997f33a1b9", "is_reserved": 0, "lon": -77.06341533333334, "is_disabled": 0, "fusion_lat": 0.0, "lat": 38.9436385, "bike_id": "b0e2bfe39a144317653932997f33a1b9", "fusion_lon": 0.0}, {"rental_uris": {"ios": "https://dc.lft.to/lastmile_qr_scan", "android": "https://dc.lft.to/lastmile_qr_scan"}, "type": "electric_scooter", "name": "ca0ad334eae248d1dd177466da49c33e", "is_reserved": 0, "lon": -77.04735133333334, "is_disabled": 0, "fusion_lat": 0.0, "lat": 38.895527333333334, "bike_id": "ca0ad334eae248d1dd177466da49c33e", "fusion_lon": 0.0}, {"rental_uris": {"ios": "https://dc.lft.to/lastmile_qr_scan", "android": "https://dc.lft.to/lastmile_qr_scan"}, "type": "electric_scooter", "name": "9afcd48511ec301cf4a1a82c0a2e9678", "is_reserved": 0, "lon": -77.03850166666666, "is_disabled": 0, "fusion_lat": 0.0, "lat": 38.91137166666667, "bike_id": "9afcd48511ec301cf4a1a82c0a2e9678", "fusion_lon": 0.0}, {"rental_uris": {"ios": "https://dc.lft.to/lastmile_qr_scan", "android": "https://dc.lft.to/lastmile_qr_scan"}, "type": "electric_scooter", "name": "9e36faf8e1fae514824eee851aba35f7", "is_reserved": 0, "lon": -76.93183983333333, "is_disabled": 0, "fusion_lat": 0.0, "lat": 38.89877116666667, "bike_id": "9e36faf8e1fae514824eee851aba35f7", "fusion_lon": 0.0}, {"rental_uris": {"ios": "https://dc.lft.to/lastmile_qr_scan", "android": "https://dc.lft.to/lastmile_qr_scan"}, "type": "electric_scooter", "name": "12e2921b37a7751819de0ea335b29357", "is_reserved": 0, "lon": -77.02288366666667, "is_disabled": 0, "fusion_lat": 0.0, "lat": 38.91680783333334, "bike_id": "12e2921b37a7751819de0ea335b29357", "fusion_lon": 0.0}, {"rental_uris": {"ios": "https://dc.lft.to/lastmile_qr_scan", "android": "https://dc.lft.to/lastmile_qr_scan"}, "type": "electric_scooter", "name": "9e49b597cd4fb79fef9e7de5e11c7fd8", "is_reserved": 0, "lon": -77.01019133333334, "is_disabled": 0, "fusion_lat": 0.0, "lat": 38.91253716666667, "bike_id": "9e49b597cd4fb79fef9e7de5e11c7fd8", "fusion_lon": 0.0}, {"rental_uris": {"ios": "https://dc.lft.to/lastmile_qr_scan", "android": "https://dc.lft.to/lastmile_qr_scan"}, "type": "electric_scooter", "name": "b4f091cc8ef9f5772f0ac2bc779aae19", "is_reserved": 0, "lon": -77.01842216666667, "is_disabled": 0, "fusion_lat": 0.0, "lat": 38.905292, "bike_id": "b4f091cc8ef9f5772f0ac2bc779aae19", "fusion_lon": 0.0}, {"rental_uris": {"ios": "https://dc.lft.to/lastmile_qr_scan", "android": "https://dc.lft.to/lastmile_qr_scan"}, "type": "electric_scooter", "name": "a2cb0d20a05c442aafc3f3cbe04c2042", "is_reserved": 0, "lon": -77.03502566666667, "is_disabled": 0, "fusion_lat": 0.0, "lat": 38.91557016666667, "bike_id": "a2cb0d20a05c442aafc3f3cbe04c2042", "fusion_lon": 0.0}, {"rental_uris": {"ios": "https://dc.lft.to/lastmile_qr_scan", "android": "https://dc.lft.to/lastmile_qr_scan"}, "type": "electric_scooter", "name": "eb9306fcceccecf00d169aa036c3f6af", "is_reserved": 0, "lon": -76.99916183333333, "is_disabled": 0, "fusion_lat": 0.0, "lat": 38.900532166666665, "bike_id": "eb9306fcceccecf00d169aa036c3f6af", "fusion_lon": 0.0}, {"rental_uris": {"ios": "https://dc.lft.to/lastmile_qr_scan", "android": "https://dc.lft.to/lastmile_qr_scan"}, "type": "electric_scooter", "name": "a98da0cdf756d61aadc006ea182da219", "is_reserved": 0, "lon": -77.02164466666666, "is_disabled": 0, "fusion_lat": 0.0, "lat": 38.92496, "bike_id": "a98da0cdf756d61aadc006ea182da219", "fusion_lon": 0.0}, {"rental_uris": {"ios": "https://dc.lft.to/lastmile_qr_scan", "android": "https://dc.lft.to/lastmile_qr_scan"}, "type": "electric_scooter", "name": "12ab6c3977ab6246ee8e770f3353b721", "is_reserved": 0, "lon": -77.04370933333334, "is_disabled": 0, "fusion_lat": 0.0, "lat": 38.892226, "bike_id": "12ab6c3977ab6246ee8e770f3353b721", "fusion_lon": 0.0}, {"rental_uris": {"ios": "https://dc.lft.to/lastmile_qr_scan", "android": "https://dc.lft.to/lastmile_qr_scan"}, "type": "electric_bike", "name": "8fa00ab4d9e9b0c387fbb4d2a62fc312", "is_reserved": 0, "lon": -76.94148066666666, "is_disabled": 0, "fusion_lat": 0.0, "lat": 38.890189166666666, "bike_id": "8fa00ab4d9e9b0c387fbb4d2a62fc312", "fusion_lon": 0.0}, {"rental_uris": {"ios": "https://dc.lft.to/lastmile_qr_scan", "android": "https://dc.lft.to/lastmile_qr_scan"}, "type": "electric_scooter", "name": "80056dd59c6b7a6c4d3e229ee1e87414", "is_reserved": 0, "lon": -77.07025216666666, "is_disabled": 0, "fusion_lat": 0.0, "lat": 38.893163333333334, "bike_id": "80056dd59c6b7a6c4d3e229ee1e87414", "fusion_lon": 0.0}, {"rental_uris": {"ios": "https://dc.lft.to/lastmile_qr_scan", "android": "https://dc.lft.to/lastmile_qr_scan"}, "type": "electric_scooter", "name": "78098a33e525579de9142b57ceae5183", "is_reserved": 0, "lon": -77.05816116666666, "is_disabled": 0, "fusion_lat": 0.0, "lat": 38.93520316666667, "bike_id": "78098a33e525579de9142b57ceae5183", "fusion_lon": 0.0}, {"rental_uris": {"ios": "https://dc.lft.to/lastmile_qr_scan", "android": "https://dc.lft.to/lastmile_qr_scan"}, "type": "electric_scooter", "name": "950b8fcc785f7fe82fb962e845132478", "is_reserved": 0, "lon": -77.00049366666667, "is_disabled": 0, "fusion_lat": 0.0, "lat": 38.874441, "bike_id": "950b8fcc785f7fe82fb962e845132478", "fusion_lon": 0.0}, {"rental_uris": {"ios": "https://dc.lft.to/lastmile_qr_scan", "android": "https://dc.lft.to/lastmile_qr_scan"}, "type": "electric_scooter", "name": "c9e6bf1beee4297231f824b3b072c4a9", "is_reserved": 0, "lon": -77.002092, "is_disabled": 0, "fusion_lat": 0.0, "lat": 38.91193, "bike_id": "c9e6bf1beee4297231f824b3b072c4a9", "fusion_lon": 0.0}, {"rental_uris": {"ios": "https://dc.lft.to/lastmile_qr_scan", "android": "https://dc.lft.to/lastmile_qr_scan"}, "type": "electric_scooter", "name": "bbff2a98719851f2ee0c02f6ca79afac", "is_reserved": 0, "lon": -77.0247895, "is_disabled": 0, "fusion_lat": 0.0, "lat": 38.918135666666664, "bike_id": "bbff2a98719851f2ee0c02f6ca79afac", "fusion_lon": 0.0}, {"rental_uris": {"ios": "https://dc.lft.to/lastmile_qr_scan", "android": "https://dc.lft.to/lastmile_qr_scan"}, "type": "electric_bike", "name": "0cf90fd2f1a777501c853da979260ad9", "is_reserved": 0, "lon": -77.12940933333333, "is_disabled": 0, "fusion_lat": 0.0, "lat": 38.86574183333333, "bike_id": "0cf90fd2f1a777501c853da979260ad9", "fusion_lon": 0.0}, {"rental_uris": {"ios": "https://dc.lft.to/lastmile_qr_scan", "android": "https://dc.lft.to/lastmile_qr_scan"}, "type": "electric_scooter", "name": "22ed9515c5dd2983552f1d712d88a4f5", "is_reserved": 0, "lon": -76.93189883333334, "is_disabled": 0, "fusion_lat": 0.0, "lat": 38.8986985, "bike_id": "22ed9515c5dd2983552f1d712d88a4f5", "fusion_lon": 0.0}, {"rental_uris": {"ios": "https://dc.lft.to/lastmile_qr_scan", "android": "https://dc.lft.to/lastmile_qr_scan"}, "type": "electric_scooter", "name": "ce2a918e8e041c9b04dbfaa6618e3044", "is_reserved": 0, "lon": -77.05528633333333, "is_disabled": 0, "fusion_lat": 0.0, "lat": 38.910043, "bike_id": "ce2a918e8e041c9b04dbfaa6618e3044", "fusion_lon": 0.0}, {"rental_uris": {"ios": "https://dc.lft.to/lastmile_qr_scan", "android": "https://dc.lft.to/lastmile_qr_scan"}, "type": "electric_scooter", "name": "7bcb958f6004935ef6e9fd6797f9ad0d", "is_reserved": 0, "lon": -77.04403383333333, "is_disabled": 0, "fusion_lat": 0.0, "lat": 38.911291, "bike_id": "7bcb958f6004935ef6e9fd6797f9ad0d", "fusion_lon": 0.0}, {"rental_uris": {"ios": "https://dc.lft.to/lastmile_qr_scan", "android": "https://dc.lft.to/lastmile_qr_scan"}, "type": "electric_scooter", "name": "ca06a203e23993d49a60b1f0bdb6a151", "is_reserved": 0, "lon": -77.03824666666667, "is_disabled": 0, "fusion_lat": 0.0, "lat": 38.962604166666665, "bike_id": "ca06a203e23993d49a60b1f0bdb6a151", "fusion_lon": 0.0}, {"rental_uris": {"ios": "https://dc.lft.to/lastmile_qr_scan", "android": "https://dc.lft.to/lastmile_qr_scan"}, "type": "electric_scooter", "name": "c9340db218df832693170dbff151a62f", "is_reserved": 0, "lon": -77.01499333333334, "is_disabled": 0, "fusion_lat": 0.0, "lat": 38.92664, "bike_id": "c9340db218df832693170dbff151a62f", "fusion_lon": 0.0}, {"rental_uris": {"ios": "https://dc.lft.to/lastmile_qr_scan", "android": "https://dc.lft.to/lastmile_qr_scan"}, "type": "electric_scooter", "name": "4906d452a6af8dd99705cb27193e5b94", "is_reserved": 0, "lon": -77.0460455, "is_disabled": 0, "fusion_lat": 0.0, "lat": 38.918590333333334, "bike_id": "4906d452a6af8dd99705cb27193e5b94", "fusion_lon": 0.0}, {"rental_uris": {"ios": "https://dc.lft.to/lastmile_qr_scan", "android": "https://dc.lft.to/lastmile_qr_scan"}, "type": "electric_scooter", "name": "65e5d23d7a3cb40ff48a8b8da4bdb235", "is_reserved": 0, "lon": -77.03066033333333, "is_disabled": 0, "fusion_lat": 0.0, "lat": 38.922478166666664, "bike_id": "65e5d23d7a3cb40ff48a8b8da4bdb235", "fusion_lon": 0.0}, {"rental_uris": {"ios": "https://dc.lft.to/lastmile_qr_scan", "android": "https://dc.lft.to/lastmile_qr_scan"}, "type": "electric_bike", "name": "d89b2ed2b94aeafba8e4382a2aaceae1", "is_reserved": 0, "lon": -76.91716883333333, "is_disabled": 0, "fusion_lat": 0.0, "lat": 38.8802955, "bike_id": "d89b2ed2b94aeafba8e4382a2aaceae1", "fusion_lon": 0.0}, {"rental_uris": {"ios": "https://dc.lft.to/lastmile_qr_scan", "android": "https://dc.lft.to/lastmile_qr_scan"}, "type": "electric_scooter", "name": "8ffde59892fb8f1acdeae41b7b4d1afc", "is_reserved": 0, "lon": -77.039615, "is_disabled": 0, "fusion_lat": 0.0, "lat": 38.89862016666667, "bike_id": "8ffde59892fb8f1acdeae41b7b4d1afc", "fusion_lon": 0.0}, {"rental_uris": {"ios": "https://dc.lft.to/lastmile_qr_scan", "android": "https://dc.lft.to/lastmile_qr_scan"}, "type": "electric_scooter", "name": "acd1492847e4fb62c27806a61893dae6", "is_reserved": 0, "lon": -77.02182683333334, "is_disabled": 0, "fusion_lat": 0.0, "lat": 38.911227, "bike_id": "acd1492847e4fb62c27806a61893dae6", "fusion_lon": 0.0}, {"rental_uris": {"ios": "https://dc.lft.to/lastmile_qr_scan", "android": "https://dc.lft.to/lastmile_qr_scan"}, "type": "electric_scooter", "name": "6329e4978bf64e734a8ec4eec2000637", "is_reserved": 0, "lon": -77.02651916666667, "is_disabled": 0, "fusion_lat": 0.0, "lat": 38.919140666666664, "bike_id": "6329e4978bf64e734a8ec4eec2000637", "fusion_lon": 0.0}, {"rental_uris": {"ios": "https://dc.lft.to/lastmile_qr_scan", "android": "https://dc.lft.to/lastmile_qr_scan"}, "type": "electric_scooter", "name": "f0bc3337d07cfe190d7f0177f1aa773a", "is_reserved": 0, "lon": -77.0469765, "is_disabled": 0, "fusion_lat": 0.0, "lat": 38.89738466666667, "bike_id": "f0bc3337d07cfe190d7f0177f1aa773a", "fusion_lon": 0.0}, {"rental_uris": {"ios": "https://dc.lft.to/lastmile_qr_scan", "android": "https://dc.lft.to/lastmile_qr_scan"}, "type": "electric_scooter", "name": "bbff1be8be658ddd840cd474930a1eed", "is_reserved": 0, "lon": -76.99036433333333, "is_disabled": 0, "fusion_lat": 0.0, "lat": 38.888760166666664, "bike_id": "bbff1be8be658ddd840cd474930a1eed", "fusion_lon": 0.0}, {"rental_uris": {"ios": "https://dc.lft.to/lastmile_qr_scan", "android": "https://dc.lft.to/lastmile_qr_scan"}, "type": "electric_scooter", "name": "58f21f8af7bc8c67977a9cc1a6a5ba7e", "is_reserved": 0, "lon": -77.01706566666667, "is_disabled": 0, "fusion_lat": 0.0, "lat": 38.913865666666666, "bike_id": "58f21f8af7bc8c67977a9cc1a6a5ba7e", "fusion_lon": 0.0}, {"rental_uris": {"ios": "https://dc.lft.to/lastmile_qr_scan", "android": "https://dc.lft.to/lastmile_qr_scan"}, "type": "electric_scooter", "name": "8352ea96e69c297b509ee6115210cfa4", "is_reserved": 0, "lon": -77.0374325, "is_disabled": 0, "fusion_lat": 0.0, "lat": 38.928565, "bike_id": "8352ea96e69c297b509ee6115210cfa4", "fusion_lon": 0.0}, {"rental_uris": {"ios": "https://dc.lft.to/lastmile_qr_scan", "android": "https://dc.lft.to/lastmile_qr_scan"}, "type": "electric_scooter", "name": "aa35011611194b238725ff919457c114", "is_reserved": 0, "lon": -77.01265716666667, "is_disabled": 0, "fusion_lat": 0.0, "lat": 38.89717066666667, "bike_id": "aa35011611194b238725ff919457c114", "fusion_lon": 0.0}, {"rental_uris": {"ios": "https://dc.lft.to/lastmile_qr_scan", "android": "https://dc.lft.to/lastmile_qr_scan"}, "type": "electric_scooter", "name": "7a5925be8bc5d61356ea5c78a6d2c20f", "is_reserved": 0, "lon": -77.00056366666666, "is_disabled": 0, "fusion_lat": 0.0, "lat": 38.905545000000004, "bike_id": "7a5925be8bc5d61356ea5c78a6d2c20f", "fusion_lon": 0.0}, {"rental_uris": {"ios": "https://dc.lft.to/lastmile_qr_scan", "android": "https://dc.lft.to/lastmile_qr_scan"}, "type": "electric_scooter", "name": "e83e5703e9144f81c5e3c234cf324573", "is_reserved": 0, "lon": -77.052225, "is_disabled": 0, "fusion_lat": 0.0, "lat": 38.90319066666667, "bike_id": "e83e5703e9144f81c5e3c234cf324573", "fusion_lon": 0.0}, {"rental_uris": {"ios": "https://dc.lft.to/lastmile_qr_scan", "android": "https://dc.lft.to/lastmile_qr_scan"}, "type": "electric_scooter", "name": "c643e28f67f580d663250714cc926caa", "is_reserved": 0, "lon": -77.07214533333334, "is_disabled": 0, "fusion_lat": 0.0, "lat": 38.90685283333333, "bike_id": "c643e28f67f580d663250714cc926caa", "fusion_lon": 0.0}, {"rental_uris": {"ios": "https://dc.lft.to/lastmile_qr_scan", "android": "https://dc.lft.to/lastmile_qr_scan"}, "type": "electric_scooter", "name": "ebbeb19c7e7f3b37b867f60ed81d7ad6", "is_reserved": 0, "lon": -77.02963283333334, "is_disabled": 0, "fusion_lat": 0.0, "lat": 38.90492066666667, "bike_id": "ebbeb19c7e7f3b37b867f60ed81d7ad6", "fusion_lon": 0.0}, {"rental_uris": {"ios": "https://dc.lft.to/lastmile_qr_scan", "android": "https://dc.lft.to/lastmile_qr_scan"}, "type": "electric_scooter", "name": "e461f29642ba350c250be6da31a3e50c", "is_reserved": 0, "lon": -77.044547, "is_disabled": 0, "fusion_lat": 0.0, "lat": 38.91114316666667, "bike_id": "e461f29642ba350c250be6da31a3e50c", "fusion_lon": 0.0}, {"rental_uris": {"ios": "https://dc.lft.to/lastmile_qr_scan", "android": "https://dc.lft.to/lastmile_qr_scan"}, "type": "electric_scooter", "name": "b67e86b15568ac4be073adbe65043068", "is_reserved": 0, "lon": -77.02319233333333, "is_disabled": 0, "fusion_lat": 0.0, "lat": 38.94015983333333, "bike_id": "b67e86b15568ac4be073adbe65043068", "fusion_lon": 0.0}, {"rental_uris": {"ios": "https://dc.lft.to/lastmile_qr_scan", "android": "https://dc.lft.to/lastmile_qr_scan"}, "type": "electric_scooter", "name": "03b156392eb1cd64c93e1a3f81b30115", "is_reserved": 0, "lon": -77.02132366666666, "is_disabled": 0, "fusion_lat": 0.0, "lat": 38.927937, "bike_id": "03b156392eb1cd64c93e1a3f81b30115", "fusion_lon": 0.0}, {"rental_uris": {"ios": "https://dc.lft.to/lastmile_qr_scan", "android": "https://dc.lft.to/lastmile_qr_scan"}, "type": "electric_scooter", "name": "a3389ef4397b660abb9789fe9cbbb0bb", "is_reserved": 0, "lon": -77.022822, "is_disabled": 0, "fusion_lat": 0.0, "lat": 38.91836266666667, "bike_id": "a3389ef4397b660abb9789fe9cbbb0bb", "fusion_lon": 0.0}, {"rental_uris": {"ios": "https://dc.lft.to/lastmile_qr_scan", "android": "https://dc.lft.to/lastmile_qr_scan"}, "type": "electric_scooter", "name": "b655e4448c870e7aae206c8cf4668a99", "is_reserved": 0, "lon": -77.06849516666666, "is_disabled": 0, "fusion_lat": 0.0, "lat": 38.904109, "bike_id": "b655e4448c870e7aae206c8cf4668a99", "fusion_lon": 0.0}, {"rental_uris": {"ios": "https://dc.lft.to/lastmile_qr_scan", "android": "https://dc.lft.to/lastmile_qr_scan"}, "type": "electric_scooter", "name": "e814e0f409d9fe329dc8d76925c8fe1b", "is_reserved": 0, "lon": -77.03471816666666, "is_disabled": 0, "fusion_lat": 0.0, "lat": 38.921548333333334, "bike_id": "e814e0f409d9fe329dc8d76925c8fe1b", "fusion_lon": 0.0}, {"rental_uris": {"ios": "https://dc.lft.to/lastmile_qr_scan", "android": "https://dc.lft.to/lastmile_qr_scan"}, "type": "electric_scooter", "name": "092ba7cc06cc202b5998e1cfe0b785dc", "is_reserved": 0, "lon": -77.01755416666667, "is_disabled": 0, "fusion_lat": 0.0, "lat": 38.876880666666665, "bike_id": "092ba7cc06cc202b5998e1cfe0b785dc", "fusion_lon": 0.0}, {"rental_uris": {"ios": "https://dc.lft.to/lastmile_qr_scan", "android": "https://dc.lft.to/lastmile_qr_scan"}, "type": "electric_bike", "name": "035fc69b477cce82dab0fb3757a3e34f", "is_reserved": 0, "lon": -77.0122775, "is_disabled": 0, "fusion_lat": 0.0, "lat": 38.9508295, "bike_id": "035fc69b477cce82dab0fb3757a3e34f", "fusion_lon": 0.0}, {"rental_uris": {"ios": "https://dc.lft.to/lastmile_qr_scan", "android": "https://dc.lft.to/lastmile_qr_scan"}, "type": "electric_scooter", "name": "e597b00af56016b4d02b87ccfc849d04", "is_reserved": 0, "lon": -77.01188066666667, "is_disabled": 0, "fusion_lat": 0.0, "lat": 38.90043333333333, "bike_id": "e597b00af56016b4d02b87ccfc849d04", "fusion_lon": 0.0}, {"rental_uris": {"ios": "https://dc.lft.to/lastmile_qr_scan", "android": "https://dc.lft.to/lastmile_qr_scan"}, "type": "electric_scooter", "name": "4eed72e40b31661a4cb611d5e0f7cb0e", "is_reserved": 0, "lon": -77.03152516666667, "is_disabled": 0, "fusion_lat": 0.0, "lat": 38.928120166666666, "bike_id": "4eed72e40b31661a4cb611d5e0f7cb0e", "fusion_lon": 0.0}, {"rental_uris": {"ios": "https://dc.lft.to/lastmile_qr_scan", "android": "https://dc.lft.to/lastmile_qr_scan"}, "type": "electric_scooter", "name": "bab876c2cf70b02442192c371b260e3c", "is_reserved": 0, "lon": -77.03373733333333, "is_disabled": 0, "fusion_lat": 0.0, "lat": 38.899269, "bike_id": "bab876c2cf70b02442192c371b260e3c", "fusion_lon": 0.0}, {"rental_uris": {"ios": "https://dc.lft.to/lastmile_qr_scan", "android": "https://dc.lft.to/lastmile_qr_scan"}, "type": "electric_scooter", "name": "d3a775787876e1e8d8d65da97563f108", "is_reserved": 0, "lon": -77.02838366666667, "is_disabled": 0, "fusion_lat": 0.0, "lat": 38.910183, "bike_id": "d3a775787876e1e8d8d65da97563f108", "fusion_lon": 0.0}, {"rental_uris": {"ios": "https://dc.lft.to/lastmile_qr_scan", "android": "https://dc.lft.to/lastmile_qr_scan"}, "type": "electric_scooter", "name": "823c31299fb61b8d64cb94b5826a57a1", "is_reserved": 0, "lon": -77.03278033333333, "is_disabled": 0, "fusion_lat": 0.0, "lat": 38.90718733333333, "bike_id": "823c31299fb61b8d64cb94b5826a57a1", "fusion_lon": 0.0}, {"rental_uris": {"ios": "https://dc.lft.to/lastmile_qr_scan", "android": "https://dc.lft.to/lastmile_qr_scan"}, "type": "electric_scooter", "name": "dab7e06171f7b8ba200ef1e4d328b722", "is_reserved": 0, "lon": -77.0175365, "is_disabled": 0, "fusion_lat": 0.0, "lat": 38.887327, "bike_id": "dab7e06171f7b8ba200ef1e4d328b722", "fusion_lon": 0.0}, {"rental_uris": {"ios": "https://dc.lft.to/lastmile_qr_scan", "android": "https://dc.lft.to/lastmile_qr_scan"}, "type": "electric_scooter", "name": "756cc094ed95b389f7511d6365028716", "is_reserved": 0, "lon": -77.04177783333333, "is_disabled": 0, "fusion_lat": 0.0, "lat": 38.9035995, "bike_id": "756cc094ed95b389f7511d6365028716", "fusion_lon": 0.0}, {"rental_uris": {"ios": "https://dc.lft.to/lastmile_qr_scan", "android": "https://dc.lft.to/lastmile_qr_scan"}, "type": "electric_bike", "name": "b85a141c292ce248fd3e5667232477cf", "is_reserved": 0, "lon": -76.98266666666666, "is_disabled": 0, "fusion_lat": 0.0, "lat": 38.848488333333336, "bike_id": "b85a141c292ce248fd3e5667232477cf", "fusion_lon": 0.0}, {"rental_uris": {"ios": "https://dc.lft.to/lastmile_qr_scan", "android": "https://dc.lft.to/lastmile_qr_scan"}, "type": "electric_scooter", "name": "8b3fc620e8e42af2d4874e8cdeb1dda3", "is_reserved": 0, "lon": -77.02665166666667, "is_disabled": 0, "fusion_lat": 0.0, "lat": 38.89730316666667, "bike_id": "8b3fc620e8e42af2d4874e8cdeb1dda3", "fusion_lon": 0.0}, {"rental_uris": {"ios": "https://dc.lft.to/lastmile_qr_scan", "android": "https://dc.lft.to/lastmile_qr_scan"}, "type": "electric_scooter", "name": "b3e32971d3df0b96400a4ed9bc3a38c9", "is_reserved": 0, "lon": -77.02829, "is_disabled": 0, "fusion_lat": 0.0, "lat": 38.89951766666667, "bike_id": "b3e32971d3df0b96400a4ed9bc3a38c9", "fusion_lon": 0.0}, {"rental_uris": {"ios": "https://dc.lft.to/lastmile_qr_scan", "android": "https://dc.lft.to/lastmile_qr_scan"}, "type": "electric_scooter", "name": "88da7acb1d9f69edf0f35566d87578d2", "is_reserved": 0, "lon": -77.01766716666667, "is_disabled": 0, "fusion_lat": 0.0, "lat": 38.886234, "bike_id": "88da7acb1d9f69edf0f35566d87578d2", "fusion_lon": 0.0}, {"rental_uris": {"ios": "https://dc.lft.to/lastmile_qr_scan", "android": "https://dc.lft.to/lastmile_qr_scan"}, "type": "electric_scooter", "name": "2be617d93f9b643cf5057750599068da", "is_reserved": 0, "lon": -77.017067, "is_disabled": 0, "fusion_lat": 0.0, "lat": 38.904686, "bike_id": "2be617d93f9b643cf5057750599068da", "fusion_lon": 0.0}, {"rental_uris": {"ios": "https://dc.lft.to/lastmile_qr_scan", "android": "https://dc.lft.to/lastmile_qr_scan"}, "type": "electric_scooter", "name": "68f9a50e7a44be31a6611e699b4583a6", "is_reserved": 0, "lon": -77.025958, "is_disabled": 0, "fusion_lat": 0.0, "lat": 38.913986333333334, "bike_id": "68f9a50e7a44be31a6611e699b4583a6", "fusion_lon": 0.0}, {"rental_uris": {"ios": "https://dc.lft.to/lastmile_qr_scan", "android": "https://dc.lft.to/lastmile_qr_scan"}, "type": "electric_scooter", "name": "f3ddc631bc2a986bbe122c87241fb024", "is_reserved": 0, "lon": -77.02302416666667, "is_disabled": 0, "fusion_lat": 0.0, "lat": 38.91839783333333, "bike_id": "f3ddc631bc2a986bbe122c87241fb024", "fusion_lon": 0.0}, {"rental_uris": {"ios": "https://dc.lft.to/lastmile_qr_scan", "android": "https://dc.lft.to/lastmile_qr_scan"}, "type": "electric_scooter", "name": "a897e16d25af2a0baab0459a1b33fa31", "is_reserved": 0, "lon": -76.983439, "is_disabled": 0, "fusion_lat": 0.0, "lat": 38.9008925, "bike_id": "a897e16d25af2a0baab0459a1b33fa31", "fusion_lon": 0.0}, {"rental_uris": {"ios": "https://dc.lft.to/lastmile_qr_scan", "android": "https://dc.lft.to/lastmile_qr_scan"}, "type": "electric_scooter", "name": "4d6b439b4e5123ec70865102826abf0a", "is_reserved": 0, "lon": -77.03441033333333, "is_disabled": 0, "fusion_lat": 0.0, "lat": 38.9180025, "bike_id": "4d6b439b4e5123ec70865102826abf0a", "fusion_lon": 0.0}, {"rental_uris": {"ios": "https://dc.lft.to/lastmile_qr_scan", "android": "https://dc.lft.to/lastmile_qr_scan"}, "type": "electric_scooter", "name": "d28d7014a764d4cbfdbb1a2a1dd68211", "is_reserved": 0, "lon": -76.98543583333333, "is_disabled": 0, "fusion_lat": 0.0, "lat": 38.91294166666667, "bike_id": "d28d7014a764d4cbfdbb1a2a1dd68211", "fusion_lon": 0.0}, {"rental_uris": {"ios": "https://dc.lft.to/lastmile_qr_scan", "android": "https://dc.lft.to/lastmile_qr_scan"}, "type": "electric_scooter", "name": "5c708f63a58748d05423ac783ca3f409", "is_reserved": 0, "lon": -77.02607633333334, "is_disabled": 0, "fusion_lat": 0.0, "lat": 38.92416683333333, "bike_id": "5c708f63a58748d05423ac783ca3f409", "fusion_lon": 0.0}, {"rental_uris": {"ios": "https://dc.lft.to/lastmile_qr_scan", "android": "https://dc.lft.to/lastmile_qr_scan"}, "type": "electric_scooter", "name": "a2a910be2de146f174dc782a83de134f", "is_reserved": 0, "lon": -77.06281983333334, "is_disabled": 0, "fusion_lat": 0.0, "lat": 38.91244983333333, "bike_id": "a2a910be2de146f174dc782a83de134f", "fusion_lon": 0.0}, {"rental_uris": {"ios": "https://dc.lft.to/lastmile_qr_scan", "android": "https://dc.lft.to/lastmile_qr_scan"}, "type": "electric_scooter", "name": "c4e57359698e91ec2c63670250bf0338", "is_reserved": 0, "lon": -76.9574215, "is_disabled": 0, "fusion_lat": 0.0, "lat": 38.883856, "bike_id": "c4e57359698e91ec2c63670250bf0338", "fusion_lon": 0.0}, {"rental_uris": {"ios": "https://dc.lft.to/lastmile_qr_scan", "android": "https://dc.lft.to/lastmile_qr_scan"}, "type": "electric_scooter", "name": "3cdada1d024986e133afa5d1724312aa", "is_reserved": 0, "lon": -77.033357, "is_disabled": 0, "fusion_lat": 0.0, "lat": 38.919177, "bike_id": "3cdada1d024986e133afa5d1724312aa", "fusion_lon": 0.0}, {"rental_uris": {"ios": "https://dc.lft.to/lastmile_qr_scan", "android": "https://dc.lft.to/lastmile_qr_scan"}, "type": "electric_scooter", "name": "29a246c9a8c00ebc6a5cd1b3f5b48ace", "is_reserved": 0, "lon": -77.03370833333334, "is_disabled": 0, "fusion_lat": 0.0, "lat": 38.91105916666667, "bike_id": "29a246c9a8c00ebc6a5cd1b3f5b48ace", "fusion_lon": 0.0}, {"rental_uris": {"ios": "https://dc.lft.to/lastmile_qr_scan", "android": "https://dc.lft.to/lastmile_qr_scan"}, "type": "electric_scooter", "name": "beccebe5be3b298254fea9b8269be234", "is_reserved": 0, "lon": -77.00570883333333, "is_disabled": 0, "fusion_lat": 0.0, "lat": 38.905638, "bike_id": "beccebe5be3b298254fea9b8269be234", "fusion_lon": 0.0}, {"rental_uris": {"ios": "https://dc.lft.to/lastmile_qr_scan", "android": "https://dc.lft.to/lastmile_qr_scan"}, "type": "electric_scooter", "name": "19020962bba516b4ec9efc5ae646b721", "is_reserved": 0, "lon": -77.02810983333333, "is_disabled": 0, "fusion_lat": 0.0, "lat": 38.899156, "bike_id": "19020962bba516b4ec9efc5ae646b721", "fusion_lon": 0.0}, {"rental_uris": {"ios": "https://dc.lft.to/lastmile_qr_scan", "android": "https://dc.lft.to/lastmile_qr_scan"}, "type": "electric_scooter", "name": "7eaba857b6d4629e443c3b4fa0dfef57", "is_reserved": 0, "lon": -77.04514, "is_disabled": 0, "fusion_lat": 0.0, "lat": 38.9232045, "bike_id": "7eaba857b6d4629e443c3b4fa0dfef57", "fusion_lon": 0.0}, {"rental_uris": {"ios": "https://dc.lft.to/lastmile_qr_scan", "android": "https://dc.lft.to/lastmile_qr_scan"}, "type": "electric_scooter", "name": "7b492921a91e42380b8a90d632728aac", "is_reserved": 0, "lon": -77.02943733333333, "is_disabled": 0, "fusion_lat": 0.0, "lat": 38.9042095, "bike_id": "7b492921a91e42380b8a90d632728aac", "fusion_lon": 0.0}, {"rental_uris": {"ios": "https://dc.lft.to/lastmile_qr_scan", "android": "https://dc.lft.to/lastmile_qr_scan"}, "type": "electric_scooter", "name": "7b4568355ad6cb9b4e0d6fed41fbfaa6", "is_reserved": 0, "lon": -77.03186083333334, "is_disabled": 0, "fusion_lat": 0.0, "lat": 38.9156155, "bike_id": "7b4568355ad6cb9b4e0d6fed41fbfaa6", "fusion_lon": 0.0}, {"rental_uris": {"ios": "https://dc.lft.to/lastmile_qr_scan", "android": "https://dc.lft.to/lastmile_qr_scan"}, "type": "electric_scooter", "name": "2a07c080db5b190361ea4a0309f827c1", "is_reserved": 0, "lon": -77.02109033333333, "is_disabled": 0, "fusion_lat": 0.0, "lat": 38.92687683333333, "bike_id": "2a07c080db5b190361ea4a0309f827c1", "fusion_lon": 0.0}, {"rental_uris": {"ios": "https://dc.lft.to/lastmile_qr_scan", "android": "https://dc.lft.to/lastmile_qr_scan"}, "type": "electric_scooter", "name": "99ae001c7f8933b0b100fd58d4955b1d", "is_reserved": 0, "lon": -77.01753016666666, "is_disabled": 0, "fusion_lat": 0.0, "lat": 38.8800525, "bike_id": "99ae001c7f8933b0b100fd58d4955b1d", "fusion_lon": 0.0}, {"rental_uris": {"ios": "https://dc.lft.to/lastmile_qr_scan", "android": "https://dc.lft.to/lastmile_qr_scan"}, "type": "electric_scooter", "name": "aa99cc2e925a5ff8409bf7de96b9fe1b", "is_reserved": 0, "lon": -77.06147333333334, "is_disabled": 0, "fusion_lat": 0.0, "lat": 38.912911666666666, "bike_id": "aa99cc2e925a5ff8409bf7de96b9fe1b", "fusion_lon": 0.0}, {"rental_uris": {"ios": "https://dc.lft.to/lastmile_qr_scan", "android": "https://dc.lft.to/lastmile_qr_scan"}, "type": "electric_scooter", "name": "637c02909c288113a0b6ea944dc27164", "is_reserved": 0, "lon": -76.965282, "is_disabled": 0, "fusion_lat": 0.0, "lat": 38.876295166666665, "bike_id": "637c02909c288113a0b6ea944dc27164", "fusion_lon": 0.0}, {"rental_uris": {"ios": "https://dc.lft.to/lastmile_qr_scan", "android": "https://dc.lft.to/lastmile_qr_scan"}, "type": "electric_scooter", "name": "cb18c090e9eba8799a37bc31ce5a99ab", "is_reserved": 0, "lon": -77.03798366666666, "is_disabled": 0, "fusion_lat": 0.0, "lat": 38.925360166666664, "bike_id": "cb18c090e9eba8799a37bc31ce5a99ab", "fusion_lon": 0.0}, {"rental_uris": {"ios": "https://dc.lft.to/lastmile_qr_scan", "android": "https://dc.lft.to/lastmile_qr_scan"}, "type": "electric_scooter", "name": "cbc72e97a0492d464fbef75380699234", "is_reserved": 0, "lon": -77.00111066666666, "is_disabled": 0, "fusion_lat": 0.0, "lat": 38.9024375, "bike_id": "cbc72e97a0492d464fbef75380699234", "fusion_lon": 0.0}, {"rental_uris": {"ios": "https://dc.lft.to/lastmile_qr_scan", "android": "https://dc.lft.to/lastmile_qr_scan"}, "type": "electric_scooter", "name": "90368b35de12896099fdcc6ad187a7cf", "is_reserved": 0, "lon": -77.01613716666667, "is_disabled": 0, "fusion_lat": 0.0, "lat": 38.90602483333333, "bike_id": "90368b35de12896099fdcc6ad187a7cf", "fusion_lon": 0.0}, {"rental_uris": {"ios": "https://dc.lft.to/lastmile_qr_scan", "android": "https://dc.lft.to/lastmile_qr_scan"}, "type": "electric_scooter", "name": "896d19fd21cc91061c34b1905dbb917b", "is_reserved": 0, "lon": -77.0319125, "is_disabled": 0, "fusion_lat": 0.0, "lat": 38.918209833333336, "bike_id": "896d19fd21cc91061c34b1905dbb917b", "fusion_lon": 0.0}, {"rental_uris": {"ios": "https://dc.lft.to/lastmile_qr_scan", "android": "https://dc.lft.to/lastmile_qr_scan"}, "type": "electric_scooter", "name": "a5409ef4e244839999ed749085fb66d6", "is_reserved": 0, "lon": -77.0392635, "is_disabled": 0, "fusion_lat": 0.0, "lat": 38.901237333333334, "bike_id": "a5409ef4e244839999ed749085fb66d6", "fusion_lon": 0.0}, {"rental_uris": {"ios": "https://dc.lft.to/lastmile_qr_scan", "android": "https://dc.lft.to/lastmile_qr_scan"}, "type": "electric_scooter", "name": "cbcb6abeedaeeefd7b0019d904b06838", "is_reserved": 0, "lon": -76.99212666666666, "is_disabled": 0, "fusion_lat": 0.0, "lat": 38.889663666666664, "bike_id": "cbcb6abeedaeeefd7b0019d904b06838", "fusion_lon": 0.0}, {"rental_uris": {"ios": "https://dc.lft.to/lastmile_qr_scan", "android": "https://dc.lft.to/lastmile_qr_scan"}, "type": "electric_scooter", "name": "64acae946705c9816a6a0662d9d8a679", "is_reserved": 0, "lon": -76.99479366666667, "is_disabled": 0, "fusion_lat": 0.0, "lat": 38.862140333333336, "bike_id": "64acae946705c9816a6a0662d9d8a679", "fusion_lon": 0.0}, {"rental_uris": {"ios": "https://dc.lft.to/lastmile_qr_scan", "android": "https://dc.lft.to/lastmile_qr_scan"}, "type": "electric_scooter", "name": "8ddfcf822d2f1874e4830e523211f7f0", "is_reserved": 0, "lon": -77.034517, "is_disabled": 0, "fusion_lat": 0.0, "lat": 38.907308, "bike_id": "8ddfcf822d2f1874e4830e523211f7f0", "fusion_lon": 0.0}, {"rental_uris": {"ios": "https://dc.lft.to/lastmile_qr_scan", "android": "https://dc.lft.to/lastmile_qr_scan"}, "type": "electric_scooter", "name": "c38884c4a9cd291c5f865c087d1704d2", "is_reserved": 0, "lon": -76.99009083333334, "is_disabled": 0, "fusion_lat": 0.0, "lat": 38.8642425, "bike_id": "c38884c4a9cd291c5f865c087d1704d2", "fusion_lon": 0.0}, {"rental_uris": {"ios": "https://dc.lft.to/lastmile_qr_scan", "android": "https://dc.lft.to/lastmile_qr_scan"}, "type": "electric_scooter", "name": "c15a5c22c1def5c921b72f2a496cb799", "is_reserved": 0, "lon": -77.02390016666666, "is_disabled": 0, "fusion_lat": 0.0, "lat": 38.920766666666665, "bike_id": "c15a5c22c1def5c921b72f2a496cb799", "fusion_lon": 0.0}, {"rental_uris": {"ios": "https://dc.lft.to/lastmile_qr_scan", "android": "https://dc.lft.to/lastmile_qr_scan"}, "type": "electric_scooter", "name": "05827bc5ef8dffdabdc1afa85c8d616e", "is_reserved": 0, "lon": -77.04371966666666, "is_disabled": 0, "fusion_lat": 0.0, "lat": 38.89226716666667, "bike_id": "05827bc5ef8dffdabdc1afa85c8d616e", "fusion_lon": 0.0}, {"rental_uris": {"ios": "https://dc.lft.to/lastmile_qr_scan", "android": "https://dc.lft.to/lastmile_qr_scan"}, "type": "electric_scooter", "name": "5cf1496d601790d39026dae56f28e7d7", "is_reserved": 0, "lon": -77.05066566666666, "is_disabled": 0, "fusion_lat": 0.0, "lat": 38.9235865, "bike_id": "5cf1496d601790d39026dae56f28e7d7", "fusion_lon": 0.0}, {"rental_uris": {"ios": "https://dc.lft.to/lastmile_qr_scan", "android": "https://dc.lft.to/lastmile_qr_scan"}, "type": "electric_scooter", "name": "11a7f5bf370d579d7f5a99e625b52974", "is_reserved": 0, "lon": -77.025824, "is_disabled": 0, "fusion_lat": 0.0, "lat": 38.887213333333335, "bike_id": "11a7f5bf370d579d7f5a99e625b52974", "fusion_lon": 0.0}, {"rental_uris": {"ios": "https://dc.lft.to/lastmile_qr_scan", "android": "https://dc.lft.to/lastmile_qr_scan"}, "type": "electric_scooter", "name": "deb9ff9f3f1bf71227a21180381220b1", "is_reserved": 0, "lon": -77.071633, "is_disabled": 0, "fusion_lat": 0.0, "lat": 38.90774483333333, "bike_id": "deb9ff9f3f1bf71227a21180381220b1", "fusion_lon": 0.0}, {"rental_uris": {"ios": "https://dc.lft.to/lastmile_qr_scan", "android": "https://dc.lft.to/lastmile_qr_scan"}, "type": "electric_scooter", "name": "98da007b12d041f9b408241f8116492b", "is_reserved": 0, "lon": -77.04124066666667, "is_disabled": 0, "fusion_lat": 0.0, "lat": 38.928767666666666, "bike_id": "98da007b12d041f9b408241f8116492b", "fusion_lon": 0.0}, {"rental_uris": {"ios": "https://dc.lft.to/lastmile_qr_scan", "android": "https://dc.lft.to/lastmile_qr_scan"}, "type": "electric_scooter", "name": "c33cf1ddb89d9f461b193cff358be90a", "is_reserved": 0, "lon": -77.055078, "is_disabled": 0, "fusion_lat": 0.0, "lat": 38.9283755, "bike_id": "c33cf1ddb89d9f461b193cff358be90a", "fusion_lon": 0.0}, {"rental_uris": {"ios": "https://dc.lft.to/lastmile_qr_scan", "android": "https://dc.lft.to/lastmile_qr_scan"}, "type": "electric_scooter", "name": "8e32fe66b8859398a41d924642088d76", "is_reserved": 0, "lon": -77.0333545, "is_disabled": 0, "fusion_lat": 0.0, "lat": 38.9155375, "bike_id": "8e32fe66b8859398a41d924642088d76", "fusion_lon": 0.0}, {"rental_uris": {"ios": "https://dc.lft.to/lastmile_qr_scan", "android": "https://dc.lft.to/lastmile_qr_scan"}, "type": "electric_scooter", "name": "ab10d087bd30242be36a5bbfddaed44a", "is_reserved": 0, "lon": -76.999627, "is_disabled": 0, "fusion_lat": 0.0, "lat": 38.891945666666665, "bike_id": "ab10d087bd30242be36a5bbfddaed44a", "fusion_lon": 0.0}, {"rental_uris": {"ios": "https://dc.lft.to/lastmile_qr_scan", "android": "https://dc.lft.to/lastmile_qr_scan"}, "type": "electric_scooter", "name": "bb2835cab713b7a46d8f682cb85c7e4d", "is_reserved": 0, "lon": -76.94463233333333, "is_disabled": 0, "fusion_lat": 0.0, "lat": 38.8902805, "bike_id": "bb2835cab713b7a46d8f682cb85c7e4d", "fusion_lon": 0.0}, {"rental_uris": {"ios": "https://dc.lft.to/lastmile_qr_scan", "android": "https://dc.lft.to/lastmile_qr_scan"}, "type": "electric_scooter", "name": "7ba7a1eb0433cdb7a351c76566b41c1f", "is_reserved": 0, "lon": -77.072636, "is_disabled": 0, "fusion_lat": 0.0, "lat": 38.934368, "bike_id": "7ba7a1eb0433cdb7a351c76566b41c1f", "fusion_lon": 0.0}, {"rental_uris": {"ios": "https://dc.lft.to/lastmile_qr_scan", "android": "https://dc.lft.to/lastmile_qr_scan"}, "type": "electric_scooter", "name": "d2f21c82e40570fba9c7dbe8c9ed98fc", "is_reserved": 0, "lon": -77.04907133333333, "is_disabled": 0, "fusion_lat": 0.0, "lat": 38.90084483333333, "bike_id": "d2f21c82e40570fba9c7dbe8c9ed98fc", "fusion_lon": 0.0}, {"rental_uris": {"ios": "https://dc.lft.to/lastmile_qr_scan", "android": "https://dc.lft.to/lastmile_qr_scan"}, "type": "electric_bike", "name": "ef846873c53b427f30b85351bd1522d7", "is_reserved": 0, "lon": -77.00414133333334, "is_disabled": 0, "fusion_lat": 0.0, "lat": 38.98524, "bike_id": "ef846873c53b427f30b85351bd1522d7", "fusion_lon": 0.0}, {"rental_uris": {"ios": "https://dc.lft.to/lastmile_qr_scan", "android": "https://dc.lft.to/lastmile_qr_scan"}, "type": "electric_scooter", "name": "dff626ee1bae39d7e93ec3fcf8dc0bd6", "is_reserved": 0, "lon": -77.02006566666667, "is_disabled": 0, "fusion_lat": 0.0, "lat": 38.881382, "bike_id": "dff626ee1bae39d7e93ec3fcf8dc0bd6", "fusion_lon": 0.0}, {"rental_uris": {"ios": "https://dc.lft.to/lastmile_qr_scan", "android": "https://dc.lft.to/lastmile_qr_scan"}, "type": "electric_scooter", "name": "b77ca54cdbaaab921e77f71a749371c7", "is_reserved": 0, "lon": -77.04225666666666, "is_disabled": 0, "fusion_lat": 0.0, "lat": 38.9110445, "bike_id": "b77ca54cdbaaab921e77f71a749371c7", "fusion_lon": 0.0}, {"rental_uris": {"ios": "https://dc.lft.to/lastmile_qr_scan", "android": "https://dc.lft.to/lastmile_qr_scan"}, "type": "electric_scooter", "name": "d042b995f292073171cbd49df46cd98f", "is_reserved": 0, "lon": -76.93394066666667, "is_disabled": 0, "fusion_lat": 0.0, "lat": 38.8991125, "bike_id": "d042b995f292073171cbd49df46cd98f", "fusion_lon": 0.0}, {"rental_uris": {"ios": "https://dc.lft.to/lastmile_qr_scan", "android": "https://dc.lft.to/lastmile_qr_scan"}, "type": "electric_scooter", "name": "0e0756bcb8103bfa60ab92392f946817", "is_reserved": 0, "lon": -77.059358, "is_disabled": 0, "fusion_lat": 0.0, "lat": 38.90497333333333, "bike_id": "0e0756bcb8103bfa60ab92392f946817", "fusion_lon": 0.0}, {"rental_uris": {"ios": "https://dc.lft.to/lastmile_qr_scan", "android": "https://dc.lft.to/lastmile_qr_scan"}, "type": "electric_scooter", "name": "d0d1ac4b7a340b8671e3797ae2077cbc", "is_reserved": 0, "lon": -77.00381366666667, "is_disabled": 0, "fusion_lat": 0.0, "lat": 38.8794425, "bike_id": "d0d1ac4b7a340b8671e3797ae2077cbc", "fusion_lon": 0.0}, {"rental_uris": {"ios": "https://dc.lft.to/lastmile_qr_scan", "android": "https://dc.lft.to/lastmile_qr_scan"}, "type": "electric_bike", "name": "95b2870132b4f0446575c1f9b531a5b5", "is_reserved": 0, "lon": -76.999125, "is_disabled": 0, "fusion_lat": 0.0, "lat": 38.864476, "bike_id": "95b2870132b4f0446575c1f9b531a5b5", "fusion_lon": 0.0}, {"rental_uris": {"ios": "https://dc.lft.to/lastmile_qr_scan", "android": "https://dc.lft.to/lastmile_qr_scan"}, "type": "electric_scooter", "name": "46a92c0ef69b9240c9848be5aac9e6d9", "is_reserved": 0, "lon": -77.03645266666666, "is_disabled": 0, "fusion_lat": 0.0, "lat": 38.91047116666667, "bike_id": "46a92c0ef69b9240c9848be5aac9e6d9", "fusion_lon": 0.0}, {"rental_uris": {"ios": "https://dc.lft.to/lastmile_qr_scan", "android": "https://dc.lft.to/lastmile_qr_scan"}, "type": "electric_scooter", "name": "a16da0333934c4d53b018cdd6268b382", "is_reserved": 0, "lon": -77.03299, "is_disabled": 0, "fusion_lat": 0.0, "lat": 38.91698516666666, "bike_id": "a16da0333934c4d53b018cdd6268b382", "fusion_lon": 0.0}, {"rental_uris": {"ios": "https://dc.lft.to/lastmile_qr_scan", "android": "https://dc.lft.to/lastmile_qr_scan"}, "type": "electric_scooter", "name": "4e3c161aa0ee792b16a04ea581fa8309", "is_reserved": 0, "lon": -77.0572115, "is_disabled": 0, "fusion_lat": 0.0, "lat": 38.933539, "bike_id": "4e3c161aa0ee792b16a04ea581fa8309", "fusion_lon": 0.0}, {"rental_uris": {"ios": "https://dc.lft.to/lastmile_qr_scan", "android": "https://dc.lft.to/lastmile_qr_scan"}, "type": "electric_scooter", "name": "9811db81752096488cdb789aeabacfa2", "is_reserved": 0, "lon": -77.00598866666667, "is_disabled": 0, "fusion_lat": 0.0, "lat": 38.9057055, "bike_id": "9811db81752096488cdb789aeabacfa2", "fusion_lon": 0.0}, {"rental_uris": {"ios": "https://dc.lft.to/lastmile_qr_scan", "android": "https://dc.lft.to/lastmile_qr_scan"}, "type": "electric_scooter", "name": "1cfb3996d60afb964f90ff86c5d753d3", "is_reserved": 0, "lon": -77.05303016666667, "is_disabled": 0, "fusion_lat": 0.0, "lat": 38.902665, "bike_id": "1cfb3996d60afb964f90ff86c5d753d3", "fusion_lon": 0.0}, {"rental_uris": {"ios": "https://dc.lft.to/lastmile_qr_scan", "android": "https://dc.lft.to/lastmile_qr_scan"}, "type": "electric_scooter", "name": "58e87b2a220b439e1c2a44461ae76394", "is_reserved": 0, "lon": -77.072225, "is_disabled": 0, "fusion_lat": 0.0, "lat": 38.9196805, "bike_id": "58e87b2a220b439e1c2a44461ae76394", "fusion_lon": 0.0}, {"rental_uris": {"ios": "https://dc.lft.to/lastmile_qr_scan", "android": "https://dc.lft.to/lastmile_qr_scan"}, "type": "electric_scooter", "name": "65b0a96ab0157808cd1a693854a7e3c6", "is_reserved": 0, "lon": -77.035854, "is_disabled": 0, "fusion_lat": 0.0, "lat": 38.92782616666667, "bike_id": "65b0a96ab0157808cd1a693854a7e3c6", "fusion_lon": 0.0}, {"rental_uris": {"ios": "https://dc.lft.to/lastmile_qr_scan", "android": "https://dc.lft.to/lastmile_qr_scan"}, "type": "electric_scooter", "name": "453be7df8c0facced8ebe760e21dd8b3", "is_reserved": 0, "lon": -77.00624866666666, "is_disabled": 0, "fusion_lat": 0.0, "lat": 38.87171466666667, "bike_id": "453be7df8c0facced8ebe760e21dd8b3", "fusion_lon": 0.0}, {"rental_uris": {"ios": "https://dc.lft.to/lastmile_qr_scan", "android": "https://dc.lft.to/lastmile_qr_scan"}, "type": "electric_scooter", "name": "0c1323fc4a1ec4b30944032ef06aece7", "is_reserved": 0, "lon": -77.063739, "is_disabled": 0, "fusion_lat": 0.0, "lat": 38.935601, "bike_id": "0c1323fc4a1ec4b30944032ef06aece7", "fusion_lon": 0.0}, {"rental_uris": {"ios": "https://dc.lft.to/lastmile_qr_scan", "android": "https://dc.lft.to/lastmile_qr_scan"}, "type": "electric_scooter", "name": "c9cf01cceac311a468521416e8e9bf79", "is_reserved": 0, "lon": -77.03811833333333, "is_disabled": 0, "fusion_lat": 0.0, "lat": 38.93110266666667, "bike_id": "c9cf01cceac311a468521416e8e9bf79", "fusion_lon": 0.0}, {"rental_uris": {"ios": "https://dc.lft.to/lastmile_qr_scan", "android": "https://dc.lft.to/lastmile_qr_scan"}, "type": "electric_scooter", "name": "66a4644840d02fd613da25ca86f96dc7", "is_reserved": 0, "lon": -77.03478283333334, "is_disabled": 0, "fusion_lat": 0.0, "lat": 38.90565866666667, "bike_id": "66a4644840d02fd613da25ca86f96dc7", "fusion_lon": 0.0}, {"rental_uris": {"ios": "https://dc.lft.to/lastmile_qr_scan", "android": "https://dc.lft.to/lastmile_qr_scan"}, "type": "electric_scooter", "name": "2485f373729a224c624afcd4600affc9", "is_reserved": 0, "lon": -77.033642, "is_disabled": 0, "fusion_lat": 0.0, "lat": 38.90108466666667, "bike_id": "2485f373729a224c624afcd4600affc9", "fusion_lon": 0.0}, {"rental_uris": {"ios": "https://dc.lft.to/lastmile_qr_scan", "android": "https://dc.lft.to/lastmile_qr_scan"}, "type": "electric_bike", "name": "17e76fa1ed00162f9880b560a89edf7b", "is_reserved": 0, "lon": -77.12649316666666, "is_disabled": 0, "fusion_lat": 0.0, "lat": 38.819015, "bike_id": "17e76fa1ed00162f9880b560a89edf7b", "fusion_lon": 0.0}, {"rental_uris": {"ios": "https://dc.lft.to/lastmile_qr_scan", "android": "https://dc.lft.to/lastmile_qr_scan"}, "type": "electric_bike", "name": "6d764e69ca546e4a6bcd7107530ff8ec", "is_reserved": 0, "lon": -77.07898283333333, "is_disabled": 0, "fusion_lat": 0.0, "lat": 38.839313833333335, "bike_id": "6d764e69ca546e4a6bcd7107530ff8ec", "fusion_lon": 0.0}, {"rental_uris": {"ios": "https://dc.lft.to/lastmile_qr_scan", "android": "https://dc.lft.to/lastmile_qr_scan"}, "type": "electric_bike", "name": "3b69fb227a7b794ab6d7db34e7c518f2", "is_reserved": 0, "lon": -76.95252566666667, "is_disabled": 0, "fusion_lat": 0.0, "lat": 38.906919333333335, "bike_id": "3b69fb227a7b794ab6d7db34e7c518f2", "fusion_lon": 0.0}, {"rental_uris": {"ios": "https://dc.lft.to/lastmile_qr_scan", "android": "https://dc.lft.to/lastmile_qr_scan"}, "type": "electric_scooter", "name": "ceb29f8c411da26bad748698167759b3", "is_reserved": 0, "lon": -76.97648566666666, "is_disabled": 0, "fusion_lat": 0.0, "lat": 38.887507666666664, "bike_id": "ceb29f8c411da26bad748698167759b3", "fusion_lon": 0.0}, {"rental_uris": {"ios": "https://dc.lft.to/lastmile_qr_scan", "android": "https://dc.lft.to/lastmile_qr_scan"}, "type": "electric_scooter", "name": "a546167de991f5f527ea540715a82361", "is_reserved": 0, "lon": -77.0331875, "is_disabled": 0, "fusion_lat": 0.0, "lat": 38.900047666666666, "bike_id": "a546167de991f5f527ea540715a82361", "fusion_lon": 0.0}, {"rental_uris": {"ios": "https://dc.lft.to/lastmile_qr_scan", "android": "https://dc.lft.to/lastmile_qr_scan"}, "type": "electric_scooter", "name": "7f237519f5173b820371401665b04e16", "is_reserved": 0, "lon": -77.01288416666667, "is_disabled": 0, "fusion_lat": 0.0, "lat": 38.91033433333333, "bike_id": "7f237519f5173b820371401665b04e16", "fusion_lon": 0.0}, {"rental_uris": {"ios": "https://dc.lft.to/lastmile_qr_scan", "android": "https://dc.lft.to/lastmile_qr_scan"}, "type": "electric_scooter", "name": "94cae933346c07c26590673aedce7dc5", "is_reserved": 0, "lon": -76.9318415, "is_disabled": 0, "fusion_lat": 0.0, "lat": 38.89877033333333, "bike_id": "94cae933346c07c26590673aedce7dc5", "fusion_lon": 0.0}, {"rental_uris": {"ios": "https://dc.lft.to/lastmile_qr_scan", "android": "https://dc.lft.to/lastmile_qr_scan"}, "type": "electric_bike", "name": "425b227244eaa4f08a45293cfbe0f092", "is_reserved": 0, "lon": -77.02451533333333, "is_disabled": 0, "fusion_lat": 0.0, "lat": 38.957326333333334, "bike_id": "425b227244eaa4f08a45293cfbe0f092", "fusion_lon": 0.0}, {"rental_uris": {"ios": "https://dc.lft.to/lastmile_qr_scan", "android": "https://dc.lft.to/lastmile_qr_scan"}, "type": "electric_scooter", "name": "0a2e9e2d1ecc3b8bab58acd8c06bd7f0", "is_reserved": 0, "lon": -77.035048, "is_disabled": 0, "fusion_lat": 0.0, "lat": 38.906768, "bike_id": "0a2e9e2d1ecc3b8bab58acd8c06bd7f0", "fusion_lon": 0.0}, {"rental_uris": {"ios": "https://dc.lft.to/lastmile_qr_scan", "android": "https://dc.lft.to/lastmile_qr_scan"}, "type": "electric_bike", "name": "6644490b191b93c801e84c86c1e64a1a", "is_reserved": 0, "lon": -76.99707516666666, "is_disabled": 0, "fusion_lat": 0.0, "lat": 38.8386205, "bike_id": "6644490b191b93c801e84c86c1e64a1a", "fusion_lon": 0.0}, {"rental_uris": {"ios": "https://dc.lft.to/lastmile_qr_scan", "android": "https://dc.lft.to/lastmile_qr_scan"}, "type": "electric_scooter", "name": "fdb6f60b1876c58f1e4a124f816b6884", "is_reserved": 0, "lon": -77.0522045, "is_disabled": 0, "fusion_lat": 0.0, "lat": 38.92493133333333, "bike_id": "fdb6f60b1876c58f1e4a124f816b6884", "fusion_lon": 0.0}, {"rental_uris": {"ios": "https://dc.lft.to/lastmile_qr_scan", "android": "https://dc.lft.to/lastmile_qr_scan"}, "type": "electric_scooter", "name": "ef55c1119ce47a2f03dbea8da15cf1ff", "is_reserved": 0, "lon": -77.0403165, "is_disabled": 0, "fusion_lat": 0.0, "lat": 38.911779, "bike_id": "ef55c1119ce47a2f03dbea8da15cf1ff", "fusion_lon": 0.0}, {"rental_uris": {"ios": "https://dc.lft.to/lastmile_qr_scan", "android": "https://dc.lft.to/lastmile_qr_scan"}, "type": "electric_scooter", "name": "d702f2a4ad950751dc98ad815ed41c01", "is_reserved": 0, "lon": -77.03585483333333, "is_disabled": 0, "fusion_lat": 0.0, "lat": 38.917793333333336, "bike_id": "d702f2a4ad950751dc98ad815ed41c01", "fusion_lon": 0.0}, {"rental_uris": {"ios": "https://dc.lft.to/lastmile_qr_scan", "android": "https://dc.lft.to/lastmile_qr_scan"}, "type": "electric_scooter", "name": "962a05cffb158d5ae96346f5f17f94d7", "is_reserved": 0, "lon": -77.02412816666667, "is_disabled": 0, "fusion_lat": 0.0, "lat": 38.938155, "bike_id": "962a05cffb158d5ae96346f5f17f94d7", "fusion_lon": 0.0}, {"rental_uris": {"ios": "https://dc.lft.to/lastmile_qr_scan", "android": "https://dc.lft.to/lastmile_qr_scan"}, "type": "electric_scooter", "name": "385966e882afbb97012c0354723964b3", "is_reserved": 0, "lon": -76.99503516666667, "is_disabled": 0, "fusion_lat": 0.0, "lat": 38.8817945, "bike_id": "385966e882afbb97012c0354723964b3", "fusion_lon": 0.0}, {"rental_uris": {"ios": "https://dc.lft.to/lastmile_qr_scan", "android": "https://dc.lft.to/lastmile_qr_scan"}, "type": "electric_scooter", "name": "5b6f534706f11fad7cf0b146c3754a30", "is_reserved": 0, "lon": -77.0179385, "is_disabled": 0, "fusion_lat": 0.0, "lat": 38.90260383333333, "bike_id": "5b6f534706f11fad7cf0b146c3754a30", "fusion_lon": 0.0}, {"rental_uris": {"ios": "https://dc.lft.to/lastmile_qr_scan", "android": "https://dc.lft.to/lastmile_qr_scan"}, "type": "electric_scooter", "name": "fa6bd77412f3c996cdc703269dec87c6", "is_reserved": 0, "lon": -77.02094266666667, "is_disabled": 0, "fusion_lat": 0.0, "lat": 38.881779333333334, "bike_id": "fa6bd77412f3c996cdc703269dec87c6", "fusion_lon": 0.0}, {"rental_uris": {"ios": "https://dc.lft.to/lastmile_qr_scan", "android": "https://dc.lft.to/lastmile_qr_scan"}, "type": "electric_scooter", "name": "a668565710131a6bdba5158e32b37eda", "is_reserved": 0, "lon": -77.00754916666666, "is_disabled": 0, "fusion_lat": 0.0, "lat": 38.87833783333333, "bike_id": "a668565710131a6bdba5158e32b37eda", "fusion_lon": 0.0}, {"rental_uris": {"ios": "https://dc.lft.to/lastmile_qr_scan", "android": "https://dc.lft.to/lastmile_qr_scan"}, "type": "electric_scooter", "name": "e49fffc3718cb7bc0129cbd2f6cf86d1", "is_reserved": 0, "lon": -77.03367766666666, "is_disabled": 0, "fusion_lat": 0.0, "lat": 38.935228, "bike_id": "e49fffc3718cb7bc0129cbd2f6cf86d1", "fusion_lon": 0.0}, {"rental_uris": {"ios": "https://dc.lft.to/lastmile_qr_scan", "android": "https://dc.lft.to/lastmile_qr_scan"}, "type": "electric_scooter", "name": "15bf371b24ea271e1568d7ab0c4f8ad1", "is_reserved": 0, "lon": -76.98080533333334, "is_disabled": 0, "fusion_lat": 0.0, "lat": 38.901733666666665, "bike_id": "15bf371b24ea271e1568d7ab0c4f8ad1", "fusion_lon": 0.0}, {"rental_uris": {"ios": "https://dc.lft.to/lastmile_qr_scan", "android": "https://dc.lft.to/lastmile_qr_scan"}, "type": "electric_bike", "name": "b63a21e4d71ca4bf21e99c1a77022e52", "is_reserved": 0, "lon": -76.99283083333333, "is_disabled": 0, "fusion_lat": 0.0, "lat": 38.97258633333333, "bike_id": "b63a21e4d71ca4bf21e99c1a77022e52", "fusion_lon": 0.0}, {"rental_uris": {"ios": "https://dc.lft.to/lastmile_qr_scan", "android": "https://dc.lft.to/lastmile_qr_scan"}, "type": "electric_scooter", "name": "e6ad8835c8521d1d04df6c8b7f4ef5bb", "is_reserved": 0, "lon": -77.05323566666667, "is_disabled": 0, "fusion_lat": 0.0, "lat": 38.92350616666667, "bike_id": "e6ad8835c8521d1d04df6c8b7f4ef5bb", "fusion_lon": 0.0}, {"rental_uris": {"ios": "https://dc.lft.to/lastmile_qr_scan", "android": "https://dc.lft.to/lastmile_qr_scan"}, "type": "electric_bike", "name": "aaadeb4f1956341a02f3d240e7478276", "is_reserved": 0, "lon": -76.97322283333334, "is_disabled": 0, "fusion_lat": 0.0, "lat": 38.857750333333335, "bike_id": "aaadeb4f1956341a02f3d240e7478276", "fusion_lon": 0.0}, {"rental_uris": {"ios": "https://dc.lft.to/lastmile_qr_scan", "android": "https://dc.lft.to/lastmile_qr_scan"}, "type": "electric_scooter", "name": "b6e52ba85024f4734b1eac1c106551ae", "is_reserved": 0, "lon": -77.01093516666667, "is_disabled": 0, "fusion_lat": 0.0, "lat": 38.906791, "bike_id": "b6e52ba85024f4734b1eac1c106551ae", "fusion_lon": 0.0}, {"rental_uris": {"ios": "https://dc.lft.to/lastmile_qr_scan", "android": "https://dc.lft.to/lastmile_qr_scan"}, "type": "electric_scooter", "name": "562c9c1adc4002defa3b81548d5377ef", "is_reserved": 0, "lon": -77.03198083333334, "is_disabled": 0, "fusion_lat": 0.0, "lat": 38.908481333333334, "bike_id": "562c9c1adc4002defa3b81548d5377ef", "fusion_lon": 0.0}, {"rental_uris": {"ios": "https://dc.lft.to/lastmile_qr_scan", "android": "https://dc.lft.to/lastmile_qr_scan"}, "type": "electric_scooter", "name": "fedfab3954d98a6528d01188d7f82c03", "is_reserved": 0, "lon": -77.05985916666667, "is_disabled": 0, "fusion_lat": 0.0, "lat": 38.902408, "bike_id": "fedfab3954d98a6528d01188d7f82c03", "fusion_lon": 0.0}, {"rental_uris": {"ios": "https://dc.lft.to/lastmile_qr_scan", "android": "https://dc.lft.to/lastmile_qr_scan"}, "type": "electric_scooter", "name": "2c660ab3a53503bbb909d3f799ed952f", "is_reserved": 0, "lon": -77.044627, "is_disabled": 0, "fusion_lat": 0.0, "lat": 38.915228, "bike_id": "2c660ab3a53503bbb909d3f799ed952f", "fusion_lon": 0.0}, {"rental_uris": {"ios": "https://dc.lft.to/lastmile_qr_scan", "android": "https://dc.lft.to/lastmile_qr_scan"}, "type": "electric_scooter", "name": "f1c71ad0f4ad3c59ba9dd321b5b9c38f", "is_reserved": 0, "lon": -77.0170345, "is_disabled": 0, "fusion_lat": 0.0, "lat": 38.9046985, "bike_id": "f1c71ad0f4ad3c59ba9dd321b5b9c38f", "fusion_lon": 0.0}, {"rental_uris": {"ios": "https://dc.lft.to/lastmile_qr_scan", "android": "https://dc.lft.to/lastmile_qr_scan"}, "type": "electric_scooter", "name": "a1127dccb2699952cba187a69a436464", "is_reserved": 0, "lon": -77.0405255, "is_disabled": 0, "fusion_lat": 0.0, "lat": 38.93009166666667, "bike_id": "a1127dccb2699952cba187a69a436464", "fusion_lon": 0.0}, {"rental_uris": {"ios": "https://dc.lft.to/lastmile_qr_scan", "android": "https://dc.lft.to/lastmile_qr_scan"}, "type": "electric_scooter", "name": "8edd6ae54d7dcc6c9a55bf6703b2be20", "is_reserved": 0, "lon": -77.02983166666667, "is_disabled": 0, "fusion_lat": 0.0, "lat": 38.921950833333334, "bike_id": "8edd6ae54d7dcc6c9a55bf6703b2be20", "fusion_lon": 0.0}, {"rental_uris": {"ios": "https://dc.lft.to/lastmile_qr_scan", "android": "https://dc.lft.to/lastmile_qr_scan"}, "type": "electric_scooter", "name": "3ee1d963e495e806a1f432b296514427", "is_reserved": 0, "lon": -77.02317933333333, "is_disabled": 0, "fusion_lat": 0.0, "lat": 38.920740333333335, "bike_id": "3ee1d963e495e806a1f432b296514427", "fusion_lon": 0.0}, {"rental_uris": {"ios": "https://dc.lft.to/lastmile_qr_scan", "android": "https://dc.lft.to/lastmile_qr_scan"}, "type": "electric_scooter", "name": "ec0783c13ef840a342fe6a77d8ac82dc", "is_reserved": 0, "lon": -77.05039283333333, "is_disabled": 0, "fusion_lat": 0.0, "lat": 38.907322666666666, "bike_id": "ec0783c13ef840a342fe6a77d8ac82dc", "fusion_lon": 0.0}, {"rental_uris": {"ios": "https://dc.lft.to/lastmile_qr_scan", "android": "https://dc.lft.to/lastmile_qr_scan"}, "type": "electric_scooter", "name": "96339948a1483542d88f2cd37c8f8dad", "is_reserved": 0, "lon": -77.03833316666666, "is_disabled": 0, "fusion_lat": 0.0, "lat": 38.91253583333334, "bike_id": "96339948a1483542d88f2cd37c8f8dad", "fusion_lon": 0.0}, {"rental_uris": {"ios": "https://dc.lft.to/lastmile_qr_scan", "android": "https://dc.lft.to/lastmile_qr_scan"}, "type": "electric_scooter", "name": "1b6426a60bffb5844e63d44c17567b5f", "is_reserved": 0, "lon": -76.95741466666666, "is_disabled": 0, "fusion_lat": 0.0, "lat": 38.8839125, "bike_id": "1b6426a60bffb5844e63d44c17567b5f", "fusion_lon": 0.0}, {"rental_uris": {"ios": "https://dc.lft.to/lastmile_qr_scan", "android": "https://dc.lft.to/lastmile_qr_scan"}, "type": "electric_scooter", "name": "c491c036fb3046f55af70ecdae2c3b0d", "is_reserved": 0, "lon": -76.94894016666667, "is_disabled": 0, "fusion_lat": 0.0, "lat": 38.895207, "bike_id": "c491c036fb3046f55af70ecdae2c3b0d", "fusion_lon": 0.0}, {"rental_uris": {"ios": "https://dc.lft.to/lastmile_qr_scan", "android": "https://dc.lft.to/lastmile_qr_scan"}, "type": "electric_scooter", "name": "2be8daa6994f35f908a060f43570c3c8", "is_reserved": 0, "lon": -77.0177015, "is_disabled": 0, "fusion_lat": 0.0, "lat": 38.920443, "bike_id": "2be8daa6994f35f908a060f43570c3c8", "fusion_lon": 0.0}, {"rental_uris": {"ios": "https://dc.lft.to/lastmile_qr_scan", "android": "https://dc.lft.to/lastmile_qr_scan"}, "type": "electric_scooter", "name": "55eaa78781d0827fdbb087c52dac6fd9", "is_reserved": 0, "lon": -77.02678833333333, "is_disabled": 0, "fusion_lat": 0.0, "lat": 38.924740166666666, "bike_id": "55eaa78781d0827fdbb087c52dac6fd9", "fusion_lon": 0.0}, {"rental_uris": {"ios": "https://dc.lft.to/lastmile_qr_scan", "android": "https://dc.lft.to/lastmile_qr_scan"}, "type": "electric_scooter", "name": "5ec2e594390d612602cde3d158981aaf", "is_reserved": 0, "lon": -77.026592, "is_disabled": 0, "fusion_lat": 0.0, "lat": 38.924856, "bike_id": "5ec2e594390d612602cde3d158981aaf", "fusion_lon": 0.0}, {"rental_uris": {"ios": "https://dc.lft.to/lastmile_qr_scan", "android": "https://dc.lft.to/lastmile_qr_scan"}, "type": "electric_scooter", "name": "8bff329d347bfe7015226a3e928dbcf3", "is_reserved": 0, "lon": -77.0543465, "is_disabled": 0, "fusion_lat": 0.0, "lat": 38.9285015, "bike_id": "8bff329d347bfe7015226a3e928dbcf3", "fusion_lon": 0.0}, {"rental_uris": {"ios": "https://dc.lft.to/lastmile_qr_scan", "android": "https://dc.lft.to/lastmile_qr_scan"}, "type": "electric_scooter", "name": "7bbe8977d70dc2373b05696cbf27d8aa", "is_reserved": 0, "lon": -77.02695633333333, "is_disabled": 0, "fusion_lat": 0.0, "lat": 38.92594716666667, "bike_id": "7bbe8977d70dc2373b05696cbf27d8aa", "fusion_lon": 0.0}, {"rental_uris": {"ios": "https://dc.lft.to/lastmile_qr_scan", "android": "https://dc.lft.to/lastmile_qr_scan"}, "type": "electric_scooter", "name": "b320986c7e6e816b86ac9acccc40d14b", "is_reserved": 0, "lon": -77.07158633333333, "is_disabled": 0, "fusion_lat": 0.0, "lat": 38.90770633333333, "bike_id": "b320986c7e6e816b86ac9acccc40d14b", "fusion_lon": 0.0}, {"rental_uris": {"ios": "https://dc.lft.to/lastmile_qr_scan", "android": "https://dc.lft.to/lastmile_qr_scan"}, "type": "electric_scooter", "name": "382f177b1a3431b39864666a59e48009", "is_reserved": 0, "lon": -77.04144083333334, "is_disabled": 0, "fusion_lat": 0.0, "lat": 38.90565633333333, "bike_id": "382f177b1a3431b39864666a59e48009", "fusion_lon": 0.0}, {"rental_uris": {"ios": "https://dc.lft.to/lastmile_qr_scan", "android": "https://dc.lft.to/lastmile_qr_scan"}, "type": "electric_scooter", "name": "bed2b6867a5fdaa7d6d67414e958590f", "is_reserved": 0, "lon": -77.0489415, "is_disabled": 0, "fusion_lat": 0.0, "lat": 38.91939816666667, "bike_id": "bed2b6867a5fdaa7d6d67414e958590f", "fusion_lon": 0.0}, {"rental_uris": {"ios": "https://dc.lft.to/lastmile_qr_scan", "android": "https://dc.lft.to/lastmile_qr_scan"}, "type": "electric_scooter", "name": "b994c7c40442b1702b892ae5b0ade245", "is_reserved": 0, "lon": -77.009125, "is_disabled": 0, "fusion_lat": 0.0, "lat": 38.88192766666667, "bike_id": "b994c7c40442b1702b892ae5b0ade245", "fusion_lon": 0.0}, {"rental_uris": {"ios": "https://dc.lft.to/lastmile_qr_scan", "android": "https://dc.lft.to/lastmile_qr_scan"}, "type": "electric_scooter", "name": "73ceef5a8f220654728ebf710f4ba075", "is_reserved": 0, "lon": -77.05789916666667, "is_disabled": 0, "fusion_lat": 0.0, "lat": 38.900941333333336, "bike_id": "73ceef5a8f220654728ebf710f4ba075", "fusion_lon": 0.0}, {"rental_uris": {"ios": "https://dc.lft.to/lastmile_qr_scan", "android": "https://dc.lft.to/lastmile_qr_scan"}, "type": "electric_scooter", "name": "85602a40d8a3cec7f8830e85903dc672", "is_reserved": 0, "lon": -77.0416945, "is_disabled": 0, "fusion_lat": 0.0, "lat": 38.903641, "bike_id": "85602a40d8a3cec7f8830e85903dc672", "fusion_lon": 0.0}, {"rental_uris": {"ios": "https://dc.lft.to/lastmile_qr_scan", "android": "https://dc.lft.to/lastmile_qr_scan"}, "type": "electric_scooter", "name": "3290775c86bff287ea3591c04184d270", "is_reserved": 0, "lon": -77.01214016666667, "is_disabled": 0, "fusion_lat": 0.0, "lat": 38.92118966666666, "bike_id": "3290775c86bff287ea3591c04184d270", "fusion_lon": 0.0}, {"rental_uris": {"ios": "https://dc.lft.to/lastmile_qr_scan", "android": "https://dc.lft.to/lastmile_qr_scan"}, "type": "electric_scooter", "name": "c49379414b01229c227187b8e27826a3", "is_reserved": 0, "lon": -77.0147305, "is_disabled": 0, "fusion_lat": 0.0, "lat": 38.9267005, "bike_id": "c49379414b01229c227187b8e27826a3", "fusion_lon": 0.0}, {"rental_uris": {"ios": "https://dc.lft.to/lastmile_qr_scan", "android": "https://dc.lft.to/lastmile_qr_scan"}, "type": "electric_bike", "name": "eac5b523777af03d78733ef1e3e37ec6", "is_reserved": 0, "lon": -76.987801, "is_disabled": 0, "fusion_lat": 0.0, "lat": 38.84474483333334, "bike_id": "eac5b523777af03d78733ef1e3e37ec6", "fusion_lon": 0.0}, {"rental_uris": {"ios": "https://dc.lft.to/lastmile_qr_scan", "android": "https://dc.lft.to/lastmile_qr_scan"}, "type": "electric_scooter", "name": "ad8ff32333f96f7477e9f834fd2975b1", "is_reserved": 0, "lon": -77.028487, "is_disabled": 0, "fusion_lat": 0.0, "lat": 38.9044535, "bike_id": "ad8ff32333f96f7477e9f834fd2975b1", "fusion_lon": 0.0}, {"rental_uris": {"ios": "https://dc.lft.to/lastmile_qr_scan", "android": "https://dc.lft.to/lastmile_qr_scan"}, "type": "electric_scooter", "name": "bba926bf4cf61f31b6d5f5e90d601934", "is_reserved": 0, "lon": -77.003339, "is_disabled": 0, "fusion_lat": 0.0, "lat": 38.913378, "bike_id": "bba926bf4cf61f31b6d5f5e90d601934", "fusion_lon": 0.0}, {"rental_uris": {"ios": "https://dc.lft.to/lastmile_qr_scan", "android": "https://dc.lft.to/lastmile_qr_scan"}, "type": "electric_scooter", "name": "950384667e29b5bff45d78740e899f01", "is_reserved": 0, "lon": -77.0282025, "is_disabled": 0, "fusion_lat": 0.0, "lat": 38.95646716666667, "bike_id": "950384667e29b5bff45d78740e899f01", "fusion_lon": 0.0}, {"rental_uris": {"ios": "https://dc.lft.to/lastmile_qr_scan", "android": "https://dc.lft.to/lastmile_qr_scan"}, "type": "electric_bike", "name": "4874cdf9e5c816318d78e275aedcf536", "is_reserved": 0, "lon": -77.00276366666667, "is_disabled": 0, "fusion_lat": 0.0, "lat": 38.9117475, "bike_id": "4874cdf9e5c816318d78e275aedcf536", "fusion_lon": 0.0}, {"rental_uris": {"ios": "https://dc.lft.to/lastmile_qr_scan", "android": "https://dc.lft.to/lastmile_qr_scan"}, "type": "electric_scooter", "name": "05aea33967e5b81253a95441ee0a22df", "is_reserved": 0, "lon": -77.04433866666666, "is_disabled": 0, "fusion_lat": 0.0, "lat": 38.897355833333336, "bike_id": "05aea33967e5b81253a95441ee0a22df", "fusion_lon": 0.0}, {"rental_uris": {"ios": "https://dc.lft.to/lastmile_qr_scan", "android": "https://dc.lft.to/lastmile_qr_scan"}, "type": "electric_scooter", "name": "8bac2a07f8531f9c07ba10ed39ad07d7", "is_reserved": 0, "lon": -77.00587166666666, "is_disabled": 0, "fusion_lat": 0.0, "lat": 38.875730833333336, "bike_id": "8bac2a07f8531f9c07ba10ed39ad07d7", "fusion_lon": 0.0}, {"rental_uris": {"ios": "https://dc.lft.to/lastmile_qr_scan", "android": "https://dc.lft.to/lastmile_qr_scan"}, "type": "electric_scooter", "name": "5fd2f0dc61caa85aff0552fd8ad4f2af", "is_reserved": 0, "lon": -77.03344883333334, "is_disabled": 0, "fusion_lat": 0.0, "lat": 38.902560666666666, "bike_id": "5fd2f0dc61caa85aff0552fd8ad4f2af", "fusion_lon": 0.0}, {"rental_uris": {"ios": "https://dc.lft.to/lastmile_qr_scan", "android": "https://dc.lft.to/lastmile_qr_scan"}, "type": "electric_scooter", "name": "55749413667e2b59870b9c62f662f9a5", "is_reserved": 0, "lon": -77.03455, "is_disabled": 0, "fusion_lat": 0.0, "lat": 38.908396333333336, "bike_id": "55749413667e2b59870b9c62f662f9a5", "fusion_lon": 0.0}, {"rental_uris": {"ios": "https://dc.lft.to/lastmile_qr_scan", "android": "https://dc.lft.to/lastmile_qr_scan"}, "type": "electric_scooter", "name": "30c6bb8c81a191b27d58544a6c661358", "is_reserved": 0, "lon": -77.02300333333334, "is_disabled": 0, "fusion_lat": 0.0, "lat": 38.96127083333333, "bike_id": "30c6bb8c81a191b27d58544a6c661358", "fusion_lon": 0.0}, {"rental_uris": {"ios": "https://dc.lft.to/lastmile_qr_scan", "android": "https://dc.lft.to/lastmile_qr_scan"}, "type": "electric_bike", "name": "56f686c8797278b40a3076081df05901", "is_reserved": 0, "lon": -77.00210166666666, "is_disabled": 0, "fusion_lat": 0.0, "lat": 38.988470666666664, "bike_id": "56f686c8797278b40a3076081df05901", "fusion_lon": 0.0}, {"rental_uris": {"ios": "https://dc.lft.to/lastmile_qr_scan", "android": "https://dc.lft.to/lastmile_qr_scan"}, "type": "electric_scooter", "name": "fdadafd09338dac0ea346721eacb9a81", "is_reserved": 0, "lon": -77.01791, "is_disabled": 0, "fusion_lat": 0.0, "lat": 38.9026025, "bike_id": "fdadafd09338dac0ea346721eacb9a81", "fusion_lon": 0.0}, {"rental_uris": {"ios": "https://dc.lft.to/lastmile_qr_scan", "android": "https://dc.lft.to/lastmile_qr_scan"}, "type": "electric_scooter", "name": "7b7d37a8bae3c55b46d748bd621e5bbb", "is_reserved": 0, "lon": -77.03378516666666, "is_disabled": 0, "fusion_lat": 0.0, "lat": 38.91036883333334, "bike_id": "7b7d37a8bae3c55b46d748bd621e5bbb", "fusion_lon": 0.0}, {"rental_uris": {"ios": "https://dc.lft.to/lastmile_qr_scan", "android": "https://dc.lft.to/lastmile_qr_scan"}, "type": "electric_bike", "name": "74bebed264deb9f5e3f1b9bf3fab5183", "is_reserved": 0, "lon": -77.01287516666666, "is_disabled": 0, "fusion_lat": 0.0, "lat": 38.90038116666667, "bike_id": "74bebed264deb9f5e3f1b9bf3fab5183", "fusion_lon": 0.0}, {"rental_uris": {"ios": "https://dc.lft.to/lastmile_qr_scan", "android": "https://dc.lft.to/lastmile_qr_scan"}, "type": "electric_scooter", "name": "78cb75823972e414ce46e3d4d36700f8", "is_reserved": 0, "lon": -77.03631383333334, "is_disabled": 0, "fusion_lat": 0.0, "lat": 38.925946833333334, "bike_id": "78cb75823972e414ce46e3d4d36700f8", "fusion_lon": 0.0}, {"rental_uris": {"ios": "https://dc.lft.to/lastmile_qr_scan", "android": "https://dc.lft.to/lastmile_qr_scan"}, "type": "electric_scooter", "name": "d42c6285937878f0977e062e140cdcd4", "is_reserved": 0, "lon": -77.04377833333334, "is_disabled": 0, "fusion_lat": 0.0, "lat": 38.93151266666667, "bike_id": "d42c6285937878f0977e062e140cdcd4", "fusion_lon": 0.0}, {"rental_uris": {"ios": "https://dc.lft.to/lastmile_qr_scan", "android": "https://dc.lft.to/lastmile_qr_scan"}, "type": "electric_scooter", "name": "993bed8525b825a14639f0001b19cb70", "is_reserved": 0, "lon": -77.05637833333333, "is_disabled": 0, "fusion_lat": 0.0, "lat": 38.93596133333333, "bike_id": "993bed8525b825a14639f0001b19cb70", "fusion_lon": 0.0}, {"rental_uris": {"ios": "https://dc.lft.to/lastmile_qr_scan", "android": "https://dc.lft.to/lastmile_qr_scan"}, "type": "electric_scooter", "name": "6d646507c415b3d3275e8efdb4f040d8", "is_reserved": 0, "lon": -77.04695616666666, "is_disabled": 0, "fusion_lat": 0.0, "lat": 38.89738666666667, "bike_id": "6d646507c415b3d3275e8efdb4f040d8", "fusion_lon": 0.0}, {"rental_uris": {"ios": "https://dc.lft.to/lastmile_qr_scan", "android": "https://dc.lft.to/lastmile_qr_scan"}, "type": "electric_scooter", "name": "fec92de11eed9682bbca140acba8204b", "is_reserved": 0, "lon": -77.02816316666667, "is_disabled": 0, "fusion_lat": 0.0, "lat": 38.892354833333336, "bike_id": "fec92de11eed9682bbca140acba8204b", "fusion_lon": 0.0}, {"rental_uris": {"ios": "https://dc.lft.to/lastmile_qr_scan", "android": "https://dc.lft.to/lastmile_qr_scan"}, "type": "electric_scooter", "name": "ab6395c3abc66bb1ca56d9f0959211e7", "is_reserved": 0, "lon": -77.03262083333334, "is_disabled": 0, "fusion_lat": 0.0, "lat": 38.910508166666666, "bike_id": "ab6395c3abc66bb1ca56d9f0959211e7", "fusion_lon": 0.0}, {"rental_uris": {"ios": "https://dc.lft.to/lastmile_qr_scan", "android": "https://dc.lft.to/lastmile_qr_scan"}, "type": "electric_scooter", "name": "326bc662ae19fe05bb683f269f5f4412", "is_reserved": 0, "lon": -77.01197583333334, "is_disabled": 0, "fusion_lat": 0.0, "lat": 38.900357166666666, "bike_id": "326bc662ae19fe05bb683f269f5f4412", "fusion_lon": 0.0}, {"rental_uris": {"ios": "https://dc.lft.to/lastmile_qr_scan", "android": "https://dc.lft.to/lastmile_qr_scan"}, "type": "electric_scooter", "name": "2abee9106af935af3fe3aac6436a15cb", "is_reserved": 0, "lon": -77.03285066666666, "is_disabled": 0, "fusion_lat": 0.0, "lat": 38.92000816666667, "bike_id": "2abee9106af935af3fe3aac6436a15cb", "fusion_lon": 0.0}, {"rental_uris": {"ios": "https://dc.lft.to/lastmile_qr_scan", "android": "https://dc.lft.to/lastmile_qr_scan"}, "type": "electric_scooter", "name": "4014931415b56accf962bc55baaa1df6", "is_reserved": 0, "lon": -77.03903216666667, "is_disabled": 0, "fusion_lat": 0.0, "lat": 38.91415283333333, "bike_id": "4014931415b56accf962bc55baaa1df6", "fusion_lon": 0.0}, {"rental_uris": {"ios": "https://dc.lft.to/lastmile_qr_scan", "android": "https://dc.lft.to/lastmile_qr_scan"}, "type": "electric_scooter", "name": "827009a504b3aab0a2565b23d7802415", "is_reserved": 0, "lon": -77.04533966666666, "is_disabled": 0, "fusion_lat": 0.0, "lat": 38.91916616666666, "bike_id": "827009a504b3aab0a2565b23d7802415", "fusion_lon": 0.0}, {"rental_uris": {"ios": "https://dc.lft.to/lastmile_qr_scan", "android": "https://dc.lft.to/lastmile_qr_scan"}, "type": "electric_scooter", "name": "ed091faae17110fad19d6abbfe9bd0d8", "is_reserved": 0, "lon": -77.0672845, "is_disabled": 0, "fusion_lat": 0.0, "lat": 38.950169333333335, "bike_id": "ed091faae17110fad19d6abbfe9bd0d8", "fusion_lon": 0.0}, {"rental_uris": {"ios": "https://dc.lft.to/lastmile_qr_scan", "android": "https://dc.lft.to/lastmile_qr_scan"}, "type": "electric_scooter", "name": "a3b7181e62b633d79f7a669179b4fe71", "is_reserved": 0, "lon": -77.046834, "is_disabled": 0, "fusion_lat": 0.0, "lat": 38.902993, "bike_id": "a3b7181e62b633d79f7a669179b4fe71", "fusion_lon": 0.0}, {"rental_uris": {"ios": "https://dc.lft.to/lastmile_qr_scan", "android": "https://dc.lft.to/lastmile_qr_scan"}, "type": "electric_scooter", "name": "4c71462523de8e020c28c8fa71deb457", "is_reserved": 0, "lon": -77.03810533333333, "is_disabled": 0, "fusion_lat": 0.0, "lat": 38.91041666666667, "bike_id": "4c71462523de8e020c28c8fa71deb457", "fusion_lon": 0.0}, {"rental_uris": {"ios": "https://dc.lft.to/lastmile_qr_scan", "android": "https://dc.lft.to/lastmile_qr_scan"}, "type": "electric_bike", "name": "f5291a16ed8e19850d1f24e396ad33f4", "is_reserved": 0, "lon": -77.1273385, "is_disabled": 0, "fusion_lat": 0.0, "lat": 38.895599, "bike_id": "f5291a16ed8e19850d1f24e396ad33f4", "fusion_lon": 0.0}, {"rental_uris": {"ios": "https://dc.lft.to/lastmile_qr_scan", "android": "https://dc.lft.to/lastmile_qr_scan"}, "type": "electric_scooter", "name": "ae7395ba7bbca596a3658caa1fc7386e", "is_reserved": 0, "lon": -77.0325195, "is_disabled": 0, "fusion_lat": 0.0, "lat": 38.911245, "bike_id": "ae7395ba7bbca596a3658caa1fc7386e", "fusion_lon": 0.0}, {"rental_uris": {"ios": "https://dc.lft.to/lastmile_qr_scan", "android": "https://dc.lft.to/lastmile_qr_scan"}, "type": "electric_scooter", "name": "1bf64545b19444f7ca71c83a887a5665", "is_reserved": 0, "lon": -77.04866066666666, "is_disabled": 0, "fusion_lat": 0.0, "lat": 38.900659166666664, "bike_id": "1bf64545b19444f7ca71c83a887a5665", "fusion_lon": 0.0}, {"rental_uris": {"ios": "https://dc.lft.to/lastmile_qr_scan", "android": "https://dc.lft.to/lastmile_qr_scan"}, "type": "electric_scooter", "name": "acf9a1b4bedb7346203126e700190a80", "is_reserved": 0, "lon": -76.9465535, "is_disabled": 0, "fusion_lat": 0.0, "lat": 38.89829016666667, "bike_id": "acf9a1b4bedb7346203126e700190a80", "fusion_lon": 0.0}, {"rental_uris": {"ios": "https://dc.lft.to/lastmile_qr_scan", "android": "https://dc.lft.to/lastmile_qr_scan"}, "type": "electric_scooter", "name": "68600f1a71ecc088e53a9f30a8d62795", "is_reserved": 0, "lon": -77.041743, "is_disabled": 0, "fusion_lat": 0.0, "lat": 38.91830616666667, "bike_id": "68600f1a71ecc088e53a9f30a8d62795", "fusion_lon": 0.0}, {"rental_uris": {"ios": "https://dc.lft.to/lastmile_qr_scan", "android": "https://dc.lft.to/lastmile_qr_scan"}, "type": "electric_scooter", "name": "7b002a0d40dedef8427c4a55fd5d1b82", "is_reserved": 0, "lon": -77.02233266666667, "is_disabled": 0, "fusion_lat": 0.0, "lat": 38.892202, "bike_id": "7b002a0d40dedef8427c4a55fd5d1b82", "fusion_lon": 0.0}, {"rental_uris": {"ios": "https://dc.lft.to/lastmile_qr_scan", "android": "https://dc.lft.to/lastmile_qr_scan"}, "type": "electric_scooter", "name": "4c63bb64b8ceb86dd147db27a4deb2ed", "is_reserved": 0, "lon": -77.03169766666667, "is_disabled": 0, "fusion_lat": 0.0, "lat": 38.894588, "bike_id": "4c63bb64b8ceb86dd147db27a4deb2ed", "fusion_lon": 0.0}, {"rental_uris": {"ios": "https://dc.lft.to/lastmile_qr_scan", "android": "https://dc.lft.to/lastmile_qr_scan"}, "type": "electric_scooter", "name": "5b134a05bfdc57fb4c98578065bbf9dd", "is_reserved": 0, "lon": -77.02711283333333, "is_disabled": 0, "fusion_lat": 0.0, "lat": 38.895651, "bike_id": "5b134a05bfdc57fb4c98578065bbf9dd", "fusion_lon": 0.0}, {"rental_uris": {"ios": "https://dc.lft.to/lastmile_qr_scan", "android": "https://dc.lft.to/lastmile_qr_scan"}, "type": "electric_scooter", "name": "866d9fe7e9bc1dba28e9ae9ee8646c18", "is_reserved": 0, "lon": -77.04472316666667, "is_disabled": 0, "fusion_lat": 0.0, "lat": 38.924678666666665, "bike_id": "866d9fe7e9bc1dba28e9ae9ee8646c18", "fusion_lon": 0.0}, {"rental_uris": {"ios": "https://dc.lft.to/lastmile_qr_scan", "android": "https://dc.lft.to/lastmile_qr_scan"}, "type": "electric_bike", "name": "c18936854078a380de7323e9d5fb0e5e", "is_reserved": 0, "lon": -77.01739183333333, "is_disabled": 0, "fusion_lat": 0.0, "lat": 38.946024333333334, "bike_id": "c18936854078a380de7323e9d5fb0e5e", "fusion_lon": 0.0}, {"rental_uris": {"ios": "https://dc.lft.to/lastmile_qr_scan", "android": "https://dc.lft.to/lastmile_qr_scan"}, "type": "electric_bike", "name": "d7d24ebdd75965a5c36a6676bc440ddd", "is_reserved": 0, "lon": -77.02343983333333, "is_disabled": 0, "fusion_lat": 0.0, "lat": 38.887414666666665, "bike_id": "d7d24ebdd75965a5c36a6676bc440ddd", "fusion_lon": 0.0}, {"rental_uris": {"ios": "https://dc.lft.to/lastmile_qr_scan", "android": "https://dc.lft.to/lastmile_qr_scan"}, "type": "electric_scooter", "name": "ffa3b104bc9456178cca6128ad4e650a", "is_reserved": 0, "lon": -77.03449983333333, "is_disabled": 0, "fusion_lat": 0.0, "lat": 38.9084085, "bike_id": "ffa3b104bc9456178cca6128ad4e650a", "fusion_lon": 0.0}, {"rental_uris": {"ios": "https://dc.lft.to/lastmile_qr_scan", "android": "https://dc.lft.to/lastmile_qr_scan"}, "type": "electric_bike", "name": "0f37ffc20ba25f1fcd160fcec936a041", "is_reserved": 0, "lon": -76.98773216666666, "is_disabled": 0, "fusion_lat": 0.0, "lat": 38.85766916666667, "bike_id": "0f37ffc20ba25f1fcd160fcec936a041", "fusion_lon": 0.0}, {"rental_uris": {"ios": "https://dc.lft.to/lastmile_qr_scan", "android": "https://dc.lft.to/lastmile_qr_scan"}, "type": "electric_scooter", "name": "c8c7a3326819026af69dc50ba04036bb", "is_reserved": 0, "lon": -77.03732516666666, "is_disabled": 0, "fusion_lat": 0.0, "lat": 38.926408333333335, "bike_id": "c8c7a3326819026af69dc50ba04036bb", "fusion_lon": 0.0}, {"rental_uris": {"ios": "https://dc.lft.to/lastmile_qr_scan", "android": "https://dc.lft.to/lastmile_qr_scan"}, "type": "electric_scooter", "name": "843de4734f35e3e79c7cbbc4f8a8b5f3", "is_reserved": 0, "lon": -77.023635, "is_disabled": 0, "fusion_lat": 0.0, "lat": 38.9020665, "bike_id": "843de4734f35e3e79c7cbbc4f8a8b5f3", "fusion_lon": 0.0}, {"rental_uris": {"ios": "https://dc.lft.to/lastmile_qr_scan", "android": "https://dc.lft.to/lastmile_qr_scan"}, "type": "electric_scooter", "name": "f39e248a2183a5975af1abc4044e9684", "is_reserved": 0, "lon": -77.03261283333333, "is_disabled": 0, "fusion_lat": 0.0, "lat": 38.93875666666667, "bike_id": "f39e248a2183a5975af1abc4044e9684", "fusion_lon": 0.0}, {"rental_uris": {"ios": "https://dc.lft.to/lastmile_qr_scan", "android": "https://dc.lft.to/lastmile_qr_scan"}, "type": "electric_scooter", "name": "fd3d998c13dd8eeff5d33b2151e8140d", "is_reserved": 0, "lon": -76.9818595, "is_disabled": 0, "fusion_lat": 0.0, "lat": 38.90581, "bike_id": "fd3d998c13dd8eeff5d33b2151e8140d", "fusion_lon": 0.0}, {"rental_uris": {"ios": "https://dc.lft.to/lastmile_qr_scan", "android": "https://dc.lft.to/lastmile_qr_scan"}, "type": "electric_scooter", "name": "3001f568a3dc3324451fb28e902510d5", "is_reserved": 0, "lon": -77.02409533333334, "is_disabled": 0, "fusion_lat": 0.0, "lat": 38.92754983333333, "bike_id": "3001f568a3dc3324451fb28e902510d5", "fusion_lon": 0.0}, {"rental_uris": {"ios": "https://dc.lft.to/lastmile_qr_scan", "android": "https://dc.lft.to/lastmile_qr_scan"}, "type": "electric_scooter", "name": "c0cebd28b76804e57334413aeb000114", "is_reserved": 0, "lon": -77.01996783333334, "is_disabled": 0, "fusion_lat": 0.0, "lat": 38.930539, "bike_id": "c0cebd28b76804e57334413aeb000114", "fusion_lon": 0.0}, {"rental_uris": {"ios": "https://dc.lft.to/lastmile_qr_scan", "android": "https://dc.lft.to/lastmile_qr_scan"}, "type": "electric_scooter", "name": "530e4b4dcba783cef958ff61820b4c4a", "is_reserved": 0, "lon": -77.03999866666666, "is_disabled": 0, "fusion_lat": 0.0, "lat": 38.91414616666667, "bike_id": "530e4b4dcba783cef958ff61820b4c4a", "fusion_lon": 0.0}, {"rental_uris": {"ios": "https://dc.lft.to/lastmile_qr_scan", "android": "https://dc.lft.to/lastmile_qr_scan"}, "type": "electric_scooter", "name": "e460205069f1d051c147b91527eaf501", "is_reserved": 0, "lon": -77.02949083333333, "is_disabled": 0, "fusion_lat": 0.0, "lat": 38.905015, "bike_id": "e460205069f1d051c147b91527eaf501", "fusion_lon": 0.0}, {"rental_uris": {"ios": "https://dc.lft.to/lastmile_qr_scan", "android": "https://dc.lft.to/lastmile_qr_scan"}, "type": "electric_scooter", "name": "b76cb02f30156e388c75c6d6ece2e8c1", "is_reserved": 0, "lon": -77.024002, "is_disabled": 0, "fusion_lat": 0.0, "lat": 38.91713166666667, "bike_id": "b76cb02f30156e388c75c6d6ece2e8c1", "fusion_lon": 0.0}, {"rental_uris": {"ios": "https://dc.lft.to/lastmile_qr_scan", "android": "https://dc.lft.to/lastmile_qr_scan"}, "type": "electric_scooter", "name": "ad0a7e19e3138382a525df76d95ae5d3", "is_reserved": 0, "lon": -77.05024416666667, "is_disabled": 0, "fusion_lat": 0.0, "lat": 38.897835666666666, "bike_id": "ad0a7e19e3138382a525df76d95ae5d3", "fusion_lon": 0.0}, {"rental_uris": {"ios": "https://dc.lft.to/lastmile_qr_scan", "android": "https://dc.lft.to/lastmile_qr_scan"}, "type": "electric_scooter", "name": "23872ee682719ee0cbc8cf2314bbd58d", "is_reserved": 0, "lon": -77.07400783333334, "is_disabled": 0, "fusion_lat": 0.0, "lat": 38.937459, "bike_id": "23872ee682719ee0cbc8cf2314bbd58d", "fusion_lon": 0.0}, {"rental_uris": {"ios": "https://dc.lft.to/lastmile_qr_scan", "android": "https://dc.lft.to/lastmile_qr_scan"}, "type": "electric_scooter", "name": "7ccbffade4ccc0233007026b119247d5", "is_reserved": 0, "lon": -77.02357783333333, "is_disabled": 0, "fusion_lat": 0.0, "lat": 38.94519016666667, "bike_id": "7ccbffade4ccc0233007026b119247d5", "fusion_lon": 0.0}, {"rental_uris": {"ios": "https://dc.lft.to/lastmile_qr_scan", "android": "https://dc.lft.to/lastmile_qr_scan"}, "type": "electric_scooter", "name": "52b4ae57342da475a293b3ca471231dd", "is_reserved": 0, "lon": -77.031319, "is_disabled": 0, "fusion_lat": 0.0, "lat": 38.923812, "bike_id": "52b4ae57342da475a293b3ca471231dd", "fusion_lon": 0.0}, {"rental_uris": {"ios": "https://dc.lft.to/lastmile_qr_scan", "android": "https://dc.lft.to/lastmile_qr_scan"}, "type": "electric_bike", "name": "6b061f0e0f6cab4a4ad462d09bfb1a49", "is_reserved": 0, "lon": -76.95062566666667, "is_disabled": 0, "fusion_lat": 0.0, "lat": 39.08510116666667, "bike_id": "6b061f0e0f6cab4a4ad462d09bfb1a49", "fusion_lon": 0.0}, {"rental_uris": {"ios": "https://dc.lft.to/lastmile_qr_scan", "android": "https://dc.lft.to/lastmile_qr_scan"}, "type": "electric_scooter", "name": "3b586247fecc9b89c0b988c88f7aba65", "is_reserved": 0, "lon": -76.99388233333333, "is_disabled": 0, "fusion_lat": 0.0, "lat": 38.91013433333333, "bike_id": "3b586247fecc9b89c0b988c88f7aba65", "fusion_lon": 0.0}, {"rental_uris": {"ios": "https://dc.lft.to/lastmile_qr_scan", "android": "https://dc.lft.to/lastmile_qr_scan"}, "type": "electric_bike", "name": "3cda562f461dfb036ecf73a92565b289", "is_reserved": 0, "lon": -77.221864, "is_disabled": 0, "fusion_lat": 0.0, "lat": 38.87171016666667, "bike_id": "3cda562f461dfb036ecf73a92565b289", "fusion_lon": 0.0}, {"rental_uris": {"ios": "https://dc.lft.to/lastmile_qr_scan", "android": "https://dc.lft.to/lastmile_qr_scan"}, "type": "electric_scooter", "name": "1c9c31d89e560d373fd0202128809b3c", "is_reserved": 0, "lon": -77.01885066666667, "is_disabled": 0, "fusion_lat": 0.0, "lat": 38.8771035, "bike_id": "1c9c31d89e560d373fd0202128809b3c", "fusion_lon": 0.0}, {"rental_uris": {"ios": "https://dc.lft.to/lastmile_qr_scan", "android": "https://dc.lft.to/lastmile_qr_scan"}, "type": "electric_scooter", "name": "8f14f3976d53e78df12fce7b9c1e78a6", "is_reserved": 0, "lon": -77.0255555, "is_disabled": 0, "fusion_lat": 0.0, "lat": 38.920285166666666, "bike_id": "8f14f3976d53e78df12fce7b9c1e78a6", "fusion_lon": 0.0}, {"rental_uris": {"ios": "https://dc.lft.to/lastmile_qr_scan", "android": "https://dc.lft.to/lastmile_qr_scan"}, "type": "electric_scooter", "name": "3cd972db2e80d8398b23536885f8d681", "is_reserved": 0, "lon": -77.03623833333333, "is_disabled": 0, "fusion_lat": 0.0, "lat": 38.926599333333336, "bike_id": "3cd972db2e80d8398b23536885f8d681", "fusion_lon": 0.0}, {"rental_uris": {"ios": "https://dc.lft.to/lastmile_qr_scan", "android": "https://dc.lft.to/lastmile_qr_scan"}, "type": "electric_scooter", "name": "d20983db112cc47f12eaad8b35903752", "is_reserved": 0, "lon": -77.03162466666667, "is_disabled": 0, "fusion_lat": 0.0, "lat": 38.90605133333333, "bike_id": "d20983db112cc47f12eaad8b35903752", "fusion_lon": 0.0}, {"rental_uris": {"ios": "https://dc.lft.to/lastmile_qr_scan", "android": "https://dc.lft.to/lastmile_qr_scan"}, "type": "electric_scooter", "name": "4ea4e2f56a3b52eb42556db16df6be39", "is_reserved": 0, "lon": -77.05109716666666, "is_disabled": 0, "fusion_lat": 0.0, "lat": 38.897801, "bike_id": "4ea4e2f56a3b52eb42556db16df6be39", "fusion_lon": 0.0}, {"rental_uris": {"ios": "https://dc.lft.to/lastmile_qr_scan", "android": "https://dc.lft.to/lastmile_qr_scan"}, "type": "electric_scooter", "name": "a5a0e2ecc7104cad751839f2b627c6fd", "is_reserved": 0, "lon": -77.0417755, "is_disabled": 0, "fusion_lat": 0.0, "lat": 38.918297, "bike_id": "a5a0e2ecc7104cad751839f2b627c6fd", "fusion_lon": 0.0}, {"rental_uris": {"ios": "https://dc.lft.to/lastmile_qr_scan", "android": "https://dc.lft.to/lastmile_qr_scan"}, "type": "electric_scooter", "name": "15aa39f06a62e97f802b47733ff585c0", "is_reserved": 0, "lon": -77.00346866666666, "is_disabled": 0, "fusion_lat": 0.0, "lat": 38.899298, "bike_id": "15aa39f06a62e97f802b47733ff585c0", "fusion_lon": 0.0}, {"rental_uris": {"ios": "https://dc.lft.to/lastmile_qr_scan", "android": "https://dc.lft.to/lastmile_qr_scan"}, "type": "electric_scooter", "name": "00c3c729026ad5cd0af0ac95e1b101b3", "is_reserved": 0, "lon": -76.99618266666667, "is_disabled": 0, "fusion_lat": 0.0, "lat": 38.886160333333336, "bike_id": "00c3c729026ad5cd0af0ac95e1b101b3", "fusion_lon": 0.0}, {"rental_uris": {"ios": "https://dc.lft.to/lastmile_qr_scan", "android": "https://dc.lft.to/lastmile_qr_scan"}, "type": "electric_bike", "name": "4fa643ff61622919ef30e0c2bfbe86cc", "is_reserved": 0, "lon": -76.99921666666667, "is_disabled": 0, "fusion_lat": 0.0, "lat": 38.99463433333333, "bike_id": "4fa643ff61622919ef30e0c2bfbe86cc", "fusion_lon": 0.0}, {"rental_uris": {"ios": "https://dc.lft.to/lastmile_qr_scan", "android": "https://dc.lft.to/lastmile_qr_scan"}, "type": "electric_scooter", "name": "ecec24564eb2ad277c69f379b4742491", "is_reserved": 0, "lon": -77.022356, "is_disabled": 0, "fusion_lat": 0.0, "lat": 38.89833016666667, "bike_id": "ecec24564eb2ad277c69f379b4742491", "fusion_lon": 0.0}, {"rental_uris": {"ios": "https://dc.lft.to/lastmile_qr_scan", "android": "https://dc.lft.to/lastmile_qr_scan"}, "type": "electric_scooter", "name": "d867c947473e8fe79011c11941108bb2", "is_reserved": 0, "lon": -76.994803, "is_disabled": 0, "fusion_lat": 0.0, "lat": 38.8997025, "bike_id": "d867c947473e8fe79011c11941108bb2", "fusion_lon": 0.0}, {"rental_uris": {"ios": "https://dc.lft.to/lastmile_qr_scan", "android": "https://dc.lft.to/lastmile_qr_scan"}, "type": "electric_scooter", "name": "3247d2c800fc8181abfe9115bf8d129e", "is_reserved": 0, "lon": -77.06403933333333, "is_disabled": 0, "fusion_lat": 0.0, "lat": 38.9448255, "bike_id": "3247d2c800fc8181abfe9115bf8d129e", "fusion_lon": 0.0}, {"rental_uris": {"ios": "https://dc.lft.to/lastmile_qr_scan", "android": "https://dc.lft.to/lastmile_qr_scan"}, "type": "electric_scooter", "name": "15443c83815ea20113c2e24403ef6ad3", "is_reserved": 0, "lon": -77.0326975, "is_disabled": 0, "fusion_lat": 0.0, "lat": 38.9044375, "bike_id": "15443c83815ea20113c2e24403ef6ad3", "fusion_lon": 0.0}, {"rental_uris": {"ios": "https://dc.lft.to/lastmile_qr_scan", "android": "https://dc.lft.to/lastmile_qr_scan"}, "type": "electric_scooter", "name": "140a56ceaf91178770e9115ec7929c41", "is_reserved": 0, "lon": -77.04603116666667, "is_disabled": 0, "fusion_lat": 0.0, "lat": 38.92331316666667, "bike_id": "140a56ceaf91178770e9115ec7929c41", "fusion_lon": 0.0}, {"rental_uris": {"ios": "https://dc.lft.to/lastmile_qr_scan", "android": "https://dc.lft.to/lastmile_qr_scan"}, "type": "electric_scooter", "name": "23194a243608b4f1396675efd911951b", "is_reserved": 0, "lon": -77.0475885, "is_disabled": 0, "fusion_lat": 0.0, "lat": 38.8958865, "bike_id": "23194a243608b4f1396675efd911951b", "fusion_lon": 0.0}, {"rental_uris": {"ios": "https://dc.lft.to/lastmile_qr_scan", "android": "https://dc.lft.to/lastmile_qr_scan"}, "type": "electric_scooter", "name": "8ca19485f45864f0dd25857fdae1d27d", "is_reserved": 0, "lon": -77.066027, "is_disabled": 0, "fusion_lat": 0.0, "lat": 38.911086166666664, "bike_id": "8ca19485f45864f0dd25857fdae1d27d", "fusion_lon": 0.0}, {"rental_uris": {"ios": "https://dc.lft.to/lastmile_qr_scan", "android": "https://dc.lft.to/lastmile_qr_scan"}, "type": "electric_scooter", "name": "6c6fe2a79cd2403eab405046979581e8", "is_reserved": 0, "lon": -77.04170266666667, "is_disabled": 0, "fusion_lat": 0.0, "lat": 38.91089133333333, "bike_id": "6c6fe2a79cd2403eab405046979581e8", "fusion_lon": 0.0}, {"rental_uris": {"ios": "https://dc.lft.to/lastmile_qr_scan", "android": "https://dc.lft.to/lastmile_qr_scan"}, "type": "electric_scooter", "name": "5c92f647fc980c26d5232910c5c47456", "is_reserved": 0, "lon": -77.01748766666667, "is_disabled": 0, "fusion_lat": 0.0, "lat": 38.91414916666667, "bike_id": "5c92f647fc980c26d5232910c5c47456", "fusion_lon": 0.0}, {"rental_uris": {"ios": "https://dc.lft.to/lastmile_qr_scan", "android": "https://dc.lft.to/lastmile_qr_scan"}, "type": "electric_bike", "name": "55295b0c0f0f8a4ec334080ffc6b6bd5", "is_reserved": 0, "lon": -76.9770205, "is_disabled": 0, "fusion_lat": 0.0, "lat": 38.82210166666667, "bike_id": "55295b0c0f0f8a4ec334080ffc6b6bd5", "fusion_lon": 0.0}, {"rental_uris": {"ios": "https://dc.lft.to/lastmile_qr_scan", "android": "https://dc.lft.to/lastmile_qr_scan"}, "type": "electric_scooter", "name": "e00c29cada72527f9451e19e06afde25", "is_reserved": 0, "lon": -77.0385785, "is_disabled": 0, "fusion_lat": 0.0, "lat": 38.924753333333335, "bike_id": "e00c29cada72527f9451e19e06afde25", "fusion_lon": 0.0}, {"rental_uris": {"ios": "https://dc.lft.to/lastmile_qr_scan", "android": "https://dc.lft.to/lastmile_qr_scan"}, "type": "electric_scooter", "name": "5c0fe61fb79f575ab9d82ca56180eb75", "is_reserved": 0, "lon": -77.0381555, "is_disabled": 0, "fusion_lat": 0.0, "lat": 38.930596, "bike_id": "5c0fe61fb79f575ab9d82ca56180eb75", "fusion_lon": 0.0}, {"rental_uris": {"ios": "https://dc.lft.to/lastmile_qr_scan", "android": "https://dc.lft.to/lastmile_qr_scan"}, "type": "electric_scooter", "name": "f07286d28a857dc2df9863f71cd43994", "is_reserved": 0, "lon": -76.937434, "is_disabled": 0, "fusion_lat": 0.0, "lat": 38.8901105, "bike_id": "f07286d28a857dc2df9863f71cd43994", "fusion_lon": 0.0}, {"rental_uris": {"ios": "https://dc.lft.to/lastmile_qr_scan", "android": "https://dc.lft.to/lastmile_qr_scan"}, "type": "electric_bike", "name": "7fcdaa9d55fbd491f81c41772f544159", "is_reserved": 0, "lon": -77.08318633333333, "is_disabled": 0, "fusion_lat": 0.0, "lat": 38.854418333333335, "bike_id": "7fcdaa9d55fbd491f81c41772f544159", "fusion_lon": 0.0}, {"rental_uris": {"ios": "https://dc.lft.to/lastmile_qr_scan", "android": "https://dc.lft.to/lastmile_qr_scan"}, "type": "electric_scooter", "name": "a64b4303a9c8dec46f01f059097ed97a", "is_reserved": 0, "lon": -76.96545516666667, "is_disabled": 0, "fusion_lat": 0.0, "lat": 38.87887333333333, "bike_id": "a64b4303a9c8dec46f01f059097ed97a", "fusion_lon": 0.0}, {"rental_uris": {"ios": "https://dc.lft.to/lastmile_qr_scan", "android": "https://dc.lft.to/lastmile_qr_scan"}, "type": "electric_scooter", "name": "ed8e7799bd40af6e2fca3e3c6e63c7a2", "is_reserved": 0, "lon": -77.02295533333333, "is_disabled": 0, "fusion_lat": 0.0, "lat": 38.89853033333333, "bike_id": "ed8e7799bd40af6e2fca3e3c6e63c7a2", "fusion_lon": 0.0}, {"rental_uris": {"ios": "https://dc.lft.to/lastmile_qr_scan", "android": "https://dc.lft.to/lastmile_qr_scan"}, "type": "electric_scooter", "name": "859f5f999f7e7dc93df7ece7c255e344", "is_reserved": 0, "lon": -77.04929366666667, "is_disabled": 0, "fusion_lat": 0.0, "lat": 38.89002383333333, "bike_id": "859f5f999f7e7dc93df7ece7c255e344", "fusion_lon": 0.0}, {"rental_uris": {"ios": "https://dc.lft.to/lastmile_qr_scan", "android": "https://dc.lft.to/lastmile_qr_scan"}, "type": "electric_scooter", "name": "f31f3fb95ffa7c8ca19406598e331d1b", "is_reserved": 0, "lon": -77.04074483333333, "is_disabled": 0, "fusion_lat": 0.0, "lat": 38.915946, "bike_id": "f31f3fb95ffa7c8ca19406598e331d1b", "fusion_lon": 0.0}, {"rental_uris": {"ios": "https://dc.lft.to/lastmile_qr_scan", "android": "https://dc.lft.to/lastmile_qr_scan"}, "type": "electric_scooter", "name": "1879c40301919e649ae3070c2746eae0", "is_reserved": 0, "lon": -77.02836466666666, "is_disabled": 0, "fusion_lat": 0.0, "lat": 38.8873435, "bike_id": "1879c40301919e649ae3070c2746eae0", "fusion_lon": 0.0}, {"rental_uris": {"ios": "https://dc.lft.to/lastmile_qr_scan", "android": "https://dc.lft.to/lastmile_qr_scan"}, "type": "electric_scooter", "name": "dddd7e68fc52c9469ad1064c31aadb61", "is_reserved": 0, "lon": -77.048426, "is_disabled": 0, "fusion_lat": 0.0, "lat": 38.909660833333334, "bike_id": "dddd7e68fc52c9469ad1064c31aadb61", "fusion_lon": 0.0}, {"rental_uris": {"ios": "https://dc.lft.to/lastmile_qr_scan", "android": "https://dc.lft.to/lastmile_qr_scan"}, "type": "electric_scooter", "name": "61d53e84c9e1627a82f0721f42a9c64d", "is_reserved": 0, "lon": -76.99736933333334, "is_disabled": 0, "fusion_lat": 0.0, "lat": 38.920384166666665, "bike_id": "61d53e84c9e1627a82f0721f42a9c64d", "fusion_lon": 0.0}, {"rental_uris": {"ios": "https://dc.lft.to/lastmile_qr_scan", "android": "https://dc.lft.to/lastmile_qr_scan"}, "type": "electric_scooter", "name": "9ba36588805827c88471d9887ed96727", "is_reserved": 0, "lon": -76.982619, "is_disabled": 0, "fusion_lat": 0.0, "lat": 38.8662775, "bike_id": "9ba36588805827c88471d9887ed96727", "fusion_lon": 0.0}, {"rental_uris": {"ios": "https://dc.lft.to/lastmile_qr_scan", "android": "https://dc.lft.to/lastmile_qr_scan"}, "type": "electric_scooter", "name": "5f6127810dde292eef1b5cdd298d9f4c", "is_reserved": 0, "lon": -77.0655735, "is_disabled": 0, "fusion_lat": 0.0, "lat": 38.911717333333335, "bike_id": "5f6127810dde292eef1b5cdd298d9f4c", "fusion_lon": 0.0}, {"rental_uris": {"ios": "https://dc.lft.to/lastmile_qr_scan", "android": "https://dc.lft.to/lastmile_qr_scan"}, "type": "electric_bike", "name": "74576d0545b1ca22c7288427fad60ca0", "is_reserved": 0, "lon": -77.02006966666667, "is_disabled": 0, "fusion_lat": 0.0, "lat": 38.964386833333336, "bike_id": "74576d0545b1ca22c7288427fad60ca0", "fusion_lon": 0.0}, {"rental_uris": {"ios": "https://dc.lft.to/lastmile_qr_scan", "android": "https://dc.lft.to/lastmile_qr_scan"}, "type": "electric_scooter", "name": "34a0bbf41b14cc8aa0c75d8fdfb22fee", "is_reserved": 0, "lon": -77.0287075, "is_disabled": 0, "fusion_lat": 0.0, "lat": 38.932755, "bike_id": "34a0bbf41b14cc8aa0c75d8fdfb22fee", "fusion_lon": 0.0}, {"rental_uris": {"ios": "https://dc.lft.to/lastmile_qr_scan", "android": "https://dc.lft.to/lastmile_qr_scan"},