{"data": {"bikes": [{"is_reserved": 0, "is_disabled": 0, "fusion_lon": 0.0, "lat": 38.89501583333333, "name": "cdf9c4015c319f403a16003890aed01b", "bike_id": "cdf9c4015c319f403a16003890aed01b", "lon": -77.04639083333333, "fusion_lat": 0.0, "rental_uris": {"android": "https://dc.lft.to/lastmile_qr_scan", "ios": "https://dc.lft.to/lastmile_qr_scan"}, "type": "electric_scooter"}, {"is_reserved": 0, "is_disabled": 0, "fusion_lon": 0.0, "lat": 38.899015, "name": "3362c6d00d96c09a3060d1b448e08af5", "bike_id": "3362c6d00d96c09a3060d1b448e08af5", "lon": -77.0405765, "fusion_lat": 0.0, "rental_uris": {"android": "https://dc.lft.to/lastmile_qr_scan", "ios": "https://dc.lft.to/lastmile_qr_scan"}, "type": "electric_scooter"}, {"is_reserved": 0, "is_disabled": 0, "fusion_lon": 0.0, "lat": 38.90730766666667, "name": "96b5165759bb6f716d2233a07471be70", "bike_id": "96b5165759bb6f716d2233a07471be70", "lon": -77.0454245, "fusion_lat": 0.0, "rental_uris": {"android": "https://dc.lft.to/lastmile_qr_scan", "ios": "https://dc.lft.to/lastmile_qr_scan"}, "type": "electric_scooter"}, {"is_reserved": 0, "is_disabled": 0, "fusion_lon": 0.0, "lat": 38.93856816666667, "name": "bce618f335dbc5f417bc0f4c2627fd44", "bike_id": "bce618f335dbc5f417bc0f4c2627fd44", "lon": -77.024852, "fusion_lat": 0.0, "rental_uris": {"android": "https://dc.lft.to/lastmile_qr_scan", "ios": "https://dc.lft.to/lastmile_qr_scan"}, "type": "electric_scooter"}, {"is_reserved": 0, "is_disabled": 0, "fusion_lon": 0.0, "lat": 38.89735733333333, "name": "132b7504b8951bfe7e6a7532e53a4d38", "bike_id": "132b7504b8951bfe7e6a7532e53a4d38", "lon": -76.97577033333333, "fusion_lat": 0.0, "rental_uris": {"android": "https://dc.lft.to/lastmile_qr_scan", "ios": "https://dc.lft.to/lastmile_qr_scan"}, "type": "electric_scooter"}, {"is_reserved": 0, "is_disabled": 0, "fusion_lon": 0.0, "lat": 38.87902033333334, "name": "614f1b994bab27d92ccef0eae036c98e", "bike_id": "614f1b994bab27d92ccef0eae036c98e", "lon": -76.98671866666666, "fusion_lat": 0.0, "rental_uris": {"android": "https://dc.lft.to/lastmile_qr_scan", "ios": "https://dc.lft.to/lastmile_qr_scan"}, "type": "electric_scooter"}, {"is_reserved": 0, "is_disabled": 0, "fusion_lon": 0.0, "lat": 38.883760333333335, "name": "59465d27027fc65b25105b18c1a9edd4", "bike_id": "59465d27027fc65b25105b18c1a9edd4", "lon": -76.995228, "fusion_lat": 0.0, "rental_uris": {"android": "https://dc.lft.to/lastmile_qr_scan", "ios": "https://dc.lft.to/lastmile_qr_scan"}, "type": "electric_scooter"}, {"is_reserved": 0, "is_disabled": 0, "fusion_lon": 0.0, "lat": 38.909006833333336, "name": "4964069e695da5f15f2cb03162717a31", "bike_id": "4964069e695da5f15f2cb03162717a31", "lon": -77.03377516666667, "fusion_lat": 0.0, "rental_uris": {"android": "https://dc.lft.to/lastmile_qr_scan", "ios": "https://dc.lft.to/lastmile_qr_scan"}, "type": "electric_scooter"}, {"is_reserved": 0, "is_disabled": 0, "fusion_lon": 0.0, "lat": 38.8922435, "name": "c91fbf2fb5fc46be0c4f48aa87a2deb9", "bike_id": "c91fbf2fb5fc46be0c4f48aa87a2deb9", "lon": -77.0318685, "fusion_lat": 0.0, "rental_uris": {"android": "https://dc.lft.to/lastmile_qr_scan", "ios": "https://dc.lft.to/lastmile_qr_scan"}, "type": "electric_scooter"}, {"is_reserved": 0, "is_disabled": 0, "fusion_lon": 0.0, "lat": 38.92459433333333, "name": "3bd1a4aacd48620d0352eba1b0e1be32", "bike_id": "3bd1a4aacd48620d0352eba1b0e1be32", "lon": -77.03385016666667, "fusion_lat": 0.0, "rental_uris": {"android": "https://dc.lft.to/lastmile_qr_scan", "ios": "https://dc.lft.to/lastmile_qr_scan"}, "type": "electric_scooter"}, {"is_reserved": 0, "is_disabled": 0, "fusion_lon": 0.0, "lat": 38.91731716666666, "name": "c29303bc8eb32ae94c2f17ef00848ef5", "bike_id": "c29303bc8eb32ae94c2f17ef00848ef5", "lon": -77.03211833333333, "fusion_lat": 0.0, "rental_uris": {"android": "https://dc.lft.to/lastmile_qr_scan", "ios": "https://dc.lft.to/lastmile_qr_scan"}, "type": "electric_scooter"}, {"is_reserved": 0, "is_disabled": 0, "fusion_lon": 0.0, "lat": 38.92072783333333, "name": "329daffe504ec0f7c730e11704cd6613", "bike_id": "329daffe504ec0f7c730e11704cd6613", "lon": -77.04253983333334, "fusion_lat": 0.0, "rental_uris": {"android": "https://dc.lft.to/lastmile_qr_scan", "ios": "https://dc.lft.to/lastmile_qr_scan"}, "type": "electric_scooter"}, {"is_reserved": 0, "is_disabled": 0, "fusion_lon": 0.0, "lat": 38.90310183333333, "name": "af345d57400aa84427bc44b61daf3aee", "bike_id": "af345d57400aa84427bc44b61daf3aee", "lon": -77.024775, "fusion_lat": 0.0, "rental_uris": {"android": "https://dc.lft.to/lastmile_qr_scan", "ios": "https://dc.lft.to/lastmile_qr_scan"}, "type": "electric_scooter"}, {"is_reserved": 0, "is_disabled": 0, "fusion_lon": 0.0, "lat": 38.905650666666666, "name": "c5e047fb6c3c1a6024031fdc351dcfb7", "bike_id": "c5e047fb6c3c1a6024031fdc351dcfb7", "lon": -77.03435183333333, "fusion_lat": 0.0, "rental_uris": {"android": "https://dc.lft.to/lastmile_qr_scan", "ios": "https://dc.lft.to/lastmile_qr_scan"}, "type": "electric_scooter"}, {"is_reserved": 0, "is_disabled": 0, "fusion_lon": 0.0, "lat": 38.909857333333335, "name": "e62338604bfba6206220abe74a5a5597", "bike_id": "e62338604bfba6206220abe74a5a5597", "lon": -77.04263033333334, "fusion_lat": 0.0, "rental_uris": {"android": "https://dc.lft.to/lastmile_qr_scan", "ios": "https://dc.lft.to/lastmile_qr_scan"}, "type": "electric_scooter"}, {"is_reserved": 0, "is_disabled": 0, "fusion_lon": 0.0, "lat": 38.8999815, "name": "11c122cb6c8e1dba76b4eff54c05bad2", "bike_id": "11c122cb6c8e1dba76b4eff54c05bad2", "lon": -77.01192333333333, "fusion_lat": 0.0, "rental_uris": {"android": "https://dc.lft.to/lastmile_qr_scan", "ios": "https://dc.lft.to/lastmile_qr_scan"}, "type": "electric_scooter"}, {"is_reserved": 0, "is_disabled": 0, "fusion_lon": 0.0, "lat": 38.9265215, "name": "00e0798573eb62f5dc6cdb805c59951d", "bike_id": "00e0798573eb62f5dc6cdb805c59951d", "lon": -77.02416966666667, "fusion_lat": 0.0, "rental_uris": {"android": "https://dc.lft.to/lastmile_qr_scan", "ios": "https://dc.lft.to/lastmile_qr_scan"}, "type": "electric_scooter"}, {"is_reserved": 0, "is_disabled": 0, "fusion_lon": 0.0, "lat": 38.924572833333336, "name": "b7cce67aa94fb194f876890abc0b3583", "bike_id": "b7cce67aa94fb194f876890abc0b3583", "lon": -76.99916133333333, "fusion_lat": 0.0, "rental_uris": {"android": "https://dc.lft.to/lastmile_qr_scan", "ios": "https://dc.lft.to/lastmile_qr_scan"}, "type": "electric_scooter"}, {"is_reserved": 0, "is_disabled": 0, "fusion_lon": 0.0, "lat": 38.924963166666664, "name": "f15f5af7c069e3a71d98a821a1dfb965", "bike_id": "f15f5af7c069e3a71d98a821a1dfb965", "lon": -77.02177233333333, "fusion_lat": 0.0, "rental_uris": {"android": "https://dc.lft.to/lastmile_qr_scan", "ios": "https://dc.lft.to/lastmile_qr_scan"}, "type": "electric_scooter"}, {"is_reserved": 0, "is_disabled": 0, "fusion_lon": 0.0, "lat": 38.93860516666667, "name": "e578240d707183ab74ff77c19b194923", "bike_id": "e578240d707183ab74ff77c19b194923", "lon": -77.0251645, "fusion_lat": 0.0, "rental_uris": {"android": "https://dc.lft.to/lastmile_qr_scan", "ios": "https://dc.lft.to/lastmile_qr_scan"}, "type": "electric_scooter"}, {"is_reserved": 0, "is_disabled": 0, "fusion_lon": 0.0, "lat": 38.93601133333333, "name": "bb9352b0f5dfe33e1506133fa4121189", "bike_id": "bb9352b0f5dfe33e1506133fa4121189", "lon": -77.0354385, "fusion_lat": 0.0, "rental_uris": {"android": "https://dc.lft.to/lastmile_qr_scan", "ios": "https://dc.lft.to/lastmile_qr_scan"}, "type": "electric_scooter"}, {"is_reserved": 0, "is_disabled": 0, "fusion_lon": 0.0, "lat": 38.929968333333335, "name": "872e03dac15b8a16592cee819765d97d", "bike_id": "872e03dac15b8a16592cee819765d97d", "lon": -77.037752, "fusion_lat": 0.0, "rental_uris": {"android": "https://dc.lft.to/lastmile_qr_scan", "ios": "https://dc.lft.to/lastmile_qr_scan"}, "type": "electric_scooter"}, {"is_reserved": 0, "is_disabled": 0, "fusion_lon": 0.0, "lat": 38.892891666666664, "name": "76217d1cca35d38e0226aa8f32d4b441", "bike_id": "76217d1cca35d38e0226aa8f32d4b441", "lon": -76.97614, "fusion_lat": 0.0, "rental_uris": {"android": "https://dc.lft.to/lastmile_qr_scan", "ios": "https://dc.lft.to/lastmile_qr_scan"}, "type": "electric_bike"}, {"is_reserved": 0, "is_disabled": 0, "fusion_lon": 0.0, "lat": 38.89220383333333, "name": "11a5ab6dcd93035d7b483bed596eb79d", "bike_id": "11a5ab6dcd93035d7b483bed596eb79d", "lon": -77.02166066666666, "fusion_lat": 0.0, "rental_uris": {"android": "https://dc.lft.to/lastmile_qr_scan", "ios": "https://dc.lft.to/lastmile_qr_scan"}, "type": "electric_scooter"}, {"is_reserved": 0, "is_disabled": 0, "fusion_lon": 0.0, "lat": 38.933296, "name": "f49f57b7a0fd84d4de3c5df9075c57c5", "bike_id": "f49f57b7a0fd84d4de3c5df9075c57c5", "lon": -77.0292825, "fusion_lat": 0.0, "rental_uris": {"android": "https://dc.lft.to/lastmile_qr_scan", "ios": "https://dc.lft.to/lastmile_qr_scan"}, "type": "electric_scooter"}, {"is_reserved": 0, "is_disabled": 0, "fusion_lon": 0.0, "lat": 38.94512733333333, "name": "914180cf735ff0dfe7c21e88134419b5", "bike_id": "914180cf735ff0dfe7c21e88134419b5", "lon": -77.03427816666667, "fusion_lat": 0.0, "rental_uris": {"android": "https://dc.lft.to/lastmile_qr_scan", "ios": "https://dc.lft.to/lastmile_qr_scan"}, "type": "electric_scooter"}, {"is_reserved": 0, "is_disabled": 0, "fusion_lon": 0.0, "lat": 38.90657366666667, "name": "e38976287138e9749e82d75224812fdc", "bike_id": "e38976287138e9749e82d75224812fdc", "lon": -77.042988, "fusion_lat": 0.0, "rental_uris": {"android": "https://dc.lft.to/lastmile_qr_scan", "ios": "https://dc.lft.to/lastmile_qr_scan"}, "type": "electric_scooter"}, {"is_reserved": 0, "is_disabled": 0, "fusion_lon": 0.0, "lat": 38.917999, "name": "3bfdfa444f29093414d6175347cd1a74", "bike_id": "3bfdfa444f29093414d6175347cd1a74", "lon": -77.04018866666667, "fusion_lat": 0.0, "rental_uris": {"android": "https://dc.lft.to/lastmile_qr_scan", "ios": "https://dc.lft.to/lastmile_qr_scan"}, "type": "electric_scooter"}, {"is_reserved": 0, "is_disabled": 0, "fusion_lon": 0.0, "lat": 38.958996166666665, "name": "c09a923b318cbcc7e62772789c3c283d", "bike_id": "c09a923b318cbcc7e62772789c3c283d", "lon": -77.000171, "fusion_lat": 0.0, "rental_uris": {"android": "https://dc.lft.to/lastmile_qr_scan", "ios": "https://dc.lft.to/lastmile_qr_scan"}, "type": "electric_scooter"}, {"is_reserved": 0, "is_disabled": 0, "fusion_lon": 0.0, "lat": 38.912338166666665, "name": "2f6dd019a08b776ba4626c5ba3928259", "bike_id": "2f6dd019a08b776ba4626c5ba3928259", "lon": -77.06588783333333, "fusion_lat": 0.0, "rental_uris": {"android": "https://dc.lft.to/lastmile_qr_scan", "ios": "https://dc.lft.to/lastmile_qr_scan"}, "type": "electric_scooter"}, {"is_reserved": 0, "is_disabled": 0, "fusion_lon": 0.0, "lat": 38.918570833333334, "name": "88075f5ed71e40179ec76e0bc888a3ad", "bike_id": "88075f5ed71e40179ec76e0bc888a3ad", "lon": -76.96552316666667, "fusion_lat": 0.0, "rental_uris": {"android": "https://dc.lft.to/lastmile_qr_scan", "ios": "https://dc.lft.to/lastmile_qr_scan"}, "type": "electric_scooter"}, {"is_reserved": 0, "is_disabled": 0, "fusion_lon": 0.0, "lat": 38.94531383333333, "name": "5c4f008848d37efeb9cab70b1fa2d480", "bike_id": "5c4f008848d37efeb9cab70b1fa2d480", "lon": -77.00688233333334, "fusion_lat": 0.0, "rental_uris": {"android": "https://dc.lft.to/lastmile_qr_scan", "ios": "https://dc.lft.to/lastmile_qr_scan"}, "type": "electric_bike"}, {"is_reserved": 0, "is_disabled": 0, "fusion_lon": 0.0, "lat": 38.91557433333333, "name": "11a89293887c9839365b79c45bdfdec0", "bike_id": "11a89293887c9839365b79c45bdfdec0", "lon": -77.04871733333333, "fusion_lat": 0.0, "rental_uris": {"android": "https://dc.lft.to/lastmile_qr_scan", "ios": "https://dc.lft.to/lastmile_qr_scan"}, "type": "electric_scooter"}, {"is_reserved": 0, "is_disabled": 0, "fusion_lon": 0.0, "lat": 38.89617366666667, "name": "d8b519f713c8f7fee14c20a4d0b71291", "bike_id": "d8b519f713c8f7fee14c20a4d0b71291", "lon": -77.04043033333333, "fusion_lat": 0.0, "rental_uris": {"android": "https://dc.lft.to/lastmile_qr_scan", "ios": "https://dc.lft.to/lastmile_qr_scan"}, "type": "electric_scooter"}, {"is_reserved": 0, "is_disabled": 0, "fusion_lon": 0.0, "lat": 38.92413833333333, "name": "a73bf26d88acfb0105da39917750aa8a", "bike_id": "a73bf26d88acfb0105da39917750aa8a", "lon": -77.044581, "fusion_lat": 0.0, "rental_uris": {"android": "https://dc.lft.to/lastmile_qr_scan", "ios": "https://dc.lft.to/lastmile_qr_scan"}, "type": "electric_scooter"}, {"is_reserved": 0, "is_disabled": 0, "fusion_lon": 0.0, "lat": 38.9097745, "name": "d713ac0bfcebb5f93b92433895466e9c", "bike_id": "d713ac0bfcebb5f93b92433895466e9c", "lon": -76.98462933333333, "fusion_lat": 0.0, "rental_uris": {"android": "https://dc.lft.to/lastmile_qr_scan", "ios": "https://dc.lft.to/lastmile_qr_scan"}, "type": "electric_scooter"}, {"is_reserved": 0, "is_disabled": 0, "fusion_lon": 0.0, "lat": 38.900613, "name": "f5f385bf21aef49579d9864d04e67b06", "bike_id": "f5f385bf21aef49579d9864d04e67b06", "lon": -77.01789783333334, "fusion_lat": 0.0, "rental_uris": {"android": "https://dc.lft.to/lastmile_qr_scan", "ios": "https://dc.lft.to/lastmile_qr_scan"}, "type": "electric_scooter"}, {"is_reserved": 0, "is_disabled": 0, "fusion_lon": 0.0, "lat": 38.8993855, "name": "87ce94d1ab81e21f6d560e972c3bf3f9", "bike_id": "87ce94d1ab81e21f6d560e972c3bf3f9", "lon": -77.031994, "fusion_lat": 0.0, "rental_uris": {"android": "https://dc.lft.to/lastmile_qr_scan", "ios": "https://dc.lft.to/lastmile_qr_scan"}, "type": "electric_scooter"}, {"is_reserved": 0, "is_disabled": 0, "fusion_lon": 0.0, "lat": 38.9229135, "name": "ddec253d2321994feff8a112367f84fa", "bike_id": "ddec253d2321994feff8a112367f84fa", "lon": -77.0194905, "fusion_lat": 0.0, "rental_uris": {"android": "https://dc.lft.to/lastmile_qr_scan", "ios": "https://dc.lft.to/lastmile_qr_scan"}, "type": "electric_scooter"}, {"is_reserved": 0, "is_disabled": 0, "fusion_lon": 0.0, "lat": 38.849091333333334, "name": "d530aa093763810b4c92ca459a3d03d4", "bike_id": "d530aa093763810b4c92ca459a3d03d4", "lon": -77.07813233333333, "fusion_lat": 0.0, "rental_uris": {"android": "https://dc.lft.to/lastmile_qr_scan", "ios": "https://dc.lft.to/lastmile_qr_scan"}, "type": "electric_bike"}, {"is_reserved": 0, "is_disabled": 0, "fusion_lon": 0.0, "lat": 38.91904266666667, "name": "b9a21ee4411e49e9fd81131fd775b453", "bike_id": "b9a21ee4411e49e9fd81131fd775b453", "lon": -77.0448145, "fusion_lat": 0.0, "rental_uris": {"android": "https://dc.lft.to/lastmile_qr_scan", "ios": "https://dc.lft.to/lastmile_qr_scan"}, "type": "electric_scooter"}, {"is_reserved": 0, "is_disabled": 0, "fusion_lon": 0.0, "lat": 38.93408083333333, "name": "931897fd84cc558b95ea2bab90ee3fd8", "bike_id": "931897fd84cc558b95ea2bab90ee3fd8", "lon": -77.03269766666666, "fusion_lat": 0.0, "rental_uris": {"android": "https://dc.lft.to/lastmile_qr_scan", "ios": "https://dc.lft.to/lastmile_qr_scan"}, "type": "electric_scooter"}, {"is_reserved": 0, "is_disabled": 0, "fusion_lon": 0.0, "lat": 38.912610666666666, "name": "2daf45535eb4ebcf800fce95c85b4f9d", "bike_id": "2daf45535eb4ebcf800fce95c85b4f9d", "lon": -77.02444666666666, "fusion_lat": 0.0, "rental_uris": {"android": "https://dc.lft.to/lastmile_qr_scan", "ios": "https://dc.lft.to/lastmile_qr_scan"}, "type": "electric_scooter"}, {"is_reserved": 0, "is_disabled": 0, "fusion_lon": 0.0, "lat": 38.867317166666666, "name": "6b5998d1f4463d10d0e13cd894284eb4", "bike_id": "6b5998d1f4463d10d0e13cd894284eb4", "lon": -77.01014366666666, "fusion_lat": 0.0, "rental_uris": {"android": "https://dc.lft.to/lastmile_qr_scan", "ios": "https://dc.lft.to/lastmile_qr_scan"}, "type": "electric_scooter"}, {"is_reserved": 0, "is_disabled": 0, "fusion_lon": 0.0, "lat": 38.90186666666666, "name": "5be6abdeaf34bd41e30e88b3e21b62b1", "bike_id": "5be6abdeaf34bd41e30e88b3e21b62b1", "lon": -77.02200683333334, "fusion_lat": 0.0, "rental_uris": {"android": "https://dc.lft.to/lastmile_qr_scan", "ios": "https://dc.lft.to/lastmile_qr_scan"}, "type": "electric_scooter"}, {"is_reserved": 0, "is_disabled": 0, "fusion_lon": 0.0, "lat": 38.927117833333334, "name": "d812adc5c06ab69752c2e9ee3f519db7", "bike_id": "d812adc5c06ab69752c2e9ee3f519db7", "lon": -77.023322, "fusion_lat": 0.0, "rental_uris": {"android": "https://dc.lft.to/lastmile_qr_scan", "ios": "https://dc.lft.to/lastmile_qr_scan"}, "type": "electric_scooter"}, {"is_reserved": 0, "is_disabled": 0, "fusion_lon": 0.0, "lat": 38.928930333333334, "name": "7d8fe0368f41908ecb11d556cac4a3ad", "bike_id": "7d8fe0368f41908ecb11d556cac4a3ad", "lon": -77.03271116666667, "fusion_lat": 0.0, "rental_uris": {"android": "https://dc.lft.to/lastmile_qr_scan", "ios": "https://dc.lft.to/lastmile_qr_scan"}, "type": "electric_scooter"}, {"is_reserved": 0, "is_disabled": 0, "fusion_lon": 0.0, "lat": 38.9156225, "name": "19fd3a840355c890585a52f93f3acc7c", "bike_id": "19fd3a840355c890585a52f93f3acc7c", "lon": -77.007008, "fusion_lat": 0.0, "rental_uris": {"android": "https://dc.lft.to/lastmile_qr_scan", "ios": "https://dc.lft.to/lastmile_qr_scan"}, "type": "electric_scooter"}, {"is_reserved": 0, "is_disabled": 0, "fusion_lon": 0.0, "lat": 39.00713416666667, "name": "1a34d97d2b94303f4cb0545a42991593", "bike_id": "1a34d97d2b94303f4cb0545a42991593", "lon": -76.98146233333334, "fusion_lat": 0.0, "rental_uris": {"android": "https://dc.lft.to/lastmile_qr_scan", "ios": "https://dc.lft.to/lastmile_qr_scan"}, "type": "electric_bike"}, {"is_reserved": 0, "is_disabled": 0, "fusion_lon": 0.0, "lat": 38.8450025, "name": "46ba55c517d24d492a643ffed1b6d36c", "bike_id": "46ba55c517d24d492a643ffed1b6d36c", "lon": -76.99357716666667, "fusion_lat": 0.0, "rental_uris": {"android": "https://dc.lft.to/lastmile_qr_scan", "ios": "https://dc.lft.to/lastmile_qr_scan"}, "type": "electric_bike"}, {"is_reserved": 0, "is_disabled": 0, "fusion_lon": 0.0, "lat": 38.942690166666665, "name": "79c4326fbf4fd9d340704f4f18656361", "bike_id": "79c4326fbf4fd9d340704f4f18656361", "lon": -77.025848, "fusion_lat": 0.0, "rental_uris": {"android": "https://dc.lft.to/lastmile_qr_scan", "ios": "https://dc.lft.to/lastmile_qr_scan"}, "type": "electric_scooter"}, {"is_reserved": 0, "is_disabled": 0, "fusion_lon": 0.0, "lat": 38.935208833333334, "name": "b98c200a9a135feaf238c9520615a8e7", "bike_id": "b98c200a9a135feaf238c9520615a8e7", "lon": -77.05436266666666, "fusion_lat": 0.0, "rental_uris": {"android": "https://dc.lft.to/lastmile_qr_scan", "ios": "https://dc.lft.to/lastmile_qr_scan"}, "type": "electric_scooter"}, {"is_reserved": 0, "is_disabled": 0, "fusion_lon": 0.0, "lat": 38.900229833333334, "name": "07830f94033161c7f47b3a896adad169", "bike_id": "07830f94033161c7f47b3a896adad169", "lon": -77.0018715, "fusion_lat": 0.0, "rental_uris": {"android": "https://dc.lft.to/lastmile_qr_scan", "ios": "https://dc.lft.to/lastmile_qr_scan"}, "type": "electric_scooter"}, {"is_reserved": 0, "is_disabled": 0, "fusion_lon": 0.0, "lat": 38.99412216666666, "name": "02ce05a3d02c02e1aebfc708303e0b45", "bike_id": "02ce05a3d02c02e1aebfc708303e0b45", "lon": -77.01798516666666, "fusion_lat": 0.0, "rental_uris": {"android": "https://dc.lft.to/lastmile_qr_scan", "ios": "https://dc.lft.to/lastmile_qr_scan"}, "type": "electric_bike"}, {"is_reserved": 0, "is_disabled": 0, "fusion_lon": 0.0, "lat": 38.927895666666664, "name": "eacd503299c39989f2ecb730e76639e6", "bike_id": "eacd503299c39989f2ecb730e76639e6", "lon": -77.0371895, "fusion_lat": 0.0, "rental_uris": {"android": "https://dc.lft.to/lastmile_qr_scan", "ios": "https://dc.lft.to/lastmile_qr_scan"}, "type": "electric_scooter"}, {"is_reserved": 0, "is_disabled": 0, "fusion_lon": 0.0, "lat": 38.92158416666667, "name": "ae1bbbe008d24402ba927e39a210afb9", "bike_id": "ae1bbbe008d24402ba927e39a210afb9", "lon": -77.0339075, "fusion_lat": 0.0, "rental_uris": {"android": "https://dc.lft.to/lastmile_qr_scan", "ios": "https://dc.lft.to/lastmile_qr_scan"}, "type": "electric_scooter"}, {"is_reserved": 0, "is_disabled": 0, "fusion_lon": 0.0, "lat": 38.937154, "name": "b4271698e7a1cdae3a2aca44479a17a0", "bike_id": "b4271698e7a1cdae3a2aca44479a17a0", "lon": -77.03291566666667, "fusion_lat": 0.0, "rental_uris": {"android": "https://dc.lft.to/lastmile_qr_scan", "ios": "https://dc.lft.to/lastmile_qr_scan"}, "type": "electric_scooter"}, {"is_reserved": 0, "is_disabled": 0, "fusion_lon": 0.0, "lat": 38.926382, "name": "626b58b911413af437a08c7e3e1b7e83", "bike_id": "626b58b911413af437a08c7e3e1b7e83", "lon": -77.03714883333333, "fusion_lat": 0.0, "rental_uris": {"android": "https://dc.lft.to/lastmile_qr_scan", "ios": "https://dc.lft.to/lastmile_qr_scan"}, "type": "electric_scooter"}, {"is_reserved": 0, "is_disabled": 0, "fusion_lon": 0.0, "lat": 38.8870915, "name": "afedecafd927f1bc3db0296bbaa179c6", "bike_id": "afedecafd927f1bc3db0296bbaa179c6", "lon": -76.983401, "fusion_lat": 0.0, "rental_uris": {"android": "https://dc.lft.to/lastmile_qr_scan", "ios": "https://dc.lft.to/lastmile_qr_scan"}, "type": "electric_scooter"}, {"is_reserved": 0, "is_disabled": 0, "fusion_lon": 0.0, "lat": 38.920730666666664, "name": "7ddc6e1fd0e6d599af262e5f5bfbeefc", "bike_id": "7ddc6e1fd0e6d599af262e5f5bfbeefc", "lon": -77.02220983333333, "fusion_lat": 0.0, "rental_uris": {"android": "https://dc.lft.to/lastmile_qr_scan", "ios": "https://dc.lft.to/lastmile_qr_scan"}, "type": "electric_scooter"}, {"is_reserved": 0, "is_disabled": 0, "fusion_lon": 0.0, "lat": 38.9302385, "name": "3906a5f979c571e294817844995cdec1", "bike_id": "3906a5f979c571e294817844995cdec1", "lon": -77.01983783333333, "fusion_lat": 0.0, "rental_uris": {"android": "https://dc.lft.to/lastmile_qr_scan", "ios": "https://dc.lft.to/lastmile_qr_scan"}, "type": "electric_scooter"}, {"is_reserved": 0, "is_disabled": 0, "fusion_lon": 0.0, "lat": 38.92491733333333, "name": "c4b5c836d6828344ca605ee048ed8cf6", "bike_id": "c4b5c836d6828344ca605ee048ed8cf6", "lon": -77.02281183333334, "fusion_lat": 0.0, "rental_uris": {"android": "https://dc.lft.to/lastmile_qr_scan", "ios": "https://dc.lft.to/lastmile_qr_scan"}, "type": "electric_scooter"}, {"is_reserved": 0, "is_disabled": 0, "fusion_lon": 0.0, "lat": 38.924544166666664, "name": "e106fa00d596aed3c8fca1719f05bb74", "bike_id": "e106fa00d596aed3c8fca1719f05bb74", "lon": -77.04019266666667, "fusion_lat": 0.0, "rental_uris": {"android": "https://dc.lft.to/lastmile_qr_scan", "ios": "https://dc.lft.to/lastmile_qr_scan"}, "type": "electric_scooter"}, {"is_reserved": 0, "is_disabled": 0, "fusion_lon": 0.0, "lat": 38.924653166666666, "name": "d08b34dbf49c42f0c07c5b67a6085927", "bike_id": "d08b34dbf49c42f0c07c5b67a6085927", "lon": -77.0575995, "fusion_lat": 0.0, "rental_uris": {"android": "https://dc.lft.to/lastmile_qr_scan", "ios": "https://dc.lft.to/lastmile_qr_scan"}, "type": "electric_scooter"}, {"is_reserved": 0, "is_disabled": 0, "fusion_lon": 0.0, "lat": 38.920647833333334, "name": "e836f03c47f74957603a1bb7ff4f0077", "bike_id": "e836f03c47f74957603a1bb7ff4f0077", "lon": -77.04193366666667, "fusion_lat": 0.0, "rental_uris": {"android": "https://dc.lft.to/lastmile_qr_scan", "ios": "https://dc.lft.to/lastmile_qr_scan"}, "type": "electric_scooter"}, {"is_reserved": 0, "is_disabled": 0, "fusion_lon": 0.0, "lat": 38.92456, "name": "ff57a7bbb91832d95d5a9516e140e618", "bike_id": "ff57a7bbb91832d95d5a9516e140e618", "lon": -77.03974283333334, "fusion_lat": 0.0, "rental_uris": {"android": "https://dc.lft.to/lastmile_qr_scan", "ios": "https://dc.lft.to/lastmile_qr_scan"}, "type": "electric_scooter"}, {"is_reserved": 0, "is_disabled": 0, "fusion_lon": 0.0, "lat": 38.91123133333333, "name": "a193f6f57d90f33f90146b6f211db52e", "bike_id": "a193f6f57d90f33f90146b6f211db52e", "lon": -77.038318, "fusion_lat": 0.0, "rental_uris": {"android": "https://dc.lft.to/lastmile_qr_scan", "ios": "https://dc.lft.to/lastmile_qr_scan"}, "type": "electric_scooter"}, {"is_reserved": 0, "is_disabled": 0, "fusion_lon": 0.0, "lat": 38.89052933333333, "name": "628ccc564aad1cc069c2eae925c779b3", "bike_id": "628ccc564aad1cc069c2eae925c779b3", "lon": -77.04497083333334, "fusion_lat": 0.0, "rental_uris": {"android": "https://dc.lft.to/lastmile_qr_scan", "ios": "https://dc.lft.to/lastmile_qr_scan"}, "type": "electric_scooter"}, {"is_reserved": 0, "is_disabled": 0, "fusion_lon": 0.0, "lat": 38.9573695, "name": "e11d8f5f195f8a90a3532571a4abfa83", "bike_id": "e11d8f5f195f8a90a3532571a4abfa83", "lon": -77.0242085, "fusion_lat": 0.0, "rental_uris": {"android": "https://dc.lft.to/lastmile_qr_scan", "ios": "https://dc.lft.to/lastmile_qr_scan"}, "type": "electric_scooter"}, {"is_reserved": 0, "is_disabled": 0, "fusion_lon": 0.0, "lat": 38.949569833333335, "name": "3b169b590ed7f32c6944f45fe2e2eedb", "bike_id": "3b169b590ed7f32c6944f45fe2e2eedb", "lon": -76.96093383333333, "fusion_lat": 0.0, "rental_uris": {"android": "https://dc.lft.to/lastmile_qr_scan", "ios": "https://dc.lft.to/lastmile_qr_scan"}, "type": "electric_bike"}, {"is_reserved": 0, "is_disabled": 0, "fusion_lon": 0.0, "lat": 38.895120666666664, "name": "9db63be3d8feb2bbd4b63304ef21680b", "bike_id": "9db63be3d8feb2bbd4b63304ef21680b", "lon": -76.94884633333334, "fusion_lat": 0.0, "rental_uris": {"android": "https://dc.lft.to/lastmile_qr_scan", "ios": "https://dc.lft.to/lastmile_qr_scan"}, "type": "electric_scooter"}, {"is_reserved": 0, "is_disabled": 0, "fusion_lon": 0.0, "lat": 38.912218333333335, "name": "b882a6a1b4bfb8892d9705a81b16c7a4", "bike_id": "b882a6a1b4bfb8892d9705a81b16c7a4", "lon": -77.03200183333334, "fusion_lat": 0.0, "rental_uris": {"android": "https://dc.lft.to/lastmile_qr_scan", "ios": "https://dc.lft.to/lastmile_qr_scan"}, "type": "electric_scooter"}, {"is_reserved": 0, "is_disabled": 0, "fusion_lon": 0.0, "lat": 38.930169, "name": "14fc5f895df1d02ca7541dc7e5974f4b", "bike_id": "14fc5f895df1d02ca7541dc7e5974f4b", "lon": -77.061923, "fusion_lat": 0.0, "rental_uris": {"android": "https://dc.lft.to/lastmile_qr_scan", "ios": "https://dc.lft.to/lastmile_qr_scan"}, "type": "electric_scooter"}, {"is_reserved": 0, "is_disabled": 0, "fusion_lon": 0.0, "lat": 38.91136816666667, "name": "751efdd912d450e8b76161f289b82b7e", "bike_id": "751efdd912d450e8b76161f289b82b7e", "lon": -77.0219175, "fusion_lat": 0.0, "rental_uris": {"android": "https://dc.lft.to/lastmile_qr_scan", "ios": "https://dc.lft.to/lastmile_qr_scan"}, "type": "electric_scooter"}, {"is_reserved": 0, "is_disabled": 0, "fusion_lon": 0.0, "lat": 38.88822116666667, "name": "0d3bebb4ca194c152bcbf1c2842e0e95", "bike_id": "0d3bebb4ca194c152bcbf1c2842e0e95", "lon": -76.9770665, "fusion_lat": 0.0, "rental_uris": {"android": "https://dc.lft.to/lastmile_qr_scan", "ios": "https://dc.lft.to/lastmile_qr_scan"}, "type": "electric_scooter"}, {"is_reserved": 0, "is_disabled": 0, "fusion_lon": 0.0, "lat": 38.92436716666667, "name": "9e1afaa208321a768beb045a213ecb01", "bike_id": "9e1afaa208321a768beb045a213ecb01", "lon": -77.00321216666667, "fusion_lat": 0.0, "rental_uris": {"android": "https://dc.lft.to/lastmile_qr_scan", "ios": "https://dc.lft.to/lastmile_qr_scan"}, "type": "electric_scooter"}, {"is_reserved": 0, "is_disabled": 0, "fusion_lon": 0.0, "lat": 38.897566, "name": "ac6bd175b144edb8f2bbf9e19e335c2b", "bike_id": "ac6bd175b144edb8f2bbf9e19e335c2b", "lon": -77.01905516666666, "fusion_lat": 0.0, "rental_uris": {"android": "https://dc.lft.to/lastmile_qr_scan", "ios": "https://dc.lft.to/lastmile_qr_scan"}, "type": "electric_scooter"}, {"is_reserved": 0, "is_disabled": 0, "fusion_lon": 0.0, "lat": 38.9263375, "name": "3547459d63181039c500c66ca9a0da9c", "bike_id": "3547459d63181039c500c66ca9a0da9c", "lon": -77.03842333333333, "fusion_lat": 0.0, "rental_uris": {"android": "https://dc.lft.to/lastmile_qr_scan", "ios": "https://dc.lft.to/lastmile_qr_scan"}, "type": "electric_scooter"}, {"is_reserved": 0, "is_disabled": 0, "fusion_lon": 0.0, "lat": 38.8970525, "name": "58535e48f7f1fd81b73ba557b99c9bde", "bike_id": "58535e48f7f1fd81b73ba557b99c9bde", "lon": -76.93915266666667, "fusion_lat": 0.0, "rental_uris": {"android": "https://dc.lft.to/lastmile_qr_scan", "ios": "https://dc.lft.to/lastmile_qr_scan"}, "type": "electric_scooter"}, {"is_reserved": 0, "is_disabled": 0, "fusion_lon": 0.0, "lat": 38.90265, "name": "8e843bb3b997ac82df20d2306a6718b2", "bike_id": "8e843bb3b997ac82df20d2306a6718b2", "lon": -76.99849316666666, "fusion_lat": 0.0, "rental_uris": {"android": "https://dc.lft.to/lastmile_qr_scan", "ios": "https://dc.lft.to/lastmile_qr_scan"}, "type": "electric_scooter"}, {"is_reserved": 0, "is_disabled": 0, "fusion_lon": 0.0, "lat": 38.89357433333333, "name": "b3922dc7cbca3c296a4a239b60c4f630", "bike_id": "b3922dc7cbca3c296a4a239b60c4f630", "lon": -77.04619633333333, "fusion_lat": 0.0, "rental_uris": {"android": "https://dc.lft.to/lastmile_qr_scan", "ios": "https://dc.lft.to/lastmile_qr_scan"}, "type": "electric_scooter"}, {"is_reserved": 0, "is_disabled": 0, "fusion_lon": 0.0, "lat": 38.876591166666664, "name": "785b70a7a950943222f6a7f2f089919a", "bike_id": "785b70a7a950943222f6a7f2f089919a", "lon": -77.011691, "fusion_lat": 0.0, "rental_uris": {"android": "https://dc.lft.to/lastmile_qr_scan", "ios": "https://dc.lft.to/lastmile_qr_scan"}, "type": "electric_scooter"}, {"is_reserved": 0, "is_disabled": 0, "fusion_lon": 0.0, "lat": 38.884396333333335, "name": "c7b1790a96665547d4a861f4157ef0a2", "bike_id": "c7b1790a96665547d4a861f4157ef0a2", "lon": -76.95763666666667, "fusion_lat": 0.0, "rental_uris": {"android": "https://dc.lft.to/lastmile_qr_scan", "ios": "https://dc.lft.to/lastmile_qr_scan"}, "type": "electric_scooter"}, {"is_reserved": 0, "is_disabled": 0, "fusion_lon": 0.0, "lat": 38.903127, "name": "afc05da5240006c24587a4c5d66955af", "bike_id": "afc05da5240006c24587a4c5d66955af", "lon": -76.9750235, "fusion_lat": 0.0, "rental_uris": {"android": "https://dc.lft.to/lastmile_qr_scan", "ios": "https://dc.lft.to/lastmile_qr_scan"}, "type": "electric_scooter"}, {"is_reserved": 0, "is_disabled": 0, "fusion_lon": 0.0, "lat": 38.88432383333333, "name": "05e69f87f7971cea7fc1c87ec9cf519c", "bike_id": "05e69f87f7971cea7fc1c87ec9cf519c", "lon": -76.99728666666667, "fusion_lat": 0.0, "rental_uris": {"android": "https://dc.lft.to/lastmile_qr_scan", "ios": "https://dc.lft.to/lastmile_qr_scan"}, "type": "electric_scooter"}, {"is_reserved": 0, "is_disabled": 0, "fusion_lon": 0.0, "lat": 38.91254466666667, "name": "57bd59504da9a89a023609c5030347da", "bike_id": "57bd59504da9a89a023609c5030347da", "lon": -77.0134775, "fusion_lat": 0.0, "rental_uris": {"android": "https://dc.lft.to/lastmile_qr_scan", "ios": "https://dc.lft.to/lastmile_qr_scan"}, "type": "electric_bike"}, {"is_reserved": 0, "is_disabled": 0, "fusion_lon": 0.0, "lat": 38.919828, "name": "864f6582afc10f771351bccb5e97f1ce", "bike_id": "864f6582afc10f771351bccb5e97f1ce", "lon": -77.02179633333333, "fusion_lat": 0.0, "rental_uris": {"android": "https://dc.lft.to/lastmile_qr_scan", "ios": "https://dc.lft.to/lastmile_qr_scan"}, "type": "electric_scooter"}, {"is_reserved": 0, "is_disabled": 0, "fusion_lon": 0.0, "lat": 38.925096333333336, "name": "009a707e64e63a55d58da5da4ff08473", "bike_id": "009a707e64e63a55d58da5da4ff08473", "lon": -77.02585983333333, "fusion_lat": 0.0, "rental_uris": {"android": "https://dc.lft.to/lastmile_qr_scan", "ios": "https://dc.lft.to/lastmile_qr_scan"}, "type": "electric_scooter"}, {"is_reserved": 0, "is_disabled": 0, "fusion_lon": 0.0, "lat": 38.915878, "name": "dba2974d2e2dc9c0d580b91cf2a26a82", "bike_id": "dba2974d2e2dc9c0d580b91cf2a26a82", "lon": -77.0678565, "fusion_lat": 0.0, "rental_uris": {"android": "https://dc.lft.to/lastmile_qr_scan", "ios": "https://dc.lft.to/lastmile_qr_scan"}, "type": "electric_scooter"}, {"is_reserved": 0, "is_disabled": 0, "fusion_lon": 0.0, "lat": 38.93977816666667, "name": "00ec8f67098828eb54c065a567665f87", "bike_id": "00ec8f67098828eb54c065a567665f87", "lon": -77.0302085, "fusion_lat": 0.0, "rental_uris": {"android": "https://dc.lft.to/lastmile_qr_scan", "ios": "https://dc.lft.to/lastmile_qr_scan"}, "type": "electric_scooter"}, {"is_reserved": 0, "is_disabled": 0, "fusion_lon": 0.0, "lat": 38.921326, "name": "8d82850b3d31acfb95fb20fbcbe2b0a6", "bike_id": "8d82850b3d31acfb95fb20fbcbe2b0a6", "lon": -77.01805866666666, "fusion_lat": 0.0, "rental_uris": {"android": "https://dc.lft.to/lastmile_qr_scan", "ios": "https://dc.lft.to/lastmile_qr_scan"}, "type": "electric_scooter"}, {"is_reserved": 0, "is_disabled": 0, "fusion_lon": 0.0, "lat": 38.865255166666664, "name": "14db773f0884b8b9ae2026b60433550a", "bike_id": "14db773f0884b8b9ae2026b60433550a", "lon": -76.969091, "fusion_lat": 0.0, "rental_uris": {"android": "https://dc.lft.to/lastmile_qr_scan", "ios": "https://dc.lft.to/lastmile_qr_scan"}, "type": "electric_scooter"}, {"is_reserved": 0, "is_disabled": 0, "fusion_lon": 0.0, "lat": 38.92448683333333, "name": "088da64d931a820d86050a11913e42bf", "bike_id": "088da64d931a820d86050a11913e42bf", "lon": -76.96826883333334, "fusion_lat": 0.0, "rental_uris": {"android": "https://dc.lft.to/lastmile_qr_scan", "ios": "https://dc.lft.to/lastmile_qr_scan"}, "type": "electric_scooter"}, {"is_reserved": 0, "is_disabled": 0, "fusion_lon": 0.0, "lat": 38.873005, "name": "47cc45fcd296c3d7a634ff237747a6b9", "bike_id": "47cc45fcd296c3d7a634ff237747a6b9", "lon": -77.01581516666667, "fusion_lat": 0.0, "rental_uris": {"android": "https://dc.lft.to/lastmile_qr_scan", "ios": "https://dc.lft.to/lastmile_qr_scan"}, "type": "electric_scooter"}, {"is_reserved": 0, "is_disabled": 0, "fusion_lon": 0.0, "lat": 38.8754385, "name": "89d902e0cf86fd8cf54646381da45f17", "bike_id": "89d902e0cf86fd8cf54646381da45f17", "lon": -77.005802, "fusion_lat": 0.0, "rental_uris": {"android": "https://dc.lft.to/lastmile_qr_scan", "ios": "https://dc.lft.to/lastmile_qr_scan"}, "type": "electric_scooter"}, {"is_reserved": 0, "is_disabled": 0, "fusion_lon": 0.0, "lat": 38.9347585, "name": "4154a316542881b7663ff6aec2c58c1b", "bike_id": "4154a316542881b7663ff6aec2c58c1b", "lon": -77.04449833333334, "fusion_lat": 0.0, "rental_uris": {"android": "https://dc.lft.to/lastmile_qr_scan", "ios": "https://dc.lft.to/lastmile_qr_scan"}, "type": "electric_scooter"}, {"is_reserved": 0, "is_disabled": 0, "fusion_lon": 0.0, "lat": 38.907576166666665, "name": "c8830b0cb9bebc58fbb82fe27e56990e", "bike_id": "c8830b0cb9bebc58fbb82fe27e56990e", "lon": -77.045274, "fusion_lat": 0.0, "rental_uris": {"android": "https://dc.lft.to/lastmile_qr_scan", "ios": "https://dc.lft.to/lastmile_qr_scan"}, "type": "electric_scooter"}, {"is_reserved": 0, "is_disabled": 0, "fusion_lon": 0.0, "lat": 38.92201283333333, "name": "9329224b764d8e1356ac640b73707a4c", "bike_id": "9329224b764d8e1356ac640b73707a4c", "lon": -76.983702, "fusion_lat": 0.0, "rental_uris": {"android": "https://dc.lft.to/lastmile_qr_scan", "ios": "https://dc.lft.to/lastmile_qr_scan"}, "type": "electric_scooter"}, {"is_reserved": 0, "is_disabled": 0, "fusion_lon": 0.0, "lat": 38.8745835, "name": "7666eadd84dd8ce277623641971978cb", "bike_id": "7666eadd84dd8ce277623641971978cb", "lon": -77.002914, "fusion_lat": 0.0, "rental_uris": {"android": "https://dc.lft.to/lastmile_qr_scan", "ios": "https://dc.lft.to/lastmile_qr_scan"}, "type": "electric_scooter"}, {"is_reserved": 0, "is_disabled": 0, "fusion_lon": 0.0, "lat": 38.93101333333333, "name": "18bf0a8d3b8fbdab8fe57394a8a0939a", "bike_id": "18bf0a8d3b8fbdab8fe57394a8a0939a", "lon": -77.02485033333333, "fusion_lat": 0.0, "rental_uris": {"android": "https://dc.lft.to/lastmile_qr_scan", "ios": "https://dc.lft.to/lastmile_qr_scan"}, "type": "electric_scooter"}, {"is_reserved": 0, "is_disabled": 0, "fusion_lon": 0.0, "lat": 38.923427833333335, "name": "e7d1d62f1b6b494dff3be46528b1b956", "bike_id": "e7d1d62f1b6b494dff3be46528b1b956", "lon": -77.01902766666667, "fusion_lat": 0.0, "rental_uris": {"android": "https://dc.lft.to/lastmile_qr_scan", "ios": "https://dc.lft.to/lastmile_qr_scan"}, "type": "electric_scooter"}, {"is_reserved": 0, "is_disabled": 0, "fusion_lon": 0.0, "lat": 38.934707333333336, "name": "77c4ca528eec955ecd837a77a46b3b3f", "bike_id": "77c4ca528eec955ecd837a77a46b3b3f", "lon": -77.05813716666667, "fusion_lat": 0.0, "rental_uris": {"android": "https://dc.lft.to/lastmile_qr_scan", "ios": "https://dc.lft.to/lastmile_qr_scan"}, "type": "electric_scooter"}, {"is_reserved": 0, "is_disabled": 0, "fusion_lon": 0.0, "lat": 38.915689666666665, "name": "54992800a5f0f52ed1852d994aa2aadd", "bike_id": "54992800a5f0f52ed1852d994aa2aadd", "lon": -77.02181366666667, "fusion_lat": 0.0, "rental_uris": {"android": "https://dc.lft.to/lastmile_qr_scan", "ios": "https://dc.lft.to/lastmile_qr_scan"}, "type": "electric_scooter"}, {"is_reserved": 0, "is_disabled": 0, "fusion_lon": 0.0, "lat": 38.927934, "name": "49f839cbde320c2f6d581179c1f0d150", "bike_id": "49f839cbde320c2f6d581179c1f0d150", "lon": -77.0308635, "fusion_lat": 0.0, "rental_uris": {"android": "https://dc.lft.to/lastmile_qr_scan", "ios": "https://dc.lft.to/lastmile_qr_scan"}, "type": "electric_scooter"}, {"is_reserved": 0, "is_disabled": 0, "fusion_lon": 0.0, "lat": 38.89360283333333, "name": "9dcc88023dcf2dc4b9eff5f64e0ac074", "bike_id": "9dcc88023dcf2dc4b9eff5f64e0ac074", "lon": -77.00343383333333, "fusion_lat": 0.0, "rental_uris": {"android": "https://dc.lft.to/lastmile_qr_scan", "ios": "https://dc.lft.to/lastmile_qr_scan"}, "type": "electric_scooter"}, {"is_reserved": 0, "is_disabled": 0, "fusion_lon": 0.0, "lat": 38.91414283333334, "name": "0fc80ec1ec67b7cb51faa5ae4280c3a5", "bike_id": "0fc80ec1ec67b7cb51faa5ae4280c3a5", "lon": -77.01296183333334, "fusion_lat": 0.0, "rental_uris": {"android": "https://dc.lft.to/lastmile_qr_scan", "ios": "https://dc.lft.to/lastmile_qr_scan"}, "type": "electric_scooter"}, {"is_reserved": 0, "is_disabled": 0, "fusion_lon": 0.0, "lat": 38.909816666666664, "name": "af45b8aa198f202da0a524dd5086a07e", "bike_id": "af45b8aa198f202da0a524dd5086a07e", "lon": -77.03186816666667, "fusion_lat": 0.0, "rental_uris": {"android": "https://dc.lft.to/lastmile_qr_scan", "ios": "https://dc.lft.to/lastmile_qr_scan"}, "type": "electric_scooter"}, {"is_reserved": 0, "is_disabled": 0, "fusion_lon": 0.0, "lat": 38.94110166666667, "name": "4b0faf28538337e0c5573ec702d10dce", "bike_id": "4b0faf28538337e0c5573ec702d10dce", "lon": -77.06138183333333, "fusion_lat": 0.0, "rental_uris": {"android": "https://dc.lft.to/lastmile_qr_scan", "ios": "https://dc.lft.to/lastmile_qr_scan"}, "type": "electric_scooter"}, {"is_reserved": 0, "is_disabled": 0, "fusion_lon": 0.0, "lat": 38.925057, "name": "4d074011be24ad53d53bdf00ed27cfb6", "bike_id": "4d074011be24ad53d53bdf00ed27cfb6", "lon": -77.041376, "fusion_lat": 0.0, "rental_uris": {"android": "https://dc.lft.to/lastmile_qr_scan", "ios": "https://dc.lft.to/lastmile_qr_scan"}, "type": "electric_scooter"}, {"is_reserved": 0, "is_disabled": 0, "fusion_lon": 0.0, "lat": 38.89834366666667, "name": "251918ea3bc86e71b016448a6004fc4f", "bike_id": "251918ea3bc86e71b016448a6004fc4f", "lon": -77.04615816666667, "fusion_lat": 0.0, "rental_uris": {"android": "https://dc.lft.to/lastmile_qr_scan", "ios": "https://dc.lft.to/lastmile_qr_scan"}, "type": "electric_scooter"}, {"is_reserved": 0, "is_disabled": 0, "fusion_lon": 0.0, "lat": 38.897308, "name": "40707f4aa371dd25199b5e5752c17432", "bike_id": "40707f4aa371dd25199b5e5752c17432", "lon": -77.04462583333333, "fusion_lat": 0.0, "rental_uris": {"android": "https://dc.lft.to/lastmile_qr_scan", "ios": "https://dc.lft.to/lastmile_qr_scan"}, "type": "electric_scooter"}, {"is_reserved": 0, "is_disabled": 0, "fusion_lon": 0.0, "lat": 38.91406966666667, "name": "a99137e311210361f7b6a31ed03ed0d6", "bike_id": "a99137e311210361f7b6a31ed03ed0d6", "lon": -77.04182433333334, "fusion_lat": 0.0, "rental_uris": {"android": "https://dc.lft.to/lastmile_qr_scan", "ios": "https://dc.lft.to/lastmile_qr_scan"}, "type": "electric_scooter"}, {"is_reserved": 0, "is_disabled": 0, "fusion_lon": 0.0, "lat": 38.89584683333333, "name": "1329db1ce6b11f5077ef34f2b111abe3", "bike_id": "1329db1ce6b11f5077ef34f2b111abe3", "lon": -76.948879, "fusion_lat": 0.0, "rental_uris": {"android": "https://dc.lft.to/lastmile_qr_scan", "ios": "https://dc.lft.to/lastmile_qr_scan"}, "type": "electric_scooter"}, {"is_reserved": 0, "is_disabled": 0, "fusion_lon": 0.0, "lat": 38.875789, "name": "482ebdee1733e892f38044d721b0ed34", "bike_id": "482ebdee1733e892f38044d721b0ed34", "lon": -77.00580733333334, "fusion_lat": 0.0, "rental_uris": {"android": "https://dc.lft.to/lastmile_qr_scan", "ios": "https://dc.lft.to/lastmile_qr_scan"}, "type": "electric_scooter"}, {"is_reserved": 0, "is_disabled": 0, "fusion_lon": 0.0, "lat": 38.87679816666667, "name": "9b6eea3f31d37cc60a57409514ef504b", "bike_id": "9b6eea3f31d37cc60a57409514ef504b", "lon": -77.00063383333334, "fusion_lat": 0.0, "rental_uris": {"android": "https://dc.lft.to/lastmile_qr_scan", "ios": "https://dc.lft.to/lastmile_qr_scan"}, "type": "electric_scooter"}, {"is_reserved": 0, "is_disabled": 0, "fusion_lon": 0.0, "lat": 38.859377333333335, "name": "12726034888a5c2cc6b8b0c828140134", "bike_id": "12726034888a5c2cc6b8b0c828140134", "lon": -76.98446533333333, "fusion_lat": 0.0, "rental_uris": {"android": "https://dc.lft.to/lastmile_qr_scan", "ios": "https://dc.lft.to/lastmile_qr_scan"}, "type": "electric_scooter"}, {"is_reserved": 0, "is_disabled": 0, "fusion_lon": 0.0, "lat": 38.90031916666667, "name": "7be4468f1aa66cd8a26005ca42b662e1", "bike_id": "7be4468f1aa66cd8a26005ca42b662e1", "lon": -77.01497466666666, "fusion_lat": 0.0, "rental_uris": {"android": "https://dc.lft.to/lastmile_qr_scan", "ios": "https://dc.lft.to/lastmile_qr_scan"}, "type": "electric_scooter"}, {"is_reserved": 0, "is_disabled": 0, "fusion_lon": 0.0, "lat": 38.912488, "name": "498c913b432e449fcd38251f4809daa6", "bike_id": "498c913b432e449fcd38251f4809daa6", "lon": -77.003827, "fusion_lat": 0.0, "rental_uris": {"android": "https://dc.lft.to/lastmile_qr_scan", "ios": "https://dc.lft.to/lastmile_qr_scan"}, "type": "electric_scooter"}, {"is_reserved": 0, "is_disabled": 0, "fusion_lon": 0.0, "lat": 38.9484595, "name": "d507dad1b535e358f427f38d2d361c63", "bike_id": "d507dad1b535e358f427f38d2d361c63", "lon": -77.0655905, "fusion_lat": 0.0, "rental_uris": {"android": "https://dc.lft.to/lastmile_qr_scan", "ios": "https://dc.lft.to/lastmile_qr_scan"}, "type": "electric_scooter"}, {"is_reserved": 0, "is_disabled": 0, "fusion_lon": 0.0, "lat": 38.95686366666666, "name": "98fda43fcf9e21980805ea883951a831", "bike_id": "98fda43fcf9e21980805ea883951a831", "lon": -77.02235383333333, "fusion_lat": 0.0, "rental_uris": {"android": "https://dc.lft.to/lastmile_qr_scan", "ios": "https://dc.lft.to/lastmile_qr_scan"}, "type": "electric_scooter"}, {"is_reserved": 0, "is_disabled": 0, "fusion_lon": 0.0, "lat": 38.900979666666665, "name": "73c1f4d984e1b719ec650aaf0c103ff3", "bike_id": "73c1f4d984e1b719ec650aaf0c103ff3", "lon": -77.0487625, "fusion_lat": 0.0, "rental_uris": {"android": "https://dc.lft.to/lastmile_qr_scan", "ios": "https://dc.lft.to/lastmile_qr_scan"}, "type": "electric_scooter"}, {"is_reserved": 0, "is_disabled": 0, "fusion_lon": 0.0, "lat": 38.8329205, "name": "857fc8a73ade85972bcaa7279cbd3a2e", "bike_id": "857fc8a73ade85972bcaa7279cbd3a2e", "lon": -77.0841915, "fusion_lat": 0.0, "rental_uris": {"android": "https://dc.lft.to/lastmile_qr_scan", "ios": "https://dc.lft.to/lastmile_qr_scan"}, "type": "electric_bike"}, {"is_reserved": 0, "is_disabled": 0, "fusion_lon": 0.0, "lat": 38.89480733333333, "name": "88e020c3f95c06957797a41c58a45a93", "bike_id": "88e020c3f95c06957797a41c58a45a93", "lon": -76.99513516666667, "fusion_lat": 0.0, "rental_uris": {"android": "https://dc.lft.to/lastmile_qr_scan", "ios": "https://dc.lft.to/lastmile_qr_scan"}, "type": "electric_scooter"}, {"is_reserved": 0, "is_disabled": 0, "fusion_lon": 0.0, "lat": 38.912677333333335, "name": "40390b183cc6e6d4136ccae7da902f3b", "bike_id": "40390b183cc6e6d4136ccae7da902f3b", "lon": -77.0382595, "fusion_lat": 0.0, "rental_uris": {"android": "https://dc.lft.to/lastmile_qr_scan", "ios": "https://dc.lft.to/lastmile_qr_scan"}, "type": "electric_scooter"}, {"is_reserved": 0, "is_disabled": 0, "fusion_lon": 0.0, "lat": 38.8848325, "name": "f35c4a78db6615987b85e7cfdaddec72", "bike_id": "f35c4a78db6615987b85e7cfdaddec72", "lon": -77.0198505, "fusion_lat": 0.0, "rental_uris": {"android": "https://dc.lft.to/lastmile_qr_scan", "ios": "https://dc.lft.to/lastmile_qr_scan"}, "type": "electric_scooter"}, {"is_reserved": 0, "is_disabled": 0, "fusion_lon": 0.0, "lat": 38.874856333333334, "name": "7bf57a02de00e7dd3925cd82bf49b114", "bike_id": "7bf57a02de00e7dd3925cd82bf49b114", "lon": -76.96533583333333, "fusion_lat": 0.0, "rental_uris": {"android": "https://dc.lft.to/lastmile_qr_scan", "ios": "https://dc.lft.to/lastmile_qr_scan"}, "type": "electric_bike"}, {"is_reserved": 0, "is_disabled": 0, "fusion_lon": 0.0, "lat": 38.899135, "name": "d51576aaed4bbbb2d946b1fb82788e8f", "bike_id": "d51576aaed4bbbb2d946b1fb82788e8f", "lon": -77.02462366666667, "fusion_lat": 0.0, "rental_uris": {"android": "https://dc.lft.to/lastmile_qr_scan", "ios": "https://dc.lft.to/lastmile_qr_scan"}, "type": "electric_scooter"}, {"is_reserved": 0, "is_disabled": 0, "fusion_lon": 0.0, "lat": 38.90520216666667, "name": "ae34adc9e67c743b550afc34d0a3b00c", "bike_id": "ae34adc9e67c743b550afc34d0a3b00c", "lon": -77.02945283333334, "fusion_lat": 0.0, "rental_uris": {"android": "https://dc.lft.to/lastmile_qr_scan", "ios": "https://dc.lft.to/lastmile_qr_scan"}, "type": "electric_scooter"}, {"is_reserved": 0, "is_disabled": 0, "fusion_lon": 0.0, "lat": 38.884417666666664, "name": "4f050b2f1f5628fbe646aa73cfdd5219", "bike_id": "4f050b2f1f5628fbe646aa73cfdd5219", "lon": -76.95764416666667, "fusion_lat": 0.0, "rental_uris": {"android": "https://dc.lft.to/lastmile_qr_scan", "ios": "https://dc.lft.to/lastmile_qr_scan"}, "type": "electric_scooter"}, {"is_reserved": 0, "is_disabled": 0, "fusion_lon": 0.0, "lat": 38.91549416666667, "name": "52a08c65489386a1050f624de4e45b38", "bike_id": "52a08c65489386a1050f624de4e45b38", "lon": -77.02041816666667, "fusion_lat": 0.0, "rental_uris": {"android": "https://dc.lft.to/lastmile_qr_scan", "ios": "https://dc.lft.to/lastmile_qr_scan"}, "type": "electric_scooter"}, {"is_reserved": 0, "is_disabled": 0, "fusion_lon": 0.0, "lat": 38.92867483333333, "name": "f741beb4650d9ccc2c5bd25c28a8a4a5", "bike_id": "f741beb4650d9ccc2c5bd25c28a8a4a5", "lon": -77.01385733333333, "fusion_lat": 0.0, "rental_uris": {"android": "https://dc.lft.to/lastmile_qr_scan", "ios": "https://dc.lft.to/lastmile_qr_scan"}, "type": "electric_scooter"}, {"is_reserved": 0, "is_disabled": 0, "fusion_lon": 0.0, "lat": 38.90332266666667, "name": "b70997928c77fc77fd253581cbe2ccb5", "bike_id": "b70997928c77fc77fd253581cbe2ccb5", "lon": -77.01949166666667, "fusion_lat": 0.0, "rental_uris": {"android": "https://dc.lft.to/lastmile_qr_scan", "ios": "https://dc.lft.to/lastmile_qr_scan"}, "type": "electric_scooter"}, {"is_reserved": 0, "is_disabled": 0, "fusion_lon": 0.0, "lat": 38.93766333333333, "name": "6234e2dc2c93913eed1e27fd9fd4d913", "bike_id": "6234e2dc2c93913eed1e27fd9fd4d913", "lon": -77.03217716666667, "fusion_lat": 0.0, "rental_uris": {"android": "https://dc.lft.to/lastmile_qr_scan", "ios": "https://dc.lft.to/lastmile_qr_scan"}, "type": "electric_scooter"}, {"is_reserved": 0, "is_disabled": 0, "fusion_lon": 0.0, "lat": 38.87919566666667, "name": "a479b90380d20cab97234bafc29bb934", "bike_id": "a479b90380d20cab97234bafc29bb934", "lon": -77.00767733333333, "fusion_lat": 0.0, "rental_uris": {"android": "https://dc.lft.to/lastmile_qr_scan", "ios": "https://dc.lft.to/lastmile_qr_scan"}, "type": "electric_scooter"}, {"is_reserved": 0, "is_disabled": 0, "fusion_lon": 0.0, "lat": 38.911784833333336, "name": "89ab60b19f71db38ace578c79fac9526", "bike_id": "89ab60b19f71db38ace578c79fac9526", "lon": -77.06094083333333, "fusion_lat": 0.0, "rental_uris": {"android": "https://dc.lft.to/lastmile_qr_scan", "ios": "https://dc.lft.to/lastmile_qr_scan"}, "type": "electric_scooter"}, {"is_reserved": 0, "is_disabled": 0, "fusion_lon": 0.0, "lat": 38.924535666666664, "name": "a0b7eaead65c25990a6289b570a73ffd", "bike_id": "a0b7eaead65c25990a6289b570a73ffd", "lon": -77.02235066666667, "fusion_lat": 0.0, "rental_uris": {"android": "https://dc.lft.to/lastmile_qr_scan", "ios": "https://dc.lft.to/lastmile_qr_scan"}, "type": "electric_scooter"}, {"is_reserved": 0, "is_disabled": 0, "fusion_lon": 0.0, "lat": 38.93632266666667, "name": "1e6e9a7206cca854f738c3de066241a5", "bike_id": "1e6e9a7206cca854f738c3de066241a5", "lon": -77.03658816666666, "fusion_lat": 0.0, "rental_uris": {"android": "https://dc.lft.to/lastmile_qr_scan", "ios": "https://dc.lft.to/lastmile_qr_scan"}, "type": "electric_scooter"}, {"is_reserved": 0, "is_disabled": 0, "fusion_lon": 0.0, "lat": 38.934416166666665, "name": "0292b8c4a4a163dd64fc22947c1bb58c", "bike_id": "0292b8c4a4a163dd64fc22947c1bb58c", "lon": -77.0211125, "fusion_lat": 0.0, "rental_uris": {"android": "https://dc.lft.to/lastmile_qr_scan", "ios": "https://dc.lft.to/lastmile_qr_scan"}, "type": "electric_scooter"}, {"is_reserved": 0, "is_disabled": 0, "fusion_lon": 0.0, "lat": 38.92575166666666, "name": "3e4f553f1376c31a9811148d1549ca74", "bike_id": "3e4f553f1376c31a9811148d1549ca74", "lon": -77.02685466666667, "fusion_lat": 0.0, "rental_uris": {"android": "https://dc.lft.to/lastmile_qr_scan", "ios": "https://dc.lft.to/lastmile_qr_scan"}, "type": "electric_scooter"}, {"is_reserved": 0, "is_disabled": 0, "fusion_lon": 0.0, "lat": 38.92237883333333, "name": "3d0a67a93344fa61a2e7e65329924fd4", "bike_id": "3d0a67a93344fa61a2e7e65329924fd4", "lon": -76.975364, "fusion_lat": 0.0, "rental_uris": {"android": "https://dc.lft.to/lastmile_qr_scan", "ios": "https://dc.lft.to/lastmile_qr_scan"}, "type": "electric_scooter"}, {"is_reserved": 0, "is_disabled": 0, "fusion_lon": 0.0, "lat": 38.90300516666667, "name": "a8bd6e003d3d367be71fc3ebb092468b", "bike_id": "a8bd6e003d3d367be71fc3ebb092468b", "lon": -77.0490275, "fusion_lat": 0.0, "rental_uris": {"android": "https://dc.lft.to/lastmile_qr_scan", "ios": "https://dc.lft.to/lastmile_qr_scan"}, "type": "electric_scooter"}, {"is_reserved": 0, "is_disabled": 0, "fusion_lon": 0.0, "lat": 38.89494533333333, "name": "ca6fe3d5baad43f7aa7ed90579cf6ef4", "bike_id": "ca6fe3d5baad43f7aa7ed90579cf6ef4", "lon": -76.995025, "fusion_lat": 0.0, "rental_uris": {"android": "https://dc.lft.to/lastmile_qr_scan", "ios": "https://dc.lft.to/lastmile_qr_scan"}, "type": "electric_scooter"}, {"is_reserved": 0, "is_disabled": 0, "fusion_lon": 0.0, "lat": 38.8792325, "name": "a4b1ede5784d4fe1bebe9c5a6b2a135f", "bike_id": "a4b1ede5784d4fe1bebe9c5a6b2a135f", "lon": -77.0215475, "fusion_lat": 0.0, "rental_uris": {"android": "https://dc.lft.to/lastmile_qr_scan", "ios": "https://dc.lft.to/lastmile_qr_scan"}, "type": "electric_scooter"}, {"is_reserved": 0, "is_disabled": 0, "fusion_lon": 0.0, "lat": 38.915424, "name": "7af37119d5409226a84b58a2d4ffb9c1", "bike_id": "7af37119d5409226a84b58a2d4ffb9c1", "lon": -77.012667, "fusion_lat": 0.0, "rental_uris": {"android": "https://dc.lft.to/lastmile_qr_scan", "ios": "https://dc.lft.to/lastmile_qr_scan"}, "type": "electric_scooter"}, {"is_reserved": 0, "is_disabled": 0, "fusion_lon": 0.0, "lat": 38.911177, "name": "ae5f1fac524873af2c4a91d032302160", "bike_id": "ae5f1fac524873af2c4a91d032302160", "lon": -77.021917, "fusion_lat": 0.0, "rental_uris": {"android": "https://dc.lft.to/lastmile_qr_scan", "ios": "https://dc.lft.to/lastmile_qr_scan"}, "type": "electric_scooter"}, {"is_reserved": 0, "is_disabled": 0, "fusion_lon": 0.0, "lat": 38.803818, "name": "742b028c9c954e7b1297385c9f8b3429", "bike_id": "742b028c9c954e7b1297385c9f8b3429", "lon": -76.98814916666667, "fusion_lat": 0.0, "rental_uris": {"android": "https://dc.lft.to/lastmile_qr_scan", "ios": "https://dc.lft.to/lastmile_qr_scan"}, "type": "electric_bike"}, {"is_reserved": 0, "is_disabled": 0, "fusion_lon": 0.0, "lat": 38.90674, "name": "90b8e6ce07765f6ba81ac273b9c3226c", "bike_id": "90b8e6ce07765f6ba81ac273b9c3226c", "lon": -76.98371366666667, "fusion_lat": 0.0, "rental_uris": {"android": "https://dc.lft.to/lastmile_qr_scan", "ios": "https://dc.lft.to/lastmile_qr_scan"}, "type": "electric_scooter"}, {"is_reserved": 0, "is_disabled": 0, "fusion_lon": 0.0, "lat": 38.938844833333334, "name": "02ad3ba807cb7cb53d180d3d8b1f1ecd", "bike_id": "02ad3ba807cb7cb53d180d3d8b1f1ecd", "lon": -77.03396483333333, "fusion_lat": 0.0, "rental_uris": {"android": "https://dc.lft.to/lastmile_qr_scan", "ios": "https://dc.lft.to/lastmile_qr_scan"}, "type": "electric_scooter"}, {"is_reserved": 0, "is_disabled": 0, "fusion_lon": 0.0, "lat": 38.912698, "name": "d63402160fbb5b8b2fb93a7cabd3b32b", "bike_id": "d63402160fbb5b8b2fb93a7cabd3b32b", "lon": -77.02215933333333, "fusion_lat": 0.0, "rental_uris": {"android": "https://dc.lft.to/lastmile_qr_scan", "ios": "https://dc.lft.to/lastmile_qr_scan"}, "type": "electric_scooter"}, {"is_reserved": 0, "is_disabled": 0, "fusion_lon": 0.0, "lat": 38.89835883333333, "name": "0420a74af15bb8c6b5fb2300892a43d9", "bike_id": "0420a74af15bb8c6b5fb2300892a43d9", "lon": -76.94644766666667, "fusion_lat": 0.0, "rental_uris": {"android": "https://dc.lft.to/lastmile_qr_scan", "ios": "https://dc.lft.to/lastmile_qr_scan"}, "type": "electric_scooter"}, {"is_reserved": 0, "is_disabled": 0, "fusion_lon": 0.0, "lat": 38.915569166666664, "name": "0d2f1a7042fc51c5ce30bffcad207981", "bike_id": "0d2f1a7042fc51c5ce30bffcad207981", "lon": -77.00719766666667, "fusion_lat": 0.0, "rental_uris": {"android": "https://dc.lft.to/lastmile_qr_scan", "ios": "https://dc.lft.to/lastmile_qr_scan"}, "type": "electric_scooter"}, {"is_reserved": 0, "is_disabled": 0, "fusion_lon": 0.0, "lat": 38.921447666666666, "name": "762cb73ca41562820369a73bf6854a72", "bike_id": "762cb73ca41562820369a73bf6854a72", "lon": -77.04009716666667, "fusion_lat": 0.0, "rental_uris": {"android": "https://dc.lft.to/lastmile_qr_scan", "ios": "https://dc.lft.to/lastmile_qr_scan"}, "type": "electric_scooter"}, {"is_reserved": 0, "is_disabled": 0, "fusion_lon": 0.0, "lat": 38.880225833333334, "name": "ce84eda893c57ce6803c40d3bb81dc4f", "bike_id": "ce84eda893c57ce6803c40d3bb81dc4f", "lon": -76.94322933333333, "fusion_lat": 0.0, "rental_uris": {"android": "https://dc.lft.to/lastmile_qr_scan", "ios": "https://dc.lft.to/lastmile_qr_scan"}, "type": "electric_scooter"}, {"is_reserved": 0, "is_disabled": 0, "fusion_lon": 0.0, "lat": 38.9035, "name": "0be6563e83648cecf6a828e871c91e1a", "bike_id": "0be6563e83648cecf6a828e871c91e1a", "lon": -77.03681566666667, "fusion_lat": 0.0, "rental_uris": {"android": "https://dc.lft.to/lastmile_qr_scan", "ios": "https://dc.lft.to/lastmile_qr_scan"}, "type": "electric_scooter"}, {"is_reserved": 0, "is_disabled": 0, "fusion_lon": 0.0, "lat": 38.939972, "name": "7c57a2a52b74ec76f376ca628ca54a08", "bike_id": "7c57a2a52b74ec76f376ca628ca54a08", "lon": -77.01739683333334, "fusion_lat": 0.0, "rental_uris": {"android": "https://dc.lft.to/lastmile_qr_scan", "ios": "https://dc.lft.to/lastmile_qr_scan"}, "type": "electric_scooter"}, {"is_reserved": 0, "is_disabled": 0, "fusion_lon": 0.0, "lat": 38.8813065, "name": "4e59de9468f35bdfdf13dd2854fd4208", "bike_id": "4e59de9468f35bdfdf13dd2854fd4208", "lon": -76.99346666666666, "fusion_lat": 0.0, "rental_uris": {"android": "https://dc.lft.to/lastmile_qr_scan", "ios": "https://dc.lft.to/lastmile_qr_scan"}, "type": "electric_scooter"}, {"is_reserved": 0, "is_disabled": 0, "fusion_lon": 0.0, "lat": 38.910282333333335, "name": "b3047f578b2634ac6297e734823e22d7", "bike_id": "b3047f578b2634ac6297e734823e22d7", "lon": -77.02942283333333, "fusion_lat": 0.0, "rental_uris": {"android": "https://dc.lft.to/lastmile_qr_scan", "ios": "https://dc.lft.to/lastmile_qr_scan"}, "type": "electric_scooter"}, {"is_reserved": 0, "is_disabled": 0, "fusion_lon": 0.0, "lat": 38.85820233333333, "name": "ef154ff7a0a0123cc8cca269041ba350", "bike_id": "ef154ff7a0a0123cc8cca269041ba350", "lon": -76.99001333333334, "fusion_lat": 0.0, "rental_uris": {"android": "https://dc.lft.to/lastmile_qr_scan", "ios": "https://dc.lft.to/lastmile_qr_scan"}, "type": "electric_scooter"}, {"is_reserved": 0, "is_disabled": 0, "fusion_lon": 0.0, "lat": 38.91769733333334, "name": "e9dae60269a431b6efa38db185a7a97f", "bike_id": "e9dae60269a431b6efa38db185a7a97f", "lon": -77.01494533333333, "fusion_lat": 0.0, "rental_uris": {"android": "https://dc.lft.to/lastmile_qr_scan", "ios": "https://dc.lft.to/lastmile_qr_scan"}, "type": "electric_scooter"}, {"is_reserved": 0, "is_disabled": 0, "fusion_lon": 0.0, "lat": 38.905567833333336, "name": "39d2217212405e667035b35b6ab8b5fe", "bike_id": "39d2217212405e667035b35b6ab8b5fe", "lon": -76.9837735, "fusion_lat": 0.0, "rental_uris": {"android": "https://dc.lft.to/lastmile_qr_scan", "ios": "https://dc.lft.to/lastmile_qr_scan"}, "type": "electric_scooter"}, {"is_reserved": 0, "is_disabled": 0, "fusion_lon": 0.0, "lat": 38.88710666666667, "name": "8b12aaf823570ecbde73a12a6ae16d6f", "bike_id": "8b12aaf823570ecbde73a12a6ae16d6f", "lon": -76.9834465, "fusion_lat": 0.0, "rental_uris": {"android": "https://dc.lft.to/lastmile_qr_scan", "ios": "https://dc.lft.to/lastmile_qr_scan"}, "type": "electric_scooter"}, {"is_reserved": 0, "is_disabled": 0, "fusion_lon": 0.0, "lat": 38.89883916666667, "name": "fedcc4ce805bbabb9512bf816a739ad5", "bike_id": "fedcc4ce805bbabb9512bf816a739ad5", "lon": -76.93174283333333, "fusion_lat": 0.0, "rental_uris": {"android": "https://dc.lft.to/lastmile_qr_scan", "ios": "https://dc.lft.to/lastmile_qr_scan"}, "type": "electric_scooter"}, {"is_reserved": 0, "is_disabled": 0, "fusion_lon": 0.0, "lat": 38.92379783333333, "name": "2a3380fc7acbffa1cb912603c19f9af8", "bike_id": "2a3380fc7acbffa1cb912603c19f9af8", "lon": -77.0313465, "fusion_lat": 0.0, "rental_uris": {"android": "https://dc.lft.to/lastmile_qr_scan", "ios": "https://dc.lft.to/lastmile_qr_scan"}, "type": "electric_scooter"}, {"is_reserved": 0, "is_disabled": 0, "fusion_lon": 0.0, "lat": 38.92494583333333, "name": "227e7a12ac60dfd97653c0aa4d7ec7a7", "bike_id": "227e7a12ac60dfd97653c0aa4d7ec7a7", "lon": -77.073318, "fusion_lat": 0.0, "rental_uris": {"android": "https://dc.lft.to/lastmile_qr_scan", "ios": "https://dc.lft.to/lastmile_qr_scan"}, "type": "electric_scooter"}, {"is_reserved": 0, "is_disabled": 0, "fusion_lon": 0.0, "lat": 38.9228445, "name": "f9a62df3525df22574ea721c7c1a1eef", "bike_id": "f9a62df3525df22574ea721c7c1a1eef", "lon": -77.04215733333334, "fusion_lat": 0.0, "rental_uris": {"android": "https://dc.lft.to/lastmile_qr_scan", "ios": "https://dc.lft.to/lastmile_qr_scan"}, "type": "electric_scooter"}, {"is_reserved": 0, "is_disabled": 0, "fusion_lon": 0.0, "lat": 38.91867516666667, "name": "dc4cb82020d022de01c4e513406c8352", "bike_id": "dc4cb82020d022de01c4e513406c8352", "lon": -77.044834, "fusion_lat": 0.0, "rental_uris": {"android": "https://dc.lft.to/lastmile_qr_scan", "ios": "https://dc.lft.to/lastmile_qr_scan"}, "type": "electric_scooter"}, {"is_reserved": 0, "is_disabled": 0, "fusion_lon": 0.0, "lat": 38.9247205, "name": "ec90800c960204d3fec83a1ef13a0f24", "bike_id": "ec90800c960204d3fec83a1ef13a0f24", "lon": -77.039379, "fusion_lat": 0.0, "rental_uris": {"android": "https://dc.lft.to/lastmile_qr_scan", "ios": "https://dc.lft.to/lastmile_qr_scan"}, "type": "electric_scooter"}, {"is_reserved": 0, "is_disabled": 0, "fusion_lon": 0.0, "lat": 38.912704, "name": "3ba46551ceb2d32e002fc1b50b84383a", "bike_id": "3ba46551ceb2d32e002fc1b50b84383a", "lon": -77.02215816666667, "fusion_lat": 0.0, "rental_uris": {"android": "https://dc.lft.to/lastmile_qr_scan", "ios": "https://dc.lft.to/lastmile_qr_scan"}, "type": "electric_scooter"}, {"is_reserved": 0, "is_disabled": 0, "fusion_lon": 0.0, "lat": 38.965602, "name": "dbbd80d504b2f219cd69a8d92e3d08b0", "bike_id": "dbbd80d504b2f219cd69a8d92e3d08b0", "lon": -77.02823416666666, "fusion_lat": 0.0, "rental_uris": {"android": "https://dc.lft.to/lastmile_qr_scan", "ios": "https://dc.lft.to/lastmile_qr_scan"}, "type": "electric_bike"}, {"is_reserved": 0, "is_disabled": 0, "fusion_lon": 0.0, "lat": 38.9268185, "name": "7958f8129ce37b0522716b0db33fb1d1", "bike_id": "7958f8129ce37b0522716b0db33fb1d1", "lon": -77.02789083333333, "fusion_lat": 0.0, "rental_uris": {"android": "https://dc.lft.to/lastmile_qr_scan", "ios": "https://dc.lft.to/lastmile_qr_scan"}, "type": "electric_scooter"}, {"is_reserved": 0, "is_disabled": 0, "fusion_lon": 0.0, "lat": 38.877905, "name": "513a3ef49d43fcb0ea7f892288089b69", "bike_id": "513a3ef49d43fcb0ea7f892288089b69", "lon": -76.994112, "fusion_lat": 0.0, "rental_uris": {"android": "https://dc.lft.to/lastmile_qr_scan", "ios": "https://dc.lft.to/lastmile_qr_scan"}, "type": "electric_scooter"}, {"is_reserved": 0, "is_disabled": 0, "fusion_lon": 0.0, "lat": 38.902694333333336, "name": "7f99d828193932a83599d2dd6c977e18", "bike_id": "7f99d828193932a83599d2dd6c977e18", "lon": -77.01132166666666, "fusion_lat": 0.0, "rental_uris": {"android": "https://dc.lft.to/lastmile_qr_scan", "ios": "https://dc.lft.to/lastmile_qr_scan"}, "type": "electric_scooter"}, {"is_reserved": 0, "is_disabled": 0, "fusion_lon": 0.0, "lat": 38.91737416666667, "name": "55860317355fc5d5aeb1580dc18a5c39", "bike_id": "55860317355fc5d5aeb1580dc18a5c39", "lon": -77.06838566666667, "fusion_lat": 0.0, "rental_uris": {"android": "https://dc.lft.to/lastmile_qr_scan", "ios": "https://dc.lft.to/lastmile_qr_scan"}, "type": "electric_scooter"}, {"is_reserved": 0, "is_disabled": 0, "fusion_lon": 0.0, "lat": 38.994996, "name": "8213d16e12a25b9dd1942fba01c587bb", "bike_id": "8213d16e12a25b9dd1942fba01c587bb", "lon": -77.02871233333333, "fusion_lat": 0.0, "rental_uris": {"android": "https://dc.lft.to/lastmile_qr_scan", "ios": "https://dc.lft.to/lastmile_qr_scan"}, "type": "electric_bike"}, {"is_reserved": 0, "is_disabled": 0, "fusion_lon": 0.0, "lat": 38.919161, "name": "2b48873b59a32ac62670b805e990f3e1", "bike_id": "2b48873b59a32ac62670b805e990f3e1", "lon": -77.02952033333334, "fusion_lat": 0.0, "rental_uris": {"android": "https://dc.lft.to/lastmile_qr_scan", "ios": "https://dc.lft.to/lastmile_qr_scan"}, "type": "electric_scooter"}, {"is_reserved": 0, "is_disabled": 0, "fusion_lon": 0.0, "lat": 38.904106, "name": "c19e3f1ece5e08373c95548c8cb886e4", "bike_id": "c19e3f1ece5e08373c95548c8cb886e4", "lon": -77.0185565, "fusion_lat": 0.0, "rental_uris": {"android": "https://dc.lft.to/lastmile_qr_scan", "ios": "https://dc.lft.to/lastmile_qr_scan"}, "type": "electric_scooter"}, {"is_reserved": 0, "is_disabled": 0, "fusion_lon": 0.0, "lat": 38.9299075, "name": "acb9b6f49f7ff21b2e8b608ec1f94662", "bike_id": "acb9b6f49f7ff21b2e8b608ec1f94662", "lon": -77.01206883333333, "fusion_lat": 0.0, "rental_uris": {"android": "https://dc.lft.to/lastmile_qr_scan", "ios": "https://dc.lft.to/lastmile_qr_scan"}, "type": "electric_scooter"}, {"is_reserved": 0, "is_disabled": 0, "fusion_lon": 0.0, "lat": 38.897135666666664, "name": "6a9878681e4d6c02150a572d8cba4a62", "bike_id": "6a9878681e4d6c02150a572d8cba4a62", "lon": -77.03231866666667, "fusion_lat": 0.0, "rental_uris": {"android": "https://dc.lft.to/lastmile_qr_scan", "ios": "https://dc.lft.to/lastmile_qr_scan"}, "type": "electric_scooter"}, {"is_reserved": 0, "is_disabled": 0, "fusion_lon": 0.0, "lat": 38.912612, "name": "09e5fe706d4f36356d1153aa7f69272e", "bike_id": "09e5fe706d4f36356d1153aa7f69272e", "lon": -77.03278966666667, "fusion_lat": 0.0, "rental_uris": {"android": "https://dc.lft.to/lastmile_qr_scan", "ios": "https://dc.lft.to/lastmile_qr_scan"}, "type": "electric_scooter"}, {"is_reserved": 0, "is_disabled": 0, "fusion_lon": 0.0, "lat": 38.916962166666664, "name": "a0009eb86a53f926ad726134091583b2", "bike_id": "a0009eb86a53f926ad726134091583b2", "lon": -77.029383, "fusion_lat": 0.0, "rental_uris": {"android": "https://dc.lft.to/lastmile_qr_scan", "ios": "https://dc.lft.to/lastmile_qr_scan"}, "type": "electric_scooter"}, {"is_reserved": 0, "is_disabled": 0, "fusion_lon": 0.0, "lat": 38.91514766666667, "name": "4e4d4962ad28323031369eac9b467a65", "bike_id": "4e4d4962ad28323031369eac9b467a65", "lon": -77.03829166666667, "fusion_lat": 0.0, "rental_uris": {"android": "https://dc.lft.to/lastmile_qr_scan", "ios": "https://dc.lft.to/lastmile_qr_scan"}, "type": "electric_scooter"}, {"is_reserved": 0, "is_disabled": 0, "fusion_lon": 0.0, "lat": 38.9234225, "name": "1cc6af62c69f4af6aa8de24a268db2d8", "bike_id": "1cc6af62c69f4af6aa8de24a268db2d8", "lon": -77.01887466666666, "fusion_lat": 0.0, "rental_uris": {"android": "https://dc.lft.to/lastmile_qr_scan", "ios": "https://dc.lft.to/lastmile_qr_scan"}, "type": "electric_scooter"}, {"is_reserved": 0, "is_disabled": 0, "fusion_lon": 0.0, "lat": 38.907338, "name": "f50bb2c13a02e36e01aff20cc7c4c3cc", "bike_id": "f50bb2c13a02e36e01aff20cc7c4c3cc", "lon": -77.04545183333333, "fusion_lat": 0.0, "rental_uris": {"android": "https://dc.lft.to/lastmile_qr_scan", "ios": "https://dc.lft.to/lastmile_qr_scan"}, "type": "electric_scooter"}, {"is_reserved": 0, "is_disabled": 0, "fusion_lon": 0.0, "lat": 38.923328833333336, "name": "18fce27c18c9e3da26c27f472ea623e1", "bike_id": "18fce27c18c9e3da26c27f472ea623e1", "lon": -77.03540416666667, "fusion_lat": 0.0, "rental_uris": {"android": "https://dc.lft.to/lastmile_qr_scan", "ios": "https://dc.lft.to/lastmile_qr_scan"}, "type": "electric_scooter"}, {"is_reserved": 0, "is_disabled": 0, "fusion_lon": 0.0, "lat": 38.92161316666667, "name": "68fcfe20d9b82e009a72c636117fbe9f", "bike_id": "68fcfe20d9b82e009a72c636117fbe9f", "lon": -77.03446333333333, "fusion_lat": 0.0, "rental_uris": {"android": "https://dc.lft.to/lastmile_qr_scan", "ios": "https://dc.lft.to/lastmile_qr_scan"}, "type": "electric_scooter"}, {"is_reserved": 0, "is_disabled": 0, "fusion_lon": 0.0, "lat": 38.9196965, "name": "b4ea4b80a45851b9cd962c006fac0c4c", "bike_id": "b4ea4b80a45851b9cd962c006fac0c4c", "lon": -77.07120116666667, "fusion_lat": 0.0, "rental_uris": {"android": "https://dc.lft.to/lastmile_qr_scan", "ios": "https://dc.lft.to/lastmile_qr_scan"}, "type": "electric_scooter"}, {"is_reserved": 0, "is_disabled": 0, "fusion_lon": 0.0, "lat": 38.919217, "name": "6fa9a555036e39d1cf32a2e647f2bd07", "bike_id": "6fa9a555036e39d1cf32a2e647f2bd07", "lon": -77.03485166666667, "fusion_lat": 0.0, "rental_uris": {"android": "https://dc.lft.to/lastmile_qr_scan", "ios": "https://dc.lft.to/lastmile_qr_scan"}, "type": "electric_scooter"}, {"is_reserved": 0, "is_disabled": 0, "fusion_lon": 0.0, "lat": 38.9241715, "name": "e174e4406d4826e7e89e2f3d6a460f64", "bike_id": "e174e4406d4826e7e89e2f3d6a460f64", "lon": -77.0201895, "fusion_lat": 0.0, "rental_uris": {"android": "https://dc.lft.to/lastmile_qr_scan", "ios": "https://dc.lft.to/lastmile_qr_scan"}, "type": "electric_scooter"}, {"is_reserved": 0, "is_disabled": 0, "fusion_lon": 0.0, "lat": 38.88487583333333, "name": "25560b2b9bd353fc39530de4ad3b758f", "bike_id": "25560b2b9bd353fc39530de4ad3b758f", "lon": -77.02648116666667, "fusion_lat": 0.0, "rental_uris": {"android": "https://dc.lft.to/lastmile_qr_scan", "ios": "https://dc.lft.to/lastmile_qr_scan"}, "type": "electric_scooter"}, {"is_reserved": 0, "is_disabled": 0, "fusion_lon": 0.0, "lat": 38.892218666666665, "name": "51cc1c16c43495cb3c42ca25247729d5", "bike_id": "51cc1c16c43495cb3c42ca25247729d5", "lon": -77.046771, "fusion_lat": 0.0, "rental_uris": {"android": "https://dc.lft.to/lastmile_qr_scan", "ios": "https://dc.lft.to/lastmile_qr_scan"}, "type": "electric_scooter"}, {"is_reserved": 0, "is_disabled": 0, "fusion_lon": 0.0, "lat": 38.93536116666667, "name": "917729b5480079bcd82e43eb49ae0301", "bike_id": "917729b5480079bcd82e43eb49ae0301", "lon": -77.058262, "fusion_lat": 0.0, "rental_uris": {"android": "https://dc.lft.to/lastmile_qr_scan", "ios": "https://dc.lft.to/lastmile_qr_scan"}, "type": "electric_scooter"}, {"is_reserved": 0, "is_disabled": 0, "fusion_lon": 0.0, "lat": 38.8931765, "name": "fec1e0df854b36480e8b985188a8f891", "bike_id": "fec1e0df854b36480e8b985188a8f891", "lon": -76.93974116666666, "fusion_lat": 0.0, "rental_uris": {"android": "https://dc.lft.to/lastmile_qr_scan", "ios": "https://dc.lft.to/lastmile_qr_scan"}, "type": "electric_scooter"}, {"is_reserved": 0, "is_disabled": 0, "fusion_lon": 0.0, "lat": 38.920781833333336, "name": "bce0bb6eca2cafac8feaf2d027033255", "bike_id": "bce0bb6eca2cafac8feaf2d027033255", "lon": -77.0251105, "fusion_lat": 0.0, "rental_uris": {"android": "https://dc.lft.to/lastmile_qr_scan", "ios": "https://dc.lft.to/lastmile_qr_scan"}, "type": "electric_scooter"}, {"is_reserved": 0, "is_disabled": 0, "fusion_lon": 0.0, "lat": 38.84757166666667, "name": "9ab3998ce0558b7b13b5a5d8adc03673", "bike_id": "9ab3998ce0558b7b13b5a5d8adc03673", "lon": -77.053733, "fusion_lat": 0.0, "rental_uris": {"android": "https://dc.lft.to/lastmile_qr_scan", "ios": "https://dc.lft.to/lastmile_qr_scan"}, "type": "electric_bike"}, {"is_reserved": 0, "is_disabled": 0, "fusion_lon": 0.0, "lat": 38.915944, "name": "c8686d565c46030f9ba5f0ecc005addd", "bike_id": "c8686d565c46030f9ba5f0ecc005addd", "lon": -77.03851383333334, "fusion_lat": 0.0, "rental_uris": {"android": "https://dc.lft.to/lastmile_qr_scan", "ios": "https://dc.lft.to/lastmile_qr_scan"}, "type": "electric_scooter"}, {"is_reserved": 0, "is_disabled": 0, "fusion_lon": 0.0, "lat": 38.9001395, "name": "111d2cd6b0c34687ff1b54770e2ec6b8", "bike_id": "111d2cd6b0c34687ff1b54770e2ec6b8", "lon": -77.041163, "fusion_lat": 0.0, "rental_uris": {"android": "https://dc.lft.to/lastmile_qr_scan", "ios": "https://dc.lft.to/lastmile_qr_scan"}, "type": "electric_scooter"}, {"is_reserved": 0, "is_disabled": 0, "fusion_lon": 0.0, "lat": 38.938722166666665, "name": "199ca1e0a41f80c3292c1910e28dedb4", "bike_id": "199ca1e0a41f80c3292c1910e28dedb4", "lon": -77.0249005, "fusion_lat": 0.0, "rental_uris": {"android": "https://dc.lft.to/lastmile_qr_scan", "ios": "https://dc.lft.to/lastmile_qr_scan"}, "type": "electric_scooter"}, {"is_reserved": 0, "is_disabled": 0, "fusion_lon": 0.0, "lat": 38.8949065, "name": "d8a1ad1488195e12af1c381efd6c1c46", "bike_id": "d8a1ad1488195e12af1c381efd6c1c46", "lon": -76.94892466666667, "fusion_lat": 0.0, "rental_uris": {"android": "https://dc.lft.to/lastmile_qr_scan", "ios": "https://dc.lft.to/lastmile_qr_scan"}, "type": "electric_scooter"}, {"is_reserved": 0, "is_disabled": 0, "fusion_lon": 0.0, "lat": 38.9374875, "name": "c98cc651a5452634883157e8ef9c3935", "bike_id": "c98cc651a5452634883157e8ef9c3935", "lon": -77.02438533333333, "fusion_lat": 0.0, "rental_uris": {"android": "https://dc.lft.to/lastmile_qr_scan", "ios": "https://dc.lft.to/lastmile_qr_scan"}, "type": "electric_scooter"}, {"is_reserved": 0, "is_disabled": 0, "fusion_lon": 0.0, "lat": 38.907033, "name": "29df64771127bb384f7514a435e5507f", "bike_id": "29df64771127bb384f7514a435e5507f", "lon": -76.98855066666667, "fusion_lat": 0.0, "rental_uris": {"android": "https://dc.lft.to/lastmile_qr_scan", "ios": "https://dc.lft.to/lastmile_qr_scan"}, "type": "electric_scooter"}, {"is_reserved": 0, "is_disabled": 0, "fusion_lon": 0.0, "lat": 38.88504433333333, "name": "8367591352313a5d3fb3570c6d039f00", "bike_id": "8367591352313a5d3fb3570c6d039f00", "lon": -77.02090883333334, "fusion_lat": 0.0, "rental_uris": {"android": "https://dc.lft.to/lastmile_qr_scan", "ios": "https://dc.lft.to/lastmile_qr_scan"}, "type": "electric_scooter"}, {"is_reserved": 0, "is_disabled": 0, "fusion_lon": 0.0, "lat": 38.915406833333336, "name": "06dfdb7b2183214e5d7246bf81f80a09", "bike_id": "06dfdb7b2183214e5d7246bf81f80a09", "lon": -77.04439133333334, "fusion_lat": 0.0, "rental_uris": {"android": "https://dc.lft.to/lastmile_qr_scan", "ios": "https://dc.lft.to/lastmile_qr_scan"}, "type": "electric_scooter"}, {"is_reserved": 0, "is_disabled": 0, "fusion_lon": 0.0, "lat": 38.895036166666664, "name": "f3b39a3244a99739f80f88db885d3c8d", "bike_id": "f3b39a3244a99739f80f88db885d3c8d", "lon": -76.93477216666666, "fusion_lat": 0.0, "rental_uris": {"android": "https://dc.lft.to/lastmile_qr_scan", "ios": "https://dc.lft.to/lastmile_qr_scan"}, "type": "electric_scooter"}, {"is_reserved": 0, "is_disabled": 0, "fusion_lon": 0.0, "lat": 38.905126, "name": "31d39f22f2b19bd59c23dacdf293dea3", "bike_id": "31d39f22f2b19bd59c23dacdf293dea3", "lon": -77.02955066666667, "fusion_lat": 0.0, "rental_uris": {"android": "https://dc.lft.to/lastmile_qr_scan", "ios": "https://dc.lft.to/lastmile_qr_scan"}, "type": "electric_scooter"}, {"is_reserved": 0, "is_disabled": 0, "fusion_lon": 0.0, "lat": 38.92244433333333, "name": "80e983a7db235f2dc8edf22dace1594e", "bike_id": "80e983a7db235f2dc8edf22dace1594e", "lon": -77.02854283333333, "fusion_lat": 0.0, "rental_uris": {"android": "https://dc.lft.to/lastmile_qr_scan", "ios": "https://dc.lft.to/lastmile_qr_scan"}, "type": "electric_scooter"}, {"is_reserved": 0, "is_disabled": 0, "fusion_lon": 0.0, "lat": 38.904137166666665, "name": "980f1e4fc27e11ffd70e2c96c3bc5e22", "bike_id": "980f1e4fc27e11ffd70e2c96c3bc5e22", "lon": -76.97331083333333, "fusion_lat": 0.0, "rental_uris": {"android": "https://dc.lft.to/lastmile_qr_scan", "ios": "https://dc.lft.to/lastmile_qr_scan"}, "type": "electric_scooter"}, {"is_reserved": 0, "is_disabled": 0, "fusion_lon": 0.0, "lat": 38.914779333333335, "name": "402e54d96dd6753663064cc2bacc0f5c", "bike_id": "402e54d96dd6753663064cc2bacc0f5c", "lon": -77.0021835, "fusion_lat": 0.0, "rental_uris": {"android": "https://dc.lft.to/lastmile_qr_scan", "ios": "https://dc.lft.to/lastmile_qr_scan"}, "type": "electric_scooter"}, {"is_reserved": 0, "is_disabled": 0, "fusion_lon": 0.0, "lat": 38.920779, "name": "786e5819d6f2a81b9ac10b4fdf2eda41", "bike_id": "786e5819d6f2a81b9ac10b4fdf2eda41", "lon": -77.0252725, "fusion_lat": 0.0, "rental_uris": {"android": "https://dc.lft.to/lastmile_qr_scan", "ios": "https://dc.lft.to/lastmile_qr_scan"}, "type": "electric_scooter"}, {"is_reserved": 0, "is_disabled": 0, "fusion_lon": 0.0, "lat": 38.896082, "name": "8f99ac44f3ecfde80536f81861b929d4", "bike_id": "8f99ac44f3ecfde80536f81861b929d4", "lon": -77.01903966666667, "fusion_lat": 0.0, "rental_uris": {"android": "https://dc.lft.to/lastmile_qr_scan", "ios": "https://dc.lft.to/lastmile_qr_scan"}, "type": "electric_scooter"}, {"is_reserved": 0, "is_disabled": 0, "fusion_lon": 0.0, "lat": 38.896897833333334, "name": "84cb3ae445852dc3126541433f48c309", "bike_id": "84cb3ae445852dc3126541433f48c309", "lon": -76.92793066666667, "fusion_lat": 0.0, "rental_uris": {"android": "https://dc.lft.to/lastmile_qr_scan", "ios": "https://dc.lft.to/lastmile_qr_scan"}, "type": "electric_scooter"}, {"is_reserved": 0, "is_disabled": 0, "fusion_lon": 0.0, "lat": 38.962149, "name": "c6febaafa8e1fdb641fd0ffd102d7e80", "bike_id": "c6febaafa8e1fdb641fd0ffd102d7e80", "lon": -77.02779033333333, "fusion_lat": 0.0, "rental_uris": {"android": "https://dc.lft.to/lastmile_qr_scan", "ios": "https://dc.lft.to/lastmile_qr_scan"}, "type": "electric_scooter"}, {"is_reserved": 0, "is_disabled": 0, "fusion_lon": 0.0, "lat": 38.903799666666664, "name": "81162f7a9a3df03b68a608d05444a38b", "bike_id": "81162f7a9a3df03b68a608d05444a38b", "lon": -77.03747566666667, "fusion_lat": 0.0, "rental_uris": {"android": "https://dc.lft.to/lastmile_qr_scan", "ios": "https://dc.lft.to/lastmile_qr_scan"}, "type": "electric_scooter"}, {"is_reserved": 0, "is_disabled": 0, "fusion_lon": 0.0, "lat": 38.926831, "name": "c1ba6d6c9bb2c2999a990a0b41b1436d", "bike_id": "c1ba6d6c9bb2c2999a990a0b41b1436d", "lon": -77.01502933333333, "fusion_lat": 0.0, "rental_uris": {"android": "https://dc.lft.to/lastmile_qr_scan", "ios": "https://dc.lft.to/lastmile_qr_scan"}, "type": "electric_scooter"}, {"is_reserved": 0, "is_disabled": 0, "fusion_lon": 0.0, "lat": 38.892165166666665, "name": "53d083d730feb85c882f1889d9759d60", "bike_id": "53d083d730feb85c882f1889d9759d60", "lon": -77.02374, "fusion_lat": 0.0, "rental_uris": {"android": "https://dc.lft.to/lastmile_qr_scan", "ios": "https://dc.lft.to/lastmile_qr_scan"}, "type": "electric_scooter"}, {"is_reserved": 0, "is_disabled": 0, "fusion_lon": 0.0, "lat": 38.9247845, "name": "dc00b467f3d151ba6ef1e4639ea2a433", "bike_id": "dc00b467f3d151ba6ef1e4639ea2a433", "lon": -77.02207566666667, "fusion_lat": 0.0, "rental_uris": {"android": "https://dc.lft.to/lastmile_qr_scan", "ios": "https://dc.lft.to/lastmile_qr_scan"}, "type": "electric_scooter"}, {"is_reserved": 0, "is_disabled": 0, "fusion_lon": 0.0, "lat": 38.92246316666667, "name": "ef1a15a504f75844df68be88218acb64", "bike_id": "ef1a15a504f75844df68be88218acb64", "lon": -77.03665266666667, "fusion_lat": 0.0, "rental_uris": {"android": "https://dc.lft.to/lastmile_qr_scan", "ios": "https://dc.lft.to/lastmile_qr_scan"}, "type": "electric_scooter"}, {"is_reserved": 0, "is_disabled": 0, "fusion_lon": 0.0, "lat": 38.92425933333333, "name": "9427ebf56713e9140a06200c0727b2bf", "bike_id": "9427ebf56713e9140a06200c0727b2bf", "lon": -77.021352, "fusion_lat": 0.0, "rental_uris": {"android": "https://dc.lft.to/lastmile_qr_scan", "ios": "https://dc.lft.to/lastmile_qr_scan"}, "type": "electric_scooter"}, {"is_reserved": 0, "is_disabled": 0, "fusion_lon": 0.0, "lat": 38.90133516666667, "name": "fc3cdec83862282d237794d50f0af265", "bike_id": "fc3cdec83862282d237794d50f0af265", "lon": -77.04863316666666, "fusion_lat": 0.0, "rental_uris": {"android": "https://dc.lft.to/lastmile_qr_scan", "ios": "https://dc.lft.to/lastmile_qr_scan"}, "type": "electric_scooter"}, {"is_reserved": 0, "is_disabled": 0, "fusion_lon": 0.0, "lat": 38.950679666666666, "name": "90a797bb33fa93892d5bc86b8cf3cd5c", "bike_id": "90a797bb33fa93892d5bc86b8cf3cd5c", "lon": -76.97082783333333, "fusion_lat": 0.0, "rental_uris": {"android": "https://dc.lft.to/lastmile_qr_scan", "ios": "https://dc.lft.to/lastmile_qr_scan"}, "type": "electric_bike"}, {"is_reserved": 0, "is_disabled": 0, "fusion_lon": 0.0, "lat": 38.90416166666667, "name": "6715231403634cc7d1bc8ec2ace1a683", "bike_id": "6715231403634cc7d1bc8ec2ace1a683", "lon": -77.04336216666667, "fusion_lat": 0.0, "rental_uris": {"android": "https://dc.lft.to/lastmile_qr_scan", "ios": "https://dc.lft.to/lastmile_qr_scan"}, "type": "electric_scooter"}, {"is_reserved": 0, "is_disabled": 0, "fusion_lon": 0.0, "lat": 38.90236516666667, "name": "b378c067ab2871b7607d9c53b85d8e2a", "bike_id": "b378c067ab2871b7607d9c53b85d8e2a", "lon": -77.0283645, "fusion_lat": 0.0, "rental_uris": {"android": "https://dc.lft.to/lastmile_qr_scan", "ios": "https://dc.lft.to/lastmile_qr_scan"}, "type": "electric_scooter"}, {"is_reserved": 0, "is_disabled": 0, "fusion_lon": 0.0, "lat": 38.8578775, "name": "23f917723378162fe9f6dbde57ce0c26", "bike_id": "23f917723378162fe9f6dbde57ce0c26", "lon": -77.09961916666667, "fusion_lat": 0.0, "rental_uris": {"android": "https://dc.lft.to/lastmile_qr_scan", "ios": "https://dc.lft.to/lastmile_qr_scan"}, "type": "electric_bike"}, {"is_reserved": 0, "is_disabled": 0, "fusion_lon": 0.0, "lat": 38.876908, "name": "ccfe6ed4d4f6b09c7af04800c20ba416", "bike_id": "ccfe6ed4d4f6b09c7af04800c20ba416", "lon": -77.01467583333333, "fusion_lat": 0.0, "rental_uris": {"android": "https://dc.lft.to/lastmile_qr_scan", "ios": "https://dc.lft.to/lastmile_qr_scan"}, "type": "electric_bike"}, {"is_reserved": 0, "is_disabled": 0, "fusion_lon": 0.0, "lat": 38.924670666666664, "name": "71e4bff166fb12bf1d79efea6c2b2c13", "bike_id": "71e4bff166fb12bf1d79efea6c2b2c13", "lon": -77.0378525, "fusion_lat": 0.0, "rental_uris": {"android": "https://dc.lft.to/lastmile_qr_scan", "ios": "https://dc.lft.to/lastmile_qr_scan"}, "type": "electric_scooter"}, {"is_reserved": 0, "is_disabled": 0, "fusion_lon": 0.0, "lat": 38.914169666666666, "name": "3f752089c1f279080222d9dd07e6fd01", "bike_id": "3f752089c1f279080222d9dd07e6fd01", "lon": -77.05209983333333, "fusion_lat": 0.0, "rental_uris": {"android": "https://dc.lft.to/lastmile_qr_scan", "ios": "https://dc.lft.to/lastmile_qr_scan"}, "type": "electric_scooter"}, {"is_reserved": 0, "is_disabled": 0, "fusion_lon": 0.0, "lat": 38.87836166666666, "name": "10c7b6624442ed0a7e0d6036094d3c61", "bike_id": "10c7b6624442ed0a7e0d6036094d3c61", "lon": -77.0069215, "fusion_lat": 0.0, "rental_uris": {"android": "https://dc.lft.to/lastmile_qr_scan", "ios": "https://dc.lft.to/lastmile_qr_scan"}, "type": "electric_scooter"}, {"is_reserved": 0, "is_disabled": 0, "fusion_lon": 0.0, "lat": 38.899668, "name": "8c632b1a0be6e53e45dd834704d668c6", "bike_id": "8c632b1a0be6e53e45dd834704d668c6", "lon": -77.00684616666666, "fusion_lat": 0.0, "rental_uris": {"android": "https://dc.lft.to/lastmile_qr_scan", "ios": "https://dc.lft.to/lastmile_qr_scan"}, "type": "electric_scooter"}, {"is_reserved": 0, "is_disabled": 0, "fusion_lon": 0.0, "lat": 38.92998516666667, "name": "bc59d04db9f4b8a04991241b661e434c", "bike_id": "bc59d04db9f4b8a04991241b661e434c", "lon": -77.022163, "fusion_lat": 0.0, "rental_uris": {"android": "https://dc.lft.to/lastmile_qr_scan", "ios": "https://dc.lft.to/lastmile_qr_scan"}, "type": "electric_scooter"}, {"is_reserved": 0, "is_disabled": 0, "fusion_lon": 0.0, "lat": 38.92252116666667, "name": "235bf446ce8c4e3fc0a08263bff18b9f", "bike_id": "235bf446ce8c4e3fc0a08263bff18b9f", "lon": -77.03092316666667, "fusion_lat": 0.0, "rental_uris": {"android": "https://dc.lft.to/lastmile_qr_scan", "ios": "https://dc.lft.to/lastmile_qr_scan"}, "type": "electric_scooter"}, {"is_reserved": 0, "is_disabled": 0, "fusion_lon": 0.0, "lat": 38.87929366666667, "name": "4ca6f89e34be8d8c754cbf059f4b6794", "bike_id": "4ca6f89e34be8d8c754cbf059f4b6794", "lon": -77.02051583333333, "fusion_lat": 0.0, "rental_uris": {"android": "https://dc.lft.to/lastmile_qr_scan", "ios": "https://dc.lft.to/lastmile_qr_scan"}, "type": "electric_scooter"}, {"is_reserved": 0, "is_disabled": 0, "fusion_lon": 0.0, "lat": 38.89222383333333, "name": "27f25a48e25ef61c9f6b1b701d565e0b", "bike_id": "27f25a48e25ef61c9f6b1b701d565e0b", "lon": -77.04685666666667, "fusion_lat": 0.0, "rental_uris": {"android": "https://dc.lft.to/lastmile_qr_scan", "ios": "https://dc.lft.to/lastmile_qr_scan"}, "type": "electric_scooter"}, {"is_reserved": 0, "is_disabled": 0, "fusion_lon": 0.0, "lat": 38.909598833333334, "name": "246566982474ba711798f53fea60b14e", "bike_id": "246566982474ba711798f53fea60b14e", "lon": -77.01173033333333, "fusion_lat": 0.0, "rental_uris": {"android": "https://dc.lft.to/lastmile_qr_scan", "ios": "https://dc.lft.to/lastmile_qr_scan"}, "type": "electric_scooter"}, {"is_reserved": 0, "is_disabled": 0, "fusion_lon": 0.0, "lat": 38.898266666666665, "name": "0e1911300d441389202295fd97113ec9", "bike_id": "0e1911300d441389202295fd97113ec9", "lon": -77.04655466666667, "fusion_lat": 0.0, "rental_uris": {"android": "https://dc.lft.to/lastmile_qr_scan", "ios": "https://dc.lft.to/lastmile_qr_scan"}, "type": "electric_scooter"}, {"is_reserved": 0, "is_disabled": 0, "fusion_lon": 0.0, "lat": 38.924821, "name": "33f20f31a60cbe61cee6096cf0b18647", "bike_id": "33f20f31a60cbe61cee6096cf0b18647", "lon": -77.02193616666666, "fusion_lat": 0.0, "rental_uris": {"android": "https://dc.lft.to/lastmile_qr_scan", "ios": "https://dc.lft.to/lastmile_qr_scan"}, "type": "electric_scooter"}, {"is_reserved": 0, "is_disabled": 0, "fusion_lon": 0.0, "lat": 38.9153715, "name": "39ef130ad67b08e4838215ef8752bb8d", "bike_id": "39ef130ad67b08e4838215ef8752bb8d", "lon": -77.032028, "fusion_lat": 0.0, "rental_uris": {"android": "https://dc.lft.to/lastmile_qr_scan", "ios": "https://dc.lft.to/lastmile_qr_scan"}, "type": "electric_scooter"}, {"is_reserved": 0, "is_disabled": 0, "fusion_lon": 0.0, "lat": 38.8881795, "name": "e413139984ad8d13f10bba6f16b646fd", "bike_id": "e413139984ad8d13f10bba6f16b646fd", "lon": -76.9770535, "fusion_lat": 0.0, "rental_uris": {"android": "https://dc.lft.to/lastmile_qr_scan", "ios": "https://dc.lft.to/lastmile_qr_scan"}, "type": "electric_scooter"}, {"is_reserved": 0, "is_disabled": 0, "fusion_lon": 0.0, "lat": 38.916540166666664, "name": "3d52d6a367ffa5735fdb5e769219e567", "bike_id": "3d52d6a367ffa5735fdb5e769219e567", "lon": -77.012247, "fusion_lat": 0.0, "rental_uris": {"android": "https://dc.lft.to/lastmile_qr_scan", "ios": "https://dc.lft.to/lastmile_qr_scan"}, "type": "electric_bike"}, {"is_reserved": 0, "is_disabled": 0, "fusion_lon": 0.0, "lat": 38.931686, "name": "82e45388028722e561dad92cd2fd3bf0", "bike_id": "82e45388028722e561dad92cd2fd3bf0", "lon": -77.0784785, "fusion_lat": 0.0, "rental_uris": {"android": "https://dc.lft.to/lastmile_qr_scan", "ios": "https://dc.lft.to/lastmile_qr_scan"}, "type": "electric_scooter"}, {"is_reserved": 0, "is_disabled": 0, "fusion_lon": 0.0, "lat": 38.88708966666667, "name": "daa4ade433957678f3b339cdea07cbc1", "bike_id": "daa4ade433957678f3b339cdea07cbc1", "lon": -76.983407, "fusion_lat": 0.0, "rental_uris": {"android": "https://dc.lft.to/lastmile_qr_scan", "ios": "https://dc.lft.to/lastmile_qr_scan"}, "type": "electric_scooter"}, {"is_reserved": 0, "is_disabled": 0, "fusion_lon": 0.0, "lat": 38.901736166666666, "name": "b5eca670fd12304cc4b389a5ed0aa5dd", "bike_id": "b5eca670fd12304cc4b389a5ed0aa5dd", "lon": -76.980674, "fusion_lat": 0.0, "rental_uris": {"android": "https://dc.lft.to/lastmile_qr_scan", "ios": "https://dc.lft.to/lastmile_qr_scan"}, "type": "electric_scooter"}, {"is_reserved": 0, "is_disabled": 0, "fusion_lon": 0.0, "lat": 38.92674616666667, "name": "cf766ab040c6634de36740d125aff002", "bike_id": "cf766ab040c6634de36740d125aff002", "lon": -77.0274895, "fusion_lat": 0.0, "rental_uris": {"android": "https://dc.lft.to/lastmile_qr_scan", "ios": "https://dc.lft.to/lastmile_qr_scan"}, "type": "electric_scooter"}, {"is_reserved": 0, "is_disabled": 0, "fusion_lon": 0.0, "lat": 38.87639383333333, "name": "bdf4f864470262a5a5797229c267683d", "bike_id": "bdf4f864470262a5a5797229c267683d", "lon": -77.0025195, "fusion_lat": 0.0, "rental_uris": {"android": "https://dc.lft.to/lastmile_qr_scan", "ios": "https://dc.lft.to/lastmile_qr_scan"}, "type": "electric_scooter"}, {"is_reserved": 0, "is_disabled": 0, "fusion_lon": 0.0, "lat": 38.90893, "name": "f34571cb4ea3b71d940d4e0a44c51465", "bike_id": "f34571cb4ea3b71d940d4e0a44c51465", "lon": -76.98957583333333, "fusion_lat": 0.0, "rental_uris": {"android": "https://dc.lft.to/lastmile_qr_scan", "ios": "https://dc.lft.to/lastmile_qr_scan"}, "type": "electric_scooter"}, {"is_reserved": 0, "is_disabled": 0, "fusion_lon": 0.0, "lat": 39.0291925, "name": "abea341049e7926ad7b5fec4cbb39a16", "bike_id": "abea341049e7926ad7b5fec4cbb39a16", "lon": -77.013548, "fusion_lat": 0.0, "rental_uris": {"android": "https://dc.lft.to/lastmile_qr_scan", "ios": "https://dc.lft.to/lastmile_qr_scan"}, "type": "electric_bike"}, {"is_reserved": 0, "is_disabled": 0, "fusion_lon": 0.0, "lat": 38.846746333333336, "name": "eb2e0a95e8330a0758ff6dbc795ccbbd", "bike_id": "eb2e0a95e8330a0758ff6dbc795ccbbd", "lon": -77.1392145, "fusion_lat": 0.0, "rental_uris": {"android": "https://dc.lft.to/lastmile_qr_scan", "ios": "https://dc.lft.to/lastmile_qr_scan"}, "type": "electric_bike"}, {"is_reserved": 0, "is_disabled": 0, "fusion_lon": 0.0, "lat": 38.913297166666666, "name": "c84e592cd6b482f38dbb4a44e2e88f69", "bike_id": "c84e592cd6b482f38dbb4a44e2e88f69", "lon": -77.04535133333333, "fusion_lat": 0.0, "rental_uris": {"android": "https://dc.lft.to/lastmile_qr_scan", "ios": "https://dc.lft.to/lastmile_qr_scan"}, "type": "electric_scooter"}, {"is_reserved": 0, "is_disabled": 0, "fusion_lon": 0.0, "lat": 38.926083, "name": "f4d017cf1fa653259e7b8a1d1ada70f3", "bike_id": "f4d017cf1fa653259e7b8a1d1ada70f3", "lon": -77.039653, "fusion_lat": 0.0, "rental_uris": {"android": "https://dc.lft.to/lastmile_qr_scan", "ios": "https://dc.lft.to/lastmile_qr_scan"}, "type": "electric_scooter"}, {"is_reserved": 0, "is_disabled": 0, "fusion_lon": 0.0, "lat": 38.905599, "name": "681a04b7fb0815e9e2e968ae5d7fe172", "bike_id": "681a04b7fb0815e9e2e968ae5d7fe172", "lon": -77.05701766666667, "fusion_lat": 0.0, "rental_uris": {"android": "https://dc.lft.to/lastmile_qr_scan", "ios": "https://dc.lft.to/lastmile_qr_scan"}, "type": "electric_scooter"}, {"is_reserved": 0, "is_disabled": 0, "fusion_lon": 0.0, "lat": 38.91559566666667, "name": "f0f891075a715400656254ec3c606e10", "bike_id": "f0f891075a715400656254ec3c606e10", "lon": -77.051092, "fusion_lat": 0.0, "rental_uris": {"android": "https://dc.lft.to/lastmile_qr_scan", "ios": "https://dc.lft.to/lastmile_qr_scan"}, "type": "electric_scooter"}, {"is_reserved": 0, "is_disabled": 0, "fusion_lon": 0.0, "lat": 38.94155466666667, "name": "3f10eb8e0f34fc327e8e2555b1301eb7", "bike_id": "3f10eb8e0f34fc327e8e2555b1301eb7", "lon": -77.00205616666666, "fusion_lat": 0.0, "rental_uris": {"android": "https://dc.lft.to/lastmile_qr_scan", "ios": "https://dc.lft.to/lastmile_qr_scan"}, "type": "electric_bike"}, {"is_reserved": 0, "is_disabled": 0, "fusion_lon": 0.0, "lat": 38.8896875, "name": "ab387b92ec1e9170319c95a7987d277a", "bike_id": "ab387b92ec1e9170319c95a7987d277a", "lon": -76.98033566666666, "fusion_lat": 0.0, "rental_uris": {"android": "https://dc.lft.to/lastmile_qr_scan", "ios": "https://dc.lft.to/lastmile_qr_scan"}, "type": "electric_scooter"}, {"is_reserved": 0, "is_disabled": 0, "fusion_lon": 0.0, "lat": 38.89763933333333, "name": "05a08313b55e983da8e8de160109bc1e", "bike_id": "05a08313b55e983da8e8de160109bc1e", "lon": -77.0301045, "fusion_lat": 0.0, "rental_uris": {"android": "https://dc.lft.to/lastmile_qr_scan", "ios": "https://dc.lft.to/lastmile_qr_scan"}, "type": "electric_scooter"}, {"is_reserved": 0, "is_disabled": 0, "fusion_lon": 0.0, "lat": 38.910313333333335, "name": "f03bf73b1e3223529c2a1164b294b60b", "bike_id": "f03bf73b1e3223529c2a1164b294b60b", "lon": -77.03240016666666, "fusion_lat": 0.0, "rental_uris": {"android": "https://dc.lft.to/lastmile_qr_scan", "ios": "https://dc.lft.to/lastmile_qr_scan"}, "type": "electric_scooter"}, {"is_reserved": 0, "is_disabled": 0, "fusion_lon": 0.0, "lat": 38.89520266666667, "name": "8a78203ed13c18e4a70df8597e94d6c1", "bike_id": "8a78203ed13c18e4a70df8597e94d6c1", "lon": -77.04481316666667, "fusion_lat": 0.0, "rental_uris": {"android": "https://dc.lft.to/lastmile_qr_scan", "ios": "https://dc.lft.to/lastmile_qr_scan"}, "type": "electric_scooter"}, {"is_reserved": 0, "is_disabled": 0, "fusion_lon": 0.0, "lat": 38.92375166666667, "name": "4fef5c3d40b8b3d7a7c2649667927614", "bike_id": "4fef5c3d40b8b3d7a7c2649667927614", "lon": -77.03052766666667, "fusion_lat": 0.0, "rental_uris": {"android": "https://dc.lft.to/lastmile_qr_scan", "ios": "https://dc.lft.to/lastmile_qr_scan"}, "type": "electric_scooter"}, {"is_reserved": 0, "is_disabled": 0, "fusion_lon": 0.0, "lat": 38.92356766666666, "name": "713b0847e7a09ef3cc8efbf4e627c35c", "bike_id": "713b0847e7a09ef3cc8efbf4e627c35c", "lon": -77.053704, "fusion_lat": 0.0, "rental_uris": {"android": "https://dc.lft.to/lastmile_qr_scan", "ios": "https://dc.lft.to/lastmile_qr_scan"}, "type": "electric_scooter"}, {"is_reserved": 0, "is_disabled": 0, "fusion_lon": 0.0, "lat": 38.917153666666664, "name": "ea14d3c842bd64a5e60defe3a623c00e", "bike_id": "ea14d3c842bd64a5e60defe3a623c00e", "lon": -77.03865216666667, "fusion_lat": 0.0, "rental_uris": {"android": "https://dc.lft.to/lastmile_qr_scan", "ios": "https://dc.lft.to/lastmile_qr_scan"}, "type": "electric_scooter"}, {"is_reserved": 0, "is_disabled": 0, "fusion_lon": 0.0, "lat": 38.96124616666667, "name": "7e9bc18759a8fa983b42d1632a77f765", "bike_id": "7e9bc18759a8fa983b42d1632a77f765", "lon": -77.03270416666666, "fusion_lat": 0.0, "rental_uris": {"android": "https://dc.lft.to/lastmile_qr_scan", "ios": "https://dc.lft.to/lastmile_qr_scan"}, "type": "electric_bike"}, {"is_reserved": 0, "is_disabled": 0, "fusion_lon": 0.0, "lat": 38.900202666666665, "name": "1764106275510d1933c348fa547e702b", "bike_id": "1764106275510d1933c348fa547e702b", "lon": -76.98833733333333, "fusion_lat": 0.0, "rental_uris": {"android": "https://dc.lft.to/lastmile_qr_scan", "ios": "https://dc.lft.to/lastmile_qr_scan"}, "type": "electric_scooter"}, {"is_reserved": 0, "is_disabled": 0, "fusion_lon": 0.0, "lat": 38.91257383333333, "name": "29a28a33bb563c2d74653679bba407e4", "bike_id": "29a28a33bb563c2d74653679bba407e4", "lon": -77.0386575, "fusion_lat": 0.0, "rental_uris": {"android": "https://dc.lft.to/lastmile_qr_scan", "ios": "https://dc.lft.to/lastmile_qr_scan"}, "type": "electric_scooter"}, {"is_reserved": 0, "is_disabled": 0, "fusion_lon": 0.0, "lat": 38.91917466666666, "name": "5a8360741a1d7c520b551b32ab53be77", "bike_id": "5a8360741a1d7c520b551b32ab53be77", "lon": -77.03099083333333, "fusion_lat": 0.0, "rental_uris": {"android": "https://dc.lft.to/lastmile_qr_scan", "ios": "https://dc.lft.to/lastmile_qr_scan"}, "type": "electric_scooter"}, {"is_reserved": 0, "is_disabled": 0, "fusion_lon": 0.0, "lat": 38.91917466666666, "name": "419bcc69be591399de88726c0039e2dd", "bike_id": "419bcc69be591399de88726c0039e2dd", "lon": -77.02689216666667, "fusion_lat": 0.0, "rental_uris": {"android": "https://dc.lft.to/lastmile_qr_scan", "ios": "https://dc.lft.to/lastmile_qr_scan"}, "type": "electric_scooter"}, {"is_reserved": 0, "is_disabled": 0, "fusion_lon": 0.0, "lat": 38.900141833333336, "name": "28b83b75d2c62977689783435e678d70", "bike_id": "28b83b75d2c62977689783435e678d70", "lon": -76.99855966666667, "fusion_lat": 0.0, "rental_uris": {"android": "https://dc.lft.to/lastmile_qr_scan", "ios": "https://dc.lft.to/lastmile_qr_scan"}, "type": "electric_scooter"}, {"is_reserved": 0, "is_disabled": 0, "fusion_lon": 0.0, "lat": 38.80251633333334, "name": "c37113a4c8a9f336665d31959308db5d", "bike_id": "c37113a4c8a9f336665d31959308db5d", "lon": -77.11447416666667, "fusion_lat": 0.0, "rental_uris": {"android": "https://dc.lft.to/lastmile_qr_scan", "ios": "https://dc.lft.to/lastmile_qr_scan"}, "type": "electric_bike"}, {"is_reserved": 0, "is_disabled": 0, "fusion_lon": 0.0, "lat": 38.93264116666667, "name": "551fb522e931cd75fbd587bf80355445", "bike_id": "551fb522e931cd75fbd587bf80355445", "lon": -77.032914, "fusion_lat": 0.0, "rental_uris": {"android": "https://dc.lft.to/lastmile_qr_scan", "ios": "https://dc.lft.to/lastmile_qr_scan"}, "type": "electric_scooter"}, {"is_reserved": 0, "is_disabled": 0, "fusion_lon": 0.0, "lat": 38.883741666666666, "name": "1ad30e0cb73427b0c12da62b36f65c50", "bike_id": "1ad30e0cb73427b0c12da62b36f65c50", "lon": -76.99522883333333, "fusion_lat": 0.0, "rental_uris": {"android": "https://dc.lft.to/lastmile_qr_scan", "ios": "https://dc.lft.to/lastmile_qr_scan"}, "type": "electric_scooter"}, {"is_reserved": 0, "is_disabled": 0, "fusion_lon": 0.0, "lat": 38.9307595, "name": "5ce38f14fbb663a59ba8499b4bbf95fc", "bike_id": "5ce38f14fbb663a59ba8499b4bbf95fc", "lon": -77.02350566666667, "fusion_lat": 0.0, "rental_uris": {"android": "https://dc.lft.to/lastmile_qr_scan", "ios": "https://dc.lft.to/lastmile_qr_scan"}, "type": "electric_scooter"}, {"is_reserved": 0, "is_disabled": 0, "fusion_lon": 0.0, "lat": 38.91670466666667, "name": "35f02dc9e812fee97a631912941ed034", "bike_id": "35f02dc9e812fee97a631912941ed034", "lon": -77.04607166666666, "fusion_lat": 0.0, "rental_uris": {"android": "https://dc.lft.to/lastmile_qr_scan", "ios": "https://dc.lft.to/lastmile_qr_scan"}, "type": "electric_scooter"}, {"is_reserved": 0, "is_disabled": 0, "fusion_lon": 0.0, "lat": 39.074692666666664, "name": "c3da7b60513c8308cc120ac3a840eedd", "bike_id": "c3da7b60513c8308cc120ac3a840eedd", "lon": -77.1152675, "fusion_lat": 0.0, "rental_uris": {"android": "https://dc.lft.to/lastmile_qr_scan", "ios": "https://dc.lft.to/lastmile_qr_scan"}, "type": "electric_bike"}, {"is_reserved": 0, "is_disabled": 0, "fusion_lon": 0.0, "lat": 38.92278533333333, "name": "b80c0fc23e74f71eabc8db154aa0fe56", "bike_id": "b80c0fc23e74f71eabc8db154aa0fe56", "lon": -77.03405616666667, "fusion_lat": 0.0, "rental_uris": {"android": "https://dc.lft.to/lastmile_qr_scan", "ios": "https://dc.lft.to/lastmile_qr_scan"}, "type": "electric_scooter"}, {"is_reserved": 0, "is_disabled": 0, "fusion_lon": 0.0, "lat": 38.892153666666665, "name": "8aee59fcd0896345df7150874b1e7908", "bike_id": "8aee59fcd0896345df7150874b1e7908", "lon": -76.97957333333333, "fusion_lat": 0.0, "rental_uris": {"android": "https://dc.lft.to/lastmile_qr_scan", "ios": "https://dc.lft.to/lastmile_qr_scan"}, "type": "electric_scooter"}, {"is_reserved": 0, "is_disabled": 0, "fusion_lon": 0.0, "lat": 38.8717475, "name": "c5e34734a3104f28518cf3b0cb71c0a7", "bike_id": "c5e34734a3104f28518cf3b0cb71c0a7", "lon": -77.233951, "fusion_lat": 0.0, "rental_uris": {"android": "https://dc.lft.to/lastmile_qr_scan", "ios": "https://dc.lft.to/lastmile_qr_scan"}, "type": "electric_bike"}, {"is_reserved": 0, "is_disabled": 0, "fusion_lon": 0.0, "lat": 38.900188166666666, "name": "9a57adbf8455c98bd798313284868b21", "bike_id": "9a57adbf8455c98bd798313284868b21", "lon": -76.99846616666666, "fusion_lat": 0.0, "rental_uris": {"android": "https://dc.lft.to/lastmile_qr_scan", "ios": "https://dc.lft.to/lastmile_qr_scan"}, "type": "electric_scooter"}, {"is_reserved": 0, "is_disabled": 0, "fusion_lon": 0.0, "lat": 38.906117, "name": "2dc198425e159c4aa25cbab4f054c7ee", "bike_id": "2dc198425e159c4aa25cbab4f054c7ee", "lon": -77.05033766666666, "fusion_lat": 0.0, "rental_uris": {"android": "https://dc.lft.to/lastmile_qr_scan", "ios": "https://dc.lft.to/lastmile_qr_scan"}, "type": "electric_scooter"}, {"is_reserved": 0, "is_disabled": 0, "fusion_lon": 0.0, "lat": 38.87576266666667, "name": "7442a59627624873599ef33a0f55bb3a", "bike_id": "7442a59627624873599ef33a0f55bb3a", "lon": -77.0057935, "fusion_lat": 0.0, "rental_uris": {"android": "https://dc.lft.to/lastmile_qr_scan", "ios": "https://dc.lft.to/lastmile_qr_scan"}, "type": "electric_scooter"}, {"is_reserved": 0, "is_disabled": 0, "fusion_lon": 0.0, "lat": 38.904347, "name": "64cce54e40ee5529c06fec59c1f53fbc", "bike_id": "64cce54e40ee5529c06fec59c1f53fbc", "lon": -77.0345325, "fusion_lat": 0.0, "rental_uris": {"android": "https://dc.lft.to/lastmile_qr_scan", "ios": "https://dc.lft.to/lastmile_qr_scan"}, "type": "electric_scooter"}, {"is_reserved": 0, "is_disabled": 0, "fusion_lon": 0.0, "lat": 38.80902483333333, "name": "f7ac40e1cec0381cf8351b0be6fa12d6", "bike_id": "f7ac40e1cec0381cf8351b0be6fa12d6", "lon": -77.11555533333333, "fusion_lat": 0.0, "rental_uris": {"android": "https://dc.lft.to/lastmile_qr_scan", "ios": "https://dc.lft.to/lastmile_qr_scan"}, "type": "electric_bike"}, {"is_reserved": 0, "is_disabled": 0, "fusion_lon": 0.0, "lat": 38.8885655, "name": "eb2e46629ddfaee0c52cb7ad4fa77f3b", "bike_id": "eb2e46629ddfaee0c52cb7ad4fa77f3b", "lon": -77.03236983333333, "fusion_lat": 0.0, "rental_uris": {"android": "https://dc.lft.to/lastmile_qr_scan", "ios": "https://dc.lft.to/lastmile_qr_scan"}, "type": "electric_bike"}, {"is_reserved": 0, "is_disabled": 0, "fusion_lon": 0.0, "lat": 38.903968666666664, "name": "726326d9a80f08deb0f2da15bce1d7f7", "bike_id": "726326d9a80f08deb0f2da15bce1d7f7", "lon": -76.9900815, "fusion_lat": 0.0, "rental_uris": {"android": "https://dc.lft.to/lastmile_qr_scan", "ios": "https://dc.lft.to/lastmile_qr_scan"}, "type": "electric_scooter"}, {"is_reserved": 0, "is_disabled": 0, "fusion_lon": 0.0, "lat": 38.92793233333333, "name": "a0087e5c5c8f30347649f412a92e2bab", "bike_id": "a0087e5c5c8f30347649f412a92e2bab", "lon": -77.02215333333334, "fusion_lat": 0.0, "rental_uris": {"android": "https://dc.lft.to/lastmile_qr_scan", "ios": "https://dc.lft.to/lastmile_qr_scan"}, "type": "electric_scooter"}, {"is_reserved": 0, "is_disabled": 0, "fusion_lon": 0.0, "lat": 38.91766466666667, "name": "39c044cbd74c4d4b173382222cccea1b", "bike_id": "39c044cbd74c4d4b173382222cccea1b", "lon": -77.009185, "fusion_lat": 0.0, "rental_uris": {"android": "https://dc.lft.to/lastmile_qr_scan", "ios": "https://dc.lft.to/lastmile_qr_scan"}, "type": "electric_scooter"}, {"is_reserved": 0, "is_disabled": 0, "fusion_lon": 0.0, "lat": 38.918628166666664, "name": "c19282940dc4bbea88457d1a56cfe75e", "bike_id": "c19282940dc4bbea88457d1a56cfe75e", "lon": -77.04476533333333, "fusion_lat": 0.0, "rental_uris": {"android": "https://dc.lft.to/lastmile_qr_scan", "ios": "https://dc.lft.to/lastmile_qr_scan"}, "type": "electric_scooter"},