{"data": {"bikes": [{"type": "electric_scooter", "rental_uris": {"ios": "https://dc.lft.to/lastmile_qr_scan", "android": "https://dc.lft.to/lastmile_qr_scan"}, "lon": -77.035897, "fusion_lon": 0.0, "is_disabled": 0, "lat": 38.9330335, "bike_id": "e20248638a7d202ab7ef1920706cc3d7", "name": "e20248638a7d202ab7ef1920706cc3d7", "is_reserved": 0, "fusion_lat": 0.0}, {"type": "electric_bike", "rental_uris": {"ios": "https://dc.lft.to/lastmile_qr_scan", "android": "https://dc.lft.to/lastmile_qr_scan"}, "lon": -76.9879115, "fusion_lon": 0.0, "is_disabled": 0, "lat": 38.922117, "bike_id": "ab7e544a8f6d266eabfd9eff72f9173f", "name": "ab7e544a8f6d266eabfd9eff72f9173f", "is_reserved": 0, "fusion_lat": 0.0}, {"type": "electric_scooter", "rental_uris": {"ios": "https://dc.lft.to/lastmile_qr_scan", "android": "https://dc.lft.to/lastmile_qr_scan"}, "lon": -77.0183875, "fusion_lon": 0.0, "is_disabled": 0, "lat": 38.90824966666667, "bike_id": "b1539a4f5b790619efd2205b23b31b9b", "name": "b1539a4f5b790619efd2205b23b31b9b", "is_reserved": 0, "fusion_lat": 0.0}, {"type": "electric_scooter", "rental_uris": {"ios": "https://dc.lft.to/lastmile_qr_scan", "android": "https://dc.lft.to/lastmile_qr_scan"}, "lon": -77.03144333333333, "fusion_lon": 0.0, "is_disabled": 0, "lat": 38.915674833333334, "bike_id": "b9d78b4fa205cb48196d268de3cc756a", "name": "b9d78b4fa205cb48196d268de3cc756a", "is_reserved": 0, "fusion_lat": 0.0}, {"type": "electric_scooter", "rental_uris": {"ios": "https://dc.lft.to/lastmile_qr_scan", "android": "https://dc.lft.to/lastmile_qr_scan"}, "lon": -77.02980883333333, "fusion_lon": 0.0, "is_disabled": 0, "lat": 38.916869, "bike_id": "bf5a6e239954e4cc40610a3fe51ef47a", "name": "bf5a6e239954e4cc40610a3fe51ef47a", "is_reserved": 0, "fusion_lat": 0.0}, {"type": "electric_scooter", "rental_uris": {"ios": "https://dc.lft.to/lastmile_qr_scan", "android": "https://dc.lft.to/lastmile_qr_scan"}, "lon": -77.0227645, "fusion_lon": 0.0, "is_disabled": 0, "lat": 38.87844283333333, "bike_id": "5084cee8b79b7c6f03818f94130158ee", "name": "5084cee8b79b7c6f03818f94130158ee", "is_reserved": 0, "fusion_lat": 0.0}, {"type": "electric_scooter", "rental_uris": {"ios": "https://dc.lft.to/lastmile_qr_scan", "android": "https://dc.lft.to/lastmile_qr_scan"}, "lon": -77.0259655, "fusion_lon": 0.0, "is_disabled": 0, "lat": 38.942027, "bike_id": "eaa205420c2df34469a4be15f72e7b81", "name": "eaa205420c2df34469a4be15f72e7b81", "is_reserved": 0, "fusion_lat": 0.0}, {"type": "electric_bike", "rental_uris": {"ios": "https://dc.lft.to/lastmile_qr_scan", "android": "https://dc.lft.to/lastmile_qr_scan"}, "lon": -77.05039483333333, "fusion_lon": 0.0, "is_disabled": 0, "lat": 39.0389285, "bike_id": "6d0595e99817d9c7e26eb4ee61aa17ca", "name": "6d0595e99817d9c7e26eb4ee61aa17ca", "is_reserved": 0, "fusion_lat": 0.0}, {"type": "electric_scooter", "rental_uris": {"ios": "https://dc.lft.to/lastmile_qr_scan", "android": "https://dc.lft.to/lastmile_qr_scan"}, "lon": -77.013734, "fusion_lon": 0.0, "is_disabled": 0, "lat": 38.892233166666664, "bike_id": "4399c1214a94b6f022a6101e55b6ad74", "name": "4399c1214a94b6f022a6101e55b6ad74", "is_reserved": 0, "fusion_lat": 0.0}, {"type": "electric_bike", "rental_uris": {"ios": "https://dc.lft.to/lastmile_qr_scan", "android": "https://dc.lft.to/lastmile_qr_scan"}, "lon": -77.08811183333333, "fusion_lon": 0.0, "is_disabled": 0, "lat": 38.86239616666667, "bike_id": "ecc81b032ada3e9b7c6e1e4dd5b7143d", "name": "ecc81b032ada3e9b7c6e1e4dd5b7143d", "is_reserved": 0, "fusion_lat": 0.0}, {"type": "electric_scooter", "rental_uris": {"ios": "https://dc.lft.to/lastmile_qr_scan", "android": "https://dc.lft.to/lastmile_qr_scan"}, "lon": -76.994087, "fusion_lon": 0.0, "is_disabled": 0, "lat": 38.877987166666664, "bike_id": "a1d8f407a6f384d0d21e153b666d2d2d", "name": "a1d8f407a6f384d0d21e153b666d2d2d", "is_reserved": 0, "fusion_lat": 0.0}, {"type": "electric_scooter", "rental_uris": {"ios": "https://dc.lft.to/lastmile_qr_scan", "android": "https://dc.lft.to/lastmile_qr_scan"}, "lon": -77.0354815, "fusion_lon": 0.0, "is_disabled": 0, "lat": 38.92391633333333, "bike_id": "18e9c7fe23c467e2c10446b7ad89a021", "name": "18e9c7fe23c467e2c10446b7ad89a021", "is_reserved": 0, "fusion_lat": 0.0}, {"type": "electric_scooter", "rental_uris": {"ios": "https://dc.lft.to/lastmile_qr_scan", "android": "https://dc.lft.to/lastmile_qr_scan"}, "lon": -77.04015083333333, "fusion_lon": 0.0, "is_disabled": 0, "lat": 38.91801683333333, "bike_id": "76947e9ed6c7d12f46ccf1cdb25ff6a0", "name": "76947e9ed6c7d12f46ccf1cdb25ff6a0", "is_reserved": 0, "fusion_lat": 0.0}, {"type": "electric_scooter", "rental_uris": {"ios": "https://dc.lft.to/lastmile_qr_scan", "android": "https://dc.lft.to/lastmile_qr_scan"}, "lon": -77.03752333333334, "fusion_lon": 0.0, "is_disabled": 0, "lat": 38.925865333333334, "bike_id": "98fe5f9e1743c6d274cb8dde6674d9e3", "name": "98fe5f9e1743c6d274cb8dde6674d9e3", "is_reserved": 0, "fusion_lat": 0.0}, {"type": "electric_bike", "rental_uris": {"ios": "https://dc.lft.to/lastmile_qr_scan", "android": "https://dc.lft.to/lastmile_qr_scan"}, "lon": -77.0563115, "fusion_lon": 0.0, "is_disabled": 0, "lat": 38.9865025, "bike_id": "66a312e4ba7e3c61309e11f430554961", "name": "66a312e4ba7e3c61309e11f430554961", "is_reserved": 0, "fusion_lat": 0.0}, {"type": "electric_scooter", "rental_uris": {"ios": "https://dc.lft.to/lastmile_qr_scan", "android": "https://dc.lft.to/lastmile_qr_scan"}, "lon": -77.02513166666667, "fusion_lon": 0.0, "is_disabled": 0, "lat": 38.9462305, "bike_id": "08f3f43797cb2a585ca27864270cd10b", "name": "08f3f43797cb2a585ca27864270cd10b", "is_reserved": 0, "fusion_lat": 0.0}, {"type": "electric_scooter", "rental_uris": {"ios": "https://dc.lft.to/lastmile_qr_scan", "android": "https://dc.lft.to/lastmile_qr_scan"}, "lon": -77.0334135, "fusion_lon": 0.0, "is_disabled": 0, "lat": 38.91721666666667, "bike_id": "2a4c23f2fb4ef5b70497daae57dee50a", "name": "2a4c23f2fb4ef5b70497daae57dee50a", "is_reserved": 0, "fusion_lat": 0.0}, {"type": "electric_scooter", "rental_uris": {"ios": "https://dc.lft.to/lastmile_qr_scan", "android": "https://dc.lft.to/lastmile_qr_scan"}, "lon": -77.00306066666667, "fusion_lon": 0.0, "is_disabled": 0, "lat": 38.92481466666667, "bike_id": "9d6583e0f47e42c0560effa72dabb56b", "name": "9d6583e0f47e42c0560effa72dabb56b", "is_reserved": 0, "fusion_lat": 0.0}, {"type": "electric_scooter", "rental_uris": {"ios": "https://dc.lft.to/lastmile_qr_scan", "android": "https://dc.lft.to/lastmile_qr_scan"}, "lon": -76.98613116666667, "fusion_lon": 0.0, "is_disabled": 0, "lat": 38.88001216666667, "bike_id": "a22912968ced959e6c833a11b9393ce9", "name": "a22912968ced959e6c833a11b9393ce9", "is_reserved": 0, "fusion_lat": 0.0}, {"type": "electric_scooter", "rental_uris": {"ios": "https://dc.lft.to/lastmile_qr_scan", "android": "https://dc.lft.to/lastmile_qr_scan"}, "lon": -76.953362, "fusion_lon": 0.0, "is_disabled": 0, "lat": 38.892385833333336, "bike_id": "1a6bf245b74b18d78bae202e09b7ae91", "name": "1a6bf245b74b18d78bae202e09b7ae91", "is_reserved": 0, "fusion_lat": 0.0}, {"type": "electric_scooter", "rental_uris": {"ios": "https://dc.lft.to/lastmile_qr_scan", "android": "https://dc.lft.to/lastmile_qr_scan"}, "lon": -77.04175366666666, "fusion_lon": 0.0, "is_disabled": 0, "lat": 38.917327666666665, "bike_id": "5f72d22df26ddae4e2d033d8e274e608", "name": "5f72d22df26ddae4e2d033d8e274e608", "is_reserved": 0, "fusion_lat": 0.0}, {"type": "electric_scooter", "rental_uris": {"ios": "https://dc.lft.to/lastmile_qr_scan", "android": "https://dc.lft.to/lastmile_qr_scan"}, "lon": -77.0415845, "fusion_lon": 0.0, "is_disabled": 0, "lat": 38.91605966666667, "bike_id": "7fa14368e71d9512e3864fc028b93134", "name": "7fa14368e71d9512e3864fc028b93134", "is_reserved": 0, "fusion_lat": 0.0}, {"type": "electric_scooter", "rental_uris": {"ios": "https://dc.lft.to/lastmile_qr_scan", "android": "https://dc.lft.to/lastmile_qr_scan"}, "lon": -77.01359833333333, "fusion_lon": 0.0, "is_disabled": 0, "lat": 38.86421966666666, "bike_id": "68af62f6a1c45b386773b91bfd64acbf", "name": "68af62f6a1c45b386773b91bfd64acbf", "is_reserved": 0, "fusion_lat": 0.0}, {"type": "electric_scooter", "rental_uris": {"ios": "https://dc.lft.to/lastmile_qr_scan", "android": "https://dc.lft.to/lastmile_qr_scan"}, "lon": -77.02206033333333, "fusion_lon": 0.0, "is_disabled": 0, "lat": 38.898821166666664, "bike_id": "aa0074ae701e231a5dedec37973a98f5", "name": "aa0074ae701e231a5dedec37973a98f5", "is_reserved": 0, "fusion_lat": 0.0}, {"type": "electric_scooter", "rental_uris": {"ios": "https://dc.lft.to/lastmile_qr_scan", "android": "https://dc.lft.to/lastmile_qr_scan"}, "lon": -77.03589533333333, "fusion_lon": 0.0, "is_disabled": 0, "lat": 38.937436166666664, "bike_id": "2432913681296f802aa88c1e47cc9de4", "name": "2432913681296f802aa88c1e47cc9de4", "is_reserved": 0, "fusion_lat": 0.0}, {"type": "electric_scooter", "rental_uris": {"ios": "https://dc.lft.to/lastmile_qr_scan", "android": "https://dc.lft.to/lastmile_qr_scan"}, "lon": -77.0215825, "fusion_lon": 0.0, "is_disabled": 0, "lat": 38.939715166666666, "bike_id": "c78114c61c66a09eb6ba4dc38f46fdcd", "name": "c78114c61c66a09eb6ba4dc38f46fdcd", "is_reserved": 0, "fusion_lat": 0.0}, {"type": "electric_scooter", "rental_uris": {"ios": "https://dc.lft.to/lastmile_qr_scan", "android": "https://dc.lft.to/lastmile_qr_scan"}, "lon": -77.02887616666666, "fusion_lon": 0.0, "is_disabled": 0, "lat": 38.907246666666666, "bike_id": "9a76b069ba6c2d821399279cd85cedb5", "name": "9a76b069ba6c2d821399279cd85cedb5", "is_reserved": 0, "fusion_lat": 0.0}, {"type": "electric_scooter", "rental_uris": {"ios": "https://dc.lft.to/lastmile_qr_scan", "android": "https://dc.lft.to/lastmile_qr_scan"}, "lon": -77.02098833333334, "fusion_lon": 0.0, "is_disabled": 0, "lat": 38.910794, "bike_id": "28c29f525985eea9eef79158b4e5bcac", "name": "28c29f525985eea9eef79158b4e5bcac", "is_reserved": 0, "fusion_lat": 0.0}, {"type": "electric_scooter", "rental_uris": {"ios": "https://dc.lft.to/lastmile_qr_scan", "android": "https://dc.lft.to/lastmile_qr_scan"}, "lon": -77.03217433333333, "fusion_lon": 0.0, "is_disabled": 0, "lat": 38.89218116666667, "bike_id": "b7f7003ced51f7935b42853109e8b3e4", "name": "b7f7003ced51f7935b42853109e8b3e4", "is_reserved": 0, "fusion_lat": 0.0}, {"type": "electric_scooter", "rental_uris": {"ios": "https://dc.lft.to/lastmile_qr_scan", "android": "https://dc.lft.to/lastmile_qr_scan"}, "lon": -77.0285225, "fusion_lon": 0.0, "is_disabled": 0, "lat": 38.925715333333336, "bike_id": "bdd8e1286ab1c40ba87942523673e5a8", "name": "bdd8e1286ab1c40ba87942523673e5a8", "is_reserved": 0, "fusion_lat": 0.0}, {"type": "electric_scooter", "rental_uris": {"ios": "https://dc.lft.to/lastmile_qr_scan", "android": "https://dc.lft.to/lastmile_qr_scan"}, "lon": -77.04683783333333, "fusion_lon": 0.0, "is_disabled": 0, "lat": 38.89735816666666, "bike_id": "843e49a0732bd852311ff9d02f922b26", "name": "843e49a0732bd852311ff9d02f922b26", "is_reserved": 0, "fusion_lat": 0.0}, {"type": "electric_bike", "rental_uris": {"ios": "https://dc.lft.to/lastmile_qr_scan", "android": "https://dc.lft.to/lastmile_qr_scan"}, "lon": -77.03512516666666, "fusion_lon": 0.0, "is_disabled": 0, "lat": 38.96204916666667, "bike_id": "06eb383146f754cc213d3cc876e0baee", "name": "06eb383146f754cc213d3cc876e0baee", "is_reserved": 0, "fusion_lat": 0.0}, {"type": "electric_scooter", "rental_uris": {"ios": "https://dc.lft.to/lastmile_qr_scan", "android": "https://dc.lft.to/lastmile_qr_scan"}, "lon": -77.02386516666667, "fusion_lon": 0.0, "is_disabled": 0, "lat": 38.917564666666664, "bike_id": "44a78c752d36f68b62e0d5e5e2cceb42", "name": "44a78c752d36f68b62e0d5e5e2cceb42", "is_reserved": 0, "fusion_lat": 0.0}, {"type": "electric_scooter", "rental_uris": {"ios": "https://dc.lft.to/lastmile_qr_scan", "android": "https://dc.lft.to/lastmile_qr_scan"}, "lon": -77.039605, "fusion_lon": 0.0, "is_disabled": 0, "lat": 38.898876666666666, "bike_id": "7f77e2b8ff9dd2606970d29f465b71c5", "name": "7f77e2b8ff9dd2606970d29f465b71c5", "is_reserved": 0, "fusion_lat": 0.0}, {"type": "electric_scooter", "rental_uris": {"ios": "https://dc.lft.to/lastmile_qr_scan", "android": "https://dc.lft.to/lastmile_qr_scan"}, "lon": -77.0257485, "fusion_lon": 0.0, "is_disabled": 0, "lat": 38.90173216666667, "bike_id": "3fe594b8fd9b7d87ddd2013b58b9be7e", "name": "3fe594b8fd9b7d87ddd2013b58b9be7e", "is_reserved": 0, "fusion_lat": 0.0}, {"type": "electric_scooter", "rental_uris": {"ios": "https://dc.lft.to/lastmile_qr_scan", "android": "https://dc.lft.to/lastmile_qr_scan"}, "lon": -77.04033266666667, "fusion_lon": 0.0, "is_disabled": 0, "lat": 38.89917883333333, "bike_id": "cdcdadb66d8f20b2bac6f918578f3712", "name": "cdcdadb66d8f20b2bac6f918578f3712", "is_reserved": 0, "fusion_lat": 0.0}, {"type": "electric_bike", "rental_uris": {"ios": "https://dc.lft.to/lastmile_qr_scan", "android": "https://dc.lft.to/lastmile_qr_scan"}, "lon": -77.04923433333333, "fusion_lon": 0.0, "is_disabled": 0, "lat": 38.813480166666665, "bike_id": "467d75a096468649f0da4b2084d975b9", "name": "467d75a096468649f0da4b2084d975b9", "is_reserved": 0, "fusion_lat": 0.0}, {"type": "electric_scooter", "rental_uris": {"ios": "https://dc.lft.to/lastmile_qr_scan", "android": "https://dc.lft.to/lastmile_qr_scan"}, "lon": -77.0300375, "fusion_lon": 0.0, "is_disabled": 0, "lat": 38.9297415, "bike_id": "3c6218543be5534946b9a574837496d5", "name": "3c6218543be5534946b9a574837496d5", "is_reserved": 0, "fusion_lat": 0.0}, {"type": "electric_bike", "rental_uris": {"ios": "https://dc.lft.to/lastmile_qr_scan", "android": "https://dc.lft.to/lastmile_qr_scan"}, "lon": -76.9836025, "fusion_lon": 0.0, "is_disabled": 0, "lat": 38.894397, "bike_id": "98ff04b879a4849ffc3d0ac1fbed2a0b", "name": "98ff04b879a4849ffc3d0ac1fbed2a0b", "is_reserved": 0, "fusion_lat": 0.0}, {"type": "electric_scooter", "rental_uris": {"ios": "https://dc.lft.to/lastmile_qr_scan", "android": "https://dc.lft.to/lastmile_qr_scan"}, "lon": -77.04186066666666, "fusion_lon": 0.0, "is_disabled": 0, "lat": 38.91765383333333, "bike_id": "710e6a3304fa2f1bdc829575f91b128d", "name": "710e6a3304fa2f1bdc829575f91b128d", "is_reserved": 0, "fusion_lat": 0.0}, {"type": "electric_scooter", "rental_uris": {"ios": "https://dc.lft.to/lastmile_qr_scan", "android": "https://dc.lft.to/lastmile_qr_scan"}, "lon": -76.97729233333334, "fusion_lon": 0.0, "is_disabled": 0, "lat": 38.89517633333333, "bike_id": "1daabc5b1dfa52d7440cbbf29f2f8238", "name": "1daabc5b1dfa52d7440cbbf29f2f8238", "is_reserved": 0, "fusion_lat": 0.0}, {"type": "electric_scooter", "rental_uris": {"ios": "https://dc.lft.to/lastmile_qr_scan", "android": "https://dc.lft.to/lastmile_qr_scan"}, "lon": -77.00204266666667, "fusion_lon": 0.0, "is_disabled": 0, "lat": 38.9003485, "bike_id": "31b1cd3b1fc91a1ac181e8c2f53397a1", "name": "31b1cd3b1fc91a1ac181e8c2f53397a1", "is_reserved": 0, "fusion_lat": 0.0}, {"type": "electric_scooter", "rental_uris": {"ios": "https://dc.lft.to/lastmile_qr_scan", "android": "https://dc.lft.to/lastmile_qr_scan"}, "lon": -77.00210866666667, "fusion_lon": 0.0, "is_disabled": 0, "lat": 38.90434116666667, "bike_id": "091eabbcea4241c248c73fcc5f08231b", "name": "091eabbcea4241c248c73fcc5f08231b", "is_reserved": 0, "fusion_lat": 0.0}, {"type": "electric_scooter", "rental_uris": {"ios": "https://dc.lft.to/lastmile_qr_scan", "android": "https://dc.lft.to/lastmile_qr_scan"}, "lon": -77.03210566666667, "fusion_lon": 0.0, "is_disabled": 0, "lat": 38.917208333333335, "bike_id": "1030df457df4b1979368d604dd195472", "name": "1030df457df4b1979368d604dd195472", "is_reserved": 0, "fusion_lat": 0.0}, {"type": "electric_scooter", "rental_uris": {"ios": "https://dc.lft.to/lastmile_qr_scan", "android": "https://dc.lft.to/lastmile_qr_scan"}, "lon": -77.0329335, "fusion_lon": 0.0, "is_disabled": 0, "lat": 38.95641066666666, "bike_id": "104dd10ef5ba2612c7215afc50b4b75b", "name": "104dd10ef5ba2612c7215afc50b4b75b", "is_reserved": 0, "fusion_lat": 0.0}, {"type": "electric_scooter", "rental_uris": {"ios": "https://dc.lft.to/lastmile_qr_scan", "android": "https://dc.lft.to/lastmile_qr_scan"}, "lon": -76.9888405, "fusion_lon": 0.0, "is_disabled": 0, "lat": 38.8665035, "bike_id": "adef4e0d9cc832a0b916399d73de20f4", "name": "adef4e0d9cc832a0b916399d73de20f4", "is_reserved": 0, "fusion_lat": 0.0}, {"type": "electric_scooter", "rental_uris": {"ios": "https://dc.lft.to/lastmile_qr_scan", "android": "https://dc.lft.to/lastmile_qr_scan"}, "lon": -77.02736733333333, "fusion_lon": 0.0, "is_disabled": 0, "lat": 38.938659, "bike_id": "c5be1ca117ad2cda8cb4d6726b0c08c2", "name": "c5be1ca117ad2cda8cb4d6726b0c08c2", "is_reserved": 0, "fusion_lat": 0.0}, {"type": "electric_scooter", "rental_uris": {"ios": "https://dc.lft.to/lastmile_qr_scan", "android": "https://dc.lft.to/lastmile_qr_scan"}, "lon": -77.05272933333333, "fusion_lon": 0.0, "is_disabled": 0, "lat": 38.925450833333336, "bike_id": "a98f367385504d9d22495694b9c006be", "name": "a98f367385504d9d22495694b9c006be", "is_reserved": 0, "fusion_lat": 0.0}, {"type": "electric_scooter", "rental_uris": {"ios": "https://dc.lft.to/lastmile_qr_scan", "android": "https://dc.lft.to/lastmile_qr_scan"}, "lon": -77.05234666666666, "fusion_lon": 0.0, "is_disabled": 0, "lat": 38.923425333333334, "bike_id": "8b01f96bd67511316382bae33de687c7", "name": "8b01f96bd67511316382bae33de687c7", "is_reserved": 0, "fusion_lat": 0.0}, {"type": "electric_scooter", "rental_uris": {"ios": "https://dc.lft.to/lastmile_qr_scan", "android": "https://dc.lft.to/lastmile_qr_scan"}, "lon": -77.04231433333334, "fusion_lon": 0.0, "is_disabled": 0, "lat": 38.92199933333333, "bike_id": "925c085889c616adf0c63df2359d1e70", "name": "925c085889c616adf0c63df2359d1e70", "is_reserved": 0, "fusion_lat": 0.0}, {"type": "electric_scooter", "rental_uris": {"ios": "https://dc.lft.to/lastmile_qr_scan", "android": "https://dc.lft.to/lastmile_qr_scan"}, "lon": -77.0269265, "fusion_lon": 0.0, "is_disabled": 0, "lat": 38.911294833333336, "bike_id": "6d34ab4503c394fffd4a18aaca60e443", "name": "6d34ab4503c394fffd4a18aaca60e443", "is_reserved": 0, "fusion_lat": 0.0}, {"type": "electric_scooter", "rental_uris": {"ios": "https://dc.lft.to/lastmile_qr_scan", "android": "https://dc.lft.to/lastmile_qr_scan"}, "lon": -77.04150133333333, "fusion_lon": 0.0, "is_disabled": 0, "lat": 38.89223166666667, "bike_id": "48e53ed5c488fd2f14b831e6e0490b02", "name": "48e53ed5c488fd2f14b831e6e0490b02", "is_reserved": 0, "fusion_lat": 0.0}, {"type": "electric_bike", "rental_uris": {"ios": "https://dc.lft.to/lastmile_qr_scan", "android": "https://dc.lft.to/lastmile_qr_scan"}, "lon": -77.12731466666666, "fusion_lon": 0.0, "is_disabled": 0, "lat": 38.89559366666667, "bike_id": "d0518f8e705c1d0e802a6d10d62c8c66", "name": "d0518f8e705c1d0e802a6d10d62c8c66", "is_reserved": 0, "fusion_lat": 0.0}, {"type": "electric_scooter", "rental_uris": {"ios": "https://dc.lft.to/lastmile_qr_scan", "android": "https://dc.lft.to/lastmile_qr_scan"}, "lon": -77.01943983333334, "fusion_lon": 0.0, "is_disabled": 0, "lat": 38.949271333333336, "bike_id": "8fcdcbd8e3b197a541f8d54f63067bdf", "name": "8fcdcbd8e3b197a541f8d54f63067bdf", "is_reserved": 0, "fusion_lat": 0.0}, {"type": "electric_scooter", "rental_uris": {"ios": "https://dc.lft.to/lastmile_qr_scan", "android": "https://dc.lft.to/lastmile_qr_scan"}, "lon": -77.03438683333333, "fusion_lon": 0.0, "is_disabled": 0, "lat": 38.907279333333335, "bike_id": "994d6c167dd19949db4dd1faca51e232", "name": "994d6c167dd19949db4dd1faca51e232", "is_reserved": 0, "fusion_lat": 0.0}, {"type": "electric_scooter", "rental_uris": {"ios": "https://dc.lft.to/lastmile_qr_scan", "android": "https://dc.lft.to/lastmile_qr_scan"}, "lon": -77.025821, "fusion_lon": 0.0, "is_disabled": 0, "lat": 38.909623, "bike_id": "3b6ccae87e478381e81d855d8e5a51bb", "name": "3b6ccae87e478381e81d855d8e5a51bb", "is_reserved": 0, "fusion_lat": 0.0}, {"type": "electric_scooter", "rental_uris": {"ios": "https://dc.lft.to/lastmile_qr_scan", "android": "https://dc.lft.to/lastmile_qr_scan"}, "lon": -77.0342325, "fusion_lon": 0.0, "is_disabled": 0, "lat": 38.9224215, "bike_id": "284974fc3ad9772e541b9e215e9c0bfe", "name": "284974fc3ad9772e541b9e215e9c0bfe", "is_reserved": 0, "fusion_lat": 0.0}, {"type": "electric_scooter", "rental_uris": {"ios": "https://dc.lft.to/lastmile_qr_scan", "android": "https://dc.lft.to/lastmile_qr_scan"}, "lon": -77.02299166666667, "fusion_lon": 0.0, "is_disabled": 0, "lat": 38.917489833333335, "bike_id": "aef04e16c6533d2c6d63c57d88fc63ca", "name": "aef04e16c6533d2c6d63c57d88fc63ca", "is_reserved": 0, "fusion_lat": 0.0}, {"type": "electric_scooter", "rental_uris": {"ios": "https://dc.lft.to/lastmile_qr_scan", "android": "https://dc.lft.to/lastmile_qr_scan"}, "lon": -77.04028266666667, "fusion_lon": 0.0, "is_disabled": 0, "lat": 38.9180675, "bike_id": "c6f8c5731f1d2e50e946715ef3d9e6d2", "name": "c6f8c5731f1d2e50e946715ef3d9e6d2", "is_reserved": 0, "fusion_lat": 0.0}, {"type": "electric_bike", "rental_uris": {"ios": "https://dc.lft.to/lastmile_qr_scan", "android": "https://dc.lft.to/lastmile_qr_scan"}, "lon": -76.9690485, "fusion_lon": 0.0, "is_disabled": 0, "lat": 38.846146833333336, "bike_id": "99fd24586a688fe050a6d208d87f9055", "name": "99fd24586a688fe050a6d208d87f9055", "is_reserved": 0, "fusion_lat": 0.0}, {"type": "electric_scooter", "rental_uris": {"ios": "https://dc.lft.to/lastmile_qr_scan", "android": "https://dc.lft.to/lastmile_qr_scan"}, "lon": -77.03147933333334, "fusion_lon": 0.0, "is_disabled": 0, "lat": 38.91566866666667, "bike_id": "7f074d1d5923ea87c94074363d5f5445", "name": "7f074d1d5923ea87c94074363d5f5445", "is_reserved": 0, "fusion_lat": 0.0}, {"type": "electric_scooter", "rental_uris": {"ios": "https://dc.lft.to/lastmile_qr_scan", "android": "https://dc.lft.to/lastmile_qr_scan"}, "lon": -77.03189333333333, "fusion_lon": 0.0, "is_disabled": 0, "lat": 38.9079985, "bike_id": "5d759f310f5db29ef242421e017e6c97", "name": "5d759f310f5db29ef242421e017e6c97", "is_reserved": 0, "fusion_lat": 0.0}, {"type": "electric_scooter", "rental_uris": {"ios": "https://dc.lft.to/lastmile_qr_scan", "android": "https://dc.lft.to/lastmile_qr_scan"}, "lon": -77.02349316666667, "fusion_lon": 0.0, "is_disabled": 0, "lat": 38.91783366666667, "bike_id": "fb72f5583040e947fd57c0121b6335bf", "name": "fb72f5583040e947fd57c0121b6335bf", "is_reserved": 0, "fusion_lat": 0.0}, {"type": "electric_scooter", "rental_uris": {"ios": "https://dc.lft.to/lastmile_qr_scan", "android": "https://dc.lft.to/lastmile_qr_scan"}, "lon": -77.03854316666667, "fusion_lon": 0.0, "is_disabled": 0, "lat": 38.91550733333333, "bike_id": "1862d549817f30a643b5a35dc28a377f", "name": "1862d549817f30a643b5a35dc28a377f", "is_reserved": 0, "fusion_lat": 0.0}, {"type": "electric_bike", "rental_uris": {"ios": "https://dc.lft.to/lastmile_qr_scan", "android": "https://dc.lft.to/lastmile_qr_scan"}, "lon": -77.12039583333333, "fusion_lon": 0.0, "is_disabled": 0, "lat": 38.855302333333334, "bike_id": "0eacf6ee0c3c66d8af0966fd662a928f", "name": "0eacf6ee0c3c66d8af0966fd662a928f", "is_reserved": 0, "fusion_lat": 0.0}, {"type": "electric_scooter", "rental_uris": {"ios": "https://dc.lft.to/lastmile_qr_scan", "android": "https://dc.lft.to/lastmile_qr_scan"}, "lon": -76.9418835, "fusion_lon": 0.0, "is_disabled": 0, "lat": 38.89751616666667, "bike_id": "4e597abd9c42dd8ba97737cfec7185a4", "name": "4e597abd9c42dd8ba97737cfec7185a4", "is_reserved": 0, "fusion_lat": 0.0}, {"type": "electric_scooter", "rental_uris": {"ios": "https://dc.lft.to/lastmile_qr_scan", "android": "https://dc.lft.to/lastmile_qr_scan"}, "lon": -76.9764985, "fusion_lon": 0.0, "is_disabled": 0, "lat": 38.89852583333333, "bike_id": "6988016ebca19d6177cf9f5256975b67", "name": "6988016ebca19d6177cf9f5256975b67", "is_reserved": 0, "fusion_lat": 0.0}, {"type": "electric_scooter", "rental_uris": {"ios": "https://dc.lft.to/lastmile_qr_scan", "android": "https://dc.lft.to/lastmile_qr_scan"}, "lon": -77.03712116666667, "fusion_lon": 0.0, "is_disabled": 0, "lat": 38.928618666666665, "bike_id": "fe0d310fb77997f63f8bcde413400828", "name": "fe0d310fb77997f63f8bcde413400828", "is_reserved": 0, "fusion_lat": 0.0}, {"type": "electric_scooter", "rental_uris": {"ios": "https://dc.lft.to/lastmile_qr_scan", "android": "https://dc.lft.to/lastmile_qr_scan"}, "lon": -76.97740666666667, "fusion_lon": 0.0, "is_disabled": 0, "lat": 38.86831266666667, "bike_id": "46fb36a8c6dc9fd4038ac902ecf2be3f", "name": "46fb36a8c6dc9fd4038ac902ecf2be3f", "is_reserved": 0, "fusion_lat": 0.0}, {"type": "electric_scooter", "rental_uris": {"ios": "https://dc.lft.to/lastmile_qr_scan", "android": "https://dc.lft.to/lastmile_qr_scan"}, "lon": -77.031974, "fusion_lon": 0.0, "is_disabled": 0, "lat": 38.89801, "bike_id": "ee3b4c039abad165d9f22e43b6d4c746", "name": "ee3b4c039abad165d9f22e43b6d4c746", "is_reserved": 0, "fusion_lat": 0.0}, {"type": "electric_scooter", "rental_uris": {"ios": "https://dc.lft.to/lastmile_qr_scan", "android": "https://dc.lft.to/lastmile_qr_scan"}, "lon": -77.01762333333333, "fusion_lon": 0.0, "is_disabled": 0, "lat": 38.876746, "bike_id": "8c3dc421d7c977ac2301e09630f30dda", "name": "8c3dc421d7c977ac2301e09630f30dda", "is_reserved": 0, "fusion_lat": 0.0}, {"type": "electric_scooter", "rental_uris": {"ios": "https://dc.lft.to/lastmile_qr_scan", "android": "https://dc.lft.to/lastmile_qr_scan"}, "lon": -77.03158566666667, "fusion_lon": 0.0, "is_disabled": 0, "lat": 38.892255666666664, "bike_id": "7bc55128209691987c83d91259312e10", "name": "7bc55128209691987c83d91259312e10", "is_reserved": 0, "fusion_lat": 0.0}, {"type": "electric_scooter", "rental_uris": {"ios": "https://dc.lft.to/lastmile_qr_scan", "android": "https://dc.lft.to/lastmile_qr_scan"}, "lon": -77.05312483333333, "fusion_lon": 0.0, "is_disabled": 0, "lat": 38.9007925, "bike_id": "d30374b0818a92d7aa430193bd61a635", "name": "d30374b0818a92d7aa430193bd61a635", "is_reserved": 0, "fusion_lat": 0.0}, {"type": "electric_bike", "rental_uris": {"ios": "https://dc.lft.to/lastmile_qr_scan", "android": "https://dc.lft.to/lastmile_qr_scan"}, "lon": -77.03446716666667, "fusion_lon": 0.0, "is_disabled": 0, "lat": 38.92480183333333, "bike_id": "c67cc3cd183606d76882ff602dd883dc", "name": "c67cc3cd183606d76882ff602dd883dc", "is_reserved": 0, "fusion_lat": 0.0}, {"type": "electric_scooter", "rental_uris": {"ios": "https://dc.lft.to/lastmile_qr_scan", "android": "https://dc.lft.to/lastmile_qr_scan"}, "lon": -77.0362755, "fusion_lon": 0.0, "is_disabled": 0, "lat": 38.937417333333336, "bike_id": "4ec9c6d048aedcc8fd7d9f4d5c5a68d2", "name": "4ec9c6d048aedcc8fd7d9f4d5c5a68d2", "is_reserved": 0, "fusion_lat": 0.0}, {"type": "electric_bike", "rental_uris": {"ios": "https://dc.lft.to/lastmile_qr_scan", "android": "https://dc.lft.to/lastmile_qr_scan"}, "lon": -76.9462365, "fusion_lon": 0.0, "is_disabled": 0, "lat": 38.832346666666666, "bike_id": "06a68c68378767c48b3fed2b77fc62f8", "name": "06a68c68378767c48b3fed2b77fc62f8", "is_reserved": 0, "fusion_lat": 0.0}, {"type": "electric_scooter", "rental_uris": {"ios": "https://dc.lft.to/lastmile_qr_scan", "android": "https://dc.lft.to/lastmile_qr_scan"}, "lon": -77.04666633333333, "fusion_lon": 0.0, "is_disabled": 0, "lat": 38.892422333333336, "bike_id": "f7d5640d03b011d446248cabc3784326", "name": "f7d5640d03b011d446248cabc3784326", "is_reserved": 0, "fusion_lat": 0.0}, {"type": "electric_scooter", "rental_uris": {"ios": "https://dc.lft.to/lastmile_qr_scan", "android": "https://dc.lft.to/lastmile_qr_scan"}, "lon": -77.04646483333333, "fusion_lon": 0.0, "is_disabled": 0, "lat": 38.8965765, "bike_id": "e48454ed65b577222f513ade6e4b2b48", "name": "e48454ed65b577222f513ade6e4b2b48", "is_reserved": 0, "fusion_lat": 0.0}, {"type": "electric_scooter", "rental_uris": {"ios": "https://dc.lft.to/lastmile_qr_scan", "android": "https://dc.lft.to/lastmile_qr_scan"}, "lon": -77.04645083333334, "fusion_lon": 0.0, "is_disabled": 0, "lat": 38.892225833333335, "bike_id": "048ac2795c396da1980464245f090b5d", "name": "048ac2795c396da1980464245f090b5d", "is_reserved": 0, "fusion_lat": 0.0}, {"type": "electric_scooter", "rental_uris": {"ios": "https://dc.lft.to/lastmile_qr_scan", "android": "https://dc.lft.to/lastmile_qr_scan"}, "lon": -77.02651666666667, "fusion_lon": 0.0, "is_disabled": 0, "lat": 38.9248095, "bike_id": "317ea01b053a4d26f0790ed7729ab339", "name": "317ea01b053a4d26f0790ed7729ab339", "is_reserved": 0, "fusion_lat": 0.0}, {"type": "electric_scooter", "rental_uris": {"ios": "https://dc.lft.to/lastmile_qr_scan", "android": "https://dc.lft.to/lastmile_qr_scan"}, "lon": -77.03964533333334, "fusion_lon": 0.0, "is_disabled": 0, "lat": 38.89908366666667, "bike_id": "b7a0e048b86e913270970019e0ceb036", "name": "b7a0e048b86e913270970019e0ceb036", "is_reserved": 0, "fusion_lat": 0.0}, {"type": "electric_scooter", "rental_uris": {"ios": "https://dc.lft.to/lastmile_qr_scan", "android": "https://dc.lft.to/lastmile_qr_scan"}, "lon": -76.986893, "fusion_lon": 0.0, "is_disabled": 0, "lat": 38.867215, "bike_id": "4f7483624ebddd1718bd67d5204d33ac", "name": "4f7483624ebddd1718bd67d5204d33ac", "is_reserved": 0, "fusion_lat": 0.0}, {"type": "electric_scooter", "rental_uris": {"ios": "https://dc.lft.to/lastmile_qr_scan", "android": "https://dc.lft.to/lastmile_qr_scan"}, "lon": -77.03996933333333, "fusion_lon": 0.0, "is_disabled": 0, "lat": 38.91421866666666, "bike_id": "6ad2959494391c6fbc13eea8370e4430", "name": "6ad2959494391c6fbc13eea8370e4430", "is_reserved": 0, "fusion_lat": 0.0}, {"type": "electric_scooter", "rental_uris": {"ios": "https://dc.lft.to/lastmile_qr_scan", "android": "https://dc.lft.to/lastmile_qr_scan"}, "lon": -77.0393435, "fusion_lon": 0.0, "is_disabled": 0, "lat": 38.915683666666666, "bike_id": "55013468f2cb853348ca748eb6e612ce", "name": "55013468f2cb853348ca748eb6e612ce", "is_reserved": 0, "fusion_lat": 0.0}, {"type": "electric_scooter", "rental_uris": {"ios": "https://dc.lft.to/lastmile_qr_scan", "android": "https://dc.lft.to/lastmile_qr_scan"}, "lon": -77.0426555, "fusion_lon": 0.0, "is_disabled": 0, "lat": 38.9134275, "bike_id": "cf36a94e1e427dc559dea8f17294ff18", "name": "cf36a94e1e427dc559dea8f17294ff18", "is_reserved": 0, "fusion_lat": 0.0}, {"type": "electric_scooter", "rental_uris": {"ios": "https://dc.lft.to/lastmile_qr_scan", "android": "https://dc.lft.to/lastmile_qr_scan"}, "lon": -77.0467145, "fusion_lon": 0.0, "is_disabled": 0, "lat": 38.909444666666666, "bike_id": "a934b518b447fa8e769ec385caf9bdc8", "name": "a934b518b447fa8e769ec385caf9bdc8", "is_reserved": 0, "fusion_lat": 0.0}, {"type": "electric_scooter", "rental_uris": {"ios": "https://dc.lft.to/lastmile_qr_scan", "android": "https://dc.lft.to/lastmile_qr_scan"}, "lon": -76.97927183333333, "fusion_lon": 0.0, "is_disabled": 0, "lat": 38.905004, "bike_id": "ec070494468d9ef92542ea06fe7f1eee", "name": "ec070494468d9ef92542ea06fe7f1eee", "is_reserved": 0, "fusion_lat": 0.0}, {"type": "electric_scooter", "rental_uris": {"ios": "https://dc.lft.to/lastmile_qr_scan", "android": "https://dc.lft.to/lastmile_qr_scan"}, "lon": -77.0317415, "fusion_lon": 0.0, "is_disabled": 0, "lat": 38.91877016666667, "bike_id": "f99c3061761bb12d0f0ab69f92f36c95", "name": "f99c3061761bb12d0f0ab69f92f36c95", "is_reserved": 0, "fusion_lat": 0.0}, {"type": "electric_scooter", "rental_uris": {"ios": "https://dc.lft.to/lastmile_qr_scan", "android": "https://dc.lft.to/lastmile_qr_scan"}, "lon": -77.03219016666667, "fusion_lon": 0.0, "is_disabled": 0, "lat": 38.8923025, "bike_id": "649575f196344152abb2a4b6e2395ce6", "name": "649575f196344152abb2a4b6e2395ce6", "is_reserved": 0, "fusion_lat": 0.0}, {"type": "electric_scooter", "rental_uris": {"ios": "https://dc.lft.to/lastmile_qr_scan", "android": "https://dc.lft.to/lastmile_qr_scan"}, "lon": -77.0317695, "fusion_lon": 0.0, "is_disabled": 0, "lat": 38.92130483333333, "bike_id": "96b41b8e617e302032a918e8134ff690", "name": "96b41b8e617e302032a918e8134ff690", "is_reserved": 0, "fusion_lat": 0.0}, {"type": "electric_scooter", "rental_uris": {"ios": "https://dc.lft.to/lastmile_qr_scan", "android": "https://dc.lft.to/lastmile_qr_scan"}, "lon": -77.038311, "fusion_lon": 0.0, "is_disabled": 0, "lat": 38.9112095, "bike_id": "fb40b441c0bd5e2ff80ba9660b5a3a6f", "name": "fb40b441c0bd5e2ff80ba9660b5a3a6f", "is_reserved": 0, "fusion_lat": 0.0}, {"type": "electric_scooter", "rental_uris": {"ios": "https://dc.lft.to/lastmile_qr_scan", "android": "https://dc.lft.to/lastmile_qr_scan"}, "lon": -77.03217366666667, "fusion_lon": 0.0, "is_disabled": 0, "lat": 38.892253333333336, "bike_id": "81cc91e28110834ff9c12e6b186d5b69", "name": "81cc91e28110834ff9c12e6b186d5b69", "is_reserved": 0, "fusion_lat": 0.0}, {"type": "electric_scooter", "rental_uris": {"ios": "https://dc.lft.to/lastmile_qr_scan", "android": "https://dc.lft.to/lastmile_qr_scan"}, "lon": -77.04482333333333, "fusion_lon": 0.0, "is_disabled": 0, "lat": 38.9079795, "bike_id": "c674faceb418abdd61153c9680b12e3f", "name": "c674faceb418abdd61153c9680b12e3f", "is_reserved": 0, "fusion_lat": 0.0}, {"type": "electric_scooter", "rental_uris": {"ios": "https://dc.lft.to/lastmile_qr_scan", "android": "https://dc.lft.to/lastmile_qr_scan"}, "lon": -77.03407516666667, "fusion_lon": 0.0, "is_disabled": 0, "lat": 38.927401833333334, "bike_id": "d5bc13f63e0ac3ef1b4bcad8370b70b1", "name": "d5bc13f63e0ac3ef1b4bcad8370b70b1", "is_reserved": 0, "fusion_lat": 0.0}, {"type": "electric_scooter", "rental_uris": {"ios": "https://dc.lft.to/lastmile_qr_scan", "android": "https://dc.lft.to/lastmile_qr_scan"}, "lon": -77.03163733333334, "fusion_lon": 0.0, "is_disabled": 0, "lat": 38.892259333333335, "bike_id": "a310c0a3ae4c0d0bf85bcbf5aa8c2fd0", "name": "a310c0a3ae4c0d0bf85bcbf5aa8c2fd0", "is_reserved": 0, "fusion_lat": 0.0}, {"type": "electric_scooter", "rental_uris": {"ios": "https://dc.lft.to/lastmile_qr_scan", "android": "https://dc.lft.to/lastmile_qr_scan"}, "lon": -76.99360066666667, "fusion_lon": 0.0, "is_disabled": 0, "lat": 38.928403833333334, "bike_id": "646bdec915bb7216d57e70fde6398467", "name": "646bdec915bb7216d57e70fde6398467", "is_reserved": 0, "fusion_lat": 0.0}, {"type": "electric_scooter", "rental_uris": {"ios": "https://dc.lft.to/lastmile_qr_scan", "android": "https://dc.lft.to/lastmile_qr_scan"}, "lon": -77.0412445, "fusion_lon": 0.0, "is_disabled": 0, "lat": 38.934029833333334, "bike_id": "838c1997df09024fe3d8ef0cd34758c3", "name": "838c1997df09024fe3d8ef0cd34758c3", "is_reserved": 0, "fusion_lat": 0.0}, {"type": "electric_scooter", "rental_uris": {"ios": "https://dc.lft.to/lastmile_qr_scan", "android": "https://dc.lft.to/lastmile_qr_scan"}, "lon": -77.03966066666666, "fusion_lon": 0.0, "is_disabled": 0, "lat": 38.89875216666667, "bike_id": "ab1db3f0b72666cd06b4c4fdba0dc43d", "name": "ab1db3f0b72666cd06b4c4fdba0dc43d", "is_reserved": 0, "fusion_lat": 0.0}, {"type": "electric_scooter", "rental_uris": {"ios": "https://dc.lft.to/lastmile_qr_scan", "android": "https://dc.lft.to/lastmile_qr_scan"}, "lon": -76.998467, "fusion_lon": 0.0, "is_disabled": 0, "lat": 38.8999945, "bike_id": "782c450c03308f3de5fbde21f6d81ea9", "name": "782c450c03308f3de5fbde21f6d81ea9", "is_reserved": 0, "fusion_lat": 0.0}, {"type": "electric_scooter", "rental_uris": {"ios": "https://dc.lft.to/lastmile_qr_scan", "android": "https://dc.lft.to/lastmile_qr_scan"}, "lon": -77.0222215, "fusion_lon": 0.0, "is_disabled": 0, "lat": 38.892236833333335, "bike_id": "2110ad106aad3b2012535ff8bef1b3a0", "name": "2110ad106aad3b2012535ff8bef1b3a0", "is_reserved": 0, "fusion_lat": 0.0}, {"type": "electric_scooter", "rental_uris": {"ios": "https://dc.lft.to/lastmile_qr_scan", "android": "https://dc.lft.to/lastmile_qr_scan"}, "lon": -77.072688, "fusion_lon": 0.0, "is_disabled": 0, "lat": 38.934907333333335, "bike_id": "a6b93067c729577c2ac00254defec4a9", "name": "a6b93067c729577c2ac00254defec4a9", "is_reserved": 0, "fusion_lat": 0.0}, {"type": "electric_bike", "rental_uris": {"ios": "https://dc.lft.to/lastmile_qr_scan", "android": "https://dc.lft.to/lastmile_qr_scan"}, "lon": -77.0321735, "fusion_lon": 0.0, "is_disabled": 0, "lat": 38.915543166666666, "bike_id": "82d39f8844fe5c9946f742f808468751", "name": "82d39f8844fe5c9946f742f808468751", "is_reserved": 0, "fusion_lat": 0.0}, {"type": "electric_scooter", "rental_uris": {"ios": "https://dc.lft.to/lastmile_qr_scan", "android": "https://dc.lft.to/lastmile_qr_scan"}, "lon": -77.032938, "fusion_lon": 0.0, "is_disabled": 0, "lat": 38.94715766666667, "bike_id": "f3ec030aa535857bd160c19be6923cfc", "name": "f3ec030aa535857bd160c19be6923cfc", "is_reserved": 0, "fusion_lat": 0.0}, {"type": "electric_scooter", "rental_uris": {"ios": "https://dc.lft.to/lastmile_qr_scan", "android": "https://dc.lft.to/lastmile_qr_scan"}, "lon": -77.021417, "fusion_lon": 0.0, "is_disabled": 0, "lat": 38.925916, "bike_id": "84336ff0f8c3068ce38dd626e229d5aa", "name": "84336ff0f8c3068ce38dd626e229d5aa", "is_reserved": 0, "fusion_lat": 0.0}, {"type": "electric_bike", "rental_uris": {"ios": "https://dc.lft.to/lastmile_qr_scan", "android": "https://dc.lft.to/lastmile_qr_scan"}, "lon": -77.04479966666666, "fusion_lon": 0.0, "is_disabled": 0, "lat": 38.842907333333336, "bike_id": "333ffbd222d0acd23a7df698c7f26a5e", "name": "333ffbd222d0acd23a7df698c7f26a5e", "is_reserved": 0, "fusion_lat": 0.0}, {"type": "electric_scooter", "rental_uris": {"ios": "https://dc.lft.to/lastmile_qr_scan", "android": "https://dc.lft.to/lastmile_qr_scan"}, "lon": -77.02467333333334, "fusion_lon": 0.0, "is_disabled": 0, "lat": 38.93302383333334, "bike_id": "6b40b131e7a21eae8dde35465dc66d22", "name": "6b40b131e7a21eae8dde35465dc66d22", "is_reserved": 0, "fusion_lat": 0.0}, {"type": "electric_scooter", "rental_uris": {"ios": "https://dc.lft.to/lastmile_qr_scan", "android": "https://dc.lft.to/lastmile_qr_scan"}, "lon": -77.03162, "fusion_lon": 0.0, "is_disabled": 0, "lat": 38.915608, "bike_id": "7640d3d561df44d7e141362eefd7d562", "name": "7640d3d561df44d7e141362eefd7d562", "is_reserved": 0, "fusion_lat": 0.0}, {"type": "electric_bike", "rental_uris": {"ios": "https://dc.lft.to/lastmile_qr_scan", "android": "https://dc.lft.to/lastmile_qr_scan"}, "lon": -77.02825916666667, "fusion_lon": 0.0, "is_disabled": 0, "lat": 38.96507283333333, "bike_id": "3f01e3ab016ff839f746be628b08428b", "name": "3f01e3ab016ff839f746be628b08428b", "is_reserved": 0, "fusion_lat": 0.0}, {"type": "electric_scooter", "rental_uris": {"ios": "https://dc.lft.to/lastmile_qr_scan", "android": "https://dc.lft.to/lastmile_qr_scan"}, "lon": -77.03854216666667, "fusion_lon": 0.0, "is_disabled": 0, "lat": 38.915505, "bike_id": "608b904398ecb1149b1874e5390ba680", "name": "608b904398ecb1149b1874e5390ba680", "is_reserved": 0, "fusion_lat": 0.0}, {"type": "electric_scooter", "rental_uris": {"ios": "https://dc.lft.to/lastmile_qr_scan", "android": "https://dc.lft.to/lastmile_qr_scan"}, "lon": -77.04437783333333, "fusion_lon": 0.0, "is_disabled": 0, "lat": 38.91267666666667, "bike_id": "cc7acccc859754f1dff9ac3fc4ad5d60", "name": "cc7acccc859754f1dff9ac3fc4ad5d60", "is_reserved": 0, "fusion_lat": 0.0}, {"type": "electric_scooter", "rental_uris": {"ios": "https://dc.lft.to/lastmile_qr_scan", "android": "https://dc.lft.to/lastmile_qr_scan"}, "lon": -77.00578266666666, "fusion_lon": 0.0, "is_disabled": 0, "lat": 38.905680833333335, "bike_id": "ffc19df7fa4fb7f7bdabd50318383326", "name": "ffc19df7fa4fb7f7bdabd50318383326", "is_reserved": 0, "fusion_lat": 0.0}, {"type": "electric_scooter", "rental_uris": {"ios": "https://dc.lft.to/lastmile_qr_scan", "android": "https://dc.lft.to/lastmile_qr_scan"}, "lon": -77.02412033333333, "fusion_lon": 0.0, "is_disabled": 0, "lat": 38.89193916666667, "bike_id": "8f7b99d910035ce5ee19610edd2007ae", "name": "8f7b99d910035ce5ee19610edd2007ae", "is_reserved": 0, "fusion_lat": 0.0}, {"type": "electric_scooter", "rental_uris": {"ios": "https://dc.lft.to/lastmile_qr_scan", "android": "https://dc.lft.to/lastmile_qr_scan"}, "lon": -77.02615, "fusion_lon": 0.0, "is_disabled": 0, "lat": 38.90565083333333, "bike_id": "c778f729bd3a59526207046838a226ac", "name": "c778f729bd3a59526207046838a226ac", "is_reserved": 0, "fusion_lat": 0.0}, {"type": "electric_scooter", "rental_uris": {"ios": "https://dc.lft.to/lastmile_qr_scan", "android": "https://dc.lft.to/lastmile_qr_scan"}, "lon": -77.029075, "fusion_lon": 0.0, "is_disabled": 0, "lat": 38.925739666666665, "bike_id": "2a945bb1ce854cc0189a36e936b49072", "name": "2a945bb1ce854cc0189a36e936b49072", "is_reserved": 0, "fusion_lat": 0.0}, {"type": "electric_scooter", "rental_uris": {"ios": "https://dc.lft.to/lastmile_qr_scan", "android": "https://dc.lft.to/lastmile_qr_scan"}, "lon": -77.03098016666667, "fusion_lon": 0.0, "is_disabled": 0, "lat": 38.87922, "bike_id": "f53bb8dcab8a6f7daf3ad99c0c85c66e", "name": "f53bb8dcab8a6f7daf3ad99c0c85c66e", "is_reserved": 0, "fusion_lat": 0.0}, {"type": "electric_scooter", "rental_uris": {"ios": "https://dc.lft.to/lastmile_qr_scan", "android": "https://dc.lft.to/lastmile_qr_scan"}, "lon": -76.93184466666666, "fusion_lon": 0.0, "is_disabled": 0, "lat": 38.898787, "bike_id": "53889cdfac67d4946f7451b26b972595", "name": "53889cdfac67d4946f7451b26b972595", "is_reserved": 0, "fusion_lat": 0.0}, {"type": "electric_scooter", "rental_uris": {"ios": "https://dc.lft.to/lastmile_qr_scan", "android": "https://dc.lft.to/lastmile_qr_scan"}, "lon": -77.01754383333333, "fusion_lon": 0.0, "is_disabled": 0, "lat": 38.877256833333334, "bike_id": "7ee3e766ea3e785b18bc585bb3159f4d", "name": "7ee3e766ea3e785b18bc585bb3159f4d", "is_reserved": 0, "fusion_lat": 0.0}, {"type": "electric_bike", "rental_uris": {"ios": "https://dc.lft.to/lastmile_qr_scan", "android": "https://dc.lft.to/lastmile_qr_scan"}, "lon": -77.10125883333333, "fusion_lon": 0.0, "is_disabled": 0, "lat": 38.8521005, "bike_id": "91dde9e0eaf89821cc4b4d6012ea102f", "name": "91dde9e0eaf89821cc4b4d6012ea102f", "is_reserved": 0, "fusion_lat": 0.0}, {"type": "electric_scooter", "rental_uris": {"ios": "https://dc.lft.to/lastmile_qr_scan", "android": "https://dc.lft.to/lastmile_qr_scan"}, "lon": -77.04147616666667, "fusion_lon": 0.0, "is_disabled": 0, "lat": 38.8922335, "bike_id": "a6633d284eee3df6cb9c93b8d7041cbc", "name": "a6633d284eee3df6cb9c93b8d7041cbc", "is_reserved": 0, "fusion_lat": 0.0}, {"type": "electric_scooter", "rental_uris": {"ios": "https://dc.lft.to/lastmile_qr_scan", "android": "https://dc.lft.to/lastmile_qr_scan"}, "lon": -77.026966, "fusion_lon": 0.0, "is_disabled": 0, "lat": 38.91824, "bike_id": "26b1add7f5e3e5f52c2e518b139af171", "name": "26b1add7f5e3e5f52c2e518b139af171", "is_reserved": 0, "fusion_lat": 0.0}, {"type": "electric_scooter", "rental_uris": {"ios": "https://dc.lft.to/lastmile_qr_scan", "android": "https://dc.lft.to/lastmile_qr_scan"}, "lon": -77.0266905, "fusion_lon": 0.0, "is_disabled": 0, "lat": 38.91712283333333, "bike_id": "1316da5f80bb5546179f1cbe4588090b", "name": "1316da5f80bb5546179f1cbe4588090b", "is_reserved": 0, "fusion_lat": 0.0}, {"type": "electric_scooter", "rental_uris": {"ios": "https://dc.lft.to/lastmile_qr_scan", "android": "https://dc.lft.to/lastmile_qr_scan"}, "lon": -77.03372366666666, "fusion_lon": 0.0, "is_disabled": 0, "lat": 38.907073833333335, "bike_id": "f620ff48c43896c7532918e74f1dedbd", "name": "f620ff48c43896c7532918e74f1dedbd", "is_reserved": 0, "fusion_lat": 0.0}, {"type": "electric_scooter", "rental_uris": {"ios": "https://dc.lft.to/lastmile_qr_scan", "android": "https://dc.lft.to/lastmile_qr_scan"}, "lon": -77.026965, "fusion_lon": 0.0, "is_disabled": 0, "lat": 38.906808166666664, "bike_id": "c48838ff94c9b9b8256ae7aa960ffc77", "name": "c48838ff94c9b9b8256ae7aa960ffc77", "is_reserved": 0, "fusion_lat": 0.0}, {"type": "electric_scooter", "rental_uris": {"ios": "https://dc.lft.to/lastmile_qr_scan", "android": "https://dc.lft.to/lastmile_qr_scan"}, "lon": -77.02964366666667, "fusion_lon": 0.0, "is_disabled": 0, "lat": 38.91684766666667, "bike_id": "eb18c1f9f0b10d20cc17ef39b12cd6ac", "name": "eb18c1f9f0b10d20cc17ef39b12cd6ac", "is_reserved": 0, "fusion_lat": 0.0}, {"type": "electric_scooter", "rental_uris": {"ios": "https://dc.lft.to/lastmile_qr_scan", "android": "https://dc.lft.to/lastmile_qr_scan"}, "lon": -77.01481216666667, "fusion_lon": 0.0, "is_disabled": 0, "lat": 38.888161833333335, "bike_id": "88c6d80f9ed6c896bed7604a494b65fe", "name": "88c6d80f9ed6c896bed7604a494b65fe", "is_reserved": 0, "fusion_lat": 0.0}, {"type": "electric_scooter", "rental_uris": {"ios": "https://dc.lft.to/lastmile_qr_scan", "android": "https://dc.lft.to/lastmile_qr_scan"}, "lon": -77.02386516666667, "fusion_lon": 0.0, "is_disabled": 0, "lat": 38.916805833333335, "bike_id": "c278e511a69e13e51d853024ed042c03", "name": "c278e511a69e13e51d853024ed042c03", "is_reserved": 0, "fusion_lat": 0.0}, {"type": "electric_scooter", "rental_uris": {"ios": "https://dc.lft.to/lastmile_qr_scan", "android": "https://dc.lft.to/lastmile_qr_scan"}, "lon": -77.03397166666667, "fusion_lon": 0.0, "is_disabled": 0, "lat": 38.9205695, "bike_id": "a619523c5388140ceb2bf27f4533a26e", "name": "a619523c5388140ceb2bf27f4533a26e", "is_reserved": 0, "fusion_lat": 0.0}, {"type": "electric_scooter", "rental_uris": {"ios": "https://dc.lft.to/lastmile_qr_scan", "android": "https://dc.lft.to/lastmile_qr_scan"}, "lon": -77.012074, "fusion_lon": 0.0, "is_disabled": 0, "lat": 38.919838, "bike_id": "3786405839f18bd8460170b20dae4a74", "name": "3786405839f18bd8460170b20dae4a74", "is_reserved": 0, "fusion_lat": 0.0}, {"type": "electric_scooter", "rental_uris": {"ios": "https://dc.lft.to/lastmile_qr_scan", "android": "https://dc.lft.to/lastmile_qr_scan"}, "lon": -77.02694666666666, "fusion_lon": 0.0, "is_disabled": 0, "lat": 38.906828, "bike_id": "5c05b08611f8871a724070dd51bf6fa7", "name": "5c05b08611f8871a724070dd51bf6fa7", "is_reserved": 0, "fusion_lat": 0.0}, {"type": "electric_scooter", "rental_uris": {"ios": "https://dc.lft.to/lastmile_qr_scan", "android": "https://dc.lft.to/lastmile_qr_scan"}, "lon": -77.03138966666667, "fusion_lon": 0.0, "is_disabled": 0, "lat": 38.887492, "bike_id": "e1a900046cb4ed2d0efa4583eaa5c412", "name": "e1a900046cb4ed2d0efa4583eaa5c412", "is_reserved": 0, "fusion_lat": 0.0}, {"type": "electric_scooter", "rental_uris": {"ios": "https://dc.lft.to/lastmile_qr_scan", "android": "https://dc.lft.to/lastmile_qr_scan"}, "lon": -77.07651533333333, "fusion_lon": 0.0, "is_disabled": 0, "lat": 38.93917733333333, "bike_id": "560c3c674b48de3d14a769a2c62435dd", "name": "560c3c674b48de3d14a769a2c62435dd", "is_reserved": 0, "fusion_lat": 0.0}, {"type": "electric_scooter", "rental_uris": {"ios": "https://dc.lft.to/lastmile_qr_scan", "android": "https://dc.lft.to/lastmile_qr_scan"}, "lon": -77.03336966666667, "fusion_lon": 0.0, "is_disabled": 0, "lat": 38.9169105, "bike_id": "7b8256b0bf72275a7b200bbe1b784730", "name": "7b8256b0bf72275a7b200bbe1b784730", "is_reserved": 0, "fusion_lat": 0.0}, {"type": "electric_scooter", "rental_uris": {"ios": "https://dc.lft.to/lastmile_qr_scan", "android": "https://dc.lft.to/lastmile_qr_scan"}, "lon": -77.00118866666666, "fusion_lon": 0.0, "is_disabled": 0, "lat": 38.91236216666667, "bike_id": "445982a9ee3b02419f201bb8160697f2", "name": "445982a9ee3b02419f201bb8160697f2", "is_reserved": 0, "fusion_lat": 0.0}, {"type": "electric_scooter", "rental_uris": {"ios": "https://dc.lft.to/lastmile_qr_scan", "android": "https://dc.lft.to/lastmile_qr_scan"}, "lon": -77.02408183333333, "fusion_lon": 0.0, "is_disabled": 0, "lat": 38.897461166666666, "bike_id": "0ad47aee58b9dbf9422b2d51e3893e47", "name": "0ad47aee58b9dbf9422b2d51e3893e47", "is_reserved": 0, "fusion_lat": 0.0}, {"type": "electric_scooter", "rental_uris": {"ios": "https://dc.lft.to/lastmile_qr_scan", "android": "https://dc.lft.to/lastmile_qr_scan"}, "lon": -77.0344875, "fusion_lon": 0.0, "is_disabled": 0, "lat": 38.9375055, "bike_id": "4af1ab5995c9b550146f4133b65bf0ed", "name": "4af1ab5995c9b550146f4133b65bf0ed", "is_reserved": 0, "fusion_lat": 0.0}, {"type": "electric_scooter", "rental_uris": {"ios": "https://dc.lft.to/lastmile_qr_scan", "android": "https://dc.lft.to/lastmile_qr_scan"}, "lon": -77.043299, "fusion_lon": 0.0, "is_disabled": 0, "lat": 38.89225283333333, "bike_id": "e535f34fa2d25ea1c98b849071ddbed6", "name": "e535f34fa2d25ea1c98b849071ddbed6", "is_reserved": 0, "fusion_lat": 0.0}, {"type": "electric_scooter", "rental_uris": {"ios": "https://dc.lft.to/lastmile_qr_scan", "android": "https://dc.lft.to/lastmile_qr_scan"}, "lon": -77.03839533333333, "fusion_lon": 0.0, "is_disabled": 0, "lat": 38.916463, "bike_id": "96425484cfc58e11504b0af009ddf4ca", "name": "96425484cfc58e11504b0af009ddf4ca", "is_reserved": 0, "fusion_lat": 0.0}, {"type": "electric_scooter", "rental_uris": {"ios": "https://dc.lft.to/lastmile_qr_scan", "android": "https://dc.lft.to/lastmile_qr_scan"}, "lon": -77.04180166666667, "fusion_lon": 0.0, "is_disabled": 0, "lat": 38.918381, "bike_id": "6e0d2e7590a630eb165454d196f0b008", "name": "6e0d2e7590a630eb165454d196f0b008", "is_reserved": 0, "fusion_lat": 0.0}, {"type": "electric_scooter", "rental_uris": {"ios": "https://dc.lft.to/lastmile_qr_scan", "android": "https://dc.lft.to/lastmile_qr_scan"}, "lon": -77.02220566666666, "fusion_lon": 0.0, "is_disabled": 0, "lat": 38.89224, "bike_id": "b90a87738e4a506e19e57a2c3a46d531", "name": "b90a87738e4a506e19e57a2c3a46d531", "is_reserved": 0, "fusion_lat": 0.0}, {"type": "electric_scooter", "rental_uris": {"ios": "https://dc.lft.to/lastmile_qr_scan", "android": "https://dc.lft.to/lastmile_qr_scan"}, "lon": -77.02497283333334, "fusion_lon": 0.0, "is_disabled": 0, "lat": 38.919403, "bike_id": "2c97a12752c04229d0db330f9d6344a2", "name": "2c97a12752c04229d0db330f9d6344a2", "is_reserved": 0, "fusion_lat": 0.0}, {"type": "electric_scooter", "rental_uris": {"ios": "https://dc.lft.to/lastmile_qr_scan", "android": "https://dc.lft.to/lastmile_qr_scan"}, "lon": -77.00479816666666, "fusion_lon": 0.0, "is_disabled": 0, "lat": 38.87795933333334, "bike_id": "cc51c8c41a18aea79ff530f3aac52c06", "name": "cc51c8c41a18aea79ff530f3aac52c06", "is_reserved": 0, "fusion_lat": 0.0}, {"type": "electric_scooter", "rental_uris": {"ios": "https://dc.lft.to/lastmile_qr_scan", "android": "https://dc.lft.to/lastmile_qr_scan"}, "lon": -77.02433483333333, "fusion_lon": 0.0, "is_disabled": 0, "lat": 38.9024895, "bike_id": "03686f48edf7952c23e67a22bbc5ca69", "name": "03686f48edf7952c23e67a22bbc5ca69", "is_reserved": 0, "fusion_lat": 0.0}, {"type": "electric_scooter", "rental_uris": {"ios": "https://dc.lft.to/lastmile_qr_scan", "android": "https://dc.lft.to/lastmile_qr_scan"}, "lon": -77.03345633333333, "fusion_lon": 0.0, "is_disabled": 0, "lat": 38.9170495, "bike_id": "9f5d24d7c891c354baf68ada3a4157e1", "name": "9f5d24d7c891c354baf68ada3a4157e1", "is_reserved": 0, "fusion_lat": 0.0}, {"type": "electric_scooter", "rental_uris": {"ios": "https://dc.lft.to/lastmile_qr_scan", "android": "https://dc.lft.to/lastmile_qr_scan"}, "lon": -77.02421616666666, "fusion_lon": 0.0, "is_disabled": 0, "lat": 38.933624333333334, "bike_id": "91daacdf3c6c2f018373e338662d705c", "name": "91daacdf3c6c2f018373e338662d705c", "is_reserved": 0, "fusion_lat": 0.0}, {"type": "electric_scooter", "rental_uris": {"ios": "https://dc.lft.to/lastmile_qr_scan", "android": "https://dc.lft.to/lastmile_qr_scan"}, "lon": -77.00431066666667, "fusion_lon": 0.0, "is_disabled": 0, "lat": 38.876503, "bike_id": "de1fa03da7cce1c703dbf520fc79b712", "name": "de1fa03da7cce1c703dbf520fc79b712", "is_reserved": 0, "fusion_lat": 0.0}, {"type": "electric_bike", "rental_uris": {"ios": "https://dc.lft.to/lastmile_qr_scan", "android": "https://dc.lft.to/lastmile_qr_scan"}, "lon": -76.93885116666667, "fusion_lon": 0.0, "is_disabled": 0, "lat": 38.9562295, "bike_id": "e7129ec71765b8dc8982ecd0f936dfb0", "name": "e7129ec71765b8dc8982ecd0f936dfb0", "is_reserved": 0, "fusion_lat": 0.0}, {"type": "electric_scooter", "rental_uris": {"ios": "https://dc.lft.to/lastmile_qr_scan", "android": "https://dc.lft.to/lastmile_qr_scan"}, "lon": -77.03219483333334, "fusion_lon": 0.0, "is_disabled": 0, "lat": 38.920003333333334, "bike_id": "df01872bed42be0d44cd7fe653ce6d51", "name": "df01872bed42be0d44cd7fe653ce6d51", "is_reserved": 0, "fusion_lat": 0.0}, {"type": "electric_bike", "rental_uris": {"ios": "https://dc.lft.to/lastmile_qr_scan", "android": "https://dc.lft.to/lastmile_qr_scan"}, "lon": -77.0282175, "fusion_lon": 0.0, "is_disabled": 0, "lat": 38.93140483333333, "bike_id": "f2819b356a400264b67f3801740753a0", "name": "f2819b356a400264b67f3801740753a0", "is_reserved": 0, "fusion_lat": 0.0}, {"type": "electric_scooter", "rental_uris": {"ios": "https://dc.lft.to/lastmile_qr_scan", "android": "https://dc.lft.to/lastmile_qr_scan"}, "lon": -77.02589683333333, "fusion_lon": 0.0, "is_disabled": 0, "lat": 38.9041345, "bike_id": "d1543433c774d64340a06646d7a90c39", "name": "d1543433c774d64340a06646d7a90c39", "is_reserved": 0, "fusion_lat": 0.0}, {"type": "electric_bike", "rental_uris": {"ios": "https://dc.lft.to/lastmile_qr_scan", "android": "https://dc.lft.to/lastmile_qr_scan"}, "lon": -76.98551616666667, "fusion_lon": 0.0, "is_disabled": 0, "lat": 38.85207966666667, "bike_id": "786ea8762b60eab0bfb02ee585296d31", "name": "786ea8762b60eab0bfb02ee585296d31", "is_reserved": 0, "fusion_lat": 0.0}, {"type": "electric_scooter", "rental_uris": {"ios": "https://dc.lft.to/lastmile_qr_scan", "android": "https://dc.lft.to/lastmile_qr_scan"}, "lon": -77.053818, "fusion_lon": 0.0, "is_disabled": 0, "lat": 38.910689, "bike_id": "6a8740a67206b4a5fe1925bb8aedefd6", "name": "6a8740a67206b4a5fe1925bb8aedefd6", "is_reserved": 0, "fusion_lat": 0.0}, {"type": "electric_bike", "rental_uris": {"ios": "https://dc.lft.to/lastmile_qr_scan", "android": "https://dc.lft.to/lastmile_qr_scan"}, "lon": -76.90435966666666, "fusion_lon": 0.0, "is_disabled": 0, "lat": 38.897776, "bike_id": "44f26922ec1d51be55290049ead632d4", "name": "44f26922ec1d51be55290049ead632d4", "is_reserved": 0, "fusion_lat": 0.0}, {"type": "electric_scooter", "rental_uris": {"ios": "https://dc.lft.to/lastmile_qr_scan", "android": "https://dc.lft.to/lastmile_qr_scan"}, "lon": -77.05742433333333, "fusion_lon": 0.0, "is_disabled": 0, "lat": 38.925737833333336, "bike_id": "e96af814fb8358d78961a4f0d1336c8a", "name": "e96af814fb8358d78961a4f0d1336c8a", "is_reserved": 0, "fusion_lat": 0.0}, {"type": "electric_scooter", "rental_uris": {"ios": "https://dc.lft.to/lastmile_qr_scan", "android": "https://dc.lft.to/lastmile_qr_scan"}, "lon": -77.03263966666667, "fusion_lon": 0.0, "is_disabled": 0, "lat": 38.935232666666664, "bike_id": "145995e126ef0a4e271cf9f2184317be", "name": "145995e126ef0a4e271cf9f2184317be", "is_reserved": 0, "fusion_lat": 0.0}, {"type": "electric_scooter", "rental_uris": {"ios": "https://dc.lft.to/lastmile_qr_scan", "android": "https://dc.lft.to/lastmile_qr_scan"}, "lon": -77.01340966666666, "fusion_lon": 0.0, "is_disabled": 0, "lat": 38.919160833333336, "bike_id": "cce223c2cd5ea9384b4ceb8e842faa22", "name": "cce223c2cd5ea9384b4ceb8e842faa22", "is_reserved": 0, "fusion_lat": 0.0}, {"type": "electric_scooter", "rental_uris": {"ios": "https://dc.lft.to/lastmile_qr_scan", "android": "https://dc.lft.to/lastmile_qr_scan"}, "lon": -77.021751, "fusion_lon": 0.0, "is_disabled": 0, "lat": 38.893021166666664, "bike_id": "cb6d67e38ca1c70518f645da04ad412b", "name": "cb6d67e38ca1c70518f645da04ad412b", "is_reserved": 0, "fusion_lat": 0.0}, {"type": "electric_scooter", "rental_uris": {"ios": "https://dc.lft.to/lastmile_qr_scan", "android": "https://dc.lft.to/lastmile_qr_scan"}, "lon": -77.031574, "fusion_lon": 0.0, "is_disabled": 0, "lat": 38.89227283333334, "bike_id": "3c2448a886ebf4cd121d2986e9e7b766", "name": "3c2448a886ebf4cd121d2986e9e7b766", "is_reserved": 0, "fusion_lat": 0.0}, {"type": "electric_scooter", "rental_uris": {"ios": "https://dc.lft.to/lastmile_qr_scan", "android": "https://dc.lft.to/lastmile_qr_scan"}, "lon": -77.036647, "fusion_lon": 0.0, "is_disabled": 0, "lat": 38.9225325, "bike_id": "82db648062fcc26b82c2b74b29c1aca6", "name": "82db648062fcc26b82c2b74b29c1aca6", "is_reserved": 0, "fusion_lat": 0.0}, {"type": "electric_scooter", "rental_uris": {"ios": "https://dc.lft.to/lastmile_qr_scan", "android": "https://dc.lft.to/lastmile_qr_scan"}, "lon": -77.03880733333334, "fusion_lon": 0.0, "is_disabled": 0, "lat": 38.906189166666664, "bike_id": "1da07908a2607f2d24625f4d6cdc4562", "name": "1da07908a2607f2d24625f4d6cdc4562", "is_reserved": 0, "fusion_lat": 0.0}, {"type": "electric_bike", "rental_uris": {"ios": "https://dc.lft.to/lastmile_qr_scan", "android": "https://dc.lft.to/lastmile_qr_scan"}, "lon": -77.0208945, "fusion_lon": 0.0, "is_disabled": 0, "lat": 38.937179, "bike_id": "ee709728eba7bd89132a41089190125a", "name": "ee709728eba7bd89132a41089190125a", "is_reserved": 0, "fusion_lat": 0.0}, {"type": "electric_scooter", "rental_uris": {"ios": "https://dc.lft.to/lastmile_qr_scan", "android": "https://dc.lft.to/lastmile_qr_scan"}, "lon": -77.04473783333333, "fusion_lon": 0.0, "is_disabled": 0, "lat": 38.91131716666666, "bike_id": "288db2bf775d087c8714d1e651fb9d16", "name": "288db2bf775d087c8714d1e651fb9d16", "is_reserved": 0, "fusion_lat": 0.0}, {"type": "electric_scooter", "rental_uris": {"ios": "https://dc.lft.to/lastmile_qr_scan", "android": "https://dc.lft.to/lastmile_qr_scan"}, "lon": -76.96519416666666, "fusion_lon": 0.0, "is_disabled": 0, "lat": 38.87632383333333, "bike_id": "1539b08e5855e18916b8bcc4a693de54", "name": "1539b08e5855e18916b8bcc4a693de54", "is_reserved": 0, "fusion_lat": 0.0}, {"type": "electric_bike", "rental_uris": {"ios": "https://dc.lft.to/lastmile_qr_scan", "android": "https://dc.lft.to/lastmile_qr_scan"}, "lon": -77.11797266666666, "fusion_lon": 0.0, "is_disabled": 0, "lat": 38.873769333333335, "bike_id": "433c19a9fbb3fe6157264e2d1e8e2cec", "name": "433c19a9fbb3fe6157264e2d1e8e2cec", "is_reserved": 0, "fusion_lat": 0.0}, {"type": "electric_scooter", "rental_uris": {"ios": "https://dc.lft.to/lastmile_qr_scan", "android": "https://dc.lft.to/lastmile_qr_scan"}, "lon": -77.04525466666666, "fusion_lon": 0.0, "is_disabled": 0, "lat": 38.91601416666666, "bike_id": "7a4c667f5eb1d5bbf441713e0838e449", "name": "7a4c667f5eb1d5bbf441713e0838e449", "is_reserved": 0, "fusion_lat": 0.0}, {"type": "electric_scooter", "rental_uris": {"ios": "https://dc.lft.to/lastmile_qr_scan", "android": "https://dc.lft.to/lastmile_qr_scan"}, "lon": -76.96524866666667, "fusion_lon": 0.0, "is_disabled": 0, "lat": 38.876315166666664, "bike_id": "04b7af86cdc7ae568062abcd60aaccf8", "name": "04b7af86cdc7ae568062abcd60aaccf8", "is_reserved": 0, "fusion_lat": 0.0}, {"type": "electric_bike", "rental_uris": {"ios": "https://dc.lft.to/lastmile_qr_scan", "android": "https://dc.lft.to/lastmile_qr_scan"}, "lon": -77.02617716666667, "fusion_lon": 0.0, "is_disabled": 0, "lat": 38.969301, "bike_id": "fe161647a193881f70ae7e2ccdcae26a", "name": "fe161647a193881f70ae7e2ccdcae26a", "is_reserved": 0, "fusion_lat": 0.0}, {"type": "electric_scooter", "rental_uris": {"ios": "https://dc.lft.to/lastmile_qr_scan", "android": "https://dc.lft.to/lastmile_qr_scan"}, "lon": -77.031987, "fusion_lon": 0.0, "is_disabled": 0, "lat": 38.91637566666667, "bike_id": "9c184acb4f5aa4bd1ead708326f2e637", "name": "9c184acb4f5aa4bd1ead708326f2e637", "is_reserved": 0, "fusion_lat": 0.0}, {"type": "electric_scooter", "rental_uris": {"ios": "https://dc.lft.to/lastmile_qr_scan", "android": "https://dc.lft.to/lastmile_qr_scan"}, "lon": -77.0228945, "fusion_lon": 0.0, "is_disabled": 0, "lat": 38.914476, "bike_id": "504b18a2bab7d080e44c9a186033d9b4", "name": "504b18a2bab7d080e44c9a186033d9b4", "is_reserved": 0, "fusion_lat": 0.0}, {"type": "electric_scooter", "rental_uris": {"ios": "https://dc.lft.to/lastmile_qr_scan", "android": "https://dc.lft.to/lastmile_qr_scan"}, "lon": -77.034252, "fusion_lon": 0.0, "is_disabled": 0, "lat": 38.90978716666667, "bike_id": "f5b091d46af7473608441020277e22e8", "name": "f5b091d46af7473608441020277e22e8", "is_reserved": 0, "fusion_lat": 0.0}, {"type": "electric_scooter", "rental_uris": {"ios": "https://dc.lft.to/lastmile_qr_scan", "android": "https://dc.lft.to/lastmile_qr_scan"}, "lon": -77.02435966666667, "fusion_lon": 0.0, "is_disabled": 0, "lat": 38.92748266666667, "bike_id": "69426b5eaceced7d8c26f643b6389a1c", "name": "69426b5eaceced7d8c26f643b6389a1c", "is_reserved": 0, "fusion_lat": 0.0}, {"type": "electric_scooter", "rental_uris": {"ios": "https://dc.lft.to/lastmile_qr_scan", "android": "https://dc.lft.to/lastmile_qr_scan"}, "lon": -77.032625, "fusion_lon": 0.0, "is_disabled": 0, "lat": 38.91989083333333, "bike_id": "98666615e9ee0962363ab2ebf3f91283", "name": "98666615e9ee0962363ab2ebf3f91283", "is_reserved": 0, "fusion_lat": 0.0}, {"type": "electric_scooter", "rental_uris": {"ios": "https://dc.lft.to/lastmile_qr_scan", "android": "https://dc.lft.to/lastmile_qr_scan"}, "lon": -77.049248, "fusion_lon": 0.0, "is_disabled": 0, "lat": 38.90082966666667, "bike_id": "290703645e38d8faad7104171b42d521", "name": "290703645e38d8faad7104171b42d521", "is_reserved": 0, "fusion_lat": 0.0}, {"type": "electric_scooter", "rental_uris": {"ios": "https://dc.lft.to/lastmile_qr_scan", "android": "https://dc.lft.to/lastmile_qr_scan"}, "lon": -77.04587, "fusion_lon": 0.0, "is_disabled": 0, "lat": 38.91869033333333, "bike_id": "6bfeae935f6f93f7b7edd5d70a571ed1", "name": "6bfeae935f6f93f7b7edd5d70a571ed1", "is_reserved": 0, "fusion_lat": 0.0}, {"type": "electric_bike", "rental_uris": {"ios": "https://dc.lft.to/lastmile_qr_scan", "android": "https://dc.lft.to/lastmile_qr_scan"}, "lon": -76.986895, "fusion_lon": 0.0, "is_disabled": 0, "lat": 38.94476066666667, "bike_id": "9819505cfee94b2d5b2ffa11268a7dfb", "name": "9819505cfee94b2d5b2ffa11268a7dfb", "is_reserved": 0, "fusion_lat": 0.0}, {"type": "electric_scooter", "rental_uris": {"ios": "https://dc.lft.to/lastmile_qr_scan", "android": "https://dc.lft.to/lastmile_qr_scan"}, "lon": -77.035061, "fusion_lon": 0.0, "is_disabled": 0, "lat": 38.921528, "bike_id": "c89ce195bdfe713eb44d24d18aee8c4a", "name": "c89ce195bdfe713eb44d24d18aee8c4a", "is_reserved": 0, "fusion_lat": 0.0}, {"type": "electric_scooter", "rental_uris": {"ios": "https://dc.lft.to/lastmile_qr_scan", "android": "https://dc.lft.to/lastmile_qr_scan"}, "lon": -77.02753466666667, "fusion_lon": 0.0, "is_disabled": 0, "lat": 38.95779316666667, "bike_id": "98482c3e53c4287df26ef29276ee4fb7", "name": "98482c3e53c4287df26ef29276ee4fb7", "is_reserved": 0, "fusion_lat": 0.0}, {"type": "electric_scooter", "rental_uris": {"ios": "https://dc.lft.to/lastmile_qr_scan", "android": "https://dc.lft.to/lastmile_qr_scan"}, "lon": -77.05229316666667, "fusion_lon": 0.0, "is_disabled": 0, "lat": 38.924620166666664, "bike_id": "38cae517704bd92e53d58bf843587a2e", "name": "38cae517704bd92e53d58bf843587a2e", "is_reserved": 0, "fusion_lat": 0.0}, {"type": "electric_scooter", "rental_uris": {"ios": "https://dc.lft.to/lastmile_qr_scan", "android": "https://dc.lft.to/lastmile_qr_scan"}, "lon": -77.02985183333334, "fusion_lon": 0.0, "is_disabled": 0, "lat": 38.9224115, "bike_id": "53d4c2e3939ddf39d45307c30757de1b", "name": "53d4c2e3939ddf39d45307c30757de1b", "is_reserved": 0, "fusion_lat": 0.0}, {"type": "electric_scooter", "rental_uris": {"ios": "https://dc.lft.to/lastmile_qr_scan", "android": "https://dc.lft.to/lastmile_qr_scan"}, "lon": -77.02183216666667, "fusion_lon": 0.0, "is_disabled": 0, "lat": 38.893041333333336, "bike_id": "1163e462b64023bf5abc596d1593ddce", "name": "1163e462b64023bf5abc596d1593ddce", "is_reserved": 0, "fusion_lat": 0.0}, {"type": "electric_scooter", "rental_uris": {"ios": "https://dc.lft.to/lastmile_qr_scan", "android": "https://dc.lft.to/lastmile_qr_scan"}, "lon": -76.95754483333333, "fusion_lon": 0.0, "is_disabled": 0, "lat": 38.88428716666667, "bike_id": "915d1a7be48cd57c1b24e75498263af0", "name": "915d1a7be48cd57c1b24e75498263af0", "is_reserved": 0, "fusion_lat": 0.0}, {"type": "electric_scooter", "rental_uris": {"ios": "https://dc.lft.to/lastmile_qr_scan", "android": "https://dc.lft.to/lastmile_qr_scan"}, "lon": -77.0438345, "fusion_lon": 0.0, "is_disabled": 0, "lat": 38.91077516666667, "bike_id": "045cee6df60d330a0743c6cc9c34f060", "name": "045cee6df60d330a0743c6cc9c34f060", "is_reserved": 0, "fusion_lat": 0.0}, {"type": "electric_bike", "rental_uris": {"ios": "https://dc.lft.to/lastmile_qr_scan", "android": "https://dc.lft.to/lastmile_qr_scan"}, "lon": -76.96259466666666, "fusion_lon": 0.0, "is_disabled": 0, "lat": 38.88247616666666, "bike_id": "acbd1bb8a999cbf46399ad123d0718d1", "name": "acbd1bb8a999cbf46399ad123d0718d1", "is_reserved": 0, "fusion_lat": 0.0}, {"type": "electric_scooter", "rental_uris": {"ios": "https://dc.lft.to/lastmile_qr_scan", "android": "https://dc.lft.to/lastmile_qr_scan"}, "lon": -76.95413283333333, "fusion_lon": 0.0, "is_disabled": 0, "lat": 38.89066116666667, "bike_id": "6fe5728ad09d201e5bde1fa9aa893603", "name": "6fe5728ad09d201e5bde1fa9aa893603", "is_reserved": 0, "fusion_lat": 0.0}, {"type": "electric_scooter", "rental_uris": {"ios": "https://dc.lft.to/lastmile_qr_scan", "android": "https://dc.lft.to/lastmile_qr_scan"}, "lon": -77.02964066666667, "fusion_lon": 0.0, "is_disabled": 0, "lat": 38.92592, "bike_id": "434d1858e53daf7ceca1aa7b9d2fdd4f", "name": "434d1858e53daf7ceca1aa7b9d2fdd4f", "is_reserved": 0, "fusion_lat": 0.0}, {"type": "electric_scooter", "rental_uris": {"ios": "https://dc.lft.to/lastmile_qr_scan", "android": "https://dc.lft.to/lastmile_qr_scan"}, "lon": -77.04438833333333, "fusion_lon": 0.0, "is_disabled": 0, "lat": 38.912527, "bike_id": "02ccd51717287a5779c7ec0f868135fd", "name": "02ccd51717287a5779c7ec0f868135fd", "is_reserved": 0, "fusion_lat": 0.0}, {"type": "electric_scooter", "rental_uris": {"ios": "https://dc.lft.to/lastmile_qr_scan", "android": "https://dc.lft.to/lastmile_qr_scan"}, "lon": -77.03858233333334, "fusion_lon": 0.0, "is_disabled": 0, "lat": 38.867529, "bike_id": "27e821e121793f5297e9b8ff3fa34649", "name": "27e821e121793f5297e9b8ff3fa34649", "is_reserved": 0, "fusion_lat": 0.0}, {"type": "electric_bike", "rental_uris": {"ios": "https://dc.lft.to/lastmile_qr_scan", "android": "https://dc.lft.to/lastmile_qr_scan"}, "lon": -76.9783, "fusion_lon": 0.0, "is_disabled": 0, "lat": 38.870742666666665, "bike_id": "26b1dbf57ef20484836895f5fca62225", "name": "26b1dbf57ef20484836895f5fca62225", "is_reserved": 0, "fusion_lat": 0.0}, {"type": "electric_scooter", "rental_uris": {"ios": "https://dc.lft.to/lastmile_qr_scan", "android": "https://dc.lft.to/lastmile_qr_scan"}, "lon": -77.00607466666666, "fusion_lon": 0.0, "is_disabled": 0, "lat": 38.871812166666665, "bike_id": "19895c913357b8c2345ce98e27da3868", "name": "19895c913357b8c2345ce98e27da3868", "is_reserved": 0, "fusion_lat": 0.0}, {"type": "electric_scooter", "rental_uris": {"ios": "https://dc.lft.to/lastmile_qr_scan", "android": "https://dc.lft.to/lastmile_qr_scan"}, "lon": -76.98329233333334, "fusion_lon": 0.0, "is_disabled": 0, "lat": 38.9074425, "bike_id": "6d13ae7351dede44f54d8a2c04b4091c", "name": "6d13ae7351dede44f54d8a2c04b4091c", "is_reserved": 0, "fusion_lat": 0.0}, {"type": "electric_scooter", "rental_uris": {"ios": "https://dc.lft.to/lastmile_qr_scan", "android": "https://dc.lft.to/lastmile_qr_scan"}, "lon": -77.02229683333333, "fusion_lon": 0.0, "is_disabled": 0, "lat": 38.91253566666666, "bike_id": "70cbd5990e465fcdb1b88d6d40f006c9", "name": "70cbd5990e465fcdb1b88d6d40f006c9", "is_reserved": 0, "fusion_lat": 0.0}, {"type": "electric_bike", "rental_uris": {"ios": "https://dc.lft.to/lastmile_qr_scan", "android": "https://dc.lft.to/lastmile_qr_scan"}, "lon": -76.9901565, "fusion_lon": 0.0, "is_disabled": 0, "lat": 38.954807333333335, "bike_id": "b24310e1895e9f9ec6870ac490e76930", "name": "b24310e1895e9f9ec6870ac490e76930", "is_reserved": 0, "fusion_lat": 0.0}, {"type": "electric_bike", "rental_uris": {"ios": "https://dc.lft.to/lastmile_qr_scan", "android": "https://dc.lft.to/lastmile_qr_scan"}, "lon": -76.94796316666667, "fusion_lon": 0.0, "is_disabled": 0, "lat": 38.89401933333333, "bike_id": "58de8ff209d6b2c3f83c701dd10822f6", "name": "58de8ff209d6b2c3f83c701dd10822f6", "is_reserved": 0, "fusion_lat": 0.0}, {"type": "electric_scooter", "rental_uris": {"ios": "https://dc.lft.to/lastmile_qr_scan", "android": "https://dc.lft.to/lastmile_qr_scan"}, "lon": -77.03433333333334, "fusion_lon": 0.0, "is_disabled": 0, "lat": 38.9070825, "bike_id": "d4196979491673594eaead703bc069ab", "name": "d4196979491673594eaead703bc069ab", "is_reserved": 0, "fusion_lat": 0.0}, {"type": "electric_bike", "rental_uris": {"ios": "https://dc.lft.to/lastmile_qr_scan", "android": "https://dc.lft.to/lastmile_qr_scan"}, "lon": -77.00672316666666, "fusion_lon": 0.0, "is_disabled": 0, "lat": 38.945139166666664, "bike_id": "02f584a5543e492131e6dd0458004254", "name": "02f584a5543e492131e6dd0458004254", "is_reserved": 0, "fusion_lat": 0.0}, {"type": "electric_scooter", "rental_uris": {"ios": "https://dc.lft.to/lastmile_qr_scan", "android": "https://dc.lft.to/lastmile_qr_scan"}, "lon": -77.02826083333333, "fusion_lon": 0.0, "is_disabled": 0, "lat": 38.88733883333333, "bike_id": "3dd349a40b1aaa9582d62b0245696146", "name": "3dd349a40b1aaa9582d62b0245696146", "is_reserved": 0, "fusion_lat": 0.0}, {"type": "electric_bike", "rental_uris": {"ios": "https://dc.lft.to/lastmile_qr_scan", "android": "https://dc.lft.to/lastmile_qr_scan"}, "lon": -76.98302833333334, "fusion_lon": 0.0, "is_disabled": 0, "lat": 38.962838166666664, "bike_id": "6a3b43219071bd16d2eb710ad7338744", "name": "6a3b43219071bd16d2eb710ad7338744", "is_reserved": 0, "fusion_lat": 0.0}, {"type": "electric_scooter", "rental_uris": {"ios": "https://dc.lft.to/lastmile_qr_scan", "android": "https://dc.lft.to/lastmile_qr_scan"}, "lon": -77.03309966666667, "fusion_lon": 0.0, "is_disabled": 0, "lat": 38.931965166666664, "bike_id": "61a3079c38fd3dc43b0f0424a7e805a4", "name": "61a3079c38fd3dc43b0f0424a7e805a4", "is_reserved": 0, "fusion_lat": 0.0}, {"type": "electric_scooter", "rental_uris": {"ios": "https://dc.lft.to/lastmile_qr_scan", "android": "https://dc.lft.to/lastmile_qr_scan"}, "lon": -76.96678816666666, "fusion_lon": 0.0, "is_disabled": 0, "lat": 38.86958383333333, "bike_id": "8ab6be305c41c7826fd707f520601a59", "name": "8ab6be305c41c7826fd707f520601a59", "is_reserved": 0, "fusion_lat": 0.0}, {"type": "electric_scooter", "rental_uris": {"ios": "https://dc.lft.to/lastmile_qr_scan", "android": "https://dc.lft.to/lastmile_qr_scan"}, "lon": -77.02692566666667, "fusion_lon": 0.0, "is_disabled": 0, "lat": 38.90688083333333, "bike_id": "4c7e05ad97fd1b15e4551f1ad34b6080", "name": "4c7e05ad97fd1b15e4551f1ad34b6080", "is_reserved": 0, "fusion_lat": 0.0}, {"type": "electric_scooter", "rental_uris": {"ios": "https://dc.lft.to/lastmile_qr_scan", "android": "https://dc.lft.to/lastmile_qr_scan"}, "lon": -77.02225683333333, "fusion_lon": 0.0, "is_disabled": 0, "lat": 38.935542166666664, "bike_id": "3230eaf3401ede18ed3432737afd6e5f", "name": "3230eaf3401ede18ed3432737afd6e5f", "is_reserved": 0, "fusion_lat": 0.0}, {"type": "electric_scooter", "rental_uris": {"ios": "https://dc.lft.to/lastmile_qr_scan", "android": "https://dc.lft.to/lastmile_qr_scan"}, "lon": -77.033243, "fusion_lon": 0.0, "is_disabled": 0, "lat": 38.892288, "bike_id": "70c92ba218a8fd5b085b092f518ef37c", "name": "70c92ba218a8fd5b085b092f518ef37c", "is_reserved": 0, "fusion_lat": 0.0}, {"type": "electric_bike", "rental_uris": {"ios": "https://dc.lft.to/lastmile_qr_scan", "android": "https://dc.lft.to/lastmile_qr_scan"}, "lon": -76.98991883333333, "fusion_lon": 0.0, "is_disabled": 0, "lat": 38.863894333333334, "bike_id": "7bbebee2b91468429ca345260b05a0a1", "name": "7bbebee2b91468429ca345260b05a0a1", "is_reserved": 0, "fusion_lat": 0.0}, {"type": "electric_scooter", "rental_uris": {"ios": "https://dc.lft.to/lastmile_qr_scan", "android": "https://dc.lft.to/lastmile_qr_scan"}, "lon": -76.98372966666666, "fusion_lon": 0.0, "is_disabled": 0, "lat": 38.86111966666667, "bike_id": "48b0e65b3595ae109c333c30f2b2a5f1", "name": "48b0e65b3595ae109c333c30f2b2a5f1", "is_reserved": 0, "fusion_lat": 0.0}, {"type": "electric_scooter", "rental_uris": {"ios": "https://dc.lft.to/lastmile_qr_scan", "android": "https://dc.lft.to/lastmile_qr_scan"}, "lon": -77.03458033333334, "fusion_lon": 0.0, "is_disabled": 0, "lat": 38.906232333333335, "bike_id": "f00fb0c8ec5f93a5d4c8e6f360303ebe", "name": "f00fb0c8ec5f93a5d4c8e6f360303ebe", "is_reserved": 0, "fusion_lat": 0.0}, {"type": "electric_scooter", "rental_uris": {"ios": "https://dc.lft.to/lastmile_qr_scan", "android": "https://dc.lft.to/lastmile_qr_scan"}, "lon": -77.02639616666667, "fusion_lon": 0.0, "is_disabled": 0, "lat": 38.9106695, "bike_id": "d88c7803191e20b05ec834ad869eeec0", "name": "d88c7803191e20b05ec834ad869eeec0", "is_reserved": 0, "fusion_lat": 0.0}, {"type": "electric_scooter", "rental_uris": {"ios": "https://dc.lft.to/lastmile_qr_scan", "android": "https://dc.lft.to/lastmile_qr_scan"}, "lon": -77.0403375, "fusion_lon": 0.0, "is_disabled": 0, "lat": 38.91858833333333, "bike_id": "f88614e12fcea3788eda772747820730", "name": "f88614e12fcea3788eda772747820730", "is_reserved": 0, "fusion_lat": 0.0}, {"type": "electric_scooter", "rental_uris": {"ios": "https://dc.lft.to/lastmile_qr_scan", "android": "https://dc.lft.to/lastmile_qr_scan"}, "lon": -77.023856, "fusion_lon": 0.0, "is_disabled": 0, "lat": 38.906296, "bike_id": "2cc58e78c18d9622567bf2f804382ff5", "name": "2cc58e78c18d9622567bf2f804382ff5", "is_reserved": 0, "fusion_lat": 0.0}, {"type": "electric_scooter", "rental_uris": {"ios": "https://dc.lft.to/lastmile_qr_scan", "android": "https://dc.lft.to/lastmile_qr_scan"}, "lon": -77.021677, "fusion_lon": 0.0, "is_disabled": 0, "lat": 38.91662783333334, "bike_id": "75f8d0773f6d22e0c9cd411f07e8d65c", "name": "75f8d0773f6d22e0c9cd411f07e8d65c", "is_reserved": 0, "fusion_lat": 0.0}, {"type": "electric_scooter", "rental_uris": {"ios": "https://dc.lft.to/lastmile_qr_scan", "android": "https://dc.lft.to/lastmile_qr_scan"}, "lon": -76.99255566666666, "fusion_lon": 0.0, "is_disabled": 0, "lat": 38.86392333333333, "bike_id": "116aadfed086ec1912238bc4d3a02f08", "name": "116aadfed086ec1912238bc4d3a02f08", "is_reserved": 0, "fusion_lat": 0.0}, {"type": "electric_scooter", "rental_uris": {"ios": "https://dc.lft.to/lastmile_qr_scan", "android": "https://dc.lft.to/lastmile_qr_scan"}, "lon": -77.01762283333333, "fusion_lon": 0.0, "is_disabled": 0, "lat": 38.87723283333333, "bike_id": "31a762a9b8fc9c93e63e1e6129c5a3a2", "name": "31a762a9b8fc9c93e63e1e6129c5a3a2", "is_reserved": 0, "fusion_lat": 0.0}, {"type": "electric_scooter", "rental_uris": {"ios": "https://dc.lft.to/lastmile_qr_scan", "android": "https://dc.lft.to/lastmile_qr_scan"}, "lon": -77.02201533333333, "fusion_lon": 0.0, "is_disabled": 0, "lat": 38.91550083333333, "bike_id": "93c42a89ef37fceed2ce761ceb3b1cdf", "name": "93c42a89ef37fceed2ce761ceb3b1cdf", "is_reserved": 0, "fusion_lat": 0.0}, {"type": "electric_scooter", "rental_uris": {"ios": "https://dc.lft.to/lastmile_qr_scan", "android": "https://dc.lft.to/lastmile_qr_scan"}, "lon": -77.02794916666667, "fusion_lon": 0.0, "is_disabled": 0, "lat": 38.931003, "bike_id": "e24c49dc0f6039ea3132c16184014d70", "name": "e24c49dc0f6039ea3132c16184014d70", "is_reserved": 0, "fusion_lat": 0.0}, {"type": "electric_scooter", "rental_uris": {"ios": "https://dc.lft.to/lastmile_qr_scan", "android": "https://dc.lft.to/lastmile_qr_scan"}, "lon": -77.03473566666666, "fusion_lon": 0.0, "is_disabled": 0, "lat": 38.90960283333333, "bike_id": "2f5876cf9ab17258865ea9fdc6851211", "name": "2f5876cf9ab17258865ea9fdc6851211", "is_reserved": 0, "fusion_lat": 0.0}, {"type": "electric_scooter", "rental_uris": {"ios": "https://dc.lft.to/lastmile_qr_scan", "android": "https://dc.lft.to/lastmile_qr_scan"}, "lon": -77.0325295, "fusion_lon": 0.0, "is_disabled": 0, "lat": 38.939742833333334, "bike_id": "d2f8a663d9a2d097077b31de12cbc303", "name": "d2f8a663d9a2d097077b31de12cbc303", "is_reserved": 0, "fusion_lat": 0.0}, {"type": "electric_scooter", "rental_uris": {"ios": "https://dc.lft.to/lastmile_qr_scan", "android": "https://dc.lft.to/lastmile_qr_scan"}, "lon": -77.037682, "fusion_lon": 0.0, "is_disabled": 0, "lat": 38.929737833333334, "bike_id": "9b8b9c359826b7ab2de317573b702200", "name": "9b8b9c359826b7ab2de317573b702200", "is_reserved": 0, "fusion_lat": 0.0}, {"type": "electric_bike", "rental_uris": {"ios": "https://dc.lft.to/lastmile_qr_scan", "android": "https://dc.lft.to/lastmile_qr_scan"}, "lon": -77.3609575, "fusion_lon": 0.0, "is_disabled": 0, "lat": 38.93959433333333, "bike_id": "ec14a79229e6072b3981bc203f91fd3e", "name": "ec14a79229e6072b3981bc203f91fd3e", "is_reserved": 0, "fusion_lat": 0.0}, {"type": "electric_bike", "rental_uris": {"ios": "https://dc.lft.to/lastmile_qr_scan", "android": "https://dc.lft.to/lastmile_qr_scan"}, "lon": -77.07378083333333, "fusion_lon": 0.0, "is_disabled": 0, "lat": 38.961778333333335, "bike_id": "5e2beae9c9c19305f35503a12f7e0792", "name": "5e2beae9c9c19305f35503a12f7e0792", "is_reserved": 0, "fusion_lat": 0.0}, {"type": "electric_scooter", "rental_uris": {"ios": "https://dc.lft.to/lastmile_qr_scan", "android": "https://dc.lft.to/lastmile_qr_scan"}, "lon": -77.0298005, "fusion_lon": 0.0, "is_disabled": 0, "lat": 38.9078115, "bike_id": "47290c928bb866399b3bb5d4dd0fc770", "name": "47290c928bb866399b3bb5d4dd0fc770", "is_reserved": 0, "fusion_lat": 0.0}, {"type": "electric_bike", "rental_uris": {"ios": "https://dc.lft.to/lastmile_qr_scan", "android": "https://dc.lft.to/lastmile_qr_scan"}, "lon": -76.8837565, "fusion_lon": 0.0, "is_disabled": 0, "lat": 38.9982175, "bike_id": "f1025b3bd251fbdae265bde38bf1128e", "name": "f1025b3bd251fbdae265bde38bf1128e", "is_reserved": 0, "fusion_lat": 0.0}, {"type": "electric_scooter", "rental_uris": {"ios": "https://dc.lft.to/lastmile_qr_scan", "android": "https://dc.lft.to/lastmile_qr_scan"}, "lon": -77.04915383333334, "fusion_lon": 0.0, "is_disabled": 0, "lat": 38.90087716666667, "bike_id": "7338b6369356ca0e4d533ff0d3075235", "name": "7338b6369356ca0e4d533ff0d3075235", "is_reserved": 0, "fusion_lat": 0.0}, {"type": "electric_bike", "rental_uris": {"ios": "https://dc.lft.to/lastmile_qr_scan", "android": "https://dc.lft.to/lastmile_qr_scan"}, "lon": -76.94582266666667, "fusion_lon": 0.0, "is_disabled": 0, "lat": 38.9533595, "bike_id": "538ba195a14a27b09a76070df4513079", "name": "538ba195a14a27b09a76070df4513079", "is_reserved": 0, "fusion_lat": 0.0}, {"type": "electric_scooter", "rental_uris": {"ios": "https://dc.lft.to/lastmile_qr_scan", "android": "https://dc.lft.to/lastmile_qr_scan"}, "lon": -77.046437, "fusion_lon": 0.0, "is_disabled": 0, "lat": 38.892209, "bike_id": "19f09479a3bb10b4755fa9c1efbaf8e9", "name": "19f09479a3bb10b4755fa9c1efbaf8e9", "is_reserved": 0, "fusion_lat": 0.0}, {"type": "electric_bike", "rental_uris": {"ios": "https://dc.lft.to/lastmile_qr_scan", "android": "https://dc.lft.to/lastmile_qr_scan"}, "lon": -76.99002516666667, "fusion_lon": 0.0, "is_disabled": 0, "lat": 38.95487083333333, "bike_id": "c04ce974c5f89cf701bf9c6b06be23de", "name": "c04ce974c5f89cf701bf9c6b06be23de", "is_reserved": 0, "fusion_lat": 0.0}, {"type": "electric_scooter", "rental_uris": {"ios": "https://dc.lft.to/lastmile_qr_scan", "android": "https://dc.lft.to/lastmile_qr_scan"}, "lon": -76.95136966666666, "fusion_lon": 0.0, "is_disabled": 0, "lat": 38.890410333333335, "bike_id": "0009be7c1db6cc85f5cc9965573c4f62", "name": "0009be7c1db6cc85f5cc9965573c4f62", "is_reserved": 0, "fusion_lat": 0.0}, {"type": "electric_scooter", "rental_uris": {"ios": "https://dc.lft.to/lastmile_qr_scan", "android": "https://dc.lft.to/lastmile_qr_scan"}, "lon": -77.03155816666667, "fusion_lon": 0.0, "is_disabled": 0, "lat": 38.92124283333333, "bike_id": "c6bfab5343393af797a25c4d8e9e7359", "name": "c6bfab5343393af797a25c4d8e9e7359", "is_reserved": 0, "fusion_lat": 0.0}, {"type": "electric_scooter", "rental_uris": {"ios": "https://dc.lft.to/lastmile_qr_scan", "android": "https://dc.lft.to/lastmile_qr_scan"}, "lon": -77.0328285, "fusion_lon": 0.0, "is_disabled": 0, "lat": 38.92750183333333, "bike_id": "3436e678417919296020b439f088911d", "name": "3436e678417919296020b439f088911d", "is_reserved": 0, "fusion_lat": 0.0}, {"type": "electric_scooter", "rental_uris": {"ios": "https://dc.lft.to/lastmile_qr_scan", "android": "https://dc.lft.to/lastmile_qr_scan"}, "lon": -76.93039983333334, "fusion_lon": 0.0, "is_disabled": 0, "lat": 38.895699, "bike_id": "4432447eea40b7c876b09f3d7840120f", "name": "4432447eea40b7c876b09f3d7840120f", "is_reserved": 0, "fusion_lat": 0.0}, {"type": "electric_scooter", "rental_uris": {"ios": "https://dc.lft.to/lastmile_qr_scan", "android": "https://dc.lft.to/lastmile_qr_scan"}, "lon": -77.03188566666667, "fusion_lon": 0.0, "is_disabled": 0, "lat": 38.921057, "bike_id": "82f78f9dc87181d365727313a747f9a0", "name": "82f78f9dc87181d365727313a747f9a0", "is_reserved": 0, "fusion_lat": 0.0}, {"type": "electric_scooter", "rental_uris": {"ios": "https://dc.lft.to/lastmile_qr_scan", "android": "https://dc.lft.to/lastmile_qr_scan"}, "lon": -76.93174166666667, "fusion_lon": 0.0, "is_disabled": 0, "lat": 38.89888216666667, "bike_id": "11f880c5ef4b8742b685682403f30244", "name": "11f880c5ef4b8742b685682403f30244", "is_reserved": 0, "fusion_lat": 0.0}, {"type": "electric_bike", "rental_uris": {"ios": "https://dc.lft.to/lastmile_qr_scan", "android": "https://dc.lft.to/lastmile_qr_scan"}, "lon": -77.02628166666666, "fusion_lon": 0.0, "is_disabled": 0, "lat": 38.96218183333333, "bike_id": "7e65ebb5673fc8031b73cf959b047691", "name": "7e65ebb5673fc8031b73cf959b047691", "is_reserved": 0, "fusion_lat": 0.0}, {"type": "electric_scooter", "rental_uris": {"ios": "https://dc.lft.to/lastmile_qr_scan", "android": "https://dc.lft.to/lastmile_qr_scan"}, "lon": -77.037001, "fusion_lon": 0.0, "is_disabled": 0, "lat": 38.926482666666665, "bike_id": "7a1559b9aad5130ea7f8b3a2e9bf587b", "name": "7a1559b9aad5130ea7f8b3a2e9bf587b", "is_reserved": 0, "fusion_lat": 0.0}, {"type": "electric_scooter", "rental_uris": {"ios": "https://dc.lft.to/lastmile_qr_scan", "android": "https://dc.lft.to/lastmile_qr_scan"}, "lon": -77.05724733333334, "fusion_lon": 0.0, "is_disabled": 0, "lat": 38.933683333333335, "bike_id": "5ed4528dc951e379cad423e17f680e19", "name": "5ed4528dc951e379cad423e17f680e19", "is_reserved": 0, "fusion_lat": 0.0}, {"type": "electric_scooter", "rental_uris": {"ios": "https://dc.lft.to/lastmile_qr_scan", "android": "https://dc.lft.to/lastmile_qr_scan"}, "lon": -77.02527, "fusion_lon": 0.0, "is_disabled": 0, "lat": 38.91247233333333, "bike_id": "578f4cff373f5cb00379a67664fddf24", "name": "578f4cff373f5cb00379a67664fddf24", "is_reserved": 0, "fusion_lat": 0.0}, {"type": "electric_scooter", "rental_uris": {"ios": "https://dc.lft.to/lastmile_qr_scan", "android": "https://dc.lft.to/lastmile_qr_scan"}, "lon": -77.0365385, "fusion_lon": 0.0, "is_disabled": 0, "lat": 38.92136216666667, "bike_id": "bbde8dd6e275df8cbe5a5d94e94d1f41", "name": "bbde8dd6e275df8cbe5a5d94e94d1f41", "is_reserved": 0, "fusion_lat": 0.0}, {"type": "electric_scooter", "rental_uris": {"ios": "https://dc.lft.to/lastmile_qr_scan", "android": "https://dc.lft.to/lastmile_qr_scan"}, "lon": -77.02421533333333, "fusion_lon": 0.0, "is_disabled": 0, "lat": 38.927553833333334, "bike_id": "88675c75b46b85fd8583809474e7c9db", "name": "88675c75b46b85fd8583809474e7c9db", "is_reserved": 0, "fusion_lat": 0.0}, {"type": "electric_scooter", "rental_uris": {"ios": "https://dc.lft.to/lastmile_qr_scan", "android": "https://dc.lft.to/lastmile_qr_scan"}, "lon": -77.03639616666666, "fusion_lon": 0.0, "is_disabled": 0, "lat": 38.917831666666665, "bike_id": "44b0ca91091fec2a7dae6b65444a44b4", "name": "44b0ca91091fec2a7dae6b65444a44b4", "is_reserved": 0, "fusion_lat": 0.0}, {"type": "electric_scooter", "rental_uris": {"ios": "https://dc.lft.to/lastmile_qr_scan", "android": "https://dc.lft.to/lastmile_qr_scan"}, "lon": -77.0435735, "fusion_lon": 0.0, "is_disabled": 0, "lat": 38.90149866666667, "bike_id": "34797278f50b6f486fba89869036608e", "name": "34797278f50b6f486fba89869036608e", "is_reserved": 0, "fusion_lat": 0.0}, {"type": "electric_scooter", "rental_uris": {"ios": "https://dc.lft.to/lastmile_qr_scan", "android": "https://dc.lft.to/lastmile_qr_scan"}, "lon": -77.04385066666667, "fusion_lon": 0.0, "is_disabled": 0, "lat": 38.921030333333334, "bike_id": "b51301ef0a17799cfd83d818f035da56", "name": "b51301ef0a17799cfd83d818f035da56", "is_reserved": 0, "fusion_lat": 0.0}, {"type": "electric_scooter", "rental_uris": {"ios": "https://dc.lft.to/lastmile_qr_scan", "android": "https://dc.lft.to/lastmile_qr_scan"}, "lon": -77.03191366666667, "fusion_lon": 0.0, "is_disabled": 0, "lat": 38.9306625, "bike_id": "ce8a2ececd0afa8ae2be07bcd83c9938", "name": "ce8a2ececd0afa8ae2be07bcd83c9938", "is_reserved": 0, "fusion_lat": 0.0}, {"type": "electric_bike", "rental_uris": {"ios": "https://dc.lft.to/lastmile_qr_scan", "android": "https://dc.lft.to/lastmile_qr_scan"}, "lon": -77.0656945, "fusion_lon": 0.0, "is_disabled": 0, "lat": 38.8699825, "bike_id": "476df107585094cdeacda08fd411e68d", "name": "476df107585094cdeacda08fd411e68d", "is_reserved": 0, "fusion_lat": 0.0}, {"type": "electric_scooter", "rental_uris": {"ios": "https://dc.lft.to/lastmile_qr_scan", "android": "https://dc.lft.to/lastmile_qr_scan"}, "lon": -77.01532016666667, "fusion_lon": 0.0, "is_disabled": 0, "lat": 38.88738433333333, "bike_id": "9ace1b1b7b3feea848a3048eebfab7ac", "name": "9ace1b1b7b3feea848a3048eebfab7ac", "is_reserved": 0, "fusion_lat": 0.0}, {"type": "electric_scooter", "rental_uris": {"ios": "https://dc.lft.to/lastmile_qr_scan", "android": "https://dc.lft.to/lastmile_qr_scan"}, "lon": -77.015217, "fusion_lon": 0.0, "is_disabled": 0, "lat": 38.884128, "bike_id": "dc340c946dc1375ea39a6b69ea07ce95", "name": "dc340c946dc1375ea39a6b69ea07ce95", "is_reserved": 0, "fusion_lat": 0.0}, {"type": "electric_scooter", "rental_uris": {"ios": "https://dc.lft.to/lastmile_qr_scan", "android": "https://dc.lft.to/lastmile_qr_scan"}, "lon": -77.03174716666666, "fusion_lon": 0.0, "is_disabled": 0, "lat": 38.897839166666664, "bike_id": "d90048d8d049809b135ddcd0681b0b0d", "name": "d90048d8d049809b135ddcd0681b0b0d", "is_reserved": 0, "fusion_lat": 0.0}, {"type": "electric_scooter", "rental_uris": {"ios": "https://dc.lft.to/lastmile_qr_scan", "android": "https://dc.lft.to/lastmile_qr_scan"}, "lon": -77.04198183333334, "fusion_lon": 0.0, "is_disabled": 0, "lat": 38.892233166666664, "bike_id": "725c6865356bcc5749e8efb53d3df141", "name": "725c6865356bcc5749e8efb53d3df141", "is_reserved": 0, "fusion_lat": 0.0}, {"type": "electric_scooter", "rental_uris": {"ios": "https://dc.lft.to/lastmile_qr_scan", "android": "https://dc.lft.to/lastmile_qr_scan"}, "lon": -77.06889016666666, "fusion_lon": 0.0, "is_disabled": 0, "lat": 38.90420833333334, "bike_id": "f2b7f5bb30e84b564bd924d477879822", "name": "f2b7f5bb30e84b564bd924d477879822", "is_reserved": 0, "fusion_lat": 0.0}, {"type": "electric_scooter", "rental_uris": {"ios": "https://dc.lft.to/lastmile_qr_scan", "android": "https://dc.lft.to/lastmile_qr_scan"}, "lon": -77.05333633333333, "fusion_lon": 0.0, "is_disabled": 0, "lat": 38.9233985, "bike_id": "7079c7dea42399155c5076eb66d11f96", "name": "7079c7dea42399155c5076eb66d11f96", "is_reserved": 0, "fusion_lat": 0.0}, {"type": "electric_scooter", "rental_uris": {"ios": "https://dc.lft.to/lastmile_qr_scan", "android": "https://dc.lft.to/lastmile_qr_scan"}, "lon": -77.03639566666666, "fusion_lon": 0.0, "is_disabled": 0, "lat": 38.920884666666666, "bike_id": "5ac875a733f91189934177d34b213f07", "name": "5ac875a733f91189934177d34b213f07", "is_reserved": 0, "fusion_lat": 0.0}, {"type": "electric_scooter", "rental_uris": {"ios": "https://dc.lft.to/lastmile_qr_scan", "android": "https://dc.lft.to/lastmile_qr_scan"}, "lon": -77.03676466666667, "fusion_lon": 0.0, "is_disabled": 0, "lat": 38.9191295, "bike_id": "4784b48a603a52c992c59eacad8b1d9f", "name": "4784b48a603a52c992c59eacad8b1d9f", "is_reserved": 0, "fusion_lat": 0.0}, {"type": "electric_scooter", "rental_uris": {"ios": "https://dc.lft.to/lastmile_qr_scan", "android": "https://dc.lft.to/lastmile_qr_scan"}, "lon": -76.9938685, "fusion_lon": 0.0, "is_disabled": 0, "lat": 38.91014, "bike_id": "9233ede24209ba2063dfa78dd921e8d4", "name": "9233ede24209ba2063dfa78dd921e8d4", "is_reserved": 0, "fusion_lat": 0.0}, {"type": "electric_scooter", "rental_uris": {"ios": "https://dc.lft.to/lastmile_qr_scan", "android": "https://dc.lft.to/lastmile_qr_scan"}, "lon": -77.04862116666666, "fusion_lon": 0.0, "is_disabled": 0, "lat": 38.909568666666665, "bike_id": "93bf70e6908c0c67771de6989e78f3dd", "name": "93bf70e6908c0c67771de6989e78f3dd", "is_reserved": 0, "fusion_lat": 0.0}, {"type": "electric_scooter", "rental_uris": {"ios": "https://dc.lft.to/lastmile_qr_scan", "android": "https://dc.lft.to/lastmile_qr_scan"}, "lon": -77.032704, "fusion_lon": 0.0, "is_disabled": 0, "lat": 38.8991325, "bike_id": "ad0dac168527f77d0e1f65241aa4fae9", "name": "ad0dac168527f77d0e1f65241aa4fae9", "is_reserved": 0, "fusion_lat": 0.0}, {"type": "electric_scooter", "rental_uris": {"ios": "https://dc.lft.to/lastmile_qr_scan", "android": "https://dc.lft.to/lastmile_qr_scan"}, "lon": -77.03184333333333, "fusion_lon": 0.0, "is_disabled": 0, "lat": 38.913305333333334, "bike_id": "a2e23773fca090e7d3c8d116671225d1", "name": "a2e23773fca090e7d3c8d116671225d1", "is_reserved": 0, "fusion_lat": 0.0}, {"type": "electric_scooter", "rental_uris": {"ios": "https://dc.lft.to/lastmile_qr_scan", "android": "https://dc.lft.to/lastmile_qr_scan"}, "lon": -77.01743066666667, "fusion_lon": 0.0, "is_disabled": 0, "lat": 38.92039833333333, "bike_id": "11a0555e47b1cb49f8cff3289c08b055", "name": "11a0555e47b1cb49f8cff3289c08b055", "is_reserved": 0, "fusion_lat": 0.0}, {"type": "electric_scooter", "rental_uris": {"ios": "https://dc.lft.to/lastmile_qr_scan", "android": "https://dc.lft.to/lastmile_qr_scan"}, "lon": -77.03209766666667, "fusion_lon": 0.0, "is_disabled": 0, "lat": 38.895750666666665, "bike_id": "5ba23f1209212f325b00447c254f1e4f", "name": "5ba23f1209212f325b00447c254f1e4f", "is_reserved": 0, "fusion_lat": 0.0}, {"type": "electric_scooter", "rental_uris": {"ios": "https://dc.lft.to/lastmile_qr_scan", "android": "https://dc.lft.to/lastmile_qr_scan"}, "lon": -77.01057583333333, "fusion_lon": 0.0, "is_disabled": 0, "lat": 38.896237166666666, "bike_id": "4bd640b1df9e666cc3bc1bfb3544996d", "name": "4bd640b1df9e666cc3bc1bfb3544996d", "is_reserved": 0, "fusion_lat": 0.0}, {"type": "electric_scooter", "rental_uris": {"ios": "https://dc.lft.to/lastmile_qr_scan", "android": "https://dc.lft.to/lastmile_qr_scan"}, "lon": -76.93523766666667, "fusion_lon": 0.0, "is_disabled": 0, "lat": 38.8789855, "bike_id": "73a30aa87e3bb6f8f76eef06757b6829", "name": "73a30aa87e3bb6f8f76eef06757b6829", "is_reserved": 0, "fusion_lat": 0.0}, {"type": "electric_scooter", "rental_uris": {"ios": "https://dc.lft.to/lastmile_qr_scan", "android": "https://dc.lft.to/lastmile_qr_scan"}, "lon": -77.00606883333333, "fusion_lon": 0.0, "is_disabled": 0, "lat": 38.8718155, "bike_id": "23a92924d996853d53a1df4c77b2bc32", "name": "23a92924d996853d53a1df4c77b2bc32", "is_reserved": 0, "fusion_lat": 0.0}, {"type": "electric_scooter", "rental_uris": {"ios": "https://dc.lft.to/lastmile_qr_scan", "android": "https://dc.lft.to/lastmile_qr_scan"}, "lon": -77.056026, "fusion_lon": 0.0, "is_disabled": 0, "lat": 38.900950333333334, "bike_id": "a6115538d4b92f462265d75e9d94b138", "name": "a6115538d4b92f462265d75e9d94b138", "is_reserved": 0, "fusion_lat": 0.0}, {"type": "electric_scooter", "rental_uris": {"ios": "https://dc.lft.to/lastmile_qr_scan", "android": "https://dc.lft.to/lastmile_qr_scan"}, "lon": -77.00996083333334, "fusion_lon": 0.0, "is_disabled": 0, "lat": 38.902596, "bike_id": "7a2a31844c70cd2e4ba1dc37dd71dfc4", "name": "7a2a31844c70cd2e4ba1dc37dd71dfc4", "is_reserved": 0, "fusion_lat": 0.0}, {"type": "electric_scooter", "rental_uris": {"ios": "https://dc.lft.to/lastmile_qr_scan", "android": "https://dc.lft.to/lastmile_qr_scan"}, "lon": -77.051135, "fusion_lon": 0.0, "is_disabled": 0, "lat": 38.89677483333333, "bike_id": "392dd96d43567e41e9abb1c84ac90717", "name": "392dd96d43567e41e9abb1c84ac90717", "is_reserved": 0, "fusion_lat": 0.0}, {"type": "electric_scooter", "rental_uris": {"ios": "https://dc.lft.to/lastmile_qr_scan", "android": "https://dc.lft.to/lastmile_qr_scan"}, "lon": -76.93298, "fusion_lon": 0.0, "is_disabled": 0, "lat": 38.892242833333334, "bike_id": "ba3ca99c847ace99c17f6aeeba6ec465", "name": "ba3ca99c847ace99c17f6aeeba6ec465", "is_reserved": 0, "fusion_lat": 0.0}, {"type": "electric_scooter", "rental_uris": {"ios": "https://dc.lft.to/lastmile_qr_scan", "android": "https://dc.lft.to/lastmile_qr_scan"}, "lon": -77.04186033333333, "fusion_lon": 0.0, "is_disabled": 0, "lat": 38.89290966666667, "bike_id": "cc3c8fc1ef7b9459452bd7734ff02fcf", "name": "cc3c8fc1ef7b9459452bd7734ff02fcf", "is_reserved": 0, "fusion_lat": 0.0}, {"type": "electric_scooter", "rental_uris": {"ios": "https://dc.lft.to/lastmile_qr_scan", "android": "https://dc.lft.to/lastmile_qr_scan"}, "lon": -77.0341185, "fusion_lon": 0.0, "is_disabled": 0, "lat": 38.919240333333335, "bike_id": "917b77086fdb4c37a030b71ecd578d56", "name": "917b77086fdb4c37a030b71ecd578d56", "is_reserved": 0, "fusion_lat": 0.0}, {"type": "electric_scooter", "rental_uris": {"ios": "https://dc.lft.to/lastmile_qr_scan", "android": "https://dc.lft.to/lastmile_qr_scan"}, "lon": -77.02210916666667, "fusion_lon": 0.0, "is_disabled": 0, "lat": 38.88748733333333, "bike_id": "10a507075ed11a4b7ee6047983daeaf0", "name": "10a507075ed11a4b7ee6047983daeaf0", "is_reserved": 0, "fusion_lat": 0.0}, {"type": "electric_scooter", "rental_uris": {"ios": "https://dc.lft.to/lastmile_qr_scan", "android": "https://dc.lft.to/lastmile_qr_scan"}, "lon": -77.01367633333334, "fusion_lon": 0.0, "is_disabled": 0, "lat": 38.892268, "bike_id": "306c8bf25dcba578ef4ef5589f9dfd51", "name": "306c8bf25dcba578ef4ef5589f9dfd51", "is_reserved": 0, "fusion_lat": 0.0}, {"type": "electric_scooter", "rental_uris": {"ios": "https://dc.lft.to/lastmile_qr_scan", "android": "https://dc.lft.to/lastmile_qr_scan"}, "lon": -77.02491133333334, "fusion_lon": 0.0, "is_disabled": 0, "lat": 38.94186766666667, "bike_id": "239228bbd66b41d8f0001fc169dc9556", "name": "239228bbd66b41d8f0001fc169dc9556", "is_reserved": 0, "fusion_lat": 0.0}, {"type": "electric_scooter", "rental_uris": {"ios": "https://dc.lft.to/lastmile_qr_scan", "android": "https://dc.lft.to/lastmile_qr_scan"}, "lon": -77.04292716666667, "fusion_lon": 0.0, "is_disabled": 0, "lat": 38.92066233333333, "bike_id": "2e74f212f2d865042c90634b216496a5", "name": "2e74f212f2d865042c90634b216496a5", "is_reserved": 0, "fusion_lat": 0.0}, {"type": "electric_scooter", "rental_uris": {"ios": "https://dc.lft.to/lastmile_qr_scan", "android": "https://dc.lft.to/lastmile_qr_scan"}, "lon": -77.0229475, "fusion_lon": 0.0, "is_disabled": 0, "lat": 38.92607816666667, "bike_id": "b2d510a384020eed2099459839c23111", "name": "b2d510a384020eed2099459839c23111", "is_reserved": 0, "fusion_lat": 0.0}, {"type": "electric_scooter", "rental_uris": {"ios": "https://dc.lft.to/lastmile_qr_scan", "android": "https://dc.lft.to/lastmile_qr_scan"}, "lon": -77.0336545, "fusion_lon": 0.0, "is_disabled": 0, "lat": 38.913593166666665, "bike_id": "1e78f39bc8508f300b988c36df50c17c", "name": "1e78f39bc8508f300b988c36df50c17c", "is_reserved": 0, "fusion_lat": 0.0}, {"type": "electric_scooter", "rental_uris": {"ios": "https://dc.lft.to/lastmile_qr_scan", "android": "https://dc.lft.to/lastmile_qr_scan"}, "lon": -77.0329725, "fusion_lon": 0.0, "is_disabled": 0, "lat": 38.9471535, "bike_id": "ff0bf67e8e8a350a82a2247b5eab7ed6", "name": "ff0bf67e8e8a350a82a2247b5eab7ed6", "is_reserved": 0, "fusion_lat": 0.0}, {"type": "electric_scooter", "rental_uris": {"ios": "https://dc.lft.to/lastmile_qr_scan", "android": "https://dc.lft.to/lastmile_qr_scan"}, "lon": -77.02625433333333, "fusion_lon": 0.0, "is_disabled": 0, "lat": 38.89969416666667, "bike_id": "542a524c9a7561f21092b4199d22cd3f", "name": "542a524c9a7561f21092b4199d22cd3f", "is_reserved": 0, "fusion_lat": 0.0}, {"type": "electric_scooter", "rental_uris": {"ios": "https://dc.lft.to/lastmile_qr_scan", "android": "https://dc.lft.to/lastmile_qr_scan"}, "lon": -77.04680733333333, "fusion_lon": 0.0, "is_disabled": 0, "lat": 38.897416166666666, "bike_id": "e0db9fc57f21befbfb7f570751ae14fb", "name": "e0db9fc57f21befbfb7f570751ae14fb", "is_reserved": 0, "fusion_lat": 0.0}, {"type": "electric_bike", "rental_uris": {"ios": "https://dc.lft.to/lastmile_qr_scan", "android": "https://dc.lft.to/lastmile_qr_scan"}, "lon": -77.12482966666667, "fusion_lon": 0.0, "is_disabled": 0, "lat": 38.853965333333335, "bike_id": "af78aca212c6fa2556139f24448810e9", "name": "af78aca212c6fa2556139f24448810e9", "is_reserved": 0, "fusion_lat": 0.0}, {"type": "electric_bike", "rental_uris": {"ios": "https://dc.lft.to/lastmile_qr_scan", "android": "https://dc.lft.to/lastmile_qr_scan"}, "lon": -77.0321645, "fusion_lon": 0.0, "is_disabled": 0, "lat": 38.90892433333333, "bike_id": "6d842312be02e1eadbbfe6c8d8f19f70", "name": "6d842312be02e1eadbbfe6c8d8f19f70", "is_reserved": 0, "fusion_lat": 0.0}, {"type": "electric_scooter", "rental_uris": {"ios": "https://dc.lft.to/lastmile_qr_scan", "android": "https://dc.lft.to/lastmile_qr_scan"}, "lon": -77.0318425, "fusion_lon": 0.0, "is_disabled": 0, "lat": 38.896178, "bike_id": "f038cb4b4822dba852f53a92b7d8aabf", "name": "f038cb4b4822dba852f53a92b7d8aabf", "is_reserved": 0, "fusion_lat": 0.0}, {"type": "electric_bike", "rental_uris": {"ios": "https://dc.lft.to/lastmile_qr_scan", "android": "https://dc.lft.to/lastmile_qr_scan"}, "lon": -76.97529583333333, "fusion_lon": 0.0, "is_disabled": 0, "lat": 38.840132833333335, "bike_id": "20581525c46a7d8135d7bac79e50a5d7", "name": "20581525c46a7d8135d7bac79e50a5d7", "is_reserved": 0, "fusion_lat": 0.0}, {"type": "electric_scooter", "rental_uris": {"ios": "https://dc.lft.to/lastmile_qr_scan", "android": "https://dc.lft.to/lastmile_qr_scan"}, "lon": -77.03028383333333, "fusion_lon": 0.0, "is_disabled": 0, "lat": 38.93110266666667, "bike_id": "5a3266c298b5b8547c16cbf7daf9af05", "name": "5a3266c298b5b8547c16cbf7daf9af05", "is_reserved": 0, "fusion_lat": 0.0}, {"type": "electric_scooter", "rental_uris": {"ios": "https://dc.lft.to/lastmile_qr_scan", "android": "https://dc.lft.to/lastmile_qr_scan"}, "lon": -76.995176, "fusion_lon": 0.0, "is_disabled": 0, "lat": 38.88376183333333, "bike_id": "8eb04059e2ce80261fe3d16e2fe44873", "name": "8eb04059e2ce80261fe3d16e2fe44873", "is_reserved": 0, "fusion_lat": 0.0}, {"type": "electric_scooter", "rental_uris": {"ios": "https://dc.lft.to/lastmile_qr_scan", "android": "https://dc.lft.to/lastmile_qr_scan"}, "lon": -76.98181366666667, "fusion_lon": 0.0, "is_disabled": 0, "lat": 38.895802333333336, "bike_id": "6b90e01772ab8aca39e024750b2c9566", "name": "6b90e01772ab8aca39e024750b2c9566", "is_reserved": 0, "fusion_lat": 0.0}, {"type": "electric_scooter", "rental_uris": {"ios": "https://dc.lft.to/lastmile_qr_scan", "android": "https://dc.lft.to/lastmile_qr_scan"}, "lon": -76.99906933333334, "fusion_lon": 0.0, "is_disabled": 0, "lat": 38.948185333333335, "bike_id": "0b838ef1c181305cafd4486a192ea015", "name": "0b838ef1c181305cafd4486a192ea015", "is_reserved": 0, "fusion_lat": 0.0}, {"type": "electric_scooter", "rental_uris": {"ios": "https://dc.lft.to/lastmile_qr_scan", "android": "https://dc.lft.to/lastmile_qr_scan"}, "lon": -77.0161265, "fusion_lon": 0.0, "is_disabled": 0, "lat": 38.916017, "bike_id": "5d5de8b12f5fca1e4a60b361482c1d73", "name": "5d5de8b12f5fca1e4a60b361482c1d73", "is_reserved": 0, "fusion_lat": 0.0}, {"type": "electric_bike", "rental_uris": {"ios": "https://dc.lft.to/lastmile_qr_scan", "android": "https://dc.lft.to/lastmile_qr_scan"}, "lon": -77.012835, "fusion_lon": 0.0, "is_disabled": 0, "lat": 38.956686166666664, "bike_id": "c7b4afe7fd1c60313dea46f3ac51f6e4", "name": "c7b4afe7fd1c60313dea46f3ac51f6e4", "is_reserved": 0, "fusion_lat": 0.0}, {"type": "electric_scooter", "rental_uris": {"ios": "https://dc.lft.to/lastmile_qr_scan", "android": "https://dc.lft.to/lastmile_qr_scan"},