{"data": {"bikes": [{"bike_id": "c3858c4b51e2f99928083c60a4f702d9", "type": "electric_scooter", "is_disabled": 0, "lat": 38.89722533333333, "rental_uris": {"ios": "https://dc.lft.to/lastmile_qr_scan", "android": "https://dc.lft.to/lastmile_qr_scan"}, "is_reserved": 0, "fusion_lon": 0.0, "fusion_lat": 0.0, "lon": -77.04701416666667, "name": "c3858c4b51e2f99928083c60a4f702d9"}, {"bike_id": "87bc92915c30f4f4fead3d2a3146247f", "type": "electric_scooter", "is_disabled": 0, "lat": 38.90847616666667, "rental_uris": {"ios": "https://dc.lft.to/lastmile_qr_scan", "android": "https://dc.lft.to/lastmile_qr_scan"}, "is_reserved": 0, "fusion_lon": 0.0, "fusion_lat": 0.0, "lon": -77.02196666666667, "name": "87bc92915c30f4f4fead3d2a3146247f"}, {"bike_id": "7775609e6d2a92e69e423e7e5285afef", "type": "electric_scooter", "is_disabled": 0, "lat": 38.90562716666667, "rental_uris": {"ios": "https://dc.lft.to/lastmile_qr_scan", "android": "https://dc.lft.to/lastmile_qr_scan"}, "is_reserved": 0, "fusion_lon": 0.0, "fusion_lat": 0.0, "lon": -77.018, "name": "7775609e6d2a92e69e423e7e5285afef"}, {"bike_id": "1ae2b255f45e560d99684c82fbae5cd0", "type": "electric_scooter", "is_disabled": 0, "lat": 38.868301833333334, "rental_uris": {"ios": "https://dc.lft.to/lastmile_qr_scan", "android": "https://dc.lft.to/lastmile_qr_scan"}, "is_reserved": 0, "fusion_lon": 0.0, "fusion_lat": 0.0, "lon": -77.01149916666667, "name": "1ae2b255f45e560d99684c82fbae5cd0"}, {"bike_id": "87f325c85f4995ab8f35143c7f5dbbc9", "type": "electric_scooter", "is_disabled": 0, "lat": 38.926838833333335, "rental_uris": {"ios": "https://dc.lft.to/lastmile_qr_scan", "android": "https://dc.lft.to/lastmile_qr_scan"}, "is_reserved": 0, "fusion_lon": 0.0, "fusion_lat": 0.0, "lon": -77.027788, "name": "87f325c85f4995ab8f35143c7f5dbbc9"}, {"bike_id": "84a7f191efc29d519e65641a77e5d4d4", "type": "electric_scooter", "is_disabled": 0, "lat": 38.894746, "rental_uris": {"ios": "https://dc.lft.to/lastmile_qr_scan", "android": "https://dc.lft.to/lastmile_qr_scan"}, "is_reserved": 0, "fusion_lon": 0.0, "fusion_lat": 0.0, "lon": -77.02175416666667, "name": "84a7f191efc29d519e65641a77e5d4d4"}, {"bike_id": "7f9f6fa55aeaa5c1c6ce9de436ac2376", "type": "electric_bike", "is_disabled": 0, "lat": 39.0373415, "rental_uris": {"ios": "https://dc.lft.to/lastmile_qr_scan", "android": "https://dc.lft.to/lastmile_qr_scan"}, "is_reserved": 0, "fusion_lon": 0.0, "fusion_lat": 0.0, "lon": -77.05486733333333, "name": "7f9f6fa55aeaa5c1c6ce9de436ac2376"}, {"bike_id": "155cf0b985d08b429583af822c9de882", "type": "electric_scooter", "is_disabled": 0, "lat": 38.89342466666667, "rental_uris": {"ios": "https://dc.lft.to/lastmile_qr_scan", "android": "https://dc.lft.to/lastmile_qr_scan"}, "is_reserved": 0, "fusion_lon": 0.0, "fusion_lat": 0.0, "lon": -76.99273083333334, "name": "155cf0b985d08b429583af822c9de882"}, {"bike_id": "ef77e1b7d2308662dfa7403e3c2db75f", "type": "electric_bike", "is_disabled": 0, "lat": 39.0550135, "rental_uris": {"ios": "https://dc.lft.to/lastmile_qr_scan", "android": "https://dc.lft.to/lastmile_qr_scan"}, "is_reserved": 0, "fusion_lon": 0.0, "fusion_lat": 0.0, "lon": -77.1178865, "name": "ef77e1b7d2308662dfa7403e3c2db75f"}, {"bike_id": "caf6d70d9050cba2cb950e0bf1f12c7b", "type": "electric_bike", "is_disabled": 0, "lat": 38.906938, "rental_uris": {"ios": "https://dc.lft.to/lastmile_qr_scan", "android": "https://dc.lft.to/lastmile_qr_scan"}, "is_reserved": 0, "fusion_lon": 0.0, "fusion_lat": 0.0, "lon": -76.95251483333334, "name": "caf6d70d9050cba2cb950e0bf1f12c7b"}, {"bike_id": "82565892fcdf1b69928af8e81f526fa7", "type": "electric_scooter", "is_disabled": 0, "lat": 38.90407233333333, "rental_uris": {"ios": "https://dc.lft.to/lastmile_qr_scan", "android": "https://dc.lft.to/lastmile_qr_scan"}, "is_reserved": 0, "fusion_lon": 0.0, "fusion_lat": 0.0, "lon": -77.0486755, "name": "82565892fcdf1b69928af8e81f526fa7"}, {"bike_id": "7dd11208eb0282875a42e23bc69dedd5", "type": "electric_scooter", "is_disabled": 0, "lat": 38.918298166666666, "rental_uris": {"ios": "https://dc.lft.to/lastmile_qr_scan", "android": "https://dc.lft.to/lastmile_qr_scan"}, "is_reserved": 0, "fusion_lon": 0.0, "fusion_lat": 0.0, "lon": -77.039412, "name": "7dd11208eb0282875a42e23bc69dedd5"}, {"bike_id": "376590d28a90184de2edaab73ed0fa18", "type": "electric_scooter", "is_disabled": 0, "lat": 38.92218333333334, "rental_uris": {"ios": "https://dc.lft.to/lastmile_qr_scan", "android": "https://dc.lft.to/lastmile_qr_scan"}, "is_reserved": 0, "fusion_lon": 0.0, "fusion_lat": 0.0, "lon": -77.04242783333333, "name": "376590d28a90184de2edaab73ed0fa18"}, {"bike_id": "8d1d5d1331f290e5ade192dc0321f3b5", "type": "electric_scooter", "is_disabled": 0, "lat": 38.907506, "rental_uris": {"ios": "https://dc.lft.to/lastmile_qr_scan", "android": "https://dc.lft.to/lastmile_qr_scan"}, "is_reserved": 0, "fusion_lon": 0.0, "fusion_lat": 0.0, "lon": -77.00247216666666, "name": "8d1d5d1331f290e5ade192dc0321f3b5"}, {"bike_id": "f98ff72ed7b2ed36c8c8095fd8c0a990", "type": "electric_bike", "is_disabled": 0, "lat": 38.9640305, "rental_uris": {"ios": "https://dc.lft.to/lastmile_qr_scan", "android": "https://dc.lft.to/lastmile_qr_scan"}, "is_reserved": 0, "fusion_lon": 0.0, "fusion_lat": 0.0, "lon": -76.99987866666666, "name": "f98ff72ed7b2ed36c8c8095fd8c0a990"}, {"bike_id": "a44d1449551607a253fd395ce53e4894", "type": "electric_scooter", "is_disabled": 0, "lat": 38.93819883333333, "rental_uris": {"ios": "https://dc.lft.to/lastmile_qr_scan", "android": "https://dc.lft.to/lastmile_qr_scan"}, "is_reserved": 0, "fusion_lon": 0.0, "fusion_lat": 0.0, "lon": -77.059926, "name": "a44d1449551607a253fd395ce53e4894"}, {"bike_id": "fb9e70faaa3cb07450611fbb90b7683f", "type": "electric_scooter", "is_disabled": 0, "lat": 38.919858, "rental_uris": {"ios": "https://dc.lft.to/lastmile_qr_scan", "android": "https://dc.lft.to/lastmile_qr_scan"}, "is_reserved": 0, "fusion_lon": 0.0, "fusion_lat": 0.0, "lon": -77.0177525, "name": "fb9e70faaa3cb07450611fbb90b7683f"}, {"bike_id": "21dcca77e428fa0be5022e9e5ec2cbbb", "type": "electric_scooter", "is_disabled": 0, "lat": 38.884872, "rental_uris": {"ios": "https://dc.lft.to/lastmile_qr_scan", "android": "https://dc.lft.to/lastmile_qr_scan"}, "is_reserved": 0, "fusion_lon": 0.0, "fusion_lat": 0.0, "lon": -77.03480833333333, "name": "21dcca77e428fa0be5022e9e5ec2cbbb"}, {"bike_id": "cf950ca7acbf386842776d176a2e5c99", "type": "electric_scooter", "is_disabled": 0, "lat": 38.90566916666667, "rental_uris": {"ios": "https://dc.lft.to/lastmile_qr_scan", "android": "https://dc.lft.to/lastmile_qr_scan"}, "is_reserved": 0, "fusion_lon": 0.0, "fusion_lat": 0.0, "lon": -77.05147766666667, "name": "cf950ca7acbf386842776d176a2e5c99"}, {"bike_id": "7776398734a3f814d1a56830e135763e", "type": "electric_scooter", "is_disabled": 0, "lat": 38.932401, "rental_uris": {"ios": "https://dc.lft.to/lastmile_qr_scan", "android": "https://dc.lft.to/lastmile_qr_scan"}, "is_reserved": 0, "fusion_lon": 0.0, "fusion_lat": 0.0, "lon": -77.0297685, "name": "7776398734a3f814d1a56830e135763e"}, {"bike_id": "675357fbc63d8d0f05d5294247196ac4", "type": "electric_scooter", "is_disabled": 0, "lat": 38.90034716666667, "rental_uris": {"ios": "https://dc.lft.to/lastmile_qr_scan", "android": "https://dc.lft.to/lastmile_qr_scan"}, "is_reserved": 0, "fusion_lon": 0.0, "fusion_lat": 0.0, "lon": -76.99153116666666, "name": "675357fbc63d8d0f05d5294247196ac4"}, {"bike_id": "487642ce69c887840ee07cb8063997db", "type": "electric_bike", "is_disabled": 0, "lat": 38.85353516666667, "rental_uris": {"ios": "https://dc.lft.to/lastmile_qr_scan", "android": "https://dc.lft.to/lastmile_qr_scan"}, "is_reserved": 0, "fusion_lon": 0.0, "fusion_lat": 0.0, "lon": -77.08686883333333, "name": "487642ce69c887840ee07cb8063997db"}, {"bike_id": "1ed8dc12fea093fe340480efe0912dd5", "type": "electric_bike", "is_disabled": 0, "lat": 38.957579, "rental_uris": {"ios": "https://dc.lft.to/lastmile_qr_scan", "android": "https://dc.lft.to/lastmile_qr_scan"}, "is_reserved": 0, "fusion_lon": 0.0, "fusion_lat": 0.0, "lon": -77.02056316666666, "name": "1ed8dc12fea093fe340480efe0912dd5"}, {"bike_id": "6e7f7c797f77f31c7aeac23e3a64e1e6", "type": "electric_scooter", "is_disabled": 0, "lat": 38.91550766666667, "rental_uris": {"ios": "https://dc.lft.to/lastmile_qr_scan", "android": "https://dc.lft.to/lastmile_qr_scan"}, "is_reserved": 0, "fusion_lon": 0.0, "fusion_lat": 0.0, "lon": -77.02565783333333, "name": "6e7f7c797f77f31c7aeac23e3a64e1e6"}, {"bike_id": "7da28a01c5dfd2ae5339783a89c75ad0", "type": "electric_scooter", "is_disabled": 0, "lat": 38.902941, "rental_uris": {"ios": "https://dc.lft.to/lastmile_qr_scan", "android": "https://dc.lft.to/lastmile_qr_scan"}, "is_reserved": 0, "fusion_lon": 0.0, "fusion_lat": 0.0, "lon": -77.03846716666666, "name": "7da28a01c5dfd2ae5339783a89c75ad0"}, {"bike_id": "ee618d7032ad281f051a8be251c41f2a", "type": "electric_scooter", "is_disabled": 0, "lat": 38.892258166666664, "rental_uris": {"ios": "https://dc.lft.to/lastmile_qr_scan", "android": "https://dc.lft.to/lastmile_qr_scan"}, "is_reserved": 0, "fusion_lon": 0.0, "fusion_lat": 0.0, "lon": -77.01372666666667, "name": "ee618d7032ad281f051a8be251c41f2a"}, {"bike_id": "000576687068fcc239d0d62e4c117154", "type": "electric_scooter", "is_disabled": 0, "lat": 38.923201, "rental_uris": {"ios": "https://dc.lft.to/lastmile_qr_scan", "android": "https://dc.lft.to/lastmile_qr_scan"}, "is_reserved": 0, "fusion_lon": 0.0, "fusion_lat": 0.0, "lon": -77.03675716666666, "name": "000576687068fcc239d0d62e4c117154"}, {"bike_id": "1af42c9551d0d08bafa1cd225d1dbd36", "type": "electric_scooter", "is_disabled": 0, "lat": 38.92232766666667, "rental_uris": {"ios": "https://dc.lft.to/lastmile_qr_scan", "android": "https://dc.lft.to/lastmile_qr_scan"}, "is_reserved": 0, "fusion_lon": 0.0, "fusion_lat": 0.0, "lon": -77.02984333333333, "name": "1af42c9551d0d08bafa1cd225d1dbd36"}, {"bike_id": "6265afc2734ea535d94030c1fc8b6336", "type": "electric_scooter", "is_disabled": 0, "lat": 38.92323066666667, "rental_uris": {"ios": "https://dc.lft.to/lastmile_qr_scan", "android": "https://dc.lft.to/lastmile_qr_scan"}, "is_reserved": 0, "fusion_lon": 0.0, "fusion_lat": 0.0, "lon": -77.03677433333333, "name": "6265afc2734ea535d94030c1fc8b6336"}, {"bike_id": "ec072d9a00769d4387510bba5a0877cc", "type": "electric_scooter", "is_disabled": 0, "lat": 38.922804666666664, "rental_uris": {"ios": "https://dc.lft.to/lastmile_qr_scan", "android": "https://dc.lft.to/lastmile_qr_scan"}, "is_reserved": 0, "fusion_lon": 0.0, "fusion_lat": 0.0, "lon": -77.0423195, "name": "ec072d9a00769d4387510bba5a0877cc"}, {"bike_id": "fb1658bfbb70675d785de99b0dd219a5", "type": "electric_scooter", "is_disabled": 0, "lat": 38.86245983333333, "rental_uris": {"ios": "https://dc.lft.to/lastmile_qr_scan", "android": "https://dc.lft.to/lastmile_qr_scan"}, "is_reserved": 0, "fusion_lon": 0.0, "fusion_lat": 0.0, "lon": -76.99501783333334, "name": "fb1658bfbb70675d785de99b0dd219a5"}, {"bike_id": "87fb7f77ef57d8404a2616612ef8be9e", "type": "electric_scooter", "is_disabled": 0, "lat": 38.89729716666667, "rental_uris": {"ios": "https://dc.lft.to/lastmile_qr_scan", "android": "https://dc.lft.to/lastmile_qr_scan"}, "is_reserved": 0, "fusion_lon": 0.0, "fusion_lat": 0.0, "lon": -77.02162933333334, "name": "87fb7f77ef57d8404a2616612ef8be9e"}, {"bike_id": "58decaa24d47e3c73c4fdbbd9747e36e", "type": "electric_scooter", "is_disabled": 0, "lat": 38.91571116666667, "rental_uris": {"ios": "https://dc.lft.to/lastmile_qr_scan", "android": "https://dc.lft.to/lastmile_qr_scan"}, "is_reserved": 0, "fusion_lon": 0.0, "fusion_lat": 0.0, "lon": -77.04160683333333, "name": "58decaa24d47e3c73c4fdbbd9747e36e"}, {"bike_id": "7a8494714073e35a377dbf41ad361eb3", "type": "electric_scooter", "is_disabled": 0, "lat": 38.89583016666667, "rental_uris": {"ios": "https://dc.lft.to/lastmile_qr_scan", "android": "https://dc.lft.to/lastmile_qr_scan"}, "is_reserved": 0, "fusion_lon": 0.0, "fusion_lat": 0.0, "lon": -77.02352366666666, "name": "7a8494714073e35a377dbf41ad361eb3"}, {"bike_id": "cdb47e17a5fe43626b7640319ed084d3", "type": "electric_scooter", "is_disabled": 0, "lat": 38.91281683333333, "rental_uris": {"ios": "https://dc.lft.to/lastmile_qr_scan", "android": "https://dc.lft.to/lastmile_qr_scan"}, "is_reserved": 0, "fusion_lon": 0.0, "fusion_lat": 0.0, "lon": -77.06117633333334, "name": "cdb47e17a5fe43626b7640319ed084d3"}, {"bike_id": "c9c942a88fc2d2db27c84f51b88dcd7a", "type": "electric_scooter", "is_disabled": 0, "lat": 38.919240333333335, "rental_uris": {"ios": "https://dc.lft.to/lastmile_qr_scan", "android": "https://dc.lft.to/lastmile_qr_scan"}, "is_reserved": 0, "fusion_lon": 0.0, "fusion_lat": 0.0, "lon": -77.031766, "name": "c9c942a88fc2d2db27c84f51b88dcd7a"}, {"bike_id": "05ebb36d584e20a73bfaa278050ebbb3", "type": "electric_scooter", "is_disabled": 0, "lat": 38.9148085, "rental_uris": {"ios": "https://dc.lft.to/lastmile_qr_scan", "android": "https://dc.lft.to/lastmile_qr_scan"}, "is_reserved": 0, "fusion_lon": 0.0, "fusion_lat": 0.0, "lon": -77.02578533333333, "name": "05ebb36d584e20a73bfaa278050ebbb3"}, {"bike_id": "948ca808a3d40ec29e2d8e746f6b73e3", "type": "electric_bike", "is_disabled": 0, "lat": 38.85751283333333, "rental_uris": {"ios": "https://dc.lft.to/lastmile_qr_scan", "android": "https://dc.lft.to/lastmile_qr_scan"}, "is_reserved": 0, "fusion_lon": 0.0, "fusion_lat": 0.0, "lon": -76.98765883333333, "name": "948ca808a3d40ec29e2d8e746f6b73e3"}, {"bike_id": "b817b3e134c965e4b556851e3f30f84a", "type": "electric_scooter", "is_disabled": 0, "lat": 38.89746233333334, "rental_uris": {"ios": "https://dc.lft.to/lastmile_qr_scan", "android": "https://dc.lft.to/lastmile_qr_scan"}, "is_reserved": 0, "fusion_lon": 0.0, "fusion_lat": 0.0, "lon": -76.94186866666666, "name": "b817b3e134c965e4b556851e3f30f84a"}, {"bike_id": "faded9c3ec58875736fad70c97939dea", "type": "electric_scooter", "is_disabled": 0, "lat": 38.91545, "rental_uris": {"ios": "https://dc.lft.to/lastmile_qr_scan", "android": "https://dc.lft.to/lastmile_qr_scan"}, "is_reserved": 0, "fusion_lon": 0.0, "fusion_lat": 0.0, "lon": -77.036411, "name": "faded9c3ec58875736fad70c97939dea"}, {"bike_id": "86c12007d45ae9e59d7d269f3d27cf52", "type": "electric_scooter", "is_disabled": 0, "lat": 38.916936666666665, "rental_uris": {"ios": "https://dc.lft.to/lastmile_qr_scan", "android": "https://dc.lft.to/lastmile_qr_scan"}, "is_reserved": 0, "fusion_lon": 0.0, "fusion_lat": 0.0, "lon": -77.00812233333333, "name": "86c12007d45ae9e59d7d269f3d27cf52"}, {"bike_id": "ce522854424671b2b22a4d3c2755d168", "type": "electric_scooter", "is_disabled": 0, "lat": 38.9309625, "rental_uris": {"ios": "https://dc.lft.to/lastmile_qr_scan", "android": "https://dc.lft.to/lastmile_qr_scan"}, "is_reserved": 0, "fusion_lon": 0.0, "fusion_lat": 0.0, "lon": -77.02663616666666, "name": "ce522854424671b2b22a4d3c2755d168"}, {"bike_id": "6bb35eec24696b7debc06ee27791195f", "type": "electric_scooter", "is_disabled": 0, "lat": 38.92336183333333, "rental_uris": {"ios": "https://dc.lft.to/lastmile_qr_scan", "android": "https://dc.lft.to/lastmile_qr_scan"}, "is_reserved": 0, "fusion_lon": 0.0, "fusion_lat": 0.0, "lon": -77.03480633333334, "name": "6bb35eec24696b7debc06ee27791195f"}, {"bike_id": "32e3117bd4ba10976c718d081d91a9a2", "type": "electric_scooter", "is_disabled": 0, "lat": 38.9117555, "rental_uris": {"ios": "https://dc.lft.to/lastmile_qr_scan", "android": "https://dc.lft.to/lastmile_qr_scan"}, "is_reserved": 0, "fusion_lon": 0.0, "fusion_lat": 0.0, "lon": -77.01698016666667, "name": "32e3117bd4ba10976c718d081d91a9a2"}, {"bike_id": "8cd319f99c5acdbb5a045baca612a335", "type": "electric_bike", "is_disabled": 0, "lat": 38.88354783333333, "rental_uris": {"ios": "https://dc.lft.to/lastmile_qr_scan", "android": "https://dc.lft.to/lastmile_qr_scan"}, "is_reserved": 0, "fusion_lon": 0.0, "fusion_lat": 0.0, "lon": -76.994935, "name": "8cd319f99c5acdbb5a045baca612a335"}, {"bike_id": "90a4deea6bca879e8bf4a4d51c778787", "type": "electric_scooter", "is_disabled": 0, "lat": 38.912684, "rental_uris": {"ios": "https://dc.lft.to/lastmile_qr_scan", "android": "https://dc.lft.to/lastmile_qr_scan"}, "is_reserved": 0, "fusion_lon": 0.0, "fusion_lat": 0.0, "lon": -77.04706866666666, "name": "90a4deea6bca879e8bf4a4d51c778787"}, {"bike_id": "fd69ba2a5dcc98ada528b5526ad29bda", "type": "electric_scooter", "is_disabled": 0, "lat": 38.825850333333335, "rental_uris": {"ios": "https://dc.lft.to/lastmile_qr_scan", "android": "https://dc.lft.to/lastmile_qr_scan"}, "is_reserved": 0, "fusion_lon": 0.0, "fusion_lat": 0.0, "lon": -77.00737366666667, "name": "fd69ba2a5dcc98ada528b5526ad29bda"}, {"bike_id": "6bfac8e1433c9c2cbcaf1f9606d96548", "type": "electric_scooter", "is_disabled": 0, "lat": 38.91109133333333, "rental_uris": {"ios": "https://dc.lft.to/lastmile_qr_scan", "android": "https://dc.lft.to/lastmile_qr_scan"}, "is_reserved": 0, "fusion_lon": 0.0, "fusion_lat": 0.0, "lon": -77.04356966666667, "name": "6bfac8e1433c9c2cbcaf1f9606d96548"}, {"bike_id": "4f03e2ea08c01483d848cb882034110e", "type": "electric_scooter", "is_disabled": 0, "lat": 38.90371116666667, "rental_uris": {"ios": "https://dc.lft.to/lastmile_qr_scan", "android": "https://dc.lft.to/lastmile_qr_scan"}, "is_reserved": 0, "fusion_lon": 0.0, "fusion_lat": 0.0, "lon": -77.03201816666666, "name": "4f03e2ea08c01483d848cb882034110e"}, {"bike_id": "38183ff57a38d371c7ec5d5c0d95a60e", "type": "electric_scooter", "is_disabled": 0, "lat": 38.911713166666665, "rental_uris": {"ios": "https://dc.lft.to/lastmile_qr_scan", "android": "https://dc.lft.to/lastmile_qr_scan"}, "is_reserved": 0, "fusion_lon": 0.0, "fusion_lat": 0.0, "lon": -77.03189266666666, "name": "38183ff57a38d371c7ec5d5c0d95a60e"}, {"bike_id": "4e575f7da6b98a9616fd4fe04aa04e27", "type": "electric_bike", "is_disabled": 0, "lat": 38.920676, "rental_uris": {"ios": "https://dc.lft.to/lastmile_qr_scan", "android": "https://dc.lft.to/lastmile_qr_scan"}, "is_reserved": 0, "fusion_lon": 0.0, "fusion_lat": 0.0, "lon": -76.89072533333334, "name": "4e575f7da6b98a9616fd4fe04aa04e27"}, {"bike_id": "6d9bdf5fe7177062609fe99ecc587a1a", "type": "electric_scooter", "is_disabled": 0, "lat": 38.92000016666667, "rental_uris": {"ios": "https://dc.lft.to/lastmile_qr_scan", "android": "https://dc.lft.to/lastmile_qr_scan"}, "is_reserved": 0, "fusion_lon": 0.0, "fusion_lat": 0.0, "lon": -77.03244283333333, "name": "6d9bdf5fe7177062609fe99ecc587a1a"}, {"bike_id": "fe326e87dfefbe3727fa5fa944670cb3", "type": "electric_scooter", "is_disabled": 0, "lat": 38.925289666666664, "rental_uris": {"ios": "https://dc.lft.to/lastmile_qr_scan", "android": "https://dc.lft.to/lastmile_qr_scan"}, "is_reserved": 0, "fusion_lon": 0.0, "fusion_lat": 0.0, "lon": -77.04113183333334, "name": "fe326e87dfefbe3727fa5fa944670cb3"}, {"bike_id": "d5df889679480a934329f9935d6c81e1", "type": "electric_scooter", "is_disabled": 0, "lat": 38.92150766666666, "rental_uris": {"ios": "https://dc.lft.to/lastmile_qr_scan", "android": "https://dc.lft.to/lastmile_qr_scan"}, "is_reserved": 0, "fusion_lon": 0.0, "fusion_lat": 0.0, "lon": -77.033183, "name": "d5df889679480a934329f9935d6c81e1"}, {"bike_id": "976207c4f0b3f522313215ac69f72c5f", "type": "electric_scooter", "is_disabled": 0, "lat": 38.92611566666667, "rental_uris": {"ios": "https://dc.lft.to/lastmile_qr_scan", "android": "https://dc.lft.to/lastmile_qr_scan"}, "is_reserved": 0, "fusion_lon": 0.0, "fusion_lat": 0.0, "lon": -77.02161983333333, "name": "976207c4f0b3f522313215ac69f72c5f"}, {"bike_id": "1b29f1549377943923c672a11e950247", "type": "electric_scooter", "is_disabled": 0, "lat": 38.90593966666667, "rental_uris": {"ios": "https://dc.lft.to/lastmile_qr_scan", "android": "https://dc.lft.to/lastmile_qr_scan"}, "is_reserved": 0, "fusion_lon": 0.0, "fusion_lat": 0.0, "lon": -77.00748833333333, "name": "1b29f1549377943923c672a11e950247"}, {"bike_id": "48d3ca820b0459f87127e996b84ee4ad", "type": "electric_scooter", "is_disabled": 0, "lat": 38.900439166666665, "rental_uris": {"ios": "https://dc.lft.to/lastmile_qr_scan", "android": "https://dc.lft.to/lastmile_qr_scan"}, "is_reserved": 0, "fusion_lon": 0.0, "fusion_lat": 0.0, "lon": -76.99154116666666, "name": "48d3ca820b0459f87127e996b84ee4ad"}, {"bike_id": "97cef7d57c3fa00239c67d706ab9efcb", "type": "electric_scooter", "is_disabled": 0, "lat": 38.89758883333333, "rental_uris": {"ios": "https://dc.lft.to/lastmile_qr_scan", "android": "https://dc.lft.to/lastmile_qr_scan"}, "is_reserved": 0, "fusion_lon": 0.0, "fusion_lat": 0.0, "lon": -77.02681283333334, "name": "97cef7d57c3fa00239c67d706ab9efcb"}, {"bike_id": "751524e3ceb6992e7a5b6b4370476ff6", "type": "electric_scooter", "is_disabled": 0, "lat": 38.90869583333333, "rental_uris": {"ios": "https://dc.lft.to/lastmile_qr_scan", "android": "https://dc.lft.to/lastmile_qr_scan"}, "is_reserved": 0, "fusion_lon": 0.0, "fusion_lat": 0.0, "lon": -76.99787633333334, "name": "751524e3ceb6992e7a5b6b4370476ff6"}, {"bike_id": "b4f909c108cc46fbfb8b0a4f7deca0f6", "type": "electric_scooter", "is_disabled": 0, "lat": 38.892192333333334, "rental_uris": {"ios": "https://dc.lft.to/lastmile_qr_scan", "android": "https://dc.lft.to/lastmile_qr_scan"}, "is_reserved": 0, "fusion_lon": 0.0, "fusion_lat": 0.0, "lon": -77.02231516666667, "name": "b4f909c108cc46fbfb8b0a4f7deca0f6"}, {"bike_id": "eee477992cc53f0f05638a4260877937", "type": "electric_scooter", "is_disabled": 0, "lat": 38.9345145, "rental_uris": {"ios": "https://dc.lft.to/lastmile_qr_scan", "android": "https://dc.lft.to/lastmile_qr_scan"}, "is_reserved": 0, "fusion_lon": 0.0, "fusion_lat": 0.0, "lon": -77.0307145, "name": "eee477992cc53f0f05638a4260877937"}, {"bike_id": "763dc79b21e2ec34e16f78a3ed0ac2ec", "type": "electric_scooter", "is_disabled": 0, "lat": 38.89685083333333, "rental_uris": {"ios": "https://dc.lft.to/lastmile_qr_scan", "android": "https://dc.lft.to/lastmile_qr_scan"}, "is_reserved": 0, "fusion_lon": 0.0, "fusion_lat": 0.0, "lon": -77.02377666666666, "name": "763dc79b21e2ec34e16f78a3ed0ac2ec"}, {"bike_id": "3c00a4bf667674292917b26bf33d3009", "type": "electric_scooter", "is_disabled": 0, "lat": 38.83825566666667, "rental_uris": {"ios": "https://dc.lft.to/lastmile_qr_scan", "android": "https://dc.lft.to/lastmile_qr_scan"}, "is_reserved": 0, "fusion_lon": 0.0, "fusion_lat": 0.0, "lon": -77.00270083333334, "name": "3c00a4bf667674292917b26bf33d3009"}, {"bike_id": "4728b3d73383af6eba22dfac0b0a64b1", "type": "electric_scooter", "is_disabled": 0, "lat": 38.922551166666665, "rental_uris": {"ios": "https://dc.lft.to/lastmile_qr_scan", "android": "https://dc.lft.to/lastmile_qr_scan"}, "is_reserved": 0, "fusion_lon": 0.0, "fusion_lat": 0.0, "lon": -77.019537, "name": "4728b3d73383af6eba22dfac0b0a64b1"}, {"bike_id": "9979b2700c9c47462b1d9eaa3734a8ea", "type": "electric_scooter", "is_disabled": 0, "lat": 38.91417783333333, "rental_uris": {"ios": "https://dc.lft.to/lastmile_qr_scan", "android": "https://dc.lft.to/lastmile_qr_scan"}, "is_reserved": 0, "fusion_lon": 0.0, "fusion_lat": 0.0, "lon": -77.01232666666667, "name": "9979b2700c9c47462b1d9eaa3734a8ea"}, {"bike_id": "b592f200f3758a5ad6f30c4d6e2ee6a5", "type": "electric_scooter", "is_disabled": 0, "lat": 38.91003583333333, "rental_uris": {"ios": "https://dc.lft.to/lastmile_qr_scan", "android": "https://dc.lft.to/lastmile_qr_scan"}, "is_reserved": 0, "fusion_lon": 0.0, "fusion_lat": 0.0, "lon": -77.031953, "name": "b592f200f3758a5ad6f30c4d6e2ee6a5"}, {"bike_id": "17425cc592f1c45b54895db35240b960", "type": "electric_scooter", "is_disabled": 0, "lat": 38.887314, "rental_uris": {"ios": "https://dc.lft.to/lastmile_qr_scan", "android": "https://dc.lft.to/lastmile_qr_scan"}, "is_reserved": 0, "fusion_lon": 0.0, "fusion_lat": 0.0, "lon": -77.02836, "name": "17425cc592f1c45b54895db35240b960"}, {"bike_id": "216142b953dbf18dbe183713673d8ac2", "type": "electric_scooter", "is_disabled": 0, "lat": 38.900236, "rental_uris": {"ios": "https://dc.lft.to/lastmile_qr_scan", "android": "https://dc.lft.to/lastmile_qr_scan"}, "is_reserved": 0, "fusion_lon": 0.0, "fusion_lat": 0.0, "lon": -77.01183566666667, "name": "216142b953dbf18dbe183713673d8ac2"}, {"bike_id": "99bc0078518a8ca695905dfe4e5d79c4", "type": "electric_scooter", "is_disabled": 0, "lat": 38.899602, "rental_uris": {"ios": "https://dc.lft.to/lastmile_qr_scan", "android": "https://dc.lft.to/lastmile_qr_scan"}, "is_reserved": 0, "fusion_lon": 0.0, "fusion_lat": 0.0, "lon": -77.01620416666667, "name": "99bc0078518a8ca695905dfe4e5d79c4"}, {"bike_id": "3e722f7cc4e15bab271dd614aaef838e", "type": "electric_scooter", "is_disabled": 0, "lat": 38.920003333333334, "rental_uris": {"ios": "https://dc.lft.to/lastmile_qr_scan", "android": "https://dc.lft.to/lastmile_qr_scan"}, "is_reserved": 0, "fusion_lon": 0.0, "fusion_lat": 0.0, "lon": -77.02366533333333, "name": "3e722f7cc4e15bab271dd614aaef838e"}, {"bike_id": "7ea7f7366afaf0f4cf76880b2b233e6c", "type": "electric_scooter", "is_disabled": 0, "lat": 38.89354983333333, "rental_uris": {"ios": "https://dc.lft.to/lastmile_qr_scan", "android": "https://dc.lft.to/lastmile_qr_scan"}, "is_reserved": 0, "fusion_lon": 0.0, "fusion_lat": 0.0, "lon": -77.02223866666667, "name": "7ea7f7366afaf0f4cf76880b2b233e6c"}, {"bike_id": "64a7f7a86b9aeb308f075bed2548db99", "type": "electric_bike", "is_disabled": 0, "lat": 38.98494183333333, "rental_uris": {"ios": "https://dc.lft.to/lastmile_qr_scan", "android": "https://dc.lft.to/lastmile_qr_scan"}, "is_reserved": 0, "fusion_lon": 0.0, "fusion_lat": 0.0, "lon": -77.09254483333333, "name": "64a7f7a86b9aeb308f075bed2548db99"}, {"bike_id": "b31cd04e168d27929b6600d62f09fc2d", "type": "electric_scooter", "is_disabled": 0, "lat": 38.915558, "rental_uris": {"ios": "https://dc.lft.to/lastmile_qr_scan", "android": "https://dc.lft.to/lastmile_qr_scan"}, "is_reserved": 0, "fusion_lon": 0.0, "fusion_lat": 0.0, "lon": -77.03850583333333, "name": "b31cd04e168d27929b6600d62f09fc2d"}, {"bike_id": "0d319653fdffe3b8f5b9c7e1299f04f5", "type": "electric_scooter", "is_disabled": 0, "lat": 38.93606233333333, "rental_uris": {"ios": "https://dc.lft.to/lastmile_qr_scan", "android": "https://dc.lft.to/lastmile_qr_scan"}, "is_reserved": 0, "fusion_lon": 0.0, "fusion_lat": 0.0, "lon": -77.05894433333333, "name": "0d319653fdffe3b8f5b9c7e1299f04f5"}, {"bike_id": "f539813ad849d7ca8c660a5a3cbaafad", "type": "electric_scooter", "is_disabled": 0, "lat": 38.902610833333334, "rental_uris": {"ios": "https://dc.lft.to/lastmile_qr_scan", "android": "https://dc.lft.to/lastmile_qr_scan"}, "is_reserved": 0, "fusion_lon": 0.0, "fusion_lat": 0.0, "lon": -77.01755816666666, "name": "f539813ad849d7ca8c660a5a3cbaafad"}, {"bike_id": "43a0a805731814c02f08a5c39c67ba57", "type": "electric_bike", "is_disabled": 0, "lat": 38.8483405, "rental_uris": {"ios": "https://dc.lft.to/lastmile_qr_scan", "android": "https://dc.lft.to/lastmile_qr_scan"}, "is_reserved": 0, "fusion_lon": 0.0, "fusion_lat": 0.0, "lon": -77.07918583333333, "name": "43a0a805731814c02f08a5c39c67ba57"}, {"bike_id": "cc23cea735cbbf0213de94eba6296d3f", "type": "electric_scooter", "is_disabled": 0, "lat": 38.9051985, "rental_uris": {"ios": "https://dc.lft.to/lastmile_qr_scan", "android": "https://dc.lft.to/lastmile_qr_scan"}, "is_reserved": 0, "fusion_lon": 0.0, "fusion_lat": 0.0, "lon": -77.05324266666666, "name": "cc23cea735cbbf0213de94eba6296d3f"}, {"bike_id": "ee6e7307148b31cd64eed4453ab54a35", "type": "electric_scooter", "is_disabled": 0, "lat": 38.86668616666667, "rental_uris": {"ios": "https://dc.lft.to/lastmile_qr_scan", "android": "https://dc.lft.to/lastmile_qr_scan"}, "is_reserved": 0, "fusion_lon": 0.0, "fusion_lat": 0.0, "lon": -76.98541716666666, "name": "ee6e7307148b31cd64eed4453ab54a35"}, {"bike_id": "25cbaf4769b5df7ac42801e612469d25", "type": "electric_scooter", "is_disabled": 0, "lat": 38.89883066666667, "rental_uris": {"ios": "https://dc.lft.to/lastmile_qr_scan", "android": "https://dc.lft.to/lastmile_qr_scan"}, "is_reserved": 0, "fusion_lon": 0.0, "fusion_lat": 0.0, "lon": -76.931768, "name": "25cbaf4769b5df7ac42801e612469d25"}, {"bike_id": "1742db2d3dc19f18b5e7e263b903787e", "type": "electric_scooter", "is_disabled": 0, "lat": 38.9014695, "rental_uris": {"ios": "https://dc.lft.to/lastmile_qr_scan", "android": "https://dc.lft.to/lastmile_qr_scan"}, "is_reserved": 0, "fusion_lon": 0.0, "fusion_lat": 0.0, "lon": -77.04062666666667, "name": "1742db2d3dc19f18b5e7e263b903787e"}, {"bike_id": "4dd4812c8ca4c675d956f486b351a5f8", "type": "electric_scooter", "is_disabled": 0, "lat": 38.933660833333334, "rental_uris": {"ios": "https://dc.lft.to/lastmile_qr_scan", "android": "https://dc.lft.to/lastmile_qr_scan"}, "is_reserved": 0, "fusion_lon": 0.0, "fusion_lat": 0.0, "lon": -77.04116, "name": "4dd4812c8ca4c675d956f486b351a5f8"}, {"bike_id": "9be976cfdba99c029bcbce5ae3330324", "type": "electric_scooter", "is_disabled": 0, "lat": 38.907155, "rental_uris": {"ios": "https://dc.lft.to/lastmile_qr_scan", "android": "https://dc.lft.to/lastmile_qr_scan"}, "is_reserved": 0, "fusion_lon": 0.0, "fusion_lat": 0.0, "lon": -77.0192615, "name": "9be976cfdba99c029bcbce5ae3330324"}, {"bike_id": "b0622ccf4deea4e46419fb7f176cc5af", "type": "electric_scooter", "is_disabled": 0, "lat": 38.91053333333333, "rental_uris": {"ios": "https://dc.lft.to/lastmile_qr_scan", "android": "https://dc.lft.to/lastmile_qr_scan"}, "is_reserved": 0, "fusion_lon": 0.0, "fusion_lat": 0.0, "lon": -77.04091083333333, "name": "b0622ccf4deea4e46419fb7f176cc5af"}, {"bike_id": "2c55013cb3bdf5f133615ec92daab8b5", "type": "electric_bike", "is_disabled": 0, "lat": 38.94832733333333, "rental_uris": {"ios": "https://dc.lft.to/lastmile_qr_scan", "android": "https://dc.lft.to/lastmile_qr_scan"}, "is_reserved": 0, "fusion_lon": 0.0, "fusion_lat": 0.0, "lon": -77.038998, "name": "2c55013cb3bdf5f133615ec92daab8b5"}, {"bike_id": "93d6c69648251a1221036e21f597e9c4", "type": "electric_scooter", "is_disabled": 0, "lat": 38.931854666666666, "rental_uris": {"ios": "https://dc.lft.to/lastmile_qr_scan", "android": "https://dc.lft.to/lastmile_qr_scan"}, "is_reserved": 0, "fusion_lon": 0.0, "fusion_lat": 0.0, "lon": -77.02681233333334, "name": "93d6c69648251a1221036e21f597e9c4"}, {"bike_id": "d93eb017c4d4d1a7f5092ab0b8d15d16", "type": "electric_scooter", "is_disabled": 0, "lat": 38.9238975, "rental_uris": {"ios": "https://dc.lft.to/lastmile_qr_scan", "android": "https://dc.lft.to/lastmile_qr_scan"}, "is_reserved": 0, "fusion_lon": 0.0, "fusion_lat": 0.0, "lon": -77.0447085, "name": "d93eb017c4d4d1a7f5092ab0b8d15d16"}, {"bike_id": "802a92543aac6b625f983c7cc98af0d8", "type": "electric_scooter", "is_disabled": 0, "lat": 38.86687366666666, "rental_uris": {"ios": "https://dc.lft.to/lastmile_qr_scan", "android": "https://dc.lft.to/lastmile_qr_scan"}, "is_reserved": 0, "fusion_lon": 0.0, "fusion_lat": 0.0, "lon": -76.9857305, "name": "802a92543aac6b625f983c7cc98af0d8"}, {"bike_id": "b6118c4b11896d91fa380944fc40c622", "type": "electric_scooter", "is_disabled": 0, "lat": 38.92020766666667, "rental_uris": {"ios": "https://dc.lft.to/lastmile_qr_scan", "android": "https://dc.lft.to/lastmile_qr_scan"}, "is_reserved": 0, "fusion_lon": 0.0, "fusion_lat": 0.0, "lon": -77.04197966666666, "name": "b6118c4b11896d91fa380944fc40c622"}, {"bike_id": "115b474c173f9ba04d4868a1da710715", "type": "electric_scooter", "is_disabled": 0, "lat": 38.91617566666667, "rental_uris": {"ios": "https://dc.lft.to/lastmile_qr_scan", "android": "https://dc.lft.to/lastmile_qr_scan"}, "is_reserved": 0, "fusion_lon": 0.0, "fusion_lat": 0.0, "lon": -77.03379983333333, "name": "115b474c173f9ba04d4868a1da710715"}, {"bike_id": "fab65813a69e2490721f7b913bd94b95", "type": "electric_scooter", "is_disabled": 0, "lat": 38.865, "rental_uris": {"ios": "https://dc.lft.to/lastmile_qr_scan", "android": "https://dc.lft.to/lastmile_qr_scan"}, "is_reserved": 0, "fusion_lon": 0.0, "fusion_lat": 0.0, "lon": -76.99001016666666, "name": "fab65813a69e2490721f7b913bd94b95"}, {"bike_id": "b86956d099d84c8ab2139d1f694b6594", "type": "electric_bike", "is_disabled": 0, "lat": 38.800255166666666, "rental_uris": {"ios": "https://dc.lft.to/lastmile_qr_scan", "android": "https://dc.lft.to/lastmile_qr_scan"}, "is_reserved": 0, "fusion_lon": 0.0, "fusion_lat": 0.0, "lon": -77.0632755, "name": "b86956d099d84c8ab2139d1f694b6594"}, {"bike_id": "1b8e73ad26eba0153cef7f823382a15c", "type": "electric_scooter", "is_disabled": 0, "lat": 38.923281, "rental_uris": {"ios": "https://dc.lft.to/lastmile_qr_scan", "android": "https://dc.lft.to/lastmile_qr_scan"}, "is_reserved": 0, "fusion_lon": 0.0, "fusion_lat": 0.0, "lon": -77.05745733333333, "name": "1b8e73ad26eba0153cef7f823382a15c"}, {"bike_id": "fdb6fe782f0f6e9f4264685d3f2c68f9", "type": "electric_scooter", "is_disabled": 0, "lat": 38.92877083333333, "rental_uris": {"ios": "https://dc.lft.to/lastmile_qr_scan", "android": "https://dc.lft.to/lastmile_qr_scan"}, "is_reserved": 0, "fusion_lon": 0.0, "fusion_lat": 0.0, "lon": -77.01838633333334, "name": "fdb6fe782f0f6e9f4264685d3f2c68f9"}, {"bike_id": "2fae6d2b6f4c6ca10182efc92d79d5a8", "type": "electric_scooter", "is_disabled": 0, "lat": 38.927260833333335, "rental_uris": {"ios": "https://dc.lft.to/lastmile_qr_scan", "android": "https://dc.lft.to/lastmile_qr_scan"}, "is_reserved": 0, "fusion_lon": 0.0, "fusion_lat": 0.0, "lon": -77.02977383333334, "name": "2fae6d2b6f4c6ca10182efc92d79d5a8"}, {"bike_id": "1d1b92e6da22c6676200eb61d9913120", "type": "electric_scooter", "is_disabled": 0, "lat": 38.91742433333334, "rental_uris": {"ios": "https://dc.lft.to/lastmile_qr_scan", "android": "https://dc.lft.to/lastmile_qr_scan"}, "is_reserved": 0, "fusion_lon": 0.0, "fusion_lat": 0.0, "lon": -77.0211665, "name": "1d1b92e6da22c6676200eb61d9913120"}, {"bike_id": "5531feae1489ae28ca74ca72a6e0090a", "type": "electric_scooter", "is_disabled": 0, "lat": 38.917094166666665, "rental_uris": {"ios": "https://dc.lft.to/lastmile_qr_scan", "android": "https://dc.lft.to/lastmile_qr_scan"}, "is_reserved": 0, "fusion_lon": 0.0, "fusion_lat": 0.0, "lon": -77.0321455, "name": "5531feae1489ae28ca74ca72a6e0090a"}, {"bike_id": "79b3ca557b01829c7e98984b338a776d", "type": "electric_scooter", "is_disabled": 0, "lat": 38.928722666666665, "rental_uris": {"ios": "https://dc.lft.to/lastmile_qr_scan", "android": "https://dc.lft.to/lastmile_qr_scan"}, "is_reserved": 0, "fusion_lon": 0.0, "fusion_lat": 0.0, "lon": -77.02773766666667, "name": "79b3ca557b01829c7e98984b338a776d"}, {"bike_id": "38cf798e049db0808d4428165648928d", "type": "electric_scooter", "is_disabled": 0, "lat": 38.88124216666667, "rental_uris": {"ios": "https://dc.lft.to/lastmile_qr_scan", "android": "https://dc.lft.to/lastmile_qr_scan"}, "is_reserved": 0, "fusion_lon": 0.0, "fusion_lat": 0.0, "lon": -77.01666283333333, "name": "38cf798e049db0808d4428165648928d"}, {"bike_id": "e34e2bfc4e795f53141ebe4be84152e9", "type": "electric_scooter", "is_disabled": 0, "lat": 38.907965833333336, "rental_uris": {"ios": "https://dc.lft.to/lastmile_qr_scan", "android": "https://dc.lft.to/lastmile_qr_scan"}, "is_reserved": 0, "fusion_lon": 0.0, "fusion_lat": 0.0, "lon": -77.03991366666666, "name": "e34e2bfc4e795f53141ebe4be84152e9"}, {"bike_id": "f326e73e2985ffb98c7e03cd55aac351", "type": "electric_bike", "is_disabled": 0, "lat": 38.883214333333335, "rental_uris": {"ios": "https://dc.lft.to/lastmile_qr_scan", "android": "https://dc.lft.to/lastmile_qr_scan"}, "is_reserved": 0, "fusion_lon": 0.0, "fusion_lat": 0.0, "lon": -76.96056966666667, "name": "f326e73e2985ffb98c7e03cd55aac351"}, {"bike_id": "dc0736e6668b236a220c06c4de0aaac2", "type": "electric_scooter", "is_disabled": 0, "lat": 38.87371683333333, "rental_uris": {"ios": "https://dc.lft.to/lastmile_qr_scan", "android": "https://dc.lft.to/lastmile_qr_scan"}, "is_reserved": 0, "fusion_lon": 0.0, "fusion_lat": 0.0, "lon": -77.00116083333333, "name": "dc0736e6668b236a220c06c4de0aaac2"}, {"bike_id": "0f4d2e19f614a380880fa329d2404b53", "type": "electric_scooter", "is_disabled": 0, "lat": 38.90964483333333, "rental_uris": {"ios": "https://dc.lft.to/lastmile_qr_scan", "android": "https://dc.lft.to/lastmile_qr_scan"}, "is_reserved": 0, "fusion_lon": 0.0, "fusion_lat": 0.0, "lon": -77.02177316666666, "name": "0f4d2e19f614a380880fa329d2404b53"}, {"bike_id": "aa23ef411138041d1d65176d2d53e9ba", "type": "electric_scooter", "is_disabled": 0, "lat": 38.89222516666667, "rental_uris": {"ios": "https://dc.lft.to/lastmile_qr_scan", "android": "https://dc.lft.to/lastmile_qr_scan"}, "is_reserved": 0, "fusion_lon": 0.0, "fusion_lat": 0.0, "lon": -77.03019283333333, "name": "aa23ef411138041d1d65176d2d53e9ba"}, {"bike_id": "a291df716773c886134b8305c940c2fa", "type": "electric_scooter", "is_disabled": 0, "lat": 38.87299333333333, "rental_uris": {"ios": "https://dc.lft.to/lastmile_qr_scan", "android": "https://dc.lft.to/lastmile_qr_scan"}, "is_reserved": 0, "fusion_lon": 0.0, "fusion_lat": 0.0, "lon": -77.00979016666666, "name": "a291df716773c886134b8305c940c2fa"}, {"bike_id": "379a62a674dbb6ac5fa7db0ad7bbbc8d", "type": "electric_scooter", "is_disabled": 0, "lat": 38.9047275, "rental_uris": {"ios": "https://dc.lft.to/lastmile_qr_scan", "android": "https://dc.lft.to/lastmile_qr_scan"}, "is_reserved": 0, "fusion_lon": 0.0, "fusion_lat": 0.0, "lon": -77.04353216666667, "name": "379a62a674dbb6ac5fa7db0ad7bbbc8d"}, {"bike_id": "762eca85f24a59bae959e07b57414d31", "type": "electric_scooter", "is_disabled": 0, "lat": 38.878184, "rental_uris": {"ios": "https://dc.lft.to/lastmile_qr_scan", "android": "https://dc.lft.to/lastmile_qr_scan"}, "is_reserved": 0, "fusion_lon": 0.0, "fusion_lat": 0.0, "lon": -77.0079865, "name": "762eca85f24a59bae959e07b57414d31"}, {"bike_id": "81fec3b83ef6659fe0d390a99f5120bb", "type": "electric_scooter", "is_disabled": 0, "lat": 38.90348933333333, "rental_uris": {"ios": "https://dc.lft.to/lastmile_qr_scan", "android": "https://dc.lft.to/lastmile_qr_scan"}, "is_reserved": 0, "fusion_lon": 0.0, "fusion_lat": 0.0, "lon": -76.97479566666667, "name": "81fec3b83ef6659fe0d390a99f5120bb"}, {"bike_id": "bf5ab5661f31e09566940306097f25f7", "type": "electric_scooter", "is_disabled": 0, "lat": 38.918195, "rental_uris": {"ios": "https://dc.lft.to/lastmile_qr_scan", "android": "https://dc.lft.to/lastmile_qr_scan"}, "is_reserved": 0, "fusion_lon": 0.0, "fusion_lat": 0.0, "lon": -77.02702266666667, "name": "bf5ab5661f31e09566940306097f25f7"}, {"bike_id": "8b5d36217a535e79f4cfbe42e0953d37", "type": "electric_scooter", "is_disabled": 0, "lat": 38.904646, "rental_uris": {"ios": "https://dc.lft.to/lastmile_qr_scan", "android": "https://dc.lft.to/lastmile_qr_scan"}, "is_reserved": 0, "fusion_lon": 0.0, "fusion_lat": 0.0, "lon": -76.97610933333333, "name": "8b5d36217a535e79f4cfbe42e0953d37"}, {"bike_id": "c87d365376296b2cde46dce38656ff9c", "type": "electric_scooter", "is_disabled": 0, "lat": 38.912093166666665, "rental_uris": {"ios": "https://dc.lft.to/lastmile_qr_scan", "android": "https://dc.lft.to/lastmile_qr_scan"}, "is_reserved": 0, "fusion_lon": 0.0, "fusion_lat": 0.0, "lon": -77.04465483333334, "name": "c87d365376296b2cde46dce38656ff9c"}, {"bike_id": "76099c5e34ab1d4b6e38e1b25351c6dd", "type": "electric_scooter", "is_disabled": 0, "lat": 38.90681333333333, "rental_uris": {"ios": "https://dc.lft.to/lastmile_qr_scan", "android": "https://dc.lft.to/lastmile_qr_scan"}, "is_reserved": 0, "fusion_lon": 0.0, "fusion_lat": 0.0, "lon": -76.980041, "name": "76099c5e34ab1d4b6e38e1b25351c6dd"}, {"bike_id": "36418748672e7942e5caad42cbf997dc", "type": "electric_scooter", "is_disabled": 0, "lat": 38.9246995, "rental_uris": {"ios": "https://dc.lft.to/lastmile_qr_scan", "android": "https://dc.lft.to/lastmile_qr_scan"}, "is_reserved": 0, "fusion_lon": 0.0, "fusion_lat": 0.0, "lon": -77.02713416666667, "name": "36418748672e7942e5caad42cbf997dc"}, {"bike_id": "4dec1380f71560c18038417e73a0b768", "type": "electric_scooter", "is_disabled": 0, "lat": 38.921443333333336, "rental_uris": {"ios": "https://dc.lft.to/lastmile_qr_scan", "android": "https://dc.lft.to/lastmile_qr_scan"}, "is_reserved": 0, "fusion_lon": 0.0, "fusion_lat": 0.0, "lon": -77.03385883333333, "name": "4dec1380f71560c18038417e73a0b768"}, {"bike_id": "3acaabba197205b75819e1009959ea1e", "type": "electric_scooter", "is_disabled": 0, "lat": 38.91610216666667, "rental_uris": {"ios": "https://dc.lft.to/lastmile_qr_scan", "android": "https://dc.lft.to/lastmile_qr_scan"}, "is_reserved": 0, "fusion_lon": 0.0, "fusion_lat": 0.0, "lon": -77.048815, "name": "3acaabba197205b75819e1009959ea1e"}, {"bike_id": "9a3c756e6221f1c76f041602c5ce2b72", "type": "electric_bike", "is_disabled": 0, "lat": 38.93225416666667, "rental_uris": {"ios": "https://dc.lft.to/lastmile_qr_scan", "android": "https://dc.lft.to/lastmile_qr_scan"}, "is_reserved": 0, "fusion_lon": 0.0, "fusion_lat": 0.0, "lon": -77.1812245, "name": "9a3c756e6221f1c76f041602c5ce2b72"}, {"bike_id": "b856d27bb7c42569d061efb3bbeaa4e6", "type": "electric_scooter", "is_disabled": 0, "lat": 38.903898833333336, "rental_uris": {"ios": "https://dc.lft.to/lastmile_qr_scan", "android": "https://dc.lft.to/lastmile_qr_scan"}, "is_reserved": 0, "fusion_lon": 0.0, "fusion_lat": 0.0, "lon": -77.02214566666666, "name": "b856d27bb7c42569d061efb3bbeaa4e6"}, {"bike_id": "fc6841341382397501d4392fd3c3141a", "type": "electric_scooter", "is_disabled": 0, "lat": 38.8988525, "rental_uris": {"ios": "https://dc.lft.to/lastmile_qr_scan", "android": "https://dc.lft.to/lastmile_qr_scan"}, "is_reserved": 0, "fusion_lon": 0.0, "fusion_lat": 0.0, "lon": -76.9317675, "name": "fc6841341382397501d4392fd3c3141a"}, {"bike_id": "b960e8aa063c286134ee1ffecfce0d93", "type": "electric_scooter", "is_disabled": 0, "lat": 38.920669, "rental_uris": {"ios": "https://dc.lft.to/lastmile_qr_scan", "android": "https://dc.lft.to/lastmile_qr_scan"}, "is_reserved": 0, "fusion_lon": 0.0, "fusion_lat": 0.0, "lon": -77.0380745, "name": "b960e8aa063c286134ee1ffecfce0d93"}, {"bike_id": "21e7e7087a765820c1126de8adb27056", "type": "electric_scooter", "is_disabled": 0, "lat": 38.89239233333333, "rental_uris": {"ios": "https://dc.lft.to/lastmile_qr_scan", "android": "https://dc.lft.to/lastmile_qr_scan"}, "is_reserved": 0, "fusion_lon": 0.0, "fusion_lat": 0.0, "lon": -77.0450565, "name": "21e7e7087a765820c1126de8adb27056"}, {"bike_id": "46537d95d9c84b3014c4701e5efff2d0", "type": "electric_scooter", "is_disabled": 0, "lat": 38.887437, "rental_uris": {"ios": "https://dc.lft.to/lastmile_qr_scan", "android": "https://dc.lft.to/lastmile_qr_scan"}, "is_reserved": 0, "fusion_lon": 0.0, "fusion_lat": 0.0, "lon": -77.03165516666667, "name": "46537d95d9c84b3014c4701e5efff2d0"}, {"bike_id": "3062e9f62520eafe437dc2a4036cdc70", "type": "electric_scooter", "is_disabled": 0, "lat": 38.92854416666667, "rental_uris": {"ios": "https://dc.lft.to/lastmile_qr_scan", "android": "https://dc.lft.to/lastmile_qr_scan"}, "is_reserved": 0, "fusion_lon": 0.0, "fusion_lat": 0.0, "lon": -77.03364883333333, "name": "3062e9f62520eafe437dc2a4036cdc70"}, {"bike_id": "dcca5f00fa56b6cfbbacdd15e878da94", "type": "electric_scooter", "is_disabled": 0, "lat": 38.90956533333333, "rental_uris": {"ios": "https://dc.lft.to/lastmile_qr_scan", "android": "https://dc.lft.to/lastmile_qr_scan"}, "is_reserved": 0, "fusion_lon": 0.0, "fusion_lat": 0.0, "lon": -77.03286066666666, "name": "dcca5f00fa56b6cfbbacdd15e878da94"}, {"bike_id": "2f286c4c917759079efb1d399a47dd75", "type": "electric_scooter", "is_disabled": 0, "lat": 38.9058215, "rental_uris": {"ios": "https://dc.lft.to/lastmile_qr_scan", "android": "https://dc.lft.to/lastmile_qr_scan"}, "is_reserved": 0, "fusion_lon": 0.0, "fusion_lat": 0.0, "lon": -77.00581516666666, "name": "2f286c4c917759079efb1d399a47dd75"}, {"bike_id": "d721306b6dc9025bca549bc51f5c5d2e", "type": "electric_scooter", "is_disabled": 0, "lat": 38.900361333333336, "rental_uris": {"ios": "https://dc.lft.to/lastmile_qr_scan", "android": "https://dc.lft.to/lastmile_qr_scan"}, "is_reserved": 0, "fusion_lon": 0.0, "fusion_lat": 0.0, "lon": -76.99153133333333, "name": "d721306b6dc9025bca549bc51f5c5d2e"}, {"bike_id": "525b5d0e5c511c0b005ea433f2aacbbc", "type": "electric_scooter", "is_disabled": 0, "lat": 38.896123833333334, "rental_uris": {"ios": "https://dc.lft.to/lastmile_qr_scan", "android": "https://dc.lft.to/lastmile_qr_scan"}, "is_reserved": 0, "fusion_lon": 0.0, "fusion_lat": 0.0, "lon": -77.044992, "name": "525b5d0e5c511c0b005ea433f2aacbbc"}, {"bike_id": "5d7037d85c37bdcdaddf60a4ef6d43fd", "type": "electric_scooter", "is_disabled": 0, "lat": 38.96607816666667, "rental_uris": {"ios": "https://dc.lft.to/lastmile_qr_scan", "android": "https://dc.lft.to/lastmile_qr_scan"}, "is_reserved": 0, "fusion_lon": 0.0, "fusion_lat": 0.0, "lon": -77.01979683333333, "name": "5d7037d85c37bdcdaddf60a4ef6d43fd"}, {"bike_id": "f13aa71dbde6d9c9b5926f954cd5d538", "type": "electric_scooter", "is_disabled": 0, "lat": 38.899593, "rental_uris": {"ios": "https://dc.lft.to/lastmile_qr_scan", "android": "https://dc.lft.to/lastmile_qr_scan"}, "is_reserved": 0, "fusion_lon": 0.0, "fusion_lat": 0.0, "lon": -77.01983266666667, "name": "f13aa71dbde6d9c9b5926f954cd5d538"}, {"bike_id": "4c66bd446c9adb62eecf82fd7c8a2588", "type": "electric_scooter", "is_disabled": 0, "lat": 38.9142185, "rental_uris": {"ios": "https://dc.lft.to/lastmile_qr_scan", "android": "https://dc.lft.to/lastmile_qr_scan"}, "is_reserved": 0, "fusion_lon": 0.0, "fusion_lat": 0.0, "lon": -77.02226283333333, "name": "4c66bd446c9adb62eecf82fd7c8a2588"}, {"bike_id": "410eb2a210ad3cb29c0343e36f0e1621", "type": "electric_scooter", "is_disabled": 0, "lat": 38.895404166666665, "rental_uris": {"ios": "https://dc.lft.to/lastmile_qr_scan", "android": "https://dc.lft.to/lastmile_qr_scan"}, "is_reserved": 0, "fusion_lon": 0.0, "fusion_lat": 0.0, "lon": -77.02285933333333, "name": "410eb2a210ad3cb29c0343e36f0e1621"}, {"bike_id": "0672a216763e7887599ed4dd332664eb", "type": "electric_scooter", "is_disabled": 0, "lat": 38.91186, "rental_uris": {"ios": "https://dc.lft.to/lastmile_qr_scan", "android": "https://dc.lft.to/lastmile_qr_scan"}, "is_reserved": 0, "fusion_lon": 0.0, "fusion_lat": 0.0, "lon": -77.0383385, "name": "0672a216763e7887599ed4dd332664eb"}, {"bike_id": "a2dada7cdcf34bc02880ec1141ba4b58", "type": "electric_scooter", "is_disabled": 0, "lat": 38.90248233333333, "rental_uris": {"ios": "https://dc.lft.to/lastmile_qr_scan", "android": "https://dc.lft.to/lastmile_qr_scan"}, "is_reserved": 0, "fusion_lon": 0.0, "fusion_lat": 0.0, "lon": -76.98668466666666, "name": "a2dada7cdcf34bc02880ec1141ba4b58"}, {"bike_id": "f2209fe4799e35113e185410a96393a2", "type": "electric_bike", "is_disabled": 0, "lat": 38.80708216666667, "rental_uris": {"ios": "https://dc.lft.to/lastmile_qr_scan", "android": "https://dc.lft.to/lastmile_qr_scan"}, "is_reserved": 0, "fusion_lon": 0.0, "fusion_lat": 0.0, "lon": -77.06175733333333, "name": "f2209fe4799e35113e185410a96393a2"}, {"bike_id": "c5a5625c3371cdb390f4b07ebcf7de0c", "type": "electric_bike", "is_disabled": 0, "lat": 38.88484283333333, "rental_uris": {"ios": "https://dc.lft.to/lastmile_qr_scan", "android": "https://dc.lft.to/lastmile_qr_scan"}, "is_reserved": 0, "fusion_lon": 0.0, "fusion_lat": 0.0, "lon": -77.020294, "name": "c5a5625c3371cdb390f4b07ebcf7de0c"}, {"bike_id": "9077145c82c9b81147befeeff1ceabbd", "type": "electric_bike", "is_disabled": 0, "lat": 38.883833333333335, "rental_uris": {"ios": "https://dc.lft.to/lastmile_qr_scan", "android": "https://dc.lft.to/lastmile_qr_scan"}, "is_reserved": 0, "fusion_lon": 0.0, "fusion_lat": 0.0, "lon": -77.0242305, "name": "9077145c82c9b81147befeeff1ceabbd"}, {"bike_id": "88697ce21e139abaaa5b1dddbb42bef8", "type": "electric_scooter", "is_disabled": 0, "lat": 38.885397833333336, "rental_uris": {"ios": "https://dc.lft.to/lastmile_qr_scan", "android": "https://dc.lft.to/lastmile_qr_scan"}, "is_reserved": 0, "fusion_lon": 0.0, "fusion_lat": 0.0, "lon": -77.00581016666666, "name": "88697ce21e139abaaa5b1dddbb42bef8"}, {"bike_id": "31c82dca2b5460bb08018787df22f1e3", "type": "electric_scooter", "is_disabled": 0, "lat": 38.873603333333335, "rental_uris": {"ios": "https://dc.lft.to/lastmile_qr_scan", "android": "https://dc.lft.to/lastmile_qr_scan"}, "is_reserved": 0, "fusion_lon": 0.0, "fusion_lat": 0.0, "lon": -76.97028866666666, "name": "31c82dca2b5460bb08018787df22f1e3"}, {"bike_id": "659ee8d2a704eed618c85ca1e3b5ddf0", "type": "electric_scooter", "is_disabled": 0, "lat": 38.93327933333333, "rental_uris": {"ios": "https://dc.lft.to/lastmile_qr_scan", "android": "https://dc.lft.to/lastmile_qr_scan"}, "is_reserved": 0, "fusion_lon": 0.0, "fusion_lat": 0.0, "lon": -77.0285735, "name": "659ee8d2a704eed618c85ca1e3b5ddf0"}, {"bike_id": "a0eaf36232ffa0b023d994199a63329d", "type": "electric_scooter", "is_disabled": 0, "lat": 38.9046865, "rental_uris": {"ios": "https://dc.lft.to/lastmile_qr_scan", "android": "https://dc.lft.to/lastmile_qr_scan"}, "is_reserved": 0, "fusion_lon": 0.0, "fusion_lat": 0.0, "lon": -77.0489315, "name": "a0eaf36232ffa0b023d994199a63329d"}, {"bike_id": "85e1d6c34da0d0c6f393a21e7634adad", "type": "electric_scooter", "is_disabled": 0, "lat": 38.919772, "rental_uris": {"ios": "https://dc.lft.to/lastmile_qr_scan", "android": "https://dc.lft.to/lastmile_qr_scan"}, "is_reserved": 0, "fusion_lon": 0.0, "fusion_lat": 0.0, "lon": -77.01221866666667, "name": "85e1d6c34da0d0c6f393a21e7634adad"}, {"bike_id": "f8bb9f2bc27a20f31bf27f3768e75dfe", "type": "electric_scooter", "is_disabled": 0, "lat": 38.897429833333334, "rental_uris": {"ios": "https://dc.lft.to/lastmile_qr_scan", "android": "https://dc.lft.to/lastmile_qr_scan"}, "is_reserved": 0, "fusion_lon": 0.0, "fusion_lat": 0.0, "lon": -77.02182533333334, "name": "f8bb9f2bc27a20f31bf27f3768e75dfe"}, {"bike_id": "dc607d5e5cc82d618c1d6aedb6f41035", "type": "electric_bike", "is_disabled": 0, "lat": 38.8044655, "rental_uris": {"ios": "https://dc.lft.to/lastmile_qr_scan", "android": "https://dc.lft.to/lastmile_qr_scan"}, "is_reserved": 0, "fusion_lon": 0.0, "fusion_lat": 0.0, "lon": -77.053957, "name": "dc607d5e5cc82d618c1d6aedb6f41035"}, {"bike_id": "d2d3a68280245cdb4ab8aeb49ab7b7bb", "type": "electric_scooter", "is_disabled": 0, "lat": 38.924418, "rental_uris": {"ios": "https://dc.lft.to/lastmile_qr_scan", "android": "https://dc.lft.to/lastmile_qr_scan"}, "is_reserved": 0, "fusion_lon": 0.0, "fusion_lat": 0.0, "lon": -77.02150733333333, "name": "d2d3a68280245cdb4ab8aeb49ab7b7bb"}, {"bike_id": "599e4f41e82008a6e98960c8918a74d5", "type": "electric_bike", "is_disabled": 0, "lat": 38.950889333333336, "rental_uris": {"ios": "https://dc.lft.to/lastmile_qr_scan", "android": "https://dc.lft.to/lastmile_qr_scan"}, "is_reserved": 0, "fusion_lon": 0.0, "fusion_lat": 0.0, "lon": -76.99791516666667, "name": "599e4f41e82008a6e98960c8918a74d5"}, {"bike_id": "4190fb070ce65a9c3b73cdb460817182", "type": "electric_bike", "is_disabled": 0, "lat": 38.95330033333333, "rental_uris": {"ios": "https://dc.lft.to/lastmile_qr_scan", "android": "https://dc.lft.to/lastmile_qr_scan"}, "is_reserved": 0, "fusion_lon": 0.0, "fusion_lat": 0.0, "lon": -76.98251566666667, "name": "4190fb070ce65a9c3b73cdb460817182"}, {"bike_id": "b10693f2660a6ebac5d0ef67c670f99d", "type": "electric_bike", "is_disabled": 0, "lat": 38.8115955, "rental_uris": {"ios": "https://dc.lft.to/lastmile_qr_scan", "android": "https://dc.lft.to/lastmile_qr_scan"}, "is_reserved": 0, "fusion_lon": 0.0, "fusion_lat": 0.0, "lon": -77.06957516666667, "name": "b10693f2660a6ebac5d0ef67c670f99d"}, {"bike_id": "0d9ca716e8153127e3d54460d05e89f8", "type": "electric_scooter", "is_disabled": 0, "lat": 38.91193083333334, "rental_uris": {"ios": "https://dc.lft.to/lastmile_qr_scan", "android": "https://dc.lft.to/lastmile_qr_scan"}, "is_reserved": 0, "fusion_lon": 0.0, "fusion_lat": 0.0, "lon": -77.039673, "name": "0d9ca716e8153127e3d54460d05e89f8"}, {"bike_id": "f2754b78e2c02d907014c32c04344d1e", "type": "electric_scooter", "is_disabled": 0, "lat": 38.90902366666667, "rental_uris": {"ios": "https://dc.lft.to/lastmile_qr_scan", "android": "https://dc.lft.to/lastmile_qr_scan"}, "is_reserved": 0, "fusion_lon": 0.0, "fusion_lat": 0.0, "lon": -77.02711416666666, "name": "f2754b78e2c02d907014c32c04344d1e"}, {"bike_id": "db514388134addabfcffc70ab38123ca", "type": "electric_scooter", "is_disabled": 0, "lat": 38.91995266666667, "rental_uris": {"ios": "https://dc.lft.to/lastmile_qr_scan", "android": "https://dc.lft.to/lastmile_qr_scan"}, "is_reserved": 0, "fusion_lon": 0.0, "fusion_lat": 0.0, "lon": -77.03244466666666, "name": "db514388134addabfcffc70ab38123ca"}, {"bike_id": "635f0030c78a97087defcfc7ec12f806", "type": "electric_scooter", "is_disabled": 0, "lat": 38.93391533333333, "rental_uris": {"ios": "https://dc.lft.to/lastmile_qr_scan", "android": "https://dc.lft.to/lastmile_qr_scan"}, "is_reserved": 0, "fusion_lon": 0.0, "fusion_lat": 0.0, "lon": -77.03222183333334, "name": "635f0030c78a97087defcfc7ec12f806"}, {"bike_id": "be0f363610317a61650434c87a52e60a", "type": "electric_scooter", "is_disabled": 0, "lat": 38.909501666666664, "rental_uris": {"ios": "https://dc.lft.to/lastmile_qr_scan", "android": "https://dc.lft.to/lastmile_qr_scan"}, "is_reserved": 0, "fusion_lon": 0.0, "fusion_lat": 0.0, "lon": -77.04882616666667, "name": "be0f363610317a61650434c87a52e60a"}, {"bike_id": "17f23c2a85aee531b764dfd382b0c408", "type": "electric_scooter", "is_disabled": 0, "lat": 38.8842705, "rental_uris": {"ios": "https://dc.lft.to/lastmile_qr_scan", "android": "https://dc.lft.to/lastmile_qr_scan"}, "is_reserved": 0, "fusion_lon": 0.0, "fusion_lat": 0.0, "lon": -76.95754716666667, "name": "17f23c2a85aee531b764dfd382b0c408"}, {"bike_id": "1d286ce6d652877344ba7437d4ec57e0", "type": "electric_scooter", "is_disabled": 0, "lat": 38.905523333333335, "rental_uris": {"ios": "https://dc.lft.to/lastmile_qr_scan", "android": "https://dc.lft.to/lastmile_qr_scan"}, "is_reserved": 0, "fusion_lon": 0.0, "fusion_lat": 0.0, "lon": -76.9961885, "name": "1d286ce6d652877344ba7437d4ec57e0"}, {"bike_id": "e3ebe1709220984a1fa91bc5fdebe440", "type": "electric_scooter", "is_disabled": 0, "lat": 38.8944715, "rental_uris": {"ios": "https://dc.lft.to/lastmile_qr_scan", "android": "https://dc.lft.to/lastmile_qr_scan"}, "is_reserved": 0, "fusion_lon": 0.0, "fusion_lat": 0.0, "lon": -77.0467635, "name": "e3ebe1709220984a1fa91bc5fdebe440"}, {"bike_id": "caf783901bfe20a705b83b974f9f01ec", "type": "electric_bike", "is_disabled": 0, "lat": 38.8392995, "rental_uris": {"ios": "https://dc.lft.to/lastmile_qr_scan", "android": "https://dc.lft.to/lastmile_qr_scan"}, "is_reserved": 0, "fusion_lon": 0.0, "fusion_lat": 0.0, "lon": -77.07903, "name": "caf783901bfe20a705b83b974f9f01ec"}, {"bike_id": "2ed3a1767bab82b47ac39879c08b697a", "type": "electric_scooter", "is_disabled": 0, "lat": 38.8708665, "rental_uris": {"ios": "https://dc.lft.to/lastmile_qr_scan", "android": "https://dc.lft.to/lastmile_qr_scan"}, "is_reserved": 0, "fusion_lon": 0.0, "fusion_lat": 0.0, "lon": -77.01376616666667, "name": "2ed3a1767bab82b47ac39879c08b697a"}, {"bike_id": "f150565a63bc58553001436e8cddc636", "type": "electric_scooter", "is_disabled": 0, "lat": 38.91967566666667, "rental_uris": {"ios": "https://dc.lft.to/lastmile_qr_scan", "android": "https://dc.lft.to/lastmile_qr_scan"}, "is_reserved": 0, "fusion_lon": 0.0, "fusion_lat": 0.0, "lon": -77.04224933333333, "name": "f150565a63bc58553001436e8cddc636"}, {"bike_id": "0fb4ad9137c8bb8a8e98d305b57078d9", "type": "electric_scooter", "is_disabled": 0, "lat": 38.92351816666667, "rental_uris": {"ios": "https://dc.lft.to/lastmile_qr_scan", "android": "https://dc.lft.to/lastmile_qr_scan"}, "is_reserved": 0, "fusion_lon": 0.0, "fusion_lat": 0.0, "lon": -77.04148483333333, "name": "0fb4ad9137c8bb8a8e98d305b57078d9"}, {"bike_id": "395390b244cb0dd45b48dc921ae9c50c", "type": "electric_scooter", "is_disabled": 0, "lat": 38.9239795, "rental_uris": {"ios": "https://dc.lft.to/lastmile_qr_scan", "android": "https://dc.lft.to/lastmile_qr_scan"}, "is_reserved": 0, "fusion_lon": 0.0, "fusion_lat": 0.0, "lon": -76.99369016666667, "name": "395390b244cb0dd45b48dc921ae9c50c"}, {"bike_id": "1d31cee7f1103ea3f10ad8f0aa4830bf", "type": "electric_scooter", "is_disabled": 0, "lat": 38.91423566666667, "rental_uris": {"ios": "https://dc.lft.to/lastmile_qr_scan", "android": "https://dc.lft.to/lastmile_qr_scan"}, "is_reserved": 0, "fusion_lon": 0.0, "fusion_lat": 0.0, "lon": -77.01983733333333, "name": "1d31cee7f1103ea3f10ad8f0aa4830bf"}, {"bike_id": "3db6c2597e743c0e7fcf6f0389722c23", "type": "electric_scooter", "is_disabled": 0, "lat": 38.92096766666667, "rental_uris": {"ios": "https://dc.lft.to/lastmile_qr_scan", "android": "https://dc.lft.to/lastmile_qr_scan"}, "is_reserved": 0, "fusion_lon": 0.0, "fusion_lat": 0.0, "lon": -77.04169283333333, "name": "3db6c2597e743c0e7fcf6f0389722c23"}, {"bike_id": "53ee4bf3362103980091b7dc93d20546", "type": "electric_scooter", "is_disabled": 0, "lat": 38.88710116666667, "rental_uris": {"ios": "https://dc.lft.to/lastmile_qr_scan", "android": "https://dc.lft.to/lastmile_qr_scan"}, "is_reserved": 0, "fusion_lon": 0.0, "fusion_lat": 0.0, "lon": -77.01777783333333, "name": "53ee4bf3362103980091b7dc93d20546"}, {"bike_id": "18e0871663987041b2dff938681d0187", "type": "electric_scooter", "is_disabled": 0, "lat": 38.918859833333336, "rental_uris": {"ios": "https://dc.lft.to/lastmile_qr_scan", "android": "https://dc.lft.to/lastmile_qr_scan"}, "is_reserved": 0, "fusion_lon": 0.0, "fusion_lat": 0.0, "lon": -77.04127133333333, "name": "18e0871663987041b2dff938681d0187"}, {"bike_id": "38855609724d4577629e7a66ea17a01d", "type": "electric_scooter", "is_disabled": 0, "lat": 38.917046666666664, "rental_uris": {"ios": "https://dc.lft.to/lastmile_qr_scan", "android": "https://dc.lft.to/lastmile_qr_scan"}, "is_reserved": 0, "fusion_lon": 0.0, "fusion_lat": 0.0, "lon": -77.0241385, "name": "38855609724d4577629e7a66ea17a01d"}, {"bike_id": "3c4c74f306c9bc27b37969e6ef491b50", "type": "electric_scooter", "is_disabled": 0, "lat": 38.90822766666667, "rental_uris": {"ios": "https://dc.lft.to/lastmile_qr_scan", "android": "https://dc.lft.to/lastmile_qr_scan"}, "is_reserved": 0, "fusion_lon": 0.0, "fusion_lat": 0.0, "lon": -76.9970845, "name": "3c4c74f306c9bc27b37969e6ef491b50"}, {"bike_id": "855585f1a5453511a5de52949c7b4034", "type": "electric_bike", "is_disabled": 0, "lat": 39.01371983333333, "rental_uris": {"ios": "https://dc.lft.to/lastmile_qr_scan", "android": "https://dc.lft.to/lastmile_qr_scan"}, "is_reserved": 0, "fusion_lon": 0.0, "fusion_lat": 0.0, "lon": -76.9213275, "name": "855585f1a5453511a5de52949c7b4034"}, {"bike_id": "8b2dc5eab69dec143e8c7884126cda47", "type": "electric_scooter", "is_disabled": 0, "lat": 38.92260516666666, "rental_uris": {"ios": "https://dc.lft.to/lastmile_qr_scan", "android": "https://dc.lft.to/lastmile_qr_scan"}, "is_reserved": 0, "fusion_lon": 0.0, "fusion_lat": 0.0, "lon": -77.020393, "name": "8b2dc5eab69dec143e8c7884126cda47"}, {"bike_id": "5398572d9e539ca608354782a2d25049", "type": "electric_scooter", "is_disabled": 0, "lat": 38.91378916666667, "rental_uris": {"ios": "https://dc.lft.to/lastmile_qr_scan", "android": "https://dc.lft.to/lastmile_qr_scan"}, "is_reserved": 0, "fusion_lon": 0.0, "fusion_lat": 0.0, "lon": -77.032109, "name": "5398572d9e539ca608354782a2d25049"}, {"bike_id": "1b2af19bfc144f7d026e4b5912a97df2", "type": "electric_scooter", "is_disabled": 0, "lat": 38.89601183333333, "rental_uris": {"ios": "https://dc.lft.to/lastmile_qr_scan", "android": "https://dc.lft.to/lastmile_qr_scan"}, "is_reserved": 0, "fusion_lon": 0.0, "fusion_lat": 0.0, "lon": -77.009265, "name": "1b2af19bfc144f7d026e4b5912a97df2"}, {"bike_id": "bc2d4ada4377d2f9c1f96699a3c64008", "type": "electric_scooter", "is_disabled": 0, "lat": 38.917752, "rental_uris": {"ios": "https://dc.lft.to/lastmile_qr_scan", "android": "https://dc.lft.to/lastmile_qr_scan"}, "is_reserved": 0, "fusion_lon": 0.0, "fusion_lat": 0.0, "lon": -77.0295185, "name": "bc2d4ada4377d2f9c1f96699a3c64008"}, {"bike_id": "9a218c079f3763b43acadfcb835d0bc2", "type": "electric_scooter", "is_disabled": 0, "lat": 38.88540866666666, "rental_uris": {"ios": "https://dc.lft.to/lastmile_qr_scan", "android": "https://dc.lft.to/lastmile_qr_scan"}, "is_reserved": 0, "fusion_lon": 0.0, "fusion_lat": 0.0, "lon": -77.005866, "name": "9a218c079f3763b43acadfcb835d0bc2"}, {"bike_id": "7504381f531518e936c9b2cd693f0b2d", "type": "electric_scooter", "is_disabled": 0, "lat": 38.90347633333333, "rental_uris": {"ios": "https://dc.lft.to/lastmile_qr_scan", "android": "https://dc.lft.to/lastmile_qr_scan"}, "is_reserved": 0, "fusion_lon": 0.0, "fusion_lat": 0.0, "lon": -77.04512316666667, "name": "7504381f531518e936c9b2cd693f0b2d"}, {"bike_id": "3c8036f4d11a3df0539c3f38c49593fe", "type": "electric_scooter", "is_disabled": 0, "lat": 38.90720433333333, "rental_uris": {"ios": "https://dc.lft.to/lastmile_qr_scan", "android": "https://dc.lft.to/lastmile_qr_scan"}, "is_reserved": 0, "fusion_lon": 0.0, "fusion_lat": 0.0, "lon": -77.03203133333334, "name": "3c8036f4d11a3df0539c3f38c49593fe"}, {"bike_id": "4e19f15460e82839286951f1746565c0", "type": "electric_scooter", "is_disabled": 0, "lat": 38.9073375, "rental_uris": {"ios": "https://dc.lft.to/lastmile_qr_scan", "android": "https://dc.lft.to/lastmile_qr_scan"}, "is_reserved": 0, "fusion_lon": 0.0, "fusion_lat": 0.0, "lon": -77.03984866666667, "name": "4e19f15460e82839286951f1746565c0"}, {"bike_id": "f870822d9a897f4d5c4bf50090c0c60e", "type": "electric_scooter", "is_disabled": 0, "lat": 38.902552666666665, "rental_uris": {"ios": "https://dc.lft.to/lastmile_qr_scan", "android": "https://dc.lft.to/lastmile_qr_scan"}, "is_reserved": 0, "fusion_lon": 0.0, "fusion_lat": 0.0, "lon": -77.01775516666666, "name": "f870822d9a897f4d5c4bf50090c0c60e"}, {"bike_id": "245e4ccae62904b872dbe9d5d3b6e380", "type": "electric_scooter", "is_disabled": 0, "lat": 38.89668483333333, "rental_uris": {"ios": "https://dc.lft.to/lastmile_qr_scan", "android": "https://dc.lft.to/lastmile_qr_scan"}, "is_reserved": 0, "fusion_lon": 0.0, "fusion_lat": 0.0, "lon": -76.93212783333334, "name": "245e4ccae62904b872dbe9d5d3b6e380"}, {"bike_id": "4efb6d6da52272bbec737ac42f7aa684", "type": "electric_scooter", "is_disabled": 0, "lat": 38.922858833333336, "rental_uris": {"ios": "https://dc.lft.to/lastmile_qr_scan", "android": "https://dc.lft.to/lastmile_qr_scan"}, "is_reserved": 0, "fusion_lon": 0.0, "fusion_lat": 0.0, "lon": -77.0296895, "name": "4efb6d6da52272bbec737ac42f7aa684"}, {"bike_id": "97fa0a4353946ee5dc56e5a57d775cc4", "type": "electric_scooter", "is_disabled": 0, "lat": 38.8922115, "rental_uris": {"ios": "https://dc.lft.to/lastmile_qr_scan", "android": "https://dc.lft.to/lastmile_qr_scan"}, "is_reserved": 0, "fusion_lon": 0.0, "fusion_lat": 0.0, "lon": -77.03975866666667, "name": "97fa0a4353946ee5dc56e5a57d775cc4"}, {"bike_id": "9ef45f71fe98a5c8c21f3d09f7b4d6ac", "type": "electric_scooter", "is_disabled": 0, "lat": 38.9010215, "rental_uris": {"ios": "https://dc.lft.to/lastmile_qr_scan", "android": "https://dc.lft.to/lastmile_qr_scan"}, "is_reserved": 0, "fusion_lon": 0.0, "fusion_lat": 0.0, "lon": -77.0487945, "name": "9ef45f71fe98a5c8c21f3d09f7b4d6ac"}, {"bike_id": "cf68555b06b303c7ff24a9ee389be37e", "type": "electric_scooter", "is_disabled": 0, "lat": 38.9397025, "rental_uris": {"ios": "https://dc.lft.to/lastmile_qr_scan", "android": "https://dc.lft.to/lastmile_qr_scan"}, "is_reserved": 0, "fusion_lon": 0.0, "fusion_lat": 0.0, "lon": -77.027301, "name": "cf68555b06b303c7ff24a9ee389be37e"}, {"bike_id": "6343cd1630aeb27a6bca97fd55f48ea1", "type": "electric_scooter", "is_disabled": 0, "lat": 38.900099, "rental_uris": {"ios": "https://dc.lft.to/lastmile_qr_scan", "android": "https://dc.lft.to/lastmile_qr_scan"}, "is_reserved": 0, "fusion_lon": 0.0, "fusion_lat": 0.0, "lon": -77.02722166666666, "name": "6343cd1630aeb27a6bca97fd55f48ea1"}, {"bike_id": "f4909e4fe6418223c7c1e529ab76d5f2", "type": "electric_scooter", "is_disabled": 0, "lat": 38.918417166666664, "rental_uris": {"ios": "https://dc.lft.to/lastmile_qr_scan", "android": "https://dc.lft.to/lastmile_qr_scan"}, "is_reserved": 0, "fusion_lon": 0.0, "fusion_lat": 0.0, "lon": -77.03219533333333, "name": "f4909e4fe6418223c7c1e529ab76d5f2"}, {"bike_id": "c4282920d5e42652a44422a5650c6d31", "type": "electric_scooter", "is_disabled": 0, "lat": 38.90499633333334, "rental_uris": {"ios": "https://dc.lft.to/lastmile_qr_scan", "android": "https://dc.lft.to/lastmile_qr_scan"}, "is_reserved": 0, "fusion_lon": 0.0, "fusion_lat": 0.0, "lon": -77.06885583333333, "name": "c4282920d5e42652a44422a5650c6d31"}, {"bike_id": "abee9fc686a5a876269b33c048c77ada", "type": "electric_scooter", "is_disabled": 0, "lat": 38.916609333333334, "rental_uris": {"ios": "https://dc.lft.to/lastmile_qr_scan", "android": "https://dc.lft.to/lastmile_qr_scan"}, "is_reserved": 0, "fusion_lon": 0.0, "fusion_lat": 0.0, "lon": -77.02313483333333, "name": "abee9fc686a5a876269b33c048c77ada"}, {"bike_id": "9f0605e8f011f2def45719a504410a71", "type": "electric_scooter", "is_disabled": 0, "lat": 38.8991365, "rental_uris": {"ios": "https://dc.lft.to/lastmile_qr_scan", "android": "https://dc.lft.to/lastmile_qr_scan"}, "is_reserved": 0, "fusion_lon": 0.0, "fusion_lat": 0.0, "lon": -76.93376833333333, "name": "9f0605e8f011f2def45719a504410a71"}, {"bike_id": "047eb30efa143aa8f2887c898beb1567", "type": "electric_scooter", "is_disabled": 0, "lat": 38.90566966666667, "rental_uris": {"ios": "https://dc.lft.to/lastmile_qr_scan", "android": "https://dc.lft.to/lastmile_qr_scan"}, "is_reserved": 0, "fusion_lon": 0.0, "fusion_lat": 0.0, "lon": -77.00552866666666, "name": "047eb30efa143aa8f2887c898beb1567"}, {"bike_id": "226e601336f637996d9c67daff596709", "type": "electric_scooter", "is_disabled": 0, "lat": 38.900971, "rental_uris": {"ios": "https://dc.lft.to/lastmile_qr_scan", "android": "https://dc.lft.to/lastmile_qr_scan"}, "is_reserved": 0, "fusion_lon": 0.0, "fusion_lat": 0.0, "lon": -77.012224, "name": "226e601336f637996d9c67daff596709"}, {"bike_id": "9bb9538c9e1687ba01032963bd113042", "type": "electric_scooter", "is_disabled": 0, "lat": 38.907198666666666, "rental_uris": {"ios": "https://dc.lft.to/lastmile_qr_scan", "android": "https://dc.lft.to/lastmile_qr_scan"}, "is_reserved": 0, "fusion_lon": 0.0, "fusion_lat": 0.0, "lon": -77.02982566666667, "name": "9bb9538c9e1687ba01032963bd113042"}, {"bike_id": "ade50e196ca091ea656ee280da41f996", "type": "electric_scooter", "is_disabled": 0, "lat": 38.921097, "rental_uris": {"ios": "https://dc.lft.to/lastmile_qr_scan", "android": "https://dc.lft.to/lastmile_qr_scan"}, "is_reserved": 0, "fusion_lon": 0.0, "fusion_lat": 0.0, "lon": -77.0633365, "name": "ade50e196ca091ea656ee280da41f996"}, {"bike_id": "f3bc8b7163d458bbf0ada7f85c0c5f50", "type": "electric_scooter", "is_disabled": 0, "lat": 38.8970985, "rental_uris": {"ios": "https://dc.lft.to/lastmile_qr_scan", "android": "https://dc.lft.to/lastmile_qr_scan"}, "is_reserved": 0, "fusion_lon": 0.0, "fusion_lat": 0.0, "lon": -77.027247, "name": "f3bc8b7163d458bbf0ada7f85c0c5f50"}, {"bike_id": "62bff6df5cae9fc382d9c8369fe23910", "type": "electric_bike", "is_disabled": 0, "lat": 38.937049, "rental_uris": {"ios": "https://dc.lft.to/lastmile_qr_scan", "android": "https://dc.lft.to/lastmile_qr_scan"}, "is_reserved": 0, "fusion_lon": 0.0, "fusion_lat": 0.0, "lon": -77.05608066666667, "name": "62bff6df5cae9fc382d9c8369fe23910"}, {"bike_id": "49ececba821a1a9ad832553d69031322", "type": "electric_scooter", "is_disabled": 0, "lat": 38.9354445, "rental_uris": {"ios": "https://dc.lft.to/lastmile_qr_scan", "android": "https://dc.lft.to/lastmile_qr_scan"}, "is_reserved": 0, "fusion_lon": 0.0, "fusion_lat": 0.0, "lon": -77.02503166666666, "name": "49ececba821a1a9ad832553d69031322"}, {"bike_id": "06595cd81114cc7e8c6831e7d79a59ef", "type": "electric_scooter", "is_disabled": 0, "lat": 38.9204015, "rental_uris": {"ios": "https://dc.lft.to/lastmile_qr_scan", "android": "https://dc.lft.to/lastmile_qr_scan"}, "is_reserved": 0, "fusion_lon": 0.0, "fusion_lat": 0.0, "lon": -77.03407283333334, "name": "06595cd81114cc7e8c6831e7d79a59ef"}, {"bike_id": "33d70ea4167b5ced2c47263208bf2b5c", "type": "electric_scooter", "is_disabled": 0, "lat": 38.887076, "rental_uris": {"ios": "https://dc.lft.to/lastmile_qr_scan", "android": "https://dc.lft.to/lastmile_qr_scan"}, "is_reserved": 0, "fusion_lon": 0.0, "fusion_lat": 0.0, "lon": -77.01778233333333, "name": "33d70ea4167b5ced2c47263208bf2b5c"}, {"bike_id": "eb7323950e7a3950f4135041da2baf0d", "type": "electric_scooter", "is_disabled": 0, "lat": 38.91099216666667, "rental_uris": {"ios": "https://dc.lft.to/lastmile_qr_scan", "android": "https://dc.lft.to/lastmile_qr_scan"}, "is_reserved": 0, "fusion_lon": 0.0, "fusion_lat": 0.0, "lon": -77.04474783333333, "name": "eb7323950e7a3950f4135041da2baf0d"}, {"bike_id": "f1c2d13fa30384dbf8c4068e6f2c3c62", "type": "electric_scooter", "is_disabled": 0, "lat": 38.901857666666665, "rental_uris": {"ios": "https://dc.lft.to/lastmile_qr_scan", "android": "https://dc.lft.to/lastmile_qr_scan"}, "is_reserved": 0, "fusion_lon": 0.0, "fusion_lat": 0.0, "lon": -77.05044616666666, "name": "f1c2d13fa30384dbf8c4068e6f2c3c62"}, {"bike_id": "3899da274f99bcbadfc7693aca8a993c", "type": "electric_scooter", "is_disabled": 0, "lat": 38.907290333333336, "rental_uris": {"ios": "https://dc.lft.to/lastmile_qr_scan", "android": "https://dc.lft.to/lastmile_qr_scan"}, "is_reserved": 0, "fusion_lon": 0.0, "fusion_lat": 0.0, "lon": -77.04222966666667, "name": "3899da274f99bcbadfc7693aca8a993c"}, {"bike_id": "d47b019419d61e9c1c5127c82174fb37", "type": "electric_scooter", "is_disabled": 0, "lat": 38.902460833333336, "rental_uris": {"ios": "https://dc.lft.to/lastmile_qr_scan", "android": "https://dc.lft.to/lastmile_qr_scan"}, "is_reserved": 0, "fusion_lon": 0.0, "fusion_lat": 0.0, "lon": -77.04533433333333, "name": "d47b019419d61e9c1c5127c82174fb37"}, {"bike_id": "a3fb8df682490c333fdb15fc3d2b414b", "type": "electric_bike", "is_disabled": 0, "lat": 39.05776, "rental_uris": {"ios": "https://dc.lft.to/lastmile_qr_scan", "android": "https://dc.lft.to/lastmile_qr_scan"}, "is_reserved": 0, "fusion_lon": 0.0, "fusion_lat": 0.0, "lon": -77.15022166666667, "name": "a3fb8df682490c333fdb15fc3d2b414b"}, {"bike_id": "4197400c0542fa969c07027274ad4048", "type": "electric_bike", "is_disabled": 0, "lat": 38.819916666666664, "rental_uris": {"ios": "https://dc.lft.to/lastmile_qr_scan", "android": "https://dc.lft.to/lastmile_qr_scan"}, "is_reserved": 0, "fusion_lon": 0.0, "fusion_lat": 0.0, "lon": -76.99810216666667, "name": "4197400c0542fa969c07027274ad4048"}, {"bike_id": "d587607ec8f2fa9653af3a5368317e55", "type": "electric_scooter", "is_disabled": 0, "lat": 38.9160135, "rental_uris": {"ios": "https://dc.lft.to/lastmile_qr_scan", "android": "https://dc.lft.to/lastmile_qr_scan"}, "is_reserved": 0, "fusion_lon": 0.0, "fusion_lat": 0.0, "lon": -77.02392183333333, "name": "d587607ec8f2fa9653af3a5368317e55"}, {"bike_id": "629d624642f8868b4370c3847c860706", "type": "electric_scooter", "is_disabled": 0, "lat": 38.890158166666666, "rental_uris": {"ios": "https://dc.lft.to/lastmile_qr_scan", "android": "https://dc.lft.to/lastmile_qr_scan"}, "is_reserved": 0, "fusion_lon": 0.0, "fusion_lat": 0.0, "lon": -76.937404, "name": "629d624642f8868b4370c3847c860706"}, {"bike_id": "7b65cde984f992a06179aa08bad784d0", "type": "electric_scooter", "is_disabled": 0, "lat": 38.90267083333333, "rental_uris": {"ios": "https://dc.lft.to/lastmile_qr_scan", "android": "https://dc.lft.to/lastmile_qr_scan"}, "is_reserved": 0, "fusion_lon": 0.0, "fusion_lat": 0.0, "lon": -77.03629333333333, "name": "7b65cde984f992a06179aa08bad784d0"}, {"bike_id": "43c9da7bfbbbf16c957b302429922509", "type": "electric_scooter", "is_disabled": 0, "lat": 38.93241233333333, "rental_uris": {"ios": "https://dc.lft.to/lastmile_qr_scan", "android": "https://dc.lft.to/lastmile_qr_scan"}, "is_reserved": 0, "fusion_lon": 0.0, "fusion_lat": 0.0, "lon": -77.03269616666667, "name": "43c9da7bfbbbf16c957b302429922509"}, {"bike_id": "495882198dcecee103f1c3d64bf475a5", "type": "electric_scooter", "is_disabled": 0, "lat": 38.87113883333333, "rental_uris": {"ios": "https://dc.lft.to/lastmile_qr_scan", "android": "https://dc.lft.to/lastmile_qr_scan"}, "is_reserved": 0, "fusion_lon": 0.0, "fusion_lat": 0.0, "lon": -76.98248816666667, "name": "495882198dcecee103f1c3d64bf475a5"}, {"bike_id": "3b47fd3c0eca48587cd63e0d5e28c42e", "type": "electric_scooter", "is_disabled": 0, "lat": 38.857128, "rental_uris": {"ios": "https://dc.lft.to/lastmile_qr_scan", "android": "https://dc.lft.to/lastmile_qr_scan"}, "is_reserved": 0, "fusion_lon": 0.0, "fusion_lat": 0.0, "lon": -76.98988783333333, "name": "3b47fd3c0eca48587cd63e0d5e28c42e"}, {"bike_id": "1b1017cb58a40952ff3c294fac576b24", "type": "electric_scooter", "is_disabled": 0, "lat": 38.9055585, "rental_uris": {"ios": "https://dc.lft.to/lastmile_qr_scan", "android": "https://dc.lft.to/lastmile_qr_scan"}, "is_reserved": 0, "fusion_lon": 0.0, "fusion_lat": 0.0, "lon": -77.02213416666666, "name": "1b1017cb58a40952ff3c294fac576b24"}, {"bike_id": "2ed75774c70b764f666d86265926cdbb", "type": "electric_scooter", "is_disabled": 0, "lat": 38.89600083333333, "rental_uris": {"ios": "https://dc.lft.to/lastmile_qr_scan", "android": "https://dc.lft.to/lastmile_qr_scan"}, "is_reserved": 0, "fusion_lon": 0.0, "fusion_lat": 0.0, "lon": -76.99031966666666, "name": "2ed75774c70b764f666d86265926cdbb"}, {"bike_id": "24c64ca3a286b220ce082ea961168678", "type": "electric_scooter", "is_disabled": 0, "lat": 38.89611583333333, "rental_uris": {"ios": "https://dc.lft.to/lastmile_qr_scan", "android": "https://dc.lft.to/lastmile_qr_scan"}, "is_reserved": 0, "fusion_lon": 0.0, "fusion_lat": 0.0, "lon": -77.050435, "name": "24c64ca3a286b220ce082ea961168678"}, {"bike_id": "3eb51bce11b32004b19acde80c39b927", "type": "electric_scooter", "is_disabled": 0, "lat": 38.941820166666666, "rental_uris": {"ios": "https://dc.lft.to/lastmile_qr_scan", "android": "https://dc.lft.to/lastmile_qr_scan"}, "is_reserved": 0, "fusion_lon": 0.0, "fusion_lat": 0.0, "lon": -77.02490533333334, "name": "3eb51bce11b32004b19acde80c39b927"}, {"bike_id": "cb58688144f20921857449df8388372c", "type": "electric_scooter", "is_disabled": 0, "lat": 38.8670205, "rental_uris": {"ios": "https://dc.lft.to/lastmile_qr_scan", "android": "https://dc.lft.to/lastmile_qr_scan"}, "is_reserved": 0, "fusion_lon": 0.0, "fusion_lat": 0.0, "lon": -76.98543933333333, "name": "cb58688144f20921857449df8388372c"}, {"bike_id": "524a9038a6dc0e5e6fe492809c19eb6c", "type": "electric_scooter", "is_disabled": 0, "lat": 38.922048, "rental_uris": {"ios": "https://dc.lft.to/lastmile_qr_scan", "android": "https://dc.lft.to/lastmile_qr_scan"}, "is_reserved": 0, "fusion_lon": 0.0, "fusion_lat": 0.0, "lon": -77.01840783333333, "name": "524a9038a6dc0e5e6fe492809c19eb6c"}, {"bike_id": "9483540c79a8ec95d3e04a8eec959a46", "type": "electric_scooter", "is_disabled": 0, "lat": 38.90869466666667, "rental_uris": {"ios": "https://dc.lft.to/lastmile_qr_scan", "android": "https://dc.lft.to/lastmile_qr_scan"}, "is_reserved": 0, "fusion_lon": 0.0, "fusion_lat": 0.0, "lon": -77.04273183333333, "name": "9483540c79a8ec95d3e04a8eec959a46"}, {"bike_id": "52a641538a6f442313e549d45a7bd87d", "type": "electric_scooter", "is_disabled": 0, "lat": 38.9247585, "rental_uris": {"ios": "https://dc.lft.to/lastmile_qr_scan", "android": "https://dc.lft.to/lastmile_qr_scan"}, "is_reserved": 0, "fusion_lon": 0.0, "fusion_lat": 0.0, "lon": -77.02836666666667, "name": "52a641538a6f442313e549d45a7bd87d"}, {"bike_id": "a033d09081dea9ba748b68cea4a78d4e", "type": "electric_scooter", "is_disabled": 0, "lat": 38.918211166666666, "rental_uris": {"ios": "https://dc.lft.to/lastmile_qr_scan", "android": "https://dc.lft.to/lastmile_qr_scan"}, "is_reserved": 0, "fusion_lon": 0.0, "fusion_lat": 0.0, "lon": -77.03251283333333, "name": "a033d09081dea9ba748b68cea4a78d4e"}, {"bike_id": "c7e678b18b0bb4fa8d2c82405563cdb6", "type": "electric_scooter", "is_disabled": 0, "lat": 38.897799166666665, "rental_uris": {"ios": "https://dc.lft.to/lastmile_qr_scan", "android": "https://dc.lft.to/lastmile_qr_scan"}, "is_reserved": 0, "fusion_lon": 0.0, "fusion_lat": 0.0, "lon": -76.94735033333333, "name": "c7e678b18b0bb4fa8d2c82405563cdb6"}, {"bike_id": "32d8b0d878cb1db68b958759e3a0db52", "type": "electric_scooter", "is_disabled": 0, "lat": 38.906114, "rental_uris": {"ios": "https://dc.lft.to/lastmile_qr_scan", "android": "https://dc.lft.to/lastmile_qr_scan"}, "is_reserved": 0, "fusion_lon": 0.0, "fusion_lat": 0.0, "lon": -77.0395895, "name": "32d8b0d878cb1db68b958759e3a0db52"}, {"bike_id": "c604befdaba96a96d8cd98764e3fe7ea", "type": "electric_scooter", "is_disabled": 0, "lat": 38.915707833333336, "rental_uris": {"ios": "https://dc.lft.to/lastmile_qr_scan", "android": "https://dc.lft.to/lastmile_qr_scan"}, "is_reserved": 0, "fusion_lon": 0.0, "fusion_lat": 0.0, "lon": -77.0195695, "name": "c604befdaba96a96d8cd98764e3fe7ea"}, {"bike_id": "70ed38082fd9e260450e74f63b0a8f64", "type": "electric_scooter", "is_disabled": 0, "lat": 38.8958905, "rental_uris": {"ios": "https://dc.lft.to/lastmile_qr_scan", "android": "https://dc.lft.to/lastmile_qr_scan"}, "is_reserved": 0, "fusion_lon": 0.0, "fusion_lat": 0.0, "lon": -77.02345916666667, "name": "70ed38082fd9e260450e74f63b0a8f64"}, {"bike_id": "07096c7105ff6c9c21ced2cce3b4a274", "type": "electric_scooter", "is_disabled": 0, "lat": 38.91419483333333, "rental_uris": {"ios": "https://dc.lft.to/lastmile_qr_scan", "android": "https://dc.lft.to/lastmile_qr_scan"}, "is_reserved": 0, "fusion_lon": 0.0, "fusion_lat": 0.0, "lon": -77.02408233333334, "name": "07096c7105ff6c9c21ced2cce3b4a274"}, {"bike_id": "2b64899b0b8aedb18787c8f947f66f44", "type": "electric_scooter", "is_disabled": 0, "lat": 38.90141533333333, "rental_uris": {"ios": "https://dc.lft.to/lastmile_qr_scan", "android": "https://dc.lft.to/lastmile_qr_scan"}, "is_reserved": 0, "fusion_lon": 0.0, "fusion_lat": 0.0, "lon": -77.04324483333333, "name": "2b64899b0b8aedb18787c8f947f66f44"}, {"bike_id": "9da9d6237c3d3722fb2668804d2f31c8", "type": "electric_scooter", "is_disabled": 0, "lat": 38.92335833333333, "rental_uris": {"ios": "https://dc.lft.to/lastmile_qr_scan", "android": "https://dc.lft.to/lastmile_qr_scan"}, "is_reserved": 0, "fusion_lon": 0.0, "fusion_lat": 0.0, "lon": -77.05421116666666, "name": "9da9d6237c3d3722fb2668804d2f31c8"}, {"bike_id": "4494960912fcd2ff13e33a2349327b60", "type": "electric_scooter", "is_disabled": 0, "lat": 38.90388516666667, "rental_uris": {"ios": "https://dc.lft.to/lastmile_qr_scan", "android": "https://dc.lft.to/lastmile_qr_scan"}, "is_reserved": 0, "fusion_lon": 0.0, "fusion_lat": 0.0, "lon": -77.02486716666667, "name": "4494960912fcd2ff13e33a2349327b60"}, {"bike_id": "dae960079465ad4c3f1a2c48ae17cc3d", "type": "electric_scooter", "is_disabled": 0, "lat": 38.92442633333334, "rental_uris": {"ios": "https://dc.lft.to/lastmile_qr_scan", "android": "https://dc.lft.to/lastmile_qr_scan"}, "is_reserved": 0, "fusion_lon": 0.0, "fusion_lat": 0.0, "lon": -77.03340166666666, "name": "dae960079465ad4c3f1a2c48ae17cc3d"}, {"bike_id": "c286c73f968f81a41b3e058fcf2aeaea", "type": "electric_bike", "is_disabled": 0, "lat": 38.8151065, "rental_uris": {"ios": "https://dc.lft.to/lastmile_qr_scan", "android": "https://dc.lft.to/lastmile_qr_scan"}, "is_reserved": 0, "fusion_lon": 0.0, "fusion_lat": 0.0, "lon": -77.12656466666667, "name": "c286c73f968f81a41b3e058fcf2aeaea"}, {"bike_id": "f26301500ce9b3fba0ed6b988b049a93", "type": "electric_bike", "is_disabled": 0, "lat": 38.79604533333333, "rental_uris": {"ios": "https://dc.lft.to/lastmile_qr_scan", "android": "https://dc.lft.to/lastmile_qr_scan"}, "is_reserved": 0, "fusion_lon": 0.0, "fusion_lat": 0.0, "lon": -76.9974425, "name": "f26301500ce9b3fba0ed6b988b049a93"}, {"bike_id": "297922be7e34e25ebfd59f113b4930ae", "type": "electric_scooter", "is_disabled": 0, "lat": 38.896983, "rental_uris": {"ios": "https://dc.lft.to/lastmile_qr_scan", "android": "https://dc.lft.to/lastmile_qr_scan"}, "is_reserved": 0, "fusion_lon": 0.0, "fusion_lat": 0.0, "lon": -77.02725916666667, "name": "297922be7e34e25ebfd59f113b4930ae"}, {"bike_id": "9e408309192b6e6bf083bf10c8de21fc", "type": "electric_scooter", "is_disabled": 0, "lat": 38.9141685, "rental_uris": {"ios": "https://dc.lft.to/lastmile_qr_scan", "android": "https://dc.lft.to/lastmile_qr_scan"}, "is_reserved": 0, "fusion_lon": 0.0, "fusion_lat": 0.0, "lon": -77.0180465, "name": "9e408309192b6e6bf083bf10c8de21fc"}, {"bike_id": "514c6e091482638206e6276bd0f49ec5", "type": "electric_scooter", "is_disabled": 0, "lat": 38.9303545, "rental_uris": {"ios": "https://dc.lft.to/lastmile_qr_scan", "android": "https://dc.lft.to/lastmile_qr_scan"}, "is_reserved": 0, "fusion_lon": 0.0, "fusion_lat": 0.0, "lon": -77.02345016666666, "name": "514c6e091482638206e6276bd0f49ec5"}, {"bike_id": "252968253a0450473887f9b523600525", "type": "electric_scooter", "is_disabled": 0, "lat": 38.912694, "rental_uris": {"ios": "https://dc.lft.to/lastmile_qr_scan", "android": "https://dc.lft.to/lastmile_qr_scan"}, "is_reserved": 0, "fusion_lon": 0.0, "fusion_lat": 0.0, "lon": -77.0449525, "name": "252968253a0450473887f9b523600525"}, {"bike_id": "48c4d8228c5c6861d2a8f1ebb26c78c9", "type": "electric_scooter", "is_disabled": 0, "lat": 38.907158333333335, "rental_uris": {"ios": "https://dc.lft.to/lastmile_qr_scan", "android": "https://dc.lft.to/lastmile_qr_scan"}, "is_reserved": 0, "fusion_lon": 0.0, "fusion_lat": 0.0, "lon": -77.02171516666667, "name": "48c4d8228c5c6861d2a8f1ebb26c78c9"}, {"bike_id": "1431aa886911278d4c97a78aa70db69b", "type": "electric_scooter", "is_disabled": 0, "lat": 38.923927666666664, "rental_uris": {"ios": "https://dc.lft.to/lastmile_qr_scan", "android": "https://dc.lft.to/lastmile_qr_scan"}, "is_reserved": 0, "fusion_lon": 0.0, "fusion_lat": 0.0, "lon": -77.04451066666667, "name": "1431aa886911278d4c97a78aa70db69b"}, {"bike_id": "9e4fb4b0f1964b7a64bc299def82fca9", "type": "electric_scooter", "is_disabled": 0, "lat": 38.8984505, "rental_uris": {"ios": "https://dc.lft.to/lastmile_qr_scan", "android": "https://dc.lft.to/lastmile_qr_scan"}, "is_reserved": 0, "fusion_lon": 0.0, "fusion_lat": 0.0, "lon": -76.9463255, "name": "9e4fb4b0f1964b7a64bc299def82fca9"}, {"bike_id": "2542a529b936ad3617a14c054eb2c417", "type": "electric_bike", "is_disabled": 0, "lat": 38.97402, "rental_uris": {"ios": "https://dc.lft.to/lastmile_qr_scan", "android": "https://dc.lft.to/lastmile_qr_scan"}, "is_reserved": 0, "fusion_lon": 0.0, "fusion_lat": 0.0, "lon": -77.06452866666666, "name": "2542a529b936ad3617a14c054eb2c417"}, {"bike_id": "7f7923dfc40b5c3ec51c63fe02486faf", "type": "electric_bike", "is_disabled": 0, "lat": 38.893966166666665, "rental_uris": {"ios": "https://dc.lft.to/lastmile_qr_scan", "android": "https://dc.lft.to/lastmile_qr_scan"}, "is_reserved": 0, "fusion_lon": 0.0, "fusion_lat": 0.0, "lon": -77.02797633333333, "name": "7f7923dfc40b5c3ec51c63fe02486faf"}, {"bike_id": "2157f238d57767b4bf975cf457a0fb80", "type": "electric_scooter", "is_disabled": 0, "lat": 38.8852855, "rental_uris": {"ios": "https://dc.lft.to/lastmile_qr_scan", "android": "https://dc.lft.to/lastmile_qr_scan"}, "is_reserved": 0, "fusion_lon": 0.0, "fusion_lat": 0.0, "lon": -76.99822633333333, "name": "2157f238d57767b4bf975cf457a0fb80"}, {"bike_id": "1725acc555dfd41a8d00e209eac0fc20", "type": "electric_scooter", "is_disabled": 0, "lat": 38.91674583333333, "rental_uris": {"ios": "https://dc.lft.to/lastmile_qr_scan", "android": "https://dc.lft.to/lastmile_qr_scan"}, "is_reserved": 0, "fusion_lon": 0.0, "fusion_lat": 0.0, "lon": -77.029687, "name": "1725acc555dfd41a8d00e209eac0fc20"}, {"bike_id": "62b1985370f4cbc71ba600b4cf296810", "type": "electric_scooter", "is_disabled": 0, "lat": 38.93293633333333, "rental_uris": {"ios": "https://dc.lft.to/lastmile_qr_scan", "android": "https://dc.lft.to/lastmile_qr_scan"}, "is_reserved": 0, "fusion_lon": 0.0, "fusion_lat": 0.0, "lon": -77.08546433333333, "name": "62b1985370f4cbc71ba600b4cf296810"}, {"bike_id": "4d29640cdb204b7bf87bf6a4fde9a96e", "type": "electric_scooter", "is_disabled": 0, "lat": 38.9117955, "rental_uris": {"ios": "https://dc.lft.to/lastmile_qr_scan", "android": "https://dc.lft.to/lastmile_qr_scan"}, "is_reserved": 0, "fusion_lon": 0.0, "fusion_lat": 0.0, "lon": -77.01209983333334, "name": "4d29640cdb204b7bf87bf6a4fde9a96e"}, {"bike_id": "0d8314f4655a04eb051de8e098fe6310", "type": "electric_scooter", "is_disabled": 0, "lat": 38.957924166666665, "rental_uris": {"ios": "https://dc.lft.to/lastmile_qr_scan", "android": "https://dc.lft.to/lastmile_qr_scan"}, "is_reserved": 0, "fusion_lon": 0.0, "fusion_lat": 0.0, "lon": -77.03213633333333, "name": "0d8314f4655a04eb051de8e098fe6310"}, {"bike_id": "00e142449458cdeb7af43d0bd8de3f79", "type": "electric_scooter", "is_disabled": 0, "lat": 38.9234305, "rental_uris": {"ios": "https://dc.lft.to/lastmile_qr_scan", "android": "https://dc.lft.to/lastmile_qr_scan"}, "is_reserved": 0, "fusion_lon": 0.0, "fusion_lat": 0.0, "lon": -77.05122066666667, "name": "00e142449458cdeb7af43d0bd8de3f79"}, {"bike_id": "84a318a17411effadd01f2abe1b0b7b2", "type": "electric_scooter", "is_disabled": 0, "lat": 38.92380216666667, "rental_uris": {"ios": "https://dc.lft.to/lastmile_qr_scan", "android": "https://dc.lft.to/lastmile_qr_scan"}, "is_reserved": 0, "fusion_lon": 0.0, "fusion_lat": 0.0, "lon": -77.029841, "name": "84a318a17411effadd01f2abe1b0b7b2"}, {"bike_id": "e829ca0148f638c81bf117a08e516df9", "type": "electric_scooter", "is_disabled": 0, "lat": 38.916830833333336, "rental_uris": {"ios": "https://dc.lft.to/lastmile_qr_scan", "android": "https://dc.lft.to/lastmile_qr_scan"}, "is_reserved": 0, "fusion_lon": 0.0, "fusion_lat": 0.0, "lon": -77.02953866666667, "name": "e829ca0148f638c81bf117a08e516df9"}, {"bike_id": "e81bbf3b98ba1b7b9173cc55dd971b21", "type": "electric_scooter", "is_disabled": 0, "lat": 38.901097666666665, "rental_uris": {"ios": "https://dc.lft.to/lastmile_qr_scan", "android": "https://dc.lft.to/lastmile_qr_scan"}, "is_reserved": 0, "fusion_lon": 0.0, "fusion_lat": 0.0, "lon": -77.028148, "name": "e81bbf3b98ba1b7b9173cc55dd971b21"}, {"bike_id": "404431c1092be9edb7afd1643ba086ea", "type": "electric_scooter", "is_disabled": 0, "lat": 38.897295, "rental_uris": {"ios": "https://dc.lft.to/lastmile_qr_scan", "android": "https://dc.lft.to/lastmile_qr_scan"}, "is_reserved": 0, "fusion_lon": 0.0, "fusion_lat": 0.0, "lon": -77.0176525, "name": "404431c1092be9edb7afd1643ba086ea"}, {"bike_id": "f910da3bc8a814797128118d01ca364f", "type": "electric_scooter", "is_disabled": 0, "lat": 38.9232905, "rental_uris": {"ios": "https://dc.lft.to/lastmile_qr_scan", "android": "https://dc.lft.to/lastmile_qr_scan"}, "is_reserved": 0, "fusion_lon": 0.0, "fusion_lat": 0.0, "lon": -77.03788283333333, "name": "f910da3bc8a814797128118d01ca364f"}, {"bike_id": "c33873d3871ee1aac8067a3224cb592a", "type": "electric_scooter", "is_disabled": 0, "lat": 38.92046933333334, "rental_uris": {"ios": "https://dc.lft.to/lastmile_qr_scan", "android": "https://dc.lft.to/lastmile_qr_scan"}, "is_reserved": 0, "fusion_lon": 0.0, "fusion_lat": 0.0, "lon": -77.01683483333333, "name": "c33873d3871ee1aac8067a3224cb592a"}, {"bike_id": "d7349699b92156eef8045bd73d8dd4f2", "type": "electric_scooter", "is_disabled": 0, "lat": 38.910343, "rental_uris": {"ios": "https://dc.lft.to/lastmile_qr_scan", "android": "https://dc.lft.to/lastmile_qr_scan"}, "is_reserved": 0, "fusion_lon": 0.0, "fusion_lat": 0.0, "lon": -77.03801283333334, "name": "d7349699b92156eef8045bd73d8dd4f2"}, {"bike_id": "6fd361567e24d734f59164d20b967ce6", "type": "electric_scooter", "is_disabled": 0, "lat": 38.87243816666667, "rental_uris": {"ios": "https://dc.lft.to/lastmile_qr_scan", "android": "https://dc.lft.to/lastmile_qr_scan"}, "is_reserved": 0, "fusion_lon": 0.0, "fusion_lat": 0.0, "lon": -76.9772855, "name": "6fd361567e24d734f59164d20b967ce6"}, {"bike_id": "3de262eb77d870a50fb8704905104352", "type": "electric_scooter", "is_disabled": 0, "lat": 38.93271333333333, "rental_uris": {"ios": "https://dc.lft.to/lastmile_qr_scan", "android": "https://dc.lft.to/lastmile_qr_scan"}, "is_reserved": 0, "fusion_lon": 0.0, "fusion_lat": 0.0, "lon": -77.030911, "name": "3de262eb77d870a50fb8704905104352"}, {"bike_id": "a38ba5cf1491a3bac034dc91f660fbb1", "type": "electric_scooter", "is_disabled": 0, "lat": 38.93498983333333, "rental_uris": {"ios": "https://dc.lft.to/lastmile_qr_scan", "android": "https://dc.lft.to/lastmile_qr_scan"}, "is_reserved": 0, "fusion_lon": 0.0, "fusion_lat": 0.0, "lon": -77.02544983333334, "name": "a38ba5cf1491a3bac034dc91f660fbb1"}, {"bike_id": "3af6523b7af31ebf740ce6d8cd2fe74b", "type": "electric_bike", "is_disabled": 0, "lat": 38.91553116666667, "rental_uris": {"ios": "https://dc.lft.to/lastmile_qr_scan", "android": "https://dc.lft.to/lastmile_qr_scan"}, "is_reserved": 0, "fusion_lon": 0.0, "fusion_lat": 0.0, "lon": -77.03042, "name": "3af6523b7af31ebf740ce6d8cd2fe74b"}, {"bike_id": "0140845ee14b02685e39633ea3a47b07", "type": "electric_scooter", "is_disabled": 0, "lat": 38.88637716666667, "rental_uris": {"ios": "https://dc.lft.to/lastmile_qr_scan", "android": "https://dc.lft.to/lastmile_qr_scan"}, "is_reserved": 0, "fusion_lon": 0.0, "fusion_lat": 0.0, "lon": -77.013715, "name": "0140845ee14b02685e39633ea3a47b07"}, {"bike_id": "68907a4dcd78e57f4eec9f429e5d332c", "type": "electric_scooter", "is_disabled": 0, "lat": 38.88713833333333, "rental_uris": {"ios": "https://dc.lft.to/lastmile_qr_scan", "android": "https://dc.lft.to/lastmile_qr_scan"}, "is_reserved": 0, "fusion_lon": 0.0, "fusion_lat": 0.0, "lon": -76.996313, "name": "68907a4dcd78e57f4eec9f429e5d332c"}, {"bike_id": "4aad1381829cd4d75ac557b517904f48", "type": "electric_scooter", "is_disabled": 0, "lat": 38.907872, "rental_uris": {"ios": "https://dc.lft.to/lastmile_qr_scan", "android": "https://dc.lft.to/lastmile_qr_scan"}, "is_reserved": 0, "fusion_lon": 0.0, "fusion_lat": 0.0, "lon": -76.98034916666667, "name": "4aad1381829cd4d75ac557b517904f48"}, {"bike_id": "3c25f6f82550789d2a4a6ef3b57a59b4", "type": "electric_scooter", "is_disabled": 0, "lat": 38.8922885, "rental_uris": {"ios": "https://dc.lft.to/lastmile_qr_scan", "android": "https://dc.lft.to/lastmile_qr_scan"}, "is_reserved": 0, "fusion_lon": 0.0, "fusion_lat": 0.0, "lon": -77.04676616666667, "name": "3c25f6f82550789d2a4a6ef3b57a59b4"}, {"bike_id": "6d84c15549fada3ed0c846fbf259df44", "type": "electric_scooter", "is_disabled": 0, "lat": 38.866800166666664, "rental_uris": {"ios": "https://dc.lft.to/lastmile_qr_scan", "android": "https://dc.lft.to/lastmile_qr_scan"}, "is_reserved": 0, "fusion_lon": 0.0, "fusion_lat": 0.0, "lon": -76.98573116666667, "name": "6d84c15549fada3ed0c846fbf259df44"}, {"bike_id": "880ad11db3ff51d22932de7d0b52b7a4", "type": "electric_scooter", "is_disabled": 0, "lat": 38.858115166666664, "rental_uris": {"ios": "https://dc.lft.to/lastmile_qr_scan", "android": "https://dc.lft.to/lastmile_qr_scan"}, "is_reserved": 0, "fusion_lon": 0.0, "fusion_lat": 0.0, "lon": -76.98923683333334, "name": "880ad11db3ff51d22932de7d0b52b7a4"}, {"bike_id": "33156995c9867f6231361962157a7561", "type": "electric_scooter", "is_disabled": 0, "lat": 38.89781716666667, "rental_uris": {"ios": "https://dc.lft.to/lastmile_qr_scan", "android": "https://dc.lft.to/lastmile_qr_scan"}, "is_reserved": 0, "fusion_lon": 0.0, "fusion_lat": 0.0, "lon": -77.03215116666667, "name": "33156995c9867f6231361962157a7561"}, {"bike_id": "3922ee628887912eedd4ba61226a0240", "type": "electric_bike", "is_disabled": 0, "lat": 38.90411483333333, "rental_uris": {"ios": "https://dc.lft.to/lastmile_qr_scan", "android": "https://dc.lft.to/lastmile_qr_scan"}, "is_reserved": 0, "fusion_lon": 0.0, "fusion_lat": 0.0, "lon": -77.0448765, "name": "3922ee628887912eedd4ba61226a0240"}, {"bike_id": "335a2ae0806722f5c6b52f37d0f03f2b", "type": "electric_scooter", "is_disabled": 0, "lat": 38.89481, "rental_uris": {"ios": "https://dc.lft.to/lastmile_qr_scan", "android": "https://dc.lft.to/lastmile_qr_scan"}, "is_reserved": 0, "fusion_lon": 0.0, "fusion_lat": 0.0, "lon": -76.987815, "name": "335a2ae0806722f5c6b52f37d0f03f2b"}, {"bike_id": "2510817670cd7628b92aa6382f3000e1", "type": "electric_scooter", "is_disabled": 0, "lat": 38.907854666666665, "rental_uris": {"ios": "https://dc.lft.to/lastmile_qr_scan", "android": "https://dc.lft.to/lastmile_qr_scan"}, "is_reserved": 0, "fusion_lon": 0.0, "fusion_lat": 0.0, "lon": -76.99435033333333, "name": "2510817670cd7628b92aa6382f3000e1"}, {"bike_id": "184dfdc86cd0c8ada4d73036387fbfd9", "type": "electric_scooter", "is_disabled": 0, "lat": 38.8706765, "rental_uris": {"ios": "https://dc.lft.to/lastmile_qr_scan", "android": "https://dc.lft.to/lastmile_qr_scan"}, "is_reserved": 0, "fusion_lon": 0.0, "fusion_lat": 0.0, "lon": -76.98132383333333, "name": "184dfdc86cd0c8ada4d73036387fbfd9"}, {"bike_id": "511f8ab331f2a4fd84b41ba41d280c6f", "type": "electric_scooter", "is_disabled": 0, "lat": 38.91700016666667, "rental_uris": {"ios": "https://dc.lft.to/lastmile_qr_scan", "android": "https://dc.lft.to/lastmile_qr_scan"}, "is_reserved": 0, "fusion_lon": 0.0, "fusion_lat": 0.0, "lon": -77.04000016666667, "name": "511f8ab331f2a4fd84b41ba41d280c6f"}, {"bike_id": "55f4dc7df17557b9147d053c8fdb9a76", "type": "electric_scooter", "is_disabled": 0, "lat": 38.866277, "rental_uris": {"ios": "https://dc.lft.to/lastmile_qr_scan", "android": "https://dc.lft.to/lastmile_qr_scan"}, "is_reserved": 0, "fusion_lon": 0.0, "fusion_lat": 0.0, "lon": -76.987175, "name": "55f4dc7df17557b9147d053c8fdb9a76"}, {"bike_id": "21cc39c543ee49e31eca4ffc4884317f", "type": "electric_scooter", "is_disabled": 0, "lat": 38.89706266666666, "rental_uris": {"ios": "https://dc.lft.to/lastmile_qr_scan", "android": "https://dc.lft.to/lastmile_qr_scan"}, "is_reserved": 0, "fusion_lon": 0.0, "fusion_lat": 0.0, "lon": -77.0229055, "name": "21cc39c543ee49e31eca4ffc4884317f"}, {"bike_id": "b3dd6a9333a1d1d66da601062bd0bcc3", "type": "electric_scooter", "is_disabled": 0, "lat": 38.94833766666667, "rental_uris": {"ios": "https://dc.lft.to/lastmile_qr_scan", "android": "https://dc.lft.to/lastmile_qr_scan"}, "is_reserved": 0, "fusion_lon": 0.0, "fusion_lat": 0.0, "lon": -77.02542916666667, "name": "b3dd6a9333a1d1d66da601062bd0bcc3"}, {"bike_id": "fb8399aaf505a90e5affd612df887047", "type": "electric_scooter", "is_disabled": 0, "lat": 38.921186166666665, "rental_uris": {"ios": "https://dc.lft.to/lastmile_qr_scan", "android": "https://dc.lft.to/lastmile_qr_scan"}, "is_reserved": 0, "fusion_lon": 0.0, "fusion_lat": 0.0, "lon": -77.02716733333334, "name": "fb8399aaf505a90e5affd612df887047"}, {"bike_id": "6a1d4a1d38e973684ca6befe97b48936", "type": "electric_scooter", "is_disabled": 0, "lat": 38.914209, "rental_uris": {"ios": "https://dc.lft.to/lastmile_qr_scan", "android": "https://dc.lft.to/lastmile_qr_scan"}, "is_reserved": 0, "fusion_lon": 0.0, "fusion_lat": 0.0, "lon": -77.02180283333334, "name": "6a1d4a1d38e973684ca6befe97b48936"}, {"bike_id": "2e99860d19b577405fbfd63ad0d33125", "type": "electric_bike", "is_disabled": 0, "lat": 38.943668, "rental_uris": {"ios": "https://dc.lft.to/lastmile_qr_scan", "android": "https://dc.lft.to/lastmile_qr_scan"}, "is_reserved": 0, "fusion_lon": 0.0, "fusion_lat": 0.0, "lon": -77.003509, "name": "2e99860d19b577405fbfd63ad0d33125"}, {"bike_id": "361c17a804478bd1cd82de29ea6d5b1b", "type": "electric_scooter", "is_disabled": 0, "lat": 38.91592933333333, "rental_uris": {"ios": "https://dc.lft.to/lastmile_qr_scan", "android": "https://dc.lft.to/lastmile_qr_scan"}, "is_reserved": 0, "fusion_lon": 0.0, "fusion_lat": 0.0, "lon": -77.03978383333333, "name": "361c17a804478bd1cd82de29ea6d5b1b"}, {"bike_id": "0e5396be0d53f977cf49d703071faacc", "type": "electric_scooter", "is_disabled": 0, "lat": 38.903682833333335, "rental_uris": {"ios": "https://dc.lft.to/lastmile_qr_scan", "android": "https://dc.lft.to/lastmile_qr_scan"}, "is_reserved": 0, "fusion_lon": 0.0, "fusion_lat": 0.0, "lon": -77.048387, "name": "0e5396be0d53f977cf49d703071faacc"}, {"bike_id": "816ae0f739856543fb6c94fb1b1a3fc5", "type": "electric_scooter", "is_disabled": 0, "lat": 38.915975833333334, "rental_uris": {"ios": "https://dc.lft.to/lastmile_qr_scan", "android": "https://dc.lft.to/lastmile_qr_scan"}, "is_reserved": 0, "fusion_lon": 0.0, "fusion_lat": 0.0, "lon": -77.001967, "name": "816ae0f739856543fb6c94fb1b1a3fc5"}, {"bike_id": "e3d0b41d0ca95da54b4aba4b8ec75fa8", "type": "electric_scooter", "is_disabled": 0, "lat": 38.921369166666665, "rental_uris": {"ios": "https://dc.lft.to/lastmile_qr_scan", "android": "https://dc.lft.to/lastmile_qr_scan"}, "is_reserved": 0, "fusion_lon": 0.0, "fusion_lat": 0.0, "lon": -77.03439833333333, "name": "e3d0b41d0ca95da54b4aba4b8ec75fa8"}, {"bike_id": "0d68e61f8c03b99b98ebf177bf08f357", "type": "electric_scooter", "is_disabled": 0, "lat": 38.91550083333333, "rental_uris": {"ios": "https://dc.lft.to/lastmile_qr_scan", "android": "https://dc.lft.to/lastmile_qr_scan"}, "is_reserved": 0, "fusion_lon": 0.0, "fusion_lat": 0.0, "lon": -77.03325516666666, "name": "0d68e61f8c03b99b98ebf177bf08f357"}, {"bike_id": "f45b9a7e8384e7babaa47cf39a6b2930", "type": "electric_scooter", "is_disabled": 0, "lat": 38.938870333333334, "rental_uris": {"ios": "https://dc.lft.to/lastmile_qr_scan", "android": "https://dc.lft.to/lastmile_qr_scan"}, "is_reserved": 0, "fusion_lon": 0.0, "fusion_lat": 0.0, "lon": -77.02467266666666, "name": "f45b9a7e8384e7babaa47cf39a6b2930"}, {"bike_id": "d9a3fbdcddfb54f11b4fee6359a937d9", "type": "electric_scooter", "is_disabled": 0, "lat": 38.9096945, "rental_uris": {"ios": "https://dc.lft.to/lastmile_qr_scan", "android": "https://dc.lft.to/lastmile_qr_scan"}, "is_reserved": 0, "fusion_lon": 0.0, "fusion_lat": 0.0, "lon": -77.01724883333333, "name": "d9a3fbdcddfb54f11b4fee6359a937d9"}, {"bike_id": "5ac39c9a14e6c1d3d86041c6ad80b46e", "type": "electric_scooter", "is_disabled": 0, "lat": 38.96554483333333, "rental_uris": {"ios": "https://dc.lft.to/lastmile_qr_scan", "android": "https://dc.lft.to/lastmile_qr_scan"}, "is_reserved": 0, "fusion_lon": 0.0, "fusion_lat": 0.0, "lon": -77.0020425, "name": "5ac39c9a14e6c1d3d86041c6ad80b46e"}, {"bike_id": "5525fcc2ea82d08736623e43f14f23f5", "type": "electric_scooter", "is_disabled": 0, "lat": 38.89220266666667, "rental_uris": {"ios": "https://dc.lft.to/lastmile_qr_scan", "android": "https://dc.lft.to/lastmile_qr_scan"}, "is_reserved": 0, "fusion_lon": 0.0, "fusion_lat": 0.0, "lon": -77.04367566666667, "name": "5525fcc2ea82d08736623e43f14f23f5"}, {"bike_id": "b2297c4260bc3d70b3c9b78fbe3b4e91", "type": "electric_scooter", "is_disabled": 0, "lat": 38.936060833333336, "rental_uris": {"ios": "https://dc.lft.to/lastmile_qr_scan", "android": "https://dc.lft.to/lastmile_qr_scan"}, "is_reserved": 0, "fusion_lon": 0.0, "fusion_lat": 0.0, "lon": -77.05895783333334, "name": "b2297c4260bc3d70b3c9b78fbe3b4e91"}, {"bike_id": "30ac9248c95dae748a7b70ee57acbb99", "type": "electric_scooter", "is_disabled": 0, "lat": 38.88745483333334, "rental_uris": {"ios": "https://dc.lft.to/lastmile_qr_scan", "android": "https://dc.lft.to/lastmile_qr_scan"}, "is_reserved": 0, "fusion_lon": 0.0, "fusion_lat": 0.0, "lon": -77.02567216666667, "name": "30ac9248c95dae748a7b70ee57acbb99"}, {"bike_id": "55d2d0ed4288517f796a0702d53ac9d1", "type": "electric_scooter", "is_disabled": 0, "lat": 38.925993166666665, "rental_uris": {"ios": "https://dc.lft.to/lastmile_qr_scan", "android": "https://dc.lft.to/lastmile_qr_scan"}, "is_reserved": 0, "fusion_lon": 0.0, "fusion_lat": 0.0, "lon": -77.02155666666667, "name": "55d2d0ed4288517f796a0702d53ac9d1"}, {"bike_id": "74f412b22eb33b2ff341093d5c3c4671", "type": "electric_scooter", "is_disabled": 0, "lat": 38.9324215, "rental_uris": {"ios": "https://dc.lft.to/lastmile_qr_scan", "android": "https://dc.lft.to/lastmile_qr_scan"}, "is_reserved": 0, "fusion_lon": 0.0, "fusion_lat": 0.0, "lon": -77.0327605, "name": "74f412b22eb33b2ff341093d5c3c4671"},