{"data": {"bikes": [{"fusion_lat": 0.0, "name": "95233dcb56b5bb611e0bf2c6252b5531", "is_disabled": 0, "rental_uris": {"android": "https://dc.lft.to/lastmile_qr_scan", "ios": "https://dc.lft.to/lastmile_qr_scan"}, "fusion_lon": 0.0, "lat": 38.90732416666667, "bike_id": "95233dcb56b5bb611e0bf2c6252b5531", "type": "electric_scooter", "is_reserved": 0, "lon": -77.03453583333334}, {"fusion_lat": 0.0, "name": "b0f1b2b95a8eb116274a18e0e9733d1d", "is_disabled": 0, "rental_uris": {"android": "https://dc.lft.to/lastmile_qr_scan", "ios": "https://dc.lft.to/lastmile_qr_scan"}, "fusion_lon": 0.0, "lat": 38.892193166666665, "bike_id": "b0f1b2b95a8eb116274a18e0e9733d1d", "type": "electric_scooter", "is_reserved": 0, "lon": -77.0261955}, {"fusion_lat": 0.0, "name": "d6ab63d653225d4c721dc9f9b1ab8971", "is_disabled": 0, "rental_uris": {"android": "https://dc.lft.to/lastmile_qr_scan", "ios": "https://dc.lft.to/lastmile_qr_scan"}, "fusion_lon": 0.0, "lat": 38.935291666666664, "bike_id": "d6ab63d653225d4c721dc9f9b1ab8971", "type": "electric_scooter", "is_reserved": 0, "lon": -77.04526416666667}, {"fusion_lat": 0.0, "name": "ae561d7c9168a0e3e261b9a5358ec13d", "is_disabled": 0, "rental_uris": {"android": "https://dc.lft.to/lastmile_qr_scan", "ios": "https://dc.lft.to/lastmile_qr_scan"}, "fusion_lon": 0.0, "lat": 38.97122483333333, "bike_id": "ae561d7c9168a0e3e261b9a5358ec13d", "type": "electric_bike", "is_reserved": 0, "lon": -77.020917}, {"fusion_lat": 0.0, "name": "868f95cd28e9786d34ef364906ef1861", "is_disabled": 0, "rental_uris": {"android": "https://dc.lft.to/lastmile_qr_scan", "ios": "https://dc.lft.to/lastmile_qr_scan"}, "fusion_lon": 0.0, "lat": 38.93531633333333, "bike_id": "868f95cd28e9786d34ef364906ef1861", "type": "electric_scooter", "is_reserved": 0, "lon": -77.02355616666667}, {"fusion_lat": 0.0, "name": "bee836c9b94c5d2a45855fa3f3a45702", "is_disabled": 0, "rental_uris": {"android": "https://dc.lft.to/lastmile_qr_scan", "ios": "https://dc.lft.to/lastmile_qr_scan"}, "fusion_lon": 0.0, "lat": 38.9231425, "bike_id": "bee836c9b94c5d2a45855fa3f3a45702", "type": "electric_scooter", "is_reserved": 0, "lon": -77.02808716666667}, {"fusion_lat": 0.0, "name": "3ebcd5a5d5d10763d4939c9662667766", "is_disabled": 0, "rental_uris": {"android": "https://dc.lft.to/lastmile_qr_scan", "ios": "https://dc.lft.to/lastmile_qr_scan"}, "fusion_lon": 0.0, "lat": 38.89906333333333, "bike_id": "3ebcd5a5d5d10763d4939c9662667766", "type": "electric_scooter", "is_reserved": 0, "lon": -77.01516216666667}, {"fusion_lat": 0.0, "name": "547366e6d2f831d9cb8b6035c2b7efbb", "is_disabled": 0, "rental_uris": {"android": "https://dc.lft.to/lastmile_qr_scan", "ios": "https://dc.lft.to/lastmile_qr_scan"}, "fusion_lon": 0.0, "lat": 38.933837833333335, "bike_id": "547366e6d2f831d9cb8b6035c2b7efbb", "type": "electric_scooter", "is_reserved": 0, "lon": -77.024292}, {"fusion_lat": 0.0, "name": "16d0b1087e71d8fa9ba7a9a127eca7c7", "is_disabled": 0, "rental_uris": {"android": "https://dc.lft.to/lastmile_qr_scan", "ios": "https://dc.lft.to/lastmile_qr_scan"}, "fusion_lon": 0.0, "lat": 38.936198833333336, "bike_id": "16d0b1087e71d8fa9ba7a9a127eca7c7", "type": "electric_scooter", "is_reserved": 0, "lon": -77.0246255}, {"fusion_lat": 0.0, "name": "30d3c14398b8c53f0f13bbc992a36770", "is_disabled": 0, "rental_uris": {"android": "https://dc.lft.to/lastmile_qr_scan", "ios": "https://dc.lft.to/lastmile_qr_scan"}, "fusion_lon": 0.0, "lat": 38.9278355, "bike_id": "30d3c14398b8c53f0f13bbc992a36770", "type": "electric_scooter", "is_reserved": 0, "lon": -77.03146533333333}, {"fusion_lat": 0.0, "name": "b75926b1203f0c7f6b3214694ea0d57f", "is_disabled": 0, "rental_uris": {"android": "https://dc.lft.to/lastmile_qr_scan", "ios": "https://dc.lft.to/lastmile_qr_scan"}, "fusion_lon": 0.0, "lat": 38.892199166666664, "bike_id": "b75926b1203f0c7f6b3214694ea0d57f", "type": "electric_scooter", "is_reserved": 0, "lon": -77.04682416666667}, {"fusion_lat": 0.0, "name": "cc6dc898d29251f7be5076ed536fae61", "is_disabled": 0, "rental_uris": {"android": "https://dc.lft.to/lastmile_qr_scan", "ios": "https://dc.lft.to/lastmile_qr_scan"}, "fusion_lon": 0.0, "lat": 38.88989133333333, "bike_id": "cc6dc898d29251f7be5076ed536fae61", "type": "electric_scooter", "is_reserved": 0, "lon": -76.98228216666666}, {"fusion_lat": 0.0, "name": "7438fcbf48af10d7895f97763403503f", "is_disabled": 0, "rental_uris": {"android": "https://dc.lft.to/lastmile_qr_scan", "ios": "https://dc.lft.to/lastmile_qr_scan"}, "fusion_lon": 0.0, "lat": 38.933656166666665, "bike_id": "7438fcbf48af10d7895f97763403503f", "type": "electric_scooter", "is_reserved": 0, "lon": -77.02434133333334}, {"fusion_lat": 0.0, "name": "b93349c4b316ab240eaeb01f57463b05", "is_disabled": 0, "rental_uris": {"android": "https://dc.lft.to/lastmile_qr_scan", "ios": "https://dc.lft.to/lastmile_qr_scan"}, "fusion_lon": 0.0, "lat": 38.91565583333333, "bike_id": "b93349c4b316ab240eaeb01f57463b05", "type": "electric_scooter", "is_reserved": 0, "lon": -77.04156833333333}, {"fusion_lat": 0.0, "name": "af6ec4be9076a68432aab6d09cf74e0c", "is_disabled": 0, "rental_uris": {"android": "https://dc.lft.to/lastmile_qr_scan", "ios": "https://dc.lft.to/lastmile_qr_scan"}, "fusion_lon": 0.0, "lat": 38.9208, "bike_id": "af6ec4be9076a68432aab6d09cf74e0c", "type": "electric_scooter", "is_reserved": 0, "lon": -77.02406166666667}, {"fusion_lat": 0.0, "name": "ecb031a5e3ca780a3b665a5f81eb5d04", "is_disabled": 0, "rental_uris": {"android": "https://dc.lft.to/lastmile_qr_scan", "ios": "https://dc.lft.to/lastmile_qr_scan"}, "fusion_lon": 0.0, "lat": 38.904713666666666, "bike_id": "ecb031a5e3ca780a3b665a5f81eb5d04", "type": "electric_scooter", "is_reserved": 0, "lon": -76.95202616666667}, {"fusion_lat": 0.0, "name": "e2b12ddf34bf7c672d1755eb58fbacdd", "is_disabled": 0, "rental_uris": {"android": "https://dc.lft.to/lastmile_qr_scan", "ios": "https://dc.lft.to/lastmile_qr_scan"}, "fusion_lon": 0.0, "lat": 38.94906683333333, "bike_id": "e2b12ddf34bf7c672d1755eb58fbacdd", "type": "electric_bike", "is_reserved": 0, "lon": -77.038115}, {"fusion_lat": 0.0, "name": "9aa78448fcc11e33b9cec16a433c3f3f", "is_disabled": 0, "rental_uris": {"android": "https://dc.lft.to/lastmile_qr_scan", "ios": "https://dc.lft.to/lastmile_qr_scan"}, "fusion_lon": 0.0, "lat": 38.9064745, "bike_id": "9aa78448fcc11e33b9cec16a433c3f3f", "type": "electric_scooter", "is_reserved": 0, "lon": -77.04292266666667}, {"fusion_lat": 0.0, "name": "8d3b8ceaba0bf0e12d2e17b7a14afabe", "is_disabled": 0, "rental_uris": {"android": "https://dc.lft.to/lastmile_qr_scan", "ios": "https://dc.lft.to/lastmile_qr_scan"}, "fusion_lon": 0.0, "lat": 38.9095655, "bike_id": "8d3b8ceaba0bf0e12d2e17b7a14afabe", "type": "electric_scooter", "is_reserved": 0, "lon": -77.031772}, {"fusion_lat": 0.0, "name": "804b53daa6da66674ead2fc7e7216973", "is_disabled": 0, "rental_uris": {"android": "https://dc.lft.to/lastmile_qr_scan", "ios": "https://dc.lft.to/lastmile_qr_scan"}, "fusion_lon": 0.0, "lat": 38.952799, "bike_id": "804b53daa6da66674ead2fc7e7216973", "type": "electric_bike", "is_reserved": 0, "lon": -77.06888483333333}, {"fusion_lat": 0.0, "name": "e89b48cbd8e637e78c0ab303e70f6eeb", "is_disabled": 0, "rental_uris": {"android": "https://dc.lft.to/lastmile_qr_scan", "ios": "https://dc.lft.to/lastmile_qr_scan"}, "fusion_lon": 0.0, "lat": 38.886268, "bike_id": "e89b48cbd8e637e78c0ab303e70f6eeb", "type": "electric_scooter", "is_reserved": 0, "lon": -77.01532516666667}, {"fusion_lat": 0.0, "name": "c337a2165e3ff68c6d52ff5eb4dbb0b2", "is_disabled": 0, "rental_uris": {"android": "https://dc.lft.to/lastmile_qr_scan", "ios": "https://dc.lft.to/lastmile_qr_scan"}, "fusion_lon": 0.0, "lat": 38.949793666666665, "bike_id": "c337a2165e3ff68c6d52ff5eb4dbb0b2", "type": "electric_scooter", "is_reserved": 0, "lon": -77.02697783333333}, {"fusion_lat": 0.0, "name": "5a019dfc3a143527d6bede52435f2209", "is_disabled": 0, "rental_uris": {"android": "https://dc.lft.to/lastmile_qr_scan", "ios": "https://dc.lft.to/lastmile_qr_scan"}, "fusion_lon": 0.0, "lat": 38.916782, "bike_id": "5a019dfc3a143527d6bede52435f2209", "type": "electric_bike", "is_reserved": 0, "lon": -76.9823105}, {"fusion_lat": 0.0, "name": "514afa5b5da088354111b33ec6dc6a39", "is_disabled": 0, "rental_uris": {"android": "https://dc.lft.to/lastmile_qr_scan", "ios": "https://dc.lft.to/lastmile_qr_scan"}, "fusion_lon": 0.0, "lat": 38.949786, "bike_id": "514afa5b5da088354111b33ec6dc6a39", "type": "electric_scooter", "is_reserved": 0, "lon": -77.02698316666667}, {"fusion_lat": 0.0, "name": "735bbb6966db55a5ca0654c0326b0287", "is_disabled": 0, "rental_uris": {"android": "https://dc.lft.to/lastmile_qr_scan", "ios": "https://dc.lft.to/lastmile_qr_scan"}, "fusion_lon": 0.0, "lat": 38.868493, "bike_id": "735bbb6966db55a5ca0654c0326b0287", "type": "electric_scooter", "is_reserved": 0, "lon": -76.988326}, {"fusion_lat": 0.0, "name": "7a64ad38259a83434b36a4f30589f655", "is_disabled": 0, "rental_uris": {"android": "https://dc.lft.to/lastmile_qr_scan", "ios": "https://dc.lft.to/lastmile_qr_scan"}, "fusion_lon": 0.0, "lat": 38.875619, "bike_id": "7a64ad38259a83434b36a4f30589f655", "type": "electric_scooter", "is_reserved": 0, "lon": -77.00731066666667}, {"fusion_lat": 0.0, "name": "977f81507fd23247668a18b12e7ef2e6", "is_disabled": 0, "rental_uris": {"android": "https://dc.lft.to/lastmile_qr_scan", "ios": "https://dc.lft.to/lastmile_qr_scan"}, "fusion_lon": 0.0, "lat": 38.92540366666667, "bike_id": "977f81507fd23247668a18b12e7ef2e6", "type": "electric_scooter", "is_reserved": 0, "lon": -77.05119333333333}, {"fusion_lat": 0.0, "name": "6031c910724ed7cae6a4c1943a14e011", "is_disabled": 0, "rental_uris": {"android": "https://dc.lft.to/lastmile_qr_scan", "ios": "https://dc.lft.to/lastmile_qr_scan"}, "fusion_lon": 0.0, "lat": 38.893619666666666, "bike_id": "6031c910724ed7cae6a4c1943a14e011", "type": "electric_scooter", "is_reserved": 0, "lon": -77.02257483333334}, {"fusion_lat": 0.0, "name": "472971c317dedb02da1d3d4c3a6596b1", "is_disabled": 0, "rental_uris": {"android": "https://dc.lft.to/lastmile_qr_scan", "ios": "https://dc.lft.to/lastmile_qr_scan"}, "fusion_lon": 0.0, "lat": 38.943867833333336, "bike_id": "472971c317dedb02da1d3d4c3a6596b1", "type": "electric_scooter", "is_reserved": 0, "lon": -77.03212033333334}, {"fusion_lat": 0.0, "name": "c578af0c1b3143aed5a1deda82097ae4", "is_disabled": 0, "rental_uris": {"android": "https://dc.lft.to/lastmile_qr_scan", "ios": "https://dc.lft.to/lastmile_qr_scan"}, "fusion_lon": 0.0, "lat": 38.895187166666666, "bike_id": "c578af0c1b3143aed5a1deda82097ae4", "type": "electric_scooter", "is_reserved": 0, "lon": -76.98086266666667}, {"fusion_lat": 0.0, "name": "238fe695c87cf9f2e170c7a108900e47", "is_disabled": 0, "rental_uris": {"android": "https://dc.lft.to/lastmile_qr_scan", "ios": "https://dc.lft.to/lastmile_qr_scan"}, "fusion_lon": 0.0, "lat": 38.95340133333333, "bike_id": "238fe695c87cf9f2e170c7a108900e47", "type": "electric_scooter", "is_reserved": 0, "lon": -77.0794385}, {"fusion_lat": 0.0, "name": "14d5989a3fd52f34292b0b65c652b303", "is_disabled": 0, "rental_uris": {"android": "https://dc.lft.to/lastmile_qr_scan", "ios": "https://dc.lft.to/lastmile_qr_scan"}, "fusion_lon": 0.0, "lat": 38.94512833333334, "bike_id": "14d5989a3fd52f34292b0b65c652b303", "type": "electric_bike", "is_reserved": 0, "lon": -77.0067545}, {"fusion_lat": 0.0, "name": "e251c7aadeb87d1c3f081cf3c0ac1c18", "is_disabled": 0, "rental_uris": {"android": "https://dc.lft.to/lastmile_qr_scan", "ios": "https://dc.lft.to/lastmile_qr_scan"}, "fusion_lon": 0.0, "lat": 38.906466333333334, "bike_id": "e251c7aadeb87d1c3f081cf3c0ac1c18", "type": "electric_scooter", "is_reserved": 0, "lon": -77.02945066666666}, {"fusion_lat": 0.0, "name": "0600be7e18e4f7cc614b6d3b524f8253", "is_disabled": 0, "rental_uris": {"android": "https://dc.lft.to/lastmile_qr_scan", "ios": "https://dc.lft.to/lastmile_qr_scan"}, "fusion_lon": 0.0, "lat": 38.935517833333336, "bike_id": "0600be7e18e4f7cc614b6d3b524f8253", "type": "electric_scooter", "is_reserved": 0, "lon": -77.02224566666666}, {"fusion_lat": 0.0, "name": "bc4cb66eb3ddc11ff97b208c6b66b5bd", "is_disabled": 0, "rental_uris": {"android": "https://dc.lft.to/lastmile_qr_scan", "ios": "https://dc.lft.to/lastmile_qr_scan"}, "fusion_lon": 0.0, "lat": 38.9592205, "bike_id": "bc4cb66eb3ddc11ff97b208c6b66b5bd", "type": "electric_scooter", "is_reserved": 0, "lon": -77.084798}, {"fusion_lat": 0.0, "name": "30aa4891fa776114d82fd0e93b280035", "is_disabled": 0, "rental_uris": {"android": "https://dc.lft.to/lastmile_qr_scan", "ios": "https://dc.lft.to/lastmile_qr_scan"}, "fusion_lon": 0.0, "lat": 38.926730166666665, "bike_id": "30aa4891fa776114d82fd0e93b280035", "type": "electric_scooter", "is_reserved": 0, "lon": -77.0224935}, {"fusion_lat": 0.0, "name": "3085079768b7245b850eae60ff876f13", "is_disabled": 0, "rental_uris": {"android": "https://dc.lft.to/lastmile_qr_scan", "ios": "https://dc.lft.to/lastmile_qr_scan"}, "fusion_lon": 0.0, "lat": 38.9305975, "bike_id": "3085079768b7245b850eae60ff876f13", "type": "electric_scooter", "is_reserved": 0, "lon": -77.03940783333333}, {"fusion_lat": 0.0, "name": "917d99867b05c2ebe82f6bbc4f698850", "is_disabled": 0, "rental_uris": {"android": "https://dc.lft.to/lastmile_qr_scan", "ios": "https://dc.lft.to/lastmile_qr_scan"}, "fusion_lon": 0.0, "lat": 38.91110183333333, "bike_id": "917d99867b05c2ebe82f6bbc4f698850", "type": "electric_scooter", "is_reserved": 0, "lon": -76.9976865}, {"fusion_lat": 0.0, "name": "77865f993394d95eaf0b22f8392a54f3", "is_disabled": 0, "rental_uris": {"android": "https://dc.lft.to/lastmile_qr_scan", "ios": "https://dc.lft.to/lastmile_qr_scan"}, "fusion_lon": 0.0, "lat": 38.8531, "bike_id": "77865f993394d95eaf0b22f8392a54f3", "type": "electric_bike", "is_reserved": 0, "lon": -77.04604033333334}, {"fusion_lat": 0.0, "name": "dbb6535471c54e5fec0848123860383d", "is_disabled": 0, "rental_uris": {"android": "https://dc.lft.to/lastmile_qr_scan", "ios": "https://dc.lft.to/lastmile_qr_scan"}, "fusion_lon": 0.0, "lat": 38.926852333333336, "bike_id": "dbb6535471c54e5fec0848123860383d", "type": "electric_scooter", "is_reserved": 0, "lon": -77.00769416666667}, {"fusion_lat": 0.0, "name": "cef57fb99b13d4101214b881eeb80300", "is_disabled": 0, "rental_uris": {"android": "https://dc.lft.to/lastmile_qr_scan", "ios": "https://dc.lft.to/lastmile_qr_scan"}, "fusion_lon": 0.0, "lat": 38.92947066666667, "bike_id": "cef57fb99b13d4101214b881eeb80300", "type": "electric_scooter", "is_reserved": 0, "lon": -77.0346965}, {"fusion_lat": 0.0, "name": "9b3a8397af246e6bf7d258c61bd9829d", "is_disabled": 0, "rental_uris": {"android": "https://dc.lft.to/lastmile_qr_scan", "ios": "https://dc.lft.to/lastmile_qr_scan"}, "fusion_lon": 0.0, "lat": 38.91129933333333, "bike_id": "9b3a8397af246e6bf7d258c61bd9829d", "type": "electric_scooter", "is_reserved": 0, "lon": -77.01051666666666}, {"fusion_lat": 0.0, "name": "5d14860420afe0de8b150bd94ed3d41f", "is_disabled": 0, "rental_uris": {"android": "https://dc.lft.to/lastmile_qr_scan", "ios": "https://dc.lft.to/lastmile_qr_scan"}, "fusion_lon": 0.0, "lat": 38.89294266666667, "bike_id": "5d14860420afe0de8b150bd94ed3d41f", "type": "electric_scooter", "is_reserved": 0, "lon": -77.04657233333333}, {"fusion_lat": 0.0, "name": "d112d664750c3fffdda9908449c4bc2e", "is_disabled": 0, "rental_uris": {"android": "https://dc.lft.to/lastmile_qr_scan", "ios": "https://dc.lft.to/lastmile_qr_scan"}, "fusion_lon": 0.0, "lat": 38.842814, "bike_id": "d112d664750c3fffdda9908449c4bc2e", "type": "electric_bike", "is_reserved": 0, "lon": -77.04491266666666}, {"fusion_lat": 0.0, "name": "a7d2eaaea6430f1a84905e5265834afb", "is_disabled": 0, "rental_uris": {"android": "https://dc.lft.to/lastmile_qr_scan", "ios": "https://dc.lft.to/lastmile_qr_scan"}, "fusion_lon": 0.0, "lat": 38.9027345, "bike_id": "a7d2eaaea6430f1a84905e5265834afb", "type": "electric_scooter", "is_reserved": 0, "lon": -77.03370366666667}, {"fusion_lat": 0.0, "name": "b395332e57a1d7431252849bcc2f99ab", "is_disabled": 0, "rental_uris": {"android": "https://dc.lft.to/lastmile_qr_scan", "ios": "https://dc.lft.to/lastmile_qr_scan"}, "fusion_lon": 0.0, "lat": 38.895625, "bike_id": "b395332e57a1d7431252849bcc2f99ab", "type": "electric_bike", "is_reserved": 0, "lon": -77.1273965}, {"fusion_lat": 0.0, "name": "02a629cc0f5d1c7e7b6599d6152846a3", "is_disabled": 0, "rental_uris": {"android": "https://dc.lft.to/lastmile_qr_scan", "ios": "https://dc.lft.to/lastmile_qr_scan"}, "fusion_lon": 0.0, "lat": 38.917065666666666, "bike_id": "02a629cc0f5d1c7e7b6599d6152846a3", "type": "electric_scooter", "is_reserved": 0, "lon": -77.03472766666667}, {"fusion_lat": 0.0, "name": "d30013ee9ca56e5730a22d91c15fff3a", "is_disabled": 0, "rental_uris": {"android": "https://dc.lft.to/lastmile_qr_scan", "ios": "https://dc.lft.to/lastmile_qr_scan"}, "fusion_lon": 0.0, "lat": 38.93147233333333, "bike_id": "d30013ee9ca56e5730a22d91c15fff3a", "type": "electric_scooter", "is_reserved": 0, "lon": -77.03972183333333}, {"fusion_lat": 0.0, "name": "9aa1fa91f45867eef8d3ee4fc1ddd1d5", "is_disabled": 0, "rental_uris": {"android": "https://dc.lft.to/lastmile_qr_scan", "ios": "https://dc.lft.to/lastmile_qr_scan"}, "fusion_lon": 0.0, "lat": 38.90554183333333, "bike_id": "9aa1fa91f45867eef8d3ee4fc1ddd1d5", "type": "electric_scooter", "is_reserved": 0, "lon": -77.00607783333334}, {"fusion_lat": 0.0, "name": "9200acfc1677f2cb1c598d004fa2f7b4", "is_disabled": 0, "rental_uris": {"android": "https://dc.lft.to/lastmile_qr_scan", "ios": "https://dc.lft.to/lastmile_qr_scan"}, "fusion_lon": 0.0, "lat": 38.95266316666667, "bike_id": "9200acfc1677f2cb1c598d004fa2f7b4", "type": "electric_bike", "is_reserved": 0, "lon": -76.99947433333334}, {"fusion_lat": 0.0, "name": "cfcb960e947a01f974aa6eb6caed1b73", "is_disabled": 0, "rental_uris": {"android": "https://dc.lft.to/lastmile_qr_scan", "ios": "https://dc.lft.to/lastmile_qr_scan"}, "fusion_lon": 0.0, "lat": 38.841291, "bike_id": "cfcb960e947a01f974aa6eb6caed1b73", "type": "electric_bike", "is_reserved": 0, "lon": -77.06303833333334}, {"fusion_lat": 0.0, "name": "06e096263369953efccc4c3aadd0055e", "is_disabled": 0, "rental_uris": {"android": "https://dc.lft.to/lastmile_qr_scan", "ios": "https://dc.lft.to/lastmile_qr_scan"}, "fusion_lon": 0.0, "lat": 38.894737, "bike_id": "06e096263369953efccc4c3aadd0055e", "type": "electric_scooter", "is_reserved": 0, "lon": -77.0218165}, {"fusion_lat": 0.0, "name": "dd87148e91ff74b0d47e5ff17d8b8354", "is_disabled": 0, "rental_uris": {"android": "https://dc.lft.to/lastmile_qr_scan", "ios": "https://dc.lft.to/lastmile_qr_scan"}, "fusion_lon": 0.0, "lat": 38.917035166666665, "bike_id": "dd87148e91ff74b0d47e5ff17d8b8354", "type": "electric_scooter", "is_reserved": 0, "lon": -77.0385895}, {"fusion_lat": 0.0, "name": "a039aec76e96e920be2a3976139fdd57", "is_disabled": 0, "rental_uris": {"android": "https://dc.lft.to/lastmile_qr_scan", "ios": "https://dc.lft.to/lastmile_qr_scan"}, "fusion_lon": 0.0, "lat": 38.8193755, "bike_id": "a039aec76e96e920be2a3976139fdd57", "type": "electric_bike", "is_reserved": 0, "lon": -77.002037}, {"fusion_lat": 0.0, "name": "ee93b4d2e6ac2c19e335925528eb7116", "is_disabled": 0, "rental_uris": {"android": "https://dc.lft.to/lastmile_qr_scan", "ios": "https://dc.lft.to/lastmile_qr_scan"}, "fusion_lon": 0.0, "lat": 38.9066025, "bike_id": "ee93b4d2e6ac2c19e335925528eb7116", "type": "electric_scooter", "is_reserved": 0, "lon": -77.01091216666667}, {"fusion_lat": 0.0, "name": "264e8d3ad0848682f1a0aef8ff45c64d", "is_disabled": 0, "rental_uris": {"android": "https://dc.lft.to/lastmile_qr_scan", "ios": "https://dc.lft.to/lastmile_qr_scan"}, "fusion_lon": 0.0, "lat": 38.90458483333333, "bike_id": "264e8d3ad0848682f1a0aef8ff45c64d", "type": "electric_scooter", "is_reserved": 0, "lon": -77.02953016666666}, {"fusion_lat": 0.0, "name": "6e4f0ef07cec5ba6a19b2a19cc30c3a2", "is_disabled": 0, "rental_uris": {"android": "https://dc.lft.to/lastmile_qr_scan", "ios": "https://dc.lft.to/lastmile_qr_scan"}, "fusion_lon": 0.0, "lat": 38.9071675, "bike_id": "6e4f0ef07cec5ba6a19b2a19cc30c3a2", "type": "electric_scooter", "is_reserved": 0, "lon": -77.02543016666667}, {"fusion_lat": 0.0, "name": "5a66243b9cdba6cde9c0da8c47b3523c", "is_disabled": 0, "rental_uris": {"android": "https://dc.lft.to/lastmile_qr_scan", "ios": "https://dc.lft.to/lastmile_qr_scan"}, "fusion_lon": 0.0, "lat": 38.938597333333334, "bike_id": "5a66243b9cdba6cde9c0da8c47b3523c", "type": "electric_scooter", "is_reserved": 0, "lon": -77.03206816666666}, {"fusion_lat": 0.0, "name": "4714cbaea0037ad7510856b0bc97a91e", "is_disabled": 0, "rental_uris": {"android": "https://dc.lft.to/lastmile_qr_scan", "ios": "https://dc.lft.to/lastmile_qr_scan"}, "fusion_lon": 0.0, "lat": 38.90041883333333, "bike_id": "4714cbaea0037ad7510856b0bc97a91e", "type": "electric_scooter", "is_reserved": 0, "lon": -77.04479466666666}, {"fusion_lat": 0.0, "name": "38d222063b24a36252b43d3c57a024da", "is_disabled": 0, "rental_uris": {"android": "https://dc.lft.to/lastmile_qr_scan", "ios": "https://dc.lft.to/lastmile_qr_scan"}, "fusion_lon": 0.0, "lat": 38.9169675, "bike_id": "38d222063b24a36252b43d3c57a024da", "type": "electric_scooter", "is_reserved": 0, "lon": -77.03756433333334}, {"fusion_lat": 0.0, "name": "d823e53522fbeeb46d78bc68a7e66df0", "is_disabled": 0, "rental_uris": {"android": "https://dc.lft.to/lastmile_qr_scan", "ios": "https://dc.lft.to/lastmile_qr_scan"}, "fusion_lon": 0.0, "lat": 38.878251666666664, "bike_id": "d823e53522fbeeb46d78bc68a7e66df0", "type": "electric_scooter", "is_reserved": 0, "lon": -76.990126}, {"fusion_lat": 0.0, "name": "01d3d3aa3aea324601f2485972df3a13", "is_disabled": 0, "rental_uris": {"android": "https://dc.lft.to/lastmile_qr_scan", "ios": "https://dc.lft.to/lastmile_qr_scan"}, "fusion_lon": 0.0, "lat": 39.0389985, "bike_id": "01d3d3aa3aea324601f2485972df3a13", "type": "electric_bike", "is_reserved": 0, "lon": -77.05027266666667}, {"fusion_lat": 0.0, "name": "b3589ff9dccb86146ffd566a1031919e", "is_disabled": 0, "rental_uris": {"android": "https://dc.lft.to/lastmile_qr_scan", "ios": "https://dc.lft.to/lastmile_qr_scan"}, "fusion_lon": 0.0, "lat": 38.930119833333336, "bike_id": "b3589ff9dccb86146ffd566a1031919e", "type": "electric_scooter", "is_reserved": 0, "lon": -77.02082483333334}, {"fusion_lat": 0.0, "name": "767463fb94f93e6a17a294711b565542", "is_disabled": 0, "rental_uris": {"android": "https://dc.lft.to/lastmile_qr_scan", "ios": "https://dc.lft.to/lastmile_qr_scan"}, "fusion_lon": 0.0, "lat": 38.91800416666667, "bike_id": "767463fb94f93e6a17a294711b565542", "type": "electric_scooter", "is_reserved": 0, "lon": -77.02710866666666}, {"fusion_lat": 0.0, "name": "e7c9d6ee2142b965e2e6f153fccf4a52", "is_disabled": 0, "rental_uris": {"android": "https://dc.lft.to/lastmile_qr_scan", "ios": "https://dc.lft.to/lastmile_qr_scan"}, "fusion_lon": 0.0, "lat": 38.909837333333336, "bike_id": "e7c9d6ee2142b965e2e6f153fccf4a52", "type": "electric_scooter", "is_reserved": 0, "lon": -77.04741066666666}, {"fusion_lat": 0.0, "name": "28b07489378c4ef252864e859fd5e211", "is_disabled": 0, "rental_uris": {"android": "https://dc.lft.to/lastmile_qr_scan", "ios": "https://dc.lft.to/lastmile_qr_scan"}, "fusion_lon": 0.0, "lat": 38.9073495, "bike_id": "28b07489378c4ef252864e859fd5e211", "type": "electric_scooter", "is_reserved": 0, "lon": -77.0260775}, {"fusion_lat": 0.0, "name": "767fc11229c4e28f1dad9be4813d94e9", "is_disabled": 0, "rental_uris": {"android": "https://dc.lft.to/lastmile_qr_scan", "ios": "https://dc.lft.to/lastmile_qr_scan"}, "fusion_lon": 0.0, "lat": 38.900043833333335, "bike_id": "767fc11229c4e28f1dad9be4813d94e9", "type": "electric_scooter", "is_reserved": 0, "lon": -76.99842116666667}, {"fusion_lat": 0.0, "name": "8083951e7126e493d65cee48999bea21", "is_disabled": 0, "rental_uris": {"android": "https://dc.lft.to/lastmile_qr_scan", "ios": "https://dc.lft.to/lastmile_qr_scan"}, "fusion_lon": 0.0, "lat": 38.914263, "bike_id": "8083951e7126e493d65cee48999bea21", "type": "electric_scooter", "is_reserved": 0, "lon": -76.98436516666666}, {"fusion_lat": 0.0, "name": "5d26541ec6c1b8276c57992c1b94b740", "is_disabled": 0, "rental_uris": {"android": "https://dc.lft.to/lastmile_qr_scan", "ios": "https://dc.lft.to/lastmile_qr_scan"}, "fusion_lon": 0.0, "lat": 38.90465283333333, "bike_id": "5d26541ec6c1b8276c57992c1b94b740", "type": "electric_scooter", "is_reserved": 0, "lon": -77.00345216666666}, {"fusion_lat": 0.0, "name": "ddefccc6e9eedf191675ba62b8c63e71", "is_disabled": 0, "rental_uris": {"android": "https://dc.lft.to/lastmile_qr_scan", "ios": "https://dc.lft.to/lastmile_qr_scan"}, "fusion_lon": 0.0, "lat": 38.9248155, "bike_id": "ddefccc6e9eedf191675ba62b8c63e71", "type": "electric_scooter", "is_reserved": 0, "lon": -77.027142}, {"fusion_lat": 0.0, "name": "e349d0953405b2b270ed2dc641095973", "is_disabled": 0, "rental_uris": {"android": "https://dc.lft.to/lastmile_qr_scan", "ios": "https://dc.lft.to/lastmile_qr_scan"}, "fusion_lon": 0.0, "lat": 38.853619333333334, "bike_id": "e349d0953405b2b270ed2dc641095973", "type": "electric_bike", "is_reserved": 0, "lon": -77.11519883333334}, {"fusion_lat": 0.0, "name": "5c08a5419e9542a9d87ddd709244977f", "is_disabled": 0, "rental_uris": {"android": "https://dc.lft.to/lastmile_qr_scan", "ios": "https://dc.lft.to/lastmile_qr_scan"}, "fusion_lon": 0.0, "lat": 38.909774, "bike_id": "5c08a5419e9542a9d87ddd709244977f", "type": "electric_scooter", "is_reserved": 0, "lon": -77.0318665}, {"fusion_lat": 0.0, "name": "676f6be45766f42b2ba1385f215049ae", "is_disabled": 0, "rental_uris": {"android": "https://dc.lft.to/lastmile_qr_scan", "ios": "https://dc.lft.to/lastmile_qr_scan"}, "fusion_lon": 0.0, "lat": 38.924256666666665, "bike_id": "676f6be45766f42b2ba1385f215049ae", "type": "electric_scooter", "is_reserved": 0, "lon": -76.98595166666667}, {"fusion_lat": 0.0, "name": "66ccea8e036a0d8dbc1d5125805c4264", "is_disabled": 0, "rental_uris": {"android": "https://dc.lft.to/lastmile_qr_scan", "ios": "https://dc.lft.to/lastmile_qr_scan"}, "fusion_lon": 0.0, "lat": 38.8825235, "bike_id": "66ccea8e036a0d8dbc1d5125805c4264", "type": "electric_scooter", "is_reserved": 0, "lon": -76.99031733333334}, {"fusion_lat": 0.0, "name": "cc9e6eaa714b6bd1f6fc526f4eb2d960", "is_disabled": 0, "rental_uris": {"android": "https://dc.lft.to/lastmile_qr_scan", "ios": "https://dc.lft.to/lastmile_qr_scan"}, "fusion_lon": 0.0, "lat": 38.8886695, "bike_id": "cc9e6eaa714b6bd1f6fc526f4eb2d960", "type": "electric_scooter", "is_reserved": 0, "lon": -76.984529}, {"fusion_lat": 0.0, "name": "e2de404349fa4bf1f8723dff95570717", "is_disabled": 0, "rental_uris": {"android": "https://dc.lft.to/lastmile_qr_scan", "ios": "https://dc.lft.to/lastmile_qr_scan"}, "fusion_lon": 0.0, "lat": 38.892238666666664, "bike_id": "e2de404349fa4bf1f8723dff95570717", "type": "electric_scooter", "is_reserved": 0, "lon": -77.04640866666666}, {"fusion_lat": 0.0, "name": "47f7be6275de001873d3fdf7e6d11795", "is_disabled": 0, "rental_uris": {"android": "https://dc.lft.to/lastmile_qr_scan", "ios": "https://dc.lft.to/lastmile_qr_scan"}, "fusion_lon": 0.0, "lat": 38.894782166666666, "bike_id": "47f7be6275de001873d3fdf7e6d11795", "type": "electric_scooter", "is_reserved": 0, "lon": -76.9973405}, {"fusion_lat": 0.0, "name": "5bcebe02aba1a3f01d43a7fb3e968880", "is_disabled": 0, "rental_uris": {"android": "https://dc.lft.to/lastmile_qr_scan", "ios": "https://dc.lft.to/lastmile_qr_scan"}, "fusion_lon": 0.0, "lat": 38.9051155, "bike_id": "5bcebe02aba1a3f01d43a7fb3e968880", "type": "electric_scooter", "is_reserved": 0, "lon": -77.01710816666667}, {"fusion_lat": 0.0, "name": "b54f98f15de202a2f6e0cb4c68cbe26d", "is_disabled": 0, "rental_uris": {"android": "https://dc.lft.to/lastmile_qr_scan", "ios": "https://dc.lft.to/lastmile_qr_scan"}, "fusion_lon": 0.0, "lat": 38.901211833333335, "bike_id": "b54f98f15de202a2f6e0cb4c68cbe26d", "type": "electric_scooter", "is_reserved": 0, "lon": -77.05147033333333}, {"fusion_lat": 0.0, "name": "5154e7c3ed4ee3962c5bb021af18f980", "is_disabled": 0, "rental_uris": {"android": "https://dc.lft.to/lastmile_qr_scan", "ios": "https://dc.lft.to/lastmile_qr_scan"}, "fusion_lon": 0.0, "lat": 38.8917835, "bike_id": "5154e7c3ed4ee3962c5bb021af18f980", "type": "electric_scooter", "is_reserved": 0, "lon": -77.02173666666667}, {"fusion_lat": 0.0, "name": "f233e474cf2306064f28cf4f4a4b4f41", "is_disabled": 0, "rental_uris": {"android": "https://dc.lft.to/lastmile_qr_scan", "ios": "https://dc.lft.to/lastmile_qr_scan"}, "fusion_lon": 0.0, "lat": 38.906827166666666, "bike_id": "f233e474cf2306064f28cf4f4a4b4f41", "type": "electric_bike", "is_reserved": 0, "lon": -76.94495233333333}, {"fusion_lat": 0.0, "name": "004a810d95a0cfd2aa53f016282e1f37", "is_disabled": 0, "rental_uris": {"android": "https://dc.lft.to/lastmile_qr_scan", "ios": "https://dc.lft.to/lastmile_qr_scan"}, "fusion_lon": 0.0, "lat": 38.86911333333333, "bike_id": "004a810d95a0cfd2aa53f016282e1f37", "type": "electric_bike", "is_reserved": 0, "lon": -76.9750185}, {"fusion_lat": 0.0, "name": "ab32f33f667214dcf08d40ed143431d8", "is_disabled": 0, "rental_uris": {"android": "https://dc.lft.to/lastmile_qr_scan", "ios": "https://dc.lft.to/lastmile_qr_scan"}, "fusion_lon": 0.0, "lat": 38.9055905, "bike_id": "ab32f33f667214dcf08d40ed143431d8", "type": "electric_scooter", "is_reserved": 0, "lon": -77.02933133333333}, {"fusion_lat": 0.0, "name": "dcffa17b57b01baee5eaf361069e4cf0", "is_disabled": 0, "rental_uris": {"android": "https://dc.lft.to/lastmile_qr_scan", "ios": "https://dc.lft.to/lastmile_qr_scan"}, "fusion_lon": 0.0, "lat": 38.887666833333334, "bike_id": "dcffa17b57b01baee5eaf361069e4cf0", "type": "electric_scooter", "is_reserved": 0, "lon": -76.9774265}, {"fusion_lat": 0.0, "name": "7ace3ea5dfe9e50d0e74b24f93ac1d3a", "is_disabled": 0, "rental_uris": {"android": "https://dc.lft.to/lastmile_qr_scan", "ios": "https://dc.lft.to/lastmile_qr_scan"}, "fusion_lon": 0.0, "lat": 38.91833283333333, "bike_id": "7ace3ea5dfe9e50d0e74b24f93ac1d3a", "type": "electric_scooter", "is_reserved": 0, "lon": -77.031999}, {"fusion_lat": 0.0, "name": "50a2fae5a624a53daf049fa8c0d1a902", "is_disabled": 0, "rental_uris": {"android": "https://dc.lft.to/lastmile_qr_scan", "ios": "https://dc.lft.to/lastmile_qr_scan"}, "fusion_lon": 0.0, "lat": 38.937633, "bike_id": "50a2fae5a624a53daf049fa8c0d1a902", "type": "electric_scooter", "is_reserved": 0, "lon": -77.0327965}, {"fusion_lat": 0.0, "name": "afd7f1de3fa466afa37e79d6cd8c3bd2", "is_disabled": 0, "rental_uris": {"android": "https://dc.lft.to/lastmile_qr_scan", "ios": "https://dc.lft.to/lastmile_qr_scan"}, "fusion_lon": 0.0, "lat": 38.897506166666666, "bike_id": "afd7f1de3fa466afa37e79d6cd8c3bd2", "type": "electric_scooter", "is_reserved": 0, "lon": -77.02504183333333}, {"fusion_lat": 0.0, "name": "16aaa2c6ae6d48fb1644a2386abb3a13", "is_disabled": 0, "rental_uris": {"android": "https://dc.lft.to/lastmile_qr_scan", "ios": "https://dc.lft.to/lastmile_qr_scan"}, "fusion_lon": 0.0, "lat": 38.901534833333336, "bike_id": "16aaa2c6ae6d48fb1644a2386abb3a13", "type": "electric_scooter", "is_reserved": 0, "lon": -76.93070083333333}, {"fusion_lat": 0.0, "name": "26c8ec2aff8b1399b72e5e594f704846", "is_disabled": 0, "rental_uris": {"android": "https://dc.lft.to/lastmile_qr_scan", "ios": "https://dc.lft.to/lastmile_qr_scan"}, "fusion_lon": 0.0, "lat": 38.917041166666664, "bike_id": "26c8ec2aff8b1399b72e5e594f704846", "type": "electric_scooter", "is_reserved": 0, "lon": -77.02480216666666}, {"fusion_lat": 0.0, "name": "3d9694c755b88f92b3778ff351e51fee", "is_disabled": 0, "rental_uris": {"android": "https://dc.lft.to/lastmile_qr_scan", "ios": "https://dc.lft.to/lastmile_qr_scan"}, "fusion_lon": 0.0, "lat": 38.8874465, "bike_id": "3d9694c755b88f92b3778ff351e51fee", "type": "electric_scooter", "is_reserved": 0, "lon": -77.03157983333334}, {"fusion_lat": 0.0, "name": "d46d16e79c70b58bc45f27d45527183e", "is_disabled": 0, "rental_uris": {"android": "https://dc.lft.to/lastmile_qr_scan", "ios": "https://dc.lft.to/lastmile_qr_scan"}, "fusion_lon": 0.0, "lat": 38.912435333333335, "bike_id": "d46d16e79c70b58bc45f27d45527183e", "type": "electric_scooter", "is_reserved": 0, "lon": -77.00648466666667}, {"fusion_lat": 0.0, "name": "a61f0b8384bc9189d82f86038075ac31", "is_disabled": 0, "rental_uris": {"android": "https://dc.lft.to/lastmile_qr_scan", "ios": "https://dc.lft.to/lastmile_qr_scan"}, "fusion_lon": 0.0, "lat": 38.905702833333336, "bike_id": "a61f0b8384bc9189d82f86038075ac31", "type": "electric_scooter", "is_reserved": 0, "lon": -77.02104}, {"fusion_lat": 0.0, "name": "3ef3c8436ff77988b6ee88ced9665860", "is_disabled": 0, "rental_uris": {"android": "https://dc.lft.to/lastmile_qr_scan", "ios": "https://dc.lft.to/lastmile_qr_scan"}, "fusion_lon": 0.0, "lat": 38.909353333333335, "bike_id": "3ef3c8436ff77988b6ee88ced9665860", "type": "electric_scooter", "is_reserved": 0, "lon": -77.018437}, {"fusion_lat": 0.0, "name": "633cd5e165be155b6aa1899e33a6cc46", "is_disabled": 0, "rental_uris": {"android": "https://dc.lft.to/lastmile_qr_scan", "ios": "https://dc.lft.to/lastmile_qr_scan"}, "fusion_lon": 0.0, "lat": 38.91518266666667, "bike_id": "633cd5e165be155b6aa1899e33a6cc46", "type": "electric_scooter", "is_reserved": 0, "lon": -77.02698116666667}, {"fusion_lat": 0.0, "name": "7f781b413fc80fe167e531d84153334c", "is_disabled": 0, "rental_uris": {"android": "https://dc.lft.to/lastmile_qr_scan", "ios": "https://dc.lft.to/lastmile_qr_scan"}, "fusion_lon": 0.0, "lat": 38.92181466666667, "bike_id": "7f781b413fc80fe167e531d84153334c", "type": "electric_scooter", "is_reserved": 0, "lon": -77.04233766666667}, {"fusion_lat": 0.0, "name": "ef8f5a2d277dcf5ad7abf965be19425e", "is_disabled": 0, "rental_uris": {"android": "https://dc.lft.to/lastmile_qr_scan", "ios": "https://dc.lft.to/lastmile_qr_scan"}, "fusion_lon": 0.0, "lat": 38.945212, "bike_id": "ef8f5a2d277dcf5ad7abf965be19425e", "type": "electric_scooter", "is_reserved": 0, "lon": -77.02273616666666}, {"fusion_lat": 0.0, "name": "6f72d1ca04be6b7055b33ceca1e81628", "is_disabled": 0, "rental_uris": {"android": "https://dc.lft.to/lastmile_qr_scan", "ios": "https://dc.lft.to/lastmile_qr_scan"}, "fusion_lon": 0.0, "lat": 38.877129833333335, "bike_id": "6f72d1ca04be6b7055b33ceca1e81628", "type": "electric_scooter", "is_reserved": 0, "lon": -76.99386416666667}, {"fusion_lat": 0.0, "name": "dc1d7eedb63a3411a6ec06568be875cb", "is_disabled": 0, "rental_uris": {"android": "https://dc.lft.to/lastmile_qr_scan", "ios": "https://dc.lft.to/lastmile_qr_scan"}, "fusion_lon": 0.0, "lat": 38.9350435, "bike_id": "dc1d7eedb63a3411a6ec06568be875cb", "type": "electric_scooter", "is_reserved": 0, "lon": -77.07371266666667}, {"fusion_lat": 0.0, "name": "6cc076c9ee4313323ab23355f5dc35ac", "is_disabled": 0, "rental_uris": {"android": "https://dc.lft.to/lastmile_qr_scan", "ios": "https://dc.lft.to/lastmile_qr_scan"}, "fusion_lon": 0.0, "lat": 38.92648916666667, "bike_id": "6cc076c9ee4313323ab23355f5dc35ac", "type": "electric_scooter", "is_reserved": 0, "lon": -77.03715866666667}, {"fusion_lat": 0.0, "name": "a55b42a5bc43f5c9dd634be216bdfa19", "is_disabled": 0, "rental_uris": {"android": "https://dc.lft.to/lastmile_qr_scan", "ios": "https://dc.lft.to/lastmile_qr_scan"}, "fusion_lon": 0.0, "lat": 38.983894, "bike_id": "a55b42a5bc43f5c9dd634be216bdfa19", "type": "electric_scooter", "is_reserved": 0, "lon": -77.02630533333334}, {"fusion_lat": 0.0, "name": "9dcecb3f4c69114f4c1efe65752434c0", "is_disabled": 0, "rental_uris": {"android": "https://dc.lft.to/lastmile_qr_scan", "ios": "https://dc.lft.to/lastmile_qr_scan"}, "fusion_lon": 0.0, "lat": 38.8919575, "bike_id": "9dcecb3f4c69114f4c1efe65752434c0", "type": "electric_scooter", "is_reserved": 0, "lon": -77.02229966666667}, {"fusion_lat": 0.0, "name": "e7a20e1be10551f4de4c80261e83630b", "is_disabled": 0, "rental_uris": {"android": "https://dc.lft.to/lastmile_qr_scan", "ios": "https://dc.lft.to/lastmile_qr_scan"}, "fusion_lon": 0.0, "lat": 38.9169365, "bike_id": "e7a20e1be10551f4de4c80261e83630b", "type": "electric_scooter", "is_reserved": 0, "lon": -77.03734866666667}, {"fusion_lat": 0.0, "name": "4f6be8ebe283ee38419d443074a87b1d", "is_disabled": 0, "rental_uris": {"android": "https://dc.lft.to/lastmile_qr_scan", "ios": "https://dc.lft.to/lastmile_qr_scan"}, "fusion_lon": 0.0, "lat": 38.919033, "bike_id": "4f6be8ebe283ee38419d443074a87b1d", "type": "electric_scooter", "is_reserved": 0, "lon": -77.01223983333334}, {"fusion_lat": 0.0, "name": "b35de67f08b081f80435038431c6960b", "is_disabled": 0, "rental_uris": {"android": "https://dc.lft.to/lastmile_qr_scan", "ios": "https://dc.lft.to/lastmile_qr_scan"}, "fusion_lon": 0.0, "lat": 38.912653, "bike_id": "b35de67f08b081f80435038431c6960b", "type": "electric_scooter", "is_reserved": 0, "lon": -77.04655616666666}, {"fusion_lat": 0.0, "name": "988daa2f6bea6c583736e1712c4fd3fd", "is_disabled": 0, "rental_uris": {"android": "https://dc.lft.to/lastmile_qr_scan", "ios": "https://dc.lft.to/lastmile_qr_scan"}, "fusion_lon": 0.0, "lat": 38.89507616666667, "bike_id": "988daa2f6bea6c583736e1712c4fd3fd", "type": "electric_scooter", "is_reserved": 0, "lon": -76.94884683333333}, {"fusion_lat": 0.0, "name": "5e0f9a983890cf97405f197a19987e45", "is_disabled": 0, "rental_uris": {"android": "https://dc.lft.to/lastmile_qr_scan", "ios": "https://dc.lft.to/lastmile_qr_scan"}, "fusion_lon": 0.0, "lat": 38.921892666666665, "bike_id": "5e0f9a983890cf97405f197a19987e45", "type": "electric_scooter", "is_reserved": 0, "lon": -77.08080666666666}, {"fusion_lat": 0.0, "name": "8a3d2eda5de3e378f589923085e4885d", "is_disabled": 0, "rental_uris": {"android": "https://dc.lft.to/lastmile_qr_scan", "ios": "https://dc.lft.to/lastmile_qr_scan"}, "fusion_lon": 0.0, "lat": 38.89900433333333, "bike_id": "8a3d2eda5de3e378f589923085e4885d", "type": "electric_scooter", "is_reserved": 0, "lon": -76.93348516666667}, {"fusion_lat": 0.0, "name": "e2ffa3fe598f13b0038d886614dc7660", "is_disabled": 0, "rental_uris": {"android": "https://dc.lft.to/lastmile_qr_scan", "ios": "https://dc.lft.to/lastmile_qr_scan"}, "fusion_lon": 0.0, "lat": 38.936077166666664, "bike_id": "e2ffa3fe598f13b0038d886614dc7660", "type": "electric_scooter", "is_reserved": 0, "lon": -77.03194933333333}, {"fusion_lat": 0.0, "name": "dec7dce9c3bfcf3c5ed32011597e48d8", "is_disabled": 0, "rental_uris": {"android": "https://dc.lft.to/lastmile_qr_scan", "ios": "https://dc.lft.to/lastmile_qr_scan"}, "fusion_lon": 0.0, "lat": 38.95740166666667, "bike_id": "dec7dce9c3bfcf3c5ed32011597e48d8", "type": "electric_bike", "is_reserved": 0, "lon": -76.98085516666667}, {"fusion_lat": 0.0, "name": "8c05cfd42247f0c69fd0e45d3d791dd6", "is_disabled": 0, "rental_uris": {"android": "https://dc.lft.to/lastmile_qr_scan", "ios": "https://dc.lft.to/lastmile_qr_scan"}, "fusion_lon": 0.0, "lat": 38.89478366666667, "bike_id": "8c05cfd42247f0c69fd0e45d3d791dd6", "type": "electric_scooter", "is_reserved": 0, "lon": -77.02190566666667}, {"fusion_lat": 0.0, "name": "b02ad50e7ef38205d839f5503317b1f5", "is_disabled": 0, "rental_uris": {"android": "https://dc.lft.to/lastmile_qr_scan", "ios": "https://dc.lft.to/lastmile_qr_scan"}, "fusion_lon": 0.0, "lat": 38.95069783333334, "bike_id": "b02ad50e7ef38205d839f5503317b1f5", "type": "electric_bike", "is_reserved": 0, "lon": -77.01201}, {"fusion_lat": 0.0, "name": "ed38240c9b2f265f074b9da0269a2f34", "is_disabled": 0, "rental_uris": {"android": "https://dc.lft.to/lastmile_qr_scan", "ios": "https://dc.lft.to/lastmile_qr_scan"}, "fusion_lon": 0.0, "lat": 38.90342, "bike_id": "ed38240c9b2f265f074b9da0269a2f34", "type": "electric_scooter", "is_reserved": 0, "lon": -77.04668933333333}, {"fusion_lat": 0.0, "name": "0287e423ce3827548442c91991aa3973", "is_disabled": 0, "rental_uris": {"android": "https://dc.lft.to/lastmile_qr_scan", "ios": "https://dc.lft.to/lastmile_qr_scan"}, "fusion_lon": 0.0, "lat": 38.9269325, "bike_id": "0287e423ce3827548442c91991aa3973", "type": "electric_scooter", "is_reserved": 0, "lon": -77.02429333333333}, {"fusion_lat": 0.0, "name": "6221904c12ff33bd84f3b4aab4ff8cf2", "is_disabled": 0, "rental_uris": {"android": "https://dc.lft.to/lastmile_qr_scan", "ios": "https://dc.lft.to/lastmile_qr_scan"}, "fusion_lon": 0.0, "lat": 38.902338666666665, "bike_id": "6221904c12ff33bd84f3b4aab4ff8cf2", "type": "electric_scooter", "is_reserved": 0, "lon": -77.04910633333333}, {"fusion_lat": 0.0, "name": "60c5ed942745b6fa70e8927decc94a61", "is_disabled": 0, "rental_uris": {"android": "https://dc.lft.to/lastmile_qr_scan", "ios": "https://dc.lft.to/lastmile_qr_scan"}, "fusion_lon": 0.0, "lat": 38.892215, "bike_id": "60c5ed942745b6fa70e8927decc94a61", "type": "electric_scooter", "is_reserved": 0, "lon": -77.04683716666666}, {"fusion_lat": 0.0, "name": "9de355afea5a5b9921a0d403ebf8e68a", "is_disabled": 0, "rental_uris": {"android": "https://dc.lft.to/lastmile_qr_scan", "ios": "https://dc.lft.to/lastmile_qr_scan"}, "fusion_lon": 0.0, "lat": 38.93214483333333, "bike_id": "9de355afea5a5b9921a0d403ebf8e68a", "type": "electric_scooter", "is_reserved": 0, "lon": -77.0334445}, {"fusion_lat": 0.0, "name": "7931261c89418927cc9dab11d164b3e2", "is_disabled": 0, "rental_uris": {"android": "https://dc.lft.to/lastmile_qr_scan", "ios": "https://dc.lft.to/lastmile_qr_scan"}, "fusion_lon": 0.0, "lat": 38.9017785, "bike_id": "7931261c89418927cc9dab11d164b3e2", "type": "electric_scooter", "is_reserved": 0, "lon": -77.01997483333334}, {"fusion_lat": 0.0, "name": "f321c574b763b181a2cfa8bbe690984a", "is_disabled": 0, "rental_uris": {"android": "https://dc.lft.to/lastmile_qr_scan", "ios": "https://dc.lft.to/lastmile_qr_scan"}, "fusion_lon": 0.0, "lat": 38.946335, "bike_id": "f321c574b763b181a2cfa8bbe690984a", "type": "electric_scooter", "is_reserved": 0, "lon": -77.09539166666667}, {"fusion_lat": 0.0, "name": "45cefa602ca10e5c142915d9bdcc1771", "is_disabled": 0, "rental_uris": {"android": "https://dc.lft.to/lastmile_qr_scan", "ios": "https://dc.lft.to/lastmile_qr_scan"}, "fusion_lon": 0.0, "lat": 38.9561355, "bike_id": "45cefa602ca10e5c142915d9bdcc1771", "type": "electric_scooter", "is_reserved": 0, "lon": -77.0275905}, {"fusion_lat": 0.0, "name": "725c28040061ce736efa539282ad69c7", "is_disabled": 0, "rental_uris": {"android": "https://dc.lft.to/lastmile_qr_scan", "ios": "https://dc.lft.to/lastmile_qr_scan"}, "fusion_lon": 0.0, "lat": 38.902558666666664, "bike_id": "725c28040061ce736efa539282ad69c7", "type": "electric_scooter", "is_reserved": 0, "lon": -77.02942216666666}, {"fusion_lat": 0.0, "name": "696ef3fdf043f30a09845ab0cea2236d", "is_disabled": 0, "rental_uris": {"android": "https://dc.lft.to/lastmile_qr_scan", "ios": "https://dc.lft.to/lastmile_qr_scan"}, "fusion_lon": 0.0, "lat": 38.91340816666667, "bike_id": "696ef3fdf043f30a09845ab0cea2236d", "type": "electric_scooter", "is_reserved": 0, "lon": -77.04276783333333}, {"fusion_lat": 0.0, "name": "e1a27728223dfe50e486ea7aad19edc8", "is_disabled": 0, "rental_uris": {"android": "https://dc.lft.to/lastmile_qr_scan", "ios": "https://dc.lft.to/lastmile_qr_scan"}, "fusion_lon": 0.0, "lat": 38.90786283333333, "bike_id": "e1a27728223dfe50e486ea7aad19edc8", "type": "electric_scooter", "is_reserved": 0, "lon": -77.00970466666666}, {"fusion_lat": 0.0, "name": "eb15d4a017ea04c3a4a0e6971656e4ac", "is_disabled": 0, "rental_uris": {"android": "https://dc.lft.to/lastmile_qr_scan", "ios": "https://dc.lft.to/lastmile_qr_scan"}, "fusion_lon": 0.0, "lat": 38.92075333333333, "bike_id": "eb15d4a017ea04c3a4a0e6971656e4ac", "type": "electric_scooter", "is_reserved": 0, "lon": -77.0148075}, {"fusion_lat": 0.0, "name": "c3bb56ad1500005bfcf15211cbb62979", "is_disabled": 0, "rental_uris": {"android": "https://dc.lft.to/lastmile_qr_scan", "ios": "https://dc.lft.to/lastmile_qr_scan"}, "fusion_lon": 0.0, "lat": 38.91551883333333, "bike_id": "c3bb56ad1500005bfcf15211cbb62979", "type": "electric_scooter", "is_reserved": 0, "lon": -77.030705}, {"fusion_lat": 0.0, "name": "00e647c98bc7fff456213f89bc894ddb", "is_disabled": 0, "rental_uris": {"android": "https://dc.lft.to/lastmile_qr_scan", "ios": "https://dc.lft.to/lastmile_qr_scan"}, "fusion_lon": 0.0, "lat": 38.9489495, "bike_id": "00e647c98bc7fff456213f89bc894ddb", "type": "electric_bike", "is_reserved": 0, "lon": -76.963784}, {"fusion_lat": 0.0, "name": "5085e2b0b27b4074949d658559eb61f0", "is_disabled": 0, "rental_uris": {"android": "https://dc.lft.to/lastmile_qr_scan", "ios": "https://dc.lft.to/lastmile_qr_scan"}, "fusion_lon": 0.0, "lat": 38.9363115, "bike_id": "5085e2b0b27b4074949d658559eb61f0", "type": "electric_scooter", "is_reserved": 0, "lon": -77.03662816666667}, {"fusion_lat": 0.0, "name": "c9b237b69fd24a27450f6831f9bc86a0", "is_disabled": 0, "rental_uris": {"android": "https://dc.lft.to/lastmile_qr_scan", "ios": "https://dc.lft.to/lastmile_qr_scan"}, "fusion_lon": 0.0, "lat": 38.91965533333333, "bike_id": "c9b237b69fd24a27450f6831f9bc86a0", "type": "electric_scooter", "is_reserved": 0, "lon": -77.070973}, {"fusion_lat": 0.0, "name": "6a846af7bd0cee32740c488994a8067a", "is_disabled": 0, "rental_uris": {"android": "https://dc.lft.to/lastmile_qr_scan", "ios": "https://dc.lft.to/lastmile_qr_scan"}, "fusion_lon": 0.0, "lat": 38.92556966666667, "bike_id": "6a846af7bd0cee32740c488994a8067a", "type": "electric_scooter", "is_reserved": 0, "lon": -77.07762833333334}, {"fusion_lat": 0.0, "name": "9d675073ce4cdb397784c1d52c508828", "is_disabled": 0, "rental_uris": {"android": "https://dc.lft.to/lastmile_qr_scan", "ios": "https://dc.lft.to/lastmile_qr_scan"}, "fusion_lon": 0.0, "lat": 38.89733116666667, "bike_id": "9d675073ce4cdb397784c1d52c508828", "type": "electric_scooter", "is_reserved": 0, "lon": -77.00754316666666}, {"fusion_lat": 0.0, "name": "db716e2d3563043fd4aab68966d3eb0c", "is_disabled": 0, "rental_uris": {"android": "https://dc.lft.to/lastmile_qr_scan", "ios": "https://dc.lft.to/lastmile_qr_scan"}, "fusion_lon": 0.0, "lat": 38.937687, "bike_id": "db716e2d3563043fd4aab68966d3eb0c", "type": "electric_scooter", "is_reserved": 0, "lon": -77.0326225}, {"fusion_lat": 0.0, "name": "b633e27159a00bc303cba114810be712", "is_disabled": 0, "rental_uris": {"android": "https://dc.lft.to/lastmile_qr_scan", "ios": "https://dc.lft.to/lastmile_qr_scan"}, "fusion_lon": 0.0, "lat": 38.89284383333333, "bike_id": "b633e27159a00bc303cba114810be712", "type": "electric_scooter", "is_reserved": 0, "lon": -76.98306716666667}, {"fusion_lat": 0.0, "name": "496fcfb82afd0fb253fbe80c8bcac758", "is_disabled": 0, "rental_uris": {"android": "https://dc.lft.to/lastmile_qr_scan", "ios": "https://dc.lft.to/lastmile_qr_scan"}, "fusion_lon": 0.0, "lat": 38.91809116666667, "bike_id": "496fcfb82afd0fb253fbe80c8bcac758", "type": "electric_scooter", "is_reserved": 0, "lon": -77.0113475}, {"fusion_lat": 0.0, "name": "2a2c36aa9f6804712a1426241d99963c", "is_disabled": 0, "rental_uris": {"android": "https://dc.lft.to/lastmile_qr_scan", "ios": "https://dc.lft.to/lastmile_qr_scan"}, "fusion_lon": 0.0, "lat": 38.913031833333335, "bike_id": "2a2c36aa9f6804712a1426241d99963c", "type": "electric_scooter", "is_reserved": 0, "lon": -77.04881483333334}, {"fusion_lat": 0.0, "name": "e7183dc43f90e561f3121675a78c94c5", "is_disabled": 0, "rental_uris": {"android": "https://dc.lft.to/lastmile_qr_scan", "ios": "https://dc.lft.to/lastmile_qr_scan"}, "fusion_lon": 0.0, "lat": 38.90768383333333, "bike_id": "e7183dc43f90e561f3121675a78c94c5", "type": "electric_scooter", "is_reserved": 0, "lon": -77.032048}, {"fusion_lat": 0.0, "name": "f4c91b01f89a127624fc9a2c7d9e0af3", "is_disabled": 0, "rental_uris": {"android": "https://dc.lft.to/lastmile_qr_scan", "ios": "https://dc.lft.to/lastmile_qr_scan"}, "fusion_lon": 0.0, "lat": 38.927831, "bike_id": "f4c91b01f89a127624fc9a2c7d9e0af3", "type": "electric_scooter", "is_reserved": 0, "lon": -77.0320375}, {"fusion_lat": 0.0, "name": "b3cb7b76600d49f85f9e63e5f06c323c", "is_disabled": 0, "rental_uris": {"android": "https://dc.lft.to/lastmile_qr_scan", "ios": "https://dc.lft.to/lastmile_qr_scan"}, "fusion_lon": 0.0, "lat": 38.948807, "bike_id": "b3cb7b76600d49f85f9e63e5f06c323c", "type": "electric_scooter", "is_reserved": 0, "lon": -77.02692783333333}, {"fusion_lat": 0.0, "name": "3d08dd5892e84028a4578a2a24877289", "is_disabled": 0, "rental_uris": {"android": "https://dc.lft.to/lastmile_qr_scan", "ios": "https://dc.lft.to/lastmile_qr_scan"}, "fusion_lon": 0.0, "lat": 38.92964216666667, "bike_id": "3d08dd5892e84028a4578a2a24877289", "type": "electric_scooter", "is_reserved": 0, "lon": -77.02018683333333}, {"fusion_lat": 0.0, "name": "2efa5ed6463b46c3cd8bdf48f52a4448", "is_disabled": 0, "rental_uris": {"android": "https://dc.lft.to/lastmile_qr_scan", "ios": "https://dc.lft.to/lastmile_qr_scan"}, "fusion_lon": 0.0, "lat": 38.894971166666664, "bike_id": "2efa5ed6463b46c3cd8bdf48f52a4448", "type": "electric_scooter", "is_reserved": 0, "lon": -77.0220265}, {"fusion_lat": 0.0, "name": "0afa8715fd07e7a26161058963037e3a", "is_disabled": 0, "rental_uris": {"android": "https://dc.lft.to/lastmile_qr_scan", "ios": "https://dc.lft.to/lastmile_qr_scan"}, "fusion_lon": 0.0, "lat": 38.90950216666667, "bike_id": "0afa8715fd07e7a26161058963037e3a", "type": "electric_scooter", "is_reserved": 0, "lon": -77.02384366666666}, {"fusion_lat": 0.0, "name": "4e7f8af444445786b1c8b8632062665b", "is_disabled": 0, "rental_uris": {"android": "https://dc.lft.to/lastmile_qr_scan", "ios": "https://dc.lft.to/lastmile_qr_scan"}, "fusion_lon": 0.0, "lat": 38.90027933333333, "bike_id": "4e7f8af444445786b1c8b8632062665b", "type": "electric_scooter", "is_reserved": 0, "lon": -77.00220133333333}, {"fusion_lat": 0.0, "name": "36babe23ed266bacca8a2971e5cb145c", "is_disabled": 0, "rental_uris": {"android": "https://dc.lft.to/lastmile_qr_scan", "ios": "https://dc.lft.to/lastmile_qr_scan"}, "fusion_lon": 0.0, "lat": 38.88987, "bike_id": "36babe23ed266bacca8a2971e5cb145c", "type": "electric_scooter", "is_reserved": 0, "lon": -76.99632716666666}, {"fusion_lat": 0.0, "name": "40676d1e5fb5ec14ff9e2050b0457811", "is_disabled": 0, "rental_uris": {"android": "https://dc.lft.to/lastmile_qr_scan", "ios": "https://dc.lft.to/lastmile_qr_scan"}, "fusion_lon": 0.0, "lat": 38.9093775, "bike_id": "40676d1e5fb5ec14ff9e2050b0457811", "type": "electric_scooter", "is_reserved": 0, "lon": -77.02122316666667}, {"fusion_lat": 0.0, "name": "14ba4d2404ca653208056df28880c64e", "is_disabled": 0, "rental_uris": {"android": "https://dc.lft.to/lastmile_qr_scan", "ios": "https://dc.lft.to/lastmile_qr_scan"}, "fusion_lon": 0.0, "lat": 38.889881, "bike_id": "14ba4d2404ca653208056df28880c64e", "type": "electric_scooter", "is_reserved": 0, "lon": -76.987435}, {"fusion_lat": 0.0, "name": "2a785e4f30649efb7e3005ec59956aa2", "is_disabled": 0, "rental_uris": {"android": "https://dc.lft.to/lastmile_qr_scan", "ios": "https://dc.lft.to/lastmile_qr_scan"}, "fusion_lon": 0.0, "lat": 38.899401166666664, "bike_id": "2a785e4f30649efb7e3005ec59956aa2", "type": "electric_scooter", "is_reserved": 0, "lon": -77.05352983333333}, {"fusion_lat": 0.0, "name": "3199d4d47315c46550ab248cb38710e0", "is_disabled": 0, "rental_uris": {"android": "https://dc.lft.to/lastmile_qr_scan", "ios": "https://dc.lft.to/lastmile_qr_scan"}, "fusion_lon": 0.0, "lat": 38.91736, "bike_id": "3199d4d47315c46550ab248cb38710e0", "type": "electric_scooter", "is_reserved": 0, "lon": -77.048309}, {"fusion_lat": 0.0, "name": "5001f4bb734f92193f250f6618e51fca", "is_disabled": 0, "rental_uris": {"android": "https://dc.lft.to/lastmile_qr_scan", "ios": "https://dc.lft.to/lastmile_qr_scan"}, "fusion_lon": 0.0, "lat": 38.939441333333335, "bike_id": "5001f4bb734f92193f250f6618e51fca", "type": "electric_scooter", "is_reserved": 0, "lon": -77.03324166666667}, {"fusion_lat": 0.0, "name": "9812a1674c80d52554973ddae9faa3c3", "is_disabled": 0, "rental_uris": {"android": "https://dc.lft.to/lastmile_qr_scan", "ios": "https://dc.lft.to/lastmile_qr_scan"}, "fusion_lon": 0.0, "lat": 38.92046916666666, "bike_id": "9812a1674c80d52554973ddae9faa3c3", "type": "electric_scooter", "is_reserved": 0, "lon": -77.03387483333333}, {"fusion_lat": 0.0, "name": "3a65dd4dd75f51be586efab077734ed0", "is_disabled": 0, "rental_uris": {"android": "https://dc.lft.to/lastmile_qr_scan", "ios": "https://dc.lft.to/lastmile_qr_scan"}, "fusion_lon": 0.0, "lat": 38.85888033333333, "bike_id": "3a65dd4dd75f51be586efab077734ed0", "type": "electric_bike", "is_reserved": 0, "lon": -77.09542683333333}, {"fusion_lat": 0.0, "name": "c242922c6453b7a9b86a345d03705275", "is_disabled": 0, "rental_uris": {"android": "https://dc.lft.to/lastmile_qr_scan", "ios": "https://dc.lft.to/lastmile_qr_scan"}, "fusion_lon": 0.0, "lat": 38.908018166666665, "bike_id": "c242922c6453b7a9b86a345d03705275", "type": "electric_scooter", "is_reserved": 0, "lon": -77.03445483333333}, {"fusion_lat": 0.0, "name": "0422caa8e9b30b1e9dbed9432fdc7d5d", "is_disabled": 0, "rental_uris": {"android": "https://dc.lft.to/lastmile_qr_scan", "ios": "https://dc.lft.to/lastmile_qr_scan"}, "fusion_lon": 0.0, "lat": 38.92074366666667, "bike_id": "0422caa8e9b30b1e9dbed9432fdc7d5d", "type": "electric_scooter", "is_reserved": 0, "lon": -77.02316783333333}, {"fusion_lat": 0.0, "name": "4668e688975a36f9cf12bfa2001c338f", "is_disabled": 0, "rental_uris": {"android": "https://dc.lft.to/lastmile_qr_scan", "ios": "https://dc.lft.to/lastmile_qr_scan"}, "fusion_lon": 0.0, "lat": 38.89668416666667, "bike_id": "4668e688975a36f9cf12bfa2001c338f", "type": "electric_scooter", "is_reserved": 0, "lon": -76.932118}, {"fusion_lat": 0.0, "name": "ed353db19427328714415eeab493b1a4", "is_disabled": 0, "rental_uris": {"android": "https://dc.lft.to/lastmile_qr_scan", "ios": "https://dc.lft.to/lastmile_qr_scan"}, "fusion_lon": 0.0, "lat": 38.931166, "bike_id": "ed353db19427328714415eeab493b1a4", "type": "electric_scooter", "is_reserved": 0, "lon": -77.02087283333333}, {"fusion_lat": 0.0, "name": "d49d43ea098e93e688deb993bff4792e", "is_disabled": 0, "rental_uris": {"android": "https://dc.lft.to/lastmile_qr_scan", "ios": "https://dc.lft.to/lastmile_qr_scan"}, "fusion_lon": 0.0, "lat": 38.909335166666665, "bike_id": "d49d43ea098e93e688deb993bff4792e", "type": "electric_scooter", "is_reserved": 0, "lon": -77.062715}, {"fusion_lat": 0.0, "name": "ddfe68d1b9a13138acd73692e3d170c0", "is_disabled": 0, "rental_uris": {"android": "https://dc.lft.to/lastmile_qr_scan", "ios": "https://dc.lft.to/lastmile_qr_scan"}, "fusion_lon": 0.0, "lat": 38.93483366666667, "bike_id": "ddfe68d1b9a13138acd73692e3d170c0", "type": "electric_scooter", "is_reserved": 0, "lon": -77.04535433333334}, {"fusion_lat": 0.0, "name": "e363d229aa190a339fc8760f3dddf2a0", "is_disabled": 0, "rental_uris": {"android": "https://dc.lft.to/lastmile_qr_scan", "ios": "https://dc.lft.to/lastmile_qr_scan"}, "fusion_lon": 0.0, "lat": 38.9365525, "bike_id": "e363d229aa190a339fc8760f3dddf2a0", "type": "electric_scooter", "is_reserved": 0, "lon": -77.036579}, {"fusion_lat": 0.0, "name": "4f773f759b2ea955c48cbb6e33ea450f", "is_disabled": 0, "rental_uris": {"android": "https://dc.lft.to/lastmile_qr_scan", "ios": "https://dc.lft.to/lastmile_qr_scan"}, "fusion_lon": 0.0, "lat": 38.907532333333336, "bike_id": "4f773f759b2ea955c48cbb6e33ea450f", "type": "electric_scooter", "is_reserved": 0, "lon": -77.00101816666667}, {"fusion_lat": 0.0, "name": "87bce1732605da20ed12b227a3160b2f", "is_disabled": 0, "rental_uris": {"android": "https://dc.lft.to/lastmile_qr_scan", "ios": "https://dc.lft.to/lastmile_qr_scan"}, "fusion_lon": 0.0, "lat": 38.924952166666664, "bike_id": "87bce1732605da20ed12b227a3160b2f", "type": "electric_bike", "is_reserved": 0, "lon": -77.233385}, {"fusion_lat": 0.0, "name": "f52de8632c3153d99ef5505197738a5e", "is_disabled": 0, "rental_uris": {"android": "https://dc.lft.to/lastmile_qr_scan", "ios": "https://dc.lft.to/lastmile_qr_scan"}, "fusion_lon": 0.0, "lat": 38.9325255, "bike_id": "f52de8632c3153d99ef5505197738a5e", "type": "electric_scooter", "is_reserved": 0, "lon": -77.01913566666667}, {"fusion_lat": 0.0, "name": "896d1fea1962934e48fed6197004da88", "is_disabled": 0, "rental_uris": {"android": "https://dc.lft.to/lastmile_qr_scan", "ios": "https://dc.lft.to/lastmile_qr_scan"}, "fusion_lon": 0.0, "lat": 38.915256166666666, "bike_id": "896d1fea1962934e48fed6197004da88", "type": "electric_scooter", "is_reserved": 0, "lon": -77.072752}, {"fusion_lat": 0.0, "name": "d5c6359bbb23be1652e23d4087eef239", "is_disabled": 0, "rental_uris": {"android": "https://dc.lft.to/lastmile_qr_scan", "ios": "https://dc.lft.to/lastmile_qr_scan"}, "fusion_lon": 0.0, "lat": 38.93966266666666, "bike_id": "d5c6359bbb23be1652e23d4087eef239", "type": "electric_scooter", "is_reserved": 0, "lon": -77.03285}, {"fusion_lat": 0.0, "name": "3da5241137cc4e32d1e9233060dc8755", "is_disabled": 0, "rental_uris": {"android": "https://dc.lft.to/lastmile_qr_scan", "ios": "https://dc.lft.to/lastmile_qr_scan"}, "fusion_lon": 0.0, "lat": 38.904394333333336, "bike_id": "3da5241137cc4e32d1e9233060dc8755", "type": "electric_scooter", "is_reserved": 0, "lon": -77.05064583333333}, {"fusion_lat": 0.0, "name": "ae0f06bc4375ed516a16aa1c8881a444", "is_disabled": 0, "rental_uris": {"android": "https://dc.lft.to/lastmile_qr_scan", "ios": "https://dc.lft.to/lastmile_qr_scan"}, "fusion_lon": 0.0, "lat": 38.9257785, "bike_id": "ae0f06bc4375ed516a16aa1c8881a444", "type": "electric_scooter", "is_reserved": 0, "lon": -77.027588}, {"fusion_lat": 0.0, "name": "0521f79502ceaa121177e97177e1bdd2", "is_disabled": 0, "rental_uris": {"android": "https://dc.lft.to/lastmile_qr_scan", "ios": "https://dc.lft.to/lastmile_qr_scan"}, "fusion_lon": 0.0, "lat": 38.9225865, "bike_id": "0521f79502ceaa121177e97177e1bdd2", "type": "electric_scooter", "is_reserved": 0, "lon": -77.035221}, {"fusion_lat": 0.0, "name": "1ff9e8ba7dd63992cbf33816ac50cc68", "is_disabled": 0, "rental_uris": {"android": "https://dc.lft.to/lastmile_qr_scan", "ios": "https://dc.lft.to/lastmile_qr_scan"}, "fusion_lon": 0.0, "lat": 38.878121666666665, "bike_id": "1ff9e8ba7dd63992cbf33816ac50cc68", "type": "electric_scooter", "is_reserved": 0, "lon": -77.0131905}, {"fusion_lat": 0.0, "name": "9165dacbf46c5dc627fe00c355e2ae95", "is_disabled": 0, "rental_uris": {"android": "https://dc.lft.to/lastmile_qr_scan", "ios": "https://dc.lft.to/lastmile_qr_scan"}, "fusion_lon": 0.0, "lat": 38.88441533333334, "bike_id": "9165dacbf46c5dc627fe00c355e2ae95", "type": "electric_scooter", "is_reserved": 0, "lon": -76.98590983333334}, {"fusion_lat": 0.0, "name": "8b3a6d0cca1ff221a5313a6ff503d3e4", "is_disabled": 0, "rental_uris": {"android": "https://dc.lft.to/lastmile_qr_scan", "ios": "https://dc.lft.to/lastmile_qr_scan"}, "fusion_lon": 0.0, "lat": 38.96219983333334, "bike_id": "8b3a6d0cca1ff221a5313a6ff503d3e4", "type": "electric_bike", "is_reserved": 0, "lon": -77.02629133333333}, {"fusion_lat": 0.0, "name": "f677f8dbc46c21ddd47380ad8e123cae", "is_disabled": 0, "rental_uris": {"android": "https://dc.lft.to/lastmile_qr_scan", "ios": "https://dc.lft.to/lastmile_qr_scan"}, "fusion_lon": 0.0, "lat": 38.9336235, "bike_id": "f677f8dbc46c21ddd47380ad8e123cae", "type": "electric_scooter", "is_reserved": 0, "lon": -77.0244595}, {"fusion_lat": 0.0, "name": "da2d792d4442d2eaf9018e671675d27a", "is_disabled": 0, "rental_uris": {"android": "https://dc.lft.to/lastmile_qr_scan", "ios": "https://dc.lft.to/lastmile_qr_scan"}, "fusion_lon": 0.0, "lat": 38.89876483333333, "bike_id": "da2d792d4442d2eaf9018e671675d27a", "type": "electric_scooter", "is_reserved": 0, "lon": -76.93183783333333}, {"fusion_lat": 0.0, "name": "5d1f0be33b344008690e12e745ba51e8", "is_disabled": 0, "rental_uris": {"android": "https://dc.lft.to/lastmile_qr_scan", "ios": "https://dc.lft.to/lastmile_qr_scan"}, "fusion_lon": 0.0, "lat": 38.88231366666667, "bike_id": "5d1f0be33b344008690e12e745ba51e8", "type": "electric_scooter", "is_reserved": 0, "lon": -77.0261515}, {"fusion_lat": 0.0, "name": "15b6ffead25c5b1d4ff3594071cf242c", "is_disabled": 0, "rental_uris": {"android": "https://dc.lft.to/lastmile_qr_scan", "ios": "https://dc.lft.to/lastmile_qr_scan"}, "fusion_lon": 0.0, "lat": 38.9328735, "bike_id": "15b6ffead25c5b1d4ff3594071cf242c", "type": "electric_scooter", "is_reserved": 0, "lon": -77.027902}, {"fusion_lat": 0.0, "name": "d0029a90d2e900e8b927b311977187de", "is_disabled": 0, "rental_uris": {"android": "https://dc.lft.to/lastmile_qr_scan", "ios": "https://dc.lft.to/lastmile_qr_scan"}, "fusion_lon": 0.0, "lat": 38.917032, "bike_id": "d0029a90d2e900e8b927b311977187de", "type": "electric_scooter", "is_reserved": 0, "lon": -77.0386175}, {"fusion_lat": 0.0, "name": "7ba7637a88019b2154c3c1d736f21331", "is_disabled": 0, "rental_uris": {"android": "https://dc.lft.to/lastmile_qr_scan", "ios": "https://dc.lft.to/lastmile_qr_scan"}, "fusion_lon": 0.0, "lat": 38.92916133333333, "bike_id": "7ba7637a88019b2154c3c1d736f21331", "type": "electric_scooter", "is_reserved": 0, "lon": -77.03755483333333}, {"fusion_lat": 0.0, "name": "50c268b0ed68ac94182d840e069375cb", "is_disabled": 0, "rental_uris": {"android": "https://dc.lft.to/lastmile_qr_scan", "ios": "https://dc.lft.to/lastmile_qr_scan"}, "fusion_lon": 0.0, "lat": 38.89725883333333, "bike_id": "50c268b0ed68ac94182d840e069375cb", "type": "electric_scooter", "is_reserved": 0, "lon": -76.99511533333333}, {"fusion_lat": 0.0, "name": "ab8e4c73ccc06a381c07a3925f51c531", "is_disabled": 0, "rental_uris": {"android": "https://dc.lft.to/lastmile_qr_scan", "ios": "https://dc.lft.to/lastmile_qr_scan"}, "fusion_lon": 0.0, "lat": 38.920349333333334, "bike_id": "ab8e4c73ccc06a381c07a3925f51c531", "type": "electric_scooter", "is_reserved": 0, "lon": -77.017582}, {"fusion_lat": 0.0, "name": "543a3adb7ba34d4d59f75c4784c94b8c", "is_disabled": 0, "rental_uris": {"android": "https://dc.lft.to/lastmile_qr_scan", "ios": "https://dc.lft.to/lastmile_qr_scan"}, "fusion_lon": 0.0, "lat": 38.92613433333333, "bike_id": "543a3adb7ba34d4d59f75c4784c94b8c", "type": "electric_scooter", "is_reserved": 0, "lon": -77.0216185}, {"fusion_lat": 0.0, "name": "0b02b46eabd83693ced5b077fbeeac11", "is_disabled": 0, "rental_uris": {"android": "https://dc.lft.to/lastmile_qr_scan", "ios": "https://dc.lft.to/lastmile_qr_scan"}, "fusion_lon": 0.0, "lat": 38.90094883333333, "bike_id": "0b02b46eabd83693ced5b077fbeeac11", "type": "electric_scooter", "is_reserved": 0, "lon": -77.024702}, {"fusion_lat": 0.0, "name": "121c00382d352bd3c4a4de97578dc2f4", "is_disabled": 0, "rental_uris": {"android": "https://dc.lft.to/lastmile_qr_scan", "ios": "https://dc.lft.to/lastmile_qr_scan"}, "fusion_lon": 0.0, "lat": 38.90122933333333, "bike_id": "121c00382d352bd3c4a4de97578dc2f4", "type": "electric_scooter", "is_reserved": 0, "lon": -77.00286433333333}, {"fusion_lat": 0.0, "name": "d8cda025cb38bf647c4798b4cc3db976", "is_disabled": 0, "rental_uris": {"android": "https://dc.lft.to/lastmile_qr_scan", "ios": "https://dc.lft.to/lastmile_qr_scan"}, "fusion_lon": 0.0, "lat": 38.900094, "bike_id": "d8cda025cb38bf647c4798b4cc3db976", "type": "electric_scooter", "is_reserved": 0, "lon": -76.99759133333333}, {"fusion_lat": 0.0, "name": "9a8a1922befeb0e9938af50902ea00d6", "is_disabled": 0, "rental_uris": {"android": "https://dc.lft.to/lastmile_qr_scan", "ios": "https://dc.lft.to/lastmile_qr_scan"}, "fusion_lon": 0.0, "lat": 38.9369615, "bike_id": "9a8a1922befeb0e9938af50902ea00d6", "type": "electric_scooter", "is_reserved": 0, "lon": -77.02396633333333}, {"fusion_lat": 0.0, "name": "05650db724cfc2f9165839eed09b45cf", "is_disabled": 0, "rental_uris": {"android": "https://dc.lft.to/lastmile_qr_scan", "ios": "https://dc.lft.to/lastmile_qr_scan"}, "fusion_lon": 0.0, "lat": 38.91843083333333, "bike_id": "05650db724cfc2f9165839eed09b45cf", "type": "electric_scooter", "is_reserved": 0, "lon": -76.96542683333334}, {"fusion_lat": 0.0, "name": "64f05d1e7f290515359a866540d3e6fe", "is_disabled": 0, "rental_uris": {"android": "https://dc.lft.to/lastmile_qr_scan", "ios": "https://dc.lft.to/lastmile_qr_scan"}, "fusion_lon": 0.0, "lat": 38.9134885, "bike_id": "64f05d1e7f290515359a866540d3e6fe", "type": "electric_scooter", "is_reserved": 0, "lon": -77.0333325}, {"fusion_lat": 0.0, "name": "4efe61e358020d6d98e7315d4a775d5b", "is_disabled": 0, "rental_uris": {"android": "https://dc.lft.to/lastmile_qr_scan", "ios": "https://dc.lft.to/lastmile_qr_scan"}, "fusion_lon": 0.0, "lat": 38.984735666666666, "bike_id": "4efe61e358020d6d98e7315d4a775d5b", "type": "electric_scooter", "is_reserved": 0, "lon": -77.026402}, {"fusion_lat": 0.0, "name": "af7ee8e67327b99d419e161f4c17b068", "is_disabled": 0, "rental_uris": {"android": "https://dc.lft.to/lastmile_qr_scan", "ios": "https://dc.lft.to/lastmile_qr_scan"}, "fusion_lon": 0.0, "lat": 38.90155566666667, "bike_id": "af7ee8e67327b99d419e161f4c17b068", "type": "electric_scooter", "is_reserved": 0, "lon": -77.02559283333333}, {"fusion_lat": 0.0, "name": "12cfabe8727bcae7f3d12d51ed9d6949", "is_disabled": 0, "rental_uris": {"android": "https://dc.lft.to/lastmile_qr_scan", "ios": "https://dc.lft.to/lastmile_qr_scan"}, "fusion_lon": 0.0, "lat": 38.9214395, "bike_id": "12cfabe8727bcae7f3d12d51ed9d6949", "type": "electric_scooter", "is_reserved": 0, "lon": -77.01811866666667}, {"fusion_lat": 0.0, "name": "44118fd745a85249861649cf90c16a25", "is_disabled": 0, "rental_uris": {"android": "https://dc.lft.to/lastmile_qr_scan", "ios": "https://dc.lft.to/lastmile_qr_scan"}, "fusion_lon": 0.0, "lat": 38.91662266666667, "bike_id": "44118fd745a85249861649cf90c16a25", "type": "electric_scooter", "is_reserved": 0, "lon": -77.02822866666666}, {"fusion_lat": 0.0, "name": "4721422f6a2d5601f487e3b01cfb9f5d", "is_disabled": 0, "rental_uris": {"android": "https://dc.lft.to/lastmile_qr_scan", "ios": "https://dc.lft.to/lastmile_qr_scan"}, "fusion_lon": 0.0, "lat": 38.926541666666665, "bike_id": "4721422f6a2d5601f487e3b01cfb9f5d", "type": "electric_scooter", "is_reserved": 0, "lon": -77.0371905}, {"fusion_lat": 0.0, "name": "379bdccbfcabbebeb3e2baedea5bf3a5", "is_disabled": 0, "rental_uris": {"android": "https://dc.lft.to/lastmile_qr_scan", "ios": "https://dc.lft.to/lastmile_qr_scan"}, "fusion_lon": 0.0, "lat": 38.887681, "bike_id": "379bdccbfcabbebeb3e2baedea5bf3a5", "type": "electric_scooter", "is_reserved": 0, "lon": -76.994637}, {"fusion_lat": 0.0, "name": "3eb255b5436221dc22739cd2a467839a", "is_disabled": 0, "rental_uris": {"android": "https://dc.lft.to/lastmile_qr_scan", "ios": "https://dc.lft.to/lastmile_qr_scan"}, "fusion_lon": 0.0, "lat": 38.9216755, "bike_id": "3eb255b5436221dc22739cd2a467839a", "type": "electric_scooter", "is_reserved": 0, "lon": -77.03656083333334}, {"fusion_lat": 0.0, "name": "cca4019fb708a9fb42a543b4acf63e26", "is_disabled": 0, "rental_uris": {"android": "https://dc.lft.to/lastmile_qr_scan", "ios": "https://dc.lft.to/lastmile_qr_scan"}, "fusion_lon": 0.0, "lat": 38.902641833333334, "bike_id": "cca4019fb708a9fb42a543b4acf63e26", "type": "electric_scooter", "is_reserved": 0, "lon": -77.0186555}, {"fusion_lat": 0.0, "name": "07e7f382d23ac1658a7b0571176e0240", "is_disabled": 0, "rental_uris": {"android": "https://dc.lft.to/lastmile_qr_scan", "ios": "https://dc.lft.to/lastmile_qr_scan"}, "fusion_lon": 0.0, "lat": 38.924674333333336, "bike_id": "07e7f382d23ac1658a7b0571176e0240", "type": "electric_scooter", "is_reserved": 0, "lon": -77.02829416666667}, {"fusion_lat": 0.0, "name": "fa2a3a24a48c373475acc1c72480dbe5", "is_disabled": 0, "rental_uris": {"android": "https://dc.lft.to/lastmile_qr_scan", "ios": "https://dc.lft.to/lastmile_qr_scan"}, "fusion_lon": 0.0, "lat": 38.925450833333336, "bike_id": "fa2a3a24a48c373475acc1c72480dbe5", "type": "electric_scooter", "is_reserved": 0, "lon": -77.05123766666667}, {"fusion_lat": 0.0, "name": "6f39fe1e6dcd86a43e44bb7af28870b2", "is_disabled": 0, "rental_uris": {"android": "https://dc.lft.to/lastmile_qr_scan", "ios": "https://dc.lft.to/lastmile_qr_scan"}, "fusion_lon": 0.0, "lat": 38.9225245, "bike_id": "6f39fe1e6dcd86a43e44bb7af28870b2", "type": "electric_scooter", "is_reserved": 0, "lon": -77.050827}, {"fusion_lat": 0.0, "name": "7dd2569d54d3b2b9adfbf4ed55b6d6b8", "is_disabled": 0, "rental_uris": {"android": "https://dc.lft.to/lastmile_qr_scan", "ios": "https://dc.lft.to/lastmile_qr_scan"}, "fusion_lon": 0.0, "lat": 38.929041833333336, "bike_id": "7dd2569d54d3b2b9adfbf4ed55b6d6b8", "type": "electric_scooter", "is_reserved": 0, "lon": -77.05458}, {"fusion_lat": 0.0, "name": "520d7950c80d5663968694fad770fe96", "is_disabled": 0, "rental_uris": {"android": "https://dc.lft.to/lastmile_qr_scan", "ios": "https://dc.lft.to/lastmile_qr_scan"}, "fusion_lon": 0.0, "lat": 38.917108166666665, "bike_id": "520d7950c80d5663968694fad770fe96", "type": "electric_scooter", "is_reserved": 0, "lon": -77.02888266666666}, {"fusion_lat": 0.0, "name": "867b91279e7b3a25231113e2237601e4", "is_disabled": 0, "rental_uris": {"android": "https://dc.lft.to/lastmile_qr_scan", "ios": "https://dc.lft.to/lastmile_qr_scan"}, "fusion_lon": 0.0, "lat": 38.88753633333334, "bike_id": "867b91279e7b3a25231113e2237601e4", "type": "electric_scooter", "is_reserved": 0, "lon": -77.00254033333333}, {"fusion_lat": 0.0, "name": "704d1f77efb21e4622ff8c6b789a2e04", "is_disabled": 0, "rental_uris": {"android": "https://dc.lft.to/lastmile_qr_scan", "ios": "https://dc.lft.to/lastmile_qr_scan"}, "fusion_lon": 0.0, "lat": 38.876376, "bike_id": "704d1f77efb21e4622ff8c6b789a2e04", "type": "electric_scooter", "is_reserved": 0, "lon": -77.01647316666667}, {"fusion_lat": 0.0, "name": "c8cfb80fef2ec64d0965ca18ed0568d1", "is_disabled": 0, "rental_uris": {"android": "https://dc.lft.to/lastmile_qr_scan", "ios": "https://dc.lft.to/lastmile_qr_scan"}, "fusion_lon": 0.0, "lat": 38.931852666666664, "bike_id": "c8cfb80fef2ec64d0965ca18ed0568d1", "type": "electric_scooter", "is_reserved": 0, "lon": -77.04297383333333}, {"fusion_lat": 0.0, "name": "6e6ba7bc60d9fe3ec95fcba8eed47cb2", "is_disabled": 0, "rental_uris": {"android": "https://dc.lft.to/lastmile_qr_scan", "ios": "https://dc.lft.to/lastmile_qr_scan"}, "fusion_lon": 0.0, "lat": 38.905510666666665, "bike_id": "6e6ba7bc60d9fe3ec95fcba8eed47cb2", "type": "electric_scooter", "is_reserved": 0, "lon": -77.06259233333333}, {"fusion_lat": 0.0, "name": "d0721d092f4bf5822f19fd355f81c5d9", "is_disabled": 0, "rental_uris": {"android": "https://dc.lft.to/lastmile_qr_scan", "ios": "https://dc.lft.to/lastmile_qr_scan"}, "fusion_lon": 0.0, "lat": 38.90557583333333, "bike_id": "d0721d092f4bf5822f19fd355f81c5d9", "type": "electric_scooter", "is_reserved": 0, "lon": -77.04676}, {"fusion_lat": 0.0, "name": "59afc937f896ad056ec3ea7eee1a3990", "is_disabled": 0, "rental_uris": {"android": "https://dc.lft.to/lastmile_qr_scan", "ios": "https://dc.lft.to/lastmile_qr_scan"}, "fusion_lon": 0.0, "lat": 38.841329333333334, "bike_id": "59afc937f896ad056ec3ea7eee1a3990", "type": "electric_bike", "is_reserved": 0, "lon": -76.94762083333333}, {"fusion_lat": 0.0, "name": "952f83e30b5a8ab436871e3ea5a7cb7a", "is_disabled": 0, "rental_uris": {"android": "https://dc.lft.to/lastmile_qr_scan", "ios": "https://dc.lft.to/lastmile_qr_scan"}, "fusion_lon": 0.0, "lat": 38.8846435, "bike_id": "952f83e30b5a8ab436871e3ea5a7cb7a", "type": "electric_scooter", "is_reserved": 0, "lon": -77.02506066666666}, {"fusion_lat": 0.0, "name": "cc756d83292bbd7566d62332a05038c5", "is_disabled": 0, "rental_uris": {"android": "https://dc.lft.to/lastmile_qr_scan", "ios": "https://dc.lft.to/lastmile_qr_scan"}, "fusion_lon": 0.0, "lat": 38.88722966666667, "bike_id": "cc756d83292bbd7566d62332a05038c5", "type": "electric_scooter", "is_reserved": 0, "lon": -76.98355183333334}, {"fusion_lat": 0.0, "name": "824fac319d36818e8213141562b363c9", "is_disabled": 0, "rental_uris": {"android": "https://dc.lft.to/lastmile_qr_scan", "ios": "https://dc.lft.to/lastmile_qr_scan"}, "fusion_lon": 0.0, "lat": 38.91970516666667, "bike_id": "824fac319d36818e8213141562b363c9", "type": "electric_scooter", "is_reserved": 0, "lon": -77.07099016666666}, {"fusion_lat": 0.0, "name": "4521bf2513a0abca187105d6b4128459", "is_disabled": 0, "rental_uris": {"android": "https://dc.lft.to/lastmile_qr_scan", "ios": "https://dc.lft.to/lastmile_qr_scan"}, "fusion_lon": 0.0, "lat": 38.90404083333333, "bike_id": "4521bf2513a0abca187105d6b4128459", "type": "electric_scooter", "is_reserved": 0, "lon": -77.0502505}, {"fusion_lat": 0.0, "name": "e2a7e4abcdda21a3bd0793b31a5e960c", "is_disabled": 0, "rental_uris": {"android": "https://dc.lft.to/lastmile_qr_scan", "ios": "https://dc.lft.to/lastmile_qr_scan"}, "fusion_lon": 0.0, "lat": 38.918178833333336, "bike_id": "e2a7e4abcdda21a3bd0793b31a5e960c", "type": "electric_scooter", "is_reserved": 0, "lon": -77.04514916666666}, {"fusion_lat": 0.0, "name": "7fba9a55acbf0b3acf6e3cfc1b7d4716", "is_disabled": 0, "rental_uris": {"android": "https://dc.lft.to/lastmile_qr_scan", "ios": "https://dc.lft.to/lastmile_qr_scan"}, "fusion_lon": 0.0, "lat": 38.93703816666667, "bike_id": "7fba9a55acbf0b3acf6e3cfc1b7d4716", "type": "electric_scooter", "is_reserved": 0, "lon": -77.06101516666666}, {"fusion_lat": 0.0, "name": "06704bfd7488bc7d9cead3c5d4dfa7a3", "is_disabled": 0, "rental_uris": {"android": "https://dc.lft.to/lastmile_qr_scan", "ios": "https://dc.lft.to/lastmile_qr_scan"}, "fusion_lon": 0.0, "lat": 38.883944, "bike_id": "06704bfd7488bc7d9cead3c5d4dfa7a3", "type": "electric_scooter", "is_reserved": 0, "lon": -76.93041016666666}, {"fusion_lat": 0.0, "name": "c5b70d1694bd58ba567c8dfab9b29c50", "is_disabled": 0, "rental_uris": {"android": "https://dc.lft.to/lastmile_qr_scan", "ios": "https://dc.lft.to/lastmile_qr_scan"}, "fusion_lon": 0.0, "lat": 38.91118016666667, "bike_id": "c5b70d1694bd58ba567c8dfab9b29c50", "type": "electric_scooter", "is_reserved": 0, "lon": -77.04222883333334}, {"fusion_lat": 0.0, "name": "4b3bff3fcec1de9f696406349274c144", "is_disabled": 0, "rental_uris": {"android": "https://dc.lft.to/lastmile_qr_scan", "ios": "https://dc.lft.to/lastmile_qr_scan"}, "fusion_lon": 0.0, "lat": 38.90982266666666, "bike_id": "4b3bff3fcec1de9f696406349274c144", "type": "electric_scooter", "is_reserved": 0, "lon": -77.05479133333333}, {"fusion_lat": 0.0, "name": "17f02845c0ee2b583981e7ee156a04bf", "is_disabled": 0, "rental_uris": {"android": "https://dc.lft.to/lastmile_qr_scan", "ios": "https://dc.lft.to/lastmile_qr_scan"}, "fusion_lon": 0.0, "lat": 38.9038445, "bike_id": "17f02845c0ee2b583981e7ee156a04bf", "type": "electric_scooter", "is_reserved": 0, "lon": -77.06710933333333}, {"fusion_lat": 0.0, "name": "24793de36bba2bde67924c9fb7abc2f5", "is_disabled": 0, "rental_uris": {"android": "https://dc.lft.to/lastmile_qr_scan", "ios": "https://dc.lft.to/lastmile_qr_scan"}, "fusion_lon": 0.0, "lat": 38.903091833333335, "bike_id": "24793de36bba2bde67924c9fb7abc2f5", "type": "electric_scooter", "is_reserved": 0, "lon": -77.0532585}, {"fusion_lat": 0.0, "name": "c711e9bb03b2202042c43a6bc101ec8e", "is_disabled": 0, "rental_uris": {"android": "https://dc.lft.to/lastmile_qr_scan", "ios": "https://dc.lft.to/lastmile_qr_scan"}, "fusion_lon": 0.0, "lat": 38.882903666666664, "bike_id": "c711e9bb03b2202042c43a6bc101ec8e", "type": "electric_scooter", "is_reserved": 0, "lon": -77.01375883333333}, {"fusion_lat": 0.0, "name": "5b430de30e510898ec3aa09a1165c316", "is_disabled": 0, "rental_uris": {"android": "https://dc.lft.to/lastmile_qr_scan", "ios": "https://dc.lft.to/lastmile_qr_scan"}, "fusion_lon": 0.0, "lat": 38.922207666666665, "bike_id": "5b430de30e510898ec3aa09a1165c316", "type": "electric_scooter", "is_reserved": 0, "lon": -77.03509833333334}, {"fusion_lat": 0.0, "name": "0bedaa1a3f7b949af3de064504e1288b", "is_disabled": 0, "rental_uris": {"android": "https://dc.lft.to/lastmile_qr_scan", "ios": "https://dc.lft.to/lastmile_qr_scan"}, "fusion_lon": 0.0, "lat": 38.897420833333335, "bike_id": "0bedaa1a3f7b949af3de064504e1288b", "type": "electric_scooter", "is_reserved": 0, "lon": -77.02160883333333}, {"fusion_lat": 0.0, "name": "f8cd5deb7f3889298c24a40504e9bafd", "is_disabled": 0, "rental_uris": {"android": "https://dc.lft.to/lastmile_qr_scan", "ios": "https://dc.lft.to/lastmile_qr_scan"}, "fusion_lon": 0.0, "lat": 38.98062216666667, "bike_id": "f8cd5deb7f3889298c24a40504e9bafd", "type": "electric_bike", "is_reserved": 0, "lon": -77.02637233333333}, {"fusion_lat": 0.0, "name": "2cbd2fd7070a59354339a2f17f5d82c1", "is_disabled": 0, "rental_uris": {"android": "https://dc.lft.to/lastmile_qr_scan", "ios": "https://dc.lft.to/lastmile_qr_scan"}, "fusion_lon": 0.0, "lat": 38.931170333333334, "bike_id": "2cbd2fd7070a59354339a2f17f5d82c1", "type": "electric_scooter", "is_reserved": 0, "lon": -77.02982766666666}, {"fusion_lat": 0.0, "name": "1dfe5f8fde3311f4ba34a6aac0771847", "is_disabled": 0, "rental_uris": {"android": "https://dc.lft.to/lastmile_qr_scan", "ios": "https://dc.lft.to/lastmile_qr_scan"}, "fusion_lon": 0.0, "lat": 38.95637766666667, "bike_id": "1dfe5f8fde3311f4ba34a6aac0771847", "type": "electric_scooter", "is_reserved": 0, "lon": -77.03305383333333}, {"fusion_lat": 0.0, "name": "140db1f1d8a0dda24cf2fbd091093400", "is_disabled": 0, "rental_uris": {"android": "https://dc.lft.to/lastmile_qr_scan", "ios": "https://dc.lft.to/lastmile_qr_scan"}, "fusion_lon": 0.0, "lat": 38.927629, "bike_id": "140db1f1d8a0dda24cf2fbd091093400", "type": "electric_scooter", "is_reserved": 0, "lon": -77.02871533333334}, {"fusion_lat": 0.0, "name": "e9003d2af72210c43cac62b47851ee9c", "is_disabled": 0, "rental_uris": {"android": "https://dc.lft.to/lastmile_qr_scan", "ios": "https://dc.lft.to/lastmile_qr_scan"}, "fusion_lon": 0.0, "lat": 38.892208333333336, "bike_id": "e9003d2af72210c43cac62b47851ee9c", "type": "electric_scooter", "is_reserved": 0, "lon": -77.04502933333333}, {"fusion_lat": 0.0, "name": "14edfe8cd3196464aebb20f62f58aefa", "is_disabled": 0, "rental_uris": {"android": "https://dc.lft.to/lastmile_qr_scan", "ios": "https://dc.lft.to/lastmile_qr_scan"}, "fusion_lon": 0.0, "lat": 38.86335, "bike_id": "14edfe8cd3196464aebb20f62f58aefa", "type": "electric_bike", "is_reserved": 0, "lon": -76.98726616666667}, {"fusion_lat": 0.0, "name": "0b2dd0224fb5b690a151e49626c2ed8b", "is_disabled": 0, "rental_uris": {"android": "https://dc.lft.to/lastmile_qr_scan", "ios": "https://dc.lft.to/lastmile_qr_scan"}, "fusion_lon": 0.0, "lat": 38.8975665, "bike_id": "0b2dd0224fb5b690a151e49626c2ed8b", "type": "electric_scooter", "is_reserved": 0, "lon": -77.02729016666666}, {"fusion_lat": 0.0, "name": "66bce5594c1941d4b90df8c52bd373c8", "is_disabled": 0, "rental_uris": {"android": "https://dc.lft.to/lastmile_qr_scan", "ios": "https://dc.lft.to/lastmile_qr_scan"}, "fusion_lon": 0.0, "lat": 38.9022835, "bike_id": "66bce5594c1941d4b90df8c52bd373c8", "type": "electric_scooter", "is_reserved": 0, "lon": -77.04378016666666}, {"fusion_lat": 0.0, "name": "e51660fcc61cce90395fc682d8b0dd39", "is_disabled": 0, "rental_uris": {"android": "https://dc.lft.to/lastmile_qr_scan", "ios": "https://dc.lft.to/lastmile_qr_scan"}, "fusion_lon": 0.0, "lat": 38.84507416666667, "bike_id": "e51660fcc61cce90395fc682d8b0dd39", "type": "electric_bike", "is_reserved": 0, "lon": -76.99354766666667}, {"fusion_lat": 0.0, "name": "e3d4eb958e9432c24f7d859195ea097f", "is_disabled": 0, "rental_uris": {"android": "https://dc.lft.to/lastmile_qr_scan", "ios": "https://dc.lft.to/lastmile_qr_scan"}, "fusion_lon": 0.0, "lat": 38.9420325, "bike_id": "e3d4eb958e9432c24f7d859195ea097f", "type": "electric_scooter", "is_reserved": 0, "lon": -77.02591066666666}, {"fusion_lat": 0.0, "name": "f69ecb19cb151ea1e520083b051d9134", "is_disabled": 0, "rental_uris": {"android": "https://dc.lft.to/lastmile_qr_scan", "ios": "https://dc.lft.to/lastmile_qr_scan"}, "fusion_lon": 0.0, "lat": 38.922583333333336, "bike_id": "f69ecb19cb151ea1e520083b051d9134", "type": "electric_scooter", "is_reserved": 0, "lon": -77.03664366666666}, {"fusion_lat": 0.0, "name": "7f9b6f8d3d8a8c1c6ac92fd51023f913", "is_disabled": 0, "rental_uris": {"android": "https://dc.lft.to/lastmile_qr_scan", "ios": "https://dc.lft.to/lastmile_qr_scan"}, "fusion_lon": 0.0, "lat": 38.9133715, "bike_id": "7f9b6f8d3d8a8c1c6ac92fd51023f913", "type": "electric_scooter", "is_reserved": 0, "lon": -77.042918}, {"fusion_lat": 0.0, "name": "f8d0746f1b425218e929bd07320f5dee", "is_disabled": 0, "rental_uris": {"android": "https://dc.lft.to/lastmile_qr_scan", "ios": "https://dc.lft.to/lastmile_qr_scan"}, "fusion_lon": 0.0, "lat": 38.91709266666667, "bike_id": "f8d0746f1b425218e929bd07320f5dee", "type": "electric_scooter", "is_reserved": 0, "lon": -77.0302945}, {"fusion_lat": 0.0, "name": "da16e2adc5e80e509014f0bba60dca82", "is_disabled": 0, "rental_uris": {"android": "https://dc.lft.to/lastmile_qr_scan", "ios": "https://dc.lft.to/lastmile_qr_scan"}, "fusion_lon": 0.0, "lat": 38.958826333333334, "bike_id": "da16e2adc5e80e509014f0bba60dca82", "type": "electric_scooter", "is_reserved": 0, "lon": -77.01170266666666}, {"fusion_lat": 0.0, "name": "4df364515da57ea689da55e69409854f", "is_disabled": 0, "rental_uris": {"android": "https://dc.lft.to/lastmile_qr_scan", "ios": "https://dc.lft.to/lastmile_qr_scan"}, "fusion_lon": 0.0, "lat": 38.9118235, "bike_id": "4df364515da57ea689da55e69409854f", "type": "electric_scooter", "is_reserved": 0, "lon": -77.03816}, {"fusion_lat": 0.0, "name": "d9e242fb663aab5b8548b041d48bd09a", "is_disabled": 0, "rental_uris": {"android": "https://dc.lft.to/lastmile_qr_scan", "ios": "https://dc.lft.to/lastmile_qr_scan"}, "fusion_lon": 0.0, "lat": 38.876561333333335, "bike_id": "d9e242fb663aab5b8548b041d48bd09a", "type": "electric_scooter", "is_reserved": 0, "lon": -77.009072}, {"fusion_lat": 0.0, "name": "22035a1d2e8f8014584d17813cb02412", "is_disabled": 0, "rental_uris": {"android": "https://dc.lft.to/lastmile_qr_scan", "ios": "https://dc.lft.to/lastmile_qr_scan"}, "fusion_lon": 0.0, "lat": 38.9147445, "bike_id": "22035a1d2e8f8014584d17813cb02412", "type": "electric_scooter", "is_reserved": 0, "lon": -77.03187883333334}, {"fusion_lat": 0.0, "name": "4c5a7915ed23d4588acb27008354f2aa", "is_disabled": 0, "rental_uris": {"android": "https://dc.lft.to/lastmile_qr_scan", "ios": "https://dc.lft.to/lastmile_qr_scan"}, "fusion_lon": 0.0, "lat": 38.92785883333333, "bike_id": "4c5a7915ed23d4588acb27008354f2aa", "type": "electric_scooter", "is_reserved": 0, "lon": -77.02731883333334}, {"fusion_lat": 0.0, "name": "b55f3637f433f54e3425243a6e24afde", "is_disabled": 0, "rental_uris": {"android": "https://dc.lft.to/lastmile_qr_scan", "ios": "https://dc.lft.to/lastmile_qr_scan"}, "fusion_lon": 0.0, "lat": 38.8874355, "bike_id": "b55f3637f433f54e3425243a6e24afde", "type": "electric_scooter", "is_reserved": 0, "lon": -77.031516}, {"fusion_lat": 0.0, "name": "247c872fcbde9a9d9d906232cd7de726", "is_disabled": 0, "rental_uris": {"android": "https://dc.lft.to/lastmile_qr_scan", "ios": "https://dc.lft.to/lastmile_qr_scan"}, "fusion_lon": 0.0, "lat": 38.90780066666667, "bike_id": "247c872fcbde9a9d9d906232cd7de726", "type": "electric_scooter", "is_reserved": 0, "lon": -77.01859816666666}, {"fusion_lat": 0.0, "name": "e991ded8aeaac41beed4ef9cfbe466c6", "is_disabled": 0, "rental_uris": {"android": "https://dc.lft.to/lastmile_qr_scan", "ios": "https://dc.lft.to/lastmile_qr_scan"}, "fusion_lon": 0.0, "lat": 38.9071435, "bike_id": "e991ded8aeaac41beed4ef9cfbe466c6", "type": "electric_scooter", "is_reserved": 0, "lon": -77.04350916666667}, {"fusion_lat": 0.0, "name": "803df4bbada2f6d8e06149eb3996540d", "is_disabled": 0, "rental_uris": {"android": "https://dc.lft.to/lastmile_qr_scan", "ios": "https://dc.lft.to/lastmile_qr_scan"}, "fusion_lon": 0.0, "lat": 38.91806033333334, "bike_id": "803df4bbada2f6d8e06149eb3996540d", "type": "electric_scooter", "is_reserved": 0, "lon": -77.02712133333333}, {"fusion_lat": 0.0, "name": "a4b40b788cb308225b5917a542c55a8d", "is_disabled": 0, "rental_uris": {"android": "https://dc.lft.to/lastmile_qr_scan", "ios": "https://dc.lft.to/lastmile_qr_scan"}, "fusion_lon": 0.0, "lat": 38.94204833333333, "bike_id": "a4b40b788cb308225b5917a542c55a8d", "type": "electric_scooter", "is_reserved": 0, "lon": -77.02591566666666}, {"fusion_lat": 0.0, "name": "13f5ad1c0165f13db8ef5c89aa716995", "is_disabled": 0, "rental_uris": {"android": "https://dc.lft.to/lastmile_qr_scan", "ios": "https://dc.lft.to/lastmile_qr_scan"}, "fusion_lon": 0.0, "lat": 38.926296, "bike_id": "13f5ad1c0165f13db8ef5c89aa716995", "type": "electric_scooter", "is_reserved": 0, "lon": -77.043199}, {"fusion_lat": 0.0, "name": "bbdf1cda8d6d1a3bb7c00e1fe9a75e92", "is_disabled": 0, "rental_uris": {"android": "https://dc.lft.to/lastmile_qr_scan", "ios": "https://dc.lft.to/lastmile_qr_scan"}, "fusion_lon": 0.0, "lat": 38.97882, "bike_id": "bbdf1cda8d6d1a3bb7c00e1fe9a75e92", "type": "electric_bike", "is_reserved": 0, "lon": -77.06027483333334}, {"fusion_lat": 0.0, "name": "0dd1b345580f280d0f4071fc95f11c85", "is_disabled": 0, "rental_uris": {"android": "https://dc.lft.to/lastmile_qr_scan", "ios": "https://dc.lft.to/lastmile_qr_scan"}, "fusion_lon": 0.0, "lat": 38.906637833333335, "bike_id": "0dd1b345580f280d0f4071fc95f11c85", "type": "electric_scooter", "is_reserved": 0, "lon": -77.03745066666667}, {"fusion_lat": 0.0, "name": "7886d11f204137a467dea7522d6751a1", "is_disabled": 0, "rental_uris": {"android": "https://dc.lft.to/lastmile_qr_scan", "ios": "https://dc.lft.to/lastmile_qr_scan"}, "fusion_lon": 0.0, "lat": 38.9274815, "bike_id": "7886d11f204137a467dea7522d6751a1", "type": "electric_scooter", "is_reserved": 0, "lon": -77.03638283333333}, {"fusion_lat": 0.0, "name": "519fc948b68629b44d589e3161a1c442", "is_disabled": 0, "rental_uris": {"android": "https://dc.lft.to/lastmile_qr_scan", "ios": "https://dc.lft.to/lastmile_qr_scan"}, "fusion_lon": 0.0, "lat": 38.839333333333336, "bike_id": "519fc948b68629b44d589e3161a1c442", "type": "electric_bike", "is_reserved": 0, "lon": -77.07901566666666}, {"fusion_lat": 0.0, "name": "413b6e5c3d8a77a517bbeff7a17ea679", "is_disabled": 0, "rental_uris": {"android": "https://dc.lft.to/lastmile_qr_scan", "ios": "https://dc.lft.to/lastmile_qr_scan"}, "fusion_lon": 0.0, "lat": 38.901339, "bike_id": "413b6e5c3d8a77a517bbeff7a17ea679", "type": "electric_scooter", "is_reserved": 0, "lon": -76.98653916666666}, {"fusion_lat": 0.0, "name": "446d51f1302aed27fc73df52f8909dce", "is_disabled": 0, "rental_uris": {"android": "https://dc.lft.to/lastmile_qr_scan", "ios": "https://dc.lft.to/lastmile_qr_scan"}, "fusion_lon": 0.0, "lat": 38.921441333333334, "bike_id": "446d51f1302aed27fc73df52f8909dce", "type": "electric_scooter", "is_reserved": 0, "lon": -77.03442433333333}, {"fusion_lat": 0.0, "name": "6169dffa7f4d8a96854a11646065f4df", "is_disabled": 0, "rental_uris": {"android": "https://dc.lft.to/lastmile_qr_scan", "ios": "https://dc.lft.to/lastmile_qr_scan"}, "fusion_lon": 0.0, "lat": 38.8746185, "bike_id": "6169dffa7f4d8a96854a11646065f4df", "type": "electric_scooter", "is_reserved": 0, "lon": -77.00023766666666}, {"fusion_lat": 0.0, "name": "20f63fa25c6babafe15b556cbd992b56", "is_disabled": 0, "rental_uris": {"android": "https://dc.lft.to/lastmile_qr_scan", "ios": "https://dc.lft.to/lastmile_qr_scan"}, "fusion_lon": 0.0, "lat": 38.8951285, "bike_id": "20f63fa25c6babafe15b556cbd992b56", "type": "electric_scooter", "is_reserved": 0, "lon": -76.99958033333333}, {"fusion_lat": 0.0, "name": "55de465546d4bf2c334ae3d4555d77f9", "is_disabled": 0, "rental_uris": {"android": "https://dc.lft.to/lastmile_qr_scan", "ios": "https://dc.lft.to/lastmile_qr_scan"}, "fusion_lon": 0.0, "lat": 38.91591183333333, "bike_id": "55de465546d4bf2c334ae3d4555d77f9", "type": "electric_scooter", "is_reserved": 0, "lon": -77.04550133333333}, {"fusion_lat": 0.0, "name": "4d57e0cb1c97f0c19ccb98585ff07498", "is_disabled": 0, "rental_uris": {"android": "https://dc.lft.to/lastmile_qr_scan", "ios": "https://dc.lft.to/lastmile_qr_scan"}, "fusion_lon": 0.0, "lat": 38.880971, "bike_id": "4d57e0cb1c97f0c19ccb98585ff07498", "type": "electric_bike", "is_reserved": 0, "lon": -77.01669866666667}, {"fusion_lat": 0.0, "name": "3696aa88c2fb9ca5906d08a739d813b8", "is_disabled": 0, "rental_uris": {"android": "https://dc.lft.to/lastmile_qr_scan", "ios": "https://dc.lft.to/lastmile_qr_scan"}, "fusion_lon": 0.0, "lat": 38.896653666666666, "bike_id": "3696aa88c2fb9ca5906d08a739d813b8", "type": "electric_scooter", "is_reserved": 0, "lon": -77.051073}, {"fusion_lat": 0.0, "name": "74409af6d87e3d24d7b353e2e55e3b94", "is_disabled": 0, "rental_uris": {"android": "https://dc.lft.to/lastmile_qr_scan", "ios": "https://dc.lft.to/lastmile_qr_scan"}, "fusion_lon": 0.0, "lat": 38.877501, "bike_id": "74409af6d87e3d24d7b353e2e55e3b94", "type": "electric_scooter", "is_reserved": 0, "lon": -77.00348083333333}, {"fusion_lat": 0.0, "name": "17787c6becd14501fdc12d63087bcce6", "is_disabled": 0, "rental_uris": {"android": "https://dc.lft.to/lastmile_qr_scan", "ios": "https://dc.lft.to/lastmile_qr_scan"}, "fusion_lon": 0.0, "lat": 38.90326066666667, "bike_id": "17787c6becd14501fdc12d63087bcce6", "type": "electric_scooter", "is_reserved": 0, "lon": -77.01200566666667}, {"fusion_lat": 0.0, "name": "ff9b248822edccd95dbf4369d5fbd78e", "is_disabled": 0, "rental_uris": {"android": "https://dc.lft.to/lastmile_qr_scan", "ios": "https://dc.lft.to/lastmile_qr_scan"}, "fusion_lon": 0.0, "lat": 38.893610333333335, "bike_id": "ff9b248822edccd95dbf4369d5fbd78e", "type": "electric_scooter", "is_reserved": 0, "lon": -77.02255183333334}, {"fusion_lat": 0.0, "name": "51d16be7ab488ecdbb5f369be62f96d3", "is_disabled": 0, "rental_uris": {"android": "https://dc.lft.to/lastmile_qr_scan", "ios": "https://dc.lft.to/lastmile_qr_scan"}, "fusion_lon": 0.0, "lat": 38.933887666666664, "bike_id": "51d16be7ab488ecdbb5f369be62f96d3", "type": "electric_scooter", "is_reserved": 0, "lon": -77.03215916666667}, {"fusion_lat": 0.0, "name": "5f4f834cff8d97a98f99336ea7f3989d", "is_disabled": 0, "rental_uris": {"android": "https://dc.lft.to/lastmile_qr_scan", "ios": "https://dc.lft.to/lastmile_qr_scan"}, "fusion_lon": 0.0, "lat": 38.866652, "bike_id": "5f4f834cff8d97a98f99336ea7f3989d", "type": "electric_scooter", "is_reserved": 0, "lon": -77.01052633333333}, {"fusion_lat": 0.0, "name": "ec7d4a339ac1f1aef33cb3f83292efe8", "is_disabled": 0, "rental_uris": {"android": "https://dc.lft.to/lastmile_qr_scan", "ios": "https://dc.lft.to/lastmile_qr_scan"}, "fusion_lon": 0.0, "lat": 38.907089, "bike_id": "ec7d4a339ac1f1aef33cb3f83292efe8", "type": "electric_scooter", "is_reserved": 0, "lon": -77.05135016666667}, {"fusion_lat": 0.0, "name": "3ebeac8c6000abc7a7adc3868eb176e8", "is_disabled": 0, "rental_uris": {"android": "https://dc.lft.to/lastmile_qr_scan", "ios": "https://dc.lft.to/lastmile_qr_scan"}, "fusion_lon": 0.0, "lat": 38.918358, "bike_id": "3ebeac8c6000abc7a7adc3868eb176e8", "type": "electric_scooter", "is_reserved": 0, "lon": -77.03186916666667}, {"fusion_lat": 0.0, "name": "07d799d52e016224e9bd720973a8e28e", "is_disabled": 0, "rental_uris": {"android": "https://dc.lft.to/lastmile_qr_scan", "ios": "https://dc.lft.to/lastmile_qr_scan"}, "fusion_lon": 0.0, "lat": 38.924738166666664, "bike_id": "07d799d52e016224e9bd720973a8e28e", "type": "electric_scooter", "is_reserved": 0, "lon": -77.039144}, {"fusion_lat": 0.0, "name": "2b92c577f2b584aef2786d1465c1e353", "is_disabled": 0, "rental_uris": {"android": "https://dc.lft.to/lastmile_qr_scan", "ios": "https://dc.lft.to/lastmile_qr_scan"}, "fusion_lon": 0.0, "lat": 38.9002945, "bike_id": "2b92c577f2b584aef2786d1465c1e353", "type": "electric_scooter", "is_reserved": 0, "lon": -77.00206316666667}, {"fusion_lat": 0.0, "name": "1ac42e3adfd52ab64747eeb0b807db5f", "is_disabled": 0, "rental_uris": {"android": "https://dc.lft.to/lastmile_qr_scan", "ios": "https://dc.lft.to/lastmile_qr_scan"}, "fusion_lon": 0.0, "lat": 38.909401333333335, "bike_id": "1ac42e3adfd52ab64747eeb0b807db5f", "type": "electric_scooter", "is_reserved": 0, "lon": -77.02191766666667}, {"fusion_lat": 0.0, "name": "d3f894ea48bb24a5a71a5a7115bf39d4", "is_disabled": 0, "rental_uris": {"android": "https://dc.lft.to/lastmile_qr_scan", "ios": "https://dc.lft.to/lastmile_qr_scan"}, "fusion_lon": 0.0, "lat": 38.906144166666664, "bike_id": "d3f894ea48bb24a5a71a5a7115bf39d4", "type": "electric_scooter", "is_reserved": 0, "lon": -77.06274233333333}, {"fusion_lat": 0.0, "name": "902175463bddcc54b93134ce60ab0fd8", "is_disabled": 0, "rental_uris": {"android": "https://dc.lft.to/lastmile_qr_scan", "ios": "https://dc.lft.to/lastmile_qr_scan"}, "fusion_lon": 0.0, "lat": 38.900641666666665, "bike_id": "902175463bddcc54b93134ce60ab0fd8", "type": "electric_scooter", "is_reserved": 0, "lon": -76.92742466666667}, {"fusion_lat": 0.0, "name": "5fb97283680373c05a5f61b14bc518e4", "is_disabled": 0, "rental_uris": {"android": "https://dc.lft.to/lastmile_qr_scan", "ios": "https://dc.lft.to/lastmile_qr_scan"}, "fusion_lon": 0.0, "lat": 38.8774615, "bike_id": "5fb97283680373c05a5f61b14bc518e4", "type": "electric_scooter", "is_reserved": 0, "lon": -77.01428316666667}, {"fusion_lat": 0.0, "name": "2070ec63b12e7f9a0b7259dd4f1225c4", "is_disabled": 0, "rental_uris": {"android": "https://dc.lft.to/lastmile_qr_scan", "ios": "https://dc.lft.to/lastmile_qr_scan"}, "fusion_lon": 0.0, "lat": 38.895486166666664, "bike_id": "2070ec63b12e7f9a0b7259dd4f1225c4", "type": "electric_scooter", "is_reserved": 0, "lon": -76.94947033333334}, {"fusion_lat": 0.0, "name": "584fc31d47f640c2bd180cfe6374bc5b", "is_disabled": 0, "rental_uris": {"android": "https://dc.lft.to/lastmile_qr_scan", "ios": "https://dc.lft.to/lastmile_qr_scan"}, "fusion_lon": 0.0, "lat": 38.89219583333333, "bike_id": "584fc31d47f640c2bd180cfe6374bc5b", "type": "electric_scooter", "is_reserved": 0, "lon": -77.0322075}, {"fusion_lat": 0.0, "name": "3e64d5629c3c667477bc8154dbd2b151", "is_disabled": 0, "rental_uris": {"android": "https://dc.lft.to/lastmile_qr_scan", "ios": "https://dc.lft.to/lastmile_qr_scan"}, "fusion_lon": 0.0, "lat": 38.922586333333335, "bike_id": "3e64d5629c3c667477bc8154dbd2b151", "type": "electric_scooter", "is_reserved": 0, "lon": -77.0366545}, {"fusion_lat": 0.0, "name": "5f1896eb3106ed42c5cd092b121433c6", "is_disabled": 0, "rental_uris": {"android": "https://dc.lft.to/lastmile_qr_scan", "ios": "https://dc.lft.to/lastmile_qr_scan"}, "fusion_lon": 0.0, "lat": 38.91605033333333, "bike_id": "5f1896eb3106ed42c5cd092b121433c6", "type": "electric_scooter", "is_reserved": 0, "lon": -77.04600483333333}, {"fusion_lat": 0.0, "name": "e7e072662d6c481a20d4f0f27dc9242d", "is_disabled": 0, "rental_uris": {"android": "https://dc.lft.to/lastmile_qr_scan", "ios": "https://dc.lft.to/lastmile_qr_scan"}, "fusion_lon": 0.0, "lat": 38.888058, "bike_id": "e7e072662d6c481a20d4f0f27dc9242d", "type": "electric_scooter", "is_reserved": 0, "lon": -76.98358966666666}, {"fusion_lat": 0.0, "name": "c9e30d3f531d4e482fcd4e46d48c8efa", "is_disabled": 0, "rental_uris": {"android": "https://dc.lft.to/lastmile_qr_scan", "ios": "https://dc.lft.to/lastmile_qr_scan"}, "fusion_lon": 0.0, "lat": 38.887449833333335, "bike_id": "c9e30d3f531d4e482fcd4e46d48c8efa", "type": "electric_scooter", "is_reserved": 0, "lon": -76.9835765}, {"fusion_lat": 0.0, "name": "7137852b21fd064aa3ac15e99ef56e0c", "is_disabled": 0, "rental_uris": {"android": "https://dc.lft.to/lastmile_qr_scan", "ios": "https://dc.lft.to/lastmile_qr_scan"}, "fusion_lon": 0.0, "lat": 38.92681133333333, "bike_id": "7137852b21fd064aa3ac15e99ef56e0c", "type": "electric_scooter", "is_reserved": 0, "lon": -77.03147583333333}, {"fusion_lat": 0.0, "name": "25a708d05d5ecfb5ee918b353eeade58", "is_disabled": 0, "rental_uris": {"android": "https://dc.lft.to/lastmile_qr_scan", "ios": "https://dc.lft.to/lastmile_qr_scan"}, "fusion_lon": 0.0, "lat": 38.90381216666667, "bike_id": "25a708d05d5ecfb5ee918b353eeade58", "type": "electric_scooter", "is_reserved": 0, "lon": -77.04510883333333}, {"fusion_lat": 0.0, "name": "e4af95fc48e3d819e4002a14989baac2", "is_disabled": 0, "rental_uris": {"android": "https://dc.lft.to/lastmile_qr_scan", "ios": "https://dc.lft.to/lastmile_qr_scan"}, "fusion_lon": 0.0, "lat": 38.91926766666667, "bike_id": "e4af95fc48e3d819e4002a14989baac2", "type": "electric_scooter", "is_reserved": 0, "lon": -77.02293683333333}, {"fusion_lat": 0.0, "name": "69ee3505daff4d084a202ee5ddb82e88", "is_disabled": 0, "rental_uris": {"android": "https://dc.lft.to/lastmile_qr_scan", "ios": "https://dc.lft.to/lastmile_qr_scan"}, "fusion_lon": 0.0, "lat": 38.913436833333336, "bike_id": "69ee3505daff4d084a202ee5ddb82e88", "type": "electric_bike", "is_reserved": 0, "lon": -76.98898883333334}, {"fusion_lat": 0.0, "name": "525aae305a5c762a684766f169700a05", "is_disabled": 0, "rental_uris": {"android": "https://dc.lft.to/lastmile_qr_scan", "ios": "https://dc.lft.to/lastmile_qr_scan"}, "fusion_lon": 0.0, "lat": 38.94161116666667, "bike_id": "525aae305a5c762a684766f169700a05", "type": "electric_scooter", "is_reserved": 0, "lon": -77.0250715}, {"fusion_lat": 0.0, "name": "31fbc50da34588c2441c1f0b4d16b4e2", "is_disabled": 0, "rental_uris": {"android": "https://dc.lft.to/lastmile_qr_scan", "ios": "https://dc.lft.to/lastmile_qr_scan"}, "fusion_lon": 0.0, "lat": 38.9083725, "bike_id": "31fbc50da34588c2441c1f0b4d16b4e2", "type": "electric_scooter", "is_reserved": 0, "lon": -77.04327366666666}, {"fusion_lat": 0.0, "name": "f589623c9edf00b5f3a4d0aa866d5b89", "is_disabled": 0, "rental_uris": {"android": "https://dc.lft.to/lastmile_qr_scan", "ios": "https://dc.lft.to/lastmile_qr_scan"}, "fusion_lon": 0.0, "lat": 38.90295783333333, "bike_id": "f589623c9edf00b5f3a4d0aa866d5b89", "type": "electric_scooter", "is_reserved": 0, "lon": -76.992545}, {"fusion_lat": 0.0, "name": "3ef92122237c146a4b4646ff0ca8a807", "is_disabled": 0, "rental_uris": {"android": "https://dc.lft.to/lastmile_qr_scan", "ios": "https://dc.lft.to/lastmile_qr_scan"}, "fusion_lon": 0.0, "lat": 38.8994275, "bike_id": "3ef92122237c146a4b4646ff0ca8a807", "type": "electric_scooter", "is_reserved": 0, "lon": -77.05357516666666}, {"fusion_lat": 0.0, "name": "506e7a2b88b5444b60804acdf9f6e402", "is_disabled": 0, "rental_uris": {"android": "https://dc.lft.to/lastmile_qr_scan", "ios": "https://dc.lft.to/lastmile_qr_scan"}, "fusion_lon": 0.0, "lat": 38.8803235, "bike_id": "506e7a2b88b5444b60804acdf9f6e402", "type": "electric_bike", "is_reserved": 0, "lon": -77.02518116666667}, {"fusion_lat": 0.0, "name": "370f72ab8218932d63a6500bb78de582", "is_disabled": 0, "rental_uris": {"android": "https://dc.lft.to/lastmile_qr_scan", "ios": "https://dc.lft.to/lastmile_qr_scan"}, "fusion_lon": 0.0, "lat": 38.8861005, "bike_id": "370f72ab8218932d63a6500bb78de582", "type": "electric_scooter", "is_reserved": 0, "lon": -77.01555483333334}, {"fusion_lat": 0.0, "name": "1c67fabb78e3fcc231ff043dc3115cd1", "is_disabled": 0, "rental_uris": {"android": "https://dc.lft.to/lastmile_qr_scan", "ios": "https://dc.lft.to/lastmile_qr_scan"}, "fusion_lon": 0.0, "lat": 38.920504, "bike_id": "1c67fabb78e3fcc231ff043dc3115cd1", "type": "electric_scooter", "is_reserved": 0, "lon": -77.02375983333333}, {"fusion_lat": 0.0, "name": "508bcaab2584bcedcf37bb1f662ea224", "is_disabled": 0, "rental_uris": {"android": "https://dc.lft.to/lastmile_qr_scan", "ios": "https://dc.lft.to/lastmile_qr_scan"}, "fusion_lon": 0.0, "lat": 38.9227135, "bike_id": "508bcaab2584bcedcf37bb1f662ea224", "type": "electric_scooter", "is_reserved": 0, "lon": -77.04280683333333}, {"fusion_lat": 0.0, "name": "6a929078bd53c18563ecdde923972789", "is_disabled": 0, "rental_uris": {"android": "https://dc.lft.to/lastmile_qr_scan", "ios": "https://dc.lft.to/lastmile_qr_scan"}, "fusion_lon": 0.0, "lat": 38.90866366666667, "bike_id": "6a929078bd53c18563ecdde923972789", "type": "electric_scooter", "is_reserved": 0, "lon": -77.04438733333333}, {"fusion_lat": 0.0, "name": "3f0d512a35327106def9fba415d4860b", "is_disabled": 0, "rental_uris": {"android": "https://dc.lft.to/lastmile_qr_scan", "ios": "https://dc.lft.to/lastmile_qr_scan"}, "fusion_lon": 0.0, "lat": 38.898755, "bike_id": "3f0d512a35327106def9fba415d4860b", "type": "electric_scooter", "is_reserved": 0, "lon": -76.93183816666667},