{"data": {"bikes": [{"fusion_lat": 0.0, "name": "6cd8f0f189224c8769ca50f124ed767c", "is_disabled": 0, "rental_uris": {"android": "https://dc.lft.to/lastmile_qr_scan", "ios": "https://dc.lft.to/lastmile_qr_scan"}, "fusion_lon": 0.0, "lat": 38.876319333333335, "bike_id": "6cd8f0f189224c8769ca50f124ed767c", "type": "electric_scooter", "is_reserved": 0, "lon": -77.00821916666666}, {"fusion_lat": 0.0, "name": "fe1d76fd318115d2cadec8d23d34891b", "is_disabled": 0, "rental_uris": {"android": "https://dc.lft.to/lastmile_qr_scan", "ios": "https://dc.lft.to/lastmile_qr_scan"}, "fusion_lon": 0.0, "lat": 38.89952133333333, "bike_id": "fe1d76fd318115d2cadec8d23d34891b", "type": "electric_scooter", "is_reserved": 0, "lon": -77.05699233333333}, {"fusion_lat": 0.0, "name": "cf615b0ccf658a358b18a4955ec0eab0", "is_disabled": 0, "rental_uris": {"android": "https://dc.lft.to/lastmile_qr_scan", "ios": "https://dc.lft.to/lastmile_qr_scan"}, "fusion_lon": 0.0, "lat": 38.88399016666666, "bike_id": "cf615b0ccf658a358b18a4955ec0eab0", "type": "electric_scooter", "is_reserved": 0, "lon": -77.02609166666667}, {"fusion_lat": 0.0, "name": "e2b9fbffc3be0b384be3ff2ccb4d9d93", "is_disabled": 0, "rental_uris": {"android": "https://dc.lft.to/lastmile_qr_scan", "ios": "https://dc.lft.to/lastmile_qr_scan"}, "fusion_lon": 0.0, "lat": 38.889912, "bike_id": "e2b9fbffc3be0b384be3ff2ccb4d9d93", "type": "electric_scooter", "is_reserved": 0, "lon": -77.00336016666667}, {"fusion_lat": 0.0, "name": "813823f6644204530c215bec4b7ec265", "is_disabled": 0, "rental_uris": {"android": "https://dc.lft.to/lastmile_qr_scan", "ios": "https://dc.lft.to/lastmile_qr_scan"}, "fusion_lon": 0.0, "lat": 38.8966075, "bike_id": "813823f6644204530c215bec4b7ec265", "type": "electric_scooter", "is_reserved": 0, "lon": -77.02454133333333}, {"fusion_lat": 0.0, "name": "9cc4392de779eeeed2ef9ef286db2737", "is_disabled": 0, "rental_uris": {"android": "https://dc.lft.to/lastmile_qr_scan", "ios": "https://dc.lft.to/lastmile_qr_scan"}, "fusion_lon": 0.0, "lat": 38.910982833333335, "bike_id": "9cc4392de779eeeed2ef9ef286db2737", "type": "electric_scooter", "is_reserved": 0, "lon": -77.07342333333334}, {"fusion_lat": 0.0, "name": "dee664954110d9392d835a3616f2571e", "is_disabled": 0, "rental_uris": {"android": "https://dc.lft.to/lastmile_qr_scan", "ios": "https://dc.lft.to/lastmile_qr_scan"}, "fusion_lon": 0.0, "lat": 38.9083175, "bike_id": "dee664954110d9392d835a3616f2571e", "type": "electric_scooter", "is_reserved": 0, "lon": -77.036764}, {"fusion_lat": 0.0, "name": "9d807b3fe494013481300665fcc38933", "is_disabled": 0, "rental_uris": {"android": "https://dc.lft.to/lastmile_qr_scan", "ios": "https://dc.lft.to/lastmile_qr_scan"}, "fusion_lon": 0.0, "lat": 38.93418333333334, "bike_id": "9d807b3fe494013481300665fcc38933", "type": "electric_scooter", "is_reserved": 0, "lon": -76.9795585}, {"fusion_lat": 0.0, "name": "263f27f0c26bf4b49808ab2a39205816", "is_disabled": 0, "rental_uris": {"android": "https://dc.lft.to/lastmile_qr_scan", "ios": "https://dc.lft.to/lastmile_qr_scan"}, "fusion_lon": 0.0, "lat": 38.9125855, "bike_id": "263f27f0c26bf4b49808ab2a39205816", "type": "electric_scooter", "is_reserved": 0, "lon": -77.00670616666666}, {"fusion_lat": 0.0, "name": "34f40b4e231e5d870faeb0d67ab5051c", "is_disabled": 0, "rental_uris": {"android": "https://dc.lft.to/lastmile_qr_scan", "ios": "https://dc.lft.to/lastmile_qr_scan"}, "fusion_lon": 0.0, "lat": 38.90463233333333, "bike_id": "34f40b4e231e5d870faeb0d67ab5051c", "type": "electric_scooter", "is_reserved": 0, "lon": -77.05322083333333}, {"fusion_lat": 0.0, "name": "3715c3a56b4c4c6e109bcc6a9986274a", "is_disabled": 0, "rental_uris": {"android": "https://dc.lft.to/lastmile_qr_scan", "ios": "https://dc.lft.to/lastmile_qr_scan"}, "fusion_lon": 0.0, "lat": 38.91778466666667, "bike_id": "3715c3a56b4c4c6e109bcc6a9986274a", "type": "electric_scooter", "is_reserved": 0, "lon": -77.03855116666666}, {"fusion_lat": 0.0, "name": "0e8574418a5e1997f0e4f22337762a07", "is_disabled": 0, "rental_uris": {"android": "https://dc.lft.to/lastmile_qr_scan", "ios": "https://dc.lft.to/lastmile_qr_scan"}, "fusion_lon": 0.0, "lat": 38.920302666666664, "bike_id": "0e8574418a5e1997f0e4f22337762a07", "type": "electric_scooter", "is_reserved": 0, "lon": -77.03179583333333}, {"fusion_lat": 0.0, "name": "9880ab3cc07bcbc2c9dc39b9e5d46230", "is_disabled": 0, "rental_uris": {"android": "https://dc.lft.to/lastmile_qr_scan", "ios": "https://dc.lft.to/lastmile_qr_scan"}, "fusion_lon": 0.0, "lat": 38.92613083333333, "bike_id": "9880ab3cc07bcbc2c9dc39b9e5d46230", "type": "electric_scooter", "is_reserved": 0, "lon": -77.0395485}, {"fusion_lat": 0.0, "name": "42efd73ca3647585a60d625a5bccf6fa", "is_disabled": 0, "rental_uris": {"android": "https://dc.lft.to/lastmile_qr_scan", "ios": "https://dc.lft.to/lastmile_qr_scan"}, "fusion_lon": 0.0, "lat": 38.909608166666665, "bike_id": "42efd73ca3647585a60d625a5bccf6fa", "type": "electric_scooter", "is_reserved": 0, "lon": -77.03989733333333}, {"fusion_lat": 0.0, "name": "0a2b2ee5128a04860f919b0d16e1d484", "is_disabled": 0, "rental_uris": {"android": "https://dc.lft.to/lastmile_qr_scan", "ios": "https://dc.lft.to/lastmile_qr_scan"}, "fusion_lon": 0.0, "lat": 38.92814383333334, "bike_id": "0a2b2ee5128a04860f919b0d16e1d484", "type": "electric_scooter", "is_reserved": 0, "lon": -77.02327816666667}, {"fusion_lat": 0.0, "name": "b84afc09268bfed9532142db1c7cf2a8", "is_disabled": 0, "rental_uris": {"android": "https://dc.lft.to/lastmile_qr_scan", "ios": "https://dc.lft.to/lastmile_qr_scan"}, "fusion_lon": 0.0, "lat": 38.888968, "bike_id": "b84afc09268bfed9532142db1c7cf2a8", "type": "electric_bike", "is_reserved": 0, "lon": -77.11528966666667}, {"fusion_lat": 0.0, "name": "569125c104a75012181d77c31de41335", "is_disabled": 0, "rental_uris": {"android": "https://dc.lft.to/lastmile_qr_scan", "ios": "https://dc.lft.to/lastmile_qr_scan"}, "fusion_lon": 0.0, "lat": 38.84425483333333, "bike_id": "569125c104a75012181d77c31de41335", "type": "electric_scooter", "is_reserved": 0, "lon": -76.99780383333334}, {"fusion_lat": 0.0, "name": "f2a638ab68008fda771b29920f1f954c", "is_disabled": 0, "rental_uris": {"android": "https://dc.lft.to/lastmile_qr_scan", "ios": "https://dc.lft.to/lastmile_qr_scan"}, "fusion_lon": 0.0, "lat": 38.935986, "bike_id": "f2a638ab68008fda771b29920f1f954c", "type": "electric_bike", "is_reserved": 0, "lon": -77.021149}, {"fusion_lat": 0.0, "name": "46fbe62909bb6eb44e332b97ded608f9", "is_disabled": 0, "rental_uris": {"android": "https://dc.lft.to/lastmile_qr_scan", "ios": "https://dc.lft.to/lastmile_qr_scan"}, "fusion_lon": 0.0, "lat": 38.89529133333333, "bike_id": "46fbe62909bb6eb44e332b97ded608f9", "type": "electric_scooter", "is_reserved": 0, "lon": -77.03051216666667}, {"fusion_lat": 0.0, "name": "b2343dd559d9b384b603582ee9c957e0", "is_disabled": 0, "rental_uris": {"android": "https://dc.lft.to/lastmile_qr_scan", "ios": "https://dc.lft.to/lastmile_qr_scan"}, "fusion_lon": 0.0, "lat": 38.877232, "bike_id": "b2343dd559d9b384b603582ee9c957e0", "type": "electric_scooter", "is_reserved": 0, "lon": -77.01749333333333}, {"fusion_lat": 0.0, "name": "720bb60051780bb878d2d33eeeb703ed", "is_disabled": 0, "rental_uris": {"android": "https://dc.lft.to/lastmile_qr_scan", "ios": "https://dc.lft.to/lastmile_qr_scan"}, "fusion_lon": 0.0, "lat": 38.92841583333333, "bike_id": "720bb60051780bb878d2d33eeeb703ed", "type": "electric_scooter", "is_reserved": 0, "lon": -77.02722916666667}, {"fusion_lat": 0.0, "name": "80f4ba791c7b7527b6394f49410f08d2", "is_disabled": 0, "rental_uris": {"android": "https://dc.lft.to/lastmile_qr_scan", "ios": "https://dc.lft.to/lastmile_qr_scan"}, "fusion_lon": 0.0, "lat": 38.887666333333335, "bike_id": "80f4ba791c7b7527b6394f49410f08d2", "type": "electric_scooter", "is_reserved": 0, "lon": -76.977528}, {"fusion_lat": 0.0, "name": "3731d3e7f1d6ef8854a19291e81c0cff", "is_disabled": 0, "rental_uris": {"android": "https://dc.lft.to/lastmile_qr_scan", "ios": "https://dc.lft.to/lastmile_qr_scan"}, "fusion_lon": 0.0, "lat": 38.892290833333334, "bike_id": "3731d3e7f1d6ef8854a19291e81c0cff", "type": "electric_scooter", "is_reserved": 0, "lon": -77.02408366666667}, {"fusion_lat": 0.0, "name": "cc8dbeb64eb37c7e14b65499984ecca3", "is_disabled": 0, "rental_uris": {"android": "https://dc.lft.to/lastmile_qr_scan", "ios": "https://dc.lft.to/lastmile_qr_scan"}, "fusion_lon": 0.0, "lat": 38.9073395, "bike_id": "cc8dbeb64eb37c7e14b65499984ecca3", "type": "electric_scooter", "is_reserved": 0, "lon": -77.031742}, {"fusion_lat": 0.0, "name": "4fdae85d53ec69d2259390673e6515ef", "is_disabled": 0, "rental_uris": {"android": "https://dc.lft.to/lastmile_qr_scan", "ios": "https://dc.lft.to/lastmile_qr_scan"}, "fusion_lon": 0.0, "lat": 38.914074666666664, "bike_id": "4fdae85d53ec69d2259390673e6515ef", "type": "electric_scooter", "is_reserved": 0, "lon": -77.008344}, {"fusion_lat": 0.0, "name": "a28a899ef5843d1e63ed5fc29d1482bd", "is_disabled": 0, "rental_uris": {"android": "https://dc.lft.to/lastmile_qr_scan", "ios": "https://dc.lft.to/lastmile_qr_scan"}, "fusion_lon": 0.0, "lat": 38.9045905, "bike_id": "a28a899ef5843d1e63ed5fc29d1482bd", "type": "electric_scooter", "is_reserved": 0, "lon": -77.00684566666666}, {"fusion_lat": 0.0, "name": "6b6cf177c664a43f20ea434c2efa6e60", "is_disabled": 0, "rental_uris": {"android": "https://dc.lft.to/lastmile_qr_scan", "ios": "https://dc.lft.to/lastmile_qr_scan"}, "fusion_lon": 0.0, "lat": 38.90950266666667, "bike_id": "6b6cf177c664a43f20ea434c2efa6e60", "type": "electric_scooter", "is_reserved": 0, "lon": -77.04871583333333}, {"fusion_lat": 0.0, "name": "e90372c80383706c71a31c3301cbc71b", "is_disabled": 0, "rental_uris": {"android": "https://dc.lft.to/lastmile_qr_scan", "ios": "https://dc.lft.to/lastmile_qr_scan"}, "fusion_lon": 0.0, "lat": 38.94408216666667, "bike_id": "e90372c80383706c71a31c3301cbc71b", "type": "electric_scooter", "is_reserved": 0, "lon": -77.03866633333334}, {"fusion_lat": 0.0, "name": "bbf75c65ffe8d2957ff5d17efc919212", "is_disabled": 0, "rental_uris": {"android": "https://dc.lft.to/lastmile_qr_scan", "ios": "https://dc.lft.to/lastmile_qr_scan"}, "fusion_lon": 0.0, "lat": 38.925495166666664, "bike_id": "bbf75c65ffe8d2957ff5d17efc919212", "type": "electric_scooter", "is_reserved": 0, "lon": -77.03341716666667}, {"fusion_lat": 0.0, "name": "23173e365d3e7a3f7a71a40e2586894b", "is_disabled": 0, "rental_uris": {"android": "https://dc.lft.to/lastmile_qr_scan", "ios": "https://dc.lft.to/lastmile_qr_scan"}, "fusion_lon": 0.0, "lat": 38.90710383333333, "bike_id": "23173e365d3e7a3f7a71a40e2586894b", "type": "electric_scooter", "is_reserved": 0, "lon": -77.04660283333334}, {"fusion_lat": 0.0, "name": "a53b578b96b1554374d1a68c17a71c6d", "is_disabled": 0, "rental_uris": {"android": "https://dc.lft.to/lastmile_qr_scan", "ios": "https://dc.lft.to/lastmile_qr_scan"}, "fusion_lon": 0.0, "lat": 38.88021466666667, "bike_id": "a53b578b96b1554374d1a68c17a71c6d", "type": "electric_scooter", "is_reserved": 0, "lon": -76.931106}, {"fusion_lat": 0.0, "name": "bee80a0fea5a9b7b36377f9838bd01e4", "is_disabled": 0, "rental_uris": {"android": "https://dc.lft.to/lastmile_qr_scan", "ios": "https://dc.lft.to/lastmile_qr_scan"}, "fusion_lon": 0.0, "lat": 38.89917233333333, "bike_id": "bee80a0fea5a9b7b36377f9838bd01e4", "type": "electric_scooter", "is_reserved": 0, "lon": -76.94551116666666}, {"fusion_lat": 0.0, "name": "5155ebb07b217b7ddb5d847be21347f4", "is_disabled": 0, "rental_uris": {"android": "https://dc.lft.to/lastmile_qr_scan", "ios": "https://dc.lft.to/lastmile_qr_scan"}, "fusion_lon": 0.0, "lat": 38.824595, "bike_id": "5155ebb07b217b7ddb5d847be21347f4", "type": "electric_bike", "is_reserved": 0, "lon": -77.00793966666667}, {"fusion_lat": 0.0, "name": "42bcf21f69bd91ce5bdcbde3c9f34538", "is_disabled": 0, "rental_uris": {"android": "https://dc.lft.to/lastmile_qr_scan", "ios": "https://dc.lft.to/lastmile_qr_scan"}, "fusion_lon": 0.0, "lat": 38.929624, "bike_id": "42bcf21f69bd91ce5bdcbde3c9f34538", "type": "electric_scooter", "is_reserved": 0, "lon": -77.01976616666667}, {"fusion_lat": 0.0, "name": "95e9b2eb8631fc33b00a20504f7a43e4", "is_disabled": 0, "rental_uris": {"android": "https://dc.lft.to/lastmile_qr_scan", "ios": "https://dc.lft.to/lastmile_qr_scan"}, "fusion_lon": 0.0, "lat": 38.892233166666664, "bike_id": "95e9b2eb8631fc33b00a20504f7a43e4", "type": "electric_scooter", "is_reserved": 0, "lon": -77.0321455}, {"fusion_lat": 0.0, "name": "583bebd715aec28fb203bba4d5e568e6", "is_disabled": 0, "rental_uris": {"android": "https://dc.lft.to/lastmile_qr_scan", "ios": "https://dc.lft.to/lastmile_qr_scan"}, "fusion_lon": 0.0, "lat": 38.8429785, "bike_id": "583bebd715aec28fb203bba4d5e568e6", "type": "electric_bike", "is_reserved": 0, "lon": -77.10867133333333}, {"fusion_lat": 0.0, "name": "83b0daa1572a05f9cbf3b790ae505e21", "is_disabled": 0, "rental_uris": {"android": "https://dc.lft.to/lastmile_qr_scan", "ios": "https://dc.lft.to/lastmile_qr_scan"}, "fusion_lon": 0.0, "lat": 38.910863166666665, "bike_id": "83b0daa1572a05f9cbf3b790ae505e21", "type": "electric_scooter", "is_reserved": 0, "lon": -77.0650115}, {"fusion_lat": 0.0, "name": "7779747fa7d1e9f36ab58a4f5de43cca", "is_disabled": 0, "rental_uris": {"android": "https://dc.lft.to/lastmile_qr_scan", "ios": "https://dc.lft.to/lastmile_qr_scan"}, "fusion_lon": 0.0, "lat": 38.889916, "bike_id": "7779747fa7d1e9f36ab58a4f5de43cca", "type": "electric_scooter", "is_reserved": 0, "lon": -76.99250116666667}, {"fusion_lat": 0.0, "name": "2ff0219467b979268adc712a60478acb", "is_disabled": 0, "rental_uris": {"android": "https://dc.lft.to/lastmile_qr_scan", "ios": "https://dc.lft.to/lastmile_qr_scan"}, "fusion_lon": 0.0, "lat": 38.881446833333335, "bike_id": "2ff0219467b979268adc712a60478acb", "type": "electric_scooter", "is_reserved": 0, "lon": -76.9950345}, {"fusion_lat": 0.0, "name": "56404681e4865c1233953385f807a960", "is_disabled": 0, "rental_uris": {"android": "https://dc.lft.to/lastmile_qr_scan", "ios": "https://dc.lft.to/lastmile_qr_scan"}, "fusion_lon": 0.0, "lat": 38.905543, "bike_id": "56404681e4865c1233953385f807a960", "type": "electric_scooter", "is_reserved": 0, "lon": -77.0466205}, {"fusion_lat": 0.0, "name": "f6a468d36098a03a6ad7b45b8f9cf6e9", "is_disabled": 0, "rental_uris": {"android": "https://dc.lft.to/lastmile_qr_scan", "ios": "https://dc.lft.to/lastmile_qr_scan"}, "fusion_lon": 0.0, "lat": 38.90248416666667, "bike_id": "f6a468d36098a03a6ad7b45b8f9cf6e9", "type": "electric_scooter", "is_reserved": 0, "lon": -77.06327766666666}, {"fusion_lat": 0.0, "name": "e00a6536c57d6f0b8d7d9e394473a8b3", "is_disabled": 0, "rental_uris": {"android": "https://dc.lft.to/lastmile_qr_scan", "ios": "https://dc.lft.to/lastmile_qr_scan"}, "fusion_lon": 0.0, "lat": 38.91902533333333, "bike_id": "e00a6536c57d6f0b8d7d9e394473a8b3", "type": "electric_scooter", "is_reserved": 0, "lon": -77.00045583333333}, {"fusion_lat": 0.0, "name": "6ec21093d49b3623823c50ffd6be6b27", "is_disabled": 0, "rental_uris": {"android": "https://dc.lft.to/lastmile_qr_scan", "ios": "https://dc.lft.to/lastmile_qr_scan"}, "fusion_lon": 0.0, "lat": 38.966679, "bike_id": "6ec21093d49b3623823c50ffd6be6b27", "type": "electric_scooter", "is_reserved": 0, "lon": -77.0254535}, {"fusion_lat": 0.0, "name": "10972444154f50b3969542d756b9850e", "is_disabled": 0, "rental_uris": {"android": "https://dc.lft.to/lastmile_qr_scan", "ios": "https://dc.lft.to/lastmile_qr_scan"}, "fusion_lon": 0.0, "lat": 38.91119716666667, "bike_id": "10972444154f50b3969542d756b9850e", "type": "electric_scooter", "is_reserved": 0, "lon": -77.08130066666666}, {"fusion_lat": 0.0, "name": "803948407d397752e384d054a07b6656", "is_disabled": 0, "rental_uris": {"android": "https://dc.lft.to/lastmile_qr_scan", "ios": "https://dc.lft.to/lastmile_qr_scan"}, "fusion_lon": 0.0, "lat": 38.909714666666666, "bike_id": "803948407d397752e384d054a07b6656", "type": "electric_scooter", "is_reserved": 0, "lon": -77.0216185}, {"fusion_lat": 0.0, "name": "2b48323058c2f15ff3d2e2bf9e9101c2", "is_disabled": 0, "rental_uris": {"android": "https://dc.lft.to/lastmile_qr_scan", "ios": "https://dc.lft.to/lastmile_qr_scan"}, "fusion_lon": 0.0, "lat": 38.900035, "bike_id": "2b48323058c2f15ff3d2e2bf9e9101c2", "type": "electric_scooter", "is_reserved": 0, "lon": -77.0264485}, {"fusion_lat": 0.0, "name": "bc0afa454cf0fc4231c5ff676781639b", "is_disabled": 0, "rental_uris": {"android": "https://dc.lft.to/lastmile_qr_scan", "ios": "https://dc.lft.to/lastmile_qr_scan"}, "fusion_lon": 0.0, "lat": 38.884963166666665, "bike_id": "bc0afa454cf0fc4231c5ff676781639b", "type": "electric_scooter", "is_reserved": 0, "lon": -77.01729266666666}, {"fusion_lat": 0.0, "name": "8b41333bd3452c4a16b9da79b7ce50c9", "is_disabled": 0, "rental_uris": {"android": "https://dc.lft.to/lastmile_qr_scan", "ios": "https://dc.lft.to/lastmile_qr_scan"}, "fusion_lon": 0.0, "lat": 38.879588166666665, "bike_id": "8b41333bd3452c4a16b9da79b7ce50c9", "type": "electric_scooter", "is_reserved": 0, "lon": -77.00838866666666}, {"fusion_lat": 0.0, "name": "86cdbcf3f48537d9aec9134f83a8bd87", "is_disabled": 0, "rental_uris": {"android": "https://dc.lft.to/lastmile_qr_scan", "ios": "https://dc.lft.to/lastmile_qr_scan"}, "fusion_lon": 0.0, "lat": 38.8977645, "bike_id": "86cdbcf3f48537d9aec9134f83a8bd87", "type": "electric_scooter", "is_reserved": 0, "lon": -77.02694533333333}, {"fusion_lat": 0.0, "name": "1ba5af17ed20d8c1123f6dd3c4afb1a3", "is_disabled": 0, "rental_uris": {"android": "https://dc.lft.to/lastmile_qr_scan", "ios": "https://dc.lft.to/lastmile_qr_scan"}, "fusion_lon": 0.0, "lat": 38.90744266666667, "bike_id": "1ba5af17ed20d8c1123f6dd3c4afb1a3", "type": "electric_scooter", "is_reserved": 0, "lon": -77.02962433333333}, {"fusion_lat": 0.0, "name": "495577a2321c4758c7bb96973ddea14d", "is_disabled": 0, "rental_uris": {"android": "https://dc.lft.to/lastmile_qr_scan", "ios": "https://dc.lft.to/lastmile_qr_scan"}, "fusion_lon": 0.0, "lat": 38.87679766666667, "bike_id": "495577a2321c4758c7bb96973ddea14d", "type": "electric_scooter", "is_reserved": 0, "lon": -77.00664833333333}, {"fusion_lat": 0.0, "name": "6a22577c91884dbf9f66bc5e18a6051d", "is_disabled": 0, "rental_uris": {"android": "https://dc.lft.to/lastmile_qr_scan", "ios": "https://dc.lft.to/lastmile_qr_scan"}, "fusion_lon": 0.0, "lat": 38.93965983333333, "bike_id": "6a22577c91884dbf9f66bc5e18a6051d", "type": "electric_scooter", "is_reserved": 0, "lon": -77.03284816666667}, {"fusion_lat": 0.0, "name": "093aac990c92961701a4a7bd95733fb2", "is_disabled": 0, "rental_uris": {"android": "https://dc.lft.to/lastmile_qr_scan", "ios": "https://dc.lft.to/lastmile_qr_scan"}, "fusion_lon": 0.0, "lat": 38.9222805, "bike_id": "093aac990c92961701a4a7bd95733fb2", "type": "electric_scooter", "is_reserved": 0, "lon": -77.02367783333334}, {"fusion_lat": 0.0, "name": "b02edc818f9ab513e94d50c4ee7af184", "is_disabled": 0, "rental_uris": {"android": "https://dc.lft.to/lastmile_qr_scan", "ios": "https://dc.lft.to/lastmile_qr_scan"}, "fusion_lon": 0.0, "lat": 38.917477166666664, "bike_id": "b02edc818f9ab513e94d50c4ee7af184", "type": "electric_scooter", "is_reserved": 0, "lon": -77.0122315}, {"fusion_lat": 0.0, "name": "cd114f12c6f58e7f31757616c9714843", "is_disabled": 0, "rental_uris": {"android": "https://dc.lft.to/lastmile_qr_scan", "ios": "https://dc.lft.to/lastmile_qr_scan"}, "fusion_lon": 0.0, "lat": 38.90040966666667, "bike_id": "cd114f12c6f58e7f31757616c9714843", "type": "electric_scooter", "is_reserved": 0, "lon": -77.00190966666666}, {"fusion_lat": 0.0, "name": "ce0a6fdf9c9e2683551edf6790fb8188", "is_disabled": 0, "rental_uris": {"android": "https://dc.lft.to/lastmile_qr_scan", "ios": "https://dc.lft.to/lastmile_qr_scan"}, "fusion_lon": 0.0, "lat": 38.920829833333336, "bike_id": "ce0a6fdf9c9e2683551edf6790fb8188", "type": "electric_scooter", "is_reserved": 0, "lon": -77.02301366666667}, {"fusion_lat": 0.0, "name": "3ff2de78243e805292aabc904a5e19cb", "is_disabled": 0, "rental_uris": {"android": "https://dc.lft.to/lastmile_qr_scan", "ios": "https://dc.lft.to/lastmile_qr_scan"}, "fusion_lon": 0.0, "lat": 38.827848333333336, "bike_id": "3ff2de78243e805292aabc904a5e19cb", "type": "electric_bike", "is_reserved": 0, "lon": -77.1248995}, {"fusion_lat": 0.0, "name": "2025c51da8b3acd1c89fd83755c198ca", "is_disabled": 0, "rental_uris": {"android": "https://dc.lft.to/lastmile_qr_scan", "ios": "https://dc.lft.to/lastmile_qr_scan"}, "fusion_lon": 0.0, "lat": 38.844276, "bike_id": "2025c51da8b3acd1c89fd83755c198ca", "type": "electric_scooter", "is_reserved": 0, "lon": -76.99776266666667}, {"fusion_lat": 0.0, "name": "9ee903124754e998778face869dcee50", "is_disabled": 0, "rental_uris": {"android": "https://dc.lft.to/lastmile_qr_scan", "ios": "https://dc.lft.to/lastmile_qr_scan"}, "fusion_lon": 0.0, "lat": 38.89324833333333, "bike_id": "9ee903124754e998778face869dcee50", "type": "electric_bike", "is_reserved": 0, "lon": -76.95122516666666}, {"fusion_lat": 0.0, "name": "9ecf41ba866f933f6e206631eb50a2d4", "is_disabled": 0, "rental_uris": {"android": "https://dc.lft.to/lastmile_qr_scan", "ios": "https://dc.lft.to/lastmile_qr_scan"}, "fusion_lon": 0.0, "lat": 38.885238333333334, "bike_id": "9ecf41ba866f933f6e206631eb50a2d4", "type": "electric_scooter", "is_reserved": 0, "lon": -76.97709433333333}, {"fusion_lat": 0.0, "name": "a0c17f0022d39f117d37d01ea6a46a23", "is_disabled": 0, "rental_uris": {"android": "https://dc.lft.to/lastmile_qr_scan", "ios": "https://dc.lft.to/lastmile_qr_scan"}, "fusion_lon": 0.0, "lat": 38.926875833333334, "bike_id": "a0c17f0022d39f117d37d01ea6a46a23", "type": "electric_scooter", "is_reserved": 0, "lon": -77.02964316666667}, {"fusion_lat": 0.0, "name": "56c8dba148714a37c75ef531d7902220", "is_disabled": 0, "rental_uris": {"android": "https://dc.lft.to/lastmile_qr_scan", "ios": "https://dc.lft.to/lastmile_qr_scan"}, "fusion_lon": 0.0, "lat": 38.90721383333333, "bike_id": "56c8dba148714a37c75ef531d7902220", "type": "electric_scooter", "is_reserved": 0, "lon": -76.99829666666666}, {"fusion_lat": 0.0, "name": "22dc53d3ca5586a58f856a990a959210", "is_disabled": 0, "rental_uris": {"android": "https://dc.lft.to/lastmile_qr_scan", "ios": "https://dc.lft.to/lastmile_qr_scan"}, "fusion_lon": 0.0, "lat": 38.921850666666664, "bike_id": "22dc53d3ca5586a58f856a990a959210", "type": "electric_scooter", "is_reserved": 0, "lon": -77.07436183333333}, {"fusion_lat": 0.0, "name": "064e7346af3f911f2f28df4633b06b1d", "is_disabled": 0, "rental_uris": {"android": "https://dc.lft.to/lastmile_qr_scan", "ios": "https://dc.lft.to/lastmile_qr_scan"}, "fusion_lon": 0.0, "lat": 38.910328666666665, "bike_id": "064e7346af3f911f2f28df4633b06b1d", "type": "electric_scooter", "is_reserved": 0, "lon": -77.0075985}, {"fusion_lat": 0.0, "name": "b4c02e97a770e7d733c2fb1feab90293", "is_disabled": 0, "rental_uris": {"android": "https://dc.lft.to/lastmile_qr_scan", "ios": "https://dc.lft.to/lastmile_qr_scan"}, "fusion_lon": 0.0, "lat": 38.91119183333333, "bike_id": "b4c02e97a770e7d733c2fb1feab90293", "type": "electric_scooter", "is_reserved": 0, "lon": -77.00942483333333}, {"fusion_lat": 0.0, "name": "8c4ea7f9bf5db9c4938d65ab42ba362e", "is_disabled": 0, "rental_uris": {"android": "https://dc.lft.to/lastmile_qr_scan", "ios": "https://dc.lft.to/lastmile_qr_scan"}, "fusion_lon": 0.0, "lat": 38.91279733333333, "bike_id": "8c4ea7f9bf5db9c4938d65ab42ba362e", "type": "electric_scooter", "is_reserved": 0, "lon": -77.02246566666666}, {"fusion_lat": 0.0, "name": "abc15d2079b14f749085c699c30a59c5", "is_disabled": 0, "rental_uris": {"android": "https://dc.lft.to/lastmile_qr_scan", "ios": "https://dc.lft.to/lastmile_qr_scan"}, "fusion_lon": 0.0, "lat": 38.941211, "bike_id": "abc15d2079b14f749085c699c30a59c5", "type": "electric_bike", "is_reserved": 0, "lon": -76.99032233333334}, {"fusion_lat": 0.0, "name": "d902252687aad0680acec5f05a9d2bea", "is_disabled": 0, "rental_uris": {"android": "https://dc.lft.to/lastmile_qr_scan", "ios": "https://dc.lft.to/lastmile_qr_scan"}, "fusion_lon": 0.0, "lat": 38.94922416666667, "bike_id": "d902252687aad0680acec5f05a9d2bea", "type": "electric_bike", "is_reserved": 0, "lon": -77.00798566666667}, {"fusion_lat": 0.0, "name": "8bcdfbfccdf1ac1249d48054cb03afa4", "is_disabled": 0, "rental_uris": {"android": "https://dc.lft.to/lastmile_qr_scan", "ios": "https://dc.lft.to/lastmile_qr_scan"}, "fusion_lon": 0.0, "lat": 38.91847666666666, "bike_id": "8bcdfbfccdf1ac1249d48054cb03afa4", "type": "electric_scooter", "is_reserved": 0, "lon": -77.04025616666667}, {"fusion_lat": 0.0, "name": "0b854b8fe8f771c17608794f477dced7", "is_disabled": 0, "rental_uris": {"android": "https://dc.lft.to/lastmile_qr_scan", "ios": "https://dc.lft.to/lastmile_qr_scan"}, "fusion_lon": 0.0, "lat": 38.912702333333336, "bike_id": "0b854b8fe8f771c17608794f477dced7", "type": "electric_scooter", "is_reserved": 0, "lon": -77.03796683333333}, {"fusion_lat": 0.0, "name": "c6ce1dd58f926881c5964f71e5b41736", "is_disabled": 0, "rental_uris": {"android": "https://dc.lft.to/lastmile_qr_scan", "ios": "https://dc.lft.to/lastmile_qr_scan"}, "fusion_lon": 0.0, "lat": 38.92315933333333, "bike_id": "c6ce1dd58f926881c5964f71e5b41736", "type": "electric_scooter", "is_reserved": 0, "lon": -77.04624283333334}, {"fusion_lat": 0.0, "name": "87ab919ba1f46844cf3ee5f27f1c1d9b", "is_disabled": 0, "rental_uris": {"android": "https://dc.lft.to/lastmile_qr_scan", "ios": "https://dc.lft.to/lastmile_qr_scan"}, "fusion_lon": 0.0, "lat": 38.90071716666667, "bike_id": "87ab919ba1f46844cf3ee5f27f1c1d9b", "type": "electric_scooter", "is_reserved": 0, "lon": -77.0218635}, {"fusion_lat": 0.0, "name": "9f4c001dff1bcc68d6ca73d0224e2957", "is_disabled": 0, "rental_uris": {"android": "https://dc.lft.to/lastmile_qr_scan", "ios": "https://dc.lft.to/lastmile_qr_scan"}, "fusion_lon": 0.0, "lat": 38.89739566666667, "bike_id": "9f4c001dff1bcc68d6ca73d0224e2957", "type": "electric_scooter", "is_reserved": 0, "lon": -76.94718733333333}, {"fusion_lat": 0.0, "name": "42852fc316e9f877c4352770c3abc6ff", "is_disabled": 0, "rental_uris": {"android": "https://dc.lft.to/lastmile_qr_scan", "ios": "https://dc.lft.to/lastmile_qr_scan"}, "fusion_lon": 0.0, "lat": 38.907202833333336, "bike_id": "42852fc316e9f877c4352770c3abc6ff", "type": "electric_scooter", "is_reserved": 0, "lon": -77.02500633333334}, {"fusion_lat": 0.0, "name": "ed731c19083364aaf130c18d518ea460", "is_disabled": 0, "rental_uris": {"android": "https://dc.lft.to/lastmile_qr_scan", "ios": "https://dc.lft.to/lastmile_qr_scan"}, "fusion_lon": 0.0, "lat": 38.91586516666667, "bike_id": "ed731c19083364aaf130c18d518ea460", "type": "electric_scooter", "is_reserved": 0, "lon": -77.04615033333333}, {"fusion_lat": 0.0, "name": "e995b907e10d91745024d1b6b915747d", "is_disabled": 0, "rental_uris": {"android": "https://dc.lft.to/lastmile_qr_scan", "ios": "https://dc.lft.to/lastmile_qr_scan"}, "fusion_lon": 0.0, "lat": 38.874434, "bike_id": "e995b907e10d91745024d1b6b915747d", "type": "electric_scooter", "is_reserved": 0, "lon": -77.0188155}, {"fusion_lat": 0.0, "name": "2405290400105ada1959e64c2c0b5fb4", "is_disabled": 0, "rental_uris": {"android": "https://dc.lft.to/lastmile_qr_scan", "ios": "https://dc.lft.to/lastmile_qr_scan"}, "fusion_lon": 0.0, "lat": 38.91982466666666, "bike_id": "2405290400105ada1959e64c2c0b5fb4", "type": "electric_scooter", "is_reserved": 0, "lon": -77.0414795}, {"fusion_lat": 0.0, "name": "2368a29e879f4cdde47cda38daee3e7a", "is_disabled": 0, "rental_uris": {"android": "https://dc.lft.to/lastmile_qr_scan", "ios": "https://dc.lft.to/lastmile_qr_scan"}, "fusion_lon": 0.0, "lat": 38.920674166666664, "bike_id": "2368a29e879f4cdde47cda38daee3e7a", "type": "electric_scooter", "is_reserved": 0, "lon": -77.04248716666666}, {"fusion_lat": 0.0, "name": "8becadc3e617f1c3d5be153047bb14e4", "is_disabled": 0, "rental_uris": {"android": "https://dc.lft.to/lastmile_qr_scan", "ios": "https://dc.lft.to/lastmile_qr_scan"}, "fusion_lon": 0.0, "lat": 38.910824833333336, "bike_id": "8becadc3e617f1c3d5be153047bb14e4", "type": "electric_scooter", "is_reserved": 0, "lon": -77.0654715}, {"fusion_lat": 0.0, "name": "e2500b8b1f41d47c90c02cb1d8677db7", "is_disabled": 0, "rental_uris": {"android": "https://dc.lft.to/lastmile_qr_scan", "ios": "https://dc.lft.to/lastmile_qr_scan"}, "fusion_lon": 0.0, "lat": 38.888843666666666, "bike_id": "e2500b8b1f41d47c90c02cb1d8677db7", "type": "electric_scooter", "is_reserved": 0, "lon": -77.02839183333333}, {"fusion_lat": 0.0, "name": "2a588eaa3c1786155342e48bfadc6643", "is_disabled": 0, "rental_uris": {"android": "https://dc.lft.to/lastmile_qr_scan", "ios": "https://dc.lft.to/lastmile_qr_scan"}, "fusion_lon": 0.0, "lat": 38.916260333333334, "bike_id": "2a588eaa3c1786155342e48bfadc6643", "type": "electric_scooter", "is_reserved": 0, "lon": -77.00345033333333}, {"fusion_lat": 0.0, "name": "1b23e2fabc8ac76b9deef2840df38fdd", "is_disabled": 0, "rental_uris": {"android": "https://dc.lft.to/lastmile_qr_scan", "ios": "https://dc.lft.to/lastmile_qr_scan"}, "fusion_lon": 0.0, "lat": 38.902669, "bike_id": "1b23e2fabc8ac76b9deef2840df38fdd", "type": "electric_scooter", "is_reserved": 0, "lon": -76.99605833333334}, {"fusion_lat": 0.0, "name": "9061b5a5048da1bf2d90bdc2d06df28e", "is_disabled": 0, "rental_uris": {"android": "https://dc.lft.to/lastmile_qr_scan", "ios": "https://dc.lft.to/lastmile_qr_scan"}, "fusion_lon": 0.0, "lat": 38.927246333333336, "bike_id": "9061b5a5048da1bf2d90bdc2d06df28e", "type": "electric_scooter", "is_reserved": 0, "lon": -77.031622}, {"fusion_lat": 0.0, "name": "bc1415c462b411c76da0bd435c3f51cf", "is_disabled": 0, "rental_uris": {"android": "https://dc.lft.to/lastmile_qr_scan", "ios": "https://dc.lft.to/lastmile_qr_scan"}, "fusion_lon": 0.0, "lat": 38.94094033333333, "bike_id": "bc1415c462b411c76da0bd435c3f51cf", "type": "electric_scooter", "is_reserved": 0, "lon": -77.02313416666667}, {"fusion_lat": 0.0, "name": "df8e5bbfa063980458ccf255de5a90f4", "is_disabled": 0, "rental_uris": {"android": "https://dc.lft.to/lastmile_qr_scan", "ios": "https://dc.lft.to/lastmile_qr_scan"}, "fusion_lon": 0.0, "lat": 38.889911833333336, "bike_id": "df8e5bbfa063980458ccf255de5a90f4", "type": "electric_scooter", "is_reserved": 0, "lon": -76.91414766666666}, {"fusion_lat": 0.0, "name": "f2976a4b1df1c25a44c6b1d7b29820be", "is_disabled": 0, "rental_uris": {"android": "https://dc.lft.to/lastmile_qr_scan", "ios": "https://dc.lft.to/lastmile_qr_scan"}, "fusion_lon": 0.0, "lat": 38.908472833333335, "bike_id": "f2976a4b1df1c25a44c6b1d7b29820be", "type": "electric_scooter", "is_reserved": 0, "lon": -77.04664966666667}, {"fusion_lat": 0.0, "name": "4dac47a322432ca9969c379226772586", "is_disabled": 0, "rental_uris": {"android": "https://dc.lft.to/lastmile_qr_scan", "ios": "https://dc.lft.to/lastmile_qr_scan"}, "fusion_lon": 0.0, "lat": 38.92097583333333, "bike_id": "4dac47a322432ca9969c379226772586", "type": "electric_scooter", "is_reserved": 0, "lon": -77.017575}, {"fusion_lat": 0.0, "name": "b1b1ed938986c039322d1ff9bc98da0b", "is_disabled": 0, "rental_uris": {"android": "https://dc.lft.to/lastmile_qr_scan", "ios": "https://dc.lft.to/lastmile_qr_scan"}, "fusion_lon": 0.0, "lat": 38.92202983333333, "bike_id": "b1b1ed938986c039322d1ff9bc98da0b", "type": "electric_scooter", "is_reserved": 0, "lon": -77.08081616666666}, {"fusion_lat": 0.0, "name": "302fb06a2341f362b9079acbdf39ffba", "is_disabled": 0, "rental_uris": {"android": "https://dc.lft.to/lastmile_qr_scan", "ios": "https://dc.lft.to/lastmile_qr_scan"}, "fusion_lon": 0.0, "lat": 38.950795666666664, "bike_id": "302fb06a2341f362b9079acbdf39ffba", "type": "electric_bike", "is_reserved": 0, "lon": -77.01195133333333}, {"fusion_lat": 0.0, "name": "47443faea8d2459681b1532a645162e9", "is_disabled": 0, "rental_uris": {"android": "https://dc.lft.to/lastmile_qr_scan", "ios": "https://dc.lft.to/lastmile_qr_scan"}, "fusion_lon": 0.0, "lat": 38.9155775, "bike_id": "47443faea8d2459681b1532a645162e9", "type": "electric_scooter", "is_reserved": 0, "lon": -77.031275}, {"fusion_lat": 0.0, "name": "39c59438b05c0efa32ac3f7a80672b69", "is_disabled": 0, "rental_uris": {"android": "https://dc.lft.to/lastmile_qr_scan", "ios": "https://dc.lft.to/lastmile_qr_scan"}, "fusion_lon": 0.0, "lat": 38.904984, "bike_id": "39c59438b05c0efa32ac3f7a80672b69", "type": "electric_scooter", "is_reserved": 0, "lon": -77.046633}, {"fusion_lat": 0.0, "name": "3fb3d727ec2b976ac22e664b6bbd2921", "is_disabled": 0, "rental_uris": {"android": "https://dc.lft.to/lastmile_qr_scan", "ios": "https://dc.lft.to/lastmile_qr_scan"}, "fusion_lon": 0.0, "lat": 38.9145115, "bike_id": "3fb3d727ec2b976ac22e664b6bbd2921", "type": "electric_scooter", "is_reserved": 0, "lon": -77.04489733333334}, {"fusion_lat": 0.0, "name": "fe711abcb46279192fb35f1183f407f2", "is_disabled": 0, "rental_uris": {"android": "https://dc.lft.to/lastmile_qr_scan", "ios": "https://dc.lft.to/lastmile_qr_scan"}, "fusion_lon": 0.0, "lat": 38.8929625, "bike_id": "fe711abcb46279192fb35f1183f407f2", "type": "electric_scooter", "is_reserved": 0, "lon": -77.04871266666666}, {"fusion_lat": 0.0, "name": "c3f57e7f03d88c2f2363933b79c525d6", "is_disabled": 0, "rental_uris": {"android": "https://dc.lft.to/lastmile_qr_scan", "ios": "https://dc.lft.to/lastmile_qr_scan"}, "fusion_lon": 0.0, "lat": 38.958003833333336, "bike_id": "c3f57e7f03d88c2f2363933b79c525d6", "type": "electric_bike", "is_reserved": 0, "lon": -76.96045766666667}, {"fusion_lat": 0.0, "name": "86228bf9294718bf4144fdec7625627b", "is_disabled": 0, "rental_uris": {"android": "https://dc.lft.to/lastmile_qr_scan", "ios": "https://dc.lft.to/lastmile_qr_scan"}, "fusion_lon": 0.0, "lat": 38.8882655, "bike_id": "86228bf9294718bf4144fdec7625627b", "type": "electric_scooter", "is_reserved": 0, "lon": -76.98663166666667}, {"fusion_lat": 0.0, "name": "dbf4aecf1767a1b11b1511b7ef30ed3f", "is_disabled": 0, "rental_uris": {"android": "https://dc.lft.to/lastmile_qr_scan", "ios": "https://dc.lft.to/lastmile_qr_scan"}, "fusion_lon": 0.0, "lat": 38.907197833333335, "bike_id": "dbf4aecf1767a1b11b1511b7ef30ed3f", "type": "electric_scooter", "is_reserved": 0, "lon": -77.0498375}, {"fusion_lat": 0.0, "name": "69aa5dd0c3e0b347b17d93cd8e09411d", "is_disabled": 0, "rental_uris": {"android": "https://dc.lft.to/lastmile_qr_scan", "ios": "https://dc.lft.to/lastmile_qr_scan"}, "fusion_lon": 0.0, "lat": 38.910507333333335, "bike_id": "69aa5dd0c3e0b347b17d93cd8e09411d", "type": "electric_scooter", "is_reserved": 0, "lon": -77.06453866666666}, {"fusion_lat": 0.0, "name": "beadeea1cd4703ada415185e6cd37fd6", "is_disabled": 0, "rental_uris": {"android": "https://dc.lft.to/lastmile_qr_scan", "ios": "https://dc.lft.to/lastmile_qr_scan"}, "fusion_lon": 0.0, "lat": 38.922531166666666, "bike_id": "beadeea1cd4703ada415185e6cd37fd6", "type": "electric_scooter", "is_reserved": 0, "lon": -77.07452}, {"fusion_lat": 0.0, "name": "f29bffd32b1ac2d5795ded28c4251bf7", "is_disabled": 0, "rental_uris": {"android": "https://dc.lft.to/lastmile_qr_scan", "ios": "https://dc.lft.to/lastmile_qr_scan"}, "fusion_lon": 0.0, "lat": 38.91820833333333, "bike_id": "f29bffd32b1ac2d5795ded28c4251bf7", "type": "electric_scooter", "is_reserved": 0, "lon": -77.0367225}, {"fusion_lat": 0.0, "name": "630a6eec0bec162a00b979e6d8315a9e", "is_disabled": 0, "rental_uris": {"android": "https://dc.lft.to/lastmile_qr_scan", "ios": "https://dc.lft.to/lastmile_qr_scan"}, "fusion_lon": 0.0, "lat": 38.925646, "bike_id": "630a6eec0bec162a00b979e6d8315a9e", "type": "electric_scooter", "is_reserved": 0, "lon": -77.04366633333333}, {"fusion_lat": 0.0, "name": "94ff12de679d2c5381fe3ee3447378eb", "is_disabled": 0, "rental_uris": {"android": "https://dc.lft.to/lastmile_qr_scan", "ios": "https://dc.lft.to/lastmile_qr_scan"}, "fusion_lon": 0.0, "lat": 38.92979916666667, "bike_id": "94ff12de679d2c5381fe3ee3447378eb", "type": "electric_scooter", "is_reserved": 0, "lon": -77.04187483333334}, {"fusion_lat": 0.0, "name": "801d3bcafb568f3f78c9e295cdc4cbe9", "is_disabled": 0, "rental_uris": {"android": "https://dc.lft.to/lastmile_qr_scan", "ios": "https://dc.lft.to/lastmile_qr_scan"}, "fusion_lon": 0.0, "lat": 38.92135183333333, "bike_id": "801d3bcafb568f3f78c9e295cdc4cbe9", "type": "electric_scooter", "is_reserved": 0, "lon": -77.04382866666667}, {"fusion_lat": 0.0, "name": "2d7dd7c70411c48762ef6f772a449a42", "is_disabled": 0, "rental_uris": {"android": "https://dc.lft.to/lastmile_qr_scan", "ios": "https://dc.lft.to/lastmile_qr_scan"}, "fusion_lon": 0.0, "lat": 38.92680133333333, "bike_id": "2d7dd7c70411c48762ef6f772a449a42", "type": "electric_scooter", "is_reserved": 0, "lon": -77.030981}, {"fusion_lat": 0.0, "name": "5a8e19ba833d25eec1daa2116243dd58", "is_disabled": 0, "rental_uris": {"android": "https://dc.lft.to/lastmile_qr_scan", "ios": "https://dc.lft.to/lastmile_qr_scan"}, "fusion_lon": 0.0, "lat": 38.93077233333333, "bike_id": "5a8e19ba833d25eec1daa2116243dd58", "type": "electric_scooter", "is_reserved": 0, "lon": -77.02265733333333}, {"fusion_lat": 0.0, "name": "0e05ddec6d52c70e22126186db6ad6de", "is_disabled": 0, "rental_uris": {"android": "https://dc.lft.to/lastmile_qr_scan", "ios": "https://dc.lft.to/lastmile_qr_scan"}, "fusion_lon": 0.0, "lat": 38.921733, "bike_id": "0e05ddec6d52c70e22126186db6ad6de", "type": "electric_scooter", "is_reserved": 0, "lon": -77.04250283333333}, {"fusion_lat": 0.0, "name": "25eec8d1a352fdfda2e9bf73a1f72349", "is_disabled": 0, "rental_uris": {"android": "https://dc.lft.to/lastmile_qr_scan", "ios": "https://dc.lft.to/lastmile_qr_scan"}, "fusion_lon": 0.0, "lat": 38.88001966666667, "bike_id": "25eec8d1a352fdfda2e9bf73a1f72349", "type": "electric_bike", "is_reserved": 0, "lon": -76.98404266666667}, {"fusion_lat": 0.0, "name": "f18a5828e8745abb8dc2d37bb324783a", "is_disabled": 0, "rental_uris": {"android": "https://dc.lft.to/lastmile_qr_scan", "ios": "https://dc.lft.to/lastmile_qr_scan"}, "fusion_lon": 0.0, "lat": 38.90634166666667, "bike_id": "f18a5828e8745abb8dc2d37bb324783a", "type": "electric_scooter", "is_reserved": 0, "lon": -77.00728966666667}, {"fusion_lat": 0.0, "name": "d05db5cfdb36cb919e5e2286b6411c07", "is_disabled": 0, "rental_uris": {"android": "https://dc.lft.to/lastmile_qr_scan", "ios": "https://dc.lft.to/lastmile_qr_scan"}, "fusion_lon": 0.0, "lat": 38.890149, "bike_id": "d05db5cfdb36cb919e5e2286b6411c07", "type": "electric_scooter", "is_reserved": 0, "lon": -76.93729366666666}, {"fusion_lat": 0.0, "name": "6ddae04052ad6e633577f7d3f0b754bb", "is_disabled": 0, "rental_uris": {"android": "https://dc.lft.to/lastmile_qr_scan", "ios": "https://dc.lft.to/lastmile_qr_scan"}, "fusion_lon": 0.0, "lat": 38.915601833333334, "bike_id": "6ddae04052ad6e633577f7d3f0b754bb", "type": "electric_scooter", "is_reserved": 0, "lon": -77.02043366666666}, {"fusion_lat": 0.0, "name": "ae1357cb9d8ec0ae6f0b95f90c4603f1", "is_disabled": 0, "rental_uris": {"android": "https://dc.lft.to/lastmile_qr_scan", "ios": "https://dc.lft.to/lastmile_qr_scan"}, "fusion_lon": 0.0, "lat": 38.880147666666666, "bike_id": "ae1357cb9d8ec0ae6f0b95f90c4603f1", "type": "electric_scooter", "is_reserved": 0, "lon": -77.00408383333334}, {"fusion_lat": 0.0, "name": "f900fc23449d148519e2095d4e6addbd", "is_disabled": 0, "rental_uris": {"android": "https://dc.lft.to/lastmile_qr_scan", "ios": "https://dc.lft.to/lastmile_qr_scan"}, "fusion_lon": 0.0, "lat": 38.931883666666664, "bike_id": "f900fc23449d148519e2095d4e6addbd", "type": "electric_scooter", "is_reserved": 0, "lon": -77.0196445}, {"fusion_lat": 0.0, "name": "6f966627c5acc933382b10be0bef7b52", "is_disabled": 0, "rental_uris": {"android": "https://dc.lft.to/lastmile_qr_scan", "ios": "https://dc.lft.to/lastmile_qr_scan"}, "fusion_lon": 0.0, "lat": 38.95244616666667, "bike_id": "6f966627c5acc933382b10be0bef7b52", "type": "electric_scooter", "is_reserved": 0, "lon": -77.0237785}, {"fusion_lat": 0.0, "name": "36c619575c164104bb91b5b7b66c13fd", "is_disabled": 0, "rental_uris": {"android": "https://dc.lft.to/lastmile_qr_scan", "ios": "https://dc.lft.to/lastmile_qr_scan"}, "fusion_lon": 0.0, "lat": 38.9138305, "bike_id": "36c619575c164104bb91b5b7b66c13fd", "type": "electric_scooter", "is_reserved": 0, "lon": -77.01799966666667}, {"fusion_lat": 0.0, "name": "65a944a67e1e09453c9a4bde48297b88", "is_disabled": 0, "rental_uris": {"android": "https://dc.lft.to/lastmile_qr_scan", "ios": "https://dc.lft.to/lastmile_qr_scan"}, "fusion_lon": 0.0, "lat": 38.900636666666664, "bike_id": "65a944a67e1e09453c9a4bde48297b88", "type": "electric_scooter", "is_reserved": 0, "lon": -76.93385083333334}, {"fusion_lat": 0.0, "name": "ebb8425df8c1383af4ce9b5ea2203677", "is_disabled": 0, "rental_uris": {"android": "https://dc.lft.to/lastmile_qr_scan", "ios": "https://dc.lft.to/lastmile_qr_scan"}, "fusion_lon": 0.0, "lat": 38.915526, "bike_id": "ebb8425df8c1383af4ce9b5ea2203677", "type": "electric_scooter", "is_reserved": 0, "lon": -77.0113365}, {"fusion_lat": 0.0, "name": "f5756456f62c9c3ce97a27935ef195b4", "is_disabled": 0, "rental_uris": {"android": "https://dc.lft.to/lastmile_qr_scan", "ios": "https://dc.lft.to/lastmile_qr_scan"}, "fusion_lon": 0.0, "lat": 38.91776133333333, "bike_id": "f5756456f62c9c3ce97a27935ef195b4", "type": "electric_scooter", "is_reserved": 0, "lon": -77.02313566666666}, {"fusion_lat": 0.0, "name": "106c521b46b6c271c73b1ad75af79ede", "is_disabled": 0, "rental_uris": {"android": "https://dc.lft.to/lastmile_qr_scan", "ios": "https://dc.lft.to/lastmile_qr_scan"}, "fusion_lon": 0.0, "lat": 38.835181166666665, "bike_id": "106c521b46b6c271c73b1ad75af79ede", "type": "electric_bike", "is_reserved": 0, "lon": -76.98672983333333}, {"fusion_lat": 0.0, "name": "2d443b71d19dabab912a7c960f6a953b", "is_disabled": 0, "rental_uris": {"android": "https://dc.lft.to/lastmile_qr_scan", "ios": "https://dc.lft.to/lastmile_qr_scan"}, "fusion_lon": 0.0, "lat": 38.91435583333333, "bike_id": "2d443b71d19dabab912a7c960f6a953b", "type": "electric_scooter", "is_reserved": 0, "lon": -77.02198466666667}, {"fusion_lat": 0.0, "name": "6d20a4430f23389b734f7aea8271802b", "is_disabled": 0, "rental_uris": {"android": "https://dc.lft.to/lastmile_qr_scan", "ios": "https://dc.lft.to/lastmile_qr_scan"}, "fusion_lon": 0.0, "lat": 38.939983166666664, "bike_id": "6d20a4430f23389b734f7aea8271802b", "type": "electric_scooter", "is_reserved": 0, "lon": -77.08427416666666}, {"fusion_lat": 0.0, "name": "0ea7a3a0b45e3df752ac890c402b06f3", "is_disabled": 0, "rental_uris": {"android": "https://dc.lft.to/lastmile_qr_scan", "ios": "https://dc.lft.to/lastmile_qr_scan"}, "fusion_lon": 0.0, "lat": 38.942747833333335, "bike_id": "0ea7a3a0b45e3df752ac890c402b06f3", "type": "electric_scooter", "is_reserved": 0, "lon": -77.032596}, {"fusion_lat": 0.0, "name": "dc83ef2a51403e0090207817b19a0576", "is_disabled": 0, "rental_uris": {"android": "https://dc.lft.to/lastmile_qr_scan", "ios": "https://dc.lft.to/lastmile_qr_scan"}, "fusion_lon": 0.0, "lat": 38.904862333333334, "bike_id": "dc83ef2a51403e0090207817b19a0576", "type": "electric_scooter", "is_reserved": 0, "lon": -77.0324755}, {"fusion_lat": 0.0, "name": "7b08a68bc452966b40941de9d8e84615", "is_disabled": 0, "rental_uris": {"android": "https://dc.lft.to/lastmile_qr_scan", "ios": "https://dc.lft.to/lastmile_qr_scan"}, "fusion_lon": 0.0, "lat": 38.907668666666666, "bike_id": "7b08a68bc452966b40941de9d8e84615", "type": "electric_scooter", "is_reserved": 0, "lon": -77.05593233333333}, {"fusion_lat": 0.0, "name": "dea18a9ccdaa9adfb5d8852752e326ed", "is_disabled": 0, "rental_uris": {"android": "https://dc.lft.to/lastmile_qr_scan", "ios": "https://dc.lft.to/lastmile_qr_scan"}, "fusion_lon": 0.0, "lat": 38.9068485, "bike_id": "dea18a9ccdaa9adfb5d8852752e326ed", "type": "electric_scooter", "is_reserved": 0, "lon": -77.07211416666667}, {"fusion_lat": 0.0, "name": "3a2c265b98a191337843fd4dcad979f2", "is_disabled": 0, "rental_uris": {"android": "https://dc.lft.to/lastmile_qr_scan", "ios": "https://dc.lft.to/lastmile_qr_scan"}, "fusion_lon": 0.0, "lat": 38.92381566666667, "bike_id": "3a2c265b98a191337843fd4dcad979f2", "type": "electric_scooter", "is_reserved": 0, "lon": -77.03180366666666}, {"fusion_lat": 0.0, "name": "a06a0bf6c1b985fcb9ab38c6468e1f92", "is_disabled": 0, "rental_uris": {"android": "https://dc.lft.to/lastmile_qr_scan", "ios": "https://dc.lft.to/lastmile_qr_scan"}, "fusion_lon": 0.0, "lat": 38.9202075, "bike_id": "a06a0bf6c1b985fcb9ab38c6468e1f92", "type": "electric_scooter", "is_reserved": 0, "lon": -77.02502316666667}, {"fusion_lat": 0.0, "name": "014860de5ffcffa3ef23a5a8f1bf015b", "is_disabled": 0, "rental_uris": {"android": "https://dc.lft.to/lastmile_qr_scan", "ios": "https://dc.lft.to/lastmile_qr_scan"}, "fusion_lon": 0.0, "lat": 38.87460083333333, "bike_id": "014860de5ffcffa3ef23a5a8f1bf015b", "type": "electric_scooter", "is_reserved": 0, "lon": -77.00287583333333}, {"fusion_lat": 0.0, "name": "a2906182cf7379450a772f8ce45fb8b4", "is_disabled": 0, "rental_uris": {"android": "https://dc.lft.to/lastmile_qr_scan", "ios": "https://dc.lft.to/lastmile_qr_scan"}, "fusion_lon": 0.0, "lat": 38.9026095, "bike_id": "a2906182cf7379450a772f8ce45fb8b4", "type": "electric_scooter", "is_reserved": 0, "lon": -76.9745195}, {"fusion_lat": 0.0, "name": "88a96711d7f6e0c2be7cb29e8c470c0d", "is_disabled": 0, "rental_uris": {"android": "https://dc.lft.to/lastmile_qr_scan", "ios": "https://dc.lft.to/lastmile_qr_scan"}, "fusion_lon": 0.0, "lat": 38.932704, "bike_id": "88a96711d7f6e0c2be7cb29e8c470c0d", "type": "electric_scooter", "is_reserved": 0, "lon": -77.01916083333333}, {"fusion_lat": 0.0, "name": "5a7ff2478207c95c1b5ea6b511882599", "is_disabled": 0, "rental_uris": {"android": "https://dc.lft.to/lastmile_qr_scan", "ios": "https://dc.lft.to/lastmile_qr_scan"}, "fusion_lon": 0.0, "lat": 38.901563333333335, "bike_id": "5a7ff2478207c95c1b5ea6b511882599", "type": "electric_scooter", "is_reserved": 0, "lon": -77.02309033333333}, {"fusion_lat": 0.0, "name": "6302f1d19a170fcf856fae61ce578ebb", "is_disabled": 0, "rental_uris": {"android": "https://dc.lft.to/lastmile_qr_scan", "ios": "https://dc.lft.to/lastmile_qr_scan"}, "fusion_lon": 0.0, "lat": 38.9076685, "bike_id": "6302f1d19a170fcf856fae61ce578ebb", "type": "electric_scooter", "is_reserved": 0, "lon": -77.04256783333334}, {"fusion_lat": 0.0, "name": "2ebc221c68b8e1d37f48a73ea086d40f", "is_disabled": 0, "rental_uris": {"android": "https://dc.lft.to/lastmile_qr_scan", "ios": "https://dc.lft.to/lastmile_qr_scan"}, "fusion_lon": 0.0, "lat": 38.94098666666667, "bike_id": "2ebc221c68b8e1d37f48a73ea086d40f", "type": "electric_scooter", "is_reserved": 0, "lon": -77.03277433333334}, {"fusion_lat": 0.0, "name": "be8301d0ba0639a8c617e9d7f501f14f", "is_disabled": 0, "rental_uris": {"android": "https://dc.lft.to/lastmile_qr_scan", "ios": "https://dc.lft.to/lastmile_qr_scan"}, "fusion_lon": 0.0, "lat": 38.9060585, "bike_id": "be8301d0ba0639a8c617e9d7f501f14f", "type": "electric_scooter", "is_reserved": 0, "lon": -77.02598066666667}, {"fusion_lat": 0.0, "name": "77908ea4b692bb06f68c36c05973f576", "is_disabled": 0, "rental_uris": {"android": "https://dc.lft.to/lastmile_qr_scan", "ios": "https://dc.lft.to/lastmile_qr_scan"}, "fusion_lon": 0.0, "lat": 38.95757783333333, "bike_id": "77908ea4b692bb06f68c36c05973f576", "type": "electric_bike", "is_reserved": 0, "lon": -77.02055366666667}, {"fusion_lat": 0.0, "name": "baab8a4bd67e553fdde453497573e650", "is_disabled": 0, "rental_uris": {"android": "https://dc.lft.to/lastmile_qr_scan", "ios": "https://dc.lft.to/lastmile_qr_scan"}, "fusion_lon": 0.0, "lat": 38.91684733333334, "bike_id": "baab8a4bd67e553fdde453497573e650", "type": "electric_scooter", "is_reserved": 0, "lon": -77.01581616666667}, {"fusion_lat": 0.0, "name": "891b12b8f30faed3ddc25b5b9de2f3e6", "is_disabled": 0, "rental_uris": {"android": "https://dc.lft.to/lastmile_qr_scan", "ios": "https://dc.lft.to/lastmile_qr_scan"}, "fusion_lon": 0.0, "lat": 38.93091733333333, "bike_id": "891b12b8f30faed3ddc25b5b9de2f3e6", "type": "electric_scooter", "is_reserved": 0, "lon": -77.01999133333334}, {"fusion_lat": 0.0, "name": "ef47e9c514310fc0df3e568a114a3aa1", "is_disabled": 0, "rental_uris": {"android": "https://dc.lft.to/lastmile_qr_scan", "ios": "https://dc.lft.to/lastmile_qr_scan"}, "fusion_lon": 0.0, "lat": 38.930812, "bike_id": "ef47e9c514310fc0df3e568a114a3aa1", "type": "electric_scooter", "is_reserved": 0, "lon": -77.07761633333334}, {"fusion_lat": 0.0, "name": "a552fe05d3ddaa79faac9cfb6c0346a2", "is_disabled": 0, "rental_uris": {"android": "https://dc.lft.to/lastmile_qr_scan", "ios": "https://dc.lft.to/lastmile_qr_scan"}, "fusion_lon": 0.0, "lat": 38.86018583333333, "bike_id": "a552fe05d3ddaa79faac9cfb6c0346a2", "type": "electric_bike", "is_reserved": 0, "lon": -77.12806216666667}, {"fusion_lat": 0.0, "name": "858d2c05a00d907970163e766c86d484", "is_disabled": 0, "rental_uris": {"android": "https://dc.lft.to/lastmile_qr_scan", "ios": "https://dc.lft.to/lastmile_qr_scan"}, "fusion_lon": 0.0, "lat": 38.9133655, "bike_id": "858d2c05a00d907970163e766c86d484", "type": "electric_scooter", "is_reserved": 0, "lon": -77.031627}, {"fusion_lat": 0.0, "name": "ba16e0dff812d859ad41708385797909", "is_disabled": 0, "rental_uris": {"android": "https://dc.lft.to/lastmile_qr_scan", "ios": "https://dc.lft.to/lastmile_qr_scan"}, "fusion_lon": 0.0, "lat": 38.93866716666667, "bike_id": "ba16e0dff812d859ad41708385797909", "type": "electric_scooter", "is_reserved": 0, "lon": -77.02702833333333}, {"fusion_lat": 0.0, "name": "d1346d4621729de4bbabb27157701892", "is_disabled": 0, "rental_uris": {"android": "https://dc.lft.to/lastmile_qr_scan", "ios": "https://dc.lft.to/lastmile_qr_scan"}, "fusion_lon": 0.0, "lat": 38.920788333333334, "bike_id": "d1346d4621729de4bbabb27157701892", "type": "electric_scooter", "is_reserved": 0, "lon": -77.01744783333334}, {"fusion_lat": 0.0, "name": "2d00a44b3a770ee861498923e75a4d70", "is_disabled": 0, "rental_uris": {"android": "https://dc.lft.to/lastmile_qr_scan", "ios": "https://dc.lft.to/lastmile_qr_scan"}, "fusion_lon": 0.0, "lat": 38.88345233333333, "bike_id": "2d00a44b3a770ee861498923e75a4d70", "type": "electric_scooter", "is_reserved": 0, "lon": -77.03166333333333}, {"fusion_lat": 0.0, "name": "bdac0b82fd18dea796be7cb82815620b", "is_disabled": 0, "rental_uris": {"android": "https://dc.lft.to/lastmile_qr_scan", "ios": "https://dc.lft.to/lastmile_qr_scan"}, "fusion_lon": 0.0, "lat": 38.9451795, "bike_id": "bdac0b82fd18dea796be7cb82815620b", "type": "electric_scooter", "is_reserved": 0, "lon": -77.03888633333334}, {"fusion_lat": 0.0, "name": "0a81c292a002e6802de0a0e7209823c7", "is_disabled": 0, "rental_uris": {"android": "https://dc.lft.to/lastmile_qr_scan", "ios": "https://dc.lft.to/lastmile_qr_scan"}, "fusion_lon": 0.0, "lat": 38.912683333333334, "bike_id": "0a81c292a002e6802de0a0e7209823c7", "type": "electric_scooter", "is_reserved": 0, "lon": -77.01928766666667}, {"fusion_lat": 0.0, "name": "05083adb7aab88fd2e36d020d7fe0c60", "is_disabled": 0, "rental_uris": {"android": "https://dc.lft.to/lastmile_qr_scan", "ios": "https://dc.lft.to/lastmile_qr_scan"}, "fusion_lon": 0.0, "lat": 38.935360833333334, "bike_id": "05083adb7aab88fd2e36d020d7fe0c60", "type": "electric_scooter", "is_reserved": 0, "lon": -77.02349983333333}, {"fusion_lat": 0.0, "name": "a053ac6d4915bcd676289e52103f0f9e", "is_disabled": 0, "rental_uris": {"android": "https://dc.lft.to/lastmile_qr_scan", "ios": "https://dc.lft.to/lastmile_qr_scan"}, "fusion_lon": 0.0, "lat": 38.901755666666666, "bike_id": "a053ac6d4915bcd676289e52103f0f9e", "type": "electric_scooter", "is_reserved": 0, "lon": -76.992607}, {"fusion_lat": 0.0, "name": "ecc814b9e9fb888503190efb174cd7f5", "is_disabled": 0, "rental_uris": {"android": "https://dc.lft.to/lastmile_qr_scan", "ios": "https://dc.lft.to/lastmile_qr_scan"}, "fusion_lon": 0.0, "lat": 38.913308666666666, "bike_id": "ecc814b9e9fb888503190efb174cd7f5", "type": "electric_scooter", "is_reserved": 0, "lon": -77.042692}, {"fusion_lat": 0.0, "name": "b37f1041014157c037972c8c5ab40e7b", "is_disabled": 0, "rental_uris": {"android": "https://dc.lft.to/lastmile_qr_scan", "ios": "https://dc.lft.to/lastmile_qr_scan"}, "fusion_lon": 0.0, "lat": 38.84757966666667, "bike_id": "b37f1041014157c037972c8c5ab40e7b", "type": "electric_scooter", "is_reserved": 0, "lon": -76.9949915}, {"fusion_lat": 0.0, "name": "fa30654058130f4ecdda1506ff3dd654", "is_disabled": 0, "rental_uris": {"android": "https://dc.lft.to/lastmile_qr_scan", "ios": "https://dc.lft.to/lastmile_qr_scan"}, "fusion_lon": 0.0, "lat": 38.91602066666667, "bike_id": "fa30654058130f4ecdda1506ff3dd654", "type": "electric_scooter", "is_reserved": 0, "lon": -77.02296233333334}, {"fusion_lat": 0.0, "name": "1a11757b02f8b661be7a2ac919e147aa", "is_disabled": 0, "rental_uris": {"android": "https://dc.lft.to/lastmile_qr_scan", "ios": "https://dc.lft.to/lastmile_qr_scan"}, "fusion_lon": 0.0, "lat": 38.88752983333333, "bike_id": "1a11757b02f8b661be7a2ac919e147aa", "type": "electric_scooter", "is_reserved": 0, "lon": -76.9978625}, {"fusion_lat": 0.0, "name": "2e4018656ef4dd690a8a5142de4f251e", "is_disabled": 0, "rental_uris": {"android": "https://dc.lft.to/lastmile_qr_scan", "ios": "https://dc.lft.to/lastmile_qr_scan"}, "fusion_lon": 0.0, "lat": 38.90054883333333, "bike_id": "2e4018656ef4dd690a8a5142de4f251e", "type": "electric_scooter", "is_reserved": 0, "lon": -77.04487533333334}, {"fusion_lat": 0.0, "name": "bd454dc47915edf48d2aaaf6d37e03e0", "is_disabled": 0, "rental_uris": {"android": "https://dc.lft.to/lastmile_qr_scan", "ios": "https://dc.lft.to/lastmile_qr_scan"}, "fusion_lon": 0.0, "lat": 38.93636216666667, "bike_id": "bd454dc47915edf48d2aaaf6d37e03e0", "type": "electric_scooter", "is_reserved": 0, "lon": -77.07310166666667}, {"fusion_lat": 0.0, "name": "c30bebd5b98ed875614478c1d565f264", "is_disabled": 0, "rental_uris": {"android": "https://dc.lft.to/lastmile_qr_scan", "ios": "https://dc.lft.to/lastmile_qr_scan"}, "fusion_lon": 0.0, "lat": 38.906361833333335, "bike_id": "c30bebd5b98ed875614478c1d565f264", "type": "electric_scooter", "is_reserved": 0, "lon": -77.00716316666667}, {"fusion_lat": 0.0, "name": "6adcfa046b471d492f2a8f3f52edbb0a", "is_disabled": 0, "rental_uris": {"android": "https://dc.lft.to/lastmile_qr_scan", "ios": "https://dc.lft.to/lastmile_qr_scan"}, "fusion_lon": 0.0, "lat": 38.9205935, "bike_id": "6adcfa046b471d492f2a8f3f52edbb0a", "type": "electric_scooter", "is_reserved": 0, "lon": -77.03407016666667}, {"fusion_lat": 0.0, "name": "4db35fb4caf9868002b865ef0cc6599c", "is_disabled": 0, "rental_uris": {"android": "https://dc.lft.to/lastmile_qr_scan", "ios": "https://dc.lft.to/lastmile_qr_scan"}, "fusion_lon": 0.0, "lat": 38.92738933333333, "bike_id": "4db35fb4caf9868002b865ef0cc6599c", "type": "electric_scooter", "is_reserved": 0, "lon": -77.02275866666666}, {"fusion_lat": 0.0, "name": "e42fc5f700293d3bbffd4349e1ce8b6d", "is_disabled": 0, "rental_uris": {"android": "https://dc.lft.to/lastmile_qr_scan", "ios": "https://dc.lft.to/lastmile_qr_scan"}, "fusion_lon": 0.0, "lat": 38.9387465, "bike_id": "e42fc5f700293d3bbffd4349e1ce8b6d", "type": "electric_scooter", "is_reserved": 0, "lon": -77.02917566666666}, {"fusion_lat": 0.0, "name": "986395e7bf99e6e0d03d4583db74adb8", "is_disabled": 0, "rental_uris": {"android": "https://dc.lft.to/lastmile_qr_scan", "ios": "https://dc.lft.to/lastmile_qr_scan"}, "fusion_lon": 0.0, "lat": 38.920363, "bike_id": "986395e7bf99e6e0d03d4583db74adb8", "type": "electric_scooter", "is_reserved": 0, "lon": -76.9899165}, {"fusion_lat": 0.0, "name": "e0aa57838a8e27343656c78a45183a41", "is_disabled": 0, "rental_uris": {"android": "https://dc.lft.to/lastmile_qr_scan", "ios": "https://dc.lft.to/lastmile_qr_scan"}, "fusion_lon": 0.0, "lat": 38.8962065, "bike_id": "e0aa57838a8e27343656c78a45183a41", "type": "electric_scooter", "is_reserved": 0, "lon": -77.02135566666666}, {"fusion_lat": 0.0, "name": "021555b720a4198530660ab2e0bcb9c4", "is_disabled": 0, "rental_uris": {"android": "https://dc.lft.to/lastmile_qr_scan", "ios": "https://dc.lft.to/lastmile_qr_scan"}, "fusion_lon": 0.0, "lat": 38.956664333333336, "bike_id": "021555b720a4198530660ab2e0bcb9c4", "type": "electric_bike", "is_reserved": 0, "lon": -77.0113205}, {"fusion_lat": 0.0, "name": "9bcb019fc2e48269e0c1316b7ef08493", "is_disabled": 0, "rental_uris": {"android": "https://dc.lft.to/lastmile_qr_scan", "ios": "https://dc.lft.to/lastmile_qr_scan"}, "fusion_lon": 0.0, "lat": 38.90698016666666, "bike_id": "9bcb019fc2e48269e0c1316b7ef08493", "type": "electric_scooter", "is_reserved": 0, "lon": -77.045134}, {"fusion_lat": 0.0, "name": "8e6693a4e0578adbb791f35a5e722373", "is_disabled": 0, "rental_uris": {"android": "https://dc.lft.to/lastmile_qr_scan", "ios": "https://dc.lft.to/lastmile_qr_scan"}, "fusion_lon": 0.0, "lat": 38.9040365, "bike_id": "8e6693a4e0578adbb791f35a5e722373", "type": "electric_scooter", "is_reserved": 0, "lon": -77.02004916666667}, {"fusion_lat": 0.0, "name": "fb65faeabe88f96e8be72177358e7e60", "is_disabled": 0, "rental_uris": {"android": "https://dc.lft.to/lastmile_qr_scan", "ios": "https://dc.lft.to/lastmile_qr_scan"}, "fusion_lon": 0.0, "lat": 38.89233566666667, "bike_id": "fb65faeabe88f96e8be72177358e7e60", "type": "electric_scooter", "is_reserved": 0, "lon": -77.05000416666667}, {"fusion_lat": 0.0, "name": "7aeaebfa2cf5c08860180a95634969b9", "is_disabled": 0, "rental_uris": {"android": "https://dc.lft.to/lastmile_qr_scan", "ios": "https://dc.lft.to/lastmile_qr_scan"}, "fusion_lon": 0.0, "lat": 38.90656416666667, "bike_id": "7aeaebfa2cf5c08860180a95634969b9", "type": "electric_scooter", "is_reserved": 0, "lon": -77.00928933333333}, {"fusion_lat": 0.0, "name": "2e3f8021ef7642f129efe0120c069f3f", "is_disabled": 0, "rental_uris": {"android": "https://dc.lft.to/lastmile_qr_scan", "ios": "https://dc.lft.to/lastmile_qr_scan"}, "fusion_lon": 0.0, "lat": 38.934520666666664, "bike_id": "2e3f8021ef7642f129efe0120c069f3f", "type": "electric_scooter", "is_reserved": 0, "lon": -77.03870516666667}, {"fusion_lat": 0.0, "name": "0781521c9aef282eeecabf48c0d814f4", "is_disabled": 0, "rental_uris": {"android": "https://dc.lft.to/lastmile_qr_scan", "ios": "https://dc.lft.to/lastmile_qr_scan"}, "fusion_lon": 0.0, "lat": 38.9497635, "bike_id": "0781521c9aef282eeecabf48c0d814f4", "type": "electric_scooter", "is_reserved": 0, "lon": -77.02443866666667}, {"fusion_lat": 0.0, "name": "0bc4c10bef64d068ad1729426e23cf29", "is_disabled": 0, "rental_uris": {"android": "https://dc.lft.to/lastmile_qr_scan", "ios": "https://dc.lft.to/lastmile_qr_scan"}, "fusion_lon": 0.0, "lat": 38.9182035, "bike_id": "0bc4c10bef64d068ad1729426e23cf29", "type": "electric_scooter", "is_reserved": 0, "lon": -77.02708266666667}, {"fusion_lat": 0.0, "name": "78629fc7dd658e591315d3f159f0195e", "is_disabled": 0, "rental_uris": {"android": "https://dc.lft.to/lastmile_qr_scan", "ios": "https://dc.lft.to/lastmile_qr_scan"}, "fusion_lon": 0.0, "lat": 38.948368, "bike_id": "78629fc7dd658e591315d3f159f0195e", "type": "electric_scooter", "is_reserved": 0, "lon": -77.02574516666667}, {"fusion_lat": 0.0, "name": "fd6caa43bae4c383943e293574736805", "is_disabled": 0, "rental_uris": {"android": "https://dc.lft.to/lastmile_qr_scan", "ios": "https://dc.lft.to/lastmile_qr_scan"}, "fusion_lon": 0.0, "lat": 38.911142166666664, "bike_id": "fd6caa43bae4c383943e293574736805", "type": "electric_scooter", "is_reserved": 0, "lon": -77.03835116666667}, {"fusion_lat": 0.0, "name": "63b4fd0e720b394572423d76675beac5", "is_disabled": 0, "rental_uris": {"android": "https://dc.lft.to/lastmile_qr_scan", "ios": "https://dc.lft.to/lastmile_qr_scan"}, "fusion_lon": 0.0, "lat": 38.919087, "bike_id": "63b4fd0e720b394572423d76675beac5", "type": "electric_scooter", "is_reserved": 0, "lon": -77.03372216666666}, {"fusion_lat": 0.0, "name": "a682e60ec2305d99f78fedbbacb38350", "is_disabled": 0, "rental_uris": {"android": "https://dc.lft.to/lastmile_qr_scan", "ios": "https://dc.lft.to/lastmile_qr_scan"}, "fusion_lon": 0.0, "lat": 38.96235133333333, "bike_id": "a682e60ec2305d99f78fedbbacb38350", "type": "electric_bike", "is_reserved": 0, "lon": -76.9279835}, {"fusion_lat": 0.0, "name": "9c956826ee5a0861d7cc4f6d9857fe43", "is_disabled": 0, "rental_uris": {"android": "https://dc.lft.to/lastmile_qr_scan", "ios": "https://dc.lft.to/lastmile_qr_scan"}, "fusion_lon": 0.0, "lat": 38.8795595, "bike_id": "9c956826ee5a0861d7cc4f6d9857fe43", "type": "electric_scooter", "is_reserved": 0, "lon": -77.00843716666667}, {"fusion_lat": 0.0, "name": "fd753d2e4f15fbabd4c3e4384f935dd2", "is_disabled": 0, "rental_uris": {"android": "https://dc.lft.to/lastmile_qr_scan", "ios": "https://dc.lft.to/lastmile_qr_scan"}, "fusion_lon": 0.0, "lat": 38.90134883333333, "bike_id": "fd753d2e4f15fbabd4c3e4384f935dd2", "type": "electric_scooter", "is_reserved": 0, "lon": -77.041722}, {"fusion_lat": 0.0, "name": "d58aefe23add5d4cc3ce1c83d587dbdd", "is_disabled": 0, "rental_uris": {"android": "https://dc.lft.to/lastmile_qr_scan", "ios": "https://dc.lft.to/lastmile_qr_scan"}, "fusion_lon": 0.0, "lat": 38.95956783333333, "bike_id": "d58aefe23add5d4cc3ce1c83d587dbdd", "type": "electric_bike", "is_reserved": 0, "lon": -77.03054933333334}, {"fusion_lat": 0.0, "name": "26f86c833b020d699f52df453d947d18", "is_disabled": 0, "rental_uris": {"android": "https://dc.lft.to/lastmile_qr_scan", "ios": "https://dc.lft.to/lastmile_qr_scan"}, "fusion_lon": 0.0, "lat": 38.900050666666665, "bike_id": "26f86c833b020d699f52df453d947d18", "type": "electric_scooter", "is_reserved": 0, "lon": -77.02298716666667}, {"fusion_lat": 0.0, "name": "5b1e6624483929ca5003fbd55c821ae4", "is_disabled": 0, "rental_uris": {"android": "https://dc.lft.to/lastmile_qr_scan", "ios": "https://dc.lft.to/lastmile_qr_scan"}, "fusion_lon": 0.0, "lat": 38.88018133333333, "bike_id": "5b1e6624483929ca5003fbd55c821ae4", "type": "electric_scooter", "is_reserved": 0, "lon": -76.9807035}, {"fusion_lat": 0.0, "name": "34b1d9127672bc7fcf71fe878cf0e705", "is_disabled": 0, "rental_uris": {"android": "https://dc.lft.to/lastmile_qr_scan", "ios": "https://dc.lft.to/lastmile_qr_scan"}, "fusion_lon": 0.0, "lat": 38.902435833333335, "bike_id": "34b1d9127672bc7fcf71fe878cf0e705", "type": "electric_scooter", "is_reserved": 0, "lon": -77.00200516666666}, {"fusion_lat": 0.0, "name": "195bf5225577a00a73ad6df07e79c333", "is_disabled": 0, "rental_uris": {"android": "https://dc.lft.to/lastmile_qr_scan", "ios": "https://dc.lft.to/lastmile_qr_scan"}, "fusion_lon": 0.0, "lat": 38.928740833333336, "bike_id": "195bf5225577a00a73ad6df07e79c333", "type": "electric_scooter", "is_reserved": 0, "lon": -76.99563066666667}, {"fusion_lat": 0.0, "name": "fb4f2ea4deab844afa68f2acfcef2343", "is_disabled": 0, "rental_uris": {"android": "https://dc.lft.to/lastmile_qr_scan", "ios": "https://dc.lft.to/lastmile_qr_scan"}, "fusion_lon": 0.0, "lat": 38.875136833333336, "bike_id": "fb4f2ea4deab844afa68f2acfcef2343", "type": "electric_bike", "is_reserved": 0, "lon": -77.00777783333334}, {"fusion_lat": 0.0, "name": "8bb6dc64c79b3c1b6080735da7cf7200", "is_disabled": 0, "rental_uris": {"android": "https://dc.lft.to/lastmile_qr_scan", "ios": "https://dc.lft.to/lastmile_qr_scan"}, "fusion_lon": 0.0, "lat": 38.9257425, "bike_id": "8bb6dc64c79b3c1b6080735da7cf7200", "type": "electric_scooter", "is_reserved": 0, "lon": -77.0269205}, {"fusion_lat": 0.0, "name": "73328ad40ec446d400d287aa5552ce9c", "is_disabled": 0, "rental_uris": {"android": "https://dc.lft.to/lastmile_qr_scan", "ios": "https://dc.lft.to/lastmile_qr_scan"}, "fusion_lon": 0.0, "lat": 38.904364666666666, "bike_id": "73328ad40ec446d400d287aa5552ce9c", "type": "electric_scooter", "is_reserved": 0, "lon": -77.025939}, {"fusion_lat": 0.0, "name": "35fa317431695b7e3606bf93d6febe1c", "is_disabled": 0, "rental_uris": {"android": "https://dc.lft.to/lastmile_qr_scan", "ios": "https://dc.lft.to/lastmile_qr_scan"}, "fusion_lon": 0.0, "lat": 38.90631533333333, "bike_id": "35fa317431695b7e3606bf93d6febe1c", "type": "electric_scooter", "is_reserved": 0, "lon": -77.02598766666667}, {"fusion_lat": 0.0, "name": "0e7ee4f1ffb5fb4b0776f93988524aa9", "is_disabled": 0, "rental_uris": {"android": "https://dc.lft.to/lastmile_qr_scan", "ios": "https://dc.lft.to/lastmile_qr_scan"}, "fusion_lon": 0.0, "lat": 38.907239833333335, "bike_id": "0e7ee4f1ffb5fb4b0776f93988524aa9", "type": "electric_scooter", "is_reserved": 0, "lon": -77.02252983333334}, {"fusion_lat": 0.0, "name": "4d843dc08e8da525bcba5ed375a250c5", "is_disabled": 0, "rental_uris": {"android": "https://dc.lft.to/lastmile_qr_scan", "ios": "https://dc.lft.to/lastmile_qr_scan"}, "fusion_lon": 0.0, "lat": 38.93116283333333, "bike_id": "4d843dc08e8da525bcba5ed375a250c5", "type": "electric_scooter", "is_reserved": 0, "lon": -76.99615316666667}, {"fusion_lat": 0.0, "name": "0ee54fa0cc35050b7cf9718282a1c9a4", "is_disabled": 0, "rental_uris": {"android": "https://dc.lft.to/lastmile_qr_scan", "ios": "https://dc.lft.to/lastmile_qr_scan"}, "fusion_lon": 0.0, "lat": 38.90142816666667, "bike_id": "0ee54fa0cc35050b7cf9718282a1c9a4", "type": "electric_scooter", "is_reserved": 0, "lon": -77.04488166666667}, {"fusion_lat": 0.0, "name": "f952bc457207ef5599a43ac3efb35d6f", "is_disabled": 0, "rental_uris": {"android": "https://dc.lft.to/lastmile_qr_scan", "ios": "https://dc.lft.to/lastmile_qr_scan"}, "fusion_lon": 0.0, "lat": 38.92265883333334, "bike_id": "f952bc457207ef5599a43ac3efb35d6f", "type": "electric_scooter", "is_reserved": 0, "lon": -77.0747975}, {"fusion_lat": 0.0, "name": "ebe4a9418c95051a52d7f91cfab4b586", "is_disabled": 0, "rental_uris": {"android": "https://dc.lft.to/lastmile_qr_scan", "ios": "https://dc.lft.to/lastmile_qr_scan"}, "fusion_lon": 0.0, "lat": 38.91763733333333, "bike_id": "ebe4a9418c95051a52d7f91cfab4b586", "type": "electric_scooter", "is_reserved": 0, "lon": -77.01754683333333}, {"fusion_lat": 0.0, "name": "313469a89566e0c928d77c8f84629903", "is_disabled": 0, "rental_uris": {"android": "https://dc.lft.to/lastmile_qr_scan", "ios": "https://dc.lft.to/lastmile_qr_scan"}, "fusion_lon": 0.0, "lat": 38.930821333333334, "bike_id": "313469a89566e0c928d77c8f84629903", "type": "electric_scooter", "is_reserved": 0, "lon": -77.02002266666666}, {"fusion_lat": 0.0, "name": "aa766460470558932887cabfe4c9c27b", "is_disabled": 0, "rental_uris": {"android": "https://dc.lft.to/lastmile_qr_scan", "ios": "https://dc.lft.to/lastmile_qr_scan"}, "fusion_lon": 0.0, "lat": 38.892246666666665, "bike_id": "aa766460470558932887cabfe4c9c27b", "type": "electric_scooter", "is_reserved": 0, "lon": -77.03217066666667}, {"fusion_lat": 0.0, "name": "fa49a82cf04a5843d638b0beee25b296", "is_disabled": 0, "rental_uris": {"android": "https://dc.lft.to/lastmile_qr_scan", "ios": "https://dc.lft.to/lastmile_qr_scan"}, "fusion_lon": 0.0, "lat": 38.92042933333333, "bike_id": "fa49a82cf04a5843d638b0beee25b296", "type": "electric_scooter", "is_reserved": 0, "lon": -77.03408400000001}, {"fusion_lat": 0.0, "name": "e5a46da7f35e0a1c63b5696e9a81171a", "is_disabled": 0, "rental_uris": {"android": "https://dc.lft.to/lastmile_qr_scan", "ios": "https://dc.lft.to/lastmile_qr_scan"}, "fusion_lon": 0.0, "lat": 38.937078666666665, "bike_id": "e5a46da7f35e0a1c63b5696e9a81171a", "type": "electric_scooter", "is_reserved": 0, "lon": -77.06097166666666}, {"fusion_lat": 0.0, "name": "d36af1d3bb62d67ce97db874ad2f1e9e", "is_disabled": 0, "rental_uris": {"android": "https://dc.lft.to/lastmile_qr_scan", "ios": "https://dc.lft.to/lastmile_qr_scan"}, "fusion_lon": 0.0, "lat": 38.90090816666667, "bike_id": "d36af1d3bb62d67ce97db874ad2f1e9e", "type": "electric_scooter", "is_reserved": 0, "lon": -77.0200855}, {"fusion_lat": 0.0, "name": "d8276d7e6327e8bba3c95b0d8891b326", "is_disabled": 0, "rental_uris": {"android": "https://dc.lft.to/lastmile_qr_scan", "ios": "https://dc.lft.to/lastmile_qr_scan"}, "fusion_lon": 0.0, "lat": 38.87655433333333, "bike_id": "d8276d7e6327e8bba3c95b0d8891b326", "type": "electric_scooter", "is_reserved": 0, "lon": -77.00811366666667}, {"fusion_lat": 0.0, "name": "cf209fcf00e57b0ec93dda15a0dff3fb", "is_disabled": 0, "rental_uris": {"android": "https://dc.lft.to/lastmile_qr_scan", "ios": "https://dc.lft.to/lastmile_qr_scan"}, "fusion_lon": 0.0, "lat": 38.922849166666666, "bike_id": "cf209fcf00e57b0ec93dda15a0dff3fb", "type": "electric_scooter", "is_reserved": 0, "lon": -77.03658983333334}, {"fusion_lat": 0.0, "name": "447bb6d089639e3c537f33254e35aab2", "is_disabled": 0, "rental_uris": {"android": "https://dc.lft.to/lastmile_qr_scan", "ios": "https://dc.lft.to/lastmile_qr_scan"}, "fusion_lon": 0.0, "lat": 38.91914166666667, "bike_id": "447bb6d089639e3c537f33254e35aab2", "type": "electric_scooter", "is_reserved": 0, "lon": -77.02412283333334}, {"fusion_lat": 0.0, "name": "33575d4bfbcdc183d06f1ff7bb0749b4", "is_disabled": 0, "rental_uris": {"android": "https://dc.lft.to/lastmile_qr_scan", "ios": "https://dc.lft.to/lastmile_qr_scan"}, "fusion_lon": 0.0, "lat": 39.0030835, "bike_id": "33575d4bfbcdc183d06f1ff7bb0749b4", "type": "electric_bike", "is_reserved": 0, "lon": -76.90329066666666}, {"fusion_lat": 0.0, "name": "9da96ac355f4d94ee2f32410f4d38ae6", "is_disabled": 0, "rental_uris": {"android": "https://dc.lft.to/lastmile_qr_scan", "ios": "https://dc.lft.to/lastmile_qr_scan"}, "fusion_lon": 0.0, "lat": 38.92118216666667, "bike_id": "9da96ac355f4d94ee2f32410f4d38ae6", "type": "electric_scooter", "is_reserved": 0, "lon": -77.0120865}, {"fusion_lat": 0.0, "name": "6b4b28874ebcfe3ef8fbd38c3f2526a4", "is_disabled": 0, "rental_uris": {"android": "https://dc.lft.to/lastmile_qr_scan", "ios": "https://dc.lft.to/lastmile_qr_scan"}, "fusion_lon": 0.0, "lat": 38.945298333333334, "bike_id": "6b4b28874ebcfe3ef8fbd38c3f2526a4", "type": "electric_scooter", "is_reserved": 0, "lon": -77.020873}, {"fusion_lat": 0.0, "name": "178af349a0d1681fd14b3d6388734d9a", "is_disabled": 0, "rental_uris": {"android": "https://dc.lft.to/lastmile_qr_scan", "ios": "https://dc.lft.to/lastmile_qr_scan"}, "fusion_lon": 0.0, "lat": 38.91569966666667, "bike_id": "178af349a0d1681fd14b3d6388734d9a", "type": "electric_scooter", "is_reserved": 0, "lon": -77.0363745}, {"fusion_lat": 0.0, "name": "21412f460e7798d489a54abb1e45054c", "is_disabled": 0, "rental_uris": {"android": "https://dc.lft.to/lastmile_qr_scan", "ios": "https://dc.lft.to/lastmile_qr_scan"}, "fusion_lon": 0.0, "lat": 38.956243666666666, "bike_id": "21412f460e7798d489a54abb1e45054c", "type": "electric_bike", "is_reserved": 0, "lon": -76.93864883333333}, {"fusion_lat": 0.0, "name": "6fd11dfa0cabe021793ada603e53ff3d", "is_disabled": 0, "rental_uris": {"android": "https://dc.lft.to/lastmile_qr_scan", "ios": "https://dc.lft.to/lastmile_qr_scan"}, "fusion_lon": 0.0, "lat": 38.919278, "bike_id": "6fd11dfa0cabe021793ada603e53ff3d", "type": "electric_scooter", "is_reserved": 0, "lon": -77.01210833333333}, {"fusion_lat": 0.0, "name": "b6af46927bc88b20880efda46bd36b01", "is_disabled": 0, "rental_uris": {"android": "https://dc.lft.to/lastmile_qr_scan", "ios": "https://dc.lft.to/lastmile_qr_scan"}, "fusion_lon": 0.0, "lat": 38.918184333333336, "bike_id": "b6af46927bc88b20880efda46bd36b01", "type": "electric_scooter", "is_reserved": 0, "lon": -77.02475083333333}, {"fusion_lat": 0.0, "name": "bf66de4c05e14ff2ebfd3f19ac91a909", "is_disabled": 0, "rental_uris": {"android": "https://dc.lft.to/lastmile_qr_scan", "ios": "https://dc.lft.to/lastmile_qr_scan"}, "fusion_lon": 0.0, "lat": 38.90263516666667, "bike_id": "bf66de4c05e14ff2ebfd3f19ac91a909", "type": "electric_scooter", "is_reserved": 0, "lon": -77.0278905}, {"fusion_lat": 0.0, "name": "e54f088fb7994c1aec998c9d0d63816f", "is_disabled": 0, "rental_uris": {"android": "https://dc.lft.to/lastmile_qr_scan", "ios": "https://dc.lft.to/lastmile_qr_scan"}, "fusion_lon": 0.0, "lat": 38.92337666666667, "bike_id": "e54f088fb7994c1aec998c9d0d63816f", "type": "electric_scooter", "is_reserved": 0, "lon": -77.053482}, {"fusion_lat": 0.0, "name": "de53cef9faa1f2bc0334b1c382ba2d53", "is_disabled": 0, "rental_uris": {"android": "https://dc.lft.to/lastmile_qr_scan", "ios": "https://dc.lft.to/lastmile_qr_scan"}, "fusion_lon": 0.0, "lat": 38.9231845, "bike_id": "de53cef9faa1f2bc0334b1c382ba2d53", "type": "electric_scooter", "is_reserved": 0, "lon": -77.04123766666666}, {"fusion_lat": 0.0, "name": "95bf1003c5ffffa2891dd7ea2eeb1196", "is_disabled": 0, "rental_uris": {"android": "https://dc.lft.to/lastmile_qr_scan", "ios": "https://dc.lft.to/lastmile_qr_scan"}, "fusion_lon": 0.0, "lat": 38.91552216666667, "bike_id": "95bf1003c5ffffa2891dd7ea2eeb1196", "type": "electric_scooter", "is_reserved": 0, "lon": -77.03170783333333}, {"fusion_lat": 0.0, "name": "7b78436cb6121bad216910bfed460be4", "is_disabled": 0, "rental_uris": {"android": "https://dc.lft.to/lastmile_qr_scan", "ios": "https://dc.lft.to/lastmile_qr_scan"}, "fusion_lon": 0.0, "lat": 38.91336, "bike_id": "7b78436cb6121bad216910bfed460be4", "type": "electric_scooter", "is_reserved": 0, "lon": -77.04273}, {"fusion_lat": 0.0, "name": "af1baf4975ed151408b8edb33a9dddc3", "is_disabled": 0, "rental_uris": {"android": "https://dc.lft.to/lastmile_qr_scan", "ios": "https://dc.lft.to/lastmile_qr_scan"}, "fusion_lon": 0.0, "lat": 38.922391833333336, "bike_id": "af1baf4975ed151408b8edb33a9dddc3", "type": "electric_scooter", "is_reserved": 0, "lon": -77.04242483333333}, {"fusion_lat": 0.0, "name": "935244562f3595049ea6f4a0a52917ef", "is_disabled": 0, "rental_uris": {"android": "https://dc.lft.to/lastmile_qr_scan", "ios": "https://dc.lft.to/lastmile_qr_scan"}, "fusion_lon": 0.0, "lat": 38.928128, "bike_id": "935244562f3595049ea6f4a0a52917ef", "type": "electric_scooter", "is_reserved": 0, "lon": -77.0435635}, {"fusion_lat": 0.0, "name": "f9b80a360e235b86f8e689a3868aee50", "is_disabled": 0, "rental_uris": {"android": "https://dc.lft.to/lastmile_qr_scan", "ios": "https://dc.lft.to/lastmile_qr_scan"}, "fusion_lon": 0.0, "lat": 38.906834, "bike_id": "f9b80a360e235b86f8e689a3868aee50", "type": "electric_bike", "is_reserved": 0, "lon": -76.94491766666667}, {"fusion_lat": 0.0, "name": "304f044eeb8ed6f6b7b38eb61dc08fa6", "is_disabled": 0, "rental_uris": {"android": "https://dc.lft.to/lastmile_qr_scan", "ios": "https://dc.lft.to/lastmile_qr_scan"}, "fusion_lon": 0.0, "lat": 38.908499, "bike_id": "304f044eeb8ed6f6b7b38eb61dc08fa6", "type": "electric_scooter", "is_reserved": 0, "lon": -76.99764833333333}, {"fusion_lat": 0.0, "name": "410e0299f20e1e448dc99d0ee343be84", "is_disabled": 0, "rental_uris": {"android": "https://dc.lft.to/lastmile_qr_scan", "ios": "https://dc.lft.to/lastmile_qr_scan"}, "fusion_lon": 0.0, "lat": 38.901530666666666, "bike_id": "410e0299f20e1e448dc99d0ee343be84", "type": "electric_scooter", "is_reserved": 0, "lon": -76.9306295}, {"fusion_lat": 0.0, "name": "a1aca50fca5c0798e025420c4a39fb34", "is_disabled": 0, "rental_uris": {"android": "https://dc.lft.to/lastmile_qr_scan", "ios": "https://dc.lft.to/lastmile_qr_scan"}, "fusion_lon": 0.0, "lat": 38.9612905, "bike_id": "a1aca50fca5c0798e025420c4a39fb34", "type": "electric_bike", "is_reserved": 0, "lon": -77.032764}, {"fusion_lat": 0.0, "name": "0f7ae5fe3e8e357b00ba02e59b4d19e5", "is_disabled": 0, "rental_uris": {"android": "https://dc.lft.to/lastmile_qr_scan", "ios": "https://dc.lft.to/lastmile_qr_scan"}, "fusion_lon": 0.0, "lat": 38.9186675, "bike_id": "0f7ae5fe3e8e357b00ba02e59b4d19e5", "type": "electric_scooter", "is_reserved": 0, "lon": -77.04588533333333}, {"fusion_lat": 0.0, "name": "ebe338b2d2cddc37b2041c417b90d888", "is_disabled": 0, "rental_uris": {"android": "https://dc.lft.to/lastmile_qr_scan", "ios": "https://dc.lft.to/lastmile_qr_scan"}, "fusion_lon": 0.0, "lat": 38.90974966666667, "bike_id": "ebe338b2d2cddc37b2041c417b90d888", "type": "electric_scooter", "is_reserved": 0, "lon": -77.03862666666667}, {"fusion_lat": 0.0, "name": "46ac931c484634457ec4796f1cc4dc13", "is_disabled": 0, "rental_uris": {"android": "https://dc.lft.to/lastmile_qr_scan", "ios": "https://dc.lft.to/lastmile_qr_scan"}, "fusion_lon": 0.0, "lat": 38.90976083333334, "bike_id": "46ac931c484634457ec4796f1cc4dc13", "type": "electric_scooter", "is_reserved": 0, "lon": -77.038628}, {"fusion_lat": 0.0, "name": "85152a91c6d3d9e4410fd050db0dea85", "is_disabled": 0, "rental_uris": {"android": "https://dc.lft.to/lastmile_qr_scan", "ios": "https://dc.lft.to/lastmile_qr_scan"}, "fusion_lon": 0.0, "lat": 38.9228975, "bike_id": "85152a91c6d3d9e4410fd050db0dea85", "type": "electric_scooter", "is_reserved": 0, "lon": -77.036565}, {"fusion_lat": 0.0, "name": "1d4de42005e4c5194bfed4e4c99a7e9f", "is_disabled": 0, "rental_uris": {"android": "https://dc.lft.to/lastmile_qr_scan", "ios": "https://dc.lft.to/lastmile_qr_scan"}, "fusion_lon": 0.0, "lat": 38.90076583333333, "bike_id": "1d4de42005e4c5194bfed4e4c99a7e9f", "type": "electric_scooter", "is_reserved": 0, "lon": -77.016201}, {"fusion_lat": 0.0, "name": "33fde3d195105b9f32712681c2498613", "is_disabled": 0, "rental_uris": {"android": "https://dc.lft.to/lastmile_qr_scan", "ios": "https://dc.lft.to/lastmile_qr_scan"}, "fusion_lon": 0.0, "lat": 38.89309933333333, "bike_id": "33fde3d195105b9f32712681c2498613", "type": "electric_scooter", "is_reserved": 0, "lon": -77.05583666666666}, {"fusion_lat": 0.0, "name": "041e02734653a65ab3f8da79baa36c73", "is_disabled": 0, "rental_uris": {"android": "https://dc.lft.to/lastmile_qr_scan", "ios": "https://dc.lft.to/lastmile_qr_scan"}, "fusion_lon": 0.0, "lat": 38.87864283333333, "bike_id": "041e02734653a65ab3f8da79baa36c73", "type": "electric_scooter", "is_reserved": 0, "lon": -77.0056935}, {"fusion_lat": 0.0, "name": "cd46a52ac09d0c10f2cbb08afbc780cb", "is_disabled": 0, "rental_uris": {"android": "https://dc.lft.to/lastmile_qr_scan", "ios": "https://dc.lft.to/lastmile_qr_scan"}, "fusion_lon": 0.0, "lat": 38.90579, "bike_id": "cd46a52ac09d0c10f2cbb08afbc780cb", "type": "electric_scooter", "is_reserved": 0, "lon": -77.022084}, {"fusion_lat": 0.0, "name": "c0283401a239ba54100d286e5dfba330", "is_disabled": 0, "rental_uris": {"android": "https://dc.lft.to/lastmile_qr_scan", "ios": "https://dc.lft.to/lastmile_qr_scan"}, "fusion_lon": 0.0, "lat": 38.86140733333333, "bike_id": "c0283401a239ba54100d286e5dfba330", "type": "electric_bike", "is_reserved": 0, "lon": -76.97168}, {"fusion_lat": 0.0, "name": "1634ff15fc2c9f117c991facdcced183", "is_disabled": 0, "rental_uris": {"android": "https://dc.lft.to/lastmile_qr_scan", "ios": "https://dc.lft.to/lastmile_qr_scan"}, "fusion_lon": 0.0, "lat": 38.93627433333333, "bike_id": "1634ff15fc2c9f117c991facdcced183", "type": "electric_scooter", "is_reserved": 0, "lon": -77.03658616666667}, {"fusion_lat": 0.0, "name": "69823867cf3ab9b66efef0bbf42c2793", "is_disabled": 0, "rental_uris": {"android": "https://dc.lft.to/lastmile_qr_scan", "ios": "https://dc.lft.to/lastmile_qr_scan"}, "fusion_lon": 0.0, "lat": 38.915540666666665, "bike_id": "69823867cf3ab9b66efef0bbf42c2793", "type": "electric_scooter", "is_reserved": 0, "lon": -77.03165566666667}, {"fusion_lat": 0.0, "name": "80e7e8359588ebaa4e14a1cfe1a3537c", "is_disabled": 0, "rental_uris": {"android": "https://dc.lft.to/lastmile_qr_scan", "ios": "https://dc.lft.to/lastmile_qr_scan"}, "fusion_lon": 0.0, "lat": 38.94978233333333, "bike_id": "80e7e8359588ebaa4e14a1cfe1a3537c", "type": "electric_scooter", "is_reserved": 0, "lon": -77.02696666666667}, {"fusion_lat": 0.0, "name": "2a61eb337c6d5bc9931dd84334351280", "is_disabled": 0, "rental_uris": {"android": "https://dc.lft.to/lastmile_qr_scan", "ios": "https://dc.lft.to/lastmile_qr_scan"}, "fusion_lon": 0.0, "lat": 38.9247285, "bike_id": "2a61eb337c6d5bc9931dd84334351280", "type": "electric_scooter", "is_reserved": 0, "lon": -77.0352995}, {"fusion_lat": 0.0, "name": "511e14046c86d8165f19874a335e11fc", "is_disabled": 0, "rental_uris": {"android": "https://dc.lft.to/lastmile_qr_scan", "ios": "https://dc.lft.to/lastmile_qr_scan"}, "fusion_lon": 0.0, "lat": 38.91266983333333, "bike_id": "511e14046c86d8165f19874a335e11fc", "type": "electric_scooter", "is_reserved": 0, "lon": -77.0192965}, {"fusion_lat": 0.0, "name": "21d92eeda128882f03fbdf85b8bc7731", "is_disabled": 0, "rental_uris": {"android": "https://dc.lft.to/lastmile_qr_scan", "ios": "https://dc.lft.to/lastmile_qr_scan"}, "fusion_lon": 0.0, "lat": 38.9076065, "bike_id": "21d92eeda128882f03fbdf85b8bc7731", "type": "electric_scooter", "is_reserved": 0, "lon": -77.0357865}, {"fusion_lat": 0.0, "name": "e3f767d3c866e177f313ca3934005408", "is_disabled": 0, "rental_uris": {"android": "https://dc.lft.to/lastmile_qr_scan", "ios": "https://dc.lft.to/lastmile_qr_scan"}, "fusion_lon": 0.0, "lat": 38.87896283333333, "bike_id": "e3f767d3c866e177f313ca3934005408", "type": "electric_scooter", "is_reserved": 0, "lon": -77.01365183333333}, {"fusion_lat": 0.0, "name": "e301dbaeb76165fc9e4c77652edaeb9b", "is_disabled": 0, "rental_uris": {"android": "https://dc.lft.to/lastmile_qr_scan", "ios": "https://dc.lft.to/lastmile_qr_scan"}, "fusion_lon": 0.0, "lat": 38.893133666666664, "bike_id": "e301dbaeb76165fc9e4c77652edaeb9b", "type": "electric_scooter", "is_reserved": 0, "lon": -77.02594933333333}, {"fusion_lat": 0.0, "name": "8fb661aac87d86fc93b4ecf805269610", "is_disabled": 0, "rental_uris": {"android": "https://dc.lft.to/lastmile_qr_scan", "ios": "https://dc.lft.to/lastmile_qr_scan"}, "fusion_lon": 0.0, "lat": 38.901073, "bike_id": "8fb661aac87d86fc93b4ecf805269610", "type": "electric_scooter", "is_reserved": 0, "lon": -77.05898083333334}, {"fusion_lat": 0.0, "name": "095a8408597df8a93c662fed819aa75c", "is_disabled": 0, "rental_uris": {"android": "https://dc.lft.to/lastmile_qr_scan", "ios": "https://dc.lft.to/lastmile_qr_scan"}, "fusion_lon": 0.0, "lat": 38.9359065, "bike_id": "095a8408597df8a93c662fed819aa75c", "type": "electric_bike", "is_reserved": 0, "lon": -77.02407}, {"fusion_lat": 0.0, "name": "c05883f9034fdd1593540919fe5cb496", "is_disabled": 0, "rental_uris": {"android": "https://dc.lft.to/lastmile_qr_scan", "ios": "https://dc.lft.to/lastmile_qr_scan"}, "fusion_lon": 0.0, "lat": 38.907221666666665, "bike_id": "c05883f9034fdd1593540919fe5cb496", "type": "electric_scooter", "is_reserved": 0, "lon": -77.04082216666667}, {"fusion_lat": 0.0, "name": "c2c2397149580178293e0ee0e5774507", "is_disabled": 0, "rental_uris": {"android": "https://dc.lft.to/lastmile_qr_scan", "ios": "https://dc.lft.to/lastmile_qr_scan"}, "fusion_lon": 0.0, "lat": 38.902624, "bike_id": "c2c2397149580178293e0ee0e5774507", "type": "electric_scooter", "is_reserved": 0, "lon": -77.017505}, {"fusion_lat": 0.0, "name": "dfe888e99c4a13fcf0b13fedfe15490c", "is_disabled": 0, "rental_uris": {"android": "https://dc.lft.to/lastmile_qr_scan", "ios": "https://dc.lft.to/lastmile_qr_scan"}, "fusion_lon": 0.0, "lat": 38.92404, "bike_id": "dfe888e99c4a13fcf0b13fedfe15490c", "type": "electric_scooter", "is_reserved": 0, "lon": -77.02555933333333}, {"fusion_lat": 0.0, "name": "d845d14794e65a7fb13a3d635e302d11", "is_disabled": 0, "rental_uris": {"android": "https://dc.lft.to/lastmile_qr_scan", "ios": "https://dc.lft.to/lastmile_qr_scan"}, "fusion_lon": 0.0, "lat": 38.895266166666666, "bike_id": "d845d14794e65a7fb13a3d635e302d11", "type": "electric_scooter", "is_reserved": 0, "lon": -76.93410566666667}, {"fusion_lat": 0.0, "name": "ae9f8a331c3dd131e79b288a50298662", "is_disabled": 0, "rental_uris": {"android": "https://dc.lft.to/lastmile_qr_scan", "ios": "https://dc.lft.to/lastmile_qr_scan"}, "fusion_lon": 0.0, "lat": 38.9057795, "bike_id": "ae9f8a331c3dd131e79b288a50298662", "type": "electric_scooter", "is_reserved": 0, "lon": -77.02976016666666}, {"fusion_lat": 0.0, "name": "4e40f54c4029c08e02a0a3376c34aba9", "is_disabled": 0, "rental_uris": {"android": "https://dc.lft.to/lastmile_qr_scan", "ios": "https://dc.lft.to/lastmile_qr_scan"}, "fusion_lon": 0.0, "lat": 38.927266, "bike_id": "4e40f54c4029c08e02a0a3376c34aba9", "type": "electric_scooter", "is_reserved": 0, "lon": -77.03062216666666}, {"fusion_lat": 0.0, "name": "4a5379aa67cd5a480b0b4beb209e0c99", "is_disabled": 0, "rental_uris": {"android": "https://dc.lft.to/lastmile_qr_scan", "ios": "https://dc.lft.to/lastmile_qr_scan"}, "fusion_lon": 0.0, "lat": 38.9163875, "bike_id": "4a5379aa67cd5a480b0b4beb209e0c99", "type": "electric_scooter", "is_reserved": 0, "lon": -77.05048983333333}, {"fusion_lat": 0.0, "name": "7b49d8a63fd01970f577c42bad9052da", "is_disabled": 0, "rental_uris": {"android": "https://dc.lft.to/lastmile_qr_scan", "ios": "https://dc.lft.to/lastmile_qr_scan"}, "fusion_lon": 0.0, "lat": 38.89106366666667, "bike_id": "7b49d8a63fd01970f577c42bad9052da", "type": "electric_scooter", "is_reserved": 0, "lon": -76.99623883333334}, {"fusion_lat": 0.0, "name": "99f3bd8a97531cdec719049dbda16395", "is_disabled": 0, "rental_uris": {"android": "https://dc.lft.to/lastmile_qr_scan", "ios": "https://dc.lft.to/lastmile_qr_scan"}, "fusion_lon": 0.0, "lat": 38.925372333333335, "bike_id": "99f3bd8a97531cdec719049dbda16395", "type": "electric_scooter", "is_reserved": 0, "lon": -77.0075305}, {"fusion_lat": 0.0, "name": "a8ffe83629102491441513e6874a57c6", "is_disabled": 0, "rental_uris": {"android": "https://dc.lft.to/lastmile_qr_scan", "ios": "https://dc.lft.to/lastmile_qr_scan"}, "fusion_lon": 0.0, "lat": 38.883073833333334, "bike_id": "a8ffe83629102491441513e6874a57c6", "type": "electric_scooter", "is_reserved": 0, "lon": -76.948555}, {"fusion_lat": 0.0, "name": "b566df90eb0cd184b3a0731e8a480e53", "is_disabled": 0, "rental_uris": {"android": "https://dc.lft.to/lastmile_qr_scan", "ios": "https://dc.lft.to/lastmile_qr_scan"}, "fusion_lon": 0.0, "lat": 38.904124833333334, "bike_id": "b566df90eb0cd184b3a0731e8a480e53", "type": "electric_scooter", "is_reserved": 0, "lon": -77.06807016666667}, {"fusion_lat": 0.0, "name": "a7e9434c922cf4343dde09880d54c443", "is_disabled": 0, "rental_uris": {"android": "https://dc.lft.to/lastmile_qr_scan", "ios": "https://dc.lft.to/lastmile_qr_scan"}, "fusion_lon": 0.0, "lat": 38.90731733333333, "bike_id": "a7e9434c922cf4343dde09880d54c443", "type": "electric_scooter", "is_reserved": 0, "lon": -76.93544516666667}, {"fusion_lat": 0.0, "name": "0b6a855f1d1b4c6c8261b918d0752fc1", "is_disabled": 0, "rental_uris": {"android": "https://dc.lft.to/lastmile_qr_scan", "ios": "https://dc.lft.to/lastmile_qr_scan"}, "fusion_lon": 0.0, "lat": 38.8071305, "bike_id": "0b6a855f1d1b4c6c8261b918d0752fc1", "type": "electric_bike", "is_reserved": 0, "lon": -77.0616885}, {"fusion_lat": 0.0, "name": "8c09003524dec24963d947f173b3fa11", "is_disabled": 0, "rental_uris": {"android": "https://dc.lft.to/lastmile_qr_scan", "ios": "https://dc.lft.to/lastmile_qr_scan"}, "fusion_lon": 0.0, "lat": 38.819156666666665, "bike_id": "8c09003524dec24963d947f173b3fa11", "type": "electric_bike", "is_reserved": 0, "lon": -77.047939}, {"fusion_lat": 0.0, "name": "4e4de5edbfa7f0fb099f38378efa00e2", "is_disabled": 0, "rental_uris": {"android": "https://dc.lft.to/lastmile_qr_scan", "ios": "https://dc.lft.to/lastmile_qr_scan"}, "fusion_lon": 0.0, "lat": 38.8124925, "bike_id": "4e4de5edbfa7f0fb099f38378efa00e2", "type": "electric_bike", "is_reserved": 0, "lon": -77.117613}, {"fusion_lat": 0.0, "name": "235a8a9d0adbcfeb09f2df952c1b6cb3", "is_disabled": 0, "rental_uris": {"android": "https://dc.lft.to/lastmile_qr_scan", "ios": "https://dc.lft.to/lastmile_qr_scan"}, "fusion_lon": 0.0, "lat": 38.92196933333334, "bike_id": "235a8a9d0adbcfeb09f2df952c1b6cb3", "type": "electric_scooter", "is_reserved": 0, "lon": -77.040179}, {"fusion_lat": 0.0, "name": "5863df179bbd322a2e843cb696e0f5b8", "is_disabled": 0, "rental_uris": {"android": "https://dc.lft.to/lastmile_qr_scan", "ios": "https://dc.lft.to/lastmile_qr_scan"}, "fusion_lon": 0.0, "lat": 38.90852366666667, "bike_id": "5863df179bbd322a2e843cb696e0f5b8", "type": "electric_scooter", "is_reserved": 0, "lon": -77.0102025}, {"fusion_lat": 0.0, "name": "fb55799717d5f60cf44190c46f81e05a", "is_disabled": 0, "rental_uris": {"android": "https://dc.lft.to/lastmile_qr_scan", "ios": "https://dc.lft.to/lastmile_qr_scan"}, "fusion_lon": 0.0, "lat": 38.900656833333336, "bike_id": "fb55799717d5f60cf44190c46f81e05a", "type": "electric_scooter", "is_reserved": 0, "lon": -77.0170865}, {"fusion_lat": 0.0, "name": "71fba197557f6d726cf935825b43b713", "is_disabled": 0, "rental_uris": {"android": "https://dc.lft.to/lastmile_qr_scan", "ios": "https://dc.lft.to/lastmile_qr_scan"}, "fusion_lon": 0.0, "lat": 38.928864833333336, "bike_id": "71fba197557f6d726cf935825b43b713", "type": "electric_scooter", "is_reserved": 0, "lon": -77.03735766666667}, {"fusion_lat": 0.0, "name": "1e57e7dd0b80e74fc8d398f766402f6e", "is_disabled": 0, "rental_uris": {"android": "https://dc.lft.to/lastmile_qr_scan", "ios": "https://dc.lft.to/lastmile_qr_scan"}, "fusion_lon": 0.0, "lat": 38.918223833333336, "bike_id": "1e57e7dd0b80e74fc8d398f766402f6e", "type": "electric_scooter", "is_reserved": 0, "lon": -77.03682583333334}, {"fusion_lat": 0.0, "name": "d90e5ce387de838dafeb52db6884187c", "is_disabled": 0, "rental_uris": {"android": "https://dc.lft.to/lastmile_qr_scan", "ios": "https://dc.lft.to/lastmile_qr_scan"}, "fusion_lon": 0.0, "lat": 38.914292833333334, "bike_id": "d90e5ce387de838dafeb52db6884187c", "type": "electric_scooter", "is_reserved": 0, "lon": -77.038115}, {"fusion_lat": 0.0, "name": "e3f61db09e33a1b26855154e6f6f2bc0", "is_disabled": 0, "rental_uris": {"android": "https://dc.lft.to/lastmile_qr_scan", "ios": "https://dc.lft.to/lastmile_qr_scan"}, "fusion_lon": 0.0, "lat": 38.91471933333333, "bike_id": "e3f61db09e33a1b26855154e6f6f2bc0", "type": "electric_scooter", "is_reserved": 0, "lon": -76.98387983333333}, {"fusion_lat": 0.0, "name": "223ce3f8361f88a385d30b49b4bece0f", "is_disabled": 0, "rental_uris": {"android": "https://dc.lft.to/lastmile_qr_scan", "ios": "https://dc.lft.to/lastmile_qr_scan"}, "fusion_lon": 0.0, "lat": 38.9148745, "bike_id": "223ce3f8361f88a385d30b49b4bece0f", "type": "electric_scooter", "is_reserved": 0, "lon": -77.02181816666666}, {"fusion_lat": 0.0, "name": "e8d2d6e793493e9668e24609e0a15091", "is_disabled": 0, "rental_uris": {"android": "https://dc.lft.to/lastmile_qr_scan", "ios": "https://dc.lft.to/lastmile_qr_scan"}, "fusion_lon": 0.0, "lat": 38.949997833333335, "bike_id": "e8d2d6e793493e9668e24609e0a15091", "type": "electric_scooter", "is_reserved": 0, "lon": -77.01952316666667}, {"fusion_lat": 0.0, "name": "eda10354b509202119015e818fc8c73b", "is_disabled": 0, "rental_uris": {"android": "https://dc.lft.to/lastmile_qr_scan", "ios": "https://dc.lft.to/lastmile_qr_scan"}, "fusion_lon": 0.0, "lat": 38.9184725, "bike_id": "eda10354b509202119015e818fc8c73b", "type": "electric_scooter", "is_reserved": 0, "lon": -76.96536616666667}, {"fusion_lat": 0.0, "name": "f2205e50b45b977e586478f5f63b2695", "is_disabled": 0, "rental_uris": {"android": "https://dc.lft.to/lastmile_qr_scan", "ios": "https://dc.lft.to/lastmile_qr_scan"}, "fusion_lon": 0.0, "lat": 38.984766666666665, "bike_id": "f2205e50b45b977e586478f5f63b2695", "type": "electric_scooter", "is_reserved": 0, "lon": -77.026386}, {"fusion_lat": 0.0, "name": "783c3698bce18915c3fc37e158a67e6a", "is_disabled": 0, "rental_uris": {"android": "https://dc.lft.to/lastmile_qr_scan", "ios": "https://dc.lft.to/lastmile_qr_scan"}, "fusion_lon": 0.0, "lat": 38.92047566666667, "bike_id": "783c3698bce18915c3fc37e158a67e6a", "type": "electric_scooter", "is_reserved": 0, "lon": -77.02366866666667}, {"fusion_lat": 0.0, "name": "98a880ee2c090c86e00d8ed9fa7aa0ad", "is_disabled": 0, "rental_uris": {"android": "https://dc.lft.to/lastmile_qr_scan", "ios": "https://dc.lft.to/lastmile_qr_scan"}, "fusion_lon": 0.0, "lat": 38.90679316666667, "bike_id": "98a880ee2c090c86e00d8ed9fa7aa0ad", "type": "electric_scooter", "is_reserved": 0, "lon": -77.01098066666667}, {"fusion_lat": 0.0, "name": "87139ebe080e13aa80b28a00a2563d4b", "is_disabled": 0, "rental_uris": {"android": "https://dc.lft.to/lastmile_qr_scan", "ios": "https://dc.lft.to/lastmile_qr_scan"}, "fusion_lon": 0.0, "lat": 38.913529, "bike_id": "87139ebe080e13aa80b28a00a2563d4b", "type": "electric_scooter", "is_reserved": 0, "lon": -77.03329316666667}, {"fusion_lat": 0.0, "name": "83727a63191bd3d1a853b5c1f0d3cb20", "is_disabled": 0, "rental_uris": {"android": "https://dc.lft.to/lastmile_qr_scan", "ios": "https://dc.lft.to/lastmile_qr_scan"}, "fusion_lon": 0.0, "lat": 38.959651, "bike_id": "83727a63191bd3d1a853b5c1f0d3cb20", "type": "electric_bike", "is_reserved": 0, "lon": -76.98154583333333}, {"fusion_lat": 0.0, "name": "e9a3965363e14ef5c23789c4118d2382", "is_disabled": 0, "rental_uris": {"android": "https://dc.lft.to/lastmile_qr_scan", "ios": "https://dc.lft.to/lastmile_qr_scan"}, "fusion_lon": 0.0, "lat": 38.9056845, "bike_id": "e9a3965363e14ef5c23789c4118d2382", "type": "electric_scooter", "is_reserved": 0, "lon": -77.00542416666667}, {"fusion_lat": 0.0, "name": "10b668ddb3a744c432355e197b018669", "is_disabled": 0, "rental_uris": {"android": "https://dc.lft.to/lastmile_qr_scan", "ios": "https://dc.lft.to/lastmile_qr_scan"}, "fusion_lon": 0.0, "lat": 38.894866, "bike_id": "10b668ddb3a744c432355e197b018669", "type": "electric_scooter", "is_reserved": 0, "lon": -76.99734216666667}, {"fusion_lat": 0.0, "name": "273e2512153931faf44cfa35b48b6799", "is_disabled": 0, "rental_uris": {"android": "https://dc.lft.to/lastmile_qr_scan", "ios": "https://dc.lft.to/lastmile_qr_scan"}, "fusion_lon": 0.0, "lat": 38.8551495, "bike_id": "273e2512153931faf44cfa35b48b6799", "type": "electric_bike", "is_reserved": 0, "lon": -77.1053745}, {"fusion_lat": 0.0, "name": "d56f3b19bdbdee098e23d7ea6b617065", "is_disabled": 0, "rental_uris": {"android": "https://dc.lft.to/lastmile_qr_scan", "ios": "https://dc.lft.to/lastmile_qr_scan"}, "fusion_lon": 0.0, "lat": 38.90717316666667, "bike_id": "d56f3b19bdbdee098e23d7ea6b617065", "type": "electric_scooter", "is_reserved": 0, "lon": -77.03444916666666}, {"fusion_lat": 0.0, "name": "83ea11f557e94d6d54112183722bc7b0", "is_disabled": 0, "rental_uris": {"android": "https://dc.lft.to/lastmile_qr_scan", "ios": "https://dc.lft.to/lastmile_qr_scan"}, "fusion_lon": 0.0, "lat": 38.89620216666667, "bike_id": "83ea11f557e94d6d54112183722bc7b0", "type": "electric_scooter", "is_reserved": 0, "lon": -76.98569483333333}, {"fusion_lat": 0.0, "name": "910b8aaedf15b6d5b3dd070b1167b0e4", "is_disabled": 0, "rental_uris": {"android": "https://dc.lft.to/lastmile_qr_scan", "ios": "https://dc.lft.to/lastmile_qr_scan"}, "fusion_lon": 0.0, "lat": 38.905288, "bike_id": "910b8aaedf15b6d5b3dd070b1167b0e4", "type": "electric_scooter", "is_reserved": 0, "lon": -77.017184}, {"fusion_lat": 0.0, "name": "762c3f084d3a67247825d6147b6b3142", "is_disabled": 0, "rental_uris": {"android": "https://dc.lft.to/lastmile_qr_scan", "ios": "https://dc.lft.to/lastmile_qr_scan"}, "fusion_lon": 0.0, "lat": 38.89243833333333, "bike_id": "762c3f084d3a67247825d6147b6b3142", "type": "electric_scooter", "is_reserved": 0, "lon": -77.050312}, {"fusion_lat": 0.0, "name": "040d0f4883b3625a1ba167e67ac79983", "is_disabled": 0, "rental_uris": {"android": "https://dc.lft.to/lastmile_qr_scan", "ios": "https://dc.lft.to/lastmile_qr_scan"}, "fusion_lon": 0.0, "lat": 38.91225133333333, "bike_id": "040d0f4883b3625a1ba167e67ac79983", "type": "electric_scooter", "is_reserved": 0, "lon": -77.04780966666667}, {"fusion_lat": 0.0, "name": "afdb677715e17188b7c012197ad11224", "is_disabled": 0, "rental_uris": {"android": "https://dc.lft.to/lastmile_qr_scan", "ios": "https://dc.lft.to/lastmile_qr_scan"}, "fusion_lon": 0.0, "lat": 38.90958633333334, "bike_id": "afdb677715e17188b7c012197ad11224", "type": "electric_scooter", "is_reserved": 0, "lon": -77.03941133333333}, {"fusion_lat": 0.0, "name": "114c97babec5a4bd2839d8f77aa44aa0", "is_disabled": 0, "rental_uris": {"android": "https://dc.lft.to/lastmile_qr_scan", "ios": "https://dc.lft.to/lastmile_qr_scan"}, "fusion_lon": 0.0, "lat": 38.900829, "bike_id": "114c97babec5a4bd2839d8f77aa44aa0", "type": "electric_scooter", "is_reserved": 0, "lon": -77.02430033333333}, {"fusion_lat": 0.0, "name": "2ef309005dafc59356558a24677d24da", "is_disabled": 0, "rental_uris": {"android": "https://dc.lft.to/lastmile_qr_scan", "ios": "https://dc.lft.to/lastmile_qr_scan"}, "fusion_lon": 0.0, "lat": 38.93608833333333, "bike_id": "2ef309005dafc59356558a24677d24da", "type": "electric_scooter", "is_reserved": 0, "lon": -77.03522583333333}, {"fusion_lat": 0.0, "name": "dd7bf4aecccfd5d9f38171d1631a3424", "is_disabled": 0, "rental_uris": {"android": "https://dc.lft.to/lastmile_qr_scan", "ios": "https://dc.lft.to/lastmile_qr_scan"}, "fusion_lon": 0.0, "lat": 38.89176833333333, "bike_id": "dd7bf4aecccfd5d9f38171d1631a3424", "type": "electric_scooter", "is_reserved": 0, "lon": -76.99944983333333}, {"fusion_lat": 0.0, "name": "1d55096fe28a7d0bfd2d24d48857b9bc", "is_disabled": 0, "rental_uris": {"android": "https://dc.lft.to/lastmile_qr_scan", "ios": "https://dc.lft.to/lastmile_qr_scan"}, "fusion_lon": 0.0, "lat": 38.89225116666667, "bike_id": "1d55096fe28a7d0bfd2d24d48857b9bc", "type": "electric_scooter", "is_reserved": 0, "lon": -77.0479765}, {"fusion_lat": 0.0, "name": "de572a2872d06654acd6719d368350a9", "is_disabled": 0, "rental_uris": {"android": "https://dc.lft.to/lastmile_qr_scan", "ios": "https://dc.lft.to/lastmile_qr_scan"}, "fusion_lon": 0.0, "lat": 38.898561, "bike_id": "de572a2872d06654acd6719d368350a9", "type": "electric_scooter", "is_reserved": 0, "lon": -76.95038266666667}, {"fusion_lat": 0.0, "name": "a5b56af6f3d81b569f13b37dd6af6cd8", "is_disabled": 0, "rental_uris": {"android": "https://dc.lft.to/lastmile_qr_scan", "ios": "https://dc.lft.to/lastmile_qr_scan"}, "fusion_lon": 0.0, "lat": 38.9110505, "bike_id": "a5b56af6f3d81b569f13b37dd6af6cd8", "type": "electric_scooter", "is_reserved": 0, "lon": -77.0419965}, {"fusion_lat": 0.0, "name": "ab773c81f8fecce2998853f3aaedf502", "is_disabled": 0, "rental_uris": {"android": "https://dc.lft.to/lastmile_qr_scan", "ios": "https://dc.lft.to/lastmile_qr_scan"}, "fusion_lon": 0.0, "lat": 38.92181016666667, "bike_id": "ab773c81f8fecce2998853f3aaedf502", "type": "electric_scooter", "is_reserved": 0, "lon": -77.03839616666667}, {"fusion_lat": 0.0, "name": "eb8fb7de9c14f8429fea4af627c39e9e", "is_disabled": 0, "rental_uris": {"android": "https://dc.lft.to/lastmile_qr_scan", "ios": "https://dc.lft.to/lastmile_qr_scan"}, "fusion_lon": 0.0, "lat": 38.87487733333333, "bike_id": "eb8fb7de9c14f8429fea4af627c39e9e", "type": "electric_scooter", "is_reserved": 0, "lon": -77.0012285}, {"fusion_lat": 0.0, "name": "685e871633d265e3fbcc1b790911b71c", "is_disabled": 0, "rental_uris": {"android": "https://dc.lft.to/lastmile_qr_scan", "ios": "https://dc.lft.to/lastmile_qr_scan"}, "fusion_lon": 0.0, "lat": 38.90979016666667, "bike_id": "685e871633d265e3fbcc1b790911b71c", "type": "electric_scooter", "is_reserved": 0, "lon": -77.03252766666667}, {"fusion_lat": 0.0, "name": "6f455625946bcbf6ea24f49a02a61ec3", "is_disabled": 0, "rental_uris": {"android": "https://dc.lft.to/lastmile_qr_scan", "ios": "https://dc.lft.to/lastmile_qr_scan"}, "fusion_lon": 0.0, "lat": 38.9162495, "bike_id": "6f455625946bcbf6ea24f49a02a61ec3", "type": "electric_scooter", "is_reserved": 0, "lon": -77.04546416666666}, {"fusion_lat": 0.0, "name": "41d298448a0ea6d06a2f665058dc6410", "is_disabled": 0, "rental_uris": {"android": "https://dc.lft.to/lastmile_qr_scan", "ios": "https://dc.lft.to/lastmile_qr_scan"}, "fusion_lon": 0.0, "lat": 38.91483566666667, "bike_id": "41d298448a0ea6d06a2f665058dc6410", "type": "electric_scooter", "is_reserved": 0, "lon": -77.04284333333334}, {"fusion_lat": 0.0, "name": "193320a67052323da23d10307b5416a9", "is_disabled": 0, "rental_uris": {"android": "https://dc.lft.to/lastmile_qr_scan", "ios": "https://dc.lft.to/lastmile_qr_scan"}, "fusion_lon": 0.0, "lat": 38.927874333333335, "bike_id": "193320a67052323da23d10307b5416a9", "type": "electric_scooter", "is_reserved": 0, "lon": -77.0225185}, {"fusion_lat": 0.0, "name": "a38eb6fba811634fc60c4dbbd6ffb0a0", "is_disabled": 0, "rental_uris": {"android": "https://dc.lft.to/lastmile_qr_scan", "ios": "https://dc.lft.to/lastmile_qr_scan"}, "fusion_lon": 0.0, "lat": 38.923188, "bike_id": "a38eb6fba811634fc60c4dbbd6ffb0a0", "type": "electric_scooter", "is_reserved": 0, "lon": -77.0440785},