{"data": {"bikes": [{"name": "4c15a2cf20723454aaf00e5d4e4b6fdd", "fusion_lat": 0.0, "type": "electric_bike", "lat": 38.966233833333334, "is_reserved": 0, "is_disabled": 0, "fusion_lon": 0.0, "bike_id": "4c15a2cf20723454aaf00e5d4e4b6fdd", "lon": -76.9766765, "rental_uris": {"ios": "https://dc.lft.to/lastmile_qr_scan", "android": "https://dc.lft.to/lastmile_qr_scan"}}, {"name": "77efb9a5937dbbd0d31e5d118d7eed4b", "fusion_lat": 0.0, "type": "electric_scooter", "lat": 38.883658833333335, "is_reserved": 0, "is_disabled": 0, "fusion_lon": 0.0, "bike_id": "77efb9a5937dbbd0d31e5d118d7eed4b", "lon": -77.03172366666666, "rental_uris": {"ios": "https://dc.lft.to/lastmile_qr_scan", "android": "https://dc.lft.to/lastmile_qr_scan"}}, {"name": "3a251a6ccf78ff2a574d58e8c5effbe6", "fusion_lat": 0.0, "type": "electric_scooter", "lat": 38.919811, "is_reserved": 0, "is_disabled": 0, "fusion_lon": 0.0, "bike_id": "3a251a6ccf78ff2a574d58e8c5effbe6", "lon": -77.03966183333333, "rental_uris": {"ios": "https://dc.lft.to/lastmile_qr_scan", "android": "https://dc.lft.to/lastmile_qr_scan"}}, {"name": "613cf402384f4ac1ff18c8029409e341", "fusion_lat": 0.0, "type": "electric_scooter", "lat": 38.9201845, "is_reserved": 0, "is_disabled": 0, "fusion_lon": 0.0, "bike_id": "613cf402384f4ac1ff18c8029409e341", "lon": -77.01410766666666, "rental_uris": {"ios": "https://dc.lft.to/lastmile_qr_scan", "android": "https://dc.lft.to/lastmile_qr_scan"}}, {"name": "34d4be45370e06beaf45a7647295bb67", "fusion_lat": 0.0, "type": "electric_scooter", "lat": 38.936307166666666, "is_reserved": 0, "is_disabled": 0, "fusion_lon": 0.0, "bike_id": "34d4be45370e06beaf45a7647295bb67", "lon": -77.036611, "rental_uris": {"ios": "https://dc.lft.to/lastmile_qr_scan", "android": "https://dc.lft.to/lastmile_qr_scan"}}, {"name": "d2fd164e443013b407c155961f2b52f0", "fusion_lat": 0.0, "type": "electric_scooter", "lat": 38.900423833333335, "is_reserved": 0, "is_disabled": 0, "fusion_lon": 0.0, "bike_id": "d2fd164e443013b407c155961f2b52f0", "lon": -77.0326795, "rental_uris": {"ios": "https://dc.lft.to/lastmile_qr_scan", "android": "https://dc.lft.to/lastmile_qr_scan"}}, {"name": "8463cf2b1ec3e89d0608689c27446ce6", "fusion_lat": 0.0, "type": "electric_scooter", "lat": 38.93470383333333, "is_reserved": 0, "is_disabled": 0, "fusion_lon": 0.0, "bike_id": "8463cf2b1ec3e89d0608689c27446ce6", "lon": -77.03255166666666, "rental_uris": {"ios": "https://dc.lft.to/lastmile_qr_scan", "android": "https://dc.lft.to/lastmile_qr_scan"}}, {"name": "737d534049c0b5228c57b2787c370d84", "fusion_lat": 0.0, "type": "electric_scooter", "lat": 38.900254833333335, "is_reserved": 0, "is_disabled": 0, "fusion_lon": 0.0, "bike_id": "737d534049c0b5228c57b2787c370d84", "lon": -77.02980966666667, "rental_uris": {"ios": "https://dc.lft.to/lastmile_qr_scan", "android": "https://dc.lft.to/lastmile_qr_scan"}}, {"name": "6e0bb9288741b1a2a176f731e5cb23f7", "fusion_lat": 0.0, "type": "electric_scooter", "lat": 38.91253283333333, "is_reserved": 0, "is_disabled": 0, "fusion_lon": 0.0, "bike_id": "6e0bb9288741b1a2a176f731e5cb23f7", "lon": -77.00954516666667, "rental_uris": {"ios": "https://dc.lft.to/lastmile_qr_scan", "android": "https://dc.lft.to/lastmile_qr_scan"}}, {"name": "18396f64ce518049cdd6c50aea6d73a3", "fusion_lat": 0.0, "type": "electric_scooter", "lat": 38.91595916666667, "is_reserved": 0, "is_disabled": 0, "fusion_lon": 0.0, "bike_id": "18396f64ce518049cdd6c50aea6d73a3", "lon": -77.04486366666667, "rental_uris": {"ios": "https://dc.lft.to/lastmile_qr_scan", "android": "https://dc.lft.to/lastmile_qr_scan"}}, {"name": "c72229c336e0233275e9c0f4e1a29fe4", "fusion_lat": 0.0, "type": "electric_bike", "lat": 38.891896, "is_reserved": 0, "is_disabled": 0, "fusion_lon": 0.0, "bike_id": "c72229c336e0233275e9c0f4e1a29fe4", "lon": -77.1226455, "rental_uris": {"ios": "https://dc.lft.to/lastmile_qr_scan", "android": "https://dc.lft.to/lastmile_qr_scan"}}, {"name": "ebe18de3f0137893765ead557fab4691", "fusion_lat": 0.0, "type": "electric_scooter", "lat": 38.933575166666664, "is_reserved": 0, "is_disabled": 0, "fusion_lon": 0.0, "bike_id": "ebe18de3f0137893765ead557fab4691", "lon": -77.03726516666667, "rental_uris": {"ios": "https://dc.lft.to/lastmile_qr_scan", "android": "https://dc.lft.to/lastmile_qr_scan"}}, {"name": "acb7158d3e8bfb0463f2e24592bc76a0", "fusion_lat": 0.0, "type": "electric_bike", "lat": 38.813032666666665, "is_reserved": 0, "is_disabled": 0, "fusion_lon": 0.0, "bike_id": "acb7158d3e8bfb0463f2e24592bc76a0", "lon": -77.11209666666667, "rental_uris": {"ios": "https://dc.lft.to/lastmile_qr_scan", "android": "https://dc.lft.to/lastmile_qr_scan"}}, {"name": "17fe3ed4e573e2ab7f7721911ddd90f1", "fusion_lat": 0.0, "type": "electric_scooter", "lat": 38.90673833333334, "is_reserved": 0, "is_disabled": 0, "fusion_lon": 0.0, "bike_id": "17fe3ed4e573e2ab7f7721911ddd90f1", "lon": -76.97814216666667, "rental_uris": {"ios": "https://dc.lft.to/lastmile_qr_scan", "android": "https://dc.lft.to/lastmile_qr_scan"}}, {"name": "a309009fecc633e79cfbc261ff2ad2a8", "fusion_lat": 0.0, "type": "electric_bike", "lat": 38.95548483333334, "is_reserved": 0, "is_disabled": 0, "fusion_lon": 0.0, "bike_id": "a309009fecc633e79cfbc261ff2ad2a8", "lon": -76.93530916666667, "rental_uris": {"ios": "https://dc.lft.to/lastmile_qr_scan", "android": "https://dc.lft.to/lastmile_qr_scan"}}, {"name": "99381aafaf78d07a241add048c8577c4", "fusion_lat": 0.0, "type": "electric_scooter", "lat": 38.88872683333334, "is_reserved": 0, "is_disabled": 0, "fusion_lon": 0.0, "bike_id": "99381aafaf78d07a241add048c8577c4", "lon": -76.9903265, "rental_uris": {"ios": "https://dc.lft.to/lastmile_qr_scan", "android": "https://dc.lft.to/lastmile_qr_scan"}}, {"name": "e2079470a8aabd711c22cff86176b4cf", "fusion_lat": 0.0, "type": "electric_bike", "lat": 38.831930166666666, "is_reserved": 0, "is_disabled": 0, "fusion_lon": 0.0, "bike_id": "e2079470a8aabd711c22cff86176b4cf", "lon": -77.076835, "rental_uris": {"ios": "https://dc.lft.to/lastmile_qr_scan", "android": "https://dc.lft.to/lastmile_qr_scan"}}, {"name": "6d2b87940b5354d42a56d6fee9c57609", "fusion_lat": 0.0, "type": "electric_scooter", "lat": 38.92584866666667, "is_reserved": 0, "is_disabled": 0, "fusion_lon": 0.0, "bike_id": "6d2b87940b5354d42a56d6fee9c57609", "lon": -77.0322745, "rental_uris": {"ios": "https://dc.lft.to/lastmile_qr_scan", "android": "https://dc.lft.to/lastmile_qr_scan"}}, {"name": "0952f4e1ce9e3f54f2aedf14b25ceeee", "fusion_lat": 0.0, "type": "electric_scooter", "lat": 38.8922085, "is_reserved": 0, "is_disabled": 0, "fusion_lon": 0.0, "bike_id": "0952f4e1ce9e3f54f2aedf14b25ceeee", "lon": -77.02412833333334, "rental_uris": {"ios": "https://dc.lft.to/lastmile_qr_scan", "android": "https://dc.lft.to/lastmile_qr_scan"}}, {"name": "eb932183c2056c322398037ced536cc1", "fusion_lat": 0.0, "type": "electric_scooter", "lat": 38.9210505, "is_reserved": 0, "is_disabled": 0, "fusion_lon": 0.0, "bike_id": "eb932183c2056c322398037ced536cc1", "lon": -77.01772583333333, "rental_uris": {"ios": "https://dc.lft.to/lastmile_qr_scan", "android": "https://dc.lft.to/lastmile_qr_scan"}}, {"name": "29cdfd56fc252ad0024c33fbf7ef3cc0", "fusion_lat": 0.0, "type": "electric_scooter", "lat": 38.91065416666667, "is_reserved": 0, "is_disabled": 0, "fusion_lon": 0.0, "bike_id": "29cdfd56fc252ad0024c33fbf7ef3cc0", "lon": -77.053277, "rental_uris": {"ios": "https://dc.lft.to/lastmile_qr_scan", "android": "https://dc.lft.to/lastmile_qr_scan"}}, {"name": "0dacd10b2dfec3255ea97c2be92e4bc7", "fusion_lat": 0.0, "type": "electric_scooter", "lat": 38.8923055, "is_reserved": 0, "is_disabled": 0, "fusion_lon": 0.0, "bike_id": "0dacd10b2dfec3255ea97c2be92e4bc7", "lon": -77.0500425, "rental_uris": {"ios": "https://dc.lft.to/lastmile_qr_scan", "android": "https://dc.lft.to/lastmile_qr_scan"}}, {"name": "1359057b2a5b6a7390f3493082c802b9", "fusion_lat": 0.0, "type": "electric_scooter", "lat": 38.902251, "is_reserved": 0, "is_disabled": 0, "fusion_lon": 0.0, "bike_id": "1359057b2a5b6a7390f3493082c802b9", "lon": -77.05131666666666, "rental_uris": {"ios": "https://dc.lft.to/lastmile_qr_scan", "android": "https://dc.lft.to/lastmile_qr_scan"}}, {"name": "a63657fdb6e880b8be5e9ba265495f5e", "fusion_lat": 0.0, "type": "electric_scooter", "lat": 38.92062833333333, "is_reserved": 0, "is_disabled": 0, "fusion_lon": 0.0, "bike_id": "a63657fdb6e880b8be5e9ba265495f5e", "lon": -77.0438245, "rental_uris": {"ios": "https://dc.lft.to/lastmile_qr_scan", "android": "https://dc.lft.to/lastmile_qr_scan"}}, {"name": "2916518c9e2972c932051c088aaddc00", "fusion_lat": 0.0, "type": "electric_scooter", "lat": 38.9171435, "is_reserved": 0, "is_disabled": 0, "fusion_lon": 0.0, "bike_id": "2916518c9e2972c932051c088aaddc00", "lon": -77.02906983333334, "rental_uris": {"ios": "https://dc.lft.to/lastmile_qr_scan", "android": "https://dc.lft.to/lastmile_qr_scan"}}, {"name": "798a876c72b8b0a7732b33e329de2ff0", "fusion_lat": 0.0, "type": "electric_scooter", "lat": 38.9205905, "is_reserved": 0, "is_disabled": 0, "fusion_lon": 0.0, "bike_id": "798a876c72b8b0a7732b33e329de2ff0", "lon": -77.04376383333333, "rental_uris": {"ios": "https://dc.lft.to/lastmile_qr_scan", "android": "https://dc.lft.to/lastmile_qr_scan"}}, {"name": "82567d0a081d1d9823a70fd03e3f45ef", "fusion_lat": 0.0, "type": "electric_scooter", "lat": 38.905747833333336, "is_reserved": 0, "is_disabled": 0, "fusion_lon": 0.0, "bike_id": "82567d0a081d1d9823a70fd03e3f45ef", "lon": -77.04878616666667, "rental_uris": {"ios": "https://dc.lft.to/lastmile_qr_scan", "android": "https://dc.lft.to/lastmile_qr_scan"}}, {"name": "67eaeab72fd74da4066f9e341e5f9945", "fusion_lat": 0.0, "type": "electric_scooter", "lat": 38.886818, "is_reserved": 0, "is_disabled": 0, "fusion_lon": 0.0, "bike_id": "67eaeab72fd74da4066f9e341e5f9945", "lon": -76.957586, "rental_uris": {"ios": "https://dc.lft.to/lastmile_qr_scan", "android": "https://dc.lft.to/lastmile_qr_scan"}}, {"name": "48142f4fe19cc0021c93a54d3a42fa58", "fusion_lat": 0.0, "type": "electric_bike", "lat": 38.941978166666665, "is_reserved": 0, "is_disabled": 0, "fusion_lon": 0.0, "bike_id": "48142f4fe19cc0021c93a54d3a42fa58", "lon": -77.032789, "rental_uris": {"ios": "https://dc.lft.to/lastmile_qr_scan", "android": "https://dc.lft.to/lastmile_qr_scan"}}, {"name": "87e5c3dedd4021dd16cb9c967a714e89", "fusion_lat": 0.0, "type": "electric_scooter", "lat": 38.86892816666666, "is_reserved": 0, "is_disabled": 0, "fusion_lon": 0.0, "bike_id": "87e5c3dedd4021dd16cb9c967a714e89", "lon": -76.98308816666666, "rental_uris": {"ios": "https://dc.lft.to/lastmile_qr_scan", "android": "https://dc.lft.to/lastmile_qr_scan"}}, {"name": "a01751cf2b55a3693a479cd297f21e92", "fusion_lat": 0.0, "type": "electric_scooter", "lat": 38.92034066666667, "is_reserved": 0, "is_disabled": 0, "fusion_lon": 0.0, "bike_id": "a01751cf2b55a3693a479cd297f21e92", "lon": -77.02583883333334, "rental_uris": {"ios": "https://dc.lft.to/lastmile_qr_scan", "android": "https://dc.lft.to/lastmile_qr_scan"}}, {"name": "8a0d01676430ee4e83a6cbd85574c79d", "fusion_lat": 0.0, "type": "electric_scooter", "lat": 38.94176316666667, "is_reserved": 0, "is_disabled": 0, "fusion_lon": 0.0, "bike_id": "8a0d01676430ee4e83a6cbd85574c79d", "lon": -77.02512933333334, "rental_uris": {"ios": "https://dc.lft.to/lastmile_qr_scan", "android": "https://dc.lft.to/lastmile_qr_scan"}}, {"name": "c769d59da21b810a41da509c8297c33b", "fusion_lat": 0.0, "type": "electric_scooter", "lat": 38.858503666666664, "is_reserved": 0, "is_disabled": 0, "fusion_lon": 0.0, "bike_id": "c769d59da21b810a41da509c8297c33b", "lon": -76.95880716666667, "rental_uris": {"ios": "https://dc.lft.to/lastmile_qr_scan", "android": "https://dc.lft.to/lastmile_qr_scan"}}, {"name": "db2a1df3fa3a29d17d93ed9a90da6f10", "fusion_lat": 0.0, "type": "electric_scooter", "lat": 38.91707533333334, "is_reserved": 0, "is_disabled": 0, "fusion_lon": 0.0, "bike_id": "db2a1df3fa3a29d17d93ed9a90da6f10", "lon": -77.02786183333333, "rental_uris": {"ios": "https://dc.lft.to/lastmile_qr_scan", "android": "https://dc.lft.to/lastmile_qr_scan"}}, {"name": "b3fcd8786c7692342d0f9016bd16dd3a", "fusion_lat": 0.0, "type": "electric_scooter", "lat": 38.90485533333333, "is_reserved": 0, "is_disabled": 0, "fusion_lon": 0.0, "bike_id": "b3fcd8786c7692342d0f9016bd16dd3a", "lon": -77.06542366666666, "rental_uris": {"ios": "https://dc.lft.to/lastmile_qr_scan", "android": "https://dc.lft.to/lastmile_qr_scan"}}, {"name": "968977dc534c7993202282bca61ab35e", "fusion_lat": 0.0, "type": "electric_scooter", "lat": 38.88277433333333, "is_reserved": 0, "is_disabled": 0, "fusion_lon": 0.0, "bike_id": "968977dc534c7993202282bca61ab35e", "lon": -76.9983515, "rental_uris": {"ios": "https://dc.lft.to/lastmile_qr_scan", "android": "https://dc.lft.to/lastmile_qr_scan"}}, {"name": "cb417d9e7ecb6245285a6b8194a42079", "fusion_lat": 0.0, "type": "electric_scooter", "lat": 38.9096605, "is_reserved": 0, "is_disabled": 0, "fusion_lon": 0.0, "bike_id": "cb417d9e7ecb6245285a6b8194a42079", "lon": -77.04590566666667, "rental_uris": {"ios": "https://dc.lft.to/lastmile_qr_scan", "android": "https://dc.lft.to/lastmile_qr_scan"}}, {"name": "6f73cdb3429bbcbf5d2d8f076f21994e", "fusion_lat": 0.0, "type": "electric_bike", "lat": 38.9356855, "is_reserved": 0, "is_disabled": 0, "fusion_lon": 0.0, "bike_id": "6f73cdb3429bbcbf5d2d8f076f21994e", "lon": -77.1044155, "rental_uris": {"ios": "https://dc.lft.to/lastmile_qr_scan", "android": "https://dc.lft.to/lastmile_qr_scan"}}, {"name": "739a34b94797a9f68ce502a0b8b7bffa", "fusion_lat": 0.0, "type": "electric_scooter", "lat": 38.9060895, "is_reserved": 0, "is_disabled": 0, "fusion_lon": 0.0, "bike_id": "739a34b94797a9f68ce502a0b8b7bffa", "lon": -77.02406933333333, "rental_uris": {"ios": "https://dc.lft.to/lastmile_qr_scan", "android": "https://dc.lft.to/lastmile_qr_scan"}}, {"name": "d4e4139273bc8171b997f89d279412c5", "fusion_lat": 0.0, "type": "electric_scooter", "lat": 38.903609333333335, "is_reserved": 0, "is_disabled": 0, "fusion_lon": 0.0, "bike_id": "d4e4139273bc8171b997f89d279412c5", "lon": -77.0110035, "rental_uris": {"ios": "https://dc.lft.to/lastmile_qr_scan", "android": "https://dc.lft.to/lastmile_qr_scan"}}, {"name": "55c8e59d0a4c0f1fdd99f730d228ce69", "fusion_lat": 0.0, "type": "electric_scooter", "lat": 38.9026885, "is_reserved": 0, "is_disabled": 0, "fusion_lon": 0.0, "bike_id": "55c8e59d0a4c0f1fdd99f730d228ce69", "lon": -76.99859566666666, "rental_uris": {"ios": "https://dc.lft.to/lastmile_qr_scan", "android": "https://dc.lft.to/lastmile_qr_scan"}}, {"name": "6a7a5b38e21d0bcbdc635f9254f25f39", "fusion_lat": 0.0, "type": "electric_scooter", "lat": 38.895003, "is_reserved": 0, "is_disabled": 0, "fusion_lon": 0.0, "bike_id": "6a7a5b38e21d0bcbdc635f9254f25f39", "lon": -77.04285283333333, "rental_uris": {"ios": "https://dc.lft.to/lastmile_qr_scan", "android": "https://dc.lft.to/lastmile_qr_scan"}}, {"name": "6ea4ef9d353032cee83aab5619a64e90", "fusion_lat": 0.0, "type": "electric_scooter", "lat": 38.909350333333336, "is_reserved": 0, "is_disabled": 0, "fusion_lon": 0.0, "bike_id": "6ea4ef9d353032cee83aab5619a64e90", "lon": -77.03452083333333, "rental_uris": {"ios": "https://dc.lft.to/lastmile_qr_scan", "android": "https://dc.lft.to/lastmile_qr_scan"}}, {"name": "3f0cf61f3fa1e44d2bbf203fb937bb6a", "fusion_lat": 0.0, "type": "electric_scooter", "lat": 38.918708333333335, "is_reserved": 0, "is_disabled": 0, "fusion_lon": 0.0, "bike_id": "3f0cf61f3fa1e44d2bbf203fb937bb6a", "lon": -77.03668166666667, "rental_uris": {"ios": "https://dc.lft.to/lastmile_qr_scan", "android": "https://dc.lft.to/lastmile_qr_scan"}}, {"name": "fcaa15e83b684dc6a3612d5417bde7d8", "fusion_lat": 0.0, "type": "electric_scooter", "lat": 38.901517, "is_reserved": 0, "is_disabled": 0, "fusion_lon": 0.0, "bike_id": "fcaa15e83b684dc6a3612d5417bde7d8", "lon": -76.93064566666666, "rental_uris": {"ios": "https://dc.lft.to/lastmile_qr_scan", "android": "https://dc.lft.to/lastmile_qr_scan"}}, {"name": "62a069e3eb37c923015d52f13c582b66", "fusion_lat": 0.0, "type": "electric_bike", "lat": 38.906852, "is_reserved": 0, "is_disabled": 0, "fusion_lon": 0.0, "bike_id": "62a069e3eb37c923015d52f13c582b66", "lon": -76.95184066666667, "rental_uris": {"ios": "https://dc.lft.to/lastmile_qr_scan", "android": "https://dc.lft.to/lastmile_qr_scan"}}, {"name": "2c8b9c6becb3cb0d61403a263efc15f8", "fusion_lat": 0.0, "type": "electric_scooter", "lat": 38.88654, "is_reserved": 0, "is_disabled": 0, "fusion_lon": 0.0, "bike_id": "2c8b9c6becb3cb0d61403a263efc15f8", "lon": -77.01377333333333, "rental_uris": {"ios": "https://dc.lft.to/lastmile_qr_scan", "android": "https://dc.lft.to/lastmile_qr_scan"}}, {"name": "1500b4e1032078512d09d65f63bcb196", "fusion_lat": 0.0, "type": "electric_bike", "lat": 38.802208666666665, "is_reserved": 0, "is_disabled": 0, "fusion_lon": 0.0, "bike_id": "1500b4e1032078512d09d65f63bcb196", "lon": -77.07916516666667, "rental_uris": {"ios": "https://dc.lft.to/lastmile_qr_scan", "android": "https://dc.lft.to/lastmile_qr_scan"}}, {"name": "fcb4142fe69e282630900c15a678e0a6", "fusion_lat": 0.0, "type": "electric_scooter", "lat": 38.952732, "is_reserved": 0, "is_disabled": 0, "fusion_lon": 0.0, "bike_id": "fcb4142fe69e282630900c15a678e0a6", "lon": -77.07148733333334, "rental_uris": {"ios": "https://dc.lft.to/lastmile_qr_scan", "android": "https://dc.lft.to/lastmile_qr_scan"}}, {"name": "06d242f9088a18467f82c75d499d6f01", "fusion_lat": 0.0, "type": "electric_scooter", "lat": 38.9003905, "is_reserved": 0, "is_disabled": 0, "fusion_lon": 0.0, "bike_id": "06d242f9088a18467f82c75d499d6f01", "lon": -77.00194116666667, "rental_uris": {"ios": "https://dc.lft.to/lastmile_qr_scan", "android": "https://dc.lft.to/lastmile_qr_scan"}}, {"name": "92751f9c366459043041dd9c673042b1", "fusion_lat": 0.0, "type": "electric_bike", "lat": 38.865921166666666, "is_reserved": 0, "is_disabled": 0, "fusion_lon": 0.0, "bike_id": "92751f9c366459043041dd9c673042b1", "lon": -76.9322935, "rental_uris": {"ios": "https://dc.lft.to/lastmile_qr_scan", "android": "https://dc.lft.to/lastmile_qr_scan"}}, {"name": "0b38f4e47b5581e2271ca265c6ccc7e3", "fusion_lat": 0.0, "type": "electric_bike", "lat": 38.8521505, "is_reserved": 0, "is_disabled": 0, "fusion_lon": 0.0, "bike_id": "0b38f4e47b5581e2271ca265c6ccc7e3", "lon": -77.12965366666667, "rental_uris": {"ios": "https://dc.lft.to/lastmile_qr_scan", "android": "https://dc.lft.to/lastmile_qr_scan"}}, {"name": "2eaa891bcf5647760224e78b85c3b601", "fusion_lat": 0.0, "type": "electric_scooter", "lat": 38.878383166666666, "is_reserved": 0, "is_disabled": 0, "fusion_lon": 0.0, "bike_id": "2eaa891bcf5647760224e78b85c3b601", "lon": -77.0228095, "rental_uris": {"ios": "https://dc.lft.to/lastmile_qr_scan", "android": "https://dc.lft.to/lastmile_qr_scan"}}, {"name": "7629b0a534bdd386ac070d0b048a971c", "fusion_lat": 0.0, "type": "electric_scooter", "lat": 38.90063933333333, "is_reserved": 0, "is_disabled": 0, "fusion_lon": 0.0, "bike_id": "7629b0a534bdd386ac070d0b048a971c", "lon": -76.947617, "rental_uris": {"ios": "https://dc.lft.to/lastmile_qr_scan", "android": "https://dc.lft.to/lastmile_qr_scan"}}, {"name": "54ff76f994606586a44f4b445ccbc029", "fusion_lat": 0.0, "type": "electric_scooter", "lat": 38.88385366666667, "is_reserved": 0, "is_disabled": 0, "fusion_lon": 0.0, "bike_id": "54ff76f994606586a44f4b445ccbc029", "lon": -76.98550266666666, "rental_uris": {"ios": "https://dc.lft.to/lastmile_qr_scan", "android": "https://dc.lft.to/lastmile_qr_scan"}}, {"name": "1138b530a4d393c5977f0ff8da0a20f0", "fusion_lat": 0.0, "type": "electric_scooter", "lat": 38.89389083333333, "is_reserved": 0, "is_disabled": 0, "fusion_lon": 0.0, "bike_id": "1138b530a4d393c5977f0ff8da0a20f0", "lon": -77.05475883333334, "rental_uris": {"ios": "https://dc.lft.to/lastmile_qr_scan", "android": "https://dc.lft.to/lastmile_qr_scan"}}, {"name": "9489f93b55a2302c4a8d4de8e5ddac6d", "fusion_lat": 0.0, "type": "electric_scooter", "lat": 38.895558666666666, "is_reserved": 0, "is_disabled": 0, "fusion_lon": 0.0, "bike_id": "9489f93b55a2302c4a8d4de8e5ddac6d", "lon": -76.9837325, "rental_uris": {"ios": "https://dc.lft.to/lastmile_qr_scan", "android": "https://dc.lft.to/lastmile_qr_scan"}}, {"name": "342618d01cb21963abfb8a2e89c448f9", "fusion_lat": 0.0, "type": "electric_scooter", "lat": 38.880450833333335, "is_reserved": 0, "is_disabled": 0, "fusion_lon": 0.0, "bike_id": "342618d01cb21963abfb8a2e89c448f9", "lon": -76.95986683333334, "rental_uris": {"ios": "https://dc.lft.to/lastmile_qr_scan", "android": "https://dc.lft.to/lastmile_qr_scan"}}, {"name": "8e85d3c5ed221a0c7ca5165e75026d8e", "fusion_lat": 0.0, "type": "electric_scooter", "lat": 38.903338166666664, "is_reserved": 0, "is_disabled": 0, "fusion_lon": 0.0, "bike_id": "8e85d3c5ed221a0c7ca5165e75026d8e", "lon": -76.97104533333334, "rental_uris": {"ios": "https://dc.lft.to/lastmile_qr_scan", "android": "https://dc.lft.to/lastmile_qr_scan"}}, {"name": "641d4a4229b5ee2c47611eb0f541345c", "fusion_lat": 0.0, "type": "electric_scooter", "lat": 38.87835183333333, "is_reserved": 0, "is_disabled": 0, "fusion_lon": 0.0, "bike_id": "641d4a4229b5ee2c47611eb0f541345c", "lon": -77.02267466666666, "rental_uris": {"ios": "https://dc.lft.to/lastmile_qr_scan", "android": "https://dc.lft.to/lastmile_qr_scan"}}, {"name": "ce30dcc78acb7218f68cb06e8130b564", "fusion_lat": 0.0, "type": "electric_bike", "lat": 38.984603666666665, "is_reserved": 0, "is_disabled": 0, "fusion_lon": 0.0, "bike_id": "ce30dcc78acb7218f68cb06e8130b564", "lon": -76.95525283333333, "rental_uris": {"ios": "https://dc.lft.to/lastmile_qr_scan", "android": "https://dc.lft.to/lastmile_qr_scan"}}, {"name": "bf3fa3771019094c54ca2cbb16af76df", "fusion_lat": 0.0, "type": "electric_scooter", "lat": 38.93914483333333, "is_reserved": 0, "is_disabled": 0, "fusion_lon": 0.0, "bike_id": "bf3fa3771019094c54ca2cbb16af76df", "lon": -77.03658616666667, "rental_uris": {"ios": "https://dc.lft.to/lastmile_qr_scan", "android": "https://dc.lft.to/lastmile_qr_scan"}}, {"name": "87d031146a95f61436941ab15bf6bb0e", "fusion_lat": 0.0, "type": "electric_scooter", "lat": 38.93058166666667, "is_reserved": 0, "is_disabled": 0, "fusion_lon": 0.0, "bike_id": "87d031146a95f61436941ab15bf6bb0e", "lon": -77.02321616666667, "rental_uris": {"ios": "https://dc.lft.to/lastmile_qr_scan", "android": "https://dc.lft.to/lastmile_qr_scan"}}, {"name": "5cd153aa3d70e7a1759f1858019a4ec7", "fusion_lat": 0.0, "type": "electric_bike", "lat": 39.0885985, "is_reserved": 0, "is_disabled": 0, "fusion_lon": 0.0, "bike_id": "5cd153aa3d70e7a1759f1858019a4ec7", "lon": -77.1783595, "rental_uris": {"ios": "https://dc.lft.to/lastmile_qr_scan", "android": "https://dc.lft.to/lastmile_qr_scan"}}, {"name": "1242efdbd4d38097c2dffc55b6cec8f8", "fusion_lat": 0.0, "type": "electric_bike", "lat": 38.935225, "is_reserved": 0, "is_disabled": 0, "fusion_lon": 0.0, "bike_id": "1242efdbd4d38097c2dffc55b6cec8f8", "lon": -76.95066433333334, "rental_uris": {"ios": "https://dc.lft.to/lastmile_qr_scan", "android": "https://dc.lft.to/lastmile_qr_scan"}}, {"name": "5509cf72f71d3ea571bf7a0683dbc27e", "fusion_lat": 0.0, "type": "electric_scooter", "lat": 38.865368833333335, "is_reserved": 0, "is_disabled": 0, "fusion_lon": 0.0, "bike_id": "5509cf72f71d3ea571bf7a0683dbc27e", "lon": -76.98707683333333, "rental_uris": {"ios": "https://dc.lft.to/lastmile_qr_scan", "android": "https://dc.lft.to/lastmile_qr_scan"}}, {"name": "49faf1f54a5f510acde16a1fc87e0eab", "fusion_lat": 0.0, "type": "electric_scooter", "lat": 38.90263733333333, "is_reserved": 0, "is_disabled": 0, "fusion_lon": 0.0, "bike_id": "49faf1f54a5f510acde16a1fc87e0eab", "lon": -76.987129, "rental_uris": {"ios": "https://dc.lft.to/lastmile_qr_scan", "android": "https://dc.lft.to/lastmile_qr_scan"}}, {"name": "2ec67fa2801e9102a64f31f7585a6e4c", "fusion_lat": 0.0, "type": "electric_scooter", "lat": 38.90697633333333, "is_reserved": 0, "is_disabled": 0, "fusion_lon": 0.0, "bike_id": "2ec67fa2801e9102a64f31f7585a6e4c", "lon": -77.0298295, "rental_uris": {"ios": "https://dc.lft.to/lastmile_qr_scan", "android": "https://dc.lft.to/lastmile_qr_scan"}}, {"name": "6f0522ad84f5e5ad41a61fdc45fa2596", "fusion_lat": 0.0, "type": "electric_bike", "lat": 39.0531695, "is_reserved": 0, "is_disabled": 0, "fusion_lon": 0.0, "bike_id": "6f0522ad84f5e5ad41a61fdc45fa2596", "lon": -77.04775, "rental_uris": {"ios": "https://dc.lft.to/lastmile_qr_scan", "android": "https://dc.lft.to/lastmile_qr_scan"}}, {"name": "287930edc1dbae3f08bdc0ee6c65d203", "fusion_lat": 0.0, "type": "electric_scooter", "lat": 38.86693483333333, "is_reserved": 0, "is_disabled": 0, "fusion_lon": 0.0, "bike_id": "287930edc1dbae3f08bdc0ee6c65d203", "lon": -76.9890255, "rental_uris": {"ios": "https://dc.lft.to/lastmile_qr_scan", "android": "https://dc.lft.to/lastmile_qr_scan"}}, {"name": "3f1e6c9e1999aa6fe1d70d0e9123d67d", "fusion_lat": 0.0, "type": "electric_bike", "lat": 38.91009666666667, "is_reserved": 0, "is_disabled": 0, "fusion_lon": 0.0, "bike_id": "3f1e6c9e1999aa6fe1d70d0e9123d67d", "lon": -77.0401295, "rental_uris": {"ios": "https://dc.lft.to/lastmile_qr_scan", "android": "https://dc.lft.to/lastmile_qr_scan"}}, {"name": "3d165ae0bae144742c8cca5530099c1c", "fusion_lat": 0.0, "type": "electric_scooter", "lat": 38.93000966666666, "is_reserved": 0, "is_disabled": 0, "fusion_lon": 0.0, "bike_id": "3d165ae0bae144742c8cca5530099c1c", "lon": -77.0230605, "rental_uris": {"ios": "https://dc.lft.to/lastmile_qr_scan", "android": "https://dc.lft.to/lastmile_qr_scan"}}, {"name": "70390b13d841f537afd7664464a845ef", "fusion_lat": 0.0, "type": "electric_scooter", "lat": 38.898405333333336, "is_reserved": 0, "is_disabled": 0, "fusion_lon": 0.0, "bike_id": "70390b13d841f537afd7664464a845ef", "lon": -77.029338, "rental_uris": {"ios": "https://dc.lft.to/lastmile_qr_scan", "android": "https://dc.lft.to/lastmile_qr_scan"}}, {"name": "46469d8130c4c8d2f2c5680c886481e5", "fusion_lat": 0.0, "type": "electric_scooter", "lat": 38.90957483333333, "is_reserved": 0, "is_disabled": 0, "fusion_lon": 0.0, "bike_id": "46469d8130c4c8d2f2c5680c886481e5", "lon": -77.02344433333333, "rental_uris": {"ios": "https://dc.lft.to/lastmile_qr_scan", "android": "https://dc.lft.to/lastmile_qr_scan"}}, {"name": "b83c9e6478c3b55d675aba45aded5852", "fusion_lat": 0.0, "type": "electric_scooter", "lat": 38.89045683333333, "is_reserved": 0, "is_disabled": 0, "fusion_lon": 0.0, "bike_id": "b83c9e6478c3b55d675aba45aded5852", "lon": -76.9375215, "rental_uris": {"ios": "https://dc.lft.to/lastmile_qr_scan", "android": "https://dc.lft.to/lastmile_qr_scan"}}, {"name": "38026a17e1a26a263523ce179a4b4ca0", "fusion_lat": 0.0, "type": "electric_scooter", "lat": 38.9234305, "is_reserved": 0, "is_disabled": 0, "fusion_lon": 0.0, "bike_id": "38026a17e1a26a263523ce179a4b4ca0", "lon": -77.03221316666666, "rental_uris": {"ios": "https://dc.lft.to/lastmile_qr_scan", "android": "https://dc.lft.to/lastmile_qr_scan"}}, {"name": "a58d065319599cdb61451b4bbcedade9", "fusion_lat": 0.0, "type": "electric_scooter", "lat": 38.879276, "is_reserved": 0, "is_disabled": 0, "fusion_lon": 0.0, "bike_id": "a58d065319599cdb61451b4bbcedade9", "lon": -77.00526983333333, "rental_uris": {"ios": "https://dc.lft.to/lastmile_qr_scan", "android": "https://dc.lft.to/lastmile_qr_scan"}}, {"name": "f0469455b7eef610a6e1333dbd969282", "fusion_lat": 0.0, "type": "electric_scooter", "lat": 38.94175966666667, "is_reserved": 0, "is_disabled": 0, "fusion_lon": 0.0, "bike_id": "f0469455b7eef610a6e1333dbd969282", "lon": -77.02510566666666, "rental_uris": {"ios": "https://dc.lft.to/lastmile_qr_scan", "android": "https://dc.lft.to/lastmile_qr_scan"}}, {"name": "b092fb840b36f7aa77903ee8a07c1f32", "fusion_lat": 0.0, "type": "electric_scooter", "lat": 38.864160166666665, "is_reserved": 0, "is_disabled": 0, "fusion_lon": 0.0, "bike_id": "b092fb840b36f7aa77903ee8a07c1f32", "lon": -76.9805305, "rental_uris": {"ios": "https://dc.lft.to/lastmile_qr_scan", "android": "https://dc.lft.to/lastmile_qr_scan"}}, {"name": "6621fdef368463e97405992d804fb0aa", "fusion_lat": 0.0, "type": "electric_bike", "lat": 38.89635716666667, "is_reserved": 0, "is_disabled": 0, "fusion_lon": 0.0, "bike_id": "6621fdef368463e97405992d804fb0aa", "lon": -77.1045335, "rental_uris": {"ios": "https://dc.lft.to/lastmile_qr_scan", "android": "https://dc.lft.to/lastmile_qr_scan"}}, {"name": "3b9ab8c0e8b4cb2889bc2aff8f596efe", "fusion_lat": 0.0, "type": "electric_scooter", "lat": 38.9074715, "is_reserved": 0, "is_disabled": 0, "fusion_lon": 0.0, "bike_id": "3b9ab8c0e8b4cb2889bc2aff8f596efe", "lon": -76.98334983333334, "rental_uris": {"ios": "https://dc.lft.to/lastmile_qr_scan", "android": "https://dc.lft.to/lastmile_qr_scan"}}, {"name": "e9798bce9f5e23e68ca66998e0a557b1", "fusion_lat": 0.0, "type": "electric_scooter", "lat": 38.86818516666666, "is_reserved": 0, "is_disabled": 0, "fusion_lon": 0.0, "bike_id": "e9798bce9f5e23e68ca66998e0a557b1", "lon": -76.98618366666666, "rental_uris": {"ios": "https://dc.lft.to/lastmile_qr_scan", "android": "https://dc.lft.to/lastmile_qr_scan"}}, {"name": "db622d8a3c5bbf9ca5c7ea50b2a882c4", "fusion_lat": 0.0, "type": "electric_bike", "lat": 38.8960925, "is_reserved": 0, "is_disabled": 0, "fusion_lon": 0.0, "bike_id": "db622d8a3c5bbf9ca5c7ea50b2a882c4", "lon": -76.9884325, "rental_uris": {"ios": "https://dc.lft.to/lastmile_qr_scan", "android": "https://dc.lft.to/lastmile_qr_scan"}}, {"name": "9f76ad98852c07385b3ba9ab2c1f58a8", "fusion_lat": 0.0, "type": "electric_scooter", "lat": 38.933973, "is_reserved": 0, "is_disabled": 0, "fusion_lon": 0.0, "bike_id": "9f76ad98852c07385b3ba9ab2c1f58a8", "lon": -77.03152716666666, "rental_uris": {"ios": "https://dc.lft.to/lastmile_qr_scan", "android": "https://dc.lft.to/lastmile_qr_scan"}}, {"name": "98c802ce7fcd9724d7b4d613ddca857d", "fusion_lat": 0.0, "type": "electric_scooter", "lat": 38.87881866666667, "is_reserved": 0, "is_disabled": 0, "fusion_lon": 0.0, "bike_id": "98c802ce7fcd9724d7b4d613ddca857d", "lon": -76.96546016666667, "rental_uris": {"ios": "https://dc.lft.to/lastmile_qr_scan", "android": "https://dc.lft.to/lastmile_qr_scan"}}, {"name": "8fd863ed56228bc7d4b2603893239e50", "fusion_lat": 0.0, "type": "electric_scooter", "lat": 38.92656366666667, "is_reserved": 0, "is_disabled": 0, "fusion_lon": 0.0, "bike_id": "8fd863ed56228bc7d4b2603893239e50", "lon": -77.02435033333333, "rental_uris": {"ios": "https://dc.lft.to/lastmile_qr_scan", "android": "https://dc.lft.to/lastmile_qr_scan"}}, {"name": "313a8333a2ddb2f35abe4f4186cb5e2c", "fusion_lat": 0.0, "type": "electric_scooter", "lat": 38.920333166666666, "is_reserved": 0, "is_disabled": 0, "fusion_lon": 0.0, "bike_id": "313a8333a2ddb2f35abe4f4186cb5e2c", "lon": -77.025817, "rental_uris": {"ios": "https://dc.lft.to/lastmile_qr_scan", "android": "https://dc.lft.to/lastmile_qr_scan"}}, {"name": "e69448963a8a43dac4de173899564e7e", "fusion_lat": 0.0, "type": "electric_scooter", "lat": 38.91781966666667, "is_reserved": 0, "is_disabled": 0, "fusion_lon": 0.0, "bike_id": "e69448963a8a43dac4de173899564e7e", "lon": -77.03218816666667, "rental_uris": {"ios": "https://dc.lft.to/lastmile_qr_scan", "android": "https://dc.lft.to/lastmile_qr_scan"}}, {"name": "0d552e2729db220e754c7a4cf6b87c92", "fusion_lat": 0.0, "type": "electric_scooter", "lat": 38.9153725, "is_reserved": 0, "is_disabled": 0, "fusion_lon": 0.0, "bike_id": "0d552e2729db220e754c7a4cf6b87c92", "lon": -77.019722, "rental_uris": {"ios": "https://dc.lft.to/lastmile_qr_scan", "android": "https://dc.lft.to/lastmile_qr_scan"}}, {"name": "8aeb1d9398c26090d56838d0d090e0d8", "fusion_lat": 0.0, "type": "electric_scooter", "lat": 38.918, "is_reserved": 0, "is_disabled": 0, "fusion_lon": 0.0, "bike_id": "8aeb1d9398c26090d56838d0d090e0d8", "lon": -77.02815916666667, "rental_uris": {"ios": "https://dc.lft.to/lastmile_qr_scan", "android": "https://dc.lft.to/lastmile_qr_scan"}}, {"name": "557006d7e0f5811f714974dc3c23d127", "fusion_lat": 0.0, "type": "electric_scooter", "lat": 38.898865, "is_reserved": 0, "is_disabled": 0, "fusion_lon": 0.0, "bike_id": "557006d7e0f5811f714974dc3c23d127", "lon": -76.93172033333333, "rental_uris": {"ios": "https://dc.lft.to/lastmile_qr_scan", "android": "https://dc.lft.to/lastmile_qr_scan"}}, {"name": "873e7c85f10b5be0a0be8095351ca48a", "fusion_lat": 0.0, "type": "electric_scooter", "lat": 38.905144166666666, "is_reserved": 0, "is_disabled": 0, "fusion_lon": 0.0, "bike_id": "873e7c85f10b5be0a0be8095351ca48a", "lon": -77.05018883333334, "rental_uris": {"ios": "https://dc.lft.to/lastmile_qr_scan", "android": "https://dc.lft.to/lastmile_qr_scan"}}, {"name": "51d132ac08f6f793b1449559871ddfb7", "fusion_lat": 0.0, "type": "electric_bike", "lat": 38.83236083333333, "is_reserved": 0, "is_disabled": 0, "fusion_lon": 0.0, "bike_id": "51d132ac08f6f793b1449559871ddfb7", "lon": -76.9462055, "rental_uris": {"ios": "https://dc.lft.to/lastmile_qr_scan", "android": "https://dc.lft.to/lastmile_qr_scan"}}, {"name": "e15ef60add075c20818146ad9cc764d8", "fusion_lat": 0.0, "type": "electric_bike", "lat": 38.9526765, "is_reserved": 0, "is_disabled": 0, "fusion_lon": 0.0, "bike_id": "e15ef60add075c20818146ad9cc764d8", "lon": -77.06976483333334, "rental_uris": {"ios": "https://dc.lft.to/lastmile_qr_scan", "android": "https://dc.lft.to/lastmile_qr_scan"}}, {"name": "be5244b9881873b381152a283a38b939", "fusion_lat": 0.0, "type": "electric_scooter", "lat": 38.933361833333336, "is_reserved": 0, "is_disabled": 0, "fusion_lon": 0.0, "bike_id": "be5244b9881873b381152a283a38b939", "lon": -77.04364116666666, "rental_uris": {"ios": "https://dc.lft.to/lastmile_qr_scan", "android": "https://dc.lft.to/lastmile_qr_scan"}}, {"name": "b3952931b5f52bf6107457ba81ef7e6e", "fusion_lat": 0.0, "type": "electric_scooter", "lat": 38.901590666666664, "is_reserved": 0, "is_disabled": 0, "fusion_lon": 0.0, "bike_id": "b3952931b5f52bf6107457ba81ef7e6e", "lon": -77.0161735, "rental_uris": {"ios": "https://dc.lft.to/lastmile_qr_scan", "android": "https://dc.lft.to/lastmile_qr_scan"}}, {"name": "c206d904b7c139f039b80f44ceef9cc1", "fusion_lat": 0.0, "type": "electric_scooter", "lat": 38.892964666666664, "is_reserved": 0, "is_disabled": 0, "fusion_lon": 0.0, "bike_id": "c206d904b7c139f039b80f44ceef9cc1", "lon": -76.9393115, "rental_uris": {"ios": "https://dc.lft.to/lastmile_qr_scan", "android": "https://dc.lft.to/lastmile_qr_scan"}}, {"name": "38d83fe39af962e50d2f5789ebbc824f", "fusion_lat": 0.0, "type": "electric_bike", "lat": 38.928777333333336, "is_reserved": 0, "is_disabled": 0, "fusion_lon": 0.0, "bike_id": "38d83fe39af962e50d2f5789ebbc824f", "lon": -77.04260483333333, "rental_uris": {"ios": "https://dc.lft.to/lastmile_qr_scan", "android": "https://dc.lft.to/lastmile_qr_scan"}}, {"name": "150bd4a87a4c3d03b3db688517d5053c", "fusion_lat": 0.0, "type": "electric_scooter", "lat": 38.91818683333333, "is_reserved": 0, "is_disabled": 0, "fusion_lon": 0.0, "bike_id": "150bd4a87a4c3d03b3db688517d5053c", "lon": -77.04015133333333, "rental_uris": {"ios": "https://dc.lft.to/lastmile_qr_scan", "android": "https://dc.lft.to/lastmile_qr_scan"}}, {"name": "a5782003acd515bdbf9afcb50550c0d9", "fusion_lat": 0.0, "type": "electric_scooter", "lat": 38.909051166666664, "is_reserved": 0, "is_disabled": 0, "fusion_lon": 0.0, "bike_id": "a5782003acd515bdbf9afcb50550c0d9", "lon": -77.03466783333333, "rental_uris": {"ios": "https://dc.lft.to/lastmile_qr_scan", "android": "https://dc.lft.to/lastmile_qr_scan"}}, {"name": "7b7b58515df95d841dd30820438007b4", "fusion_lat": 0.0, "type": "electric_scooter", "lat": 38.89913, "is_reserved": 0, "is_disabled": 0, "fusion_lon": 0.0, "bike_id": "7b7b58515df95d841dd30820438007b4", "lon": -77.03914883333333, "rental_uris": {"ios": "https://dc.lft.to/lastmile_qr_scan", "android": "https://dc.lft.to/lastmile_qr_scan"}}, {"name": "65430b7f25c4cf8db44f3568b54d16bb", "fusion_lat": 0.0, "type": "electric_scooter", "lat": 38.9396125, "is_reserved": 0, "is_disabled": 0, "fusion_lon": 0.0, "bike_id": "65430b7f25c4cf8db44f3568b54d16bb", "lon": -77.02748866666667, "rental_uris": {"ios": "https://dc.lft.to/lastmile_qr_scan", "android": "https://dc.lft.to/lastmile_qr_scan"}}, {"name": "1b3dd7a8f36b08ec7317e9b45119560d", "fusion_lat": 0.0, "type": "electric_scooter", "lat": 38.89222516666667, "is_reserved": 0, "is_disabled": 0, "fusion_lon": 0.0, "bike_id": "1b3dd7a8f36b08ec7317e9b45119560d", "lon": -77.0450885, "rental_uris": {"ios": "https://dc.lft.to/lastmile_qr_scan", "android": "https://dc.lft.to/lastmile_qr_scan"}}, {"name": "74b676f6ca6bd0d0007b949d84d1c372", "fusion_lat": 0.0, "type": "electric_scooter", "lat": 38.88384516666667, "is_reserved": 0, "is_disabled": 0, "fusion_lon": 0.0, "bike_id": "74b676f6ca6bd0d0007b949d84d1c372", "lon": -76.98552783333334, "rental_uris": {"ios": "https://dc.lft.to/lastmile_qr_scan", "android": "https://dc.lft.to/lastmile_qr_scan"}}, {"name": "d81ee5681800bbc8998e979be6ec0171", "fusion_lat": 0.0, "type": "electric_scooter", "lat": 38.90258466666667, "is_reserved": 0, "is_disabled": 0, "fusion_lon": 0.0, "bike_id": "d81ee5681800bbc8998e979be6ec0171", "lon": -77.04572383333333, "rental_uris": {"ios": "https://dc.lft.to/lastmile_qr_scan", "android": "https://dc.lft.to/lastmile_qr_scan"}}, {"name": "9e180abe0b9ce610ca19b919e7cf1ddd", "fusion_lat": 0.0, "type": "electric_scooter", "lat": 38.925274333333334, "is_reserved": 0, "is_disabled": 0, "fusion_lon": 0.0, "bike_id": "9e180abe0b9ce610ca19b919e7cf1ddd", "lon": -77.03218433333333, "rental_uris": {"ios": "https://dc.lft.to/lastmile_qr_scan", "android": "https://dc.lft.to/lastmile_qr_scan"}}, {"name": "0854f0623d18ee6b128c623bbe8e423e", "fusion_lat": 0.0, "type": "electric_scooter", "lat": 38.90761366666667, "is_reserved": 0, "is_disabled": 0, "fusion_lon": 0.0, "bike_id": "0854f0623d18ee6b128c623bbe8e423e", "lon": -77.03582016666667, "rental_uris": {"ios": "https://dc.lft.to/lastmile_qr_scan", "android": "https://dc.lft.to/lastmile_qr_scan"}}, {"name": "9b3f7d9c1fa26a363b4499f8fafac3f4", "fusion_lat": 0.0, "type": "electric_scooter", "lat": 38.896556333333336, "is_reserved": 0, "is_disabled": 0, "fusion_lon": 0.0, "bike_id": "9b3f7d9c1fa26a363b4499f8fafac3f4", "lon": -77.0503045, "rental_uris": {"ios": "https://dc.lft.to/lastmile_qr_scan", "android": "https://dc.lft.to/lastmile_qr_scan"}}, {"name": "df9489cefaf802cd64c9cccbe1950112", "fusion_lat": 0.0, "type": "electric_scooter", "lat": 38.936879166666664, "is_reserved": 0, "is_disabled": 0, "fusion_lon": 0.0, "bike_id": "df9489cefaf802cd64c9cccbe1950112", "lon": -77.032874, "rental_uris": {"ios": "https://dc.lft.to/lastmile_qr_scan", "android": "https://dc.lft.to/lastmile_qr_scan"}}, {"name": "4c7e83c666106b2f1e37a0eec45bf7a4", "fusion_lat": 0.0, "type": "electric_scooter", "lat": 38.984964833333336, "is_reserved": 0, "is_disabled": 0, "fusion_lon": 0.0, "bike_id": "4c7e83c666106b2f1e37a0eec45bf7a4", "lon": -77.0264895, "rental_uris": {"ios": "https://dc.lft.to/lastmile_qr_scan", "android": "https://dc.lft.to/lastmile_qr_scan"}}, {"name": "649caa632fa4947d6a96a5a183e379fe", "fusion_lat": 0.0, "type": "electric_bike", "lat": 38.85063233333333, "is_reserved": 0, "is_disabled": 0, "fusion_lon": 0.0, "bike_id": "649caa632fa4947d6a96a5a183e379fe", "lon": -76.973291, "rental_uris": {"ios": "https://dc.lft.to/lastmile_qr_scan", "android": "https://dc.lft.to/lastmile_qr_scan"}}, {"name": "d234ba2bfa121ea95542b2820b9cae4a", "fusion_lat": 0.0, "type": "electric_scooter", "lat": 38.920162166666664, "is_reserved": 0, "is_disabled": 0, "fusion_lon": 0.0, "bike_id": "d234ba2bfa121ea95542b2820b9cae4a", "lon": -77.03487233333334, "rental_uris": {"ios": "https://dc.lft.to/lastmile_qr_scan", "android": "https://dc.lft.to/lastmile_qr_scan"}}, {"name": "efd26b4d591c6674f6a0733909829999", "fusion_lat": 0.0, "type": "electric_scooter", "lat": 38.96178716666667, "is_reserved": 0, "is_disabled": 0, "fusion_lon": 0.0, "bike_id": "efd26b4d591c6674f6a0733909829999", "lon": -77.03225016666667, "rental_uris": {"ios": "https://dc.lft.to/lastmile_qr_scan", "android": "https://dc.lft.to/lastmile_qr_scan"}}, {"name": "b40ec5d97afebefa63d73085da04dd3a", "fusion_lat": 0.0, "type": "electric_scooter", "lat": 38.89612866666667, "is_reserved": 0, "is_disabled": 0, "fusion_lon": 0.0, "bike_id": "b40ec5d97afebefa63d73085da04dd3a", "lon": -77.04687616666666, "rental_uris": {"ios": "https://dc.lft.to/lastmile_qr_scan", "android": "https://dc.lft.to/lastmile_qr_scan"}}, {"name": "9b90141f08e329e28e5a83aa5648e706", "fusion_lat": 0.0, "type": "electric_bike", "lat": 38.919085333333335, "is_reserved": 0, "is_disabled": 0, "fusion_lon": 0.0, "bike_id": "9b90141f08e329e28e5a83aa5648e706", "lon": -77.00061516666666, "rental_uris": {"ios": "https://dc.lft.to/lastmile_qr_scan", "android": "https://dc.lft.to/lastmile_qr_scan"}}, {"name": "e1ee72cd2cfaf735022f8b46a6037634", "fusion_lat": 0.0, "type": "electric_bike", "lat": 38.883503, "is_reserved": 0, "is_disabled": 0, "fusion_lon": 0.0, "bike_id": "e1ee72cd2cfaf735022f8b46a6037634", "lon": -77.18289366666667, "rental_uris": {"ios": "https://dc.lft.to/lastmile_qr_scan", "android": "https://dc.lft.to/lastmile_qr_scan"}}, {"name": "bb1538f5d35c2ce58d8c5f3b157e5df7", "fusion_lat": 0.0, "type": "electric_scooter", "lat": 38.9201075, "is_reserved": 0, "is_disabled": 0, "fusion_lon": 0.0, "bike_id": "bb1538f5d35c2ce58d8c5f3b157e5df7", "lon": -77.081894, "rental_uris": {"ios": "https://dc.lft.to/lastmile_qr_scan", "android": "https://dc.lft.to/lastmile_qr_scan"}}, {"name": "f3d33902ef368e0be3410dbe5d51382a", "fusion_lat": 0.0, "type": "electric_scooter", "lat": 38.9043895, "is_reserved": 0, "is_disabled": 0, "fusion_lon": 0.0, "bike_id": "f3d33902ef368e0be3410dbe5d51382a", "lon": -77.01649116666667, "rental_uris": {"ios": "https://dc.lft.to/lastmile_qr_scan", "android": "https://dc.lft.to/lastmile_qr_scan"}}, {"name": "b5aacf59385cae0d24a94089594a4b65", "fusion_lat": 0.0, "type": "electric_scooter", "lat": 38.89369816666667, "is_reserved": 0, "is_disabled": 0, "fusion_lon": 0.0, "bike_id": "b5aacf59385cae0d24a94089594a4b65", "lon": -76.9500065, "rental_uris": {"ios": "https://dc.lft.to/lastmile_qr_scan", "android": "https://dc.lft.to/lastmile_qr_scan"}}, {"name": "2f78c88b2c01223e1229459e4a3dd151", "fusion_lat": 0.0, "type": "electric_scooter", "lat": 38.9272815, "is_reserved": 0, "is_disabled": 0, "fusion_lon": 0.0, "bike_id": "2f78c88b2c01223e1229459e4a3dd151", "lon": -77.0714055, "rental_uris": {"ios": "https://dc.lft.to/lastmile_qr_scan", "android": "https://dc.lft.to/lastmile_qr_scan"}}, {"name": "edabdd5be75e306efcb7007bf41d19db", "fusion_lat": 0.0, "type": "electric_scooter", "lat": 38.885953, "is_reserved": 0, "is_disabled": 0, "fusion_lon": 0.0, "bike_id": "edabdd5be75e306efcb7007bf41d19db", "lon": -77.02202066666666, "rental_uris": {"ios": "https://dc.lft.to/lastmile_qr_scan", "android": "https://dc.lft.to/lastmile_qr_scan"}}, {"name": "03df1afc6122c7cb48b414ad31dddec0", "fusion_lat": 0.0, "type": "electric_scooter", "lat": 38.90474316666667, "is_reserved": 0, "is_disabled": 0, "fusion_lon": 0.0, "bike_id": "03df1afc6122c7cb48b414ad31dddec0", "lon": -77.04166766666667, "rental_uris": {"ios": "https://dc.lft.to/lastmile_qr_scan", "android": "https://dc.lft.to/lastmile_qr_scan"}}, {"name": "34138f75ef53a977d8045ee8649d9017", "fusion_lat": 0.0, "type": "electric_scooter", "lat": 38.92508733333333, "is_reserved": 0, "is_disabled": 0, "fusion_lon": 0.0, "bike_id": "34138f75ef53a977d8045ee8649d9017", "lon": -77.0239555, "rental_uris": {"ios": "https://dc.lft.to/lastmile_qr_scan", "android": "https://dc.lft.to/lastmile_qr_scan"}}, {"name": "f792f75a9aaac39ab553627a4eeaee26", "fusion_lat": 0.0, "type": "electric_scooter", "lat": 38.895429666666665, "is_reserved": 0, "is_disabled": 0, "fusion_lon": 0.0, "bike_id": "f792f75a9aaac39ab553627a4eeaee26", "lon": -77.03094666666667, "rental_uris": {"ios": "https://dc.lft.to/lastmile_qr_scan", "android": "https://dc.lft.to/lastmile_qr_scan"}}, {"name": "ff902b11994e163e7a16d584a1c77eea", "fusion_lat": 0.0, "type": "electric_scooter", "lat": 38.90962316666667, "is_reserved": 0, "is_disabled": 0, "fusion_lon": 0.0, "bike_id": "ff902b11994e163e7a16d584a1c77eea", "lon": -77.0447075, "rental_uris": {"ios": "https://dc.lft.to/lastmile_qr_scan", "android": "https://dc.lft.to/lastmile_qr_scan"}}, {"name": "2b11cda8f5a18d206336db79a5cdbceb", "fusion_lat": 0.0, "type": "electric_scooter", "lat": 38.904668666666666, "is_reserved": 0, "is_disabled": 0, "fusion_lon": 0.0, "bike_id": "2b11cda8f5a18d206336db79a5cdbceb", "lon": -77.04187083333333, "rental_uris": {"ios": "https://dc.lft.to/lastmile_qr_scan", "android": "https://dc.lft.to/lastmile_qr_scan"}}, {"name": "5fb4e7984e249d072f3400b55596efc7", "fusion_lat": 0.0, "type": "electric_scooter", "lat": 38.90260166666667, "is_reserved": 0, "is_disabled": 0, "fusion_lon": 0.0, "bike_id": "5fb4e7984e249d072f3400b55596efc7", "lon": -77.032142, "rental_uris": {"ios": "https://dc.lft.to/lastmile_qr_scan", "android": "https://dc.lft.to/lastmile_qr_scan"}}, {"name": "d6f375ae77a956a1ab15de37c71db38d", "fusion_lat": 0.0, "type": "electric_scooter", "lat": 38.91804233333333, "is_reserved": 0, "is_disabled": 0, "fusion_lon": 0.0, "bike_id": "d6f375ae77a956a1ab15de37c71db38d", "lon": -77.01144566666666, "rental_uris": {"ios": "https://dc.lft.to/lastmile_qr_scan", "android": "https://dc.lft.to/lastmile_qr_scan"}}, {"name": "eba754d1fb65bd40819af05847d089a2", "fusion_lat": 0.0, "type": "electric_scooter", "lat": 38.89730766666667, "is_reserved": 0, "is_disabled": 0, "fusion_lon": 0.0, "bike_id": "eba754d1fb65bd40819af05847d089a2", "lon": -77.04653916666666, "rental_uris": {"ios": "https://dc.lft.to/lastmile_qr_scan", "android": "https://dc.lft.to/lastmile_qr_scan"}}, {"name": "b5bb13889536516a0dac61699344ae9e", "fusion_lat": 0.0, "type": "electric_scooter", "lat": 38.89656566666667, "is_reserved": 0, "is_disabled": 0, "fusion_lon": 0.0, "bike_id": "b5bb13889536516a0dac61699344ae9e", "lon": -77.04902183333333, "rental_uris": {"ios": "https://dc.lft.to/lastmile_qr_scan", "android": "https://dc.lft.to/lastmile_qr_scan"}}, {"name": "568fad8f26deec7e084c8ba76aaf23f0", "fusion_lat": 0.0, "type": "electric_scooter", "lat": 38.92425166666666, "is_reserved": 0, "is_disabled": 0, "fusion_lon": 0.0, "bike_id": "568fad8f26deec7e084c8ba76aaf23f0", "lon": -77.05175466666667, "rental_uris": {"ios": "https://dc.lft.to/lastmile_qr_scan", "android": "https://dc.lft.to/lastmile_qr_scan"}}, {"name": "8325a492f810fe631c5e774acc36b0c7", "fusion_lat": 0.0, "type": "electric_bike", "lat": 38.95364766666667, "is_reserved": 0, "is_disabled": 0, "fusion_lon": 0.0, "bike_id": "8325a492f810fe631c5e774acc36b0c7", "lon": -77.0885855, "rental_uris": {"ios": "https://dc.lft.to/lastmile_qr_scan", "android": "https://dc.lft.to/lastmile_qr_scan"}}, {"name": "c95059f314f9e0f705862aadbfc23c43", "fusion_lat": 0.0, "type": "electric_scooter", "lat": 38.89231066666667, "is_reserved": 0, "is_disabled": 0, "fusion_lon": 0.0, "bike_id": "c95059f314f9e0f705862aadbfc23c43", "lon": -77.04505066666667, "rental_uris": {"ios": "https://dc.lft.to/lastmile_qr_scan", "android": "https://dc.lft.to/lastmile_qr_scan"}}, {"name": "dd35b9559f889cc86792f73eb5bcea8c", "fusion_lat": 0.0, "type": "electric_scooter", "lat": 38.94976183333333, "is_reserved": 0, "is_disabled": 0, "fusion_lon": 0.0, "bike_id": "dd35b9559f889cc86792f73eb5bcea8c", "lon": -77.03498016666667, "rental_uris": {"ios": "https://dc.lft.to/lastmile_qr_scan", "android": "https://dc.lft.to/lastmile_qr_scan"}}, {"name": "b26c5ff873811f8496a83886e37fa2a4", "fusion_lat": 0.0, "type": "electric_scooter", "lat": 38.87647066666667, "is_reserved": 0, "is_disabled": 0, "fusion_lon": 0.0, "bike_id": "b26c5ff873811f8496a83886e37fa2a4", "lon": -77.01477283333334, "rental_uris": {"ios": "https://dc.lft.to/lastmile_qr_scan", "android": "https://dc.lft.to/lastmile_qr_scan"}}, {"name": "abc9cab8977e80f3f5b4720eb89bfb09", "fusion_lat": 0.0, "type": "electric_scooter", "lat": 38.92062466666667, "is_reserved": 0, "is_disabled": 0, "fusion_lon": 0.0, "bike_id": "abc9cab8977e80f3f5b4720eb89bfb09", "lon": -77.03470733333333, "rental_uris": {"ios": "https://dc.lft.to/lastmile_qr_scan", "android": "https://dc.lft.to/lastmile_qr_scan"}}, {"name": "118db93b386b928b7d9bde0cf2983943", "fusion_lat": 0.0, "type": "electric_scooter", "lat": 38.936328833333334, "is_reserved": 0, "is_disabled": 0, "fusion_lon": 0.0, "bike_id": "118db93b386b928b7d9bde0cf2983943", "lon": -77.03660916666666, "rental_uris": {"ios": "https://dc.lft.to/lastmile_qr_scan", "android": "https://dc.lft.to/lastmile_qr_scan"}}, {"name": "5fe6a65fee2036f4912049d856d78e4e", "fusion_lat": 0.0, "type": "electric_scooter", "lat": 38.90552566666667, "is_reserved": 0, "is_disabled": 0, "fusion_lon": 0.0, "bike_id": "5fe6a65fee2036f4912049d856d78e4e", "lon": -77.0371805, "rental_uris": {"ios": "https://dc.lft.to/lastmile_qr_scan", "android": "https://dc.lft.to/lastmile_qr_scan"}}, {"name": "e00d4332ad8e4384e1651d7b01ccfc97", "fusion_lat": 0.0, "type": "electric_scooter", "lat": 38.90029916666667, "is_reserved": 0, "is_disabled": 0, "fusion_lon": 0.0, "bike_id": "e00d4332ad8e4384e1651d7b01ccfc97", "lon": -76.99849516666667, "rental_uris": {"ios": "https://dc.lft.to/lastmile_qr_scan", "android": "https://dc.lft.to/lastmile_qr_scan"}}, {"name": "614a1ee1236d9f5e62a95cc71aee67a4", "fusion_lat": 0.0, "type": "electric_scooter", "lat": 38.91408916666666, "is_reserved": 0, "is_disabled": 0, "fusion_lon": 0.0, "bike_id": "614a1ee1236d9f5e62a95cc71aee67a4", "lon": -77.03102366666667, "rental_uris": {"ios": "https://dc.lft.to/lastmile_qr_scan", "android": "https://dc.lft.to/lastmile_qr_scan"}}, {"name": "84f634a92e6300442620a5574e0acefb", "fusion_lat": 0.0, "type": "electric_scooter", "lat": 38.86827383333333, "is_reserved": 0, "is_disabled": 0, "fusion_lon": 0.0, "bike_id": "84f634a92e6300442620a5574e0acefb", "lon": -76.98611583333333, "rental_uris": {"ios": "https://dc.lft.to/lastmile_qr_scan", "android": "https://dc.lft.to/lastmile_qr_scan"}}, {"name": "46ab69621931c35827a2b8c50fe3fe25", "fusion_lat": 0.0, "type": "electric_scooter", "lat": 38.91193166666667, "is_reserved": 0, "is_disabled": 0, "fusion_lon": 0.0, "bike_id": "46ab69621931c35827a2b8c50fe3fe25", "lon": -77.045031, "rental_uris": {"ios": "https://dc.lft.to/lastmile_qr_scan", "android": "https://dc.lft.to/lastmile_qr_scan"}}, {"name": "5d7f6abaf42906ee2a7f7daf828e97d4", "fusion_lat": 0.0, "type": "electric_scooter", "lat": 38.91593916666667, "is_reserved": 0, "is_disabled": 0, "fusion_lon": 0.0, "bike_id": "5d7f6abaf42906ee2a7f7daf828e97d4", "lon": -77.04255633333334, "rental_uris": {"ios": "https://dc.lft.to/lastmile_qr_scan", "android": "https://dc.lft.to/lastmile_qr_scan"}}, {"name": "77ce53c15952a06f7f5e9ec3af76c60f", "fusion_lat": 0.0, "type": "electric_scooter", "lat": 38.93871583333333, "is_reserved": 0, "is_disabled": 0, "fusion_lon": 0.0, "bike_id": "77ce53c15952a06f7f5e9ec3af76c60f", "lon": -77.022244, "rental_uris": {"ios": "https://dc.lft.to/lastmile_qr_scan", "android": "https://dc.lft.to/lastmile_qr_scan"}}, {"name": "e74bcbbc0b4281bb60457889d437d566", "fusion_lat": 0.0, "type": "electric_scooter", "lat": 38.954854, "is_reserved": 0, "is_disabled": 0, "fusion_lon": 0.0, "bike_id": "e74bcbbc0b4281bb60457889d437d566", "lon": -77.06984683333333, "rental_uris": {"ios": "https://dc.lft.to/lastmile_qr_scan", "android": "https://dc.lft.to/lastmile_qr_scan"}}, {"name": "e63502cf556cb957236be107c9d70942", "fusion_lat": 0.0, "type": "electric_scooter", "lat": 38.90239833333333, "is_reserved": 0, "is_disabled": 0, "fusion_lon": 0.0, "bike_id": "e63502cf556cb957236be107c9d70942", "lon": -77.00196766666667, "rental_uris": {"ios": "https://dc.lft.to/lastmile_qr_scan", "android": "https://dc.lft.to/lastmile_qr_scan"}}, {"name": "64b2bbdd1d4e279b3141c217d10138e9", "fusion_lat": 0.0, "type": "electric_scooter", "lat": 38.87865, "is_reserved": 0, "is_disabled": 0, "fusion_lon": 0.0, "bike_id": "64b2bbdd1d4e279b3141c217d10138e9", "lon": -76.96521016666667, "rental_uris": {"ios": "https://dc.lft.to/lastmile_qr_scan", "android": "https://dc.lft.to/lastmile_qr_scan"}}, {"name": "59708d818c239f5952e80b50c227186f", "fusion_lat": 0.0, "type": "electric_scooter", "lat": 38.90015733333333, "is_reserved": 0, "is_disabled": 0, "fusion_lon": 0.0, "bike_id": "59708d818c239f5952e80b50c227186f", "lon": -77.04676316666666, "rental_uris": {"ios": "https://dc.lft.to/lastmile_qr_scan", "android": "https://dc.lft.to/lastmile_qr_scan"}}, {"name": "6f3617c4f39f0d4b035f8d459e7bc48f", "fusion_lat": 0.0, "type": "electric_scooter", "lat": 38.90032333333333, "is_reserved": 0, "is_disabled": 0, "fusion_lon": 0.0, "bike_id": "6f3617c4f39f0d4b035f8d459e7bc48f", "lon": -76.99647016666667, "rental_uris": {"ios": "https://dc.lft.to/lastmile_qr_scan", "android": "https://dc.lft.to/lastmile_qr_scan"}}, {"name": "75b2651f92ad85ec9d40ca29333f0576", "fusion_lat": 0.0, "type": "electric_scooter", "lat": 38.91483683333333, "is_reserved": 0, "is_disabled": 0, "fusion_lon": 0.0, "bike_id": "75b2651f92ad85ec9d40ca29333f0576", "lon": -77.02185933333334, "rental_uris": {"ios": "https://dc.lft.to/lastmile_qr_scan", "android": "https://dc.lft.to/lastmile_qr_scan"}}, {"name": "f861c91ea5cf7ecd7f66470b33c29756", "fusion_lat": 0.0, "type": "electric_scooter", "lat": 38.91805516666667, "is_reserved": 0, "is_disabled": 0, "fusion_lon": 0.0, "bike_id": "f861c91ea5cf7ecd7f66470b33c29756", "lon": -77.02493033333333, "rental_uris": {"ios": "https://dc.lft.to/lastmile_qr_scan", "android": "https://dc.lft.to/lastmile_qr_scan"}}, {"name": "209b6220066874a78d714fc52792e141", "fusion_lat": 0.0, "type": "electric_scooter", "lat": 38.907041166666666, "is_reserved": 0, "is_disabled": 0, "fusion_lon": 0.0, "bike_id": "209b6220066874a78d714fc52792e141", "lon": -77.00766366666667, "rental_uris": {"ios": "https://dc.lft.to/lastmile_qr_scan", "android": "https://dc.lft.to/lastmile_qr_scan"}}, {"name": "8265a3adbf78c4217d7b72b73cbb857e", "fusion_lat": 0.0, "type": "electric_scooter", "lat": 38.90681033333333, "is_reserved": 0, "is_disabled": 0, "fusion_lon": 0.0, "bike_id": "8265a3adbf78c4217d7b72b73cbb857e", "lon": -77.036756, "rental_uris": {"ios": "https://dc.lft.to/lastmile_qr_scan", "android": "https://dc.lft.to/lastmile_qr_scan"}}, {"name": "6db850cc467f9e86e1abeabe480ec744", "fusion_lat": 0.0, "type": "electric_scooter", "lat": 38.92252533333333, "is_reserved": 0, "is_disabled": 0, "fusion_lon": 0.0, "bike_id": "6db850cc467f9e86e1abeabe480ec744", "lon": -77.07240283333333, "rental_uris": {"ios": "https://dc.lft.to/lastmile_qr_scan", "android": "https://dc.lft.to/lastmile_qr_scan"}}, {"name": "4f3d760d895c4fdba3de3b53c5525c1d", "fusion_lat": 0.0, "type": "electric_scooter", "lat": 38.90102, "is_reserved": 0, "is_disabled": 0, "fusion_lon": 0.0, "bike_id": "4f3d760d895c4fdba3de3b53c5525c1d", "lon": -77.0514025, "rental_uris": {"ios": "https://dc.lft.to/lastmile_qr_scan", "android": "https://dc.lft.to/lastmile_qr_scan"}}, {"name": "623c48fa58bebed5a73546228ac80497", "fusion_lat": 0.0, "type": "electric_scooter", "lat": 38.838368, "is_reserved": 0, "is_disabled": 0, "fusion_lon": 0.0, "bike_id": "623c48fa58bebed5a73546228ac80497", "lon": -76.99976916666667, "rental_uris": {"ios": "https://dc.lft.to/lastmile_qr_scan", "android": "https://dc.lft.to/lastmile_qr_scan"}}, {"name": "e400712edb3dac1fadcd5487cb814664", "fusion_lat": 0.0, "type": "electric_bike", "lat": 39.00005683333333, "is_reserved": 0, "is_disabled": 0, "fusion_lon": 0.0, "bike_id": "e400712edb3dac1fadcd5487cb814664", "lon": -76.99497816666667, "rental_uris": {"ios": "https://dc.lft.to/lastmile_qr_scan", "android": "https://dc.lft.to/lastmile_qr_scan"}}, {"name": "aecbe7e86897c586b27d5c944821e5fb", "fusion_lat": 0.0, "type": "electric_scooter", "lat": 38.90568733333333, "is_reserved": 0, "is_disabled": 0, "fusion_lon": 0.0, "bike_id": "aecbe7e86897c586b27d5c944821e5fb", "lon": -77.05708933333334, "rental_uris": {"ios": "https://dc.lft.to/lastmile_qr_scan", "android": "https://dc.lft.to/lastmile_qr_scan"}}, {"name": "faa0e62f342721a4ab1efb602bbad054", "fusion_lat": 0.0, "type": "electric_scooter", "lat": 38.93340366666666, "is_reserved": 0, "is_disabled": 0, "fusion_lon": 0.0, "bike_id": "faa0e62f342721a4ab1efb602bbad054", "lon": -77.08177933333333, "rental_uris": {"ios": "https://dc.lft.to/lastmile_qr_scan", "android": "https://dc.lft.to/lastmile_qr_scan"}}, {"name": "1c5639a7dce8334bc2bd5be288f7b7de", "fusion_lat": 0.0, "type": "electric_scooter", "lat": 38.869213, "is_reserved": 0, "is_disabled": 0, "fusion_lon": 0.0, "bike_id": "1c5639a7dce8334bc2bd5be288f7b7de", "lon": -76.97501283333334, "rental_uris": {"ios": "https://dc.lft.to/lastmile_qr_scan", "android": "https://dc.lft.to/lastmile_qr_scan"}}, {"name": "83821adbcb11a1699d5503743bc9cecf", "fusion_lat": 0.0, "type": "electric_bike", "lat": 38.945978333333336, "is_reserved": 0, "is_disabled": 0, "fusion_lon": 0.0, "bike_id": "83821adbcb11a1699d5503743bc9cecf", "lon": -77.34404833333333, "rental_uris": {"ios": "https://dc.lft.to/lastmile_qr_scan", "android": "https://dc.lft.to/lastmile_qr_scan"}}, {"name": "3d21e70be2ebf8843545a9e1bf96c3e4", "fusion_lat": 0.0, "type": "electric_scooter", "lat": 38.89720366666667, "is_reserved": 0, "is_disabled": 0, "fusion_lon": 0.0, "bike_id": "3d21e70be2ebf8843545a9e1bf96c3e4", "lon": -77.04738483333334, "rental_uris": {"ios": "https://dc.lft.to/lastmile_qr_scan", "android": "https://dc.lft.to/lastmile_qr_scan"}}, {"name": "50e365ce4cee3bdad16e375fd7ca7482", "fusion_lat": 0.0, "type": "electric_scooter", "lat": 38.89958016666667, "is_reserved": 0, "is_disabled": 0, "fusion_lon": 0.0, "bike_id": "50e365ce4cee3bdad16e375fd7ca7482", "lon": -76.99502083333333, "rental_uris": {"ios": "https://dc.lft.to/lastmile_qr_scan", "android": "https://dc.lft.to/lastmile_qr_scan"}}, {"name": "294d5dbe529a2c44a3edc70beabf1924", "fusion_lat": 0.0, "type": "electric_scooter", "lat": 38.89886416666667, "is_reserved": 0, "is_disabled": 0, "fusion_lon": 0.0, "bike_id": "294d5dbe529a2c44a3edc70beabf1924", "lon": -76.9317525, "rental_uris": {"ios": "https://dc.lft.to/lastmile_qr_scan", "android": "https://dc.lft.to/lastmile_qr_scan"}}, {"name": "15fccaeb65c48b6b1f30c0c6a3f3c2ae", "fusion_lat": 0.0, "type": "electric_scooter", "lat": 38.87919133333333, "is_reserved": 0, "is_disabled": 0, "fusion_lon": 0.0, "bike_id": "15fccaeb65c48b6b1f30c0c6a3f3c2ae", "lon": -77.02095316666667, "rental_uris": {"ios": "https://dc.lft.to/lastmile_qr_scan", "android": "https://dc.lft.to/lastmile_qr_scan"}}, {"name": "6179a39170ef51ef4366af3d32b7b8a4", "fusion_lat": 0.0, "type": "electric_scooter", "lat": 38.92492633333333, "is_reserved": 0, "is_disabled": 0, "fusion_lon": 0.0, "bike_id": "6179a39170ef51ef4366af3d32b7b8a4", "lon": -77.0522315, "rental_uris": {"ios": "https://dc.lft.to/lastmile_qr_scan", "android": "https://dc.lft.to/lastmile_qr_scan"}}, {"name": "7457a1962556a640cafc420af40025a8", "fusion_lat": 0.0, "type": "electric_bike", "lat": 38.88082083333333, "is_reserved": 0, "is_disabled": 0, "fusion_lon": 0.0, "bike_id": "7457a1962556a640cafc420af40025a8", "lon": -76.98532616666667, "rental_uris": {"ios": "https://dc.lft.to/lastmile_qr_scan", "android": "https://dc.lft.to/lastmile_qr_scan"}}, {"name": "704b2e8e9a027c7d62bc5b556e9b9c9e", "fusion_lat": 0.0, "type": "electric_bike", "lat": 39.03863033333333, "is_reserved": 0, "is_disabled": 0, "fusion_lon": 0.0, "bike_id": "704b2e8e9a027c7d62bc5b556e9b9c9e", "lon": -76.99027183333334, "rental_uris": {"ios": "https://dc.lft.to/lastmile_qr_scan", "android": "https://dc.lft.to/lastmile_qr_scan"}}, {"name": "9ed6df510e9e395c5591a90e8ba28ba8", "fusion_lat": 0.0, "type": "electric_scooter", "lat": 38.90570483333333, "is_reserved": 0, "is_disabled": 0, "fusion_lon": 0.0, "bike_id": "9ed6df510e9e395c5591a90e8ba28ba8", "lon": -77.025913, "rental_uris": {"ios": "https://dc.lft.to/lastmile_qr_scan", "android": "https://dc.lft.to/lastmile_qr_scan"}}, {"name": "e5cdf3b95235357c7c217a8fabed3335", "fusion_lat": 0.0, "type": "electric_scooter", "lat": 38.90944566666667, "is_reserved": 0, "is_disabled": 0, "fusion_lon": 0.0, "bike_id": "e5cdf3b95235357c7c217a8fabed3335", "lon": -77.027588, "rental_uris": {"ios": "https://dc.lft.to/lastmile_qr_scan", "android": "https://dc.lft.to/lastmile_qr_scan"}}, {"name": "1554aba9deb4a7e6c4912e93360a8385", "fusion_lat": 0.0, "type": "electric_scooter", "lat": 38.92138033333333, "is_reserved": 0, "is_disabled": 0, "fusion_lon": 0.0, "bike_id": "1554aba9deb4a7e6c4912e93360a8385", "lon": -77.03513, "rental_uris": {"ios": "https://dc.lft.to/lastmile_qr_scan", "android": "https://dc.lft.to/lastmile_qr_scan"}}, {"name": "c1b2736533767775ad6056232d4b35c0", "fusion_lat": 0.0, "type": "electric_scooter", "lat": 38.903526166666666, "is_reserved": 0, "is_disabled": 0, "fusion_lon": 0.0, "bike_id": "c1b2736533767775ad6056232d4b35c0", "lon": -77.05340033333333, "rental_uris": {"ios": "https://dc.lft.to/lastmile_qr_scan", "android": "https://dc.lft.to/lastmile_qr_scan"}}, {"name": "c5d1698f071829ed2202607953a60b94", "fusion_lat": 0.0, "type": "electric_scooter", "lat": 38.91283466666667, "is_reserved": 0, "is_disabled": 0, "fusion_lon": 0.0, "bike_id": "c5d1698f071829ed2202607953a60b94", "lon": -76.93789666666666, "rental_uris": {"ios": "https://dc.lft.to/lastmile_qr_scan", "android": "https://dc.lft.to/lastmile_qr_scan"}}, {"name": "9c8cf496d580db8e582bc93116a08fe3", "fusion_lat": 0.0, "type": "electric_scooter", "lat": 38.892208333333336, "is_reserved": 0, "is_disabled": 0, "fusion_lon": 0.0, "bike_id": "9c8cf496d580db8e582bc93116a08fe3", "lon": -77.0222805, "rental_uris": {"ios": "https://dc.lft.to/lastmile_qr_scan", "android": "https://dc.lft.to/lastmile_qr_scan"}}, {"name": "5bdd06d6cf0c6239ae8ba7ce236f5c29", "fusion_lat": 0.0, "type": "electric_scooter", "lat": 38.92480283333333, "is_reserved": 0, "is_disabled": 0, "fusion_lon": 0.0, "bike_id": "5bdd06d6cf0c6239ae8ba7ce236f5c29", "lon": -77.03002283333333, "rental_uris": {"ios": "https://dc.lft.to/lastmile_qr_scan", "android": "https://dc.lft.to/lastmile_qr_scan"}}, {"name": "88c138e185bcd9db5ec57418c466eb87", "fusion_lat": 0.0, "type": "electric_scooter", "lat": 38.8997035, "is_reserved": 0, "is_disabled": 0, "fusion_lon": 0.0, "bike_id": "88c138e185bcd9db5ec57418c466eb87", "lon": -77.03920583333333, "rental_uris": {"ios": "https://dc.lft.to/lastmile_qr_scan", "android": "https://dc.lft.to/lastmile_qr_scan"}}, {"name": "cba53badd081445ae2548890a662115d", "fusion_lat": 0.0, "type": "electric_scooter", "lat": 38.91691766666667, "is_reserved": 0, "is_disabled": 0, "fusion_lon": 0.0, "bike_id": "cba53badd081445ae2548890a662115d", "lon": -77.02607316666666, "rental_uris": {"ios": "https://dc.lft.to/lastmile_qr_scan", "android": "https://dc.lft.to/lastmile_qr_scan"}}, {"name": "b90a1cc9b90b75e1e7ad20ed916936c2", "fusion_lat": 0.0, "type": "electric_scooter", "lat": 38.9259335, "is_reserved": 0, "is_disabled": 0, "fusion_lon": 0.0, "bike_id": "b90a1cc9b90b75e1e7ad20ed916936c2", "lon": -77.00852483333334, "rental_uris": {"ios": "https://dc.lft.to/lastmile_qr_scan", "android": "https://dc.lft.to/lastmile_qr_scan"}}, {"name": "68dbbfc56d12ac52e475eb33f3ba5aa1", "fusion_lat": 0.0, "type": "electric_scooter", "lat": 38.916723, "is_reserved": 0, "is_disabled": 0, "fusion_lon": 0.0, "bike_id": "68dbbfc56d12ac52e475eb33f3ba5aa1", "lon": -76.97887733333333, "rental_uris": {"ios": "https://dc.lft.to/lastmile_qr_scan", "android": "https://dc.lft.to/lastmile_qr_scan"}}, {"name": "57c6735474cddbecf0ce3ea957e72a34", "fusion_lat": 0.0, "type": "electric_scooter", "lat": 38.926493, "is_reserved": 0, "is_disabled": 0, "fusion_lon": 0.0, "bike_id": "57c6735474cddbecf0ce3ea957e72a34", "lon": -76.99550183333334, "rental_uris": {"ios": "https://dc.lft.to/lastmile_qr_scan", "android": "https://dc.lft.to/lastmile_qr_scan"}}, {"name": "580f0ae516ba231670e416978257cf86", "fusion_lat": 0.0, "type": "electric_scooter", "lat": 38.9303765, "is_reserved": 0, "is_disabled": 0, "fusion_lon": 0.0, "bike_id": "580f0ae516ba231670e416978257cf86", "lon": -77.08366433333333, "rental_uris": {"ios": "https://dc.lft.to/lastmile_qr_scan", "android": "https://dc.lft.to/lastmile_qr_scan"}}, {"name": "1cc81ac48c3d933978b6b3fccffb7f47", "fusion_lat": 0.0, "type": "electric_scooter", "lat": 38.918066833333334, "is_reserved": 0, "is_disabled": 0, "fusion_lon": 0.0, "bike_id": "1cc81ac48c3d933978b6b3fccffb7f47", "lon": -77.03201633333333, "rental_uris": {"ios": "https://dc.lft.to/lastmile_qr_scan", "android": "https://dc.lft.to/lastmile_qr_scan"}}, {"name": "4788b46ed86b4dba5d3b58a781ed88e3", "fusion_lat": 0.0, "type": "electric_bike", "lat": 38.888218, "is_reserved": 0, "is_disabled": 0, "fusion_lon": 0.0, "bike_id": "4788b46ed86b4dba5d3b58a781ed88e3", "lon": -77.127384, "rental_uris": {"ios": "https://dc.lft.to/lastmile_qr_scan", "android": "https://dc.lft.to/lastmile_qr_scan"}}, {"name": "5c97be3a9b6d63244953e83ad2d0b999", "fusion_lat": 0.0, "type": "electric_scooter", "lat": 38.90226333333333, "is_reserved": 0, "is_disabled": 0, "fusion_lon": 0.0, "bike_id": "5c97be3a9b6d63244953e83ad2d0b999", "lon": -77.05134733333334, "rental_uris": {"ios": "https://dc.lft.to/lastmile_qr_scan", "android": "https://dc.lft.to/lastmile_qr_scan"}}, {"name": "7ff0ffa4ababfab69e062c13ae9f7018", "fusion_lat": 0.0, "type": "electric_scooter", "lat": 38.89753283333334, "is_reserved": 0, "is_disabled": 0, "fusion_lon": 0.0, "bike_id": "7ff0ffa4ababfab69e062c13ae9f7018", "lon": -77.05142866666667, "rental_uris": {"ios": "https://dc.lft.to/lastmile_qr_scan", "android": "https://dc.lft.to/lastmile_qr_scan"}}, {"name": "71dbcd7ab1e6dddb6262862f1307bff8", "fusion_lat": 0.0, "type": "electric_scooter", "lat": 38.93899066666667, "is_reserved": 0, "is_disabled": 0, "fusion_lon": 0.0, "bike_id": "71dbcd7ab1e6dddb6262862f1307bff8", "lon": -77.01754533333333, "rental_uris": {"ios": "https://dc.lft.to/lastmile_qr_scan", "android": "https://dc.lft.to/lastmile_qr_scan"}}, {"name": "9dba1d16371de2660a19a38cd80e6a24", "fusion_lat": 0.0, "type": "electric_scooter", "lat": 38.91170533333333, "is_reserved": 0, "is_disabled": 0, "fusion_lon": 0.0, "bike_id": "9dba1d16371de2660a19a38cd80e6a24", "lon": -76.98775066666667, "rental_uris": {"ios": "https://dc.lft.to/lastmile_qr_scan", "android": "https://dc.lft.to/lastmile_qr_scan"}}, {"name": "ea5a3cf63b8df5c7097b63e14a45f5d2", "fusion_lat": 0.0, "type": "electric_scooter", "lat": 38.91556933333333, "is_reserved": 0, "is_disabled": 0, "fusion_lon": 0.0, "bike_id": "ea5a3cf63b8df5c7097b63e14a45f5d2", "lon": -77.032348, "rental_uris": {"ios": "https://dc.lft.to/lastmile_qr_scan", "android": "https://dc.lft.to/lastmile_qr_scan"}}, {"name": "12104e54ea0c53fcae1c2b884432b1f1", "fusion_lat": 0.0, "type": "electric_bike", "lat": 38.875284, "is_reserved": 0, "is_disabled": 0, "fusion_lon": 0.0, "bike_id": "12104e54ea0c53fcae1c2b884432b1f1", "lon": -77.19908666666667, "rental_uris": {"ios": "https://dc.lft.to/lastmile_qr_scan", "android": "https://dc.lft.to/lastmile_qr_scan"}}, {"name": "5f5ed020b6e84657a2d3a5d57c026056", "fusion_lat": 0.0, "type": "electric_scooter", "lat": 38.927251166666665, "is_reserved": 0, "is_disabled": 0, "fusion_lon": 0.0, "bike_id": "5f5ed020b6e84657a2d3a5d57c026056", "lon": -77.005631, "rental_uris": {"ios": "https://dc.lft.to/lastmile_qr_scan", "android": "https://dc.lft.to/lastmile_qr_scan"}}, {"name": "2854b06b0b910ac07b89d95e900f9970", "fusion_lat": 0.0, "type": "electric_bike", "lat": 39.09459916666667, "is_reserved": 0, "is_disabled": 0, "fusion_lon": 0.0, "bike_id": "2854b06b0b910ac07b89d95e900f9970", "lon": -77.14996866666667, "rental_uris": {"ios": "https://dc.lft.to/lastmile_qr_scan", "android": "https://dc.lft.to/lastmile_qr_scan"}}, {"name": "10cad5815fbf4b03ce4c50239565714a", "fusion_lat": 0.0, "type": "electric_scooter", "lat": 38.9006765, "is_reserved": 0, "is_disabled": 0, "fusion_lon": 0.0, "bike_id": "10cad5815fbf4b03ce4c50239565714a", "lon": -77.04884766666666, "rental_uris": {"ios": "https://dc.lft.to/lastmile_qr_scan", "android": "https://dc.lft.to/lastmile_qr_scan"}}, {"name": "fe225ab0081d1f6ba2f38b96e59707d2", "fusion_lat": 0.0, "type": "electric_scooter", "lat": 38.915669333333334, "is_reserved": 0, "is_disabled": 0, "fusion_lon": 0.0, "bike_id": "fe225ab0081d1f6ba2f38b96e59707d2", "lon": -77.0316125, "rental_uris": {"ios": "https://dc.lft.to/lastmile_qr_scan", "android": "https://dc.lft.to/lastmile_qr_scan"}}, {"name": "edd4e5ff4d1545369994cd0fb7023413", "fusion_lat": 0.0, "type": "electric_bike", "lat": 38.85785116666667, "is_reserved": 0, "is_disabled": 0, "fusion_lon": 0.0, "bike_id": "edd4e5ff4d1545369994cd0fb7023413", "lon": -77.0996585, "rental_uris": {"ios": "https://dc.lft.to/lastmile_qr_scan", "android": "https://dc.lft.to/lastmile_qr_scan"}}, {"name": "c8e08d14a5907e1ca64bd9d3b6b4b6eb", "fusion_lat": 0.0, "type": "electric_scooter", "lat": 38.899068166666666, "is_reserved": 0, "is_disabled": 0, "fusion_lon": 0.0, "bike_id": "c8e08d14a5907e1ca64bd9d3b6b4b6eb", "lon": -76.93374433333334, "rental_uris": {"ios": "https://dc.lft.to/lastmile_qr_scan", "android": "https://dc.lft.to/lastmile_qr_scan"}}, {"name": "cb32b3240ecbe9160ec1f6211daf6789", "fusion_lat": 0.0, "type": "electric_scooter", "lat": 38.918195, "is_reserved": 0, "is_disabled": 0, "fusion_lon": 0.0, "bike_id": "cb32b3240ecbe9160ec1f6211daf6789", "lon": -77.02789666666666, "rental_uris": {"ios": "https://dc.lft.to/lastmile_qr_scan", "android": "https://dc.lft.to/lastmile_qr_scan"}}, {"name": "3777ffcdcc047c505fe085e80fbb387d", "fusion_lat": 0.0, "type": "electric_scooter", "lat": 38.87624616666667, "is_reserved": 0, "is_disabled": 0, "fusion_lon": 0.0, "bike_id": "3777ffcdcc047c505fe085e80fbb387d", "lon": -77.0073695, "rental_uris": {"ios": "https://dc.lft.to/lastmile_qr_scan", "android": "https://dc.lft.to/lastmile_qr_scan"}}, {"name": "ada07905fcaf1f0ae011abcc129be58f", "fusion_lat": 0.0, "type": "electric_scooter", "lat": 38.88459016666667, "is_reserved": 0, "is_disabled": 0, "fusion_lon": 0.0, "bike_id": "ada07905fcaf1f0ae011abcc129be58f", "lon": -76.9246895, "rental_uris": {"ios": "https://dc.lft.to/lastmile_qr_scan", "android": "https://dc.lft.to/lastmile_qr_scan"}}, {"name": "2aa8513d8d2f02810533e40a060f1a4a", "fusion_lat": 0.0, "type": "electric_scooter", "lat": 38.916348666666664, "is_reserved": 0, "is_disabled": 0, "fusion_lon": 0.0, "bike_id": "2aa8513d8d2f02810533e40a060f1a4a", "lon": -77.0481285, "rental_uris": {"ios": "https://dc.lft.to/lastmile_qr_scan", "android": "https://dc.lft.to/lastmile_qr_scan"}}, {"name": "fab4b1cd62c1970b36135c02c09f294e", "fusion_lat": 0.0, "type": "electric_scooter", "lat": 38.879214166666664, "is_reserved": 0, "is_disabled": 0, "fusion_lon": 0.0, "bike_id": "fab4b1cd62c1970b36135c02c09f294e", "lon": -77.02106383333333, "rental_uris": {"ios": "https://dc.lft.to/lastmile_qr_scan", "android": "https://dc.lft.to/lastmile_qr_scan"}}, {"name": "4e9c64734120f458eec9682614dfd88d", "fusion_lat": 0.0, "type": "electric_bike", "lat": 38.86159966666666, "is_reserved": 0, "is_disabled": 0, "fusion_lon": 0.0, "bike_id": "4e9c64734120f458eec9682614dfd88d", "lon": -77.130938, "rental_uris": {"ios": "https://dc.lft.to/lastmile_qr_scan", "android": "https://dc.lft.to/lastmile_qr_scan"}}, {"name": "5c47281eabe1c73866b5b68d7ca8c749", "fusion_lat": 0.0, "type": "electric_scooter", "lat": 38.961778, "is_reserved": 0, "is_disabled": 0, "fusion_lon": 0.0, "bike_id": "5c47281eabe1c73866b5b68d7ca8c749", "lon": -77.03224516666667, "rental_uris": {"ios": "https://dc.lft.to/lastmile_qr_scan", "android": "https://dc.lft.to/lastmile_qr_scan"}}, {"name": "ca26fb0e3f12a54a808358841d50eb1c", "fusion_lat": 0.0, "type": "electric_bike", "lat": 38.96760283333333, "is_reserved": 0, "is_disabled": 0, "fusion_lon": 0.0, "bike_id": "ca26fb0e3f12a54a808358841d50eb1c", "lon": -77.091612, "rental_uris": {"ios": "https://dc.lft.to/lastmile_qr_scan", "android": "https://dc.lft.to/lastmile_qr_scan"}}, {"name": "a8651450aafca7ab34987d2ec9b31b66", "fusion_lat": 0.0, "type": "electric_scooter", "lat": 38.88336833333334, "is_reserved": 0, "is_disabled": 0, "fusion_lon": 0.0, "bike_id": "a8651450aafca7ab34987d2ec9b31b66", "lon": -77.02318666666666, "rental_uris": {"ios": "https://dc.lft.to/lastmile_qr_scan", "android": "https://dc.lft.to/lastmile_qr_scan"}}, {"name": "c36ac26fb8abc11e4aee3a951ec20358", "fusion_lat": 0.0, "type": "electric_scooter", "lat": 38.9055505, "is_reserved": 0, "is_disabled": 0, "fusion_lon": 0.0, "bike_id": "c36ac26fb8abc11e4aee3a951ec20358", "lon": -77.01815233333333, "rental_uris": {"ios": "https://dc.lft.to/lastmile_qr_scan", "android": "https://dc.lft.to/lastmile_qr_scan"}}, {"name": "d80d588ad93f035fc705ded95d83ea9d", "fusion_lat": 0.0, "type": "electric_scooter", "lat": 38.909562666666666, "is_reserved": 0, "is_disabled": 0, "fusion_lon": 0.0, "bike_id": "d80d588ad93f035fc705ded95d83ea9d", "lon": -77.02744316666667, "rental_uris": {"ios": "https://dc.lft.to/lastmile_qr_scan", "android": "https://dc.lft.to/lastmile_qr_scan"}}, {"name": "7a0552e18c8ac0ebc2d0efd485b1778f", "fusion_lat": 0.0, "type": "electric_scooter", "lat": 38.90238766666667, "is_reserved": 0, "is_disabled": 0, "fusion_lon": 0.0, "bike_id": "7a0552e18c8ac0ebc2d0efd485b1778f", "lon": -76.97406916666667, "rental_uris": {"ios": "https://dc.lft.to/lastmile_qr_scan", "android": "https://dc.lft.to/lastmile_qr_scan"}}, {"name": "4e6ed83fe8cda55687a27f31d68b17f3", "fusion_lat": 0.0, "type": "electric_scooter", "lat": 38.9013845, "is_reserved": 0, "is_disabled": 0, "fusion_lon": 0.0, "bike_id": "4e6ed83fe8cda55687a27f31d68b17f3", "lon": -77.03954666666667, "rental_uris": {"ios": "https://dc.lft.to/lastmile_qr_scan", "android": "https://dc.lft.to/lastmile_qr_scan"}}, {"name": "bbe721e64449a418e3835b210bed168f", "fusion_lat": 0.0, "type": "electric_bike", "lat": 38.90858933333333, "is_reserved": 0, "is_disabled": 0, "fusion_lon": 0.0, "bike_id": "bbe721e64449a418e3835b210bed168f", "lon": -77.040346, "rental_uris": {"ios": "https://dc.lft.to/lastmile_qr_scan", "android": "https://dc.lft.to/lastmile_qr_scan"}}, {"name": "29fd8eef5c269f5cb500a4d4ba58aa80", "fusion_lat": 0.0, "type": "electric_scooter", "lat": 38.9218275, "is_reserved": 0, "is_disabled": 0, "fusion_lon": 0.0, "bike_id": "29fd8eef5c269f5cb500a4d4ba58aa80", "lon": -77.02666033333334, "rental_uris": {"ios": "https://dc.lft.to/lastmile_qr_scan", "android": "https://dc.lft.to/lastmile_qr_scan"}}, {"name": "65512b63053fda45430a2fae19358588", "fusion_lat": 0.0, "type": "electric_scooter", "lat": 38.9173965, "is_reserved": 0, "is_disabled": 0, "fusion_lon": 0.0, "bike_id": "65512b63053fda45430a2fae19358588", "lon": -77.0363395, "rental_uris": {"ios": "https://dc.lft.to/lastmile_qr_scan", "android": "https://dc.lft.to/lastmile_qr_scan"}}, {"name": "6d6b968bb76752621ccb27a2efa7df1c", "fusion_lat": 0.0, "type": "electric_scooter", "lat": 38.914088666666665, "is_reserved": 0, "is_disabled": 0, "fusion_lon": 0.0, "bike_id": "6d6b968bb76752621ccb27a2efa7df1c", "lon": -77.008084, "rental_uris": {"ios": "https://dc.lft.to/lastmile_qr_scan", "android": "https://dc.lft.to/lastmile_qr_scan"}}, {"name": "6ba92ce39b7b06ed946542170429bffe", "fusion_lat": 0.0, "type": "electric_scooter", "lat": 38.91333683333333, "is_reserved": 0, "is_disabled": 0, "fusion_lon": 0.0, "bike_id": "6ba92ce39b7b06ed946542170429bffe", "lon": -77.00226583333334, "rental_uris": {"ios": "https://dc.lft.to/lastmile_qr_scan", "android": "https://dc.lft.to/lastmile_qr_scan"}}, {"name": "b46e88c5bb395fd69db0f99da98b8bfb", "fusion_lat": 0.0, "type": "electric_scooter", "lat": 38.8763495, "is_reserved": 0, "is_disabled": 0, "fusion_lon": 0.0, "bike_id": "b46e88c5bb395fd69db0f99da98b8bfb", "lon": -77.00836716666667, "rental_uris": {"ios": "https://dc.lft.to/lastmile_qr_scan", "android": "https://dc.lft.to/lastmile_qr_scan"}}, {"name": "008861eee14ac76e0da41fd3ae84618c", "fusion_lat": 0.0, "type": "electric_scooter", "lat": 38.92221383333333, "is_reserved": 0, "is_disabled": 0, "fusion_lon": 0.0, "bike_id": "008861eee14ac76e0da41fd3ae84618c", "lon": -77.02114633333333, "rental_uris": {"ios": "https://dc.lft.to/lastmile_qr_scan", "android": "https://dc.lft.to/lastmile_qr_scan"}}, {"name": "8e42a92524de56529f619bf8bc20626d", "fusion_lat": 0.0, "type": "electric_scooter", "lat": 38.91194933333333, "is_reserved": 0, "is_disabled": 0, "fusion_lon": 0.0, "bike_id": "8e42a92524de56529f619bf8bc20626d", "lon": -77.03213366666667, "rental_uris": {"ios": "https://dc.lft.to/lastmile_qr_scan", "android": "https://dc.lft.to/lastmile_qr_scan"}}, {"name": "2ff60deb5eea45d23b51f2ee18f36d42", "fusion_lat": 0.0, "type": "electric_scooter", "lat": 38.91797583333334, "is_reserved": 0, "is_disabled": 0, "fusion_lon": 0.0, "bike_id": "2ff60deb5eea45d23b51f2ee18f36d42", "lon": -77.04011283333334, "rental_uris": {"ios": "https://dc.lft.to/lastmile_qr_scan", "android": "https://dc.lft.to/lastmile_qr_scan"}}, {"name": "da56d06a33f142640bbd0dfdee4e2f21", "fusion_lat": 0.0, "type": "electric_scooter", "lat": 38.91491166666667, "is_reserved": 0, "is_disabled": 0, "fusion_lon": 0.0, "bike_id": "da56d06a33f142640bbd0dfdee4e2f21", "lon": -77.07492733333333, "rental_uris": {"ios": "https://dc.lft.to/lastmile_qr_scan", "android": "https://dc.lft.to/lastmile_qr_scan"}}, {"name": "e199ee11a3a517a5b30df01fd7edc343", "fusion_lat": 0.0, "type": "electric_scooter", "lat": 38.906394166666665, "is_reserved": 0, "is_disabled": 0, "fusion_lon": 0.0, "bike_id": "e199ee11a3a517a5b30df01fd7edc343", "lon": -77.00975133333333, "rental_uris": {"ios": "https://dc.lft.to/lastmile_qr_scan", "android": "https://dc.lft.to/lastmile_qr_scan"}}, {"name": "687887a2eeb901660572d88e362f8012", "fusion_lat": 0.0, "type": "electric_scooter", "lat": 38.9054895, "is_reserved": 0, "is_disabled": 0, "fusion_lon": 0.0, "bike_id": "687887a2eeb901660572d88e362f8012", "lon": -77.00621133333334, "rental_uris": {"ios": "https://dc.lft.to/lastmile_qr_scan", "android": "https://dc.lft.to/lastmile_qr_scan"}}, {"name": "d6cdbb448b2ced675112411889d0b177", "fusion_lat": 0.0, "type": "electric_scooter", "lat": 38.892184666666665, "is_reserved": 0, "is_disabled": 0, "fusion_lon": 0.0, "bike_id": "d6cdbb448b2ced675112411889d0b177", "lon": -77.02228183333334, "rental_uris": {"ios": "https://dc.lft.to/lastmile_qr_scan", "android": "https://dc.lft.to/lastmile_qr_scan"}}, {"name": "8ed4b6f54a195f61501830bd10ca2915", "fusion_lat": 0.0, "type": "electric_scooter", "lat": 38.918088, "is_reserved": 0, "is_disabled": 0, "fusion_lon": 0.0, "bike_id": "8ed4b6f54a195f61501830bd10ca2915", "lon": -77.03200783333334, "rental_uris": {"ios": "https://dc.lft.to/lastmile_qr_scan", "android": "https://dc.lft.to/lastmile_qr_scan"}}, {"name": "b98e0357f27a235b4902194075f83879", "fusion_lat": 0.0, "type": "electric_scooter", "lat": 38.86143666666667, "is_reserved": 0, "is_disabled": 0, "fusion_lon": 0.0, "bike_id": "b98e0357f27a235b4902194075f83879", "lon": -76.96795533333334, "rental_uris": {"ios": "https://dc.lft.to/lastmile_qr_scan", "android": "https://dc.lft.to/lastmile_qr_scan"}}, {"name": "64c733db17228dfef8959f9e0dbaa1ec", "fusion_lat": 0.0, "type": "electric_scooter", "lat": 38.90494366666667, "is_reserved": 0, "is_disabled": 0, "fusion_lon": 0.0, "bike_id": "64c733db17228dfef8959f9e0dbaa1ec", "lon": -77.029257, "rental_uris": {"ios": "https://dc.lft.to/lastmile_qr_scan", "android": "https://dc.lft.to/lastmile_qr_scan"}}, {"name": "a2451ce0a21d5ac4dd45ac9b2dc33a6a", "fusion_lat": 0.0, "type": "electric_scooter", "lat": 38.9213885, "is_reserved": 0, "is_disabled": 0, "fusion_lon": 0.0, "bike_id": "a2451ce0a21d5ac4dd45ac9b2dc33a6a", "lon": -77.04500966666667, "rental_uris": {"ios": "https://dc.lft.to/lastmile_qr_scan", "android": "https://dc.lft.to/lastmile_qr_scan"}}, {"name": "1bfd37a0008eb7a1dae69ad82f44f954", "fusion_lat": 0.0, "type": "electric_scooter", "lat": 38.923777666666666, "is_reserved": 0, "is_disabled": 0, "fusion_lon": 0.0, "bike_id": "1bfd37a0008eb7a1dae69ad82f44f954", "lon": -76.99023883333334, "rental_uris": {"ios": "https://dc.lft.to/lastmile_qr_scan", "android": "https://dc.lft.to/lastmile_qr_scan"}}, {"name": "132a9e2a0581d31d00fe326181c24e82", "fusion_lat": 0.0, "type": "electric_scooter", "lat": 38.922476333333336, "is_reserved": 0, "is_disabled": 0, "fusion_lon": 0.0, "bike_id": "132a9e2a0581d31d00fe326181c24e82", "lon": -77.02799533333334, "rental_uris": {"ios": "https://dc.lft.to/lastmile_qr_scan", "android": "https://dc.lft.to/lastmile_qr_scan"}}, {"name": "91ac969d7d739c6dae8853e5a44c0bff", "fusion_lat": 0.0, "type": "electric_bike", "lat": 38.852403833333334, "is_reserved": 0, "is_disabled": 0, "fusion_lon": 0.0, "bike_id": "91ac969d7d739c6dae8853e5a44c0bff", "lon": -77.11426033333333, "rental_uris": {"ios": "https://dc.lft.to/lastmile_qr_scan", "android": "https://dc.lft.to/lastmile_qr_scan"}}, {"name": "bc3346dcc1660ea6da5e49fc2793fb8f", "fusion_lat": 0.0, "type": "electric_scooter", "lat": 38.90533033333333, "is_reserved": 0, "is_disabled": 0, "fusion_lon": 0.0, "bike_id": "bc3346dcc1660ea6da5e49fc2793fb8f", "lon": -77.00565683333333, "rental_uris": {"ios": "https://dc.lft.to/lastmile_qr_scan", "android": "https://dc.lft.to/lastmile_qr_scan"}}, {"name": "f0a4f1aba29eba2473117a9929c654bb", "fusion_lat": 0.0, "type": "electric_bike", "lat": 38.884243166666664, "is_reserved": 0, "is_disabled": 0, "fusion_lon": 0.0, "bike_id": "f0a4f1aba29eba2473117a9929c654bb", "lon": -76.95758133333334, "rental_uris": {"ios": "https://dc.lft.to/lastmile_qr_scan", "android": "https://dc.lft.to/lastmile_qr_scan"}}, {"name": "bbd22e81b483a8af141b8801a8fac6ed", "fusion_lat": 0.0, "type": "electric_bike", "lat": 38.992317666666665, "is_reserved": 0, "is_disabled": 0, "fusion_lon": 0.0, "bike_id": "bbd22e81b483a8af141b8801a8fac6ed", "lon": -76.87820433333333, "rental_uris": {"ios": "https://dc.lft.to/lastmile_qr_scan", "android": "https://dc.lft.to/lastmile_qr_scan"}}, {"name": "75f125167e8e0a0fc573a7576896fbe5", "fusion_lat": 0.0, "type": "electric_scooter", "lat": 38.923564, "is_reserved": 0, "is_disabled": 0, "fusion_lon": 0.0, "bike_id": "75f125167e8e0a0fc573a7576896fbe5", "lon": -77.05059766666666, "rental_uris": {"ios": "https://dc.lft.to/lastmile_qr_scan", "android": "https://dc.lft.to/lastmile_qr_scan"}}, {"name": "0a6ab407561a48644cd0b9de122b7763", "fusion_lat": 0.0, "type": "electric_bike", "lat": 38.949112166666666, "is_reserved": 0, "is_disabled": 0, "fusion_lon": 0.0, "bike_id": "0a6ab407561a48644cd0b9de122b7763", "lon": -77.00841566666666, "rental_uris": {"ios": "https://dc.lft.to/lastmile_qr_scan", "android": "https://dc.lft.to/lastmile_qr_scan"}}, {"name": "8d5143239134f6d24146450b6f83b1d4", "fusion_lat": 0.0, "type": "electric_bike", "lat": 38.9052195, "is_reserved": 0, "is_disabled": 0, "fusion_lon": 0.0, "bike_id": "8d5143239134f6d24146450b6f83b1d4", "lon": -77.071921, "rental_uris": {"ios": "https://dc.lft.to/lastmile_qr_scan", "android": "https://dc.lft.to/lastmile_qr_scan"}}, {"name": "dae73ea16ea63cef2373a78b4649f514", "fusion_lat": 0.0, "type": "electric_scooter", "lat": 38.872646, "is_reserved": 0, "is_disabled": 0, "fusion_lon": 0.0, "bike_id": "dae73ea16ea63cef2373a78b4649f514", "lon": -77.01523633333333, "rental_uris": {"ios": "https://dc.lft.to/lastmile_qr_scan", "android": "https://dc.lft.to/lastmile_qr_scan"}}, {"name": "5cf695ade576a458123de87fc7267ee9", "fusion_lat": 0.0, "type": "electric_scooter", "lat": 38.903342, "is_reserved": 0, "is_disabled": 0, "fusion_lon": 0.0, "bike_id": "5cf695ade576a458123de87fc7267ee9", "lon": -76.94671316666667, "rental_uris": {"ios": "https://dc.lft.to/lastmile_qr_scan", "android": "https://dc.lft.to/lastmile_qr_scan"}}, {"name": "a1176b3f78d2169ac033370886eac73f", "fusion_lat": 0.0, "type": "electric_bike", "lat": 38.94364266666667, "is_reserved": 0, "is_disabled": 0, "fusion_lon": 0.0, "bike_id": "a1176b3f78d2169ac033370886eac73f", "lon": -77.0034555, "rental_uris": {"ios": "https://dc.lft.to/lastmile_qr_scan", "android": "https://dc.lft.to/lastmile_qr_scan"}}, {"name": "b3a9d42d42424292135a7f204a5c27b2", "fusion_lat": 0.0, "type": "electric_scooter", "lat": 38.91191166666667, "is_reserved": 0, "is_disabled": 0, "fusion_lon": 0.0, "bike_id": "b3a9d42d42424292135a7f204a5c27b2", "lon": -77.03188683333333, "rental_uris": {"ios": "https://dc.lft.to/lastmile_qr_scan", "android": "https://dc.lft.to/lastmile_qr_scan"}}, {"name": "c64464623c6ec82ddb570c7bb55d4c74", "fusion_lat": 0.0, "type": "electric_scooter", "lat": 38.8580745, "is_reserved": 0, "is_disabled": 0, "fusion_lon": 0.0, "bike_id": "c64464623c6ec82ddb570c7bb55d4c74", "lon": -76.98656383333334, "rental_uris": {"ios": "https://dc.lft.to/lastmile_qr_scan", "android": "https://dc.lft.to/lastmile_qr_scan"}}, {"name": "dea9bb29025e88ad672dfbc9977188d3", "fusion_lat": 0.0, "type": "electric_scooter", "lat": 38.851575833333335, "is_reserved": 0, "is_disabled": 0, "fusion_lon": 0.0, "bike_id": "dea9bb29025e88ad672dfbc9977188d3", "lon": -76.98802983333333, "rental_uris": {"ios": "https://dc.lft.to/lastmile_qr_scan", "android": "https://dc.lft.to/lastmile_qr_scan"}}, {"name": "9f7410d791bd450eb8edd5b5ca506b42", "fusion_lat": 0.0, "type": "electric_scooter", "lat": 38.93826333333333, "is_reserved": 0, "is_disabled": 0, "fusion_lon": 0.0, "bike_id": "9f7410d791bd450eb8edd5b5ca506b42", "lon": -77.0246205, "rental_uris": {"ios": "https://dc.lft.to/lastmile_qr_scan", "android": "https://dc.lft.to/lastmile_qr_scan"}}, {"name": "2a9cfe2a2be3559d87f4bbfdc57c228b", "fusion_lat": 0.0, "type": "electric_scooter", "lat": 38.846820666666666, "is_reserved": 0, "is_disabled": 0, "fusion_lon": 0.0, "bike_id": "2a9cfe2a2be3559d87f4bbfdc57c228b", "lon": -76.99197966666667, "rental_uris": {"ios": "https://dc.lft.to/lastmile_qr_scan", "android": "https://dc.lft.to/lastmile_qr_scan"}}, {"name": "5f5ce39aef7c2313d6801b4bacc7d98c", "fusion_lat": 0.0, "type": "electric_scooter", "lat": 38.88314483333333, "is_reserved": 0, "is_disabled": 0, "fusion_lon": 0.0, "bike_id": "5f5ce39aef7c2313d6801b4bacc7d98c", "lon": -77.01661083333333, "rental_uris": {"ios": "https://dc.lft.to/lastmile_qr_scan", "android": "https://dc.lft.to/lastmile_qr_scan"}}, {"name": "13d45aa709c7fe48ef90ea72f084bb71", "fusion_lat": 0.0, "type": "electric_scooter", "lat": 38.8571545, "is_reserved": 0, "is_disabled": 0, "fusion_lon": 0.0, "bike_id": "13d45aa709c7fe48ef90ea72f084bb71", "lon": -76.98091566666666, "rental_uris": {"ios": "https://dc.lft.to/lastmile_qr_scan", "android": "https://dc.lft.to/lastmile_qr_scan"}}, {"name": "9ab03b150fc30bb14aab3133608d4f96", "fusion_lat": 0.0, "type": "electric_scooter", "lat": 38.9366835, "is_reserved": 0, "is_disabled": 0, "fusion_lon": 0.0, "bike_id": "9ab03b150fc30bb14aab3133608d4f96", "lon": -77.03633633333334, "rental_uris": {"ios": "https://dc.lft.to/lastmile_qr_scan", "android": "https://dc.lft.to/lastmile_qr_scan"}}, {"name": "12fc6e32847f0a59c4167ce538962542", "fusion_lat": 0.0, "type": "electric_bike", "lat": 38.881523666666666, "is_reserved": 0, "is_disabled": 0, "fusion_lon": 0.0, "bike_id": "12fc6e32847f0a59c4167ce538962542", "lon": -77.027435, "rental_uris": {"ios": "https://dc.lft.to/lastmile_qr_scan", "android": "https://dc.lft.to/lastmile_qr_scan"}}, {"name": "d2f20dd6c0e1417b2ec0ec4a81175932", "fusion_lat": 0.0, "type": "electric_scooter", "lat": 38.90030433333333, "is_reserved": 0, "is_disabled": 0, "fusion_lon": 0.0, "bike_id": "d2f20dd6c0e1417b2ec0ec4a81175932", "lon": -77.02397916666666, "rental_uris": {"ios": "https://dc.lft.to/lastmile_qr_scan", "android": "https://dc.lft.to/lastmile_qr_scan"}}, {"name": "bf6d6d5e6c33995eae6888c482ef7b9b", "fusion_lat": 0.0, "type": "electric_scooter", "lat": 38.898568166666664, "is_reserved": 0, "is_disabled": 0, "fusion_lon": 0.0, "bike_id": "bf6d6d5e6c33995eae6888c482ef7b9b", "lon": -76.97661516666666, "rental_uris": {"ios": "https://dc.lft.to/lastmile_qr_scan", "android": "https://dc.lft.to/lastmile_qr_scan"}}, {"name": "a6e4c11de67490c84fb2de7edda07ed1", "fusion_lat": 0.0, "type": "electric_bike", "lat": 38.990595, "is_reserved": 0, "is_disabled": 0, "fusion_lon": 0.0, "bike_id": "a6e4c11de67490c84fb2de7edda07ed1", "lon": -77.1002815, "rental_uris": {"ios": "https://dc.lft.to/lastmile_qr_scan", "android": "https://dc.lft.to/lastmile_qr_scan"}}, {"name": "64dd99785088ef900ef29fbbdfda3475", "fusion_lat": 0.0, "type": "electric_scooter", "lat": 38.96218266666666, "is_reserved": 0, "is_disabled": 0, "fusion_lon": 0.0, "bike_id": "64dd99785088ef900ef29fbbdfda3475", "lon": -77.02237666666667, "rental_uris": {"ios": "https://dc.lft.to/lastmile_qr_scan", "android": "https://dc.lft.to/lastmile_qr_scan"}}, {"name": "8d9ed3a543599ca04531d336d7ee65a6", "fusion_lat": 0.0, "type": "electric_scooter", "lat": 38.932676666666666, "is_reserved": 0, "is_disabled": 0, "fusion_lon": 0.0, "bike_id": "8d9ed3a543599ca04531d336d7ee65a6", "lon": -77.03894466666667, "rental_uris": {"ios": "https://dc.lft.to/lastmile_qr_scan", "android": "https://dc.lft.to/lastmile_qr_scan"}}, {"name": "35b0d1dbf701a1d2a35e60c5672f67cc", "fusion_lat": 0.0, "type": "electric_scooter", "lat": 38.9079955, "is_reserved": 0, "is_disabled": 0, "fusion_lon": 0.0, "bike_id": "35b0d1dbf701a1d2a35e60c5672f67cc", "lon": -77.04171033333333, "rental_uris": {"ios": "https://dc.lft.to/lastmile_qr_scan", "android": "https://dc.lft.to/lastmile_qr_scan"}}, {"name": "fc0044daa325aca69e7547a875a3f0f5", "fusion_lat": 0.0, "type": "electric_scooter", "lat": 38.8848835, "is_reserved": 0, "is_disabled": 0, "fusion_lon": 0.0, "bike_id": "fc0044daa325aca69e7547a875a3f0f5", "lon": -77.01583233333334, "rental_uris": {"ios": "https://dc.lft.to/lastmile_qr_scan", "android": "https://dc.lft.to/lastmile_qr_scan"}}, {"name": "1d9821ae765bd2240dfb46165b4467d6", "fusion_lat": 0.0, "type": "electric_scooter", "lat": 38.90592633333333, "is_reserved": 0, "is_disabled": 0, "fusion_lon": 0.0, "bike_id": "1d9821ae765bd2240dfb46165b4467d6", "lon": -77.01612433333334, "rental_uris": {"ios": "https://dc.lft.to/lastmile_qr_scan", "android": "https://dc.lft.to/lastmile_qr_scan"}}, {"name": "21b74770d7036356e499a2ee79ad95fb", "fusion_lat": 0.0, "type": "electric_scooter", "lat": 38.89743883333333, "is_reserved": 0, "is_disabled": 0, "fusion_lon": 0.0, "bike_id": "21b74770d7036356e499a2ee79ad95fb", "lon": -77.00917166666666, "rental_uris": {"ios": "https://dc.lft.to/lastmile_qr_scan", "android": "https://dc.lft.to/lastmile_qr_scan"}}, {"name": "cecbcfd6621d4db2179031ebc6e90d35", "fusion_lat": 0.0, "type": "electric_scooter", "lat": 38.8965245, "is_reserved": 0, "is_disabled": 0, "fusion_lon": 0.0, "bike_id": "cecbcfd6621d4db2179031ebc6e90d35", "lon": -77.00914716666666, "rental_uris": {"ios": "https://dc.lft.to/lastmile_qr_scan", "android": "https://dc.lft.to/lastmile_qr_scan"}}, {"name": "c98a10fd20841ddc56b6ca0f5f32bbef", "fusion_lat": 0.0, "type": "electric_scooter", "lat": 38.874759166666664, "is_reserved": 0, "is_disabled": 0, "fusion_lon": 0.0, "bike_id": "c98a10fd20841ddc56b6ca0f5f32bbef", "lon": -77.00616283333333, "rental_uris": {"ios": "https://dc.lft.to/lastmile_qr_scan", "android": "https://dc.lft.to/lastmile_qr_scan"}}, {"name": "ed0cff5d6e120c1d5db373f23dd8f073", "fusion_lat": 0.0, "type": "electric_bike", "lat": 38.88796883333333, "is_reserved": 0, "is_disabled": 0, "fusion_lon": 0.0, "bike_id": "ed0cff5d6e120c1d5db373f23dd8f073", "lon": -76.92992183333334, "rental_uris": {"ios": "https://dc.lft.to/lastmile_qr_scan", "android": "https://dc.lft.to/lastmile_qr_scan"}}, {"name": "ef0fe60de90a8a220ff2f9c3d23146d7", "fusion_lat": 0.0, "type": "electric_scooter", "lat": 38.90157216666667, "is_reserved": 0, "is_disabled": 0, "fusion_lon": 0.0, "bike_id": "ef0fe60de90a8a220ff2f9c3d23146d7", "lon": -77.0161285, "rental_uris": {"ios": "https://dc.lft.to/lastmile_qr_scan", "android": "https://dc.lft.to/lastmile_qr_scan"}}, {"name": "cf8603df027a3fc465923bfd229d4780", "fusion_lat": 0.0, "type": "electric_bike", "lat": 38.95686633333333, "is_reserved": 0, "is_disabled": 0, "fusion_lon": 0.0, "bike_id": "cf8603df027a3fc465923bfd229d4780", "lon": -77.02225416666667, "rental_uris": {"ios": "https://dc.lft.to/lastmile_qr_scan", "android": "https://dc.lft.to/lastmile_qr_scan"}}, {"name": "a1126b8e7c47ac699569882cdf73ac17", "fusion_lat": 0.0, "type": "electric_scooter", "lat": 38.87107433333333, "is_reserved": 0, "is_disabled": 0, "fusion_lon": 0.0, "bike_id": "a1126b8e7c47ac699569882cdf73ac17", "lon": -76.96597716666666, "rental_uris": {"ios": "https://dc.lft.to/lastmile_qr_scan", "android": "https://dc.lft.to/lastmile_qr_scan"}}, {"name": "9f8956d8925bb2e375cd4368a4412684", "fusion_lat": 0.0, "type": "electric_scooter", "lat": 38.89411166666667, "is_reserved": 0, "is_disabled": 0, "fusion_lon": 0.0, "bike_id": "9f8956d8925bb2e375cd4368a4412684", "lon": -76.93964916666667, "rental_uris": {"ios": "https://dc.lft.to/lastmile_qr_scan", "android": "https://dc.lft.to/lastmile_qr_scan"}}, {"name": "e7480d2d0da6271e334ae1c0c4d9aa13", "fusion_lat": 0.0, "type": "electric_bike", "lat": 38.93672733333333, "is_reserved": 0, "is_disabled": 0, "fusion_lon": 0.0, "bike_id": "e7480d2d0da6271e334ae1c0c4d9aa13", "lon": -76.95206883333333, "rental_uris": {"ios": "https://dc.lft.to/lastmile_qr_scan", "android": "https://dc.lft.to/lastmile_qr_scan"}}, {"name": "fe9334dfe278880b265ac6aa0787f16a", "fusion_lat": 0.0, "type": "electric_scooter", "lat": 38.90325516666667, "is_reserved": 0, "is_disabled": 0, "fusion_lon": 0.0, "bike_id": "fe9334dfe278880b265ac6aa0787f16a", "lon": -77.028883, "rental_uris": {"ios": "https://dc.lft.to/lastmile_qr_scan", "android": "https://dc.lft.to/lastmile_qr_scan"}}, {"name": "a2b61afaa1d30ebf132cef05efba12e5", "fusion_lat": 0.0, "type": "electric_scooter", "lat": 38.917719, "is_reserved": 0, "is_disabled": 0, "fusion_lon": 0.0, "bike_id": "a2b61afaa1d30ebf132cef05efba12e5", "lon": -77.02311533333334, "rental_uris": {"ios": "https://dc.lft.to/lastmile_qr_scan", "android": "https://dc.lft.to/lastmile_qr_scan"}}, {"name": "4f02ef305edc900c49e64405c1f652ac", "fusion_lat": 0.0, "type": "electric_scooter", "lat": 38.90026266666667, "is_reserved": 0, "is_disabled": 0, "fusion_lon": 0.0, "bike_id": "4f02ef305edc900c49e64405c1f652ac", "lon": -76.99852366666667, "rental_uris": {"ios": "https://dc.lft.to/lastmile_qr_scan", "android": "https://dc.lft.to/lastmile_qr_scan"}}, {"name": "9b62991794c1b5ff296827c52e990f91", "fusion_lat": 0.0, "type": "electric_scooter", "lat": 38.9051055, "is_reserved": 0, "is_disabled": 0, "fusion_lon": 0.0, "bike_id": "9b62991794c1b5ff296827c52e990f91", "lon": -77.06886733333333, "rental_uris": {"ios": "https://dc.lft.to/lastmile_qr_scan", "android": "https://dc.lft.to/lastmile_qr_scan"}}, {"name": "81aab83f7d9eb4367f6dbe3a45f9482a", "fusion_lat": 0.0, "type": "electric_scooter", "lat": 38.9367085, "is_reserved": 0, "is_disabled": 0, "fusion_lon": 0.0, "bike_id": "81aab83f7d9eb4367f6dbe3a45f9482a", "lon": -77.03633716666667, "rental_uris": {"ios": "https://dc.lft.to/lastmile_qr_scan", "android": "https://dc.lft.to/lastmile_qr_scan"}}, {"name": "f3eaa8171d4d47f59d7eae6aadf8dcb1", "fusion_lat": 0.0, "type": "electric_scooter", "lat": 38.93107066666666, "is_reserved": 0, "is_disabled": 0, "fusion_lon": 0.0, "bike_id": "f3eaa8171d4d47f59d7eae6aadf8dcb1", "lon": -77.03506916666667, "rental_uris": {"ios": "https://dc.lft.to/lastmile_qr_scan", "android": "https://dc.lft.to/lastmile_qr_scan"}}, {"name": "82a8553c09990d349f345067798ffbb8", "fusion_lat": 0.0, "type": "electric_scooter", "lat": 38.92780833333333, "is_reserved": 0, "is_disabled": 0, "fusion_lon": 0.0, "bike_id": "82a8553c09990d349f345067798ffbb8", "lon": -77.02786866666666, "rental_uris": {"ios": "https://dc.lft.to/lastmile_qr_scan", "android": "https://dc.lft.to/lastmile_qr_scan"}}, {"name": "d23dc368d116b4bf6b59d5d75d369548", "fusion_lat": 0.0, "type": "electric_scooter", "lat": 38.90889933333333, "is_reserved": 0, "is_disabled": 0, "fusion_lon": 0.0, "bike_id": "d23dc368d116b4bf6b59d5d75d369548", "lon": -77.04937666666666, "rental_uris": {"ios": "https://dc.lft.to/lastmile_qr_scan", "android": "https://dc.lft.to/lastmile_qr_scan"}}, {"name": "5299d89456678f1119ca0557b2a0f0cb", "fusion_lat": 0.0, "type": "electric_scooter", "lat": 38.9271505, "is_reserved": 0, "is_disabled": 0, "fusion_lon": 0.0, "bike_id": "5299d89456678f1119ca0557b2a0f0cb", "lon": -77.03736016666667, "rental_uris": {"ios": "https://dc.lft.to/lastmile_qr_scan", "android": "https://dc.lft.to/lastmile_qr_scan"}}, {"name": "7e937d5024240c25bc3e0c0459f7a6ed", "fusion_lat": 0.0, "type": "electric_scooter", "lat": 38.9112495, "is_reserved": 0, "is_disabled": 0, "fusion_lon": 0.0, "bike_id": "7e937d5024240c25bc3e0c0459f7a6ed", "lon": -77.04773816666666, "rental_uris": {"ios": "https://dc.lft.to/lastmile_qr_scan", "android": "https://dc.lft.to/lastmile_qr_scan"}}, {"name": "7563e12fb0866968cedfe358249ca496", "fusion_lat": 0.0, "type": "electric_bike", "lat": 38.853226, "is_reserved": 0, "is_disabled": 0, "fusion_lon": 0.0, "bike_id": "7563e12fb0866968cedfe358249ca496", "lon": -76.98009916666666, "rental_uris": {"ios": "https://dc.lft.to/lastmile_qr_scan", "android": "https://dc.lft.to/lastmile_qr_scan"}}, {"name": "792d986e7d94aefd4e40986b171a9aa1", "fusion_lat": 0.0, "type": "electric_bike", "lat": 38.858503, "is_reserved": 0, "is_disabled": 0, "fusion_lon": 0.0, "bike_id": "792d986e7d94aefd4e40986b171a9aa1", "lon": -77.0975555, "rental_uris": {"ios": "https://dc.lft.to/lastmile_qr_scan", "android": "https://dc.lft.to/lastmile_qr_scan"}}, {"name": "927fd79a7a09cc8c09903874853f202b", "fusion_lat": 0.0, "type": "electric_bike", "lat": 39.00015583333333, "is_reserved": 0, "is_disabled": 0, "fusion_lon": 0.0, "bike_id": "927fd79a7a09cc8c09903874853f202b", "lon": -77.01744066666667, "rental_uris": {"ios": "https://dc.lft.to/lastmile_qr_scan", "android": "https://dc.lft.to/lastmile_qr_scan"}}, {"name": "3a36bae2e530722bb256ea7340763ca8", "fusion_lat": 0.0, "type": "electric_scooter", "lat": 38.91778733333334, "is_reserved": 0, "is_disabled": 0, "fusion_lon": 0.0, "bike_id": "3a36bae2e530722bb256ea7340763ca8", "lon": -77.0234105, "rental_uris": {"ios": "https://dc.lft.to/lastmile_qr_scan", "android": "https://dc.lft.to/lastmile_qr_scan"}}, {"name": "6e7029b0e1f162ec4adc268964d1a7c0", "fusion_lat": 0.0, "type": "electric_scooter", "lat": 38.8923525, "is_reserved": 0, "is_disabled": 0, "fusion_lon": 0.0, "bike_id": "6e7029b0e1f162ec4adc268964d1a7c0", "lon": -77.01508583333333, "rental_uris": {"ios": "https://dc.lft.to/lastmile_qr_scan", "android": "https://dc.lft.to/lastmile_qr_scan"}}, {"name": "f17c6f7702c8c2c93b3e092c0d2eee64", "fusion_lat": 0.0, "type": "electric_scooter", "lat": 38.9396055, "is_reserved": 0, "is_disabled": 0, "fusion_lon": 0.0, "bike_id": "f17c6f7702c8c2c93b3e092c0d2eee64", "lon": -77.02750183333333, "rental_uris": {"ios": "https://dc.lft.to/lastmile_qr_scan", "android": "https://dc.lft.to/lastmile_qr_scan"}}, {"name": "c9dd5dcba2d219721d75b557a15e1d88", "fusion_lat": 0.0, "type": "electric_bike", "lat": 38.94922233333333, "is_reserved": 0, "is_disabled": 0, "fusion_lon": 0.0, "bike_id": "c9dd5dcba2d219721d75b557a15e1d88", "lon": -77.00793366666667, "rental_uris": {"ios": "https://dc.lft.to/lastmile_qr_scan", "android": "https://dc.lft.to/lastmile_qr_scan"}}, {"name": "62a1fb5124636c667b09d17ca4a58824", "fusion_lat": 0.0, "type": "electric_scooter", "lat": 38.93065383333333, "is_reserved": 0, "is_disabled": 0, "fusion_lon": 0.0, "bike_id": "62a1fb5124636c667b09d17ca4a58824", "lon": -77.02979266666667, "rental_uris": {"ios": "https://dc.lft.to/lastmile_qr_scan", "android": "https://dc.lft.to/lastmile_qr_scan"}}, {"name": "a80103938420ae944cf48f33d8184742", "fusion_lat": 0.0, "type": "electric_scooter", "lat": 38.927549, "is_reserved": 0, "is_disabled": 0, "fusion_lon": 0.0, "bike_id": "a80103938420ae944cf48f33d8184742", "lon": -77.02289666666667, "rental_uris": {"ios": "https://dc.lft.to/lastmile_qr_scan", "android": "https://dc.lft.to/lastmile_qr_scan"}},